"lineid","car","time","location","longitude","latitude","cityid","cityname"
"232017","290-BY","2019/08/12 08:24:26","新北市坪林區柑腳坑15號","121.772786666667","24.9468833333333","6502000","坪林區"
"232005","291-BY","2019/08/12 08:27:44","新北市坪林區鶯子瀨3-7號","121.705963333333","24.9141466666667","6502000","坪林區"
"232012","705-BZ","2019/08/12 08:27:45","新北市坪林區九芎根1號","121.672278333333","24.8928533333333","6502000","坪林區"
"232001","758-BX","2019/08/12 08:27:38","新北市坪林區大粗坑6-1號","121.732216666667","24.94824","6502000","坪林區"
"244006","080-UY","2019/08/12 08:27:49","新北市林口區湖子17號","121.385846666667","25.0908033333333","6501700","林口區"
"244001","248-BX","2019/08/12 08:27:43","新北市林口區下福里137-3號","121.297551666667","25.118565","6501700","林口區"
"244022","402-UM","2019/08/12 08:27:51","新北市林口區興林一街96巷2號","121.391531666667","25.0725033333333","6501700","林口區"
"244012","KEA-2802","2019/08/12 08:27:40","新北市林口區林口路46-2號","121.391146666667","25.0786133333333","6501700","林口區"
"244016","485-VK","2019/08/12 08:27:47","新北市林口區中山路73號","121.392665","25.078585","6501700","林口區"
"244008","656-BX","2019/08/12 08:27:45","新北市林口區中北三街61號","121.384738333333","25.08554","6501700","林口區"
"244010","657-BX","2019/08/12 08:27:49","新北市林口區中正路270號","121.389231666667","25.07775","6501700","林口區"
"244001","658-BX","2019/08/12 08:27:37","新北市林口區仁愛路二段235號","121.375601666667","25.0760416666667","6501700","林口區"
"244024","837-TS","2019/08/12 08:27:46","新北市林口區文化三路一段181號","121.362248333333","25.0700116666667","6501700","林口區"
"244020","838-TS","2019/08/12 08:27:43","新北市林口區東林街32號","121.395198333333","25.0794133333333","6501700","林口區"
"222004","289-BY","2019/08/12 08:27:46","新北市深坑區萬福路147號","121.611035","25.0163533333333","6501800","深坑區"
"231007","189-VK","2019/08/12 08:27:50","新北市新店區新潭路一段100-3號","121.52704","24.93802","6500600","新店區"
"231008","192-VK","2019/08/12 08:27:42","新北市新店區新烏路三段165巷39號","121.553441666667","24.9015516666667","6500600","新店區"
"226001","8452-VL","2019/08/12 08:27:43","新北市平溪區東勢里火燒寮6號","121.747001666667","25.0014283333333","6502400","平溪區"
"226003","AGD-0702","2019/08/12 08:27:49","新北市平溪區新寮里月桃寮路3-7號","121.786885","25.0533816666667","6502400","平溪區"
"223003","205-TH","2019/08/12 08:27:34","新北市石碇區北宜路六段塗潭巷27號","121.648615","24.93215","6501900","石碇區"
"223008","406-TH","2019/08/12 08:27:45","新北市石碇區串空湖9號","121.668481666667","25.002815","6501900","石碇區"
"223001","592-UM","2019/08/12 08:27:51","新北市石碇區北宜路六段塗潭巷28號","121.648648333333","24.9324633333333","6501900","石碇區"
"223004","660-BX","2019/08/12 08:27:44","新北市石碇區碇坪路一段79號","121.660473333333","24.9910966666667","6501900","石碇區"
"223007","661-BX","2019/08/12 08:27:35","新北市石碇區石碇子埔97-1號","121.667643333333","25.0062583333333","6501900","石碇區"
"223005","677-TV","2019/08/12 08:27:41","新北市石碇區碇坪路一段101號","121.66283","24.9896416666667","6501900","石碇區"
"227003","282-VK","2019/08/12 08:27:30","新北市雙溪區外柑里過溪3號","121.825246666667","25.0178733333333","6502500","雙溪區"
"252006","073-UM","2019/08/12 08:27:36","新北市三芝區後厝里大片頭64號","121.466058333333","25.2437","6502100","三芝區"
"252004","249-BX","2019/08/12 08:27:48","新北市三芝區興華里車埕9-1號","121.502225","25.2001033333333","6502100","三芝區"
"237014","760-BX","2019/08/12 08:27:40","新北市三峽區有木266號","121.427373333333","24.8551516666667","6500900","三峽區"
"226005","ANY-2373","2019/08/12 08:27:34","新北市平溪區南山里六分9號","121.796863333333","25.04991","6502400","平溪區"
"242059","986-R7","2019/08/12 08:27:39","新北市新莊區新樹路259-6號","121.434438333333","25.02122","6500500","新莊區"
"242001","751-BX","2019/08/12 08:27:35","新北市新莊區中正路145-22號","121.458526666667","25.0376683333333","6500500","新莊區"
"242028","615-BX","2019/08/12 08:27:49","新北市新莊區中平路188號","121.444793333333","25.0480966666667","6500500","新莊區"
"242026","613-BX","2019/08/12 08:27:47","新北市新莊區幸福路18號","121.459006666667","25.0494783333333","6500500","新莊區"
"242057","612-BX","2019/08/12 08:27:51","新北市新莊區雙鳳路134巷6號","121.412793333333","25.0281","6500500","新莊區"
"242045","566-BX","2019/08/12 08:27:48","新北市新莊區福營路167號","121.43186","25.031195","6500500","新莊區"
"242049","497-BY","2019/08/12 08:27:48","新北市新莊區民本街43巷21號","121.429045","25.01839","6500500","新莊區"
"242055","441-UM","2019/08/12 08:27:34","新北市新莊區豐年街124巷6弄1號","121.445886666667","25.029845","6500500","新莊區"
"242003","440-UM","2019/08/12 08:27:34","新北市新莊區福樂街72巷9號","121.458561666667","25.046645","6500500","新莊區"
"242040","415-TV","2019/08/12 08:27:41","新北市新莊區壽山路31號","121.419995","25.028965","6500500","新莊區"
"242010","413-TV","2019/08/12 08:27:37","新北市新莊區中榮街56巷10號","121.449208333333","25.0534683333333","6500500","新莊區"
"242047","400-BY","2019/08/12 08:27:41","新北市新莊區萬安街49號","121.42152","25.02466","6500500","新莊區"
"242024","362-BY","2019/08/12 08:27:50","新北市新莊區新北大道二段312號","121.463906666667","25.0611983333333","6500500","新莊區"
"242022","353-BY","2019/08/12 08:27:52","新北市新莊區幸福東路115號","121.461836666667","25.04944","6500500","新莊區"
"242012","132-UY","2019/08/12 08:27:42","新北市新莊區中和街127號","121.4473","25.04869","6500500","新莊區"
"242035","135-UY","2019/08/12 08:27:52","新北市新莊區建福路48巷10號","121.425948333333","25.0275266666667","6500500","新莊區"
"242052","172-VK","2019/08/12 08:27:53","新北市新莊區民安西路470-1號","121.431683333333","25.0078116666667","6500500","新莊區"
"242014","173-VK","2019/08/12 08:27:48","新北市新莊區中平路119巷19號","121.443948333333","25.0466566666667","6500500","新莊區"
"242020","175-VK","2019/08/12 08:27:35","新北市新莊區建興街54號","121.449975","25.0384683333333","6500500","新莊區"
"242018","KED-0687","2019/08/12 08:27:48","新北市新莊區民樂街8號","121.457661666667","25.03979","6500500","新莊區"
"242038","346-TH","2019/08/12 08:27:44","新北市新莊區民安西路22號","121.426678333333","25.0213316666667","6500500","新莊區"
"242033","348-TH","2019/08/12 08:27:46","新北市新莊區福海街12號","121.445311666667","25.0336466666667","6500500","新莊區"
"242006","349-TH","2019/08/12 08:27:54","新北市新莊區中華路二段88號","121.453701666667","25.04704","6500500","新莊區"
"242030","350-TH","2019/08/12 08:27:40","新北市新莊區新泰路277巷43弄1號","121.44412","25.040125","6500500","新莊區"
"242016","351-TH","2019/08/12 08:27:34","新北市新莊區中和街52號","121.448073333333","25.044565","6500500","新莊區"
"244018","KED-0667","2019/08/12 08:27:37","新北市林口區公園路191號","121.37191","25.07235","6501700","林口區"
"233003","KEA-2870","2019/08/12 08:27:43","新北市烏來區環山路18號","121.549281666667","24.868485","6502900","烏來區"
"242043","281-VK","2019/08/12 08:27:54","新北市新莊區雙鳳路157號","121.412883333333","25.0269683333333","6500500","新莊區"
"242008","280-VK","2019/08/12 08:27:52","新北市新莊區中華路二段290號","121.452506666667","25.0537916666667","6500500","新莊區"
