"lineid","car","time","location","longitude","latitude","cityid","cityname"
"244022","402-UM","2019/08/12 10:09:51","新北市林口區信義路220號","121.376873333333","25.0812933333333","6501700","林口區"
"244001","658-BX","2019/08/12 10:09:37","新北市林口區嘉寶里69號","121.335791666667","25.114","6501700","林口區"
"231007","189-VK","2019/08/12 09:40:49","新北市新店區新潭路三段215巷36號","121.509416666667","24.9043516666667","6500600","新店區"
"231008","192-VK","2019/08/12 10:09:22","新北市新店區小坑一路41號","121.527481666667","24.9103183333333","6500600","新店區"
"227003","282-VK","2019/08/12 10:01:50","新北市雙溪區泰平里灣潭路36號","121.811821666667","24.9286466666667","6502500","雙溪區"
"252004","249-BX","2019/08/12 10:09:48","新北市三芝區福德里埔尾7號","121.503641666667","25.24625","6502100","三芝區"
"252006","AAC-283","2019/08/12 10:09:54","新北市三芝區新庄里番社后16號","121.495686666667","25.2706816666667","6502100","三芝區"
"237014","760-BX","2019/08/12 10:09:40","新北市三峽區中山路459巷135號","121.348845","24.9330883333333","6500900","三峽區"
"242026","613-BX","2019/08/12 10:09:47","新北市新莊區新泰路357巷3弄57號","121.442275","25.03942","6500500","新莊區"
"242006","349-TH","2019/08/12 10:09:44","新北市樹林區中華路1-8號","121.425905","24.9845883333333","6500500","新莊區"
