"lineid","car","time","location","longitude","latitude","cityid","cityname"
"244022","402-UM","2019/08/12 10:19:51","新北市林口區文化三路二段77巷39號","121.373123333333","25.0803233333333","6501700","林口區"
"244001","658-BX","2019/08/12 10:19:37","新北市林口區嘉溪雅坑5-1號","121.34276","25.0994816666667","6501700","林口區"
"231008","192-VK","2019/08/12 10:19:42","新北市新店區廣興路80號","121.53888","24.912725","6500600","新店區"
"227003","282-VK","2019/08/12 10:01:50","新北市雙溪區泰平里灣潭路36號","121.811821666667","24.9286466666667","6502500","雙溪區"
"252006","AAC-283","2019/08/12 10:19:54","新北市三芝區新庄里番社后15-6號","121.499625","25.268205","6502100","三芝區"
"237014","760-BX","2019/08/12 10:10:43","新北市三峽區中山路459巷135號","121.348856666667","24.9330283333333","6500900","三峽區"
"242006","349-TH","2019/08/12 10:19:44","新北市新莊區新泰路357巷3弄45號","121.441925","25.04017","6500500","新莊區"
