"lineid","car","time","location","longitude","latitude","cityid","cityname"
"244022","402-UM","2019/08/12 10:29:51","新北市林口區文林六街32號","121.37157","25.0810783333333","6501700","林口區"
"244001","658-BX","2019/08/12 10:29:17","新北市林口區嘉寶里15-2號","121.352561666667","25.1055816666667","6501700","林口區"
"231007","189-VK","2019/08/12 10:29:36","新北市新店區新潭路三段215巷25號","121.508085","24.9040016666667","6500600","新店區"
"231008","192-VK","2019/08/12 10:29:42","新北市新店區新烏路三段220巷24號","121.545526666667","24.9039316666667","6500600","新店區"
"227003","282-VK","2019/08/12 10:01:50","新北市雙溪區泰平里灣潭路36號","121.811821666667","24.9286466666667","6502500","雙溪區"
"252006","AAC-283","2019/08/12 10:29:54","新北市三芝區新庄里番社后4-3號","121.501323333333","25.2677083333333","6502100","三芝區"
"237014","760-BX","2019/08/12 10:10:43","新北市三峽區中山路459巷135號","121.348856666667","24.9330283333333","6500900","三峽區"
"242006","349-TH","2019/08/12 10:29:44","新北市新莊區三和路12-21號","121.442365","25.038375","6500500","新莊區"
