"lineid","car","time","location","longitude","latitude","cityid","cityname"
"244022","402-UM","2019/08/12 10:39:51","新北市林口區民族路288號","121.370655","25.0788016666667","6501700","林口區"
"244001","658-BX","2019/08/12 10:39:57","新北市林口區寶斗厝坑15-2號","121.356863333333","25.1002283333333","6501700","林口區"
"231007","189-VK","2019/08/12 10:39:55","新北市新店區新潭路三段200號","121.506365","24.90486","6500600","新店區"
"231008","192-VK","2019/08/12 10:34:22","新北市新店區成功路45-1號","121.539573333333","24.8999033333333","6500600","新店區"
"237014","760-BX","2019/08/12 10:10:43","新北市三峽區中山路459巷135號","121.348856666667","24.9330283333333","6500900","三峽區"
