"lineid","car","time","location","longitude","latitude","cityid","cityname"
"234044","148-BY","2019/08/12 12:59:47","新北市永和區秀朗路二段148巷7弄2號","121.525241666667","25.0003933333333","6500400","永和區"
"234078","298-R6","2019/08/12 12:59:48","新北市永和區永貞路39巷13號","121.522353333333","25.00631","6500400","永和區"
"234036","336-UY","2019/08/12 12:59:50","新北市永和區成功路二段203號","121.526626666667","24.9960083333333","6500400","永和區"
"234062","337-UY","2019/08/12 12:59:43","新北市永和區秀朗路一段162號","121.518461666667","25.0034583333333","6500400","永和區"
"234084","338-UY","2019/08/12 12:59:38","新北市永和區永利路25號","121.518168333333","25.0059566666667","6500400","永和區"
"234068","552-UM","2019/08/12 12:59:51","新北市永和區中興街94號","121.518836666667","25.0119816666667","6500400","永和區"
"234015","745-BX","2019/08/12 12:59:49","新北市永和區永和路二段299號","121.51613","25.0161516666667","6500400","永和區"
"234028","746-BX","2019/08/12 12:59:43","新北市永和區得和路419號","121.525991666667","24.99924","6500400","永和區"
"234052","KEA-2590","2019/08/12 12:59:59","新北市永和區竹林路66巷2號","121.518308333333","25.0133366666667","6500400","永和區"
"234007","KED-0605","2019/08/12 12:59:42","新北市永和區永和路二段62號","121.515","25.01097","6500400","永和區"
"234012","KEA-2591","2019/08/12 12:59:56","新北市永和區信義路17巷16號","121.513508333333","25.0113116666667","6500400","永和區"
"234060","AAD-866","2019/08/12 12:59:53","新北市永和區福和路305號","121.516325","25.0072066666667","6500400","永和區"
"234040","862-TW","2019/08/12 12:59:47","新北市永和區永貞路308號","121.511811666667","25.0048933333333","6500400","永和區"
"234048","863-TW","2019/08/12 12:59:55","新北市永和區文化路194號","121.510771666667","25.0162133333333","6500400","永和區"
"234025","9371-KE","2019/08/12 12:59:55","新北市永和區水源街2巷14號","121.512323333333","25.0056366666667","6500400","永和區"
"234010","9373-KE","2019/08/12 12:59:57","新北市永和區文化路9巷22弄36號","121.514358333333","25.014595","6500400","永和區"
"248013","025-BX","2019/08/12 12:59:40","新北市五股區中興路三段163號","121.446726666667","25.0806033333333","6501500","五股區"
"248015","026-BX","2019/08/12 12:59:47","新北市五股區中興路二段83巷26-6號","121.459518333333","25.0752416666667","6501500","五股區"
"248005","077-UY","2019/08/12 12:59:48","新北市五股區中興路二段103巷14號","121.45833","25.0764533333333","6501500","五股區"
"248019","KED-0813","2019/08/12 12:59:58","新北市五股區中興路二段63巷17號","121.460326666667","25.0753133333333","6501500","五股區"
"248003","677-BX","2019/08/12 12:59:59","新北市五股區中興路二段182巷3號","121.45741","25.0783","6501500","五股區"
"248001","678-BX","2019/08/12 12:59:46","新北市五股區中興路二段83巷26-6號","121.460046666667","25.0753216666667","6501500","五股區"
"234022","9380-KE","2019/08/12 12:59:54","新北市永和區竹林路75巷25弄3號","121.520141666667","25.0139966666667","6500400","永和區"
"234076","969-R7","2019/08/12 12:59:56","新北市永和區民享街21號","121.515608333333","24.995035","6500400","永和區"
"234072","AAC-211","2019/08/12 12:59:52","新北市永和區豫溪街217巷11號","121.52455","25.0097633333333","6500400","永和區"
"234066","AAC-212","2019/08/12 12:59:41","新北市永和區自由街70-8號","121.513528333333","25.0055266666667","6500400","永和區"
"234001","AAC-295","2019/08/12 12:59:55","新北市永和區永平路20號","121.513531666667","25.00884","6500400","永和區"
"231005","046-UY","2019/08/12 12:59:45","新北市新店區安華路28-1號","121.5193","24.96075","6500600","新店區"
"231029","106-UY","2019/08/12 12:59:45","新北市新店區安華路28-1號","121.51961","24.9608233333333","6500600","新店區"
"231031","256-BX","2019/08/12 12:59:53","新北市新店區安一路一段1-1號","121.519691666667","24.9611216666667","6500600","新店區"
"231023","260-TV","2019/08/12 12:59:47","新北市新店區安一路一段1-1號","121.519418333333","24.961305","6500600","新店區"
"231003","268-BY","2019/08/12 12:59:56","新北市新店區安康路一段92-1號","121.527963333333","24.9621233333333","6500600","新店區"
"231014","AAD-862","2019/08/12 12:59:45","新北市新店區安一路一段1-1號","121.519695","24.96147","6500600","新店區"
"231006","355-BY","2019/08/12 12:59:41","新北市新店區安華路28-1號","121.519143333333","24.9609283333333","6500600","新店區"
"231019","513-UM","2019/08/12 12:59:53","新北市新店區安一路一段1-1號","121.519718333333","24.9612166666667","6500600","新店區"
"231002","619-UM","2019/08/12 13:00:00","新北市新店區安一路一段1-1號","121.519625","24.9610716666667","6500600","新店區"
"231034","641-BX","2019/08/12 12:59:54","新北市新店區安華路28-1號","121.519513333333","24.9606166666667","6500600","新店區"
"231011","KED-0819","2019/08/12 12:59:40","新北市新店區安一路一段1-1號","121.519993333333","24.961125","6500600","新店區"
"231010","719-UM","2019/08/12 12:59:46","新北市新店區安一路一段1-1號","121.519453333333","24.9613166666667","6500600","新店區"
"231026","720-UM","2019/08/12 12:59:30","新北市新店區安一路一段1-1號","121.519173333333","24.9612066666667","6500600","新店區"
"231028","897-TW","2019/08/12 12:59:50","新北市新店區安華路28-1號","121.519411666667","24.9608316666667","6500600","新店區"
"231004","899-TW","2019/08/12 12:59:58","新北市新店區安華路28-1號","121.519211666667","24.9608316666667","6500600","新店區"
"231037","AKT-0513","2019/08/12 12:59:46","新北市新店區安華路28-1號","121.519435","24.9606183333333","6500600","新店區"
"235029","098-UM","2019/08/12 12:59:48","新北市中和區建康路191號","121.492278333333","25.0002116666667","6500300","中和區"
"235022","151-BY","2019/08/12 12:59:54","新北市中和區圓通路367巷33弄61-1號","121.495976666667","24.9858333333333","6500300","中和區"
"235031","255-BX","2019/08/12 12:59:51","新北市中和區新生街42號","121.48311","25.0033983333333","6500300","中和區"
"235034","558-UM","2019/08/12 12:59:53","新北市中和區和城路一段271巷1號","121.485391666667","24.99179","6500300","中和區"
"235024","KED-0823","2019/08/12 12:59:57","新北市中和區和城路一段271巷1號","121.485361666667","24.9918633333333","6500300","中和區"
"235026","800-TS","2019/08/12 12:59:47","新北市中和區連城路270號","121.484905","24.99625","6500300","中和區"
"235021","801-TS","2019/08/12 12:59:45","新北市中和區員山路36巷16-3號","121.485126666667","24.9914833333333","6500300","中和區"
"235017","900-TW","2019/08/12 12:59:55","新北市中和區員山路36巷16-2號","121.48519","24.9915533333333","6500300","中和區"
"235015","157-BY","2019/08/12 12:59:45","新北市中和區員山路36巷16-2號","121.485196666667","24.991615","6500300","中和區"
"235001","AAC-213","2019/08/12 12:59:48","新北市中和區景平路143號","121.514163333333","24.99232","6500300","中和區"
"235005","251-BX","2019/08/12 12:59:46","新北市中和區員山路36巷16-2號","121.485178333333","24.9917033333333","6500300","中和區"
"253001","KEC-0718","2019/08/12 12:59:59","新北市石門區石門街1號","121.566038333333","25.29148","6502200","石門區"
"207002","749-BX","2019/08/12 12:59:52","新北市萬里區雙興里大坪路23號","121.633426666667","25.1685866666667","6502800","萬里區"
"252005","073-UM","2019/08/12 12:59:41","新北市三芝區埔坪里埔頭坑107號","121.504765","25.2616166666667","6502100","三芝區"
"207001","662-BX","2019/08/12 12:59:44","新北市萬里區萬里里獅頭路22-1號","121.693125","25.17823","6502800","萬里區"
"221029","298-VK","2019/08/12 12:59:41","新北市汐止區康寧街901號","121.650725","25.075335","6501100","汐止區"
"235032","KEA-2873","2019/08/12 12:59:48","新北市中和區員山路36巷16-3號","121.485011666667","24.9912866666667","6500300","中和區"
"235025","KEA-2875","2019/08/12 12:59:59","新北市中和區連城路469巷79弄18號","121.48388","24.9936533333333","6500300","中和區"
"235002","KEA-2876","2019/08/12 12:59:55","新北市中和區景平路293號","121.50711","24.9931833333333","6500300","中和區"
