"lineid","car","time","location","longitude","latitude","cityid","cityname"
"234025","9371-KE","2019/08/12 14:59:49","新北市永和區水源街21巷14弄3號","121.511373333333","25.0037433333333","6500400","永和區"
"248015","026-BX","2019/08/12 14:59:47","新北市五股區凌雲路一段158巷44號","121.447123333333","25.1038133333333","6501500","五股區"
"248007","KED-0815","2019/08/12 14:59:45","新北市五股區四維路161號","121.467905","25.0749383333333","6501500","五股區"
"248011","247-BX","2019/08/12 14:59:48","新北市五股區六合街100號","121.431033333333","25.0909683333333","6501500","五股區"
"248003","677-BX","2019/08/12 14:59:59","新北市五股區成泰路一段153號","121.43531","25.0738466666667","6501500","五股區"
"248001","678-BX","2019/08/12 14:59:46","新北市五股區成泰路三段43-7號","121.44255","25.0890483333333","6501500","五股區"
"248009","682-TV","2019/08/12 14:59:55","新北市五股區成泰路一段2-6號","121.43416","25.0670433333333","6501500","五股區"
"243004","AAD-798","2019/08/12 14:59:53","新北市泰山區楓江路148號","121.440196666667","25.0653633333333","6501600","泰山區"
"243006","KEA-2801","2019/08/12 15:00:00","新北市泰山區泰林路二段328號","121.430068333333","25.0631016666667","6501600","泰山區"
"243008","421-VK","2019/08/12 14:59:54","新北市泰山區新生路28號","121.429178333333","25.04454","6501600","泰山區"
"243001","KEA-2215","2019/08/12 14:59:53","新北市泰山區泰林路二段306巷1號","121.430838333333","25.0631166666667","6501600","泰山區"
"243005","646-TV","2019/08/12 15:00:01","新北市泰山區中央路5巷17弄6號","121.427271666667","25.0436733333333","6501600","泰山區"
"243007","680-BX","2019/08/12 14:59:43","新北市泰山區仁愛路90號","121.43302","25.0553566666667","6501600","泰山區"
"231030","002-UM","2019/08/12 14:59:49","新北市新店區安民街206號","121.517353333333","24.9719683333333","6500600","新店區"
"231024","0291-UT","2019/08/12 14:59:55","新北市新店區力行路14巷4號","121.53936","24.9648133333333","6500600","新店區"
"231027","0293-UT","2019/08/12 14:59:56","新北市新店區中正路334巷5號","121.536865","24.975385","6500600","新店區"
"231005","046-UY","2019/08/12 14:59:45","新北市新店區復興路44-1號","121.538583333333","24.986775","6500600","新店區"
"231029","106-UY","2019/08/12 14:59:44","新北市新店區錦秀路11巷90弄2號","121.480373333333","24.9430533333333","6500600","新店區"
"231018","107-UY","2019/08/12 14:59:50","新北市新店區中央六街10號","121.530048333333","24.974545","6500600","新店區"
"231013","108-UY","2019/08/12 14:59:52","新北市新店區北新路一段88巷1號","121.541668333333","24.9679433333333","6500600","新店區"
"231036","110-UY","2019/08/12 14:58:21","新北市新店區安祥路106巷216號","121.473098333333","24.960615","6500600","新店區"
"231039","187-VK","2019/08/12 14:59:53","新北市新店區寶橋路78巷48號","121.54712","24.973615","6500600","新店區"
"231031","256-BX","2019/08/12 14:59:53","新北市新店區安民街379巷28號","121.515331666667","24.976105","6500600","新店區"
"231023","260-TV","2019/08/12 14:59:47","新北市新店區檳榔路109號","121.544333333333","24.9618116666667","6500600","新店區"
"231003","268-BY","2019/08/12 14:59:56","新北市新店區五峰路57-1號","121.547248333333","24.9710533333333","6500600","新店區"
"231035","278-BY","2019/08/12 14:59:58","新北市新店區安和路二段240號","121.516643333333","24.9786333333333","6500600","新店區"
"231014","AAD-862","2019/08/12 14:59:45","新北市新店區北宜路三段140號","121.584401666667","24.949955","6500600","新店區"
"231006","355-BY","2019/08/12 15:00:01","新北市新店區北宜路一段109巷3號","121.539638333333","24.9549866666667","6500600","新店區"
"231038","3712-VJ","2019/08/12 14:59:57","新北市新店區安一路一段1-1號","121.519505","24.961025","6500600","新店區"
"231025","4715-K9","2019/08/12 14:59:35","新北市新店區大同街8巷13號","121.539171666667","24.9805533333333","6500600","新店區"
"231019","513-UM","2019/08/12 15:00:00","新北市新店區新烏路二段411號","121.551536666667","24.9093333333333","6500600","新店區"
"231002","619-UM","2019/08/12 14:59:59","新北市新店區民權路85號","121.538085","24.9829016666667","6500600","新店區"
"231034","641-BX","2019/08/12 14:59:54","新北市新店區玫瑰路4-1號","121.49355","24.9514216666667","6500600","新店區"
"231011","KED-0819","2019/08/12 15:00:00","新北市新店區中興路三段88號","121.545735","24.97828","6500600","新店區"
"231026","720-UM","2019/08/12 14:59:43","新北市新店區中正路158號","121.54146","24.9717516666667","6500600","新店區"
"231028","897-TW","2019/08/12 14:59:50","新北市新店區安德街164號","121.508491666667","24.9591583333333","6500600","新店區"
"231001","898-TW","2019/08/12 14:59:49","新北市新店區中正路278號","121.538805","24.973725","6500600","新店區"
"231004","899-TW","2019/08/12 14:59:57","新北市新店區民族路12號","121.541588333333","24.9789","6500600","新店區"
"241013","060-VK","2019/08/12 15:00:02","新北市三重區重新路四段121號","121.485126666667","25.05204","6500200","三重區"
"235030","003-UY","2019/08/12 14:59:43","新北市中和區光華街33號","121.504971666667","25.0040333333333","6500300","中和區"
"235020","096-UM","2019/08/12 14:59:42","新北市中和區中山路三段114巷3號","121.475286666667","25.007425","6500300","中和區"
"235003","097-UM","2019/08/12 14:59:50","新北市中和區安樂路217巷40弄1號","121.513236666667","24.997855","6500300","中和區"
"235029","098-UM","2019/08/12 14:59:47","新北市中和區永和路128巷16號","121.497185","25.00685","6500300","中和區"
"235004","150-BY","2019/08/12 14:59:50","新北市中和區景安路16號","121.507573333333","24.9988083333333","6500300","中和區"
"235019","183-VK","2019/08/12 14:59:50","新北市中和區中正路1145號","121.482831666667","25.0082033333333","6500300","中和區"
"235031","255-BX","2019/08/12 14:59:51","新北市中和區新生街195號","121.483821666667","25.000175","6500300","中和區"
"235008","293-VK","2019/08/12 14:59:56","新北市中和區中正路63號","121.501386666667","24.9933983333333","6500300","中和區"
"235036","301-VK","2019/08/12 14:59:45","新北市中和區連勝街91-1號","121.495691666667","24.9958183333333","6500300","中和區"
"247013","KEA-2869","2019/08/12 14:59:56","新北市蘆洲區中央路22號","121.473585","25.0827","6501400","蘆洲區"
"235014","4979-A6","2019/08/12 14:59:57","新北市中和區景平路155號","121.513368333333","24.992","6500300","中和區"
"235033","4980-A6","2019/08/12 14:59:45","新北市中和區南山路8號","121.501836666667","24.9987483333333","6500300","中和區"
"235034","558-UM","2019/08/12 14:59:53","新北市中和區圓通路120-4號","121.49898","24.9959483333333","6500300","中和區"
"235010","733-UM","2019/08/12 14:59:43","新北市中和區忠孝街31巷38號","121.509898333333","24.9848833333333","6500300","中和區"
"235035","783-BX","2019/08/12 14:59:44","新北市中和區建一路148號","121.488046666667","24.99889","6500300","中和區"
"235012","896-TW","2019/08/12 14:59:48","新北市中和區忠孝街2-6號","121.509108333333","24.982975","6500300","中和區"
"235007","911-UM","2019/08/12 14:59:48","新北市中和區興南路一段57號","121.510673333333","24.9899716666667","6500300","中和區"
"235015","157-BY","2019/08/12 14:59:45","新北市中和區復興路260-1號","121.503556666667","24.99034","6500300","中和區"
"235001","AAC-213","2019/08/12 14:59:48","新北市中和區景平路200號","121.515485","24.9923116666667","6500300","中和區"
"235023","AAC-215","2019/08/12 14:59:58","新北市中和區圓通路341號","121.491586666667","24.9904466666667","6500300","中和區"
"220020","015-TV","2019/08/12 14:59:58","新北市板橋區金門街147號","121.432748333333","24.9907283333333","6500100","板橋區"
"220013","072-UY","2019/08/12 14:59:54","新北市板橋區民族路229號","121.469775","25.007115","6500100","板橋區"
"220034","073-UY","2019/08/12 14:59:51","新北市板橋區南雅西路二段4號","121.453546666667","25.0090683333333","6500100","板橋區"
"220105","075-UY","2019/08/12 14:59:55","新北市板橋區文聖街11巷15號","121.475905","25.0328266666667","6500100","板橋區"
"220017","AAD-861","2019/08/12 15:00:00","新北市板橋區大明街25巷2弄23號","121.457526666667","25.0025383333333","6500100","板橋區"
"247001","500-BY","2019/08/12 14:59:40","新北市蘆洲區長安街313巷22號","121.4562","25.0862516666667","6501400","蘆洲區"
"253004","6251-TK","2019/08/12 14:59:51","新北市石門區茂林社區227-1號","121.591631666667","25.2704","6502200","石門區"
"253002","637-UY","2019/08/12 14:59:47","新北市石門區楓林43號","121.54109","25.282885","6502200","石門區"
"243003","549-UM","2019/08/12 14:59:55","新北市泰山區壽山路134巷1號","121.417326666667","25.0302316666667","6501600","泰山區"
"207002","749-BX","2019/08/12 14:59:52","新北市萬里區崁腳里崁腳路18號","121.647728333333","25.16415","6502800","萬里區"
"207001","662-BX","2019/08/12 14:59:52","新北市萬里區雙興里麗水路2號","121.653661666667","25.179715","6502800","萬里區"
"236040","KED-0685","2019/08/12 15:00:03","新北市土城區學府路一段189巷10號","121.452463333333","24.9844383333333","6501300","土城區"
"236074","166-UM","2019/08/12 14:59:50","新北市土城區中央路四段67巷38號","121.417896666667","24.95709","6501300","土城區"
"236029","253-BX","2019/08/12 14:59:43","新北市土城區慶利街18號","121.43959","24.9736633333333","6501300","土城區"
"236024","269-VK","2019/08/12 15:00:00","新北市土城區中正路58號","121.443946666667","24.97528","6501300","土城區"
"236012","270-VK","2019/08/12 14:59:49","新北市土城區永豐路31巷1號","121.462938333333","24.9881516666667","6501300","土城區"
"236032","271-VK","2019/08/12 14:59:33","新北市土城區仁愛路2號","121.459718333333","24.98128","6501300","土城區"
"236064","KEA-2877","2019/08/12 14:59:47","新北市土城區裕生路84巷1號","121.44732","24.9853166666667","6501300","土城區"
"236016","401-BY","2019/08/12 15:00:00","新北市土城區延吉街217巷3弄1號","121.468755","24.9848283333333","6501300","土城區"
"236057","912-UM","2019/08/12 14:59:52","新北市土城區金城路二段20號","121.44982","24.9777583333333","6501300","土城區"
"236045","913-UM","2019/08/12 14:59:48","新北市土城區青雲路315號","121.458946666667","24.9789183333333","6501300","土城區"
"236060","915-UM","2019/08/12 14:59:48","新北市土城區延和路41巷6弄8號","121.46624","24.9901166666667","6501300","土城區"
"236054","AAC-216","2019/08/12 14:59:50","新北市土城區裕民路30號","121.44787","24.98847","6501300","土城區"
"238010","601-UM","2019/08/12 14:59:45","新北市樹林區八德街1166號","121.390453333333","24.9683466666667","6500700","樹林區"
"238006","599-UM","2019/08/12 14:59:51","新北市樹林區八德街828號","121.394378333333","24.9686983333333","6500700","樹林區"
"238005","KEA-2217","2019/08/12 15:00:01","新北市樹林區育德街78-1號","121.38807","24.9680716666667","6500700","樹林區"
"238008","KEA-2539","2019/08/12 14:59:44","新北市樹林區育德街78-1號","121.387876666667","24.9680616666667","6500700","樹林區"
"238004","283-BY","2019/08/12 14:59:41","新北市樹林區育德街78號","121.387445","24.9684033333333","6500700","樹林區"
"220027","145-BY","2019/08/12 14:59:43","新北市板橋區中正路134號","121.456896666667","25.0159283333333","6500100","板橋區"
"220028","200-UY","2019/08/12 14:59:54","新北市板橋區大觀路二段153巷39弄1號","121.446965","25.0005233333333","6500100","板橋區"
"220030","610-BX","2019/08/12 14:59:54","新北市板橋區大觀路三段160巷36號","121.429938333333","24.9940433333333","6500100","板橋區"
"220050","245-BX","2019/08/12 14:59:56","新北市板橋區縣民大道三段61號","121.474793333333","25.0213283333333","6500100","板橋區"
"220032","256-TC","2019/08/12 14:59:58","新北市板橋區滿平街2巷10號","121.42516","24.98942","6500100","板橋區"
"220019","283-VK","2019/08/12 15:00:00","新北市板橋區五權街30巷18號","121.464126666667","24.9932266666667","6500100","板橋區"
"220043","285-UM","2019/08/12 14:59:46","新北市板橋區文化路一段379號","121.467008333333","25.0216883333333","6500100","板橋區"
"220001","285-VK","2019/08/12 14:59:55","新北市板橋區永豐街22號","121.474723333333","25.017055","6500100","板橋區"
"220031","286-VK","2019/08/12 14:59:56","新北市板橋區僑中二街10巷1號","121.446993333333","25.0108516666667","6500100","板橋區"
"220029","287-VK","2019/08/12 14:59:41","新北市板橋區僑中一街80巷5弄2-4號","121.447873333333","25.0126683333333","6500100","板橋區"
"220039","288-VK","2019/08/12 14:59:45","新北市板橋區新海路72巷5弄28-3號","121.46162","25.02291","6500100","板橋區"
"220009","293-UM","2019/08/12 14:59:47","新北市板橋區中山路一段161號","121.465601666667","25.01203","6500100","板橋區"
"220023","303-R5","2019/08/12 14:59:55","新北市板橋區大勇街13號","121.454756666667","25.0173316666667","6500100","板橋區"
"220010","305-R5","2019/08/12 15:00:00","新北市板橋區中山路二段光榮巷30弄25號","121.484115","25.0201966666667","6500100","板橋區"
"220041","307-R5","2019/08/12 15:00:03","新北市板橋區光正街25號","121.46245","25.0172316666667","6500100","板橋區"
"220047","317-R6","2019/08/12 14:59:52","新北市板橋區四維路269巷94弄18號","121.459418333333","25.0269933333333","6500100","板橋區"
"220003","461-BY","2019/08/12 14:59:55","新北市板橋區仁愛路62巷15弄2號","121.459985","24.9984116666667","6500100","板橋區"
"220038","487-VK","2019/08/12 14:59:55","新北市板橋區新海路396號","121.458828333333","25.0265566666667","6500100","板橋區"
"220037","491-VK","2019/08/12 14:59:48","新北市板橋區文聖街63號","121.476858333333","25.0309916666667","6500100","板橋區"
"220104","560-BX","2019/08/12 14:59:46","新北市板橋區新生街20巷9號","121.456301666667","25.0208383333333","6500100","板橋區"
"220052","561-BX","2019/08/12 15:00:02","新北市板橋區漢生東路23巷31號","121.465623333333","25.0178566666667","6500100","板橋區"
"220004","568-UM","2019/08/12 14:59:47","新北市板橋區四川路一段338號","121.456776666667","24.9966633333333","6500100","板橋區"
"220011","609-BX","2019/08/12 14:59:53","新北市板橋區中山路二段531巷17弄20號","121.482163333333","25.0220566666667","6500100","板橋區"
"220040","637-BX","2019/08/12 14:59:58","新北市板橋區懷德街174巷16號","121.478735","25.02938","6500100","板橋區"
"220005","686-BX","2019/08/12 15:00:02","新北市板橋區德興街16號","121.453423333333","24.9943733333333","6500100","板橋區"
"220025","687-BX","2019/08/12 14:59:58","新北市板橋區僑中一街88號","121.447155","25.0117033333333","6500100","板橋區"
"220042","689-BX","2019/08/12 14:59:52","新北市板橋區文化路二段620號","121.477788333333","25.0359","6500100","板橋區"
"220002","741-BX","2019/08/12 14:59:56","新北市板橋區國泰街75巷28弄82號","121.467365","25.0042933333333","6500100","板橋區"
"220051","KEA-2699","2019/08/12 14:59:45","新北市板橋區莒光路40巷17弄7號","121.470538333333","25.02362","6500100","板橋區"
"220014","829-TW","2019/08/12 14:59:53","新北市板橋區長安街331巷93弄9號","121.472233333333","25.0123683333333","6500100","板橋區"
"220016","831-TW","2019/08/12 14:59:59","新北市板橋區光復街234-1號","121.484755","25.0215066666667","6500100","板橋區"
"220022","895-R6","2019/08/12 14:59:50","新北市板橋區文化路一段46巷19號","121.460285","25.01159","6500100","板橋區"
"220021","985-R7","2019/08/12 14:59:59","新北市板橋區南雅西路二段176號","121.451583333333","25.0139216666667","6500100","板橋區"
"220046","AAC-210","2019/08/12 14:59:47","新北市板橋區光正街9巷11號","121.462635","25.0164633333333","6500100","板橋區"
"220012","AAC-253","2019/08/12 14:59:44","新北市板橋區實踐路38號","121.463646666667","25.0069133333333","6500100","板橋區"
"235032","KEA-2873","2019/08/12 14:59:48","新北市中和區福美路269號","121.498208333333","25.00508","6500300","中和區"
"235002","KEA-2876","2019/08/12 14:59:55","新北市中和區自強路10號","121.520296666667","24.9958316666667","6500300","中和區"
