"lineid","car","time","location","longitude","latitude","cityid","cityname"
"249005","172-UM","2019/08/12 16:49:50","新北市八里區大堀湖1-5號","121.422733333333","25.1540933333333","6502300","八里區"
"249004","303-UY","2019/08/12 16:50:04","新北市八里區挖子尾街100號","121.412085","25.1656333333333","6502300","八里區"
"249002","305-UY","2019/08/12 16:49:43","新北市八里區牛寮埔31號","121.429858333333","25.1457216666667","6502300","八里區"
"249003","593-UM","2019/08/12 16:49:59","新北市八里區中山路二段289號","121.401546666667","25.148655","6502300","八里區"
"244007","080-UY","2019/08/12 16:49:52","新北市林口區林口路82號","121.38904","25.08079","6501700","林口區"
"244017","485-VK","2019/08/12 16:49:52","新北市林口區粉寮69號","121.405048333333","25.0907816666667","6501700","林口區"
"244009","656-BX","2019/08/12 16:49:46","新北市林口區粉寮69號","121.405011666667","25.0908416666667","6501700","林口區"
"231046","719-UM","2019/08/12 16:42:23","新北市新店區灣潭路3-5號","121.538061666667","24.9508033333333","6500600","新店區"
"241011","013-R5","2019/08/12 16:49:46","新北市三重區仁愛街53巷155號","121.49992","25.0727316666667","6500200","三重區"
"241028","022-UY","2019/08/12 16:49:54","新北市三重區光興街91號","121.497386666667","25.0598916666667","6500200","三重區"
"241008","059-VK","2019/08/12 16:49:50","新北市三重區永福街179巷25號","121.478006666667","25.0749033333333","6500200","三重區"
"241013","060-VK","2019/08/12 16:50:02","新北市三重區仁壽街31號","121.496876666667","25.0733783333333","6500200","三重區"
"241031","061-VK","2019/08/12 16:49:51","新北市三重區過圳街9-1號","121.488595","25.0599933333333","6500200","三重區"
"241015","062-VK","2019/08/12 16:49:55","新北市三重區長元街14號","121.499245","25.0658666666667","6500200","三重區"
"241017","063-VK","2019/08/12 16:49:54","新北市三重區國隆路8巷39號","121.492566666667","25.06347","6500200","三重區"
"241024","065-VK","2019/08/12 16:49:55","新北市三重區中正北路317巷9號","121.474898333333","25.072835","6500200","三重區"
"241023","066-VK","2019/08/12 16:49:46","新北市三重區中華路76巷37-1號","121.48198","25.06263","6500200","三重區"
"241002","090-VK","2019/08/12 16:49:52","新北市三重區仁義街143巷68號","121.498383333333","25.08136","6500200","三重區"
"241003","091-VK","2019/08/12 16:50:01","新北市三重區五華街87巷8號","121.492341666667","25.0836016666667","6500200","三重區"
"241020","742-BX","2019/08/12 16:49:59","新北市三重區忠孝路二段34號","121.485845","25.071025","6500200","三重區"
"241006","262-UM","2019/08/12 16:49:57","新北市三重區車路頭街119號","121.484373333333","25.0753933333333","6500200","三重區"
"241009","267-UM","2019/08/12 16:49:42","新北市三重區三和路四段203巷262號","121.487435","25.0809966666667","6500200","三重區"
"241018","268-UM","2019/08/12 16:50:05","新北市三重區正義北路269號","121.495408333333","25.0699116666667","6500200","三重區"
"241032","269-UM","2019/08/12 16:49:44","新北市三重區三光街30巷1號","121.484803333333","25.06048","6500200","三重區"
"241025","271-UM","2019/08/12 16:49:58","新北市三重區中正北路510號","121.472655","25.0717","6500200","三重區"
"241007","398-BY","2019/08/12 16:49:58","新北市三重區三和路四段181巷39弄1號","121.483696666667","25.0793016666667","6500200","三重區"
"241030","KED-0822","2019/08/12 16:49:59","新北市三重區新興路7號","121.492611666667","25.0531816666667","6500200","三重區"
"241004","475-VK","2019/08/12 16:50:01","新北市三重區仁愛街397巷19號","121.492135","25.0814683333333","6500200","三重區"
"241026","480-VK","2019/08/12 16:49:49","新北市三重區中央南路26號","121.501356666667","25.06225","6500200","三重區"
"241014","543-UM","2019/08/12 16:49:45","新北市三重區長壽街120巷19弄9號","121.502505","25.0691933333333","6500200","三重區"
"241001","547-UM","2019/08/12 16:49:50","新北市三重區仁政街54巷34號","121.492261666667","25.0766316666667","6500200","三重區"
"241019","KEA-2593","2019/08/12 16:49:56","新北市三重區三張街149巷12號","121.486531666667","25.069975","6500200","三重區"
"241005","AAD-863","2019/08/12 16:49:58","新北市三重區仁華街80巷17號","121.484558333333","25.0836033333333","6500200","三重區"
"241022","KED-0820","2019/08/12 16:49:56","新北市三重區貴陽街49號","121.484295","25.0627916666667","6500200","三重區"
"241016","887-TS","2019/08/12 16:49:46","新北市三重區大同北路167巷28號","121.493721666667","25.0653866666667","6500200","三重區"
"241012","941-UM","2019/08/12 16:50:01","新北市三重區仁壽街269號","121.501696666667","25.0750516666667","6500200","三重區"
"241029","942-UM","2019/08/12 16:49:48","新北市三重區集美街210-2號","121.491428333333","25.054255","6500200","三重區"
"241033","AAC-255","2019/08/12 16:50:01","新北市三重區新北大道二段125號","121.466423333333","25.0613916666667","6500200","三重區"
"235064","005-UY","2019/08/12 16:38:25","新北市中和區員山路36巷16-3號","121.485088333333","24.9913183333333","6500300","中和區"
"247008","KED-0682","2019/08/12 16:49:55","新北市蘆洲區中山二路45巷30號","121.474275","25.0811233333333","6501400","蘆洲區"
"235054","640-BX","2019/08/12 16:49:43","新北市中和區員山路36巷16-2號","121.485316666667","24.9916533333333","6500300","中和區"
"247024","337-TH","2019/08/12 16:49:48","新北市蘆洲區長興路202號","121.460565","25.0875033333333","6501400","蘆洲區"
"247012","056-VK","2019/08/12 16:49:46","新北市蘆洲區復興路323巷158-1號","121.480073333333","25.0959116666667","6501400","蘆洲區"
"247016","053-VK","2019/08/12 16:49:58","新北市蘆洲區中正路103號","121.469916666667","25.0841816666667","6501400","蘆洲區"
"247006","002-UY","2019/08/12 16:50:01","新北市蘆洲區永安南路二段132-1號","121.462548333333","25.0785683333333","6501400","蘆洲區"
"228003","097-TW","2019/08/12 16:49:57","新北市貢寮區貢寮里朝陽街1-2號","121.91236","25.0212916666667","6502600","貢寮區"
"228002","663-BX","2019/08/12 16:49:46","新北市貢寮區貢寮里朝陽街120巷28號","121.90792","25.0230033333333","6502600","貢寮區"
"228001","670-TC","2019/08/12 16:49:55","新北市貢寮區貢寮里朝陽街1-2號","121.912295","25.0212466666667","6502600","貢寮區"
"224007","285-BY","2019/08/12 16:50:05","新北市瑞芳區中央路48巷32號","121.76121","25.1030016666667","6501200","瑞芳區"
"224009","275-VK","2019/08/12 16:49:48","新北市瑞芳區民權街3-1號","121.809343333333","25.1082933333333","6501200","瑞芳區"
"224005","271-BY","2019/08/12 16:49:56","新北市瑞芳區明里路122號","121.863956666667","25.1224516666667","6501200","瑞芳區"
"227002","642-TC","2019/08/12 16:49:59","新北市雙溪區長源里柑腳26號","121.804453333333","25.014245","6502500","雙溪區"
"227001","400-TW","2019/08/12 16:50:03","新北市雙溪區三貂里子崙坑1-6號","121.849901666667","25.0574716666667","6502500","雙溪區"
"251015","KEA-2871","2019/08/12 16:50:00","新北市淡水區忠愛街5-2號","121.46067","25.1715966666667","6501000","淡水區"
"251016","179-VK","2019/08/12 16:49:49","新北市淡水區水頭42號","121.47817","25.1851283333333","6501000","淡水區"
"251008","181-VK","2019/08/12 16:49:57","新北市淡水區樹梅坑9號","121.472945","25.1426583333333","6501000","淡水區"
"251013","182-VK","2019/08/12 16:49:45","新北市淡水區泉洲厝32號","121.489266666667","25.1926133333333","6501000","淡水區"
"251007","442-VK","2019/08/12 16:49:46","新北市淡水區中正路32巷7號","121.430503333333","25.1753116666667","6501000","淡水區"
"251014","577-R6","2019/08/12 16:49:59","新北市淡水區淡金路四段478號","121.452428333333","25.2239433333333","6501000","淡水區"
"251011","650-BX","2019/08/12 16:49:57","新北市淡水區文化路1號","121.440158333333","25.1723716666667","6501000","淡水區"
"252002","178-VK","2019/08/12 16:50:02","新北市三芝區忠孝街15號","121.50616","25.2551983333333","6502100","三芝區"
"247010","KED-0683","2019/08/12 16:49:50","新北市蘆洲區復興路323巷140號","121.481063333333","25.0955883333333","6501400","蘆洲區"
"252001","KED-0821","2019/08/12 16:49:47","新北市三芝區淡金路二段76-1號","121.503915","25.260885","6502100","三芝區"
"242027","613-BX","2019/08/12 16:49:46","新北市新莊區新泰路357巷3弄57號","121.442243333333","25.0393233333333","6500500","新莊區"
"242058","612-BX","2019/08/12 16:49:45","新北市新莊區新泰路357巷3弄57號","121.442235","25.039225","6500500","新莊區"
"242025","362-BY","2019/08/12 16:49:50","新北市新莊區新泰路357巷3弄57號","121.44193","25.0390266666667","6500500","新莊區"
"242019","KED-0687","2019/08/12 16:49:52","新北市新莊區三和路12-21號","121.442211666667","25.0381433333333","6500500","新莊區"
"242017","351-TH","2019/08/12 16:49:56","新北市新莊區新泰路357巷3弄57號","121.44191","25.0395183333333","6500500","新莊區"
"238023","601-UM","2019/08/12 16:49:45","新北市樹林區中正路433-2號","121.414921666667","25.0084966666667","6500700","樹林區"
"238012","303-VK","2019/08/12 16:49:51","新北市樹林區中正路22-1號","121.427798333333","24.99936","6500700","樹林區"
"238001","282-BY","2019/08/12 16:49:53","新北市樹林區中正路22-1號","121.427796666667","24.99964","6500700","樹林區"
"239008","527-UM","2019/08/12 16:49:42","新北市鶯歌區二甲路13-16號","121.345021666667","24.9351266666667","6500800","鶯歌區"
"233001","KEA-2870","2019/08/12 16:49:57","新北市烏來區烏來街10號","121.55171","24.8643166666667","6502900","烏來區"
"220030","610-BX","2019/08/12 16:49:54","新北市板橋區大觀路一段28巷1弄102號","121.45151","25.00628","6500100","板橋區"
"242009","280-VK","2019/08/12 16:49:59","新北市新莊區三和路12-21號","121.441706666667","25.0381866666667","6500500","新莊區"
