"lineid","car","time","location","longitude","latitude","cityid","cityname"
"249005","172-UM","2019/08/12 17:29:50","新北市八里區荖阡坑路69-20號","121.406686666667","25.1263383333333","6502300","八里區"
"249001","173-UM","2019/08/12 17:29:51","新北市八里區中華路一段1-5號","121.423215","25.1586","6502300","八里區"
"249004","303-UY","2019/08/12 17:30:04","新北市八里區埤頭一街6號","121.415743333333","25.1561233333333","6502300","八里區"
"249002","305-UY","2019/08/12 17:30:03","新北市八里區龍米路二段87號","121.447668333333","25.1419566666667","6502300","八里區"
"249003","593-UM","2019/08/12 17:29:59","新北市八里區中山路二段398號","121.400531666667","25.147845","6502300","八里區"
"232011","375-UM","2019/08/12 17:29:57","新北市坪林區北宜路八段505號","121.708396666667","24.9191233333333","6502000","坪林區"
"244007","080-UY","2019/08/12 17:29:52","新北市林口區中湖50-1號","121.383528333333","25.0914016666667","6501700","林口區"
"244023","402-UM","2019/08/12 17:29:54","新北市林口區東明一街55巷1號","121.39178","25.071765","6501700","林口區"
"244013","KEA-2802","2019/08/12 17:29:49","新北市林口區中山路99號","121.389293333333","25.07887","6501700","林口區"
"244017","485-VK","2019/08/12 17:29:52","新北市林口區文化一路一段55號","121.371253333333","25.0698283333333","6501700","林口區"
"244009","656-BX","2019/08/12 17:29:46","新北市林口區中北三街334號","121.383113333333","25.0840783333333","6501700","林口區"
"244011","657-BX","2019/08/12 17:29:57","新北市林口區佳林路211號","121.38425","25.0771233333333","6501700","林口區"
"244025","837-TS","2019/08/12 17:29:56","新北市林口區文化二路一段289-5號","121.367376666667","25.0717233333333","6501700","林口區"
"244021","838-TS","2019/08/12 17:29:57","新北市林口區東林街32號","121.395225","25.0793783333333","6501700","林口區"
"231046","719-UM","2019/08/12 17:15:23","新北市新店區直潭一街64號","121.535568333333","24.9404116666667","6500600","新店區"
"241028","022-UY","2019/08/12 17:29:54","新北市三重區光復路二段175號","121.47324","25.0616883333333","6500200","三重區"
"241013","060-VK","2019/08/12 17:30:02","新北市三重區仁愛街141巷23號","121.497","25.0758633333333","6500200","三重區"
"241015","062-VK","2019/08/12 17:29:55","新北市三重區長元街75-4號","121.503353333333","25.0666216666667","6500200","三重區"
"241017","063-VK","2019/08/12 17:29:53","新北市三重區大同北路34巷52號","121.493571666667","25.0620316666667","6500200","三重區"
"241024","065-VK","2019/08/12 17:29:55","新北市三重區中正北路165巷21號","121.47935","25.0708816666667","6500200","三重區"
"241023","066-VK","2019/08/12 17:29:46","新北市三重區三民街146巷7號","121.481421666667","25.0645816666667","6500200","三重區"
"241003","091-VK","2019/08/12 17:30:01","新北市三重區環河北路三段86號","121.496581666667","25.0857266666667","6500200","三重區"
"241020","742-BX","2019/08/12 17:29:59","新北市三重區忠孝路一段133號","121.488476666667","25.072175","6500200","三重區"
"241009","267-UM","2019/08/12 17:30:02","新北市三重區力行路二段123巷11號","121.483415","25.0763383333333","6500200","三重區"
"241032","269-UM","2019/08/12 17:29:44","新北市三重區名源街59號","121.482368333333","25.05939","6500200","三重區"
"241007","398-BY","2019/08/12 17:29:58","新北市三重區三和路四段145巷116號","121.487293333333","25.0792116666667","6500200","三重區"
"241030","KED-0822","2019/08/12 17:29:59","新北市三重區新興路46號","121.491425","25.0537","6500200","三重區"
"241024","462-BY","2019/08/12 17:30:04","新北市三重區國道路一段58巷20號","121.48122","25.0720566666667","6500200","三重區"
"241014","543-UM","2019/08/12 17:29:45","新北市三重區安和路15號","121.501223333333","25.0684733333333","6500200","三重區"
"241019","KEA-2593","2019/08/12 17:29:56","新北市三重區自強路二段26巷40號","121.488365","25.06888","6500200","三重區"
"241005","AAD-863","2019/08/12 17:29:58","新北市三重區永安北路二段37號","121.482363333333","25.0823783333333","6500200","三重區"
"241016","887-TS","2019/08/12 17:29:46","新北市三重區信義西街41號","121.495313333333","25.0640633333333","6500200","三重區"
"241012","941-UM","2019/08/12 17:29:41","新北市三重區仁興街39巷3號","121.499138333333","25.075715","6500200","三重區"
"241033","AAC-255","2019/08/12 17:30:01","新北市三重區中興北街153-17號","121.469048333333","25.0548616666667","6500200","三重區"
"235064","005-UY","2019/08/12 17:30:02","新北市中和區員山路36巷16-3號","121.485105","24.9912666666667","6500300","中和區"
"247014","KEA-2869","2019/08/12 17:29:53","新北市蘆洲區三民路33號","121.475465","25.0830033333333","6501400","蘆洲區"
"247008","KED-0682","2019/08/12 17:29:55","新北市蘆洲區民生街105號","121.473463333333","25.0787083333333","6501400","蘆洲區"
"247004","893-R6","2019/08/12 17:29:55","新北市蘆洲區長安街231號","121.459345","25.082895","6501400","蘆洲區"
"247018","546-UM","2019/08/12 17:29:48","新北市蘆洲區民義街24號","121.47146","25.0884933333333","6501400","蘆洲區"
"247002","500-BY","2019/08/12 17:29:47","新北市蘆洲區永樂街38巷57弄33號","121.457451666667","25.090495","6501400","蘆洲區"
"247012","402-BY","2019/08/12 17:08:41","新北市五股區中興路三段3-6號","121.449583333333","25.0787316666667","6501400","蘆洲區"
"247024","337-TH","2019/08/12 17:29:48","新北市蘆洲區三民路579號","121.461801666667","25.09291","6501400","蘆洲區"
"247022","057-VK","2019/08/12 17:29:57","新北市蘆洲區三民路293-2號","121.466121666667","25.0905966666667","6501400","蘆洲區"
"247012","056-VK","2019/08/12 17:29:46","新北市蘆洲區民族路33巷2號","121.477936666667","25.085165","6501400","蘆洲區"
"247016","053-VK","2019/08/12 17:29:58","新北市蘆洲區中正路185巷32號","121.467813333333","25.0851216666667","6501400","蘆洲區"
"247020","007-UY","2019/08/12 17:30:00","新北市蘆洲區水湳街397號","121.47024","25.0938666666667","6501400","蘆洲區"
"247006","002-UY","2019/08/12 17:29:45","新北市蘆洲區長安街22巷46號","121.465201666667","25.0804283333333","6501400","蘆洲區"
"228003","097-TW","2019/08/12 17:29:57","新北市貢寮區仁理村仁和路2-1號","121.923161666667","25.0486516666667","6502600","貢寮區"
"228002","663-BX","2019/08/12 17:30:06","新北市貢寮區福隆里興隆街100號","121.938031666667","25.0183316666667","6502600","貢寮區"
"228001","670-TC","2019/08/12 17:29:55","新北市貢寮區仁理村仁愛路43號","121.925361666667","25.0534183333333","6502600","貢寮區"
"224010","AGQ-8101","2019/08/12 17:29:26","新北市瑞芳區明燈路二段2巷7號","121.814191666667","25.1087366666667","6501200","瑞芳區"
"224006","676-BX","2019/08/12 17:29:54","新北市瑞芳區靜安路四段63-1號","121.79332","25.1086333333333","6501200","瑞芳區"
"224009","275-VK","2019/08/12 17:29:48","新北市瑞芳區汽車路106-2號","121.840721666667","25.1089616666667","6501200","瑞芳區"
"224008","273-VK","2019/08/12 17:29:43","新北市瑞芳區侯硐路204號","121.830405","25.0882266666667","6501200","瑞芳區"
"224005","271-BY","2019/08/12 17:29:56","新北市瑞芳區洞頂路101巷80號","121.857375","25.12399","6501200","瑞芳區"
"227002","642-TC","2019/08/12 17:22:40","新北市雙溪區共和里東榮街27號","121.866013333333","25.033675","6502500","雙溪區"
"227001","400-TW","2019/08/12 17:30:03","新北市雙溪區三貂里定福路1-2號","121.85073","25.0633516666667","6502500","雙溪區"
"251009","008-UM","2019/08/12 17:30:05","新北市淡水區新生街82號","121.43932","25.1747533333333","6501000","淡水區"
"251004","009-UM","2019/08/12 17:29:55","新北市淡水區中正東路二段88巷15號","121.459068333333","25.1505116666667","6501000","淡水區"
"251005","010-UM","2019/08/12 17:29:47","新北市淡水區鄧公路32巷4號","121.451148333333","25.1712266666667","6501000","淡水區"
"251010","012-UM","2019/08/12 17:29:44","新北市淡水區中正路二段211號","121.426183333333","25.18913","6501000","淡水區"
"251015","KEA-2871","2019/08/12 17:30:00","新北市淡水區三空泉20號","121.469211666667","25.16557","6501000","淡水區"
"251016","179-VK","2019/08/12 17:29:49","新北市淡水區埤島74號","121.45484","25.1943283333333","6501000","淡水區"
"251008","181-VK","2019/08/12 17:29:57","新北市淡水區大同路100巷2號","121.462281666667","25.1395833333333","6501000","淡水區"
"251013","182-VK","2019/08/12 17:29:45","新北市淡水區大竹圍5號","121.466576666667","25.1952133333333","6501000","淡水區"
"251012","441-VK","2019/08/12 17:29:43","新北市淡水區北新路111號","121.44792","25.178535","6501000","淡水區"
"251007","442-VK","2019/08/12 17:29:47","新北市淡水區民生路47-4號","121.462","25.1380266666667","6501000","淡水區"
"251006","561-UM","2019/08/12 17:29:55","新北市淡水區大仁街23號","121.442431666667","25.175225","6501000","淡水區"
"251014","577-R6","2019/08/12 17:29:59","新北市淡水區公埔子18號","121.473625","25.2275133333333","6501000","淡水區"
"251011","650-BX","2019/08/12 17:29:57","新北市淡水區三空泉7-1號","121.476008333333","25.161235","6501000","淡水區"
"251002","672-BX","2019/08/12 17:29:50","新北市淡水區沙崙路1號","121.4204","25.18078","6501000","淡水區"
"251003","766-UM","2019/08/12 17:29:56","新北市淡水區中山路158號","121.440765","25.172865","6501000","淡水區"
"207004","681-TV","2019/08/12 17:29:53","新北市萬里區萬里里成功新村44號","121.687571666667","25.1746766666667","6502800","萬里區"
"207003","550-UM","2019/08/12 17:30:05","新北市萬里區龜吼里美崙路91號","121.685581666667","25.18506","6502800","萬里區"
"252002","178-VK","2019/08/12 17:30:02","新北市三芝區忠孝街1-16號","121.505498333333","25.2538716666667","6502100","三芝區"
"233002","762-BX","2019/08/12 17:29:50","新北市烏來區環山路82巷43號","121.547863333333","24.86296","6502900","烏來區"
"247010","KED-0683","2019/08/12 17:29:50","新北市蘆洲區中山一路120巷29號","121.478253333333","25.0821833333333","6501400","蘆洲區"
"252001","KED-0821","2019/08/12 17:29:47","新北市三芝區長安街119號","121.498035","25.2596183333333","6502100","三芝區"
"242060","986-R7","2019/08/12 17:29:53","新北市新莊區瓊林路200號","121.438951666667","25.0207783333333","6500500","新莊區"
"242002","751-BX","2019/08/12 17:30:00","新北市新莊區新莊路213號","121.45528","25.0354","6500500","新莊區"
"242029","615-BX","2019/08/12 17:29:53","新北市新莊區復興路二段174號","121.458606666667","25.0443366666667","6500500","新莊區"
"242027","613-BX","2019/08/12 17:29:46","新北市新莊區思源路103號","121.460233333333","25.0415133333333","6500500","新莊區"
"242058","612-BX","2019/08/12 17:29:45","新北市新莊區中正路471號","121.44196","25.034045","6500500","新莊區"
"242046","566-BX","2019/08/12 17:30:03","新北市新莊區新樹路65-4號","121.439411666667","25.0309366666667","6500500","新莊區"
"242050","497-BY","2019/08/12 17:29:43","新北市新莊區新樹路268巷84號","121.430815","25.0163116666667","6500500","新莊區"
"242056","441-UM","2019/08/12 17:30:00","新北市新莊區新莊路362號","121.449641666667","25.033565","6500500","新莊區"
"242004","440-UM","2019/08/12 17:29:42","新北市新莊區中港路280號","121.453108333333","25.0441566666667","6500500","新莊區"
"242042","415-TV","2019/08/12 17:30:05","新北市新莊區新樹路113巷19號","121.439135","25.0263966666667","6500500","新莊區"
"242011","413-TV","2019/08/12 17:29:57","新北市新莊區中港路396號","121.45224","25.0497116666667","6500500","新莊區"
"242048","400-BY","2019/08/12 17:29:47","新北市新莊區四維路297號","121.421145","25.0197033333333","6500500","新莊區"
"242025","362-BY","2019/08/12 17:29:56","新北市新莊區中港路279號","121.453265","25.0437066666667","6500500","新莊區"
"242023","353-BY","2019/08/12 17:29:52","新北市新莊區公園路37號","121.453111666667","25.0401816666667","6500500","新莊區"
"242013","132-UY","2019/08/12 17:29:44","新北市新莊區中誠街14號","121.451963333333","25.0482683333333","6500500","新莊區"
"242036","135-UY","2019/08/12 17:29:55","新北市新莊區後港一路220號","121.43428","25.02825","6500500","新莊區"
"242053","172-VK","2019/08/12 17:30:04","新北市新莊區瓊林南路305巷25號","121.43562","25.0050716666667","6500500","新莊區"
"242015","173-VK","2019/08/12 17:29:57","新北市新莊區新泰路152號","121.44772","25.03731","6500500","新莊區"
"242021","175-VK","2019/08/12 17:29:58","新北市新莊區中正路134號","121.452716666667","25.0362983333333","6500500","新莊區"
"242019","KED-0687","2019/08/12 17:29:52","新北市新莊區中港路58巷2號","121.455591666667","25.0385716666667","6500500","新莊區"
"242039","346-TH","2019/08/12 17:29:55","新北市新莊區民安東路9號","121.427786666667","25.0210616666667","6500500","新莊區"
"242034","348-TH","2019/08/12 17:30:00","新北市新莊區新莊路457號","121.449603333333","25.0333816666667","6500500","新莊區"
"242007","349-TH","2019/08/12 17:29:48","新北市新莊區自強街5號","121.454736666667","25.045665","6500500","新莊區"
"242031","350-TH","2019/08/12 17:29:56","新北市新莊區新泰路440號","121.44345","25.0446216666667","6500500","新莊區"
"242017","351-TH","2019/08/12 17:29:56","新北市新莊區中華路一段103號","121.452688333333","25.0439083333333","6500500","新莊區"
"238015","755-BX","2019/08/12 17:29:53","新北市樹林區大安路267號","121.419096666667","24.9936633333333","6500700","樹林區"
"238023","601-UM","2019/08/12 17:29:45","新北市樹林區三福街114號","121.406391666667","25.0163466666667","6500700","樹林區"
"238019","599-UM","2019/08/12 17:29:57","新北市樹林區八德街130號","121.421435","24.9790283333333","6500700","樹林區"
"238024","5061-A6","2019/08/12 17:29:50","新北市樹林區鎮前街21號","121.425861666667","24.992565","6500700","樹林區"
"238018","KEA-2217","2019/08/12 17:30:00","新北市樹林區鎮前街165號","121.422386666667","24.9873583333333","6500700","樹林區"
"238022","KEA-2213","2019/08/12 17:29:50","新北市樹林區仁愛街67號","121.422993333333","24.9825133333333","6500700","樹林區"
"238021","KEA-2539","2019/08/12 17:29:59","新北市樹林區西圳街一段203巷23-1號","121.394551666667","24.9583933333333","6500700","樹林區"
"238025","303-VK","2019/08/12 17:29:51","新北市樹林區保安街一段287-3號","121.418936666667","24.9973283333333","6500700","樹林區"
"238017","283-BY","2019/08/12 17:30:01","新北市樹林區中正路238號","121.41811","25.0071066666667","6500700","樹林區"
"238014","282-BY","2019/08/12 17:30:02","新北市樹林區保安街一段294巷2-1號","121.419498333333","24.9977316666667","6500700","樹林區"
"238020","268-VK","2019/08/12 17:29:54","新北市樹林區千歲街103號","121.428641666667","25.0009583333333","6500700","樹林區"
"238026","172-UY","2019/08/12 17:29:58","新北市樹林區味王街14號","121.40306","24.9759933333333","6500700","樹林區"
"238016","169-UY","2019/08/12 17:28:36","新北市樹林區長壽街28巷4弄14號","121.423601666667","24.994065","6500700","樹林區"
"239007","AAC-297","2019/08/12 17:29:55","新北市鶯歌區中山路48號","121.35212","24.9570666666667","6500800","鶯歌區"
"239006","891-R6","2019/08/12 17:29:58","新北市鶯歌區福安街7巷24弄25號","121.334578333333","24.9657783333333","6500800","鶯歌區"
"239008","527-UM","2019/08/12 17:30:02","新北市鶯歌區大湖路351號","121.338955","24.970985","6500800","鶯歌區"
"239005","526-UM","2019/08/12 17:29:09","新北市鶯歌區鶯桃路二段9號","121.325858333333","24.9719183333333","6500800","鶯歌區"
"239001","417-VK","2019/08/12 17:29:42","新北市鶯歌區中正三路86號","121.338265","24.9410583333333","6500800","鶯歌區"
"239003","360-BY","2019/08/12 17:29:51","新北市鶯歌區德昌街5號","121.333781666667","24.96055","6500800","鶯歌區"
"239002","359-BY","2019/08/12 17:30:00","新北市鶯歌區南雅路49號","121.348256666667","24.95425","6500800","鶯歌區"
"239004","193-VK","2019/08/12 17:29:52","新北市鶯歌區文化路226巷5號","121.352146666667","24.9485666666667","6500800","鶯歌區"
"244019","KED-0667","2019/08/12 17:29:56","新北市林口區文化一路一段137號","121.373608333333","25.0720783333333","6501700","林口區"
"233001","KEA-2870","2019/08/12 17:29:57","新北市烏來區信福路135-3號","121.523331666667","24.8356683333333","6502900","烏來區"
"242044","281-VK","2019/08/12 17:29:55","新北市新莊區富國路87號","121.420515","25.0257683333333","6500500","新莊區"
"242009","280-VK","2019/08/12 17:29:59","新北市新莊區中原路228號","121.452988333333","25.0544883333333","6500500","新莊區"
"235061","KEA-2875","2019/08/12 17:10:30","新北市中和區員山路36巷16-2號","121.485346666667","24.9916766666667","6500300","中和區"
