"lineid","car","time","location","longitude","latitude","cityid","cityname"
"234026","9371-KE","2019/08/12 17:49:50","新北市永和區中山路一段125號","121.510678333333","25.01013","6500400","永和區"
"249005","172-UM","2019/08/12 17:49:50","新北市八里區荖阡坑路41-10號","121.402365","25.1329433333333","6502300","八里區"
"249001","173-UM","2019/08/12 17:49:51","新北市八里區龍米路二段147-1號","121.442913333333","25.1504133333333","6502300","八里區"
"249004","303-UY","2019/08/12 17:49:44","新北市八里區中華路一段79巷9號","121.420928333333","25.1563616666667","6502300","八里區"
"249002","305-UY","2019/08/12 17:49:43","新北市八里區龍形三街9巷2號","121.450648333333","25.1318183333333","6502300","八里區"
"249003","593-UM","2019/08/12 17:49:59","新北市八里區中山路二段56巷1號","121.407171666667","25.1541466666667","6502300","八里區"
"248018","KED-0813","2019/08/12 17:49:50","新北市五股區中興路二段63巷17號","121.460215","25.0753716666667","6501500","五股區"
"248002","678-BX","2019/08/12 17:49:44","新北市五股區中興路二段83巷26-3號","121.460058333333","25.0753666666667","6501500","五股區"
"232011","375-UM","2019/08/12 17:49:57","新北市坪林區北宜路八段145號","121.706873333333","24.93446","6502000","坪林區"
"244007","080-UY","2019/08/12 17:49:52","新北市林口區竹林路279號","121.389881666667","25.0814216666667","6501700","林口區"
"244023","402-UM","2019/08/12 17:49:54","新北市林口區興林路151巷2號","121.389051666667","25.0732066666667","6501700","林口區"
"244013","KEA-2802","2019/08/12 17:49:49","新北市林口區中山路67號","121.393688333333","25.0784616666667","6501700","林口區"
"244017","485-VK","2019/08/12 17:49:52","新北市林口區文化二路一段232號","121.369923333333","25.0724033333333","6501700","林口區"
"244009","656-BX","2019/08/12 17:49:46","新北市林口區佳林路56巷43號","121.385178333333","25.0807433333333","6501700","林口區"
"244011","657-BX","2019/08/12 17:49:57","新北市林口區中正路263號","121.390295","25.07769","6501700","林口區"
"244025","837-TS","2019/08/12 17:49:56","新北市林口區忠孝三路一段110號","121.35968","25.0714266666667","6501700","林口區"
"244021","838-TS","2019/08/12 17:49:57","新北市林口區新寮29-1號","121.399598333333","25.0663","6501700","林口區"
"222003","436-BY","2019/08/12 17:49:50","新北市深坑區阿柔洋60-1號","121.608595","24.9985216666667","6501800","深坑區"
"222002","659-BX","2019/08/12 17:49:57","新北市深坑區平埔街22巷17弄1號","121.614905","25.0008333333333","6501800","深坑區"
"241003","091-VK","2019/08/12 17:50:01","新北市八里區荖阡坑路22-5號","121.398675","25.1354","6500200","三重區"
"241024","462-BY","2019/08/12 17:50:04","新北市三重區車路頭街62巷43號","121.483096666667","25.0724816666667","6500200","三重區"
"241016","887-TS","2019/08/12 17:49:06","新北市三重區新北大道一段7號","121.489896666667","25.0613583333333","6500200","三重區"
"241033","AAC-255","2019/08/12 17:50:01","新北市三重區光復路一段17號","121.47213","25.04732","6500200","三重區"
"235064","005-UY","2019/08/12 17:50:02","新北市中和區員山路36巷16-3號","121.48511","24.9913066666667","6500300","中和區"
"235065","098-UM","2019/08/12 17:49:47","新北市中和區員山路36巷16-2號","121.485335","24.991805","6500300","中和區"
"235058","151-BY","2019/08/12 17:50:03","新北市中和區員山路36巷16-2號","121.485141666667","24.991725","6500300","中和區"
"247014","KEA-2869","2019/08/12 17:49:53","新北市蘆洲區保和街69巷23號","121.469751666667","25.0853033333333","6501400","蘆洲區"
"247008","KED-0682","2019/08/12 17:50:00","新北市蘆洲區信義路37巷12號","121.474305","25.0798133333333","6501400","蘆洲區"
"235062","800-TS","2019/08/12 17:49:51","新北市中和區員山路36巷16-3號","121.48503","24.9913816666667","6500300","中和區"
"235052","805-TS","2019/08/12 17:49:55","新北市中和區員山路36巷16-3號","121.484515","24.99112","6500300","中和區"
"235043","911-UM","2019/08/12 17:49:45","新北市中和區和城路一段271巷1號","121.48546","24.99176","6500300","中和區"
"235037","AAC-213","2019/08/12 17:49:56","新北市中和區錦和路350-1號","121.490033333333","24.99357","6500300","中和區"
"247004","893-R6","2019/08/12 17:49:55","新北市蘆洲區長安街194巷27號","121.459893333333","25.0845683333333","6501400","蘆洲區"
"247018","546-UM","2019/08/12 17:49:47","新北市蘆洲區復興路227巷2弄15號","121.480701666667","25.0904","6501400","蘆洲區"
"247002","500-BY","2019/08/12 17:49:47","新北市蘆洲區永平街32巷21弄8號","121.459036666667","25.0918516666667","6501400","蘆洲區"
"247024","337-TH","2019/08/12 17:49:48","新北市蘆洲區光榮路65號","121.461186666667","25.0884433333333","6501400","蘆洲區"
"247022","057-VK","2019/08/12 17:49:57","新北市蘆洲區中正路450號","121.462608333333","25.0947283333333","6501400","蘆洲區"
"247012","056-VK","2019/08/12 17:49:46","新北市蘆洲區復興路62號","121.474541666667","25.0861933333333","6501400","蘆洲區"
"247016","053-VK","2019/08/12 17:49:58","新北市蘆洲區中正路185巷23弄25號","121.46761","25.0839616666667","6501400","蘆洲區"
"247020","007-UY","2019/08/12 17:50:00","新北市蘆洲區民義街71巷24號","121.472563333333","25.0907066666667","6501400","蘆洲區"
"247006","002-UY","2019/08/12 17:50:05","新北市蘆洲區永安南路二段94號","121.463558333333","25.0780616666667","6501400","蘆洲區"
"228003","097-TW","2019/08/12 17:49:57","新北市貢寮區真理里延平街143-1號","121.924975","25.057645","6502600","貢寮區"
"228002","663-BX","2019/08/12 17:49:46","新北市貢寮區福隆里外隆林街14-1號","121.95916","25.0036066666667","6502600","貢寮區"
"228001","670-TC","2019/08/12 17:49:54","新北市貢寮區真理里新港街26巷28-6號","121.927668333333","25.0553933333333","6502600","貢寮區"
"224006","676-BX","2019/08/12 17:49:54","新北市瑞芳區傑魚坑路183號","121.788433333333","25.108295","6501200","瑞芳區"
"224009","275-VK","2019/08/12 17:49:48","新北市瑞芳區崙頂路2-2號","121.846566666667","25.1070416666667","6501200","瑞芳區"
"224008","273-VK","2019/08/12 17:50:03","新北市瑞芳區明燈路一段35號","121.822455","25.107295","6501200","瑞芳區"
"224005","271-BY","2019/08/12 17:49:36","新北市瑞芳區豎崎路32-5號","121.823755","25.121015","6501200","瑞芳區"
"227002","642-TC","2019/08/12 17:22:40","新北市雙溪區共和里東榮街27號","121.866013333333","25.033675","6502500","雙溪區"
"227001","400-TW","2019/08/12 17:50:03","新北市雙溪區三貂里政光路3-1號","121.850823333333","25.0633766666667","6502500","雙溪區"
"253006","032-BX","2019/08/12 17:49:47","新北市石門區老崩山11-8號","121.552035","25.2907883333333","6502200","石門區"
"208002","KEA-2872","2019/08/12 17:49:53","新北市金山區磺清路135號","121.639273333333","25.2275233333333","6502700","金山區"
"251009","008-UM","2019/08/12 17:49:47","新北市淡水區長興街16-3號","121.443915","25.1707683333333","6501000","淡水區"
"251004","009-UM","2019/08/12 17:49:55","新北市淡水區民權一街17巷15號","121.45938","25.1366766666667","6501000","淡水區"
"251010","012-UM","2019/08/12 17:49:44","新北市淡水區淡海路247號","121.42014","25.1861233333333","6501000","淡水區"
"251015","KEA-2871","2019/08/12 17:49:40","新北市淡水區興福寮1-8號","121.489255","25.1647416666667","6501000","淡水區"
"251016","179-VK","2019/08/12 17:49:49","新北市淡水區埤島39-15號","121.45272","25.195915","6501000","淡水區"
"251008","181-VK","2019/08/12 17:49:57","新北市淡水區八勢路一段123巷7弄4號","121.466098333333","25.15709","6501000","淡水區"
"251013","182-VK","2019/08/12 17:49:45","新北市淡水區泉洲厝31號","121.479576666667","25.1910116666667","6501000","淡水區"
"251012","441-VK","2019/08/12 17:49:57","新北市淡水區鄒厝崙34號","121.47168","25.184595","6501000","淡水區"
"251007","442-VK","2019/08/12 17:49:47","新北市淡水區民生路16巷30號","121.461741666667","25.1374783333333","6501000","淡水區"
"251005","443-VK","2019/08/12 17:50:00","新北市淡水區學府路102巷2號","121.450426666667","25.1719333333333","6501000","淡水區"
"251006","561-UM","2019/08/12 17:49:55","新北市淡水區大信街1巷17號","121.440561666667","25.1766533333333","6501000","淡水區"
"251014","577-R6","2019/08/12 17:49:59","新北市淡水區公埔子16-6號","121.480988333333","25.2246083333333","6501000","淡水區"
"251011","650-BX","2019/08/12 17:49:57","新北市淡水區小坪頂13-3號","121.486545","25.1561633333333","6501000","淡水區"
"251002","672-BX","2019/08/12 17:49:50","新北市淡水區中山路96巷7號","121.442336666667","25.170755","6501000","淡水區"
"251003","766-UM","2019/08/12 17:49:56","新北市淡水區大忠街5巷2號","121.443165","25.17634","6501000","淡水區"
"207004","681-TV","2019/08/12 17:50:01","新北市萬里區萬里里瑪鋉頂街40號","121.689096666667","25.1785666666667","6502800","萬里區"
"207003","550-UM","2019/08/12 17:50:05","新北市萬里區野柳里東澳路66號","121.692806666667","25.20097","6502800","萬里區"
"252002","178-VK","2019/08/12 17:49:41","新北市三芝區智成街50號","121.504275","25.2562566666667","6502100","三芝區"
"237004","KEA-2597","2019/08/12 17:49:58","新北市三峽區中山路128號","121.365451666667","24.9360016666667","6500900","三峽區"
"237009","210-TH","2019/08/12 17:49:49","新北市三峽區大勇路27號","121.367186666667","24.9363266666667","6500900","三峽區"
"237013","252-BX","2019/08/12 17:49:49","新北市三峽區中華路8-1號","121.375111666667","24.93292","6500900","三峽區"
"237012","275-BY","2019/08/12 17:49:59","新北市三峽區文化路131號","121.36966","24.93602","6500900","三峽區"
"237014","433-BY","2019/08/12 17:49:46","新北市三峽區文化路125號","121.369918333333","24.9360216666667","6500900","三峽區"
"237006","5529-G3","2019/08/12 17:49:48","新北市三峽區介壽路二段38巷22號","121.391731666667","24.93461","6500900","三峽區"
"237011","KEA-2596","2019/08/12 17:49:47","新北市三峽區中山路61號","121.367348333333","24.9348466666667","6500900","三峽區"
"237015","649-BX","2019/08/12 17:49:43","新北市三峽區白雞149-2號","121.400163333333","24.9056083333333","6500900","三峽區"
"237010","706-TV","2019/08/12 17:50:03","新北市三峽區和平街60號","121.370348333333","24.937955","6500900","三峽區"
"237005","AKY-6261","2019/08/12 17:49:51","新北市三峽區中山路138-2號","121.365106666667","24.9362016666667","6500900","三峽區"
"233002","762-BX","2019/08/12 17:49:50","新北市烏來區烏來街29號","121.551315","24.8653333333333","6502900","烏來區"
"236078","166-UM","2019/08/12 17:50:04","新北市土城區中央路三段168號","121.431048333333","24.9652183333333","6501300","土城區"
"236030","253-BX","2019/08/12 17:49:55","新北市土城區城林路6巷80號","121.438671666667","24.97958","6501300","土城區"
"236014","270-VK","2019/08/12 17:49:52","新北市土城區城林路6巷80號","121.438471666667","24.9795533333333","6501300","土城區"
"236039","271-VK","2019/08/12 17:49:47","新北市土城區城林路6巷80號","121.438451666667","24.979695","6501300","土城區"
"247010","KED-0683","2019/08/12 17:49:53","新北市蘆洲區民族路31-6號","121.47726","25.0849883333333","6501400","蘆洲區"
"236069","KEA-2877","2019/08/12 17:50:00","新北市土城區城林路6巷80號","121.438361666667","24.97966","6501300","土城區"
"252001","KED-0821","2019/08/12 17:49:47","新北市三芝區中興街一段12號","121.49747","25.2593183333333","6502100","三芝區"
"236020","401-BY","2019/08/12 17:49:52","新北市土城區城林路6巷80號","121.438425","24.97972","6501300","土城區"
"236059","912-UM","2019/08/12 17:49:48","新北市土城區中華路二段196號","121.437521666667","24.970365","6501300","土城區"
"236048","913-UM","2019/08/12 17:49:58","新北市土城區城林路6巷80號","121.438456666667","24.9795716666667","6501300","土城區"
"236063","915-UM","2019/08/12 17:49:53","新北市土城區城林路6巷80號","121.43849","24.9796666666667","6501300","土城區"
"236055","AAC-216","2019/08/12 17:49:54","新北市土城區城林路6巷80號","121.43845","24.9795983333333","6501300","土城區"
"242060","986-R7","2019/08/12 17:49:53","新北市新莊區新樹路601號","121.433213333333","25.005865","6500500","新莊區"
"242002","751-BX","2019/08/12 17:50:00","新北市新莊區新泰路47號","121.449521666667","25.0336683333333","6500500","新莊區"
"242029","615-BX","2019/08/12 17:49:53","新北市新莊區新泰路324號","121.444993333333","25.041805","6500500","新莊區"
"242027","613-BX","2019/08/12 17:49:46","新北市新莊區福壽街143號","121.458065","25.0528533333333","6500500","新莊區"
"242058","612-BX","2019/08/12 17:50:05","新北市新莊區壽山路700-17號","121.418285","25.0274316666667","6500500","新莊區"
"242046","566-BX","2019/08/12 17:50:03","新北市新莊區建國一路46號","121.434071666667","25.0312183333333","6500500","新莊區"
"242050","497-BY","2019/08/12 17:49:43","新北市新莊區西盛街245巷19號","121.428831666667","25.01611","6500500","新莊區"
"242056","441-UM","2019/08/12 17:50:00","新北市新莊區瓊林路38巷39號","121.446525","25.0303566666667","6500500","新莊區"
"242004","440-UM","2019/08/12 17:50:01","新北市新莊區思源路177巷5弄4號","121.459123333333","25.045125","6500500","新莊區"
"242042","415-TV","2019/08/12 17:49:45","新北市泰山區新北大道六段373號","121.422213333333","25.0327916666667","6500500","新莊區"
"242011","413-TV","2019/08/12 17:49:57","新北市新莊區中港路684號","121.450823333333","25.056635","6500500","新莊區"
"242048","400-BY","2019/08/12 17:50:00","新北市新莊區萬安街97號","121.42104","25.023215","6500500","新莊區"
"242025","362-BY","2019/08/12 17:49:50","新北市三重區新北大道二段41號","121.470325","25.0613816666667","6500500","新莊區"
"242023","353-BY","2019/08/12 17:49:52","新北市新莊區福樂街3號","121.457835","25.0446866666667","6500500","新莊區"
"242013","132-UY","2019/08/12 17:50:04","新北市新莊區中泰街104巷5弄8號","121.4483","25.046975","6500500","新莊區"
"242036","135-UY","2019/08/12 17:49:59","新北市新莊區建福路59巷31號","121.428008333333","25.027775","6500500","新莊區"
"242053","172-VK","2019/08/12 17:49:44","新北市新莊區民安西路468-1號","121.431691666667","25.0078466666667","6500500","新莊區"
"242015","173-VK","2019/08/12 17:49:57","新北市新莊區新泰路472號","121.443056666667","25.0450466666667","6500500","新莊區"
"242021","175-VK","2019/08/12 17:49:47","新北市新莊區中港路136號","121.455153333333","25.0407983333333","6500500","新莊區"
"242019","KED-0687","2019/08/12 17:49:52","新北市新莊區復興路二段20-2號","121.454291666667","25.0439833333333","6500500","新莊區"
"242039","346-TH","2019/08/12 17:49:51","新北市新莊區民安路142號","121.42443","25.0251866666667","6500500","新莊區"
"242034","348-TH","2019/08/12 17:50:00","新北市新莊區新莊路662號","121.442426666667","25.0327166666667","6500500","新莊區"
"242007","349-TH","2019/08/12 17:49:53","新北市新莊區福樂街108巷23號","121.457846666667","25.0484566666667","6500500","新莊區"
"242031","350-TH","2019/08/12 17:49:56","新北市新莊區新泰路357巷1弄2號","121.442673333333","25.0412516666667","6500500","新莊區"
"242017","351-TH","2019/08/12 17:49:56","新北市新莊區永安街62號","121.45115","25.0447483333333","6500500","新莊區"
"238015","755-BX","2019/08/12 17:49:53","新北市樹林區復興路141號","121.421251666667","24.9926266666667","6500700","樹林區"
"238023","601-UM","2019/08/12 17:49:45","新北市樹林區龍興街32巷6號","121.402606666667","25.015795","6500700","樹林區"
"238019","599-UM","2019/08/12 17:49:58","新北市樹林區太順街34號","121.4191","24.9801333333333","6500700","樹林區"
"238024","5061-A6","2019/08/12 17:49:50","新北市樹林區育德街78-1號","121.387531666667","24.9681283333333","6500700","樹林區"
"238018","KEA-2217","2019/08/12 17:50:00","新北市樹林區博愛街138號","121.42636","24.99126","6500700","樹林區"
"238022","KEA-2213","2019/08/12 17:49:50","新北市樹林區太順街96巷16弄10號","121.416515","24.979455","6500700","樹林區"
"238021","KEA-2539","2019/08/12 17:49:59","新北市樹林區柑園街一段35號","121.403616666667","24.9602066666667","6500700","樹林區"
"238025","303-VK","2019/08/12 17:49:51","新北市樹林區保安街三段55-1號","121.412561666667","25.0116","6500700","樹林區"
"238017","283-BY","2019/08/12 17:50:01","新北市樹林區俊德街51號","121.415426666667","25.0132583333333","6500700","樹林區"
"238014","282-BY","2019/08/12 17:49:53","新北市樹林區大安路179號","121.42122","24.9962033333333","6500700","樹林區"
"238020","268-VK","2019/08/12 17:49:50","新北市樹林區俊英街252號","121.424463333333","25.011105","6500700","樹林區"
"238026","172-UY","2019/08/12 17:49:58","新北市樹林區新興街19巷11號","121.400638333333","24.97319","6500700","樹林區"
"238016","169-UY","2019/08/12 17:49:57","新北市樹林區復興路372巷13號","121.415031666667","24.9861716666667","6500700","樹林區"
"239007","AAC-297","2019/08/12 17:49:55","新北市鶯歌區鶯桃路永富巷9號","121.338905","24.9546916666667","6500800","鶯歌區"
"239006","891-R6","2019/08/12 17:49:58","新北市鶯歌區永和街115巷66-1號","121.333415","24.9697983333333","6500800","鶯歌區"
"239008","527-UM","2019/08/12 17:49:42","新北市鶯歌區大湖路732巷10號","121.33319","24.9772333333333","6500800","鶯歌區"
"239005","526-UM","2019/08/12 17:49:49","新北市鶯歌區鳳吉三街26巷11號","121.327095","24.9731616666667","6500800","鶯歌區"
"239001","417-VK","2019/08/12 17:50:02","新北市鶯歌區中正三路279-6號","121.332463333333","24.9380333333333","6500800","鶯歌區"
"239003","360-BY","2019/08/12 17:49:51","新北市鶯歌區鶯桃路295巷18號","121.334401666667","24.9595433333333","6500800","鶯歌區"
"239002","359-BY","2019/08/12 17:50:00","新北市鶯歌區育智路90號","121.345083333333","24.9543016666667","6500800","鶯歌區"
"239004","193-VK","2019/08/12 17:49:52","新北市鶯歌區文化路278號","121.352838333333","24.9471266666667","6500800","鶯歌區"
"221008","489-VK","2019/08/12 17:49:59","新北市汐止區康寧街901號","121.651408333333","25.0750516666667","6501100","汐止區"
"244019","KED-0667","2019/08/12 17:49:56","新北市林口區麗園路92號","121.372215","25.068255","6501700","林口區"
"221010","269-BY","2019/08/12 17:49:50","新北市汐止區汐萬路二段62巷1號","121.64936","25.0823033333333","6501100","汐止區"
"221029","298-VK","2019/08/12 17:50:00","新北市汐止區康寧街901號","121.651715","25.0749766666667","6501100","汐止區"
"221031","353-TW","2019/08/12 17:49:52","新北市汐止區連峰街1巷1號","121.64685","25.0761016666667","6501100","汐止區"
"233001","KEA-2870","2019/08/12 17:49:57","新北市烏來區瀑布路4號","121.55148","24.8495083333333","6502900","烏來區"
"242044","281-VK","2019/08/12 17:49:55","新北市新莊區中正路829巷22弄47號","121.42051","25.0265633333333","6500500","新莊區"
"242009","280-VK","2019/08/12 17:49:59","新北市新莊區昌明街48號","121.455988333333","25.0522083333333","6500500","新莊區"
"235061","KEA-2875","2019/08/12 17:50:01","新北市中和區員山路36巷16-2號","121.485255","24.99179","6500300","中和區"
