"lineid","car","time","location","longitude","latitude","cityid","cityname"
"234026","9371-KE","2019/08/12 17:59:49","新北市永和區水源街2巷24號","121.512125","25.00571","6500400","永和區"
"249005","172-UM","2019/08/12 17:59:49","新北市八里區荖阡坑路16號","121.397836666667","25.13829","6502300","八里區"
"249001","173-UM","2019/08/12 17:59:51","新北市八里區龍米路二段39號","121.448413333333","25.1401383333333","6502300","八里區"
"249004","303-UY","2019/08/12 17:59:44","新北市八里區中山路一段42-1號","121.422205","25.15903","6502300","八里區"
"249002","305-UY","2019/08/12 18:00:03","新北市八里區龍形五街15號","121.449978333333","25.1334916666667","6502300","八里區"
"249003","593-UM","2019/08/12 17:59:59","新北市八里區中華路二段173-1號","121.407123333333","25.1508683333333","6502300","八里區"
"248014","025-BX","2019/08/12 17:59:51","新北市五股區中興路三段5號","121.450181666667","25.0796483333333","6501500","五股區"
"248016","026-BX","2019/08/12 18:00:06","新北市五股區中興路二段182巷5號","121.457023333333","25.07882","6501500","五股區"
"248006","077-UY","2019/08/12 17:59:53","新北市五股區中興路二段163號","121.457675","25.077575","6501500","五股區"
"248018","KED-0813","2019/08/12 17:59:50","新北市五股區中興路二段83巷26-3號","121.460135","25.07534","6501500","五股區"
"248004","677-BX","2019/08/12 18:00:00","新北市五股區更洲路47號","121.456923333333","25.07906","6501500","五股區"
"248002","678-BX","2019/08/12 17:59:44","新北市五股區中興路二段83巷26-3號","121.460058333333","25.075355","6501500","五股區"
"248010","682-TV","2019/08/12 17:59:56","新北市五股區中興路二段83巷26-6號","121.460023333333","25.0753383333333","6501500","五股區"
"232011","375-UM","2019/08/12 17:59:57","新北市坪林區北宜路八段349號","121.710463333333","24.9335716666667","6502000","坪林區"
"244007","080-UY","2019/08/12 17:59:54","新北市林口區林口路124巷5號","121.388766666667","25.0817483333333","6501700","林口區"
"244023","402-UM","2019/08/12 17:59:54","新北市林口區育林街30號","121.38584","25.0737183333333","6501700","林口區"
"244013","KEA-2802","2019/08/12 17:59:49","新北市林口區中山路150-1號","121.391111666667","25.0786833333333","6501700","林口區"
"244017","485-VK","2019/08/12 17:59:52","新北市林口區忠孝路372號","121.369246666667","25.0714333333333","6501700","林口區"
"244009","656-BX","2019/08/12 17:59:46","新北市林口區竹林路586號","121.386075","25.0826666666667","6501700","林口區"
"244011","657-BX","2019/08/12 17:59:57","新北市林口區中正路62號","121.394981666667","25.0774316666667","6501700","林口區"
"244025","837-TS","2019/08/12 17:59:56","新北市林口區八德路408號","121.358531666667","25.06642","6501700","林口區"
"244021","838-TS","2019/08/12 17:59:57","新北市林口區仁愛路一段145號","121.398836666667","25.0717566666667","6501700","林口區"
"222003","436-BY","2019/08/12 17:59:50","新北市深坑區炮子崙9號","121.60378","24.9868216666667","6501800","深坑區"
"222002","659-BX","2019/08/12 18:00:05","新北市深坑區文化街98號","121.6171","25.0019333333333","6501800","深坑區"
"241003","091-VK","2019/08/12 18:00:01","新北市林口區太平里180號","121.368448333333","25.133895","6500200","三重區"
"241024","462-BY","2019/08/12 17:59:44","新北市三重區國道路一段58巷18號","121.480936666667","25.072135","6500200","三重區"
"241016","887-TS","2019/08/12 17:59:46","新北市五股區五工一路109號","121.456738333333","25.0707633333333","6500200","三重區"
"241033","AAC-255","2019/08/12 18:00:01","新北市三重區重新路五段646-1號","121.468153333333","25.0441566666667","6500200","三重區"
"235064","005-UY","2019/08/12 17:59:42","新北市中和區錦和路350-1號","121.490061666667","24.9935716666667","6500300","中和區"
"235065","098-UM","2019/08/12 17:59:47","新北市中和區橋和路12號","121.488865","25.0050666666667","6500300","中和區"
"235040","150-BY","2019/08/12 17:59:47","新北市中和區和城路一段271巷1號","121.485478333333","24.9917183333333","6500300","中和區"
"235058","151-BY","2019/08/12 17:59:43","新北市中和區圓通路367巷15-1號","121.492196666667","24.9873633333333","6500300","中和區"
"235042","KEA-2878","2019/08/12 17:59:50","新北市中和區和城路一段271巷1號","121.485495","24.9918016666667","6500300","中和區"
"247014","KEA-2869","2019/08/12 17:59:53","新北市蘆洲區復興路10號","121.471791666667","25.085215","6501400","蘆洲區"
"235054","640-BX","2019/08/12 17:59:47","新北市中和區連城路523巷13弄26號","121.48225","24.9936","6500300","中和區"
"235062","800-TS","2019/08/12 17:59:51","新北市中和區中正路458號","121.490641666667","24.9942233333333","6500300","中和區"
"235057","801-TS","2019/08/12 17:59:51","新北市中和區新生街288號","121.48365","24.99655","6500300","中和區"
"235052","805-TS","2019/08/12 17:59:55","新北市中和區錦和路350-1號","121.490611666667","24.993655","6500300","中和區"
"235043","911-UM","2019/08/12 17:59:45","新北市中和區建八路28-1號","121.48722","24.9985666666667","6500300","中和區"
"235051","157-BY","2019/08/12 17:59:56","新北市中和區和城路一段271巷1號","121.485368333333","24.99187","6500300","中和區"
"235037","AAC-213","2019/08/12 17:59:56","新北市中和區景平路149號","121.513891666667","24.9921033333333","6500300","中和區"
"247018","546-UM","2019/08/12 17:59:47","新北市蘆洲區復興路231號","121.479993333333","25.08987","6501400","蘆洲區"
"247002","500-BY","2019/08/12 17:59:47","新北市蘆洲區永平街32巷45弄11號","121.459146666667","25.0925666666667","6501400","蘆洲區"
"247012","056-VK","2019/08/12 17:59:46","新北市蘆洲區民族路165號","121.479263333333","25.0883316666667","6501400","蘆洲區"
"247020","007-UY","2019/08/12 18:00:00","新北市蘆洲區民義街35巷7號","121.47162","25.0894983333333","6501400","蘆洲區"
"228003","097-TW","2019/08/12 17:59:57","新北市貢寮區真理里美艷山街6-2號","121.928768333333","25.0607866666667","6502600","貢寮區"
"228002","663-BX","2019/08/12 18:00:06","新北市貢寮區福隆里東興街31-1號","121.953023333333","25.0208733333333","6502600","貢寮區"
"228001","670-TC","2019/08/12 17:59:54","新北市貢寮區真理里新港街26巷33號","121.928573333333","25.0550116666667","6502600","貢寮區"
"224006","676-BX","2019/08/12 17:59:54","新北市瑞芳區大寮路356-1號","121.784893333333","25.103235","6501200","瑞芳區"
"224009","275-VK","2019/08/12 17:59:48","新北市瑞芳區新山路183號","121.851056666667","25.108875","6501200","瑞芳區"
"224008","273-VK","2019/08/12 18:00:03","新北市瑞芳區明燈路一段45巷83號","121.821898333333","25.1047183333333","6501200","瑞芳區"
"224005","271-BY","2019/08/12 17:59:56","新北市瑞芳區深澳路197-2號","121.8196","25.1339016666667","6501200","瑞芳區"
"227001","400-TW","2019/08/12 18:00:03","新北市雙溪區三貂里政光路3-1號","121.85077","25.0633316666667","6502500","雙溪區"
"253006","032-BX","2019/08/12 17:59:47","新北市石門區大丘田45-6號","121.549591666667","25.276595","6502200","石門區"
"222001","KEA-2212","2019/08/12 17:59:56","新北市深坑區北深路二段193號","121.612003333333","25.00118","6501800","深坑區"
"208002","KEA-2872","2019/08/12 17:59:53","新北市金山區三界壇路60號","121.620161666667","25.2306516666667","6502700","金山區"
"208003","665-BX","2019/08/12 17:59:52","新北市金山區磺港里磺港路319號","121.644756666667","25.22771","6502700","金山區"
"251009","008-UM","2019/08/12 17:59:47","新北市淡水區原德路25號","121.44221","25.1714866666667","6501000","淡水區"
"251004","009-UM","2019/08/12 17:59:55","新北市淡水區民權路187巷11號","121.46004","25.133515","6501000","淡水區"
"251010","012-UM","2019/08/12 17:59:44","新北市淡水區中正路一段130-7號","121.421983333333","25.1792833333333","6501000","淡水區"
"251015","KEA-2871","2019/08/12 18:00:00","新北市淡水區興福寮100號","121.487075","25.16448","6501000","淡水區"
"251016","179-VK","2019/08/12 17:59:49","新北市淡水區淡金路三段46巷13弄1號","121.448251666667","25.19928","6501000","淡水區"
"251008","181-VK","2019/08/12 17:59:57","新北市淡水區八勢一街77號","121.461446666667","25.1550133333333","6501000","淡水區"
"251013","182-VK","2019/08/12 17:59:45","新北市淡水區泉洲厝31號","121.47957","25.19101","6501000","淡水區"
"251012","441-VK","2019/08/12 18:00:03","新北市淡水區北新路三段38巷7號","121.484513333333","25.1870066666667","6501000","淡水區"
"251005","443-VK","2019/08/12 17:59:54","新北市淡水區英專路149號","121.446838333333","25.172895","6501000","淡水區"
"251001","559-UM","2019/08/12 18:00:01","新北市淡水區民權路17號","121.46382","25.1241066666667","6501000","淡水區"
"251006","561-UM","2019/08/12 17:59:55","新北市淡水區新生街18號","121.438931666667","25.173495","6501000","淡水區"
"251014","577-R6","2019/08/12 17:59:59","新北市淡水區南平6-1號","121.480506666667","25.223915","6501000","淡水區"
"251011","650-BX","2019/08/12 17:58:57","新北市淡水區吳(仔)厝29號","121.479533333333","25.1493166666667","6501000","淡水區"
"251002","672-BX","2019/08/12 17:59:50","新北市淡水區中山路18-1號","121.444585","25.1693366666667","6501000","淡水區"
"251003","766-UM","2019/08/12 17:59:56","新北市淡水區大忠街45號","121.444656666667","25.1763733333333","6501000","淡水區"
"207004","681-TV","2019/08/12 17:59:53","新北市萬里區萬里里瑪鋉路5號","121.68617","25.1749","6502800","萬里區"
"207003","550-UM","2019/08/12 17:59:45","新北市萬里區野柳里東澳路66號","121.692793333333","25.200965","6502800","萬里區"
"252002","178-VK","2019/08/12 18:00:02","新北市三芝區中山路二段47巷8號","121.502725","25.2549833333333","6502100","三芝區"
"252003","249-BX","2019/08/12 17:59:46","新北市三芝區埔坪里埔頭坑41號","121.50454","25.264665","6502100","三芝區"
"208001","170-UY","2019/08/12 18:00:02","新北市金山區磺港里磺港路228號","121.644653333333","25.2257566666667","6502700","金山區"
"237004","KEA-2597","2019/08/12 17:59:58","新北市三峽區中園街227號","121.366945","24.91979","6500900","三峽區"
"237007","153-BY","2019/08/12 18:00:00","新北市三峽區中園街181號","121.367163333333","24.921505","6500900","三峽區"
"237009","210-TH","2019/08/12 17:59:49","新北市三峽區中山路106巷3號","121.366075","24.9359716666667","6500900","三峽區"
"237013","252-BX","2019/08/12 17:59:49","新北市三峽區介壽路一段135號","121.376213333333","24.9317083333333","6500900","三峽區"
"237012","275-BY","2019/08/12 17:59:59","新北市三峽區民生街27巷1號","121.376071666667","24.9363166666667","6500900","三峽區"
"237008","302-VK","2019/08/12 17:59:53","新北市三峽區白雞30-3號","121.369691666667","24.9123333333333","6500900","三峽區"
"237014","433-BY","2019/08/12 17:59:46","新北市三峽區復興路101巷1弄71號","121.371521666667","24.9374116666667","6500900","三峽區"
"237006","5529-G3","2019/08/12 17:59:48","新北市三峽區介壽路二段138巷1弄62號","121.396823333333","24.93335","6500900","三峽區"
"237011","KEA-2596","2019/08/12 17:59:57","新北市三峽區光明路69巷1號","121.375843333333","24.92868","6500900","三峽區"
"237015","649-BX","2019/08/12 18:00:03","新北市三峽區紫微路87號","121.404206666667","24.908675","6500900","三峽區"
"237010","706-TV","2019/08/12 17:59:43","新北市三峽區中山路81號","121.366781666667","24.9351783333333","6500900","三峽區"
"237005","AKY-6261","2019/08/12 17:59:51","新北市三峽區和平街79巷8號","121.369741666667","24.93749","6500900","三峽區"
"236042","KED-0685","2019/08/12 17:59:45","新北市土城區城林路6巷80號","121.438478333333","24.9796466666667","6501300","土城區"
"233002","762-BX","2019/08/12 17:59:50","新北市烏來區烏來街101號","121.551468333333","24.8636833333333","6502900","烏來區"
"236078","166-UM","2019/08/12 17:59:44","新北市土城區永寧路32巷1-1號","121.42928","24.9605183333333","6501300","土城區"
"236030","253-BX","2019/08/12 17:59:54","新北市土城區城林路6巷80號","121.438671666667","24.97958","6501300","土城區"
"236026","269-VK","2019/08/12 17:59:59","新北市土城區城林路6巷80號","121.438663333333","24.9800433333333","6501300","土城區"
"236014","270-VK","2019/08/12 17:59:52","新北市土城區城林路6巷80號","121.438468333333","24.9795616666667","6501300","土城區"
"236039","271-VK","2019/08/12 17:59:47","新北市土城區中華路二段2號","121.439236666667","24.9796983333333","6501300","土城區"
"247010","KED-0683","2019/08/12 17:59:50","新北市蘆洲區信義路271巷2號","121.478673333333","25.0849916666667","6501400","蘆洲區"
"236069","KEA-2877","2019/08/12 18:00:00","新北市土城區中華路二段2號","121.439101666667","24.979755","6501300","土城區"
"252001","KED-0821","2019/08/12 17:59:47","新北市三芝區中興街二段2號","121.498375","25.25663","6502100","三芝區"
"236020","401-BY","2019/08/12 17:59:52","新北市土城區城林路6巷80號","121.438423333333","24.9797016666667","6501300","土城區"
"236059","912-UM","2019/08/12 17:59:48","新北市土城區中央路三段260號","121.427183333333","24.9639783333333","6501300","土城區"
"236048","913-UM","2019/08/12 17:59:58","新北市土城區中華路二段2號","121.439158333333","24.9796983333333","6501300","土城區"
"236063","915-UM","2019/08/12 17:59:53","新北市土城區城林路6巷80號","121.438501666667","24.9796533333333","6501300","土城區"
"236055","AAC-216","2019/08/12 17:59:54","新北市土城區城林路6巷80號","121.438443333333","24.9796033333333","6501300","土城區"
"242060","986-R7","2019/08/12 17:59:53","新北市新莊區新樹路254-1號","121.432838333333","25.016195","6500500","新莊區"
"242002","751-BX","2019/08/12 18:00:00","新北市新莊區大觀街42巷3號","121.453978333333","25.03563","6500500","新莊區"
"242029","615-BX","2019/08/12 17:59:53","新北市新莊區中平路110巷7號","121.445428333333","25.0461433333333","6500500","新莊區"
"242027","613-BX","2019/08/12 17:59:46","新北市新莊區思源路423號","121.459763333333","25.05274","6500500","新莊區"
"242058","612-BX","2019/08/12 17:59:45","新北市新莊區中正路730-13號","121.414453333333","25.0234683333333","6500500","新莊區"
"242046","566-BX","2019/08/12 18:00:03","新北市新莊區福營路165巷17號","121.43245","25.0307116666667","6500500","新莊區"
"242050","497-BY","2019/08/12 18:00:03","新北市新莊區民本街53巷13號","121.42869","25.01814","6500500","新莊區"
"242056","441-UM","2019/08/12 18:00:00","新北市新莊區豐年街126號","121.446446666667","25.0297883333333","6500500","新莊區"
"242004","440-UM","2019/08/12 18:00:01","新北市新莊區思源路177巷17號","121.459255","25.046285","6500500","新莊區"
"242042","415-TV","2019/08/12 17:59:45","新北市新莊區中正路723-9號","121.422988333333","25.02908","6500500","新莊區"
"242011","413-TV","2019/08/12 17:59:57","新北市新莊區中港路637號","121.451105","25.054455","6500500","新莊區"
"242048","400-BY","2019/08/12 17:59:47","新北市新莊區萬安街54號","121.42107","25.0237066666667","6500500","新莊區"
"242025","362-BY","2019/08/12 17:59:50","新北市新莊區五工路58號","121.458856666667","25.0627716666667","6500500","新莊區"
"242023","353-BY","2019/08/12 17:59:52","新北市新莊區福壽街1號","121.45772","25.0476216666667","6500500","新莊區"
"242013","132-UY","2019/08/12 18:00:04","新北市新莊區中和街125巷12號","121.446981666667","25.04865","6500500","新莊區"
"242036","135-UY","2019/08/12 17:59:55","新北市新莊區建福路63號","121.426835","25.0271966666667","6500500","新莊區"
"242053","172-VK","2019/08/12 17:59:44","新北市新莊區光華街35號","121.42878","25.0111883333333","6500500","新莊區"
"242015","173-VK","2019/08/12 17:59:57","新北市新莊區中平路87巷8號","121.444271666667","25.0458866666667","6500500","新莊區"
"242021","175-VK","2019/08/12 17:59:47","新北市新莊區中正路174號","121.450575","25.03583","6500500","新莊區"
"242019","KED-0687","2019/08/12 17:59:52","新北市新莊區明中街43巷4號","121.457506666667","25.038965","6500500","新莊區"
"242039","346-TH","2019/08/12 17:59:51","新北市新莊區民安西路24巷9號","121.426376666667","25.0209916666667","6500500","新莊區"
"242034","348-TH","2019/08/12 18:00:00","新北市新莊區中正路421巷9號","121.444763333333","25.0338216666667","6500500","新莊區"
"242007","349-TH","2019/08/12 17:59:48","新北市新莊區自信街65巷10號","121.455493333333","25.04863","6500500","新莊區"
"242031","350-TH","2019/08/12 17:59:56","新北市新莊區新泰路287號","121.445553333333","25.0406516666667","6500500","新莊區"
"242017","351-TH","2019/08/12 17:59:56","新北市新莊區中和街60巷15號","121.448575","25.0448433333333","6500500","新莊區"
"238015","755-BX","2019/08/12 17:59:53","新北市樹林區大安路323巷6號","121.417603333333","24.991505","6500700","樹林區"
"238023","601-UM","2019/08/12 17:59:45","新北市樹林區龍興街46巷24號","121.402206666667","25.0152866666667","6500700","樹林區"
"238019","599-UM","2019/08/12 17:59:51","新北市樹林區太平路186號","121.418343333333","24.9764933333333","6500700","樹林區"
"238018","KEA-2217","2019/08/12 18:00:00","新北市樹林區樹新路106巷1號","121.429983333333","24.9977116666667","6500700","樹林區"
"238022","KEA-2213","2019/08/12 17:59:50","新北市樹林區國凱街21-1號","121.4191","24.9782783333333","6500700","樹林區"
"238021","KEA-2539","2019/08/12 17:59:59","新北市樹林區柑園街一段157號","121.400255","24.9582483333333","6500700","樹林區"
"238025","303-VK","2019/08/12 17:59:51","新北市樹林區俊興街170號","121.41731","25.0132933333333","6500700","樹林區"
"238017","283-BY","2019/08/12 18:00:00","新北市樹林區三德街32號","121.414698333333","25.01314","6500700","樹林區"
"238014","282-BY","2019/08/12 17:59:53","新北市樹林區中正路47號","121.426905","24.9995716666667","6500700","樹林區"
"238020","268-VK","2019/08/12 17:59:50","新北市樹林區三俊街199巷14號","121.420281666667","25.0169766666667","6500700","樹林區"
"238026","172-UY","2019/08/12 17:59:58","新北市樹林區中洲街30巷13弄45號","121.398351666667","24.9727033333333","6500700","樹林區"
"238016","169-UY","2019/08/12 17:58:57","新北市樹林區育英街135巷5弄3號","121.419773333333","24.9886783333333","6500700","樹林區"
"239007","AAC-297","2019/08/12 17:59:55","新北市鶯歌區鶯桃路94巷59弄12號","121.341315","24.9552866666667","6500800","鶯歌區"
"239006","891-R6","2019/08/12 17:59:58","新北市鶯歌區鶯桃路413巷70號","121.330106666667","24.9631783333333","6500800","鶯歌區"
"239008","527-UM","2019/08/12 17:59:42","新北市鶯歌區香賓街8巷1號","121.33664","24.9789983333333","6500800","鶯歌區"
"239005","526-UM","2019/08/12 17:59:49","新北市鶯歌區鳳吉五街4號","121.326508333333","24.972085","6500800","鶯歌區"
"239001","417-VK","2019/08/12 18:00:02","新北市鶯歌區中正三路328號","121.32784","24.9350966666667","6500800","鶯歌區"
"239003","360-BY","2019/08/12 17:59:51","新北市鶯歌區永吉街21號","121.33597","24.9577433333333","6500800","鶯歌區"
"239002","359-BY","2019/08/12 18:00:00","新北市鶯歌區育智路86號","121.344968333333","24.95465","6500800","鶯歌區"
"221008","489-VK","2019/08/12 17:59:59","新北市汐止區康寧街753巷1-1號","121.63911","25.0737616666667","6501100","汐止區"
"221036","130-UY","2019/08/12 17:59:46","新北市汐止區大同路三段21號","121.6664","25.0760716666667","6501100","汐止區"
"244019","KED-0667","2019/08/12 17:59:56","新北市林口區文化一路一段100巷35號","121.374496666667","25.06992","6501700","林口區"
"221010","269-BY","2019/08/12 17:59:50","新北市汐止區汐萬路二段247號","121.646418333333","25.08827","6501100","汐止區"
"221012","278-VK","2019/08/12 18:00:04","新北市汐止區長興街一段53號","121.670558333333","25.0794866666667","6501100","汐止區"
"221023","279-VK","2019/08/12 17:59:48","新北市汐止區明峰街13號","121.63504","25.071405","6501100","汐止區"
"221029","298-VK","2019/08/12 18:00:00","新北市汐止區樟樹二路324號","121.641415","25.07012","6501100","汐止區"
"221031","353-TW","2019/08/12 17:59:52","新北市汐止區中興路96巷1-3號","121.635235","25.0625483333333","6501100","汐止區"
"221035","622-UM","2019/08/12 17:59:57","新北市汐止區汐萬路一段211巷15號","121.651333333333","25.071795","6501100","汐止區"
"221025","623-UM","2019/08/12 17:59:51","新北市汐止區仁愛路10號","121.659368333333","25.06361","6501100","汐止區"
"221038","646-BX","2019/08/12 17:59:46","新北市汐止區連興街128巷5號","121.653475","25.0616533333333","6501100","汐止區"
"221033","647-BX","2019/08/12 17:59:54","新北市汐止區合順街39巷2號","121.62073","25.043265","6501100","汐止區"
"221002","707-TV","2019/08/12 17:59:59","新北市汐止區中興路62號","121.635443333333","25.0614633333333","6501100","汐止區"
"242044","281-VK","2019/08/12 17:59:55","新北市新莊區雙鳳路73巷1號","121.414968333333","25.0275883333333","6500500","新莊區"
"242009","280-VK","2019/08/12 17:59:59","新北市新莊區中華路二段294號","121.452463333333","25.0538733333333","6500500","新莊區"
"220073","985-R7","2019/08/12 17:59:57","新北市板橋區華東街1-10號","121.448276666667","24.9949783333333","6500100","板橋區"
"235061","KEA-2875","2019/08/12 18:00:00","新北市中和區連城路585號","121.478581666667","24.99405","6500300","中和區"
"235038","KEA-2876","2019/08/12 17:59:38","新北市中和區中正路277號","121.49538","24.9937216666667","6500300","中和區"
