"lineid","car","time","location","longitude","latitude","cityid","cityname"
"234026","9371-KE","2019/08/12 18:09:49","新北市永和區自由街33號","121.514305","25.0063616666667","6500400","永和區"
"249005","172-UM","2019/08/12 18:09:49","新北市八里區荖阡坑路15-40號","121.401743333333","25.1398516666667","6502300","八里區"
"249001","173-UM","2019/08/12 18:09:51","新北市八里區龍米路二段30號","121.448638333333","25.1399316666667","6502300","八里區"
"249004","303-UY","2019/08/12 18:09:44","新北市八里區龍米路二段159巷2-10號","121.43884","25.1531966666667","6502300","八里區"
"249002","305-UY","2019/08/12 18:10:03","新北市八里區龍米路一段356巷46號","121.45214","25.130315","6502300","八里區"
"249003","593-UM","2019/08/12 18:09:59","新北市八里區松子腳4-3號","121.402976666667","25.1442366666667","6502300","八里區"
"248014","025-BX","2019/08/12 18:09:51","新北市五股區成泰路一段189巷29號","121.433561666667","25.0763483333333","6501500","五股區"
"248016","026-BX","2019/08/12 18:09:46","新北市五股區成泰路三段173號","121.445316666667","25.0919466666667","6501500","五股區"
"248006","077-UY","2019/08/12 18:09:53","新北市五股區中興路二段53號","121.461823333333","25.0765166666667","6501500","五股區"
"248008","KED-0815","2019/08/12 18:10:01","新北市蘆洲區永安南路二段294號","121.457285","25.0818116666667","6501500","五股區"
"248018","KED-0813","2019/08/12 18:09:50","新北市五股區成泰路三段79號","121.443721666667","25.0899483333333","6501500","五股區"
"248004","677-BX","2019/08/12 18:10:01","新北市五股區中興路四段40號","121.438493333333","25.0828333333333","6501500","五股區"
"248002","678-BX","2019/08/12 18:10:04","新北市五股區中興路三段190-2號","121.44357","25.08157","6501500","五股區"
"248010","682-TV","2019/08/12 18:09:56","新北市五股區成泰路一段220-1號","121.436381666667","25.07928","6501500","五股區"
"232011","375-UM","2019/08/12 18:09:57","新北市坪林區國中路1號","121.712693333333","24.9366016666667","6502000","坪林區"
"244007","080-UY","2019/08/12 18:09:52","新北市林口區林口路222號","121.38701","25.083515","6501700","林口區"
"244023","402-UM","2019/08/12 18:09:54","新北市林口區隆林街215巷26號","121.3836","25.0734","6501700","林口區"
"244013","KEA-2802","2019/08/12 18:09:49","新北市林口區佳林路101巷34號","121.386953333333","25.08002","6501700","林口區"
"244017","485-VK","2019/08/12 18:09:52","新北市林口區忠孝路501號","121.37084","25.07017","6501700","林口區"
"244009","656-BX","2019/08/12 18:09:46","新北市林口區民生路115號","121.3768","25.088755","6501700","林口區"
"244011","657-BX","2019/08/12 18:09:57","新北市林口區中正路74巷5弄1號","121.394626666667","25.0778533333333","6501700","林口區"
"244025","837-TS","2019/08/12 18:09:56","新北市林口區文化北路一段290號","121.359981666667","25.072455","6501700","林口區"
"244021","838-TS","2019/08/12 18:09:57","新北市林口區自強一街105號","121.400593333333","25.0765816666667","6501700","林口區"
"243013","646-TV","2019/08/12 18:09:45","新北市泰山區犁頭窠16號","121.421096666667","25.0526183333333","6501600","泰山區"
"222003","436-BY","2019/08/12 18:09:50","新北市深坑區文山路三段15號","121.612878333333","24.9980233333333","6501800","深坑區"
"222002","659-BX","2019/08/12 18:09:57","新北市深坑區文化街52號","121.61896","25.001535","6501800","深坑區"
"231061","002-UM","2019/08/12 18:09:59","新北市新店區安華路28-1號","121.519861666667","24.9610316666667","6500600","新店區"
"231044","046-UY","2019/08/12 18:10:01","新北市新店區安華路28-1號","121.519283333333","24.9605966666667","6500600","新店區"
"231051","107-UY","2019/08/12 18:09:47","新北市新店區安一路一段1-1號","121.51964","24.9611033333333","6500600","新店區"
"231042","268-BY","2019/08/12 18:09:49","新北市新店區安一路一段1-1號","121.519678333333","24.96132","6500600","新店區"
"231045","355-BY","2019/08/12 18:10:03","新北市新店區安華路28-1號","121.519105","24.9608833333333","6500600","新店區"
"231056","4715-K9","2019/08/12 18:09:45","新北市新店區安華路28-1號","121.519378333333","24.96055","6500600","新店區"
"231041","619-UM","2019/08/12 18:09:52","新北市新店區安華路28-1號","121.519316666667","24.9606916666667","6500600","新店區"
"231047","KED-0819","2019/08/12 18:09:59","新北市新店區安一路一段1-1號","121.519675","24.9613216666667","6500600","新店區"
"241003","091-VK","2019/08/12 18:10:01","新北市八里區中華路三段45號","121.395538333333","25.1419066666667","6500200","三重區"
"241033","AAC-255","2019/08/12 18:10:01","新北市三重區光復路一段68巷36號","121.470585","25.049255","6500200","三重區"
"235064","005-UY","2019/08/12 18:10:02","新北市中和區中正路143號","121.499191666667","24.9936416666667","6500300","中和區"
"235063","006-UY","2019/08/12 18:09:47","新北市中和區中正路545巷1號","121.487376666667","24.9938033333333","6500300","中和區"
"235039","097-UM","2019/08/12 18:10:02","新北市中和區中正路637巷52弄1號","121.485586666667","24.9936366666667","6500300","中和區"
"235065","098-UM","2019/08/12 18:09:47","新北市中和區莊敬路49巷18號","121.501608333333","25.0061366666667","6500300","中和區"
"235040","150-BY","2019/08/12 18:09:47","新北市中和區中正路277號","121.495296666667","24.9938583333333","6500300","中和區"
"235058","151-BY","2019/08/12 18:09:43","新北市中和區圓通路367巷62-8號","121.492918333333","24.98313","6500300","中和區"
"235055","183-VK","2019/08/12 18:10:04","新北市中和區連城路518巷1號","121.47664","24.9918716666667","6500300","中和區"
"235072","301-VK","2019/08/12 18:09:54","新北市中和區中正路589巷15號","121.485811666667","24.99353","6500300","中和區"
"235042","KEA-2878","2019/08/12 18:09:50","新北市中和區中正路169號","121.498008333333","24.9936916666667","6500300","中和區"
"247014","KEA-2869","2019/08/12 18:09:53","新北市蘆洲區永康街8號","121.459196666667","25.0858066666667","6501400","蘆洲區"
"235050","4979-A6","2019/08/12 18:09:54","新北市中和區中正路637巷52弄1號","121.485455","24.99354","6500300","中和區"
"235070","558-UM","2019/08/12 18:09:47","新北市中和區中正路408號","121.492208333333","24.993885","6500300","中和區"
"235045","565-BX","2019/08/12 18:09:48","新北市中和區南山路148號","121.504196666667","24.9922016666667","6500300","中和區"
"235060","KED-0823","2019/08/12 18:09:52","新北市中和區員山路72-2號","121.481206666667","24.9936433333333","6500300","中和區"
"235054","640-BX","2019/08/12 18:09:47","新北市中和區莒光路203號","121.47258","24.998975","6500300","中和區"
"235046","733-UM","2019/08/12 18:09:49","新北市中和區員山路36巷13號","121.484093333333","24.9909466666667","6500300","中和區"
"235062","800-TS","2019/08/12 18:09:51","新北市中和區中正路828號","121.484885","25.0037033333333","6500300","中和區"
"235057","801-TS","2019/08/12 18:09:51","新北市中和區民享街97巷14號","121.475306666667","24.9995816666667","6500300","中和區"
"235052","805-TS","2019/08/12 18:09:55","新北市中和區南山路497號","121.508013333333","24.9877666666667","6500300","中和區"
"235048","896-TW","2019/08/12 18:09:55","新北市中和區員山路36巷16-2號","121.485221666667","24.99167","6500300","中和區"
"235053","900-TW","2019/08/12 18:09:42","新北市中和區員山路36巷16-2號","121.485173333333","24.9915683333333","6500300","中和區"
"235043","911-UM","2019/08/12 18:10:05","新北市中和區中正路130號","121.49945","24.993955","6500300","中和區"
"235051","157-BY","2019/08/12 18:09:56","新北市中和區南山路287號","121.504325","24.99209","6500300","中和區"
"235037","AAC-213","2019/08/12 18:09:56","新北市中和區景德街74號","121.516666666667","24.9914766666667","6500300","中和區"
"247002","500-BY","2019/08/12 18:09:47","新北市蘆洲區三民路609號","121.460235","25.0934666666667","6501400","蘆洲區"
"247012","056-VK","2019/08/12 18:09:46","新北市蘆洲區民族路150號","121.479536666667","25.0860716666667","6501400","蘆洲區"
"226004","312-R5","2019/08/12 18:10:00","新北市平溪區白石里白石腳32號","121.719138333333","25.0214566666667","6502400","平溪區"
"228003","097-TW","2019/08/12 18:09:57","新北市貢寮區真理里美艷山街6-2號","121.928775","25.0607733333333","6502600","貢寮區"
"228002","663-BX","2019/08/12 18:09:46","新北市貢寮區福連里福連街5號","121.988115","25.0150066666667","6502600","貢寮區"
"228001","670-TC","2019/08/12 18:09:54","新北市貢寮區真理里新港街26巷55弄2-1號","121.927316666667","25.0528383333333","6502600","貢寮區"
"224006","676-BX","2019/08/12 18:09:54","新北市瑞芳區中山路157號","121.802178333333","25.1065","6501200","瑞芳區"
"224002","639-TC","2019/08/12 18:10:01","新北市瑞芳區三爪子坑路72號","121.810418333333","25.1055566666667","6501200","瑞芳區"
"224007","285-BY","2019/08/12 18:09:45","新北市瑞芳區四腳亭坑路8號","121.777773333333","25.1096783333333","6501200","瑞芳區"
"224009","275-VK","2019/08/12 18:09:47","新北市瑞芳區山尖路126號","121.851233333333","25.1132416666667","6501200","瑞芳區"
"224008","273-VK","2019/08/12 18:10:03","新北市瑞芳區員山子路23號","121.821391666667","25.1030633333333","6501200","瑞芳區"
"224005","271-BY","2019/08/12 18:09:56","新北市瑞芳區深澳路4號","121.81677","25.12893","6501200","瑞芳區"
"227002","642-TC","2019/08/12 18:10:01","新北市雙溪區共和里東榮街27號","121.866005","25.03366","6502500","雙溪區"
"227001","400-TW","2019/08/12 18:10:03","新北市雙溪區三貂里政光路3-1號","121.850788333333","25.0633766666667","6502500","雙溪區"
"253006","032-BX","2019/08/12 18:09:47","新北市石門區老梅路52巷21號","121.546451666667","25.288485","6502200","石門區"
"253005","295-VK","2019/08/12 18:09:43","新北市石門區福安街47號","121.56846","25.2918533333333","6502200","石門區"
"222001","KEA-2212","2019/08/12 18:09:48","新北市深坑區北深路二段186號","121.614066666667","25.002255","6501800","深坑區"
"208002","KEA-2872","2019/08/12 18:09:53","新北市金山區三界壇路111巷20-3號","121.617946666667","25.2322783333333","6502700","金山區"
"208003","665-BX","2019/08/12 18:09:52","新北市金山區磺港里磺港路314號","121.644735","25.22775","6502700","金山區"
"251009","008-UM","2019/08/12 18:09:47","新北市淡水區大仁街6巷23號","121.443041666667","25.1751583333333","6501000","淡水區"
"251004","009-UM","2019/08/12 18:10:00","新北市淡水區民族路110巷41號","121.461651666667","25.135215","6501000","淡水區"
"251010","012-UM","2019/08/12 18:09:44","新北市淡水區淡海路156號","121.421061666667","25.1831916666667","6501000","淡水區"
"251015","KEA-2871","2019/08/12 18:10:00","新北市淡水區興福寮88巷1號","121.485236666667","25.1649166666667","6501000","淡水區"
"251016","179-VK","2019/08/12 18:09:49","新北市淡水區淡金路三段46巷60號","121.4504","25.2001216666667","6501000","淡水區"
"251008","181-VK","2019/08/12 18:09:57","新北市淡水區八勢一街10號","121.460155","25.155985","6501000","淡水區"
"251013","182-VK","2019/08/12 18:09:45","新北市淡水區竹圍子12號","121.476441666667","25.1936766666667","6501000","淡水區"
"251012","441-VK","2019/08/12 18:09:43","新北市淡水區泉洲厝13號","121.488413333333","25.1900433333333","6501000","淡水區"
"251005","443-VK","2019/08/12 18:09:54","新北市淡水區水源街一段145號","121.447345","25.1718416666667","6501000","淡水區"
"251001","559-UM","2019/08/12 18:10:01","新北市淡水區自立路15巷1號","121.463018333333","25.1298166666667","6501000","淡水區"
"251006","561-UM","2019/08/12 18:09:55","新北市淡水區真理街3巷24-1號","121.437881666667","25.1764966666667","6501000","淡水區"
"251014","577-R6","2019/08/12 18:09:59","新北市淡水區南平14-2號","121.48618","25.2207216666667","6501000","淡水區"
"251011","650-BX","2019/08/12 18:09:57","新北市淡水區三空泉5號","121.477208333333","25.1613633333333","6501000","淡水區"
"251002","672-BX","2019/08/12 18:09:57","新北市淡水區中正東路一段3巷2號","121.450481666667","25.164665","6501000","淡水區"
"251003","766-UM","2019/08/12 18:09:56","新北市淡水區大忠街113巷22號","121.447363333333","25.1775416666667","6501000","淡水區"
"207004","681-TV","2019/08/12 18:09:53","新北市萬里區中幅里中福路84號","121.675998333333","25.1705733333333","6502800","萬里區"
"207003","550-UM","2019/08/12 18:10:05","新北市萬里區港東路野柳風景區攤販98號","121.690906666667","25.205515","6502800","萬里區"
"252002","178-VK","2019/08/12 18:09:41","新北市三芝區中山路二段41號","121.502971666667","25.255085","6502100","三芝區"
"252003","249-BX","2019/08/12 18:09:46","新北市三芝區埔頭里埔頭37號","121.498445","25.26033","6502100","三芝區"
"208001","170-UY","2019/08/12 18:10:02","新北市金山區磺港里磺港路61號","121.647568333333","25.2272716666667","6502700","金山區"
"237004","KEA-2597","2019/08/12 18:09:58","新北市三峽區大埔路150-1號","121.366221666667","24.9014483333333","6500900","三峽區"
"237007","153-BY","2019/08/12 18:10:00","新北市三峽區中正路二段370巷81號","121.364266666667","24.91162","6500900","三峽區"
"237009","210-TH","2019/08/12 18:10:04","新北市三峽區復興路303巷1弄2號","121.365525","24.9383133333333","6500900","三峽區"
"237013","252-BX","2019/08/12 18:09:49","新北市三峽區長泰街55號","121.377325","24.9328866666667","6500900","三峽區"
"237012","275-BY","2019/08/12 18:09:59","新北市三峽區民生街19巷7弄37號","121.377466666667","24.935575","6500900","三峽區"
"237008","302-VK","2019/08/12 18:09:53","新北市三峽區白雞42-3號","121.379021666667","24.9112233333333","6500900","三峽區"
"237014","433-BY","2019/08/12 18:09:46","新北市三峽區和平街48號","121.370313333333","24.9376116666667","6500900","三峽區"
"237006","5529-G3","2019/08/12 18:09:48","新北市三峽區橫溪路15號","121.396235","24.9359183333333","6500900","三峽區"
"237011","KEA-2596","2019/08/12 18:09:47","新北市三峽區中正路一段48號","121.375295","24.93042","6500900","三峽區"
"237015","649-BX","2019/08/12 18:10:03","新北市三峽區紫微路23-1號","121.423196666667","24.9202033333333","6500900","三峽區"
"237010","706-TV","2019/08/12 18:09:43","新北市三峽區民權街200號","121.367696666667","24.9291983333333","6500900","三峽區"
"237005","AKY-6261","2019/08/12 18:09:51","新北市三峽區忠孝街21號","121.370901666667","24.9341666666667","6500900","三峽區"
"236042","KED-0685","2019/08/12 18:09:45","新北市土城區城林路6巷80號","121.43857","24.97965","6501300","土城區"
"233002","762-BX","2019/08/12 18:09:50","新北市烏來區新烏路五段117號","121.547748333333","24.8714633333333","6502900","烏來區"
"236078","166-UM","2019/08/12 18:09:44","新北市土城區永寧路30-1號","121.429401666667","24.960725","6501300","土城區"
"236030","253-BX","2019/08/12 18:09:55","新北市土城區城林路6巷80號","121.438521666667","24.9796","6501300","土城區"
"236026","269-VK","2019/08/12 18:09:59","新北市土城區承天路20號","121.439563333333","24.963435","6501300","土城區"
"236014","270-VK","2019/08/12 18:09:52","新北市土城區明德路二段137號","121.449003333333","24.9827466666667","6501300","土城區"
"236039","271-VK","2019/08/12 18:09:47","新北市土城區明德路一段280-1號","121.457448333333","24.977455","6501300","土城區"
"236069","KEA-2877","2019/08/12 18:10:00","新北市土城區明德路一段280-1號","121.457166666667","24.9775283333333","6501300","土城區"
"252001","KED-0821","2019/08/12 18:09:47","新北市三芝區中興街二段2號","121.498378333333","25.2566266666667","6502100","三芝區"
"236020","401-BY","2019/08/12 18:09:52","新北市土城區員福街30號","121.44132","24.9787483333333","6501300","土城區"
"236059","912-UM","2019/08/12 18:09:48","新北市土城區中央路四段244號","121.415193333333","24.9569916666667","6501300","土城區"
"236048","913-UM","2019/08/12 18:09:58","新北市土城區明德路一段365-1號","121.453541666667","24.97905","6501300","土城區"
"236063","915-UM","2019/08/12 18:09:53","新北市土城區金城路二段58號","121.45223","24.9796366666667","6501300","土城區"
"236055","AAC-216","2019/08/12 18:09:54","新北市土城區中華路二段92號","121.438228333333","24.97472","6501300","土城區"
"242060","986-R7","2019/08/12 18:09:56","新北市新莊區新樹路223號","121.435465","25.0231333333333","6500500","新莊區"
"242002","751-BX","2019/08/12 18:09:59","新北市新莊區中正路78-1號","121.458415","25.0379216666667","6500500","新莊區"
"242029","615-BX","2019/08/12 18:09:53","新北市新莊區幸福路860號","121.44379","25.0490466666667","6500500","新莊區"
"242027","613-BX","2019/08/12 18:09:46","新北市新莊區幸福路513號","121.455695","25.0492816666667","6500500","新莊區"
"242058","612-BX","2019/08/12 18:09:45","新北市新莊區新北大道七段496號","121.41287","25.0297333333333","6500500","新莊區"
"242046","566-BX","2019/08/12 18:10:03","新北市新莊區福營路226號","121.427286666667","25.0293683333333","6500500","新莊區"
"242050","497-BY","2019/08/12 18:10:03","新北市新莊區民本街11巷31號","121.428981666667","25.0203183333333","6500500","新莊區"
"242056","441-UM","2019/08/12 18:10:00","新北市新莊區豐年街豐1巷16號","121.447173333333","25.0311733333333","6500500","新莊區"
"242004","440-UM","2019/08/12 18:10:01","新北市新莊區自由街36號","121.455905","25.0464716666667","6500500","新莊區"
"242042","415-TV","2019/08/12 18:09:53","新北市新莊區中正路692-8號","121.419985","25.0286","6500500","新莊區"
"242011","413-TV","2019/08/12 18:09:57","新北市新莊區中港路中慶巷47號","121.448716666667","25.0537283333333","6500500","新莊區"
"242048","400-BY","2019/08/12 18:09:47","新北市新莊區萬安街47巷4號","121.421768333333","25.024485","6500500","新莊區"
"242025","362-BY","2019/08/12 18:09:50","新北市新莊區五權一路88號","121.459148333333","25.0671983333333","6500500","新莊區"
"242013","132-UY","2019/08/12 18:09:44","新北市新莊區中正路400號","121.441906666667","25.0343","6500500","新莊區"
"242036","135-UY","2019/08/12 18:09:55","新北市新莊區後港一路49巷2號","121.426016666667","25.02649","6500500","新莊區"
"242053","172-VK","2019/08/12 18:09:44","新北市新莊區民安西路327巷2弄1號","121.427933333333","25.0113116666667","6500500","新莊區"
"242015","173-VK","2019/08/12 18:09:57","新北市新莊區中和街59巷10弄2號","121.44684","25.0471133333333","6500500","新莊區"
"242021","175-VK","2019/08/12 18:09:47","新北市新莊區新興街104號","121.450683333333","25.0389866666667","6500500","新莊區"
"242019","KED-0687","2019/08/12 18:09:52","新北市新莊區長青街37巷22弄1號","121.456151666667","25.04125","6500500","新莊區"
"242039","346-TH","2019/08/12 18:09:51","新北市新莊區民安西路38巷2號","121.427095","25.0210166666667","6500500","新莊區"
"242034","348-TH","2019/08/12 18:10:00","新北市新莊區福海街24巷5號","121.445755","25.034145","6500500","新莊區"
"242007","349-TH","2019/08/12 18:09:52","新北市新莊區中華路二段88號","121.453626666667","25.047025","6500500","新莊區"
"242031","350-TH","2019/08/12 18:09:56","新北市新莊區新泰路277巷7-2號","121.445366666667","25.04009","6500500","新莊區"
"242017","351-TH","2019/08/12 18:09:56","新北市新莊區中港路246號","121.453875","25.0433133333333","6500500","新莊區"
"238015","755-BX","2019/08/12 18:09:53","新北市樹林區文德街10號","121.418766666667","24.991765","6500700","樹林區"
"238023","601-UM","2019/08/12 18:09:45","新北市樹林區忠信街15號","121.407686666667","25.0149583333333","6500700","樹林區"
"238019","599-UM","2019/08/12 18:09:51","新北市樹林區中華路61號","121.423326666667","24.9833066666667","6500700","樹林區"
"238018","KEA-2217","2019/08/12 18:10:00","新北市樹林區保順街85號","121.429096666667","24.9944883333333","6500700","樹林區"
"238022","KEA-2213","2019/08/12 18:09:50","新北市樹林區太平路225巷2號","121.418516666667","24.9769683333333","6500700","樹林區"
"238021","KEA-2539","2019/08/12 18:09:59","新北市樹林區柑園街二段114號","121.38527","24.954875","6500700","樹林區"
"238025","303-VK","2019/08/12 18:09:51","新北市樹林區保安街二段174-2號","121.412586666667","25.009745","6500700","樹林區"
"238017","283-BY","2019/08/12 18:10:00","新北市樹林區中正路660號","121.409661666667","25.0166516666667","6500700","樹林區"
"238014","282-BY","2019/08/12 18:09:53","新北市樹林區潭興街101號","121.42469","24.9985333333333","6500700","樹林區"
"238020","268-VK","2019/08/12 18:09:50","新北市樹林區三龍街89號","121.416456666667","25.018415","6500700","樹林區"
"238026","172-UY","2019/08/12 18:09:58","新北市樹林區育德街69號","121.391171666667","24.970095","6500700","樹林區"
"238016","169-UY","2019/08/12 18:09:17","新北市樹林區文化街29號","121.419043333333","24.9877866666667","6500700","樹林區"
"239007","AAC-297","2019/08/12 18:09:55","新北市鶯歌區尖山埔路163號","121.346051666667","24.9507366666667","6500800","鶯歌區"
"239006","891-R6","2019/08/12 18:09:58","新北市鶯歌區鶯桃路455巷2弄1號","121.331978333333","24.9651916666667","6500800","鶯歌區"
"239008","527-UM","2019/08/12 18:10:03","新北市鶯歌區朝陽街46巷7號","121.336761666667","24.9778116666667","6500800","鶯歌區"
"239001","417-VK","2019/08/12 18:10:02","新北市鶯歌區中正三路283-13號","121.331125","24.9373216666667","6500800","鶯歌區"
"239003","360-BY","2019/08/12 18:09:51","新北市鶯歌區福安街28號","121.334431666667","24.9641466666667","6500800","鶯歌區"
"239002","359-BY","2019/08/12 18:10:00","新北市鶯歌區永明街135號","121.342801666667","24.9556216666667","6500800","鶯歌區"
"221008","489-VK","2019/08/12 18:09:59","新北市汐止區明峰街210號","121.6274","25.0691733333333","6501100","汐止區"
"221036","130-UY","2019/08/12 18:09:46","新北市汐止區大同路三段116號","121.672121666667","25.07675","6501100","汐止區"
"221015","131-UY","2019/08/12 18:09:57","新北市汐止區長江街283號","121.664911666667","25.0807683333333","6501100","汐止區"
"244019","KED-0667","2019/08/12 18:09:56","新北市林口區忠孝路569巷10號","121.373915","25.0688","6501700","林口區"
"221010","269-BY","2019/08/12 18:09:50","新北市汐止區汐萬路二段265號","121.646176666667","25.0887583333333","6501100","汐止區"
"221012","278-VK","2019/08/12 18:09:44","新北市汐止區長興街二段50巷30弄2號","121.674706666667","25.08102","6501100","汐止區"
"221023","279-VK","2019/08/12 18:09:48","新北市汐止區民族五街69號","121.628191666667","25.0704016666667","6501100","汐止區"
"221032","280-BY","2019/08/12 18:09:48","新北市汐止區橫科路73巷43號","121.619246666667","25.0517316666667","6501100","汐止區"
"221029","298-VK","2019/08/12 18:10:00","新北市汐止區樟樹二路134號","121.639865","25.0656666666667","6501100","汐止區"
"221021","299-VK","2019/08/12 18:09:55","新北市汐止區復興路23號","121.656035","25.0651866666667","6501100","汐止區"
"221031","353-TW","2019/08/12 18:09:52","新北市汐止區中興路168-1號","121.63197","25.0655333333333","6501100","汐止區"
"221035","622-UM","2019/08/12 18:09:57","新北市汐止區汐萬路一段115巷30號","121.653613333333","25.0704466666667","6501100","汐止區"
"221025","623-UM","2019/08/12 18:09:51","新北市汐止區秀峰路143號","121.660401666667","25.0622566666667","6501100","汐止區"
"221038","646-BX","2019/08/12 18:09:46","新北市汐止區南興路87號","121.653078333333","25.0588183333333","6501100","汐止區"
"221033","647-BX","2019/08/12 18:09:53","新北市汐止區宜興街20巷19號","121.622241666667","25.040965","6501100","汐止區"
"221002","707-TV","2019/08/12 18:09:59","新北市汐止區福德一路208號","121.634605","25.0652683333333","6501100","汐止區"
"221018","753-BX","2019/08/12 18:09:43","新北市汐止區招商街19巷25號","121.667633333333","25.068175","6501100","汐止區"
"233001","KEA-2870","2019/08/12 18:09:57","新北市烏來區新烏路五段129號","121.54761","24.8709583333333","6502900","烏來區"
"242044","281-VK","2019/08/12 18:09:55","新北市新莊區中正路力行巷46號","121.41588","25.026965","6500500","新莊區"
"242009","280-VK","2019/08/12 18:09:59","新北市新莊區昌平街39號","121.454783333333","25.052425","6500500","新莊區"
"220073","985-R7","2019/08/12 18:09:57","新北市板橋區華東街1-10號","121.448288333333","24.9949733333333","6500100","板橋區"
"235068","KEA-2873","2019/08/12 18:10:01","新北市中和區員山路36巷16-3號","121.485181666667","24.991045","6500300","中和區"
"235061","KEA-2875","2019/08/12 18:10:00","新北市中和區國光街215巷30號","121.467138333333","25.0002033333333","6500300","中和區"
"235038","KEA-2876","2019/08/12 18:09:38","新北市中和區景平路152號","121.517853333333","24.9920133333333","6500300","中和區"
