"lineid","car","time","location","longitude","latitude","cityid","cityname"
"234046","148-BY","2019/08/12 18:40:02","新北市永和區永元路52巷1號","121.522551666667","25.00113","6500400","永和區"
"234081","298-R6","2019/08/12 18:40:02","新北市永和區林森路81號","121.523921666667","25.0039","6500400","永和區"
"234038","336-UY","2019/08/12 18:39:53","新北市永和區福和路1號","121.526743333333","25.01013","6500400","永和區"
"234064","337-UY","2019/08/12 18:39:45","新北市永和區福和路1號","121.5267","25.01002","6500400","永和區"
"234086","338-UY","2019/08/12 18:39:58","新北市中和區安樂路69-1號","121.512551666667","24.99385","6500400","永和區"
"234017","745-BX","2019/08/12 18:39:52","新北市永和區福和路1號","121.526206666667","25.00968","6500400","永和區"
"234030","746-BX","2019/08/12 18:39:52","新北市永和區成功路一段81號","121.526945","25.003085","6500400","永和區"
"234007","KED-0605","2019/08/12 18:39:59","新北市永和區文化路164號","121.512138333333","25.0153616666667","6500400","永和區"
"234013","KEA-2591","2019/08/12 18:39:58","新北市永和區仁愛路104巷10號","121.512171666667","25.0136816666667","6500400","永和區"
"234042","862-TW","2019/08/12 18:39:49","新北市永和區永和路一段45號","121.512976666667","25.00642","6500400","永和區"
"234026","9371-KE","2019/08/12 18:39:49","新北市永和區保平路131號","121.51048","25.006335","6500400","永和區"
"234011","9373-KE","2019/08/12 18:39:58","新北市永和區文化路9巷22弄1號","121.515278333333","25.0145383333333","6500400","永和區"
"249005","172-UM","2019/08/12 18:39:50","新北市八里區中華路三段198號","121.388665","25.125865","6502300","八里區"
"249001","173-UM","2019/08/12 18:39:50","新北市八里區龍米路一段360號","121.451556666667","25.1313816666667","6502300","八里區"
"249004","303-UY","2019/08/12 18:39:44","新北市八里區觀海大道93號","121.426463333333","25.1618983333333","6502300","八里區"
"249002","305-UY","2019/08/12 18:40:03","新北市八里區龍形一街12巷8號","121.449906666667","25.1307566666667","6502300","八里區"
"248014","025-BX","2019/08/12 18:39:50","新北市五股區成泰路二段106號","121.437666666667","25.0830616666667","6501500","五股區"
"248016","026-BX","2019/08/12 18:39:45","新北市五股區凌雲路一段149巷7號","121.448938333333","25.10163","6501500","五股區"
"248008","KED-0815","2019/08/12 18:39:41","新北市五股區中興路一段150巷21號","121.464745","25.0747183333333","6501500","五股區"
"248018","KED-0813","2019/08/12 18:39:50","新北市五股區民義路二段118號","121.403781666667","25.1142783333333","6501500","五股區"
"248012","247-BX","2019/08/12 18:39:46","新北市五股區成泰路三段2巷1-20號","121.441276666667","25.0866666666667","6501500","五股區"
"248004","677-BX","2019/08/12 18:40:00","新北市五股區民義路一段236-6號","121.42746","25.0912166666667","6501500","五股區"
"248002","678-BX","2019/08/12 18:39:44","新北市五股區西雲路205號","121.448553333333","25.096535","6501500","五股區"
"248010","682-TV","2019/08/12 18:39:56","新北市五股區水碓三路120號","121.431836666667","25.07357","6501500","五股區"
"234023","9380-KE","2019/08/12 18:39:50","新北市永和區福和路76巷5弄5號","121.522475","25.0083416666667","6500400","永和區"
"234077","969-R7","2019/08/12 18:39:51","新北市永和區中正路582號","121.517175","25.006605","6500400","永和區"
"234003","AAC-295","2019/08/12 18:39:53","新北市永和區福和路1號","121.526648333333","25.0099466666667","6500400","永和區"
"232011","375-UM","2019/08/12 18:39:57","新北市坪林區坪雙路一段41號","121.711723333333","24.942435","6502000","坪林區"
"244007","080-UY","2019/08/12 18:39:52","新北市林口區太平里12-2號","121.37838","25.11469","6501700","林口區"
"244023","402-UM","2019/08/12 18:39:54","新北市林口區四維路251號","121.381566666667","25.0748483333333","6501700","林口區"
"244013","KEA-2802","2019/08/12 18:39:49","新北市林口區麗園一街6巷6-3號","121.375333333333","25.0705316666667","6501700","林口區"
"244017","485-VK","2019/08/12 18:39:52","新北市林口區文化二路一段156號","121.368378333333","25.071515","6501700","林口區"
"244009","656-BX","2019/08/12 18:39:46","新北市林口區竹林路348巷26號","121.393086666667","25.083675","6501700","林口區"
"244011","657-BX","2019/08/12 18:39:57","新北市林口區仁愛路一段252號","121.394683333333","25.07588","6501700","林口區"
"244025","837-TS","2019/08/12 18:39:56","新北市林口區南勢五街302-8號","121.357","25.075375","6501700","林口區"
"244021","838-TS","2019/08/12 18:39:57","新北市林口區工六路13號","121.399575","25.0779816666667","6501700","林口區"
"243010","297-R6","2019/08/12 18:39:44","新北市泰山區泰林路二段535號","121.423381666667","25.0637216666667","6501600","泰山區"
"243016","421-VK","2019/08/12 18:40:03","新北市泰山區泰林路二段550號","121.423186666667","25.0637633333333","6501600","泰山區"
"243015","680-BX","2019/08/12 18:39:50","新北市泰山區美寧街50號","121.430508333333","25.0644466666667","6501600","泰山區"
"222003","436-BY","2019/08/12 18:39:50","新北市深坑區翠谷街25號","121.626893333333","25.0086983333333","6501800","深坑區"
"222002","659-BX","2019/08/12 18:39:57","新北市深坑區雲鄉路46號","121.622265","24.9997033333333","6501800","深坑區"
"231061","002-UM","2019/08/12 18:39:59","新北市新店區安華路28-1號","121.519778333333","24.9609466666667","6500600","新店區"
"231055","0291-UT","2019/08/12 18:40:03","新北市新店區華興街32號","121.537313333333","24.9689666666667","6500600","新店區"
"231044","046-UY","2019/08/12 18:40:01","新北市新店區安康路一段69號","121.53024","24.9610283333333","6500600","新店區"
"231060","106-UY","2019/08/12 18:39:59","新北市新店區安華路28-1號","121.519778333333","24.9609533333333","6500600","新店區"
"231051","107-UY","2019/08/12 18:39:47","新北市新店區環河路29巷1號","121.536996666667","24.961385","6500600","新店區"
"231062","256-BX","2019/08/12 18:39:49","新北市新店區安一路一段1-1號","121.5197","24.96121","6500600","新店區"
"231054","260-TV","2019/08/12 18:40:02","新北市新店區安一路一段1-1號","121.519198333333","24.9612066666667","6500600","新店區"
"231042","268-BY","2019/08/12 18:39:49","新北市新店區北新路一段90號","121.541823333333","24.9683633333333","6500600","新店區"
"231050","AAD-862","2019/08/12 18:40:00","新北市新店區安一路一段1-1號","121.519736666667","24.96125","6500600","新店區"
"231045","355-BY","2019/08/12 18:39:43","新北市新店區安華路28-1號","121.5191","24.9608866666667","6500600","新店區"
"231058","3713-VJ","2019/08/12 18:39:59","新北市新店區國校路76-1號","121.53851","24.95306","6500600","新店區"
"231056","4715-K9","2019/08/12 18:40:05","新北市新店區建國路207-2號","121.537696666667","24.98032","6500600","新店區"
"231067","4772-VM","2019/08/12 18:28:39","新北市新店區安華路1-1號","121.51938","24.9603033333333","6500600","新店區"
"231052","513-UM","2019/08/12 18:39:58","新北市新店區新烏路一段87巷9號","121.54632","24.94209","6500600","新店區"
"231041","619-UM","2019/08/12 18:39:53","新北市新店區安華路28-1號","121.519531666667","24.9609283333333","6500600","新店區"
"231063","641-BX","2019/08/12 18:39:49","新北市新店區安華路28-1號","121.5197","24.9606433333333","6500600","新店區"
"231047","KED-0819","2019/08/12 18:40:00","新北市新店區安華路28-1號","121.519661666667","24.9607783333333","6500600","新店區"
"231046","719-UM","2019/08/12 18:39:42","新北市新店區直潭二街1號","121.53543","24.943135","6500600","新店區"
"231057","720-UM","2019/08/12 18:39:41","新北市新店區北宜路一段264號","121.545871666667","24.9527466666667","6500600","新店區"
"231059","897-TW","2019/08/12 18:40:04","新北市新店區安華路28-1號","121.519628333333","24.9608916666667","6500600","新店區"
"231040","898-TW","2019/08/12 18:40:02","新北市新店區安華路28-1號","121.519518333333","24.9609416666667","6500600","新店區"
"231043","899-TW","2019/08/12 18:39:45","新北市新店區安華路28-1號","121.519068333333","24.960805","6500600","新店區"
"231066","AKT-0513","2019/08/12 18:39:46","新北市新店區安華路28-1號","121.519436666667","24.96059","6500600","新店區"
"241018","268-UM","2019/08/12 18:39:44","新北市三重區安慶街139號","121.494586666667","25.06885","6500200","三重區"
"235066","003-UY","2019/08/12 18:40:00","新北市中和區水源路34巷1號","121.504923333333","25.0035716666667","6500300","中和區"
"235064","005-UY","2019/08/12 18:40:02","新北市中和區連城路75巷7號","121.498245","24.99866","6500300","中和區"
"235063","006-UY","2019/08/12 18:39:46","新北市中和區建一路196號","121.48753","24.99646","6500300","中和區"
"235056","096-UM","2019/08/12 18:39:56","新北市中和區員山路611巷5弄3號","121.478021666667","25.0111333333333","6500300","中和區"
"235039","097-UM","2019/08/12 18:40:02","新北市中和區宜安路18巷13號","121.513956666667","24.9963216666667","6500300","中和區"
"235065","098-UM","2019/08/12 18:39:47","新北市中和區莊敬路33巷40號","121.500183333333","25.0066033333333","6500300","中和區"
"235040","150-BY","2019/08/12 18:39:47","新北市中和區宜安路47巷2號","121.511788333333","24.99646","6500300","中和區"
"235058","151-BY","2019/08/12 18:40:03","新北市中和區員山路141號","121.481058333333","24.9960283333333","6500300","中和區"
"235055","183-VK","2019/08/12 18:39:43","新北市中和區民生街4號","121.471136666667","25.0063716666667","6500300","中和區"
"235049","186-VK","2019/08/12 18:39:54","新北市中和區明義街40巷2號","121.50395","24.99558","6500300","中和區"
"235044","293-VK","2019/08/12 18:39:56","新北市中和區復興路280巷25號","121.501863333333","24.9917133333333","6500300","中和區"
"235072","301-VK","2019/08/12 18:39:54","新北市中和區中山路二段75號","121.503855","25.0043816666667","6500300","中和區"
"235042","KEA-2878","2019/08/12 18:39:50","新北市中和區成功路41巷2號","121.526491666667","24.993135","6500300","中和區"
"235050","4979-A6","2019/08/12 18:39:58","新北市中和區景新街496巷28弄47號","121.51258","24.9859283333333","6500300","中和區"
"235069","4980-A6","2019/08/12 18:39:56","新北市中和區連城路65巷15號","121.498043333333","25.000745","6500300","中和區"
"235070","558-UM","2019/08/12 18:39:47","新北市中和區圓通路12號","121.501635","24.998035","6500300","中和區"
"235045","565-BX","2019/08/12 18:39:48","新北市中和區復興路50號","121.504158333333","24.99018","6500300","中和區"
"235060","KED-0823","2019/08/12 18:39:52","新北市中和區中山路三段15號","121.479543333333","25.0059783333333","6500300","中和區"
"235054","640-BX","2019/08/12 18:39:47","新北市中和區民治街120號","121.474953333333","25.0033366666667","6500300","中和區"
"235047","732-UM","2019/08/12 18:39:48","新北市中和區南山路543號","121.508025","24.9866966666667","6500300","中和區"
"235046","733-UM","2019/08/12 18:39:49","新北市中和區忠孝街101巷1號","121.511831666667","24.986135","6500300","中和區"
"235062","800-TS","2019/08/12 18:39:51","新北市中和區中山路二段312巷47號","121.495076666667","25.0042383333333","6500300","中和區"
"235057","801-TS","2019/08/12 18:39:51","新北市中和區民安街25巷2弄1號","121.480541666667","25.0002033333333","6500300","中和區"
"235052","805-TS","2019/08/12 18:39:35","新北市中和區興南路三段42-3號","121.49585","24.9771766666667","6500300","中和區"
"235048","896-TW","2019/08/12 18:39:57","新北市中和區南山路407號","121.506925","24.989865","6500300","中和區"
"235053","900-TW","2019/08/12 18:40:02","新北市中和區華安街19巷1號","121.466848333333","24.9979733333333","6500300","中和區"
"235043","911-UM","2019/08/12 18:39:45","新北市中和區景平路134號","121.51878","24.9919816666667","6500300","中和區"
"235051","157-BY","2019/08/12 18:39:56","新北市中和區華新街143巷106弄19號","121.50645","24.97843","6500300","中和區"
"235037","AAC-213","2019/08/12 18:39:56","新北市中和區秀朗路三段128巷9弄1號","121.52458","24.9931416666667","6500300","中和區"
"235059","AAC-215","2019/08/12 18:40:01","新北市中和區錦和路354巷5號","121.490231666667","24.9914383333333","6500300","中和區"
"220065","072-UY","2019/08/12 18:40:04","新北市板橋區成都街78號","121.463638333333","25.0052583333333","6500100","板橋區"
"220086","073-UY","2019/08/12 18:39:59","新北市板橋區華東街1-10號","121.448271666667","24.9950533333333","6500100","板橋區"
"220069","AAD-861","2019/08/12 18:39:51","新北市板橋區大華街20號","121.458913333333","25.0061533333333","6500100","板橋區"
"220106","120-SR","2019/08/12 18:39:56","新北市板橋區民生路二段120號","121.470683333333","25.0200033333333","6500100","板橋區"
"226004","312-R5","2019/08/12 18:40:00","新北市平溪區平溪里平溪街56號","121.736253333333","25.0274533333333","6502400","平溪區"
"235041","251-BX","2019/08/12 18:39:48","新北市中和區中安街178巷13弄5號","121.510381666667","24.998625","6500300","中和區"
"228003","097-TW","2019/08/12 18:39:57","新北市貢寮區和美里龍洞街36號","121.915928333333","25.11161","6502600","貢寮區"
"228002","663-BX","2019/08/12 18:40:06","新北市貢寮區福連里福興街31號","121.991576666667","25.010985","6502600","貢寮區"
"228001","670-TC","2019/08/12 18:39:54","新北市貢寮區仁理村研海街12-1號","121.923771666667","25.0516866666667","6502600","貢寮區"
"224006","676-BX","2019/08/12 18:39:54","新北市瑞芳區明燈路三段130號","121.804551666667","25.1084466666667","6501200","瑞芳區"
"224002","639-TC","2019/08/12 18:40:01","新北市瑞芳區國中新村19號","121.817485","25.1069766666667","6501200","瑞芳區"
"224007","285-BY","2019/08/12 18:40:05","新北市瑞芳區大埔路93號","121.763733333333","25.1013533333333","6501200","瑞芳區"
"224009","275-VK","2019/08/12 18:39:48","新北市瑞芳區五號路314號","121.85766","25.1114266666667","6501200","瑞芳區"
"224008","273-VK","2019/08/12 18:40:03","新北市瑞芳區岳王路10-2號","121.807213333333","25.110815","6501200","瑞芳區"
"224005","271-BY","2019/08/12 18:39:56","新北市瑞芳區瑞濱路139號","121.819725","25.1198783333333","6501200","瑞芳區"
"227002","642-TC","2019/08/12 18:40:01","新北市雙溪區魚行里坤溪3-4號","121.876238333333","25.0206933333333","6502500","雙溪區"
"227001","400-TW","2019/08/12 18:39:49","新北市雙溪區牡丹里牡丹159-1號","121.850708333333","25.0591433333333","6502500","雙溪區"
"253006","032-BX","2019/08/12 18:39:46","新北市石門區楓林37-6號","121.540708333333","25.289765","6502200","石門區"
"253005","295-VK","2019/08/12 18:40:03","新北市石門區石門街3號","121.565875","25.2910233333333","6502200","石門區"
"222001","KEA-2212","2019/08/12 18:39:48","新北市深坑區北深路一段82號","121.636355","25.0107216666667","6501800","深坑區"
"208002","KEA-2872","2019/08/12 18:39:53","新北市金山區忠孝一路19巷5號","121.63797","25.2180366666667","6502700","金山區"
"208003","665-BX","2019/08/12 18:39:52","新北市金山區中山路254號","121.635638333333","25.223895","6502700","金山區"
"251004","009-UM","2019/08/12 18:39:55","新北市淡水區民權路41號","121.460588333333","25.1403616666667","6501000","淡水區"
"251010","012-UM","2019/08/12 18:40:04","新北市淡水區沙崙路141號","121.423193333333","25.183015","6501000","淡水區"
"251015","KEA-2871","2019/08/12 18:40:00","新北市淡水區興福寮66巷301號","121.485631666667","25.1618616666667","6501000","淡水區"
"251016","179-VK","2019/08/12 18:39:49","新北市淡水區下圭柔山82號","121.438183333333","25.2052216666667","6501000","淡水區"
"251008","181-VK","2019/08/12 18:39:57","新北市淡水區北投子72號","121.453446666667","25.1825116666667","6501000","淡水區"
"251013","182-VK","2019/08/12 18:39:45","新北市淡水區小坑子頭6號","121.480406666667","25.2091083333333","6501000","淡水區"
"251012","441-VK","2019/08/12 18:40:03","新北市淡水區北新路117號","121.448928333333","25.1785966666667","6501000","淡水區"
"251001","559-UM","2019/08/12 18:39:41","新北市淡水區自強路166號","121.46557","25.1340383333333","6501000","淡水區"
"251006","561-UM","2019/08/12 18:39:55","新北市淡水區崁頂36號","121.438985","25.194665","6501000","淡水區"
"251014","577-R6","2019/08/12 18:39:59","新北市淡水區崙頂12-8號","121.495635","25.21721","6501000","淡水區"
"251011","650-BX","2019/08/12 18:40:01","新北市淡水區學府路36號","121.448073333333","25.168735","6501000","淡水區"
"251002","672-BX","2019/08/12 18:39:50","新北市淡水區中正東路一段3巷14弄1號","121.450903333333","25.1641533333333","6501000","淡水區"
"251003","766-UM","2019/08/12 18:39:55","新北市淡水區北新路69巷26號","121.446711666667","25.1801116666667","6501000","淡水區"
"207004","681-TV","2019/08/12 18:39:53","新北市萬里區萬里里獅頭路10-1號","121.69206","25.17856","6502800","萬里區"
"207003","550-UM","2019/08/12 18:39:59","新北市萬里區野柳里港東路343號","121.6891","25.20389","6502800","萬里區"
"252002","178-VK","2019/08/12 18:40:01","新北市三芝區民生街56號","121.503571666667","25.2557366666667","6502100","三芝區"
"252003","249-BX","2019/08/12 18:39:46","新北市三芝區後厝里土地公坑54-17號","121.465985","25.249585","6502100","三芝區"
"208001","170-UY","2019/08/12 18:39:43","新北市金山區文化三路7號","121.635071666667","25.2249316666667","6502700","金山區"
"237004","KEA-2597","2019/08/12 18:39:38","新北市三峽區金敏17號","121.391695","24.8742","6500900","三峽區"
"237007","153-BY","2019/08/12 18:40:00","新北市三峽區柑樹路6巷31號","121.36173","24.9036966666667","6500900","三峽區"
"237009","210-TH","2019/08/12 18:39:49","新北市三峽區大同路286巷16號","121.363618333333","24.925045","6500900","三峽區"
"237013","252-BX","2019/08/12 18:39:49","新北市三峽區光明路69巷25號","121.376575","24.92916","6500900","三峽區"
"237012","275-BY","2019/08/12 18:39:59","新北市三峽區三樹路242號","121.379266666667","24.9431333333333","6500900","三峽區"
"237008","302-VK","2019/08/12 18:39:53","新北市三峽區白雞42-2號","121.379598333333","24.9112533333333","6500900","三峽區"
"237014","433-BY","2019/08/12 18:39:53","新北市三峽區和平街65號","121.370028333333","24.9367316666667","6500900","三峽區"
"237006","5529-G3","2019/08/12 18:39:48","新北市三峽區溪東路473巷76號","121.41556","24.9293666666667","6500900","三峽區"
"237011","KEA-2596","2019/08/12 18:39:47","新北市三峽區溪東路218巷25號","121.407038333333","24.930805","6500900","三峽區"
"237015","649-BX","2019/08/12 18:40:03","新北市三峽區竹安路5-1號","121.430608333333","24.9223416666667","6500900","三峽區"
"237010","706-TV","2019/08/12 18:40:03","新北市三峽區復興路489號","121.36124","24.93841","6500900","三峽區"
"237005","AKY-6261","2019/08/12 18:39:51","新北市三峽區民生街104巷3-1號","121.373543333333","24.9359866666667","6500900","三峽區"
"236042","KED-0685","2019/08/12 18:39:55","新北市土城區學成路108巷9號","121.450061666667","24.989525","6501300","土城區"
"236078","166-UM","2019/08/12 18:40:04","新北市土城區中央路四段52巷48號","121.418628333333","24.9602783333333","6501300","土城區"
"236030","253-BX","2019/08/12 18:39:54","新北市土城區慶利街35號","121.438875","24.9744266666667","6501300","土城區"
"236026","269-VK","2019/08/12 18:39:59","新北市土城區忠義路49-1號","121.440505","24.9690616666667","6501300","土城區"
"236014","270-VK","2019/08/12 18:39:55","新北市土城區清水路207巷11號","121.459968333333","24.9822266666667","6501300","土城區"
"236039","271-VK","2019/08/12 18:40:01","新北市土城區明德路一段313巷3弄16號","121.460125","24.976465","6501300","土城區"
"236069","KEA-2877","2019/08/12 18:40:00","新北市土城區永豐路157巷29弄6-1號","121.468326666667","24.981465","6501300","土城區"
"252001","KED-0821","2019/08/12 18:39:47","新北市三芝區中興街二段260號","121.50185","25.2529166666667","6502100","三芝區"
"236020","401-BY","2019/08/12 18:40:01","新北市土城區延吉街261號","121.467221666667","24.98476","6501300","土城區"
"236059","912-UM","2019/08/12 18:39:48","新北市土城區中央路三段198號","121.430306666667","24.96487","6501300","土城區"
"236048","913-UM","2019/08/12 18:39:58","新北市土城區青雲路113號","121.458846666667","24.9844933333333","6501300","土城區"
"236063","915-UM","2019/08/12 18:39:56","新北市土城區延壽路55巷9弄4號","121.469535","24.9914833333333","6501300","土城區"
"236055","AAC-216","2019/08/12 18:39:54","新北市土城區中華路一段23號","121.446948333333","24.989095","6501300","土城區"
"242002","751-BX","2019/08/12 18:39:59","新北市新莊區瓊林南路77-41號","121.437165","25.01219","6500500","新莊區"
"242058","612-BX","2019/08/12 18:39:45","桃園市龜山區萬壽路一段93號","121.409236666667","25.0193666666667","6500500","新莊區"
"242042","415-TV","2019/08/12 18:39:45","新北市新莊區天祥街92巷14號","121.415555","25.0299866666667","6500500","新莊區"
"238015","755-BX","2019/08/12 18:36:45","新北市樹林區備內街121號","121.405995","24.9893716666667","6500700","樹林區"
"238023","601-UM","2019/08/12 18:40:04","新北市樹林區三福街114號","121.406383333333","25.016355","6500700","樹林區"
"238024","5061-A6","2019/08/12 18:40:01","新北市樹林區中華路190-2號","121.410991666667","24.9805266666667","6500700","樹林區"
"238018","KEA-2217","2019/08/12 18:40:00","新北市樹林區鎮前街39號","121.42546","24.9918666666667","6500700","樹林區"
"238025","303-VK","2019/08/12 18:39:51","新北市樹林區中山路二段133號","121.406623333333","24.9791633333333","6500700","樹林區"
"238020","268-VK","2019/08/12 18:39:51","新北市樹林區俊安街24巷10弄1號","121.418681666667","25.0136016666667","6500700","樹林區"
"238026","172-UY","2019/08/12 18:39:58","新北市樹林區育德街78-1號","121.388023333333","24.9680666666667","6500700","樹林區"
"238016","169-UY","2019/08/12 18:39:57","新北市樹林區中山路二段10號","121.41765","24.9850516666667","6500700","樹林區"
"239007","AAC-297","2019/08/12 18:39:55","新北市鶯歌區建國路53-1號","121.355118333333","24.955205","6500800","鶯歌區"
"239008","527-UM","2019/08/12 18:40:02","新北市鶯歌區國際一路14號","121.336118333333","24.9764766666667","6500800","鶯歌區"
"239001","417-VK","2019/08/12 18:40:02","新北市鶯歌區國中街178號","121.3383","24.939215","6500800","鶯歌區"
"239003","360-BY","2019/08/12 18:39:51","新北市鶯歌區福安街11巷2號","121.335456666667","24.965265","6500800","鶯歌區"
"239002","359-BY","2019/08/12 18:40:00","新北市鶯歌區國慶街182號","121.351311666667","24.9526983333333","6500800","鶯歌區"
"239004","193-VK","2019/08/12 18:39:52","新北市鶯歌區尖山路362號","121.341575","24.9438633333333","6500800","鶯歌區"
"221036","130-UY","2019/08/12 18:39:46","新北市汐止區長興街一段14號","121.669773333333","25.0787383333333","6501100","汐止區"
"221015","131-UY","2019/08/12 18:39:57","新北市汐止區鄉長路二段23巷18號","121.667753333333","25.083135","6501100","汐止區"
"244019","KED-0667","2019/08/12 18:39:57","新北市林口區麗園二街87號","121.382691666667","25.0669083333333","6501700","林口區"
"221010","269-BY","2019/08/12 18:39:50","新北市汐止區瑞松街49巷6號","121.645258333333","25.1067783333333","6501100","汐止區"
"221012","278-VK","2019/08/12 18:39:44","新北市汐止區保長路53號","121.673626666667","25.0788683333333","6501100","汐止區"
"221023","279-VK","2019/08/12 18:39:28","新北市汐止區民族二街84號","121.633335","25.0698883333333","6501100","汐止區"
"221032","280-BY","2019/08/12 18:39:48","新北市汐止區福山街60巷16號","121.618353333333","25.0460733333333","6501100","汐止區"
"221029","298-VK","2019/08/12 18:40:00","新北市汐止區樟樹一路138號","121.642238333333","25.064915","6501100","汐止區"
"221021","299-VK","2019/08/12 18:39:55","新北市汐止區復興路33號","121.656585","25.06327","6501100","汐止區"
"221031","353-TW","2019/08/12 18:39:52","新北市汐止區大同路一段405-1號","121.641673333333","25.060225","6501100","汐止區"
"221035","622-UM","2019/08/12 18:39:57","新北市汐止區大同路126號","121.651241666667","25.0638983333333","6501100","汐止區"
"221025","623-UM","2019/08/12 18:39:51","新北市汐止區仁愛路121巷9號","121.662675","25.064285","6501100","汐止區"
"221033","647-BX","2019/08/12 18:39:53","新北市汐止區芳園街4號","121.62478","25.038215","6501100","汐止區"
"221002","707-TV","2019/08/12 18:39:59","新北市汐止區中興路25號","121.63694","25.059645","6501100","汐止區"
"221018","753-BX","2019/08/12 18:38:23","新北市汐止區茄苳路223號","121.670915","25.0687266666667","6501100","汐止區"
"220079","145-BY","2019/08/12 18:39:42","新北市板橋區大觀路二段107號","121.446353333333","25.0016033333333","6500100","板橋區"
"220082","610-BX","2019/08/12 18:39:44","新北市板橋區大觀路三段59巷17弄6-1號","121.43776","24.995305","6500100","板橋區"
"220084","256-TC","2019/08/12 18:39:55","新北市板橋區大觀路二段205號","121.445183333333","24.9992233333333","6500100","板橋區"
"220071","283-VK","2019/08/12 18:39:48","新北市板橋區四川路二段59號","121.45356","24.995195","6500100","板橋區"
"220094","285-UM","2019/08/12 18:39:58","新北市板橋區民生路二段161巷3號","121.470168333333","25.0198","6500100","板橋區"
"220083","286-VK","2019/08/12 18:40:03","新北市板橋區大觀路二段266號","121.44872","24.9971","6500100","板橋區"
"220081","287-VK","2019/08/12 18:39:47","新北市板橋區華東街1-10號","121.448021666667","24.9955733333333","6500100","板橋區"
"220090","288-VK","2019/08/12 18:40:01","新北市板橋區民生路二段120號","121.470473333333","25.0198","6500100","板橋區"
"220061","293-UM","2019/08/12 18:39:59","新北市板橋區民生路二段161巷5號","121.470253333333","25.0197633333333","6500100","板橋區"
"242044","281-VK","2019/08/12 18:39:55","新北市新莊區中正路887-19號","121.415956666667","25.0240633333333","6500500","新莊區"
"220075","303-R5","2019/08/12 18:40:01","新北市板橋區板城路421號","121.44808","24.9956533333333","6500100","板橋區"
"220062","305-R5","2019/08/12 18:39:49","新北市板橋區民生路二段161巷5號","121.47029","25.01974","6500100","板橋區"
"220092","307-R5","2019/08/12 18:39:54","新北市板橋區民生路二段89-4號","121.471351666667","25.0186683333333","6500100","板橋區"
"220055","461-BY","2019/08/12 18:39:44","新北市板橋區四川路一段281號","121.459428333333","25.0017466666667","6500100","板橋區"
"220088","491-VK","2019/08/12 18:39:50","新北市板橋區民生路二段161巷1號","121.47004","25.01996","6500100","板橋區"
"220035","560-BX","2019/08/12 18:39:44","新北市板橋區南雅西路二段145巷10號","121.451613333333","25.0119933333333","6500100","板橋區"
"220103","561-BX","2019/08/12 18:39:47","新北市板橋區民生路二段97號","121.471461666667","25.0178","6500100","板橋區"
"220056","568-UM","2019/08/12 18:39:58","新北市板橋區四川路一段107-7號","121.459843333333","25.0050016666667","6500100","板橋區"
"220063","609-BX","2019/08/12 18:39:57","新北市板橋區民生路二段161巷1號","121.470136666667","25.0200383333333","6500100","板橋區"
"220057","686-BX","2019/08/12 18:39:43","新北市板橋區館前西路4-1號","121.459303333333","25.0071033333333","6500100","板橋區"
"220077","687-BX","2019/08/12 18:40:02","新北市板橋區板城路421號","121.448251666667","24.9957833333333","6500100","板橋區"
"220093","689-BX","2019/08/12 18:39:56","新北市板橋區民生路二段161巷1號","121.47004","25.0202166666667","6500100","板橋區"
"220054","741-BX","2019/08/12 18:39:44","新北市板橋區華東街1-9號","121.448126666667","24.9949383333333","6500100","板橋區"
"220074","895-R6","2019/08/12 18:39:48","新北市板橋區南雅南路二段132號","121.452066666667","24.9966716666667","6500100","板橋區"
"220073","985-R7","2019/08/12 18:39:57","新北市土城區四川路22號","121.454821666667","24.9961933333333","6500100","板橋區"
"220064","AAC-253","2019/08/12 18:39:51","新北市板橋區民生路二段89-4號","121.470903333333","25.01823","6500100","板橋區"
"235068","KEA-2873","2019/08/12 18:40:01","新北市中和區中正路213號","121.49688","24.993715","6500300","中和區"
"235061","KEA-2875","2019/08/12 18:40:00","新北市中和區民享街32巷2號","121.474068333333","25.0032866666667","6500300","中和區"
"235038","KEA-2876","2019/08/12 18:39:38","新北市中和區大勇街60巷8號","121.518638333333","24.9947166666667","6500300","中和區"
