"lineid","car","time","location","longitude","latitude","cityid","cityname"
"234046","148-BY","2019/08/12 19:50:02","新北市永和區秀朗路二段173巷8弄5號","121.525915","25.002405","6500400","永和區"
"234081","298-R6","2019/08/12 19:50:02","新北市永和區永亨路127號","121.524546666667","25.0041266666667","6500400","永和區"
"234038","336-UY","2019/08/12 19:49:53","新北市永和區民樂街57巷6號","121.52802","24.9985483333333","6500400","永和區"
"234064","337-UY","2019/08/12 19:50:05","新北市永和區中正路368巷10弄2號","121.518045","25.000665","6500400","永和區"
"234086","338-UY","2019/08/12 19:50:04","新北市永和區永亨路2號","121.519121666667","25.00537","6500400","永和區"
"234070","552-UM","2019/08/12 19:49:45","新北市永和區竹林路88號","121.519346666667","25.0124366666667","6500400","永和區"
"234017","745-BX","2019/08/12 19:49:52","新北市永和區永和路二段297號","121.516026666667","25.0160466666667","6500400","永和區"
"234030","746-BX","2019/08/12 19:49:52","新北市永和區四維街103巷16號","121.523735","24.9971333333333","6500400","永和區"
"234054","KEA-2590","2019/08/12 19:50:00","新北市永和區竹林路66巷5弄12號","121.518561666667","25.013095","6500400","永和區"
"234007","KED-0605","2019/08/12 19:49:59","新北市中和區光華街17號","121.504605","25.0042216666667","6500400","永和區"
"234013","KEA-2591","2019/08/12 19:50:02","新北市永和區永平路296號","121.507403333333","25.012175","6500400","永和區"
"234061","AAD-866","2019/08/12 19:50:06","新北市永和區中正路184號","121.515231666667","24.9969283333333","6500400","永和區"
"234042","862-TW","2019/08/12 19:49:49","新北市永和區中和路389巷14號","121.508115","25.001075","6500400","永和區"
"234050","863-TW","2019/08/12 19:49:55","新北市永和區保安路2號","121.510756666667","25.0174416666667","6500400","永和區"
"234026","9371-KE","2019/08/12 19:49:49","新北市永和區雙和街25巷3號","121.508996666667","25.00195","6500400","永和區"
"234011","9373-KE","2019/08/12 19:49:57","新北市永和區仁愛路352巷112弄5號","121.500723333333","25.0083966666667","6500400","永和區"
"249005","172-UM","2019/08/12 19:50:02","新北市八里區長坑口38-8號","121.389641666667","25.1281483333333","6502300","八里區"
"249001","173-UM","2019/08/12 19:49:47","新北市八里區中華路二段248號","121.405686666667","25.149895","6502300","八里區"
"249004","303-UY","2019/08/12 19:49:45","新北市八里區忠孝路423號","121.414538333333","25.1614516666667","6502300","八里區"
"249002","305-UY","2019/08/12 19:50:03","新北市八里區頂寮五街17號","121.451548333333","25.12598","6502300","八里區"
"249003","593-UM","2019/08/12 19:49:50","新北市八里區華峰三街70號","121.39856","25.145545","6502300","八里區"
"248014","025-BX","2019/08/12 19:50:04","新北市五股區五福路22巷4號","121.434606666667","25.0889833333333","6501500","五股區"
"248016","026-BX","2019/08/12 19:50:06","新北市五股區成泰路四段22巷16-12號","121.454756666667","25.1074883333333","6501500","五股區"
"248008","KED-0815","2019/08/12 19:50:01","新北市五股區四維路118巷13號","121.469193333333","25.074225","6501500","五股區"
"248018","KED-0813","2019/08/12 19:49:50","新北市五股區外寮路1-1號","121.42589","25.0768666666667","6501500","五股區"
"248012","247-BX","2019/08/12 19:49:46","新北市五股區蓬萊路4號","121.435551666667","25.0794516666667","6501500","五股區"
"248004","677-BX","2019/08/12 19:50:00","新北市五股區成泰路一段135號","121.435616666667","25.0727816666667","6501500","五股區"
"248002","678-BX","2019/08/12 19:50:04","新北市五股區成泰路3段651-1號","121.452895","25.105355","6501500","五股區"
"248010","682-TV","2019/08/12 19:49:56","新北市五股區登林路貿商巷1弄6號","121.429566666667","25.0699216666667","6501500","五股區"
"234023","9380-KE","2019/08/12 19:49:50","新北市永和區中山路一段9號","121.514078333333","25.0104333333333","6500400","永和區"
"234077","969-R7","2019/08/12 19:49:51","新北市永和區民權路29巷7號","121.520521666667","24.9979716666667","6500400","永和區"
"234074","AAC-211","2019/08/12 19:50:00","新北市永和區竹林路203號","121.520621666667","25.009045","6500400","永和區"
"234067","AAC-212","2019/08/12 19:49:58","新北市永和區中山路一段149號","121.51021","25.0094233333333","6500400","永和區"
"234003","AAC-295","2019/08/12 19:50:01","新北市永和區福和路345號","121.515333333333","25.0071066666667","6500400","永和區"
"243012","AAD-798","2019/08/12 19:50:04","新北市泰山區全興路200號","121.433553333333","25.0565283333333","6501600","泰山區"
"243016","421-VK","2019/08/12 19:50:03","新北市泰山區貴陽街42號","121.423325","25.0322583333333","6501600","泰山區"
"243009","KEA-2215","2019/08/12 19:49:50","新北市泰山區美寧街60號","121.43092","25.0647083333333","6501600","泰山區"
"222003","436-BY","2019/08/12 19:49:50","新北市深坑區深南路51-1號","121.621181666667","25.0097716666667","6501800","深坑區"
"222002","659-BX","2019/08/12 19:49:57","新北市深坑區北深路二段2巷1號","121.621361666667","25.0046083333333","6501800","深坑區"
"231061","002-UM","2019/08/12 19:49:59","新北市新店區安民街172號","121.516785","24.9706916666667","6500600","新店區"
"231044","046-UY","2019/08/12 19:50:01","新北市新店區復興路66號","121.537831666667","24.9867583333333","6500600","新店區"
"231060","106-UY","2019/08/12 19:49:51","新北市新店區安康路二段159巷12號","121.510386666667","24.959045","6500600","新店區"
"231051","107-UY","2019/08/12 19:49:47","新北市新店區中央三街58號","121.52706","24.9747616666667","6500600","新店區"
"231049","108-UY","2019/08/12 19:49:54","新北市新店區建國路259號","121.53697","24.983405","6500600","新店區"
"231065","110-UY","2019/08/12 19:49:51","新北市新店區安祥路109巷90弄91號","121.476086666667","24.9577833333333","6500600","新店區"
"231068","187-VK","2019/08/12 19:49:51","新北市新店區安一路一段1-1號","121.519518333333","24.961065","6500600","新店區"
"231062","256-BX","2019/08/12 19:49:49","新北市新店區永業路101號","121.528723333333","24.94858","6500600","新店區"
"231054","260-TV","2019/08/12 19:50:02","新北市新店區光明街70號","121.53873","24.9598383333333","6500600","新店區"
"231042","268-BY","2019/08/12 19:49:49","新北市新店區中興路一段268-3號","121.545226666667","24.9679166666667","6500600","新店區"
"231064","278-BY","2019/08/12 19:49:54","新北市新店區光華街5巷8號","121.517678333333","24.9687133333333","6500600","新店區"
"231050","AAD-862","2019/08/12 19:50:00","新北市新店區北宜路二段401號","121.559653333333","24.954405","6500600","新店區"
"231045","355-BY","2019/08/12 19:50:03","新北市新店區北宜路二段461號","121.561866666667","24.9540333333333","6500600","新店區"
"231056","4715-K9","2019/08/12 19:50:05","新北市新店區民權路42巷32號","121.539156666667","24.9838816666667","6500600","新店區"
"231067","4772-VM","2019/08/12 19:49:59","新北市新店區精忠路10-1號","121.532596666667","24.959015","6500600","新店區"
"231052","513-UM","2019/08/12 19:49:58","新北市新店區新烏路三段185號","121.55041","24.90106","6500600","新店區"
"231041","619-UM","2019/08/12 19:49:53","新北市新店區中央路200號","121.530643333333","24.97429","6500600","新店區"
"231063","641-BX","2019/08/12 19:49:49","新北市新店區車子路11號","121.503145","24.9520233333333","6500600","新店區"
"231047","KED-0819","2019/08/12 19:50:00","新北市新店區中興路二段100巷1號","121.547656666667","24.9715583333333","6500600","新店區"
"231046","719-UM","2019/08/12 19:47:23","新北市新店區福園街10巷1號","121.532753333333","24.9727683333333","6500600","新店區"
"231057","720-UM","2019/08/12 19:50:01","新北市新店區梅崗三路1號","121.558151666667","24.9310933333333","6500600","新店區"
"231059","897-TW","2019/08/12 19:50:04","新北市新店區安和路二段195號","121.518048333333","24.97505","6500600","新店區"
"231040","898-TW","2019/08/12 19:50:02","新北市新店區中正路75巷71號","121.54322","24.9688866666667","6500600","新店區"
"231043","899-TW","2019/08/12 19:49:45","新北市新店區中正路263-2號","121.53843","24.9737983333333","6500600","新店區"
"231066","AKT-0513","2019/08/12 19:50:06","新北市新店區安康路三段165巷2弄5號","121.48924","24.9512666666667","6500600","新店區"
"241011","013-R5","2019/08/12 19:49:46","新北市三重區三和路三段1號","121.497171666667","25.0704333333333","6500200","三重區"
"241028","022-UY","2019/08/12 19:49:58","新北市三重區中正南路115號","121.494103333333","25.0573816666667","6500200","三重區"
"241008","059-VK","2019/08/12 19:49:50","新北市三重區永福街147-8號","121.478756666667","25.0761616666667","6500200","三重區"
"241013","060-VK","2019/08/12 19:50:02","新北市三重區仁愛街92巷22號","121.494391666667","25.0735833333333","6500200","三重區"
"241031","061-VK","2019/08/12 19:49:51","新北市三重區重新路一段206-1號","121.485956666667","25.05472","6500200","三重區"
"241015","062-VK","2019/08/12 19:50:01","新北市三重區重新路一段1號","121.503823333333","25.0642016666667","6500200","三重區"
"241017","063-VK","2019/08/12 19:49:13","新北市三重區重陽路三段27巷11號","121.489875","25.0665133333333","6500200","三重區"
"241023","066-VK","2019/08/12 19:49:46","新北市三重區頂崁街172號","121.477633333333","25.0659483333333","6500200","三重區"
"241003","091-VK","2019/08/12 19:50:00","新北市三重區五華街93巷103號","121.49435","25.0852366666667","6500200","三重區"
"241020","742-BX","2019/08/12 19:49:52","新北市三重區大智街175號","121.489848333333","25.0726583333333","6500200","三重區"
"241006","262-UM","2019/08/12 19:49:57","新北市三重區永福街281-1號","121.482625","25.0741216666667","6500200","三重區"
"241009","267-UM","2019/08/12 19:50:02","新北市三重區三和路四段396巷2-2號","121.48127","25.07906","6500200","三重區"
"241018","268-UM","2019/08/12 19:50:05","新北市三重區雙園街57巷3號","121.494861666667","25.0676733333333","6500200","三重區"
"241032","269-UM","2019/08/12 19:49:55","新北市三重區重陽路一段44巷10號","121.486061666667","25.057735","6500200","三重區"
"241025","271-UM","2019/08/12 19:49:50","新北市三重區頂崁街210巷7號","121.476653333333","25.0676766666667","6500200","三重區"
"241007","398-BY","2019/08/12 19:49:58","新北市三重區慈愛街10號","121.484506666667","25.0784716666667","6500200","三重區"
"241035","KEA-2210","2019/08/12 19:49:50","新北市三重區文化北路10號","121.499356666667","25.0636216666667","6500200","三重區"
"241030","KED-0822","2019/08/12 19:49:58","新北市三重區環河南路231號","121.492191666667","25.0514166666667","6500200","三重區"
"241004","475-VK","2019/08/12 19:50:01","新北市三重區五華街70號","121.493526666667","25.0819516666667","6500200","三重區"
"241026","480-VK","2019/08/12 19:49:49","新北市三重區文化南路32號","121.500338333333","25.0615966666667","6500200","三重區"
"241014","543-UM","2019/08/12 19:49:45","新北市三重區三和路二段21巷30號","121.501998333333","25.06733","6500200","三重區"
"241001","547-UM","2019/08/12 19:50:03","新北市三重區仁愛街327巷38號","121.493128333333","25.0800583333333","6500200","三重區"
"241019","KEA-2593","2019/08/12 19:49:56","新北市三重區自強路二段74巷5號","121.488283333333","25.07017","6500200","三重區"
"241005","AAD-863","2019/08/12 19:49:58","新北市三重區溪尾街325巷17號","121.488571666667","25.0835766666667","6500200","三重區"
"241016","887-TS","2019/08/12 19:50:06","新北市三重區正德街52號","121.495626666667","25.0631383333333","6500200","三重區"
"241012","941-UM","2019/08/12 19:50:01","新北市三重區仁興街39巷15號","121.499358333333","25.075825","6500200","三重區"
"241029","942-UM","2019/08/12 19:49:48","新北市三重區光明路45號","121.491545","25.058065","6500200","三重區"
"241033","AAC-255","2019/08/12 19:49:59","新北市三重區中興南街66號","121.470663333333","25.04397","6500200","三重區"
"235066","003-UY","2019/08/12 19:50:00","新北市中和區南工路40號","121.505791666667","25.0012683333333","6500300","中和區"
"235056","096-UM","2019/08/12 19:49:56","新北市中和區中山路三段168號","121.472926666667","25.0064883333333","6500300","中和區"
"235039","097-UM","2019/08/12 19:50:02","新北市中和區大勇街27巷29號","121.51624","24.9938316666667","6500300","中和區"
"235065","098-UM","2019/08/12 19:49:56","新北市中和區永和路39巷2號","121.497981666667","25.004975","6500300","中和區"
"235040","150-BY","2019/08/12 19:49:47","新北市中和區安平路38號","121.509728333333","24.99491","6500300","中和區"
"235058","151-BY","2019/08/12 19:50:03","新北市中和區員山路146巷2號","121.481476666667","24.996715","6500300","中和區"
"235055","183-VK","2019/08/12 19:50:03","新北市中和區德光路20號","121.470976666667","25.0045","6500300","中和區"
"235049","186-VK","2019/08/12 19:49:54","新北市中和區中正路2號","121.503356666667","24.99387","6500300","中和區"
"235067","255-BX","2019/08/12 19:49:57","新北市中和區新生街268號","121.483546666667","24.9971566666667","6500300","中和區"
"235044","293-VK","2019/08/12 19:49:56","新北市中和區南山路146巷11號","121.503378333333","24.99234","6500300","中和區"
"235072","301-VK","2019/08/12 19:49:54","新北市中和區中山路二段311-3號","121.49466","25.0020733333333","6500300","中和區"
"235042","KEA-2878","2019/08/12 19:49:50","新北市中和區景平路278巷16弄2號","121.513885","24.9933216666667","6500300","中和區"
"247014","KEA-2869","2019/08/12 19:49:57","新北市蘆洲區復興路30-3號","121.472525","25.08487","6501400","蘆洲區"
"235050","4979-A6","2019/08/12 19:49:53","新北市中和區景平路241巷84弄52號","121.506181666667","24.9923416666667","6500300","中和區"
"235070","558-UM","2019/08/12 19:49:47","新北市中和區圓通路128號","121.498538333333","24.995775","6500300","中和區"
"235060","KED-0823","2019/08/12 19:49:52","新北市中和區新生街16巷12號","121.482636666667","25.004375","6500300","中和區"
"235047","732-UM","2019/08/12 19:49:59","新北市中和區興南路一段61號","121.510423333333","24.989645","6500300","中和區"
"235046","733-UM","2019/08/12 19:49:49","新北市中和區仁愛街24號","121.51082","24.9887583333333","6500300","中和區"
"235071","783-BX","2019/08/12 19:50:03","新北市中和區中板路17號","121.484238333333","25.01169","6500300","中和區"
"235052","805-TS","2019/08/12 19:49:55","新北市中和區華新街98號","121.508603333333","24.9829966666667","6500300","中和區"
"235048","896-TW","2019/08/12 19:49:58","新北市中和區興南路一段129號","121.508936666667","24.9878533333333","6500300","中和區"
"235053","900-TW","2019/08/12 19:50:02","新北市中和區國光街157號","121.468706666667","25.001185","6500300","中和區"
"235043","911-UM","2019/08/12 19:49:45","新北市中和區華新街232巷39號","121.505496666667","24.9825166666667","6500300","中和區"
"235051","157-BY","2019/08/12 19:49:56","新北市中和區中興街127號","121.499926666667","24.9917133333333","6500300","中和區"
"235037","AAC-213","2019/08/12 19:49:55","新北市中和區自立路16-1號","121.52201","24.99368","6500300","中和區"
"235059","AAC-215","2019/08/12 19:50:01","新北市中和區圓通路305巷18號","121.494836666667","24.98912","6500300","中和區"
"220072","015-TV","2019/08/12 19:49:51","新北市板橋區金門街251號","121.431985","24.9890016666667","6500100","板橋區"
"220065","072-UY","2019/08/12 19:50:01","新北市板橋區國泰街39巷5弄14號","121.468866666667","25.0058983333333","6500100","板橋區"
"220086","073-UY","2019/08/12 19:49:59","新北市板橋區中正路236巷88號","121.458396666667","25.0193866666667","6500100","板橋區"
"220069","AAD-861","2019/08/12 19:49:51","新北市板橋區大明街10號","121.459156666667","25.0025383333333","6500100","板橋區"
"220106","120-SR","2019/08/12 19:49:58","新北市板橋區民治街69號","121.479653333333","25.03283","6500100","板橋區"
"247004","893-R6","2019/08/12 19:49:51","新北市蘆洲區中原路73號","121.458465","25.08189","6501400","蘆洲區"
"247002","341-TH","2019/08/12 19:50:02","新北市蘆洲區永平街27號","121.458676666667","25.0907783333333","6501400","蘆洲區"
"247024","337-TH","2019/08/12 19:49:51","新北市蘆洲區光復路13號","121.462666666667","25.0843233333333","6501400","蘆洲區"
"247016","053-VK","2019/08/12 19:50:01","新北市蘆洲區中正路259號","121.467625","25.0870683333333","6501400","蘆洲區"
"226004","312-R5","2019/08/12 19:50:00","新北市平溪區十分里十分街58巷6號","121.775543333333","25.0419733333333","6502400","平溪區"
"235041","251-BX","2019/08/12 19:49:48","新北市中和區中安街128號","121.511116666667","25.000345","6500300","中和區"
"228003","097-TW","2019/08/12 19:49:57","新北市貢寮區真理里延平街72-5號","121.925133333333","25.0584033333333","6502600","貢寮區"
"228001","670-TC","2019/08/12 19:49:54","新北市貢寮區真理里新港街101號","121.926898333333","25.0566283333333","6502600","貢寮區"
"228002","828-UM","2019/08/12 19:49:53","新北市貢寮區龍門里龍門街78號","121.930978333333","25.0265916666667","6502600","貢寮區"
"224010","AGQ-8101","2019/08/12 19:49:59","新北市瑞芳區豎崎路18號","121.843551666667","25.1086733333333","6501200","瑞芳區"
"224002","639-TC","2019/08/12 19:50:00","新北市瑞芳區民享新村22號","121.817115","25.1055216666667","6501200","瑞芳區"
"227002","642-TC","2019/08/12 19:50:01","新北市雙溪區雙溪里內挖路47號","121.863325","25.0367566666667","6502500","雙溪區"
"227001","400-TW","2019/08/12 19:50:02","新北市雙溪區新基里中華路63號","121.86583","25.0380733333333","6502500","雙溪區"
"222001","KEA-2212","2019/08/12 19:49:48","新北市深坑區北深路三段91號","121.606201666667","25.0016233333333","6501800","深坑區"
"208002","KEA-2872","2019/08/12 19:49:53","新北市金山區中華路366-1號","121.633215","25.2244466666667","6502700","金山區"
"208003","665-BX","2019/08/12 19:49:52","新北市金山區中正路95號","121.633183333333","25.22168","6502700","金山區"
"251009","008-UM","2019/08/12 19:49:48","新北市淡水區中山路157號","121.440628333333","25.1728066666667","6501000","淡水區"
"251004","009-UM","2019/08/12 19:49:55","新北市淡水區民權路187巷17號","121.460298333333","25.133555","6501000","淡水區"
"251015","KEA-2871","2019/08/12 19:50:00","新北市淡水區山子頂24-1號","121.491388333333","25.1872266666667","6501000","淡水區"
"251016","179-VK","2019/08/12 19:49:49","新北市淡水區三塊厝3-2號","121.456183333333","25.2091416666667","6501000","淡水區"
"251008","181-VK","2019/08/12 19:49:57","新北市淡水區中正路一段62巷2號","121.425678333333","25.17718","6501000","淡水區"
"251013","182-VK","2019/08/12 19:50:05","新北市淡水區頂田寮路109號","121.458266666667","25.21617","6501000","淡水區"
"243011","549-UM","2019/08/12 19:50:00","新北市泰山區明志路三段196巷21弄22號","121.42269","25.0385433333333","6501600","泰山區"
"251012","441-VK","2019/08/12 19:50:03","新北市淡水區淡金路三段30號","121.447713333333","25.1984933333333","6501000","淡水區"
"251007","442-VK","2019/08/12 19:49:47","新北市淡水區竿蓁一街51巷5號","121.452618333333","25.166335","6501000","淡水區"
"251005","443-VK","2019/08/12 19:49:54","新北市淡水區中正東路61號","121.446613333333","25.1674416666667","6501000","淡水區"
"251001","559-UM","2019/08/12 19:50:01","新北市淡水區中正東路二段37號","121.459223333333","25.1562683333333","6501000","淡水區"
"251006","561-UM","2019/08/12 19:49:55","新北市淡水區水碓街10號","121.443578333333","25.1769316666667","6501000","淡水區"
"251014","577-R6","2019/08/12 19:49:38","新北市淡水區石頭厝14-59號","121.466311666667","25.2368233333333","6501000","淡水區"
"251011","650-BX","2019/08/12 19:49:57","新北市淡水區紅樹林路151號","121.460661666667","25.1577716666667","6501000","淡水區"
"251002","672-BX","2019/08/12 19:49:50","新北市淡水區崁頂145號","121.430818333333","25.2060383333333","6501000","淡水區"
"207004","681-TV","2019/08/12 19:49:53","新北市萬里區萬里里瑪鋉路207號","121.690376666667","25.1793383333333","6502800","萬里區"
"207003","550-UM","2019/08/12 19:49:45","新北市萬里區大鵬里下社9-4號","121.647055","25.21725","6502800","萬里區"
"252002","178-VK","2019/08/12 19:50:01","新北市三芝區三民街31號","121.504603333333","25.2585366666667","6502100","三芝區"
"208001","170-UY","2019/08/12 19:50:02","新北市金山區重和里六股林口13-1號","121.602785","25.218045","6502700","金山區"
"237004","KEA-2597","2019/08/12 19:49:59","新北市三峽區添福261號","121.375425","24.893965","6500900","三峽區"
"237007","153-BY","2019/08/12 19:50:00","新北市三峽區二鬮路136巷24弄23號","121.356323333333","24.910425","6500900","三峽區"
"237009","210-TH","2019/08/12 19:49:49","新北市三峽區中園街13-1號","121.368678333333","24.9271033333333","6500900","三峽區"
"237013","252-BX","2019/08/12 19:49:48","新北市三峽區橫溪路67號","121.397451666667","24.9353083333333","6500900","三峽區"
"237012","275-BY","2019/08/12 19:49:58","新北市三峽區中華路31號","121.372936666667","24.931255","6500900","三峽區"
"237008","302-VK","2019/08/12 19:49:53","新北市三峽區中正路一段292巷30號","121.370303333333","24.926065","6500900","三峽區"
"237014","433-BY","2019/08/12 19:50:06","新北市三峽區大利路24號","121.367121666667","24.9116283333333","6500900","三峽區"
"237006","5529-G3","2019/08/12 19:49:48","新北市三峽區中正路一段336巷15弄2號","121.36998","24.9249683333333","6500900","三峽區"
"237011","KEA-2596","2019/08/12 19:49:47","新北市三峽區介壽路二段97號","121.392191666667","24.9355133333333","6500900","三峽區"
"237015","649-BX","2019/08/12 19:50:03","新北市三峽區成福路3號","121.416618333333","24.9280933333333","6500900","三峽區"
"237010","706-TV","2019/08/12 19:50:03","新北市三峽區復興路77號","121.372636666667","24.937545","6500900","三峽區"
"237005","AKY-6261","2019/08/12 19:49:51","新北市三峽區長泰街18巷6號","121.379088333333","24.9316666666667","6500900","三峽區"
"236042","KED-0685","2019/08/12 19:49:45","新北市土城區金城路二段227號","121.455493333333","24.9824116666667","6501300","土城區"
"236078","166-UM","2019/08/12 19:50:04","新北市土城區溪頭路51-4號","121.411941666667","24.9549216666667","6501300","土城區"
"236026","269-VK","2019/08/12 19:50:03","新北市土城區中央路二段61巷40號","121.443805","24.978455","6501300","土城區"
"236069","KEA-2877","2019/08/12 19:50:00","新北市土城區光明街28巷30號","121.44134","24.9742683333333","6501300","土城區"
"252001","KED-0821","2019/08/12 19:49:46","新北市三芝區公正街66號","121.499838333333","25.2575016666667","6502100","三芝區"
"236020","401-BY","2019/08/12 19:49:52","新北市土城區延吉街165巷9號","121.470378333333","24.9852566666667","6501300","土城區"
"236059","912-UM","2019/08/12 19:49:48","新北市土城區中央路一段126號","121.446441666667","24.9878266666667","6501300","土城區"
"236048","913-UM","2019/08/12 19:49:58","新北市土城區青雲路208號","121.459085","24.9819233333333","6501300","土城區"
"236063","915-UM","2019/08/12 19:49:53","新北市土城區延平街33巷10號","121.467626666667","24.9917816666667","6501300","土城區"
"236055","AAC-216","2019/08/12 19:49:54","新北市土城區延和路246-1號","121.46971","24.9898666666667","6501300","土城區"
"242060","986-R7","2019/08/12 19:49:53","新北市新莊區瓊林路59-72號","121.444266666667","25.02749","6500500","新莊區"
"242056","441-UM","2019/08/12 19:50:00","新北市新莊區新豐街8號","121.448858333333","25.0345816666667","6500500","新莊區"
"242004","440-UM","2019/08/12 19:49:58","新北市新莊區化成路63巷41號","121.463231666667","25.0456466666667","6500500","新莊區"
"242048","400-BY","2019/08/12 19:49:47","新北市新莊區建安街92巷1號","121.426015","25.024125","6500500","新莊區"
"242025","362-BY","2019/08/12 19:50:02","新北市新莊區五權一路12巷21弄7號","121.457855","25.064665","6500500","新莊區"
"242023","353-BY","2019/08/12 19:49:49","新北市新莊區化成路144號","121.465378333333","25.0448516666667","6500500","新莊區"
"242013","132-UY","2019/08/12 19:49:54","新北市新莊區中泰街66號","121.449986666667","25.0467766666667","6500500","新莊區"
"242036","135-UY","2019/08/12 19:49:55","新北市新莊區民安路207巷30弄26號","121.428301666667","25.0239866666667","6500500","新莊區"
"242015","173-VK","2019/08/12 19:49:59","新北市泰山區磚雅厝6號","121.442378333333","25.0421766666667","6500500","新莊區"
"242021","175-VK","2019/08/12 19:50:07","新北市新莊區新泰路147號","121.448078333333","25.0366766666667","6500500","新莊區"
"242039","346-TH","2019/08/12 19:50:03","新北市新莊區民安路299巷37號","121.429336666667","25.0232383333333","6500500","新莊區"
"242034","348-TH","2019/08/12 19:50:00","新北市新莊區公園一路99號","121.444503333333","25.0379816666667","6500500","新莊區"
"242031","350-TH","2019/08/12 19:50:04","新北市新莊區公園一路95號","121.444411666667","25.03775","6500500","新莊區"
"238015","755-BX","2019/08/12 19:49:54","新北市樹林區樹德街21號","121.422245","24.9914366666667","6500700","樹林區"
"238023","601-UM","2019/08/12 19:50:04","新北市樹林區中正路255號","121.422088333333","25.004445","6500700","樹林區"
"238019","599-UM","2019/08/12 19:49:51","新北市樹林區東陽街34號","121.413406666667","24.980915","6500700","樹林區"
"238024","5061-A6","2019/08/12 19:50:01","新北市樹林區山佳街15號","121.39409","24.9728333333333","6500700","樹林區"
"238022","KEA-2213","2019/08/12 19:49:51","新北市樹林區國凱街50巷1弄1號","121.420406666667","24.9786533333333","6500700","樹林區"
"238021","KEA-2539","2019/08/12 19:49:59","新北市樹林區佳園路三段101巷18號","121.389485","24.9513133333333","6500700","樹林區"
"238025","303-VK","2019/08/12 19:49:51","新北市樹林區中山路一段364號","121.419041666667","24.985735","6500700","樹林區"
"238017","283-BY","2019/08/12 19:50:00","新北市樹林區保安街二段197巷10號","121.41388","25.00301","6500700","樹林區"
"238014","282-BY","2019/08/12 19:49:53","新北市樹林區千歲街50號","121.425968333333","24.9970933333333","6500700","樹林區"
"238020","268-VK","2019/08/12 19:49:50","新北市樹林區俊英街3號","121.429801666667","24.999785","6500700","樹林區"
"238026","172-UY","2019/08/12 19:49:58","新北市樹林區佳園路二段15巷9弄5號","121.393806666667","24.9633433333333","6500700","樹林區"
"239007","AAC-297","2019/08/12 19:49:54","新北市鶯歌區大湖路18號","121.342888333333","24.9605383333333","6500800","鶯歌區"
"239006","891-R6","2019/08/12 19:49:58","新北市鶯歌區永昌街186號","121.339366666667","24.9504816666667","6500800","鶯歌區"
"239001","417-VK","2019/08/12 19:50:02","新北市鶯歌區尖山埔路二段15號","121.342738333333","24.9491066666667","6500800","鶯歌區"
"239003","360-BY","2019/08/12 19:49:50","新北市鶯歌區重慶街41號","121.351565","24.9525533333333","6500800","鶯歌區"
"239002","359-BY","2019/08/12 19:50:00","新北市鶯歌區湖山路56巷2號","121.339561666667","24.97546","6500800","鶯歌區"
"239004","193-VK","2019/08/12 19:49:51","新北市鶯歌區二甲路55-25號","121.33817","24.929975","6500800","鶯歌區"
"221008","489-VK","2019/08/12 19:49:59","新北市汐止區康寧街61巷22弄5號","121.619641666667","25.0670683333333","6501100","汐止區"
"221010","269-BY","2019/08/12 19:49:50","新北市汐止區汐萬路二段66巷3弄11號","121.649171666667","25.082455","6501100","汐止區"
"221012","278-VK","2019/08/12 19:50:04","新北市汐止區大同路三段342號","121.679855","25.0710383333333","6501100","汐止區"
"221023","279-VK","2019/08/12 19:49:54","新北市汐止區中興路284號","121.628363333333","25.0694616666667","6501100","汐止區"
"221029","298-VK","2019/08/12 19:50:00","新北市汐止區康寧街901號","121.651451666667","25.0749","6501100","汐止區"
"221021","299-VK","2019/08/12 19:49:55","新北市汐止區水源路一段137號","121.65613","25.0622716666667","6501100","汐止區"
"221031","353-TW","2019/08/12 19:49:51","新北市汐止區伯爵街2巷5號","121.642261666667","25.0754116666667","6501100","汐止區"
"221025","623-UM","2019/08/12 19:49:51","新北市汐止區秀峰路81巷15弄15號","121.661011666667","25.0648433333333","6501100","汐止區"
"221038","646-BX","2019/08/12 19:50:06","新北市汐止區忠孝東路410號","121.665965","25.0711866666667","6501100","汐止區"
"220079","145-BY","2019/08/12 19:50:02","新北市板橋區民權路202巷17弄10號","121.460368333333","25.016645","6500100","板橋區"
"220080","200-UY","2019/08/12 19:50:02","新北市板橋區大觀路二段153巷46弄10號","121.449","24.9995016666667","6500100","板橋區"
"220082","610-BX","2019/08/12 19:50:04","新北市板橋區大觀路三段191號","121.432101666667","24.9936566666667","6500100","板橋區"
"220101","245-BX","2019/08/12 19:50:02","新北市板橋區縣民大道三段57號","121.474618333333","25.021175","6500100","板橋區"
"220084","256-TC","2019/08/12 19:49:55","新北市板橋區滿平二街2巷10號","121.425563333333","24.986285","6500100","板橋區"
"220071","283-VK","2019/08/12 19:49:48","新北市板橋區和平路174巷1弄2號","121.464226666667","24.99498","6500100","板橋區"
"220094","285-UM","2019/08/12 19:49:57","新北市板橋區雨農路19號","121.46193","25.0245466666667","6500100","板橋區"
"220053","285-VK","2019/08/12 19:49:44","新北市板橋區永豐街14號","121.47476","25.016965","6500100","板橋區"
"220083","286-VK","2019/08/12 19:50:03","新北市板橋區龍興街65巷2號","121.443486666667","25.0013516666667","6500100","板橋區"
"220081","287-VK","2019/08/12 19:49:47","新北市板橋區大觀路一段29巷179弄22號","121.449211666667","25.0046266666667","6500100","板橋區"
"220090","288-VK","2019/08/12 19:50:01","新北市板橋區漢生西路165巷1號","121.462848333333","25.02337","6500100","板橋區"
"220061","293-UM","2019/08/12 19:49:59","新北市板橋區中山路一段283巷2弄28號","121.470728333333","25.0151566666667","6500100","板橋區"
"220075","303-R5","2019/08/12 19:50:01","新北市板橋區大勇街10巷2號","121.453898333333","25.017005","6500100","板橋區"
"220062","305-R5","2019/08/12 19:49:55","新北市板橋區光復街33巷42號","121.482725","25.01884","6500100","板橋區"
"220092","307-R5","2019/08/12 19:49:54","新北市板橋區幸福路32巷29號","121.460811666667","25.021415","6500100","板橋區"
"220098","317-R6","2019/08/12 19:50:00","新北市板橋區四維路269巷51號","121.461098333333","25.0272733333333","6500100","板橋區"
"220055","461-BY","2019/08/12 19:49:43","新北市板橋區國慶路161-5號","121.461923333333","24.9961683333333","6500100","板橋區"
"220089","487-VK","2019/08/12 19:50:02","新北市板橋區互助街10號","121.463123333333","25.0275933333333","6500100","板橋區"
"220088","491-VK","2019/08/12 19:49:59","新北市板橋區文聖街113號","121.477866666667","25.029165","6500100","板橋區"
"220035","560-BX","2019/08/12 19:50:04","新北市板橋區金華街85巷42號","121.459163333333","25.0214216666667","6500100","板橋區"
"220103","561-BX","2019/08/12 19:49:48","新北市板橋區英士路58巷7號","121.460693333333","25.02516","6500100","板橋區"
"220056","568-UM","2019/08/12 19:49:58","新北市板橋區四川路二段2號","121.456641666667","24.99666","6500100","板橋區"
"220063","609-BX","2019/08/12 19:49:57","新北市板橋區三民路一段3巷1號","121.478858333333","25.023645","6500100","板橋區"
"220091","637-BX","2019/08/12 19:49:52","新北市板橋區懷德街181巷20號","121.480223333333","25.0301933333333","6500100","板橋區"
"220057","686-BX","2019/08/12 19:50:03","新北市板橋區德興街34號","121.453356666667","24.99379","6500100","板橋區"
"220077","687-BX","2019/08/12 19:50:02","新北市板橋區僑中二街116巷1號","121.445608333333","25.0062716666667","6500100","板橋區"
"220093","689-BX","2019/08/12 19:49:56","新北市板橋區長江路三段151-2號","121.47682","25.0352116666667","6500100","板橋區"
"220054","741-BX","2019/08/12 19:49:24","新北市板橋區忠孝路239巷24號","121.466988333333","25.0034383333333","6500100","板橋區"
"220102","KEA-2699","2019/08/12 19:49:51","新北市板橋區文化路二段182巷11號","121.472138333333","25.0267666666667","6500100","板橋區"
"220067","829-TW","2019/08/12 19:49:59","新北市板橋區長安街210-1號","121.474543333333","25.0119733333333","6500100","板橋區"
"220068","831-TW","2019/08/12 19:49:48","新北市板橋區光復街172巷2弄1號","121.485306666667","25.01932","6500100","板橋區"
"220074","895-R6","2019/08/12 19:49:48","新北市板橋區南門街5號","121.45766","25.0093316666667","6500100","板橋區"
"220073","985-R7","2019/08/12 19:49:57","新北市板橋區國光路49巷2號","121.458046666667","25.0180666666667","6500100","板橋區"
"220097","AAC-210","2019/08/12 19:49:56","新北市板橋區光正街11-1號","121.462756666667","25.01715","6500100","板橋區"
"220064","AAC-253","2019/08/12 19:49:51","新北市板橋區民族路294號","121.470443333333","25.0068433333333","6500100","板橋區"
"235068","KEA-2873","2019/08/12 19:50:01","新北市中和區莊敬路16巷15弄7號","121.500448333333","25.0038733333333","6500300","中和區"
"235038","KEA-2876","2019/08/12 19:49:38","新北市中和區自立路11號","121.522501666667","24.9964266666667","6500300","中和區"
