"lineid","car","time","location","longitude","latitude","cityid","cityname"
"231051","107-UY","2019/08/12 21:19:47","台北市文山區景文街146巷36號","121.532216666667","24.9908","6500600","新店區"
"231050","AAD-862","2019/08/12 21:20:01","新北市新店區中正路282-9號","121.538146666667","24.9745466666667","6500600","新店區"
"231063","641-BX","2019/08/12 21:19:49","新北市新店區吉祥街15巷1號","121.497748333333","24.9456183333333","6500600","新店區"
"231059","897-TW","2019/08/12 21:19:44","新北市新店區僑信路18號","121.499728333333","24.95255","6500600","新店區"
"241011","013-R5","2019/08/12 21:20:06","新北市三重區長壽街120巷113號","121.501768333333","25.0714583333333","6500200","三重區"
"241028","022-UY","2019/08/12 21:19:58","新北市三重區同安街137號","121.49332","25.05613","6500200","三重區"
"241008","059-VK","2019/08/12 21:19:50","新北市三重區自強路一段155號","121.493571666667","25.0670166666667","6500200","三重區"
"241013","060-VK","2019/08/12 21:20:02","新北市三重區仁愛街83號","121.495833333333","25.0732666666667","6500200","三重區"
"241031","061-VK","2019/08/12 21:19:51","新北市三重區重新路五段408巷19號","121.475778333333","25.0455533333333","6500200","三重區"
"241015","062-VK","2019/08/12 21:20:00","新北市三重區龍濱路281-2號","121.501251666667","25.073535","6500200","三重區"
"241017","063-VK","2019/08/12 21:19:53","新北市三重區中正北路25巷25弄1號","121.49317","25.0625933333333","6500200","三重區"
"241024","065-VK","2019/08/12 21:19:49","新北市三重區中正北路145巷8弄2號","121.484096666667","25.0677633333333","6500200","三重區"
"241023","066-VK","2019/08/12 21:19:46","新北市三重區中正北路176巷16號","121.482708333333","25.0659733333333","6500200","三重區"
"241002","090-VK","2019/08/12 21:19:52","新北市三重區自強路五段45號","121.494231666667","25.081615","6500200","三重區"
"241003","091-VK","2019/08/12 21:20:00","新北市三重區仁義街321號","121.495431666667","25.084415","6500200","三重區"
"241020","742-BX","2019/08/12 21:19:48","新北市三重區新北大道一段206巷1號","121.482286666667","25.0617183333333","6500200","三重區"
"241006","262-UM","2019/08/12 21:19:57","新北市五股區五工一路101號","121.458911666667","25.06923","6500200","三重區"
"241009","267-UM","2019/08/12 21:20:02","新北市五股區新五路二段372巷20號","121.447878333333","25.0850166666667","6500200","三重區"
"241018","268-UM","2019/08/12 21:19:44","新北市三重區忠孝路三段84巷38號","121.481725","25.0640533333333","6500200","三重區"
"241032","269-UM","2019/08/12 21:19:55","新北市五股區中興路三段1-7號","121.452301666667","25.0753533333333","6500200","三重區"
"241007","398-BY","2019/08/12 21:19:58","新北市三重區正義北路154號","121.496666666667","25.066315","6500200","三重區"
"241030","KED-0822","2019/08/12 21:19:58","新北市三重區光復路二段178-1號","121.47192","25.0624016666667","6500200","三重區"
"241004","475-VK","2019/08/12 21:20:01","新北市三重區碧華街360號","121.49068","25.0841","6500200","三重區"
"241026","480-VK","2019/08/12 21:19:49","新北市三重區大同南路155號","121.496468333333","25.0562383333333","6500200","三重區"
"241014","543-UM","2019/08/12 21:19:45","新北市三重區萬全街9號","121.49936","25.069685","6500200","三重區"
"241001","547-UM","2019/08/12 21:19:43","新北市三重區仁愛街310號","121.492036666667","25.0797016666667","6500200","三重區"
"241005","AAD-863","2019/08/12 21:19:57","新北市三重區仁華街118巷6號","121.485798333333","25.0830416666667","6500200","三重區"
"241016","887-TS","2019/08/12 21:19:46","新北市三重區自強路一段91號","121.496006666667","25.066355","6500200","三重區"
"241033","AAC-255","2019/08/12 21:19:59","新北市三重區光復路二段102巷51-1號","121.469545","25.0585416666667","6500200","三重區"
"235067","255-BX","2019/08/12 21:19:57","新北市中和區員山路36巷12號","121.484103333333","24.9906166666667","6500300","中和區"
"247014","KEA-2869","2019/08/12 21:19:57","新北市蘆洲區光榮路130號","121.464925","25.08967","6501400","蘆洲區"
"247008","KED-0682","2019/08/12 21:19:54","新北市蘆洲區中山一路131號","121.475735","25.08123","6501400","蘆洲區"
"235018","640-BX","2019/08/12 21:03:32","新北市中和區員山路36巷16-2號","121.485358333333","24.9916233333333","6500300","中和區"
"247004","893-R6","2019/08/12 21:19:51","新北市五股區新五路三段260號","121.448148333333","25.09039","6501400","蘆洲區"
"247002","341-TH","2019/08/12 21:20:02","新北市蘆洲區永樂街57號","121.456673333333","25.0884533333333","6501400","蘆洲區"
"247024","337-TH","2019/08/12 21:19:51","新北市蘆洲區長榮路269巷28號","121.459491666667","25.085985","6501400","蘆洲區"
"247006","002-UY","2019/08/12 21:19:55","新北市蘆洲區九芎街90巷35-1號","121.464183333333","25.0818266666667","6501400","蘆洲區"
"251009","008-UM","2019/08/12 21:19:48","新北市淡水區民族路112巷5號","121.462381666667","25.1351016666667","6501000","淡水區"
"251010","012-UM","2019/08/12 21:19:48","新北市淡水區中正路一段156巷51號","121.421806666667","25.180895","6501000","淡水區"
"251015","KEA-2871","2019/08/12 21:20:00","新北市淡水區淡金路四段518號","121.451863333333","25.22617","6501000","淡水區"
"251016","179-VK","2019/08/12 21:19:48","新北市淡水區前洲子11號","121.441141666667","25.21934","6501000","淡水區"
"251008","181-VK","2019/08/12 21:19:57","新北市淡水區水源街二段346巷1弄1號","121.463783333333","25.1756616666667","6501000","淡水區"
"251013","182-VK","2019/08/12 21:19:45","新北市淡水區行忠路330號","121.460695","25.1998983333333","6501000","淡水區"
"251012","441-VK","2019/08/12 21:20:03","新北市淡水區淡金路五段35巷46號","121.452491666667","25.2347416666667","6501000","淡水區"
"251005","443-VK","2019/08/12 21:19:54","新北市淡水區水源街一段122巷37號","121.447065","25.17041","6501000","淡水區"
"251001","559-UM","2019/08/12 21:20:01","新北市淡水區新市二路四段58號","121.441713333333","25.1927166666667","6501000","淡水區"
"251014","577-R6","2019/08/12 21:19:58","新北市淡水區六塊厝2-1號","121.45016","25.24048","6501000","淡水區"
"251011","650-BX","2019/08/12 21:19:56","新北市淡水區新民街120巷29號","121.438863333333","25.1788083333333","6501000","淡水區"
"251002","672-BX","2019/08/12 21:19:50","新北市淡水區學府路172巷21號","121.448335","25.17489","6501000","淡水區"
"251003","766-UM","2019/08/12 21:19:55","新北市淡水區崁頂15-5號","121.439001666667","25.1860983333333","6501000","淡水區"
"242025","362-BY","2019/08/12 21:20:02","新北市八里區中山路三段409號","121.368788333333","25.1356933333333","6500500","新莊區"
"220081","287-VK","2019/08/12 21:19:47","新北市土城區中華路一段56巷51號","121.44105","24.9917183333333","6500100","板橋區"
