"lineid","car","time","location","longitude","latitude","cityid","cityname"
"249005","172-UM","2019/11/21 17:13:59","新北市八里區華富山13-5號","121.41654","25.136165","6502300","八里區"
"249001","173-UM","2019/11/21 17:13:38","新北市八里區中華路二段165巷2號","121.407766666667","25.1506666666667","6502300","八里區"
"249004","303-UY","2019/11/21 17:13:40","新北市八里區文化街50號","121.423215","25.159855","6502300","八里區"
"249002","305-UY","2019/11/21 17:13:50","新北市八里區龍米路二段117巷3號","121.446785","25.1429716666667","6502300","八里區"
"249003","593-UM","2019/11/21 17:13:52","新北市八里區中山路二段439號","121.396728333333","25.1458066666667","6502300","八里區"
"244007","080-UY","2019/11/21 17:13:35","新北市林口區中華路96號","121.385091666667","25.0903283333333","6501700","林口區"
"244019","403-UM","2019/11/21 17:13:47","新北市林口區文化二路一段346號","121.372906666667","25.0752383333333","6501700","林口區"
"244013","KEA-2802","2019/11/21 17:13:49","新北市林口區粉寮69號","121.404781666667","25.09079","6501700","林口區"
"244023","483-VK","2019/11/21 17:13:56","新北市林口區興林路6號","121.389726666667","25.0764916666667","6501700","林口區"
"244017","485-VK","2019/11/21 17:13:46","新北市林口區粉寮69號","121.40504","25.0908383333333","6501700","林口區"
"244009","656-BX","2019/11/21 17:13:53","新北市林口區文化北路二段550巷30弄12號","121.378913333333","25.0915966666667","6501700","林口區"
"244011","701-TV","2019/11/21 17:13:58","新北市林口區中山路2號","121.396825","25.0785333333333","6501700","林口區"
"244025","837-TS","2019/11/21 17:13:52","新北市林口區文化三路一段561號","121.370353333333","25.0760716666667","6501700","林口區"
"244021","838-TS","2019/11/21 17:13:50","新北市林口區粉寮路二段160巷9號","121.405248333333","25.093135","6501700","林口區"
"231046","719-UM","2019/11/21 17:06:06","新北市新店區灣潭路4-1號","121.535841666667","24.94702","6500600","新店區"
"241011","013-R5","2019/11/21 17:13:45","新北市三重區河邊北街160巷2號","121.503206666667","25.0729866666667","6500200","三重區"
"241028","022-UY","2019/11/21 17:13:48","新北市三重區仁化商場7號","121.493586666667","25.0594733333333","6500200","三重區"
"241008","059-VK","2019/11/21 17:13:47","新北市三重區永福街176號","121.481135","25.0744566666667","6500200","三重區"
"241015","062-VK","2019/11/21 17:13:39","新北市三重區中央北路81號","121.500486666667","25.06664","6500200","三重區"
"241017","063-VK","2019/11/21 17:13:45","新北市三重區大同北路97號","121.494571666667","25.063605","6500200","三重區"
"241024","065-VK","2019/11/21 17:13:42","新北市三重區中正北路171號","121.478096666667","25.0694133333333","6500200","三重區"
"241007","066-VK","2019/11/21 17:13:47","新北市三重區三和路四段157號","121.48374","25.0784316666667","6500200","三重區"
"241002","090-VK","2019/11/21 17:13:53","新北市三重區自強路五段17號","121.492825","25.0806533333333","6500200","三重區"
"241003","091-VK","2019/11/21 17:13:38","新北市三重區富福街86號","121.492745","25.08509","6500200","三重區"
"241006","262-UM","2019/11/21 17:13:48","新北市三重區三和路四段274巷18號","121.484823333333","25.0768183333333","6500200","三重區"
"241016","266-UM","2019/11/21 17:13:52","新北市三重區大同北路54巷2號","121.494113333333","25.063515","6500200","三重區"
"241009","267-UM","2019/11/21 17:13:53","新北市三重區三和路四段231巷5號","121.481543333333","25.0799833333333","6500200","三重區"
"241018","268-UM","2019/11/21 17:13:38","新北市三重區正義北路328號","121.494696666667","25.0705083333333","6500200","三重區"
"241032","269-UM","2019/11/21 17:13:42","新北市三重區興華街87號","121.484413333333","25.05977","6500200","三重區"
"241013","270-UM","2019/11/21 17:13:50","新北市三重區仁愛街88號","121.495488333333","25.0737516666667","6500200","三重區"
"241030","KED-0822","2019/11/21 17:13:48","新北市三重區成功路73巷35號","121.490095","25.052875","6500200","三重區"
"241004","475-VK","2019/11/21 17:13:39","新北市三重區五華街122巷28號","121.491091666667","25.0826783333333","6500200","三重區"
"241020","478-VK","2019/11/21 17:13:39","新北市三重區忠孝路一段175號","121.48746","25.0719933333333","6500200","三重區"
"241026","480-VK","2019/11/21 17:13:39","新北市三重區文化南路21號","121.500063333333","25.0620083333333","6500200","三重區"
"241014","543-UM","2019/11/21 17:13:41","新北市三重區龍濱路169號","121.502328333333","25.0699633333333","6500200","三重區"
"241023","545-UM","2019/11/21 17:13:48","新北市三重區三民街206號","121.480955","25.0661866666667","6500200","三重區"
"241001","547-UM","2019/11/21 17:13:55","新北市三重區五華街1巷2號","121.495505","25.0796316666667","6500200","三重區"
"241019","KEA-2593","2019/11/21 17:13:44","新北市三重區自強路二段74巷21號","121.488001666667","25.0698583333333","6500200","三重區"
"241005","AAD-863","2019/11/21 17:13:53","新北市三重區永安北路二段25巷27號","121.482745","25.0818716666667","6500200","三重區"
"241012","743-BX","2019/11/21 17:13:59","新北市三重區仁壽街164號","121.500141666667","25.0745516666667","6500200","三重區"
"241022","KED-0820","2019/11/21 17:13:50","新北市三重區重陽路二段34巷66號","121.485145","25.064235","6500200","三重區"
"241025","KED-0670","2019/11/21 17:13:51","新北市三重區中正北路590號","121.469976666667","25.07215","6500200","三重區"
"241033","AAC-255","2019/11/21 17:13:44","新北市三重區光復路二段102巷59號","121.469041666667","25.0582666666667","6500200","三重區"
"247016","KEA-2869","2019/11/21 17:13:44","新北市蘆洲區光華路73巷37號","121.468758333333","25.081655","6501400","蘆洲區"
"247010","KED-0682","2019/11/21 17:13:51","新北市蘆洲區鷺江街16-4號","121.478558333333","25.08243","6501400","蘆洲區"
"247006","893-R6","2019/11/21 17:13:40","新北市蘆洲區長安街108巷5弄2號","121.461315","25.0818266666667","6501400","蘆洲區"
"247020","546-UM","2019/11/21 17:13:46","新北市蘆洲區仁愛街8號","121.472493333333","25.0924083333333","6501400","蘆洲區"
"247012","341-TH","2019/11/21 17:13:56","新北市蘆洲區信義路266巷31號","121.479053333333","25.087385","6501400","蘆洲區"
"247004","336-TH","2019/11/21 17:13:53","新北市蘆洲區長安街207巷21號","121.459333333333","25.0817466666667","6501400","蘆洲區"
"247024","057-VK","2019/11/21 17:13:44","新北市蘆洲區長榮路50號","121.462713333333","25.0831783333333","6501400","蘆洲區"
"247014","056-VK","2019/11/21 17:13:50","新北市蘆洲區得勝街149號","121.471608333333","25.0831066666667","6501400","蘆洲區"
"247018","053-VK","2019/11/21 17:13:57","新北市蘆洲區復興路110號","121.47607","25.087115","6501400","蘆洲區"
"247008","002-UY","2019/11/21 17:13:51","新北市蘆洲區信義路30巷106號","121.475033333333","25.0771816666667","6501400","蘆洲區"
"247002","001-UY","2019/11/21 17:13:39","新北市蘆洲區永樂街38巷19弄18號","121.457408333333","25.08919","6501400","蘆洲區"
"228003","097-TW","2019/11/21 17:13:43","新北市貢寮區福隆里東興街48號","121.948516666667","25.017775","6502600","貢寮區"
"228001","212-TW","2019/11/21 17:13:49","新北市貢寮區仁理村尖山腳街6號","121.925818333333","25.0484766666667","6502600","貢寮區"
"228002","663-BX","2019/11/21 17:13:44","新北市貢寮區雙玉里下雙溪街2號","121.912618333333","25.0164066666667","6502600","貢寮區"
"224006","676-BX","2019/11/21 17:13:45","新北市瑞芳區大寮路49巷4號","121.781871666667","25.097575","6501200","瑞芳區"
"224009","275-VK","2019/11/21 17:13:54","新北市瑞芳區八號巷58號","121.842595","25.1105183333333","6501200","瑞芳區"
"224008","273-VK","2019/11/21 17:13:48","新北市瑞芳區柴寮路40號","121.8275","25.0868466666667","6501200","瑞芳區"
"224005","271-BY","2019/11/21 17:13:49","新北市瑞芳區鼻頭路247號","121.912558333333","25.1239083333333","6501200","瑞芳區"
"227001","642-TC","2019/11/21 17:13:46","新北市雙溪區三貂里定福路2號","121.850981666667","25.06674","6502500","雙溪區"
"227002","400-TW","2019/11/21 17:13:42","新北市雙溪區平林里梅竹蹊59號","121.850713333333","25.0319116666667","6502500","雙溪區"
"251004","009-UM","2019/11/21 17:09:16","新北市淡水區中正東路二段88巷15號","121.459036666667","25.150485","6501000","淡水區"
"251005","010-UM","2019/11/21 17:13:54","新北市淡水區鄧公路23巷1-5號","121.450228333333","25.1699666666667","6501000","淡水區"
"251015","KEA-2871","2019/11/21 17:13:37","新北市淡水區鄧公路36巷13號","121.45601","25.169175","6501000","淡水區"
"251016","180-VK","2019/11/21 17:13:53","新北市淡水區鄒厝崙7號","121.470813333333","25.1880333333333","6501000","淡水區"
"251008","181-VK","2019/11/21 17:13:44","新北市淡水區民生路169號","121.469625","25.1420583333333","6501000","淡水區"
"251013","182-VK","2019/11/21 17:13:39","新北市淡水區大埤頭9-1號","121.481866666667","25.1944316666667","6501000","淡水區"
"251012","441-VK","2019/11/21 17:13:36","新北市淡水區中山北路一段158號","121.44426","25.1778566666667","6501000","淡水區"
"251007","442-VK","2019/11/21 17:13:38","新北市淡水區民權路41號","121.459676666667","25.14024","6501000","淡水區"
"251006","561-UM","2019/11/21 17:13:41","新北市淡水區新民街19巷12號","121.438456666667","25.1747416666667","6501000","淡水區"
"251009","575-R6","2019/11/21 17:13:53","新北市淡水區中正路23巷1號","121.435663333333","25.1732216666667","6501000","淡水區"
"251014","577-R6","2019/11/21 17:13:55","新北市淡水區八里堆7-5號","121.460436666667","25.2253066666667","6501000","淡水區"
"251011","650-BX","2019/11/21 17:13:52","新北市淡水區坪頂路51巷2號","121.458085","25.1625483333333","6501000","淡水區"
"251003","766-UM","2019/11/21 17:13:40","新北市淡水區中正路二段31號","121.419348333333","25.1814483333333","6501000","淡水區"
"252002","178-VK","2019/11/21 17:13:51","新北市三芝區忠孝街1-14號","121.505518333333","25.253935","6502100","三芝區"
"233002","762-BX","2019/11/21 17:13:55","新北市烏來區野要街88-1號","121.547238333333","24.8540966666667","6502900","烏來區"
"252001","KED-0821","2019/11/21 17:13:47","新北市三芝區埔頭里埔頭15-6號","121.495741666667","25.2598733333333","6502100","三芝區"
"242042","AAC-296","2019/11/21 17:13:59","新北市新莊區新泰路357巷3弄57號","121.441938333333","25.0397533333333","6500500","新莊區"
"242061","986-R7","2019/11/21 17:13:48","新北市新莊區新泰路255巷83號","121.442326666667","25.03914","6500500","新莊區"
"242004","751-BX","2019/11/21 17:13:39","新北市新莊區新泰路255巷83號","121.44235","25.0388633333333","6500500","新莊區"
"242029","615-BX","2019/11/21 17:13:53","新北市新莊區新泰路500號","121.44241","25.0458733333333","6500500","新莊區"
"242027","613-BX","2019/11/21 17:13:38","新北市新莊區新泰路255巷83號","121.442366666667","25.03895","6500500","新莊區"
"242058","612-BX","2019/11/21 17:13:40","新北市新莊區新泰路357巷3弄57號","121.442251666667","25.0392766666667","6500500","新莊區"
"242048","566-BX","2019/11/21 17:13:40","新北市新莊區福營路371號","121.423603333333","25.02762","6500500","新莊區"
"242053","497-BY","2019/11/21 17:13:44","新北市新莊區中環路一段30號","121.442188333333","25.0272366666667","6500500","新莊區"
"242002","441-UM","2019/11/21 17:13:37","新北市新莊區瓊泰路77巷16號","121.442193333333","25.02934","6500500","新莊區"
"242044","415-TV","2019/11/21 17:13:56","新北市新莊區中正路569號","121.43477","25.03263","6500500","新莊區"
"242051","400-BY","2019/11/21 17:13:47","新北市新莊區中正路400號","121.44193","25.0342883333333","6500500","新莊區"
"242025","362-BY","2019/11/21 17:13:47","新北市新莊區新泰路357巷3弄57號","121.442366666667","25.039355","6500500","新莊區"
"242023","353-BY","2019/11/21 17:13:41","新北市新莊區三和路12-10號","121.442318333333","25.0367966666667","6500500","新莊區"
"242039","135-UY","2019/11/21 17:13:50","新北市新莊區中正路400號","121.441985","25.0342366666667","6500500","新莊區"
"242056","172-VK","2019/11/21 17:13:53","新北市新莊區中正路384-1號","121.442343333333","25.0355266666667","6500500","新莊區"
"242017","173-VK","2019/11/21 17:13:42","新北市新莊區三和路12-21號","121.442","25.038705","6500500","新莊區"
"242031","175-VK","2019/11/21 17:13:55","新北市新莊區三和路12-21號","121.44189","25.0386666666667","6500500","新莊區"
"242007","346-TH","2019/11/21 17:13:55","新北市新莊區三和路12-21號","121.442065","25.03827","6500500","新莊區"
"242021","347-TH","2019/11/21 17:13:50","新北市新莊區新泰路369巷27號","121.442373333333","25.0431183333333","6500500","新莊區"
"242036","348-TH","2019/11/21 17:13:41","新北市新莊區三和路10-2號","121.441873333333","25.035395","6500500","新莊區"
"242012","349-TH","2019/11/21 17:13:51","新北市新莊區三和路12-21號","121.44235","25.03832","6500500","新莊區"
"242034","350-TH","2019/11/21 17:13:47","新北市新莊區瓊泰路77巷15號","121.44216","25.0288466666667","6500500","新莊區"
"242019","351-TH","2019/11/21 17:13:40","新北市新莊區中環路二段392-1號","121.44241","25.0454766666667","6500500","新莊區"
"238023","601-UM","2019/11/21 17:13:53","新北市樹林區中正路815號","121.40946","25.0170116666667","6500700","樹林區"
"238019","599-UM","2019/11/21 17:13:52","新北市樹林區八德街1172號","121.390105","24.9682","6500700","樹林區"
"238018","KEA-2217","2019/11/21 17:13:49","新北市樹林區博愛街223號","121.42408","24.9864483333333","6500700","樹林區"
"238021","KEA-2539","2019/11/21 17:13:49","新北市樹林區西圳街一段165巷20弄11號","121.39562","24.96016","6500700","樹林區"
"238025","303-VK","2019/11/21 17:13:53","新北市樹林區千歲街63-14號","121.427056666667","24.9985966666667","6500700","樹林區"
"238017","283-BY","2019/11/21 17:13:44","新北市樹林區光武街32巷2號","121.416171666667","25.0057016666667","6500700","樹林區"
"238014","282-BY","2019/11/21 17:13:53","新北市樹林區長壽街70巷10弄2號","121.421755","24.994505","6500700","樹林區"
"238020","268-VK","2019/11/21 17:13:51","新北市樹林區中正路22-1號","121.427788333333","24.9993683333333","6500700","樹林區"
"238026","172-UY","2019/11/21 17:13:41","新北市樹林區味王街46巷32號","121.402833333333","24.9737483333333","6500700","樹林區"
"238016","169-UY","2019/11/21 17:14:00","新北市樹林區八德街1號","121.417521666667","24.9849733333333","6500700","樹林區"
"239007","AAC-297","2019/11/21 17:13:49","新北市鶯歌區信義街5號","121.353325","24.95598","6500800","鶯歌區"
"239006","891-R6","2019/11/21 17:13:54","新北市鶯歌區八德路29號","121.335368333333","24.951685","6500800","鶯歌區"
"239008","527-UM","2019/11/21 17:13:53","新北市鶯歌區尖山路38號","121.351083333333","24.9505083333333","6500800","鶯歌區"
"239005","526-UM","2019/11/21 17:13:45","新北市鶯歌區鶯桃路548號","121.331035","24.9673633333333","6500800","鶯歌區"
"239001","417-VK","2019/11/21 17:13:49","新北市鶯歌區尖山路86巷28號","121.346961666667","24.9496183333333","6500800","鶯歌區"
"239003","360-BY","2019/11/21 17:13:45","新北市鶯歌區德昌二街70巷32弄15號","121.331425","24.958445","6500800","鶯歌區"
"239002","359-BY","2019/11/21 17:13:39","新北市鶯歌區建國路270號","121.347266666667","24.9533866666667","6500800","鶯歌區"
"239004","193-VK","2019/11/21 17:13:41","新北市鶯歌區文化路324巷1-35號","121.352433333333","24.9456583333333","6500800","鶯歌區"
"233001","KEA-2870","2019/11/21 17:13:54","新北市烏來區溫泉街77號","121.551573333333","24.8602066666667","6502900","烏來區"
"242046","281-VK","2019/11/21 17:13:43","新北市新莊區新樹路67巷3號","121.441696666667","25.0307083333333","6500500","新莊區"
"242011","280-VK","2019/11/21 17:13:36","新北市新莊區三和路18-11號","121.441276666667","25.0382116666667","6500500","新莊區"
