"lineid","car","time","location","longitude","latitude","cityid","cityname"
"234007","KED-0605","2019/11/21 18:13:50","新北市永和區環河西路二段211號","121.501511666667","25.0106816666667","6500400","永和區"
"234026","9371-KE","2019/11/21 18:13:45","新北市永和區福和路362號","121.51471","25.0077266666667","6500400","永和區"
"249005","172-UM","2019/11/21 18:13:39","新北市八里區荖阡坑路15-40號","121.401725","25.139835","6502300","八里區"
"249001","173-UM","2019/11/21 18:13:40","新北市八里區龍米路一段245號","121.451076666667","25.1333233333333","6502300","八里區"
"249004","303-UY","2019/11/21 18:13:40","新北市八里區龍米路二段236-3號","121.431676666667","25.1589","6502300","八里區"
"249002","305-UY","2019/11/21 18:13:50","新北市八里區龍米路一段386巷2號","121.451856666667","25.1319516666667","6502300","八里區"
"249003","593-UM","2019/11/21 18:13:52","新北市八里區下罟子6-3號","121.38609","25.14199","6502300","八里區"
"248016","026-BX","2019/11/21 18:13:43","新北市五股區成泰路三段221巷16號","121.445768333333","25.0934283333333","6501500","五股區"
"248006","077-UY","2019/11/21 18:13:53","新北市五股區中興路一段169號","121.46472","25.073745","6501500","五股區"
"248008","KED-0815","2019/11/21 18:13:42","新北市五股區更洲路32巷8弄14號","121.459231666667","25.079625","6501500","五股區"
"248020","KED-0813","2019/11/21 18:13:55","新北市五股區成泰路四段2號","121.452825","25.10618","6501500","五股區"
"248012","247-BX","2019/11/21 18:13:57","新北市五股區成泰路三段101-1號","121.444125","25.0903516666667","6501500","五股區"
"248014","261-SL","2019/11/21 18:13:45","新北市五股區成泰路一段171巷13號","121.434376666667","25.0743966666667","6501500","五股區"
"248010","272-BY","2019/11/21 18:13:37","新北市五股區成泰路一段229-1號","121.434268333333","25.07766","6501500","五股區"
"248004","677-BX","2019/11/21 18:13:37","新北市五股區中興路四段42號","121.438261666667","25.0829216666667","6501500","五股區"
"248002","678-BX","2019/11/21 18:13:48","新北市五股區新五路三段9號","121.44433","25.0896416666667","6501500","五股區"
"232011","375-UM","2019/11/21 18:13:44","新北市坪林區坪雙路一段56號","121.714018333333","24.9427783333333","6502000","坪林區"
"244007","080-UY","2019/11/21 18:13:55","新北市林口區林口路113巷6弄25號","121.388308333333","25.0803","6501700","林口區"
"244019","403-UM","2019/11/21 18:13:47","新北市林口區忠孝路577號","121.375123333333","25.0682766666667","6501700","林口區"
"244013","KEA-2802","2019/11/21 18:13:49","新北市林口區佳林路101巷15號","121.386995","25.08005","6501700","林口區"
"244023","483-VK","2019/11/21 18:13:56","新北市林口區東湖路153巷135號","121.382161666667","25.073505","6501700","林口區"
"244017","485-VK","2019/11/21 18:13:53","新北市林口區八德路42號","121.367108333333","25.06624","6501700","林口區"
"244009","656-BX","2019/11/21 18:13:53","新北市林口區福林路37號","121.379181666667","25.0887983333333","6501700","林口區"
"244011","701-TV","2019/11/21 18:13:38","新北市林口區新寮2號","121.392728333333","25.0762366666667","6501700","林口區"
"244025","837-TS","2019/11/21 18:13:52","新北市林口區南勢二街140號","121.358695","25.0730066666667","6501700","林口區"
"244021","838-TS","2019/11/21 18:13:50","新北市林口區自強一街56號","121.399578333333","25.0772816666667","6501700","林口區"
"243013","646-TV","2019/11/21 18:13:42","新北市泰山區南林路99巷1-1號","121.415468333333","25.0511633333333","6501600","泰山區"
"222003","436-BY","2019/11/21 18:13:35","新北市深坑區昇高坑路15號","121.624668333333","25.001025","6501800","深坑區"
"222002","659-BX","2019/11/21 18:13:51","新北市深坑區文化街10號","121.620305","25.0013416666667","6501800","深坑區"
"231061","002-UM","2019/11/21 18:13:39","新北市新店區安華路28-1號","121.519918333333","24.9607566666667","6500600","新店區"
"231055","0291-UT","2019/11/21 18:13:56","新北市新店區安華路28-1號","121.519561666667","24.960715","6500600","新店區"
"231051","107-UY","2019/11/21 18:13:45","新北市新店區安一路一段1-1號","121.519703333333","24.9611","6500600","新店區"
"231062","256-BX","2019/11/21 18:13:57","新北市新店區安華路28-1號","121.51987","24.9610683333333","6500600","新店區"
"231054","260-TV","2019/11/21 18:13:46","新北市新店區安一路一段1-1號","121.519195","24.9611783333333","6500600","新店區"
"231042","268-BY","2019/11/21 18:13:51","新北市新店區安一路一段1-1號","121.519601666667","24.9612916666667","6500600","新店區"
"231050","AAD-862","2019/11/21 18:13:48","新北市新店區安華路28-1號","121.519961666667","24.9609916666667","6500600","新店區"
"231056","4715-K9","2019/11/21 18:13:54","新北市新店區安康路一段3-1號","121.535233333333","24.960915","6500600","新店區"
"231052","513-UM","2019/11/21 18:13:48","新北市新店區安一路一段1-1號","121.519676666667","24.9611433333333","6500600","新店區"
"231063","641-BX","2019/11/21 18:13:51","新北市新店區安華路28-1號","121.519573333333","24.9605233333333","6500600","新店區"
"231057","720-UM","2019/11/21 18:13:44","新北市新店區安一路一段1-1號","121.519236666667","24.9610433333333","6500600","新店區"
"231040","898-TW","2019/11/21 18:13:37","新北市新店區安華路28-1號","121.519538333333","24.9609866666667","6500600","新店區"
"231037","AKT-0513","2019/11/21 18:13:51","新北市新店區安華路1-1號","121.519401666667","24.9604","6500600","新店區"
"241033","AAC-255","2019/11/21 18:13:44","新北市三重區中興北街42巷50號","121.467993333333","25.0492133333333","6500200","三重區"
"235066","003-UY","2019/11/21 18:13:43","新北市中和區連城路265號","121.491325","24.99638","6500300","中和區"
"235064","005-UY","2019/11/21 18:13:47","新北市中和區圓通路167巷8號","121.49801","24.99501","6500300","中和區"
"235063","006-UY","2019/11/21 18:13:51","新北市中和區中正路577號","121.486388333333","24.9944866666667","6500300","中和區"
"235056","096-UM","2019/11/21 18:13:42","新北市中和區新生街226號","121.483846666667","24.998295","6500300","中和區"
"235039","097-UM","2019/11/21 18:13:55","新北市中和區中正路79號","121.500833333333","24.9935416666667","6500300","中和區"
"235065","098-UM","2019/11/21 18:13:41","新北市中和區莊敬路49巷27號","121.501585","25.0061416666667","6500300","中和區"
"235040","150-BY","2019/11/21 18:13:11","新北市中和區中正路273-5號","121.495656666667","24.9933116666667","6500300","中和區"
"235058","151-BY","2019/11/21 18:13:48","新北市中和區圓通路369巷35號","121.489145","24.9865316666667","6500300","中和區"
"235055","183-VK","2019/11/21 18:13:55","新北市中和區民樂路15號","121.481861666667","25.0018183333333","6500300","中和區"
"235038","185-VK","2019/11/21 18:13:40","新北市中和區大智街30號","121.5213","24.9920633333333","6500300","中和區"
"235072","301-VK","2019/11/21 18:13:45","新北市中和區錦和路89-1號","121.490045","24.99587","6500300","中和區"
"235043","352-BY","2019/11/21 18:13:50","新北市中和區景平路381號","121.503826666667","24.9932966666667","6500300","中和區"
"235042","KEA-2878","2019/11/21 18:13:57","新北市中和區景平路159巷2號","121.51259","24.9922716666667","6500300","中和區"
"235050","4979-A6","2019/11/21 18:13:44","新北市中和區中正路305號","121.492308333333","24.99372","6500300","中和區"
"235069","4980-A6","2019/11/21 18:13:40","新北市中和區板南路244號","121.496648333333","24.9950933333333","6500300","中和區"
"235070","558-UM","2019/11/21 18:13:47","新北市中和區圓通路163-1號","121.497833333333","24.9955516666667","6500300","中和區"
"235045","565-BX","2019/11/21 18:13:41","新北市中和區景安路200巷10號","121.50324","24.9919583333333","6500300","中和區"
"235060","KED-0823","2019/11/21 18:13:41","新北市中和區員山路82巷10弄8號","121.481423333333","24.993565","6500300","中和區"
"235054","640-BX","2019/11/21 18:13:47","新北市中和區民享街86巷21號","121.473413333333","25.000575","6500300","中和區"
"235047","732-UM","2019/11/21 18:13:47","新北市中和區復興路56號","121.503781666667","24.9903333333333","6500300","中和區"
"235062","800-TS","2019/11/21 18:13:44","新北市中和區景平路999巷1號","121.495405","25.00593","6500300","中和區"
"235057","801-TS","2019/11/21 18:13:59","新北市中和區民享街97巷19號","121.47532","24.9995616666667","6500300","中和區"
"235041","802-TS","2019/11/21 18:13:38","新北市中和區中正路571巷1弄4號","121.486775","24.9935216666667","6500300","中和區"
"235052","805-TS","2019/11/21 18:13:48","新北市中和區南山路397號","121.506735","24.99014","6500300","中和區"
"235048","896-TW","2019/11/21 18:13:50","新北市中和區員山路36巷16-2號","121.485236666667","24.9916533333333","6500300","中和區"
"235051","157-BY","2019/11/21 18:13:42","新北市中和區興南路一段77號","121.510038333333","24.98919","6500300","中和區"
"235037","AAC-213","2019/11/21 18:13:47","新北市中和區景平路151巷43號","121.514763333333","24.9905433333333","6500300","中和區"
"220069","AAD-861","2019/11/21 18:13:47","新北市板橋區華東街1-10號","121.448333333333","24.9951083333333","6500100","板橋區"
"226004","312-R5","2019/11/21 18:10:18","新北市平溪區白石里白石腳15號","121.721221666667","25.02101","6502400","平溪區"
"228003","097-TW","2019/11/21 18:13:43","新北市貢寮區真理里美艷山街22-2號","121.926918333333","25.0649166666667","6502600","貢寮區"
"228002","663-BX","2019/11/21 18:13:44","新北市貢寮區福連里馬崗街25號","122.003588333333","25.0135916666667","6502600","貢寮區"
"224006","676-BX","2019/11/21 18:13:45","新北市瑞芳區三爪子坑路192號","121.80652","25.1052","6501200","瑞芳區"
"224007","285-BY","2019/11/21 18:13:53","新北市瑞芳區大埔路7號","121.765835","25.1024883333333","6501200","瑞芳區"
"224009","275-VK","2019/11/21 18:13:54","新北市瑞芳區新山路43號","121.855921666667","25.1083316666667","6501200","瑞芳區"
"224008","273-VK","2019/11/21 18:13:48","新北市瑞芳區三爪子坑路97號","121.811161666667","25.1073233333333","6501200","瑞芳區"
"224005","271-BY","2019/11/21 18:13:49","新北市瑞芳區建基路二段49號","121.806945","25.1333616666667","6501200","瑞芳區"
"227001","642-TC","2019/11/21 18:13:54","新北市雙溪區三貂里政光路4號","121.8521","25.06261","6502500","雙溪區"
"227002","400-TW","2019/11/21 18:13:42","新北市雙溪區雙溪里太平路6號","121.864068333333","25.0350933333333","6502500","雙溪區"
"253005","032-BX","2019/11/21 18:13:55","新北市石門區中央路37-5號","121.569595","25.296545","6502200","石門區"
"253006","295-VK","2019/11/21 18:13:41","新北市石門區老梅路52巷21號","121.546405","25.2885816666667","6502200","石門區"
"222001","KEA-2212","2019/11/21 18:13:39","新北市深坑區北深路二段117號","121.61685","25.0031616666667","6501800","深坑區"
"208002","KEA-2872","2019/11/21 18:13:41","新北市金山區清泉里清水路1-2號","121.628646666667","25.2362683333333","6502700","金山區"
"208003","665-BX","2019/11/21 18:13:59","新北市金山區民生路102號","121.647666666667","25.22376","6502700","金山區"
"251004","009-UM","2019/11/21 18:13:46","新北市淡水區民族路110巷10號","121.462113333333","25.1354816666667","6501000","淡水區"
"251005","010-UM","2019/11/21 18:13:54","新北市淡水區水源街一段124號","121.447311666667","25.17159","6501000","淡水區"
"251015","KEA-2871","2019/11/21 18:13:56","新北市淡水區興福寮88巷1號","121.485351666667","25.1649333333333","6501000","淡水區"
"251016","180-VK","2019/11/21 18:13:53","新北市淡水區淡金路三段70巷5號","121.448676666667","25.2000066666667","6501000","淡水區"
"251008","181-VK","2019/11/21 18:13:52","新北市淡水區淡金路8-1號","121.457311666667","25.15988","6501000","淡水區"
"251013","182-VK","2019/11/21 18:13:59","新北市淡水區後寮11號","121.476788333333","25.1984066666667","6501000","淡水區"
"251010","413-VK","2019/11/21 18:13:52","新北市淡水區淡海路189巷25-2號","121.418391666667","25.1847516666667","6501000","淡水區"
"251012","441-VK","2019/11/21 18:13:56","新北市淡水區泉洲厝19號","121.490456666667","25.1908483333333","6501000","淡水區"
"251001","559-UM","2019/11/21 18:13:41","新北市淡水區自立路1巷27號","121.462681666667","25.1295733333333","6501000","淡水區"
"251006","561-UM","2019/11/21 18:13:41","新北市淡水區真理街3巷24-1號","121.437893333333","25.1765533333333","6501000","淡水區"
"251009","575-R6","2019/11/21 18:13:53","新北市淡水區中山北路一段160號","121.444161666667","25.17836","6501000","淡水區"
"251014","577-R6","2019/11/21 18:13:55","新北市淡水區北勢子8-3號","121.484463333333","25.223905","6501000","淡水區"
"251011","650-BX","2019/11/21 18:09:52","新北市淡水區吳(仔)厝22號","121.479431666667","25.1486083333333","6501000","淡水區"
"251002","672-BX","2019/11/21 18:13:37","新北市淡水區中正東路一段80號","121.453058333333","25.1609866666667","6501000","淡水區"
"251003","766-UM","2019/11/21 18:13:40","新北市淡水區北新路182巷58號","121.448421666667","25.1774416666667","6501000","淡水區"
"207003","681-TV","2019/11/21 18:13:45","新北市萬里區野柳里港東路72-1號","121.688023333333","25.2048033333333","6502800","萬里區"
"207004","291-VK","2019/11/21 18:13:46","新北市萬里區中幅里中福路162號","121.67332","25.1661616666667","6502800","萬里區"
"252002","178-VK","2019/11/21 18:13:51","新北市三芝區中山路二段38號","121.502978333333","25.2551166666667","6502100","三芝區"
"252003","249-BX","2019/11/21 18:13:36","新北市三芝區古庄里四棧橋18-3號","121.48976","25.2610916666667","6502100","三芝區"
"208001","170-UY","2019/11/21 18:13:45","新北市金山區磺港里磺港路30號","121.649458333333","25.2287516666667","6502700","金山區"
"237004","KEA-2597","2019/11/21 18:13:38","新北市三峽區大埔路323號","121.369851666667","24.89875","6500900","三峽區"
"237007","153-BY","2019/11/21 18:13:43","新北市三峽區中正路二段412巷8號","121.364716666667","24.9083016666667","6500900","三峽區"
"237009","210-TH","2019/11/21 18:13:46","新北市三峽區大仁路54號","121.365316666667","24.9374866666667","6500900","三峽區"
"237013","252-BX","2019/11/21 18:13:47","新北市三峽區長泰街78巷16號","121.376731666667","24.9335833333333","6500900","三峽區"
"237012","275-BY","2019/11/21 18:13:47","新北市三峽區民生街1巷1-28號","121.377591666667","24.9352416666667","6500900","三峽區"
"237008","302-VK","2019/11/21 18:13:49","新北市三峽區白雞58-27號","121.386361666667","24.9094166666667","6500900","三峽區"
"237014","433-BY","2019/11/21 18:13:58","新北市三峽區國光街83號","121.373693333333","24.938325","6500900","三峽區"
"237006","5529-G3","2019/11/21 18:13:40","新北市三峽區溪東路178巷13弄13號","121.406231666667","24.9322333333333","6500900","三峽區"
"237011","KEA-2596","2019/11/21 18:13:41","新北市三峽區介壽路一段316-2號","121.380816666667","24.9302116666667","6500900","三峽區"
"237015","649-BX","2019/11/21 18:13:28","新北市三峽區紫新路23巷2號","121.422933333333","24.921115","6500900","三峽區"
"237010","706-TV","2019/11/21 18:13:44","新北市三峽區民族街149號","121.36895","24.92813","6500900","三峽區"
"237005","AKY-6261","2019/11/21 18:13:55","新北市三峽區民生街152-3號","121.372043333333","24.935285","6500900","三峽區"
"236042","KED-0685","2019/11/21 18:13:58","新北市土城區裕生路94號","121.447138333333","24.984935","6501300","土城區"
"233002","762-BX","2019/11/21 18:13:55","新北市烏來區天仁2號","121.541681666667","24.8846383333333","6502900","烏來區"
"236078","166-UM","2019/11/21 18:13:40","新北市土城區永安街118號","121.429963333333","24.964215","6501300","土城區"
"236030","253-BX","2019/11/21 18:13:45","新北市土城區員福街54號","121.44033","24.9791833333333","6501300","土城區"
"236026","269-VK","2019/11/21 18:13:52","新北市土城區承天路47號","121.43884","24.9637283333333","6501300","土城區"
"236014","270-VK","2019/11/21 18:13:45","新北市土城區青雲路39巷7號","121.460298333333","24.98738","6501300","土城區"
"236038","271-VK","2019/11/21 18:13:50","新北市土城區青雲路449-1號","121.4589","24.9747283333333","6501300","土城區"
"236070","KEA-2877","2019/11/21 18:13:44","新北市土城區明德路一段323號","121.458911666667","24.976655","6501300","土城區"
"252001","KED-0821","2019/11/21 18:13:47","新北市三芝區中興街二段2號","121.498408333333","25.25661","6502100","三芝區"
"236021","401-BY","2019/11/21 18:13:42","新北市土城區明德路一段369號","121.455895","24.977825","6501300","土城區"
"236049","752-BX","2019/11/21 18:13:48","新北市土城區明德路一段365-1號","121.45353","24.9790216666667","6501300","土城區"
"236059","912-UM","2019/11/21 18:13:39","新北市土城區中央路四段272號","121.41462","24.956565","6501300","土城區"
"236063","915-UM","2019/11/21 18:13:54","新北市土城區金城路二段266號","121.45812","24.98401","6501300","土城區"
"236055","AAC-216","2019/11/21 18:13:50","新北市土城區中華路二段92號","121.438233333333","24.9747533333333","6501300","土城區"
"242042","AAC-296","2019/11/21 18:13:39","新北市新莊區天祥街123號","121.414485","25.0297683333333","6500500","新莊區"
"242061","986-R7","2019/11/21 18:13:48","新北市新莊區新樹路295-5號","121.433651666667","25.01971","6500500","新莊區"
"242004","751-BX","2019/11/21 18:13:39","新北市新莊區自立街80號","121.4545","25.0453316666667","6500500","新莊區"
"242029","615-BX","2019/11/21 18:13:53","新北市新莊區幸福路858號","121.443831666667","25.0490133333333","6500500","新莊區"
"242027","613-BX","2019/11/21 18:13:38","新北市新莊區幸福路71號","121.45697","25.04938","6500500","新莊區"
"242058","612-BX","2019/11/21 18:13:40","新北市新莊區天祥街120巷3弄9號","121.41381","25.0304983333333","6500500","新莊區"
"242048","566-BX","2019/11/21 18:13:40","新北市新莊區民安路98巷3號","121.423575","25.02576","6500500","新莊區"
"242053","497-BY","2019/11/21 18:13:44","新北市新莊區民安西路392-7號","121.428528333333","25.0096466666667","6500500","新莊區"
"242013","442-UM","2019/11/21 18:13:56","新北市新莊區瓊林路118號","121.442193333333","25.02542","6500500","新莊區"
"242002","441-UM","2019/11/21 18:13:57","新北市新莊區新莊路116號","121.456065","25.03596","6500500","新莊區"
"242044","415-TV","2019/11/21 18:13:56","新北市新莊區天泉二街11號","121.415026666667","25.0249433333333","6500500","新莊區"
"242051","400-BY","2019/11/21 18:13:47","新北市新莊區民本街11巷4號","121.428026666667","25.0203066666667","6500500","新莊區"
"242025","362-BY","2019/11/21 18:13:47","新北市新莊區五工一路97巷10號","121.460143333333","25.0676016666667","6500500","新莊區"
"242015","132-UY","2019/11/21 18:13:55","新北市新莊區中平路152巷22號","121.44581","25.0472266666667","6500500","新莊區"
"242056","172-VK","2019/11/21 18:13:53","新北市新莊區豐年街豐2巷20號","121.447346666667","25.0307783333333","6500500","新莊區"
"242031","175-VK","2019/11/21 18:13:55","新北市新莊區新泰路271號","121.445671666667","25.0402683333333","6500500","新莊區"
"242007","346-TH","2019/11/21 18:13:55","新北市新莊區自立街79巷10號","121.454426666667","25.0458166666667","6500500","新莊區"
"242021","347-TH","2019/11/21 18:13:50","新北市新莊區新興街104號","121.450681666667","25.0389233333333","6500500","新莊區"
"242036","348-TH","2019/11/21 18:13:41","新北市新莊區後港一路49巷3弄11號","121.425138333333","25.0267066666667","6500500","新莊區"
"242009","349-TH","2019/11/21 18:13:50","新北市新莊區昌平街59巷34號","121.453808333333","25.053355","6500500","新莊區"
"242034","350-TH","2019/11/21 18:13:47","新北市新莊區景德路205號","121.449411666667","25.0337816666667","6500500","新莊區"
"242019","351-TH","2019/11/21 18:13:40","新北市新莊區公園路25號","121.452771666667","25.04009","6500500","新莊區"
"238015","755-BX","2019/11/21 18:13:37","新北市樹林區大安路323巷10弄8號","121.417406666667","24.9911166666667","6500700","樹林區"
"238023","601-UM","2019/11/21 18:13:53","新北市樹林區忠義街27巷1號","121.409723333333","25.0142266666667","6500700","樹林區"
"238019","599-UM","2019/11/21 18:13:52","新北市樹林區水源街15號","121.425166666667","24.983075","6500700","樹林區"
"238018","KEA-2217","2019/11/21 18:13:49","新北市樹林區博愛一街27號","121.425655","24.991","6500700","樹林區"
"238021","KEA-2539","2019/11/21 18:13:49","新北市樹林區柑園街二段169號","121.380765","24.95339","6500700","樹林區"
"238025","303-VK","2019/11/21 18:13:52","新北市樹林區保安街一段315號","121.417928333333","24.9980516666667","6500700","樹林區"
"238017","283-BY","2019/11/21 18:13:44","新北市樹林區中正路648號","121.409793333333","25.0163783333333","6500700","樹林區"
"238020","268-VK","2019/11/21 18:13:50","新北市樹林區三俊街65巷42號","121.413483333333","25.01783","6500700","樹林區"
"238026","172-UY","2019/11/21 18:13:41","新北市樹林區佳園路一段80巷3-1號","121.392795","24.9695783333333","6500700","樹林區"
"238016","169-UY","2019/11/21 18:14:00","新北市樹林區復興路381號","121.416695","24.986855","6500700","樹林區"
"239007","AAC-297","2019/11/21 18:13:49","新北市鶯歌區尖山埔路102號","121.34733","24.9511466666667","6500800","鶯歌區"
"239006","891-R6","2019/11/21 18:13:54","新北市鶯歌區鶯桃路455巷4弄4號","121.331968333333","24.9650866666667","6500800","鶯歌區"
"239008","527-UM","2019/11/21 18:13:53","新北市鶯歌區朝陽街50巷2號","121.337718333333","24.9779833333333","6500800","鶯歌區"
"239005","526-UM","2019/11/21 18:13:45","新北市鶯歌區鶯桃路668巷73號","121.329926666667","24.9717716666667","6500800","鶯歌區"
"239001","417-VK","2019/11/21 18:13:49","新北市鶯歌區中正三路450號","121.32252","24.9345333333333","6500800","鶯歌區"
"239003","360-BY","2019/11/21 18:13:45","新北市鶯歌區福安街32巷34號","121.335285","24.9634883333333","6500800","鶯歌區"
"239002","359-BY","2019/11/21 18:13:39","新北市鶯歌區光明街100號","121.345983333333","24.9559733333333","6500800","鶯歌區"
"239004","193-VK","2019/11/21 18:13:41","新北市鶯歌區尖山路55號","121.350386666667","24.94989","6500800","鶯歌區"
"221008","489-VK","2019/11/21 18:13:41","新北市汐止區康寧街315號","121.627021666667","25.06788","6501100","汐止區"
"221036","130-UY","2019/11/21 18:13:45","新北市汐止區大同路三段116號","121.672096666667","25.0767266666667","6501100","汐止區"
"221015","131-UY","2019/11/21 18:13:48","新北市汐止區長江街333號","121.666918333333","25.0818466666667","6501100","汐止區"
"221010","269-BY","2019/11/21 18:13:55","新北市汐止區汐萬路二段275巷3弄1號","121.64524","25.0887266666667","6501100","汐止區"
"221012","278-VK","2019/11/21 18:13:45","新北市汐止區保一街67號","121.674275","25.0799566666667","6501100","汐止區"
"221023","279-VK","2019/11/21 18:13:52","新北市汐止區民族五街86號","121.627433333333","25.0699733333333","6501100","汐止區"
"221032","280-BY","2019/11/21 18:13:51","新北市汐止區橫科路63號","121.618758333333","25.0508183333333","6501100","汐止區"
"221027","281-BY","2019/11/21 18:13:45","新北市汐止區和平街6巷1弄2號","121.663403333333","25.07119","6501100","汐止區"
"221029","298-VK","2019/11/21 18:13:56","新北市汐止區樟樹二路318號","121.64136","25.0699783333333","6501100","汐止區"
"221021","299-VK","2019/11/21 18:13:47","新北市汐止區復興路22號","121.65594","25.063895","6501100","汐止區"
"221031","353-TW","2019/11/21 18:13:37","新北市汐止區中興路181巷16弄12號","121.629623333333","25.0667233333333","6501100","汐止區"
"221035","622-UM","2019/11/21 18:13:44","新北市汐止區新江北路19號","121.652881666667","25.0704233333333","6501100","汐止區"
"221025","623-UM","2019/11/21 18:13:50","新北市汐止區勤進路8號","121.65969","25.0616716666667","6501100","汐止區"
"221038","646-BX","2019/11/21 18:13:47","新北市汐止區新興路1-2號","121.658678333333","25.0605333333333","6501100","汐止區"
"221033","647-BX","2019/11/21 18:13:52","新北市汐止區宜興街30巷22號","121.62242","25.04096","6501100","汐止區"
"221002","707-TV","2019/11/21 18:13:47","新北市汐止區福德一路215號","121.634686666667","25.0652566666667","6501100","汐止區"
"221018","753-BX","2019/11/21 18:13:43","新北市汐止區忠孝東路337號","121.665378333333","25.0698983333333","6501100","汐止區"
"233001","KEA-2870","2019/11/21 18:13:54","新北市烏來區新烏路五段91號","121.547548333333","24.8725833333333","6502900","烏來區"
"224002","257-TC","2019/11/21 18:13:51","新北市瑞芳區三爪子坑路149巷22-18號","121.811556666667","25.10612","6501200","瑞芳區"
"242046","281-VK","2019/11/21 18:13:43","新北市新莊區福營路373號","121.423415","25.02754","6500500","新莊區"
"242011","280-VK","2019/11/21 18:13:56","新北市新莊區中榮街31號","121.450238333333","25.0527433333333","6500500","新莊區"
"220054","741-BX","2019/11/21 18:13:51","新北市板橋區華東街1-9號","121.448126666667","24.9949","6500100","板橋區"
"220064","AAC-253","2019/11/21 18:13:56","新北市板橋區華東街1-10號","121.448375","24.9949416666667","6500100","板橋區"
"235068","KEA-2873","2019/11/21 18:13:54","新北市中和區員山路36巷16-3號","121.48499","24.9912216666667","6500300","中和區"
"235061","KEA-2875","2019/11/21 18:13:36","新北市中和區莒光路213號","121.468981666667","24.99451","6500300","中和區"
