"lineid","car","time","location","longitude","latitude","cityid","cityname"
"234046","148-BY","2019/11/21 19:59:38","新北市永和區成功路一段89號","121.526895","25.002925","6500400","永和區"
"234081","298-R6","2019/11/21 19:59:53","新北市永和區永利路81巷2弄1號","121.521676666667","25.003585","6500400","永和區"
"234038","336-UY","2019/11/21 19:59:52","新北市永和區成功路二段179-1號","121.526651666667","24.9966066666667","6500400","永和區"
"234064","337-UY","2019/11/21 19:59:57","新北市永和區中正路412巷20弄10號","121.518705","25.0015866666667","6500400","永和區"
"234086","338-UY","2019/11/21 19:59:39","新北市永和區福和路258號","121.518318333333","25.0075183333333","6500400","永和區"
"234070","552-UM","2019/11/21 19:59:43","新北市永和區國光路39-1號","121.519086666667","25.0081516666667","6500400","永和區"
"234017","745-BX","2019/11/21 19:59:51","新北市永和區文化路69號","121.513973333333","25.0150316666667","6500400","永和區"
"234030","746-BX","2019/11/21 19:59:49","新北市永和區民權路49巷5弄10號","121.520911666667","24.9975366666667","6500400","永和區"
"234054","KEA-2590","2019/11/21 19:59:40","新北市永和區環河東路一段122號","121.52064","25.0154833333333","6500400","永和區"
"234007","KED-0605","2019/11/21 19:59:49","新北市永和區保生路22巷21號","121.507165","25.0082216666667","6500400","永和區"
"234013","KEA-2591","2019/11/21 19:59:54","新北市永和區保生路55號","121.504721666667","25.010605","6500400","永和區"
"234061","AAD-866","2019/11/21 19:59:40","新北市永和區得和路45巷2號","121.516581666667","25.0001716666667","6500400","永和區"
"234042","862-TW","2019/11/21 19:59:45","新北市永和區中和路421巷16弄7號","121.508713333333","25.00113","6500400","永和區"
"234050","863-TW","2019/11/21 19:59:56","新北市永和區保安路264號","121.505895","25.0123233333333","6500400","永和區"
"234011","9373-KE","2019/11/21 19:59:45","新北市永和區仁愛路352巷122弄33號","121.500726666667","25.0092483333333","6500400","永和區"
"249005","172-UM","2019/11/21 19:59:39","新北市八里區楓林路1-12號","121.385621666667","25.1312066666667","6502300","八里區"
"249001","173-UM","2019/11/21 19:59:50","新北市八里區中華路二段249-3號","121.404181666667","25.148585","6502300","八里區"
"249004","303-UY","2019/11/21 19:59:55","新北市八里區中華路一段331巷8號","121.413703333333","25.1532666666667","6502300","八里區"
"249002","305-UY","2019/11/21 19:59:50","新北市八里區頂寮二街1號","121.450985","25.12383","6502300","八里區"
"249003","593-UM","2019/11/21 19:59:43","新北市八里區中華路二段562號","121.398765","25.14495","6502300","八里區"
"248016","026-BX","2019/11/21 19:59:43","新北市五股區成泰路三段577巷80弄7號","121.44944","25.1042816666667","6501500","五股區"
"248008","KED-0815","2019/11/21 19:59:42","新北市五股區四維路153號","121.467706666667","25.07454","6501500","五股區"
"248020","KED-0813","2019/11/21 19:59:55","新北市五股區凌雲路三段21號","121.430663333333","25.1093033333333","6501500","五股區"
"248012","247-BX","2019/11/21 19:59:37","新北市五股區民義路一段212號","121.430548333333","25.0894233333333","6501500","五股區"
"248014","261-SL","2019/11/21 19:59:50","新北市五股區新城三路45號","121.448553333333","25.0928683333333","6501500","五股區"
"248010","272-BY","2019/11/21 19:59:57","新北市五股區登林路36-3號","121.433045","25.0687483333333","6501500","五股區"
"248004","677-BX","2019/11/21 19:59:57","新北市五股區成泰路一段70-1號","121.435548333333","25.0699316666667","6501500","五股區"
"248002","678-BX","2019/11/21 19:59:48","新北市五股區成泰路三段487號","121.450756666667","25.0992116666667","6501500","五股區"
"234023","9380-KE","2019/11/21 19:59:49","新北市永和區中正路700號","121.516298333333","25.009915","6500400","永和區"
"234077","969-R7","2019/11/21 19:59:45","新北市永和區民有街7號","121.516135","24.9970116666667","6500400","永和區"
"234074","AAC-211","2019/11/21 19:59:42","新北市永和區福和路1號","121.526175","25.0097383333333","6500400","永和區"
"234067","AAC-212","2019/11/21 19:59:44","新北市永和區永貞路358號","121.510166666667","25.0065983333333","6500400","永和區"
"234003","AAC-295","2019/11/21 19:59:42","新北市永和區中正路625號","121.51577","25.0100183333333","6500400","永和區"
"243014","KEA-2801","2019/11/21 19:59:55","新北市泰山區泰林路二段36-1號","121.43581","25.0573683333333","6501600","泰山區"
"243016","421-VK","2019/11/21 19:59:46","新北市泰山區貴陽街3號","121.420998333333","25.0336983333333","6501600","泰山區"
"243012","539-UM","2019/11/21 19:59:48","新北市泰山區全興路18巷3號","121.432263333333","25.058665","6501600","泰山區"
"243009","KEA-2215","2019/11/21 19:59:52","新北市泰山區泰林路二段164巷37號","121.43427","25.0613033333333","6501600","泰山區"
"243011","KEA-2216","2019/11/21 19:59:59","新北市泰山區工專路47號","121.422876666667","25.04008","6501600","泰山區"
"222003","436-BY","2019/11/21 19:59:55","新北市深坑區埔新街14號","121.620706666667","25.0039283333333","6501800","深坑區"
"222002","659-BX","2019/11/21 19:59:53","新北市深坑區北深路二段81巷27號","121.618681666667","25.0024266666667","6501800","深坑區"
"231061","002-UM","2019/11/21 19:59:59","新北市新店區安民街315號","121.517505","24.9742033333333","6500600","新店區"
"231055","0291-UT","2019/11/21 19:59:56","新北市新店區力行路12號","121.539385","24.96462","6500600","新店區"
"231044","046-UY","2019/11/21 19:59:52","新北市新店區復興路67-1號","121.535175","24.9877516666667","6500600","新店區"
"231045","047-UY","2019/11/21 19:59:51","新北市新店區北宜路二段353-3號","121.55841","24.9542066666667","6500600","新店區"
"231060","106-UY","2019/11/21 19:59:50","新北市新店區安康路二段341巷1號","121.496891666667","24.955335","6500600","新店區"
"231051","107-UY","2019/11/21 19:59:45","新北市新店區中央二街66號","121.526528333333","24.9746616666667","6500600","新店區"
"231049","108-UY","2019/11/21 19:59:50","新北市新店區明德路42號","121.541395","24.9781716666667","6500600","新店區"
"231065","110-UY","2019/11/21 19:59:46","新北市新店區安祥路104-10號","121.479086666667","24.9620616666667","6500600","新店區"
"231068","187-VK","2019/11/21 19:59:53","新北市新店區安平路35巷4號","121.521651666667","24.9673733333333","6500600","新店區"
"231062","256-BX","2019/11/21 19:59:37","新北市新店區永業路91號","121.529083333333","24.9490883333333","6500600","新店區"
"231054","260-TV","2019/11/21 19:59:59","新北市新店區光明街179-1號","121.53983","24.9628866666667","6500600","新店區"
"231042","268-BY","2019/11/21 19:59:51","新北市新店區中正路7號","121.54585","24.96924","6500600","新店區"
"231064","278-BY","2019/11/21 19:59:39","新北市新店區安光路10-1號","121.513816666667","24.9641333333333","6500600","新店區"
"231050","AAD-862","2019/11/21 19:59:49","新北市新店區北宜路二段382號","121.564445","24.9532816666667","6500600","新店區"
"231056","4715-K9","2019/11/21 19:59:54","新北市新店區北新路二段29巷3弄1號","121.542255","24.9729666666667","6500600","新店區"
"231067","4772-VM","2019/11/21 19:59:43","新北市新店區秀山路11巷12弄2號","121.531596666667","24.9595033333333","6500600","新店區"
"231052","513-UM","2019/11/21 19:59:48","新北市新店區新烏路三段寶島巷2弄3號","121.55198","24.8986616666667","6500600","新店區"
"231041","619-UM","2019/11/21 19:59:50","新北市新店區中央路13號","121.533261666667","24.9784283333333","6500600","新店區"
"231063","641-BX","2019/11/21 19:59:56","新北市新店區黎明路9號","121.502493333333","24.9502966666667","6500600","新店區"
"231047","KED-0819","2019/11/21 19:59:42","新北市新店區寶宏路38號","121.549415","24.9754466666667","6500600","新店區"
"231057","720-UM","2019/11/21 19:59:44","新北市新店區花園二路一段11號","121.555441666667","24.932505","6500600","新店區"
"231059","897-TW","2019/11/21 19:59:51","新北市新店區安和路二段1-1號","121.517798333333","24.966835","6500600","新店區"
"231040","898-TW","2019/11/21 19:59:57","新北市新店區北新路一段96巷23號","121.543001666667","24.9687516666667","6500600","新店區"
"231043","899-TW","2019/11/21 19:59:44","新北市新店區中正路263-5號","121.538175","24.973885","6500600","新店區"
"231066","AKT-0513","2019/11/21 19:59:51","新北市新店區薏仁坑路自強巷6號","121.496703333333","24.9585333333333","6500600","新店區"
"241011","013-R5","2019/11/21 19:59:50","新北市三重區介壽路11號","121.49897","25.0693033333333","6500200","三重區"
"241028","022-UY","2019/11/21 19:59:52","新北市三重區中正南路108號","121.49437","25.0583966666667","6500200","三重區"
"241008","059-VK","2019/11/21 19:59:54","新北市三重區永福街197巷10號","121.47796","25.074535","6500200","三重區"
"241031","061-VK","2019/11/21 19:59:35","新北市三重區重新路四段214巷19號","121.487201666667","25.0544483333333","6500200","三重區"
"241015","062-VK","2019/11/21 19:59:47","新北市三重區三和路二段16-1號","121.500776666667","25.06722","6500200","三重區"
"241017","063-VK","2019/11/21 19:59:45","新北市三重區自強路一段219號","121.491223333333","25.0685816666667","6500200","三重區"
"241024","065-VK","2019/11/21 19:59:42","新北市三重區大勇街36號","121.481551666667","25.07172","6500200","三重區"
"241007","066-VK","2019/11/21 19:59:50","新北市三重區溪尾街152號","121.488918333333","25.0799133333333","6500200","三重區"
"241002","090-VK","2019/11/21 19:59:53","新北市三重區仁愛街351號","121.491946666667","25.0798366666667","6500200","三重區"
"241003","091-VK","2019/11/21 19:59:46","新北市三重區五華街128號","121.491656666667","25.0834566666667","6500200","三重區"
"241006","262-UM","2019/11/21 19:59:44","新北市三重區力行路二段49-1號","121.48195","25.0740266666667","6500200","三重區"
"241016","266-UM","2019/11/21 19:58:51","新北市三重區大同北路54巷3號","121.494136666667","25.0633966666667","6500200","三重區"
"241009","267-UM","2019/11/21 19:59:53","新北市三重區三和路四段388-2號","121.48204","25.078995","6500200","三重區"
"241018","268-UM","2019/11/21 19:59:58","新北市三重區正義北路195號","121.496245","25.0681583333333","6500200","三重區"
"241032","269-UM","2019/11/21 19:59:40","新北市三重區朝陽街26巷1弄1號","121.483206666667","25.0565266666667","6500200","三重區"
"241013","270-UM","2019/11/21 19:59:42","新北市三重區三和路三段139巷7號","121.492893333333","25.073735","6500200","三重區"
"241035","KEA-2210","2019/11/21 19:59:50","新北市三重區大榮街7號","121.498211666667","25.063065","6500200","三重區"
"241030","KED-0822","2019/11/21 19:59:48","新北市三重區成功路173號","121.485865","25.0527616666667","6500200","三重區"
"241004","475-VK","2019/11/21 19:59:40","新北市三重區仁愛街425巷90號","121.492198333333","25.082665","6500200","三重區"
"241020","478-VK","2019/11/21 19:59:59","新北市三重區忠孝路一段101號","121.489633333333","25.0721816666667","6500200","三重區"
"241026","480-VK","2019/11/21 19:59:59","新北市三重區福德南路28號","121.502805","25.0629916666667","6500200","三重區"
"241014","543-UM","2019/11/21 19:59:41","新北市三重區三和路二段156號","121.499476666667","25.068375","6500200","三重區"
"241023","545-UM","2019/11/21 19:59:48","新北市三重區頂崁街168號","121.47764","25.0658833333333","6500200","三重區"
"241001","547-UM","2019/11/21 19:59:47","新北市三重區福隆路15號","121.489783333333","25.077205","6500200","三重區"
"241019","KEA-2593","2019/11/21 19:59:43","新北市三重區自強路二段24號","121.489523333333","25.069255","6500200","三重區"
"241005","AAD-863","2019/11/21 19:59:53","新北市三重區碧華街294巷11號","121.489136666667","25.084155","6500200","三重區"
"241012","743-BX","2019/11/21 19:59:58","新北市三重區仁興街45號","121.499006666667","25.075945","6500200","三重區"
"241025","KED-0670","2019/11/21 19:59:44","新北市三重區頂崁街210巷23弄1號","121.47597","25.06806","6500200","三重區"
"241029","942-UM","2019/11/21 19:59:43","新北市三重區重安街14號","121.490278333333","25.0582033333333","6500200","三重區"
"241033","AAC-255","2019/11/21 19:59:59","新北市三重區中興北街28號","121.469658333333","25.048675","6500200","三重區"
"235066","003-UY","2019/11/21 19:59:43","新北市中和區中山路二段6號","121.505123333333","25.0056816666667","6500300","中和區"
"235039","097-UM","2019/11/21 19:59:55","新北市中和區大勇街25巷39弄11號","121.514603333333","24.99419","6500300","中和區"
"235065","098-UM","2019/11/21 19:59:40","新北市中和區永和路369-3號","121.496433333333","25.0057466666667","6500300","中和區"
"235040","150-BY","2019/11/21 19:59:51","新北市中和區保健路21-1號","121.508193333333","24.998235","6500300","中和區"
"235058","151-BY","2019/11/21 19:59:48","新北市中和區員山路141號","121.481055","24.99607","6500300","中和區"
"235055","183-VK","2019/11/21 19:59:55","新北市中和區中山路三段214號","121.471418333333","25.006535","6500300","中和區"
"235044","293-VK","2019/11/21 19:59:55","新北市中和區復興路255號","121.503131666667","24.9902116666667","6500300","中和區"
"235042","KEA-2878","2019/11/21 19:59:57","新北市新店區安興路105號","121.515123333333","24.9782666666667","6500300","中和區"
"247016","KEA-2869","2019/11/21 19:59:45","新北市蘆洲區中正路96號","121.470103333333","25.0839533333333","6501400","蘆洲區"
"235050","4979-A6","2019/11/21 19:59:44","新北市中和區景平路239巷1號","121.509998333333","24.9926766666667","6500300","中和區"
"235069","4980-A6","2019/11/21 19:59:39","新北市中和區景新街34巷18弄16-1號","121.502946666667","24.998755","6500300","中和區"
"235070","558-UM","2019/11/21 19:59:47","新北市中和區中正路440號","121.49107","24.9944066666667","6500300","中和區"
"235046","733-UM","2019/11/21 19:59:47","新北市中和區忠孝街31巷49號","121.50966","24.9854966666667","6500300","中和區"
"235052","805-TS","2019/11/21 19:59:48","新北市中和區華新街97號","121.508776666667","24.9829433333333","6500300","中和區"
"235048","896-TW","2019/11/21 19:59:50","新北市中和區景新街555號","121.515236666667","24.986545","6500300","中和區"
"235051","157-BY","2019/11/21 19:59:42","新北市中和區景安路247巷26號","121.504468333333","24.9904083333333","6500300","中和區"
"235037","AAC-213","2019/11/21 19:59:47","新北市中和區自強路52號","121.52013","24.99475","6500300","中和區"
"235059","AAC-215","2019/11/21 19:59:57","新北市中和區圓通路333號","121.492078333333","24.9905166666667","6500300","中和區"
"220065","072-UY","2019/11/21 19:59:52","新北市板橋區長安街57號","121.467163333333","25.008775","6500100","板橋區"
"220086","073-UY","2019/11/21 19:59:58","新北市板橋區西門街18-5號","121.454395","25.0112133333333","6500100","板橋區"
"220106","075-UY","2019/11/21 19:59:40","新北市板橋區懷德街66巷34號","121.47647","25.0316733333333","6500100","板橋區"
"220069","AAD-861","2019/11/21 19:59:47","新北市板橋區貴興路111號","121.455843333333","25.0025666666667","6500100","板橋區"
"247006","893-R6","2019/11/21 19:59:48","新北市蘆洲區九芎街88號","121.46589","25.079795","6501400","蘆洲區"
"247020","546-UM","2019/11/21 19:59:57","新北市蘆洲區民義街68巷6號","121.473065","25.08988","6501400","蘆洲區"
"247004","336-TH","2019/11/21 19:59:42","新北市蘆洲區長安街267巷8弄2號","121.458291666667","25.0837383333333","6501400","蘆洲區"
"247024","057-VK","2019/11/21 19:59:48","新北市蘆洲區光復路52號","121.463821666667","25.085245","6501400","蘆洲區"
"247014","056-VK","2019/11/21 19:59:52","新北市蘆洲區成功路133號","121.472328333333","25.0822783333333","6501400","蘆洲區"
"247018","053-VK","2019/11/21 19:59:36","新北市蘆洲區民族路298巷10號","121.478453333333","25.09014","6501400","蘆洲區"
"247008","002-UY","2019/11/21 19:59:47","新北市蘆洲區信義路91-7號","121.477613333333","25.0801483333333","6501400","蘆洲區"
"247002","001-UY","2019/11/21 19:59:54","新北市蘆洲區長安街272號","121.457276666667","25.086965","6501400","蘆洲區"
"226004","312-R5","2019/11/21 19:59:58","新北市平溪區靜安路三段196號","121.77542","25.0393816666667","6502400","平溪區"
"228003","097-TW","2019/11/21 19:59:42","新北市貢寮區仁理村仁和路144號","121.923116666667","25.0516183333333","6502600","貢寮區"
"227001","642-TC","2019/11/21 19:59:54","新北市雙溪區新基里新基南街25號","121.866226666667","25.038185","6502500","雙溪區"
"227002","400-TW","2019/11/21 19:59:42","新北市雙溪區雙溪里長安街16號","121.864985","25.0346766666667","6502500","雙溪區"
"222001","KEA-2212","2019/11/21 19:59:39","新北市深坑區北深路三段165-1號","121.60217","25.003405","6501800","深坑區"
"208003","665-BX","2019/11/21 19:59:53","新北市金山區海興路1-3號","121.634148333333","25.246205","6502700","金山區"
"251004","009-UM","2019/11/21 19:59:46","新北市淡水區民權路177巷9號","121.460818333333","25.1354416666667","6501000","淡水區"
"251005","010-UM","2019/11/21 19:59:34","新北市淡水區學府路136巷22弄17號","121.451833333333","25.1725016666667","6501000","淡水區"
"251015","KEA-2871","2019/11/21 19:59:36","新北市淡水區大埤頭1-3號","121.492416666667","25.1950866666667","6501000","淡水區"
"251016","180-VK","2019/11/21 19:59:53","新北市淡水區興仁路162號","121.451413333333","25.2207616666667","6501000","淡水區"
"251008","181-VK","2019/11/21 19:59:44","新北市淡水區中正路一段132巷7弄11號","121.422248333333","25.18005","6501000","淡水區"
"251013","182-VK","2019/11/21 19:59:39","新北市淡水區下圭柔山63-7號","121.451881666667","25.206175","6501000","淡水區"
"251010","413-VK","2019/11/21 19:59:52","新北市淡水區崁頂三路147號","121.430741666667","25.201245","6501000","淡水區"
"251001","559-UM","2019/11/21 19:59:41","新北市淡水區北新路一段69-5號","121.452755","25.181","6501000","淡水區"
"251006","561-UM","2019/11/21 19:59:41","新北市淡水區水碓街15號","121.443533333333","25.1769666666667","6501000","淡水區"
"251009","575-R6","2019/11/21 19:59:53","新北市淡水區英專路21巷6號","121.445105","25.1697133333333","6501000","淡水區"
"251014","577-R6","2019/11/21 19:59:55","新北市淡水區石頭厝2-1號","121.45811","25.2357","6501000","淡水區"
"251011","650-BX","2019/11/21 19:59:50","新北市淡水區淡金路二段62號","121.450981666667","25.1820933333333","6501000","淡水區"
"251002","672-BX","2019/11/21 19:59:57","新北市淡水區新民街一段117號","121.428393333333","25.1876833333333","6501000","淡水區"
"207003","681-TV","2019/11/21 19:59:45","新北市萬里區大鵬里萬里加投46-1號","121.641805","25.2111583333333","6502800","萬里區"
"207004","291-VK","2019/11/21 19:59:46","新北市萬里區北基里忠二街37號","121.685691666667","25.17578","6502800","萬里區"
"252002","178-VK","2019/11/21 19:59:51","新北市三芝區三民街39巷5號","121.50542","25.257625","6502100","三芝區"
"237004","KEA-2597","2019/11/21 19:59:38","新北市三峽區嘉添101號","121.370316666667","24.9097483333333","6500900","三峽區"
"237007","153-BY","2019/11/21 19:59:43","新北市三峽區麻園36-10號","121.363781666667","24.9196816666667","6500900","三峽區"
"237009","210-TH","2019/11/21 19:59:46","新北市三峽區民族街84號","121.369538333333","24.92989","6500900","三峽區"
"237012","275-BY","2019/11/21 19:59:47","新北市三峽區中華路5-1號","121.374546666667","24.9326416666667","6500900","三峽區"
"237008","302-VK","2019/11/21 19:59:49","新北市三峽區中正路一段174巷4弄17號","121.372631666667","24.9291066666667","6500900","三峽區"
"237014","433-BY","2019/11/21 19:59:57","新北市三峽區添福11-3號","121.372485","24.9069","6500900","三峽區"
"237006","5529-G3","2019/11/21 20:00:00","新北市三峽區中正路二段168號","121.366016666667","24.9156216666667","6500900","三峽區"
"237015","649-BX","2019/11/21 19:59:48","新北市三峽區介壽路二段167號","121.394763333333","24.936085","6500900","三峽區"
"237005","AKY-6261","2019/11/21 19:59:55","新北市三峽區民生街1巷7號","121.37969","24.9359033333333","6500900","三峽區"
"236042","KED-0685","2019/11/21 19:59:38","新北市土城區學府路一段98巷11-1號","121.455755","24.9884366666667","6501300","土城區"
"233002","762-BX","2019/11/21 19:51:29","新北市烏來區啦卡路70-1號","121.565285","24.8559283333333","6502900","烏來區"
"236078","166-UM","2019/11/21 19:59:43","新北市土城區三民路55號","121.419738333333","24.964305","6501300","土城區"
"236030","253-BX","2019/11/21 19:59:45","新北市土城區中央路一段252-1號","121.4443","24.9845916666667","6501300","土城區"
"236026","269-VK","2019/11/21 19:59:51","新北市土城區學府路二段228號","121.445205","24.9769433333333","6501300","土城區"
"236014","270-VK","2019/11/21 19:59:44","新北市土城區廣福街123號","121.456215","24.9928683333333","6501300","土城區"
"236038","271-VK","2019/11/21 19:59:50","新北市土城區國際路43號","121.466166666667","24.9790916666667","6501300","土城區"
"236070","KEA-2877","2019/11/21 19:59:44","新北市土城區忠義路77號","121.443138333333","24.9649683333333","6501300","土城區"
"252001","KED-0821","2019/11/21 19:59:47","新北市三芝區公正街66號","121.499793333333","25.2574633333333","6502100","三芝區"
"236021","401-BY","2019/11/21 19:59:41","新北市土城區延吉街65號","121.47216","24.987445","6501300","土城區"
"236049","752-BX","2019/11/21 19:59:48","新北市土城區金城路三段190號","121.468315","24.9880383333333","6501300","土城區"
"236059","912-UM","2019/11/21 19:59:42","新北市土城區中央路一段306號","121.443268333333","24.98174","6501300","土城區"
"236055","AAC-216","2019/11/21 19:59:50","新北市土城區學府路一段63號","121.45723","24.9883366666667","6501300","土城區"
"242042","AAC-296","2019/11/21 19:59:48","新北市新莊區青山路一段24號","121.41101","25.027665","6500500","新莊區"
"242061","986-R7","2019/11/21 19:59:48","新北市新莊區瓊林路90號","121.444586666667","25.0278933333333","6500500","新莊區"
"242004","751-BX","2019/11/21 19:59:39","新北市新莊區化成路314巷4號","121.466411666667","25.0483","6500500","新莊區"
"242029","615-BX","2019/11/21 19:59:53","新北市新莊區中平路377巷1-6號","121.444601666667","25.0524483333333","6500500","新莊區"
"242027","613-BX","2019/11/21 19:59:52","新北市新莊區中平路377巷19號","121.443941666667","25.052495","6500500","新莊區"
"242058","612-BX","2019/11/21 19:59:55","新北市新莊區八德街101號","121.424306666667","25.0212516666667","6500500","新莊區"
"242048","566-BX","2019/11/21 19:59:49","新北市新莊區民安路232號","121.426218333333","25.022305","6500500","新莊區"
"242053","497-BY","2019/11/21 19:59:57","新北市新莊區西盛街423號","121.427275","25.012155","6500500","新莊區"
"242013","442-UM","2019/11/21 19:59:43","新北市新莊區中港路417巷7號","121.451731666667","25.0475016666667","6500500","新莊區"
"242002","441-UM","2019/11/21 19:59:38","新北市新莊區中正路174號","121.45059","25.0358183333333","6500500","新莊區"
"242051","400-BY","2019/11/21 19:59:59","新北市新莊區龍安路466號","121.42691","25.0176283333333","6500500","新莊區"
"242025","362-BY","2019/11/21 19:59:47","新北市新莊區五工二路86巷50號","121.460828333333","25.0675366666667","6500500","新莊區"
"242023","353-BY","2019/11/21 19:59:53","新北市新莊區化成路384號","121.465891666667","25.0501933333333","6500500","新莊區"
"242015","132-UY","2019/11/21 19:59:56","新北市新莊區泰順街49號","121.447418333333","25.0429666666667","6500500","新莊區"
"242039","135-UY","2019/11/21 19:59:41","新北市新莊區民安路312號","121.42846","25.0219016666667","6500500","新莊區"
"242056","172-VK","2019/11/21 19:59:40","新北市新莊區中正路347巷15號","121.447198333333","25.0344466666667","6500500","新莊區"
"242017","173-VK","2019/11/21 19:59:42","新北市新莊區中安街2號","121.452891666667","25.0452016666667","6500500","新莊區"
"242031","175-VK","2019/11/21 19:59:55","新北市新莊區公園一路38號","121.443346666667","25.035495","6500500","新莊區"
"242044","176-VK","2019/11/21 19:59:42","新北市新莊區新北大道七段712號","121.412386666667","25.026485","6500500","新莊區"
"242007","346-TH","2019/11/21 19:59:55","新北市新莊區思源路487號","121.459175","25.05627","6500500","新莊區"
"242021","347-TH","2019/11/21 19:59:46","新北市新莊區建中街16巷10號","121.44949","25.0381066666667","6500500","新莊區"
"242036","348-TH","2019/11/21 19:59:39","新北市新莊區建安街27號","121.428935","25.0259516666667","6500500","新莊區"
"242034","350-TH","2019/11/21 19:59:45","新北市新莊區建中街90巷1弄20號","121.445716666667","25.0368466666667","6500500","新莊區"
"242019","351-TH","2019/11/21 19:59:41","新北市新莊區民生街15巷6弄1號","121.455493333333","25.0426","6500500","新莊區"
"238015","755-BX","2019/11/21 19:59:46","新北市樹林區中山路二段204號","121.410991666667","24.982005","6500700","樹林區"
"238021","KEA-2539","2019/11/21 19:59:39","新北市樹林區佳園路二段138號","121.389461666667","24.9561666666667","6500700","樹林區"
"238017","283-BY","2019/11/21 19:59:44","新北市樹林區保安街二段45巷13弄3號","121.41532","24.999815","6500700","樹林區"
"239006","891-R6","2019/11/21 19:59:54","新北市鶯歌區文化路271號","121.353101666667","24.95287","6500800","鶯歌區"
"239001","417-VK","2019/11/21 19:59:53","新北市鶯歌區尖山埔路114號","121.344238333333","24.950285","6500800","鶯歌區"
"239002","359-BY","2019/11/21 19:59:38","新北市鶯歌區中山路300號","121.342888333333","24.9573383333333","6500800","鶯歌區"
"239004","193-VK","2019/11/21 19:59:41","新北市鶯歌區中正三路291巷20弄2號","121.329773333333","24.935575","6500800","鶯歌區"
"221008","489-VK","2019/11/21 19:59:41","新北市汐止區康寧街141巷39弄1號","121.621303333333","25.06737","6501100","汐止區"
"221015","131-UY","2019/11/21 19:59:48","新北市汐止區橋東街9號","121.666611666667","25.0759166666667","6501100","汐止區"
"221010","269-BY","2019/11/21 19:59:55","新北市汐止區汐萬路一段355-1號","121.650071666667","25.0774983333333","6501100","汐止區"
"221012","278-VK","2019/11/21 19:59:54","新北市汐止區保長路271巷2號","121.68091","25.0742333333333","6501100","汐止區"
"221023","279-VK","2019/11/21 19:59:51","新北市汐止區民族三街44號","121.629598333333","25.07007","6501100","汐止區"
"221027","281-BY","2019/11/21 19:59:45","新北市汐止區中正路97號","121.661005","25.06945","6501100","汐止區"
"221029","298-VK","2019/11/21 19:59:36","新北市汐止區樟樹一路137巷24號","121.641066666667","25.0659983333333","6501100","汐止區"
"221021","299-VK","2019/11/21 19:59:47","新北市汐止區水源路一段175號","121.655133333333","25.0618216666667","6501100","汐止區"
"221031","353-TW","2019/11/21 19:59:37","新北市汐止區福德一路176巷7弄7號","121.634765","25.0663666666667","6501100","汐止區"
"221035","622-UM","2019/11/21 19:59:43","新北市汐止區長江街15號","121.654788333333","25.07121","6501100","汐止區"
"221025","623-UM","2019/11/21 19:59:50","新北市汐止區仁愛路77巷2弄15號","121.661295","25.0635333333333","6501100","汐止區"
"221038","646-BX","2019/11/21 19:59:55","新北市汐止區橋東街5巷3號","121.66703","25.0760633333333","6501100","汐止區"
"221033","647-BX","2019/11/21 19:59:59","新北市汐止區東勢街201巷6號","121.633993333333","25.04238","6501100","汐止區"
"220079","145-BY","2019/11/21 19:59:57","新北市板橋區民權路202巷16弄2號","121.460745","25.016115","6500100","板橋區"
"220080","200-UY","2019/11/21 19:59:51","新北市板橋區大觀路二段163巷12號","121.445903333333","25.0002766666667","6500100","板橋區"
"220082","610-BX","2019/11/21 19:59:55","新北市板橋區存德街42號","121.430396666667","24.99137","6500100","板橋區"
"220101","245-BX","2019/11/21 19:59:43","新北市板橋區莒光路165巷30號","121.474416666667","25.024665","6500100","板橋區"
"224002","257-TC","2019/11/21 19:59:51","新北市瑞芳區員山子路員山巷20號","121.816763333333","25.103725","6501200","瑞芳區"
"220056","276-BY","2019/11/21 19:59:40","新北市板橋區南雅南路二段120-6號","121.453013333333","24.9995633333333","6500100","板橋區"
"220072","277-BY","2019/11/21 19:59:42","新北市板橋區篤行路二段73號","121.431661666667","24.9919883333333","6500100","板橋區"
"220094","283-UM","2019/11/21 19:59:41","新北市板橋區文化路一段180號","121.465745","25.0195283333333","6500100","板橋區"
"220071","283-VK","2019/11/21 19:59:53","新北市板橋區廣權路95號","121.464361666667","24.9927883333333","6500100","板橋區"
"220053","285-VK","2019/11/21 19:59:39","新北市板橋區懷仁街52號","121.476753333333","25.0189866666667","6500100","板橋區"
"220083","286-VK","2019/11/21 19:59:54","新北市板橋區僑中二街124巷2號","121.445351666667","25.005375","6500100","板橋區"
"220081","287-VK","2019/11/21 19:59:51","新北市板橋區大觀路一段28巷90號","121.45006","25.01106","6500100","板橋區"
"220090","288-VK","2019/11/21 19:59:39","新北市板橋區新海路72巷5弄17號","121.461705","25.0226683333333","6500100","板橋區"
"220061","293-UM","2019/11/21 19:59:52","新北市板橋區中山路二段23號","121.472438333333","25.01523","6500100","板橋區"
"220084","296-UM","2019/11/21 19:59:57","新北市板橋區溪崑二街112巷6號","121.426275","24.9889133333333","6500100","板橋區"
"220075","303-R5","2019/11/21 19:59:50","新北市板橋區金華街10巷48弄10號","121.457321666667","25.0198616666667","6500100","板橋區"
"220062","305-R5","2019/11/21 19:59:43","新北市板橋區中山路二段284號","121.479446666667","25.0188","6500100","板橋區"
"220092","307-R5","2019/11/21 19:59:53","新北市板橋區文化路一段45巷8號","121.460176666667","25.0136316666667","6500100","板橋區"
"220098","317-R6","2019/11/21 19:59:39","新北市板橋區裕民街145號","121.458746666667","25.0272683333333","6500100","板橋區"
"220089","487-VK","2019/11/21 19:59:57","新北市板橋區四維路343號","121.462436666667","25.0298066666667","6500100","板橋區"
"242011","280-VK","2019/11/21 19:59:56","新北市新莊區中港路531巷122號","121.450016666667","25.0515533333333","6500500","新莊區"
"220088","491-VK","2019/11/21 19:59:41","新北市板橋區懷德街127巷23弄7號","121.479246666667","25.0317083333333","6500100","板橋區"
"220035","560-BX","2019/11/21 19:59:57","新北市板橋區金華街83號","121.458035","25.0207466666667","6500100","板橋區"
"220103","561-BX","2019/11/21 19:59:55","新北市板橋區漢生東路41-2號","121.465573333333","25.0167433333333","6500100","板橋區"
"220063","609-BX","2019/11/21 19:59:53","新北市板橋區中山路二段95號","121.474333333333","25.0160383333333","6500100","板橋區"
"220091","637-BX","2019/11/21 19:59:55","新北市板橋區文聖街89巷30號","121.478366666667","25.0303183333333","6500100","板橋區"
"220077","687-BX","2019/11/21 19:59:52","新北市板橋區僑中一街128號","121.445678333333","25.0117866666667","6500100","板橋區"
"220093","689-BX","2019/11/21 19:59:58","新北市板橋區民生路三段252號","121.464325","25.0312416666667","6500100","板橋區"
"220054","741-BX","2019/11/21 19:59:51","新北市板橋區忠孝路忠義巷15弄1號","121.465866666667","25.003835","6500100","板橋區"
"220102","KEA-2699","2019/11/21 19:59:45","新北市板橋區莒光路28巷20號","121.469635","25.0236233333333","6500100","板橋區"
"220055","827-TW","2019/11/21 19:59:50","新北市板橋區國慶路149巷38弄6號","121.461438333333","24.99811","6500100","板橋區"
"220068","830-TW","2019/11/21 19:59:46","新北市板橋區中山路二段400號","121.482701666667","25.020745","6500100","板橋區"
"220067","831-TW","2019/11/21 19:59:43","新北市板橋區中山路一段206巷127號","121.472685","25.013415","6500100","板橋區"
"220074","895-R6","2019/11/21 19:59:41","新北市板橋區縣民大道一段295號","121.46087","25.0103933333333","6500100","板橋區"
"220073","985-R7","2019/11/21 19:59:44","新北市板橋區南雅西路二段198號","121.451771666667","25.0147266666667","6500100","板橋區"
"220097","AAC-210","2019/11/21 19:59:53","新北市板橋區復興街135號","121.461103333333","25.0180133333333","6500100","板橋區"
"220064","AAC-253","2019/11/21 19:59:56","新北市板橋區漢生東路193巷7-1號","121.470331666667","25.0118366666667","6500100","板橋區"
"235068","KEA-2873","2019/11/21 19:59:54","新北市中和區景平路736巷3弄11號","121.497618333333","25.0037933333333","6500300","中和區"
"235061","KEA-2875","2019/11/21 19:59:48","新北市中和區民樂路2-1號","121.481503333333","25.0010933333333","6500300","中和區"
