"lineid","car","time","location","longitude","latitude","cityid","cityname"
"243009","KEA-2215","2019/11/21 20:59:52","新北市泰山區橫窠雅36號","121.40333","25.071235","6501600","泰山區"
"231061","002-UM","2019/11/21 20:59:59","新北市新店區永安街62巷1號","121.519318333333","24.9868966666667","6500600","新店區"
"231060","106-UY","2019/11/21 20:59:50","新北市新店區安康路三段570號","121.481528333333","24.9487283333333","6500600","新店區"
"231051","107-UY","2019/11/21 20:59:45","新北市新店區民生路156巷81號","121.527376666667","24.9819683333333","6500600","新店區"
"231065","110-UY","2019/11/21 20:59:47","新北市新店區安祥路69巷54弄49號","121.483343333333","24.9585083333333","6500600","新店區"
"231068","187-VK","2019/11/21 20:59:53","新北市新店區寶中路47號","121.545343333333","24.9792516666667","6500600","新店區"
"231062","256-BX","2019/11/21 20:59:57","新北市新店區裕合街143號","121.489131666667","24.9490666666667","6500600","新店區"
"231054","260-TV","2019/11/21 20:59:46","新北市新店區大新街7巷26號","121.544068333333","24.9679016666667","6500600","新店區"
"231042","268-BY","2019/11/21 20:59:51","新北市新店區寶興路60巷4號","121.549823333333","24.9718033333333","6500600","新店區"
"231064","278-BY","2019/11/21 20:59:59","新北市新店區薏仁坑路6-1號","121.49993","24.9584116666667","6500600","新店區"
"231050","AAD-862","2019/11/21 20:59:49","新北市新店區三民路39號","121.537276666667","24.97081","6500600","新店區"
"231063","641-BX","2019/11/21 20:59:51","新北市新店區玫瑰路58巷2號","121.495353333333","24.9465983333333","6500600","新店區"
"231059","897-TW","2019/11/21 20:59:51","新北市新店區僑信路112號","121.500278333333","24.94674","6500600","新店區"
"231040","898-TW","2019/11/21 20:59:57","新北市新店區中正路139號","121.541683333333","24.9714466666667","6500600","新店區"
"231043","899-TW","2019/11/21 20:59:44","新北市新店區光華街38巷11號","121.51585","24.9702333333333","6500600","新店區"
"231066","AKT-0513","2019/11/21 20:59:51","新北市新店區柴埕路59號","121.51377","24.96504","6500600","新店區"
"241011","013-R5","2019/11/21 20:59:39","新北市三重區秀江街102號","121.499563333333","25.0720966666667","6500200","三重區"
"241028","022-UY","2019/11/21 20:59:52","新北市三重區正義南路54號","121.498415","25.0606833333333","6500200","三重區"
"241008","059-VK","2019/11/21 20:59:54","新北市三重區永福街256號","121.484315","25.07478","6500200","三重區"
"241031","061-VK","2019/11/21 20:59:55","新北市三重區重陽路一段113巷2弄2號","121.487445","25.0598666666667","6500200","三重區"
"241015","062-VK","2019/11/21 20:59:47","新北市三重區福德北路65號","121.502205","25.0656133333333","6500200","三重區"
"241017","063-VK","2019/11/21 20:59:45","新北市三重區國隆路26號","121.492438333333","25.064375","6500200","三重區"
"241024","065-VK","2019/11/21 20:59:42","新北市三重區大勇街49號","121.481375","25.0719533333333","6500200","三重區"
"241007","066-VK","2019/11/21 20:59:50","新北市三重區慈愛街51號","121.48612","25.07914","6500200","三重區"
"241002","090-VK","2019/11/21 20:59:53","新北市三重區五華街1巷38號","121.49633","25.080075","6500200","三重區"
"241003","091-VK","2019/11/21 20:59:46","新北市三重區進安街198號","121.493843333333","25.0859916666667","6500200","三重區"
"241006","262-UM","2019/11/21 20:59:44","新北市三重區力行路一段257號","121.482545","25.0709233333333","6500200","三重區"
"241016","266-UM","2019/11/21 20:59:51","新北市三重區信義西街138號","121.495376666667","25.0644216666667","6500200","三重區"
"241009","267-UM","2019/11/21 20:59:53","新北市三重區力行路二段121-1號","121.483183333333","25.0764616666667","6500200","三重區"
"241018","268-UM","2019/11/21 20:59:58","新北市三重區安慶街142-1號","121.494516666667","25.0686033333333","6500200","三重區"
"241032","269-UM","2019/11/21 20:59:49","新北市三重區新生街96號","121.483325","25.05933","6500200","三重區"
"241013","270-UM","2019/11/21 20:59:42","新北市三重區仁賢街12-1號","121.495726666667","25.0748883333333","6500200","三重區"
"241030","KED-0822","2019/11/21 20:59:48","新北市三重區中正南路263號","121.493003333333","25.0528","6500200","三重區"
"241004","475-VK","2019/11/21 20:59:40","新北市三重區仁愛街420號","121.490386666667","25.0814183333333","6500200","三重區"
"241020","478-VK","2019/11/21 20:59:39","新北市三重區忠孝路二段34號","121.485793333333","25.0710266666667","6500200","三重區"
"241026","480-VK","2019/11/21 20:59:39","新北市三重區福德南路150號","121.5006","25.0583366666667","6500200","三重區"
"241014","543-UM","2019/11/21 20:51:01","","121.502565","25.0691066666667","6500200","三重區"
"241023","545-UM","2019/11/21 20:59:48","新北市三重區洛陽街45巷11號","121.48237","25.0637433333333","6500200","三重區"
"241001","547-UM","2019/11/21 20:59:47","新北市三重區自強路三段87巷25號","121.48849","25.0750383333333","6500200","三重區"
"241019","KEA-2593","2019/11/21 20:59:43","新北市三重區自強路二段74巷21號","121.487978333333","25.0698716666667","6500200","三重區"
"241005","AAD-863","2019/11/21 20:59:53","新北市三重區五華街180巷17號","121.48809","25.0860316666667","6500200","三重區"
"241012","743-BX","2019/11/21 20:59:58","新北市三重區龍門路274巷45號","121.501221666667","25.075505","6500200","三重區"
"241022","KED-0820","2019/11/21 20:59:50","新北市三重區中正北路20巷12號","121.488015","25.0624933333333","6500200","三重區"
"241025","KED-0670","2019/11/21 20:59:54","新北市三重區貴陽街18-1號","121.484185","25.06188","6500200","三重區"
"241029","942-UM","2019/11/21 20:59:43","新北市三重區正義南路111號","121.498213333333","25.0585483333333","6500200","三重區"
"241033","AAC-255","2019/11/21 20:59:59","新北市三重區光復路二段2號","121.472158333333","25.0532816666667","6500200","三重區"
"235055","183-VK","2019/11/21 20:59:55","新北市五股區新五路三段260號","121.448215","25.09103","6500300","中和區"
"247016","KEA-2869","2019/11/21 20:59:45","新北市蘆洲區正和街83號","121.468131666667","25.0807266666667","6501400","蘆洲區"
"247010","KED-0682","2019/11/21 20:59:44","新北市蘆洲區鷺江街93號","121.476873333333","25.0838083333333","6501400","蘆洲區"
"235069","4980-A6","2019/11/21 20:59:54","新北市中和區連城路469巷70弄24號","121.482565","24.99391","6500300","中和區"
"247006","893-R6","2019/11/21 20:59:48","新北市蘆洲區永安南路二段16巷5號","121.467758333333","25.077175","6501400","蘆洲區"
"247020","546-UM","2019/11/21 20:59:57","新北市蘆洲區民族路371號","121.471125","25.0912733333333","6501400","蘆洲區"
"247012","341-TH","2019/11/21 20:59:42","新北市蘆洲區民權路5號","121.476471666667","25.085795","6501400","蘆洲區"
"247004","336-TH","2019/11/21 20:59:39","新北市蘆洲區永安南路二段268號","121.458535","25.0807466666667","6501400","蘆洲區"
"247024","057-VK","2019/11/21 20:59:48","新北市蘆洲區長興路213號","121.461148333333","25.086395","6501400","蘆洲區"
"247014","056-VK","2019/11/21 20:59:44","新北市蘆洲區中山二路36巷28號","121.474266666667","25.0831316666667","6501400","蘆洲區"
"247018","053-VK","2019/11/21 20:59:56","新北市蘆洲區民權路75號","121.473413333333","25.088505","6501400","蘆洲區"
"247002","001-UY","2019/11/21 20:59:54","新北市蘆洲區永平街16號","121.4592","25.0906033333333","6501400","蘆洲區"
"251005","010-UM","2019/11/21 20:59:54","新北市淡水區學府路51巷2弄2號","121.447758333333","25.1695516666667","6501000","淡水區"
"251015","KEA-2871","2019/11/21 20:59:56","新北市淡水區淡金路四段542巷17號","121.452828333333","25.2270333333333","6501000","淡水區"
"251016","180-VK","2019/11/21 20:59:53","新北市淡水區淡金路四段81號","121.449656666667","25.21834","6501000","淡水區"
"251013","182-VK","2019/11/21 20:59:59","新北市淡水區番子厝13號","121.461365","25.20142","6501000","淡水區"
"251010","413-VK","2019/11/21 20:59:52","新北市淡水區淡海路22號","121.423983333333","25.1787183333333","6501000","淡水區"
"251007","442-VK","2019/11/21 20:59:46","新北市淡水區仁愛街2巷12號","121.446371666667","25.1708733333333","6501000","淡水區"
"251012","443-VK","2019/11/21 20:59:49","新北市淡水區淡金路四段569號","121.451673333333","25.230455","6501000","淡水區"
"251001","559-UM","2019/11/21 20:59:41","新北市淡水區新市一路三段101巷2號","121.44642","25.1832383333333","6501000","淡水區"
"251009","575-R6","2019/11/21 20:59:53","新北市淡水區民權路41號","121.459645","25.1403666666667","6501000","淡水區"
"251014","577-R6","2019/11/21 20:59:55","新北市淡水區溪口28號","121.455521666667","25.2365966666667","6501000","淡水區"
"251011","650-BX","2019/11/21 20:59:50","新北市淡水區新民街103號","121.436095","25.1810183333333","6501000","淡水區"
"251002","672-BX","2019/11/21 20:59:37","新北市淡水區英專路76號","121.445736666667","25.1712266666667","6501000","淡水區"
"251003","766-UM","2019/11/21 20:59:40","新北市淡水區新春街125巷5號","121.441495","25.1823683333333","6501000","淡水區"
"242002","441-UM","2019/11/21 20:59:36","新北市新莊區中港路7號","121.454941666667","25.0369916666667","6500500","新莊區"
"242025","362-BY","2019/11/21 20:59:47","新北市八里區中山路三段363號","121.374618333333","25.138725","6500500","新莊區"
"242036","348-TH","2019/11/21 20:59:39","新北市新莊區中環路一段299號","121.442056666667","25.0324","6500500","新莊區"
"242009","349-TH","2019/11/21 20:59:50","新北市新莊區環河路116-1號","121.460631666667","25.0379116666667","6500500","新莊區"
"220035","560-BX","2019/11/21 20:59:57","新北市林口區太平里180號","121.368226666667","25.13441","6500100","板橋區"
