"lineid","car","time","location","longitude","latitude","cityid","cityname"
"222007","289-BY","2019/09/07 08:29:29","新北市深坑區昇高坑路35號","121.628608333333","24.998665","6501800","深坑區"
"231007","189-VK","2019/09/07 08:29:36","新北市新店區新潭路二段61號","121.52178","24.9263033333333","6500600","新店區"
"231008","192-VK","2019/09/07 08:29:28","新北市新店區新烏路三段165巷20號","121.553065","24.9011733333333","6500600","新店區"
"226005","5620-A6","2019/09/07 08:29:30","新北市平溪區南山里六分1號","121.79097","25.046765","6502400","平溪區"
"226007","7418-A5","2019/09/07 08:29:33","新北市平溪區東勢里芊蓁林61號","121.750403333333","25.00535","6502400","平溪區"
"226003","AGD-0702","2019/09/07 08:29:32","新北市平溪區十分里十分街239號","121.778105","25.0442583333333","6502400","平溪區"
"223003","205-TH","2019/09/07 08:29:25","新北市石碇區北宜路六段小金瓜寮巷5號","121.656833333333","24.93545","6501900","石碇區"
"223008","406-TH","2019/09/07 08:29:42","新北市石碇區串空湖9號","121.669006666667","25.001955","6501900","石碇區"
"223004","437-BY","2019/09/07 08:29:31","新北市石碇區石碇東街12號","121.661763333333","24.9906383333333","6501900","石碇區"
"223001","592-UM","2019/09/07 08:29:40","新北市石碇區北宜路六段小金瓜寮巷5號","121.657901666667","24.9349883333333","6501900","石碇區"
"223007","661-BX","2019/09/07 08:29:29","新北市石碇區靜安路一段97號","121.661486666667","25.0076183333333","6501900","石碇區"
"223005","677-TV","2019/09/07 08:29:32","新北市石碇區石碇東街12號","121.661665","24.9905933333333","6501900","石碇區"
"227004","282-VK","2019/09/07 08:29:27","新北市雙溪區牡丹里聖南9號","121.859596666667","25.0517633333333","6502500","雙溪區"
"252004","249-BX","2019/09/07 08:29:32","新北市三芝區興華里車埕3號","121.501163333333","25.2020883333333","6502100","三芝區"
"252007","AAC-283","2019/09/07 08:29:46","新北市三芝區蘭陽街13-1號","121.473685","25.2424016666667","6502100","三芝區"
"237014","760-BX","2019/09/07 08:29:31","新北市三峽區有木128號","121.435371666667","24.8584566666667","6500900","三峽區"
"233003","KEA-2870","2019/09/07 08:29:27","新北市烏來區信福路120巷8-1號","121.521046666667","24.8253583333333","6502900","烏來區"
