"lineid","car","time","location","longitude","latitude","cityid","cityname"
"234068","552-UM","2019/09/07 12:19:28","新北市永和區福和路1號","121.525741666667","25.009205","6500400","永和區"
"234015","745-BX","2019/09/07 12:19:38","新北市永和區福和路1號","121.526296666667","25.009515","6500400","永和區"
"235005","802-TS","2019/09/07 12:19:32","新北市中和區和城路一段271巷1號","121.485395","24.9916766666667","6500300","中和區"
"228005","097-TW","2019/09/07 12:19:26","新北市貢寮區福連里福連街1號","121.988211666667","25.0178733333333","6502600","貢寮區"
"228004","212-TW","2019/09/07 12:19:40","新北市貢寮區貢寮里長泰路17-2號","121.891721666667","25.021175","6502600","貢寮區"
"207001","662-BX","2019/09/07 12:19:25","新北市萬里區萬里里獅頭路15-1號","121.697925","25.1801266666667","6502800","萬里區"
"237014","760-BX","2019/09/07 12:19:27","新北市三峽區中山路459巷135號","121.348566666667","24.93288","6500900","三峽區"
"235026","KEA-2876","2019/09/07 12:19:20","新北市中和區員山路36巷16-3號","121.485058333333","24.991345","6500300","中和區"
