"lineid","car","time","location","longitude","latitude","cityid","cityname"
"234078","298-R6","2019/09/07 12:29:33","新北市永和區福和路8巷1號","121.525036666667","25.0090333333333","6500400","永和區"
"234036","336-UY","2019/09/07 12:29:28","新北市永和區福和路1號","121.526616666667","25.010115","6500400","永和區"
"234084","338-UY","2019/09/07 12:29:17","新北市永和區福和路1號","121.526216666667","25.0096416666667","6500400","永和區"
"234068","552-UM","2019/09/07 12:29:28","新北市永和區福和路1號","121.525441666667","25.0092866666667","6500400","永和區"
"234015","745-BX","2019/09/07 12:29:38","新北市永和區福和路1號","121.52638","25.0096116666667","6500400","永和區"
"234012","KEA-2591","2019/09/07 12:29:34","新北市永和區福和路1號","121.526396666667","25.00937","6500400","永和區"
"234040","862-TW","2019/09/07 12:29:27","新北市永和區福和路1號","121.526216666667","25.00983","6500400","永和區"
"234010","9373-KE","2019/09/07 12:29:28","新北市永和區福和路1號","121.525585","25.0093233333333","6500400","永和區"
"234076","969-R7","2019/09/07 12:29:26","新北市永和區福和路1號","121.526325","25.0097483333333","6500400","永和區"
"235005","802-TS","2019/09/07 12:20:09","新北市中和區和城路一段271巷1號","121.485393333333","24.991685","6500300","中和區"
"228005","097-TW","2019/09/07 12:29:26","新北市貢寮區福連里蓬萊街15號","121.988018333333","24.9980616666667","6502600","貢寮區"
"228004","212-TW","2019/09/07 12:29:40","新北市貢寮區龍崗里嵩陽街2-1號","121.902751666667","25.01627","6502600","貢寮區"
"207001","662-BX","2019/09/07 12:29:45","新北市萬里區萬里里獅頭路15-1號","121.697916666667","25.1801033333333","6502800","萬里區"
"237014","760-BX","2019/09/07 12:29:46","新北市三峽區中山路459巷135號","121.348593333333","24.9329033333333","6500900","三峽區"
"235026","KEA-2876","2019/09/07 12:23:33","新北市中和區員山路36巷16-3號","121.48504","24.9912333333333","6500300","中和區"
