"lineid","car","time","location","longitude","latitude","cityid","cityname"
"234044","148-BY","2019/09/07 12:49:46","新北市永和區秀朗路二段148巷12弄16號","121.524788333333","25.0012433333333","6500400","永和區"
"234078","298-R6","2019/09/07 12:49:33","新北市永和區林森路136號","121.522015","25.00296","6500400","永和區"
"234036","336-UY","2019/09/07 12:49:28","新北市永和區成功路一段2號","121.52716","25.0056016666667","6500400","永和區"
"234062","337-UY","2019/09/07 12:49:36","新北市永和區豫溪街217巷27號","121.524603333333","25.0104233333333","6500400","永和區"
"234084","338-UY","2019/09/07 12:49:47","新北市永和區中正路59號","121.51469","24.9964116666667","6500400","永和區"
"234068","552-UM","2019/09/07 12:49:28","新北市永和區豫溪街193號","121.52277","25.0103483333333","6500400","永和區"
"234015","745-BX","2019/09/07 12:49:38","新北市永和區永和路二段299號","121.516033333333","25.0161283333333","6500400","永和區"
"234028","746-BX","2019/09/07 12:49:43","新北市永和區得和路328號","121.52335","24.999555","6500400","永和區"
"234052","KEA-2590","2019/09/07 12:49:33","新北市永和區福和路1號","121.52591","25.009765","6500400","永和區"
"234005","KED-0605","2019/09/07 12:49:35","新北市永和區文化路50號","121.514576666667","25.0151416666667","6500400","永和區"
"234012","KEA-2591","2019/09/07 12:49:34","新北市永和區保福路二段133巷37號","121.508976666667","25.0133916666667","6500400","永和區"
"234060","AAD-866","2019/09/07 12:49:26","新北市永和區福和路297號","121.51652","25.0072166666667","6500400","永和區"
"234040","862-TW","2019/09/07 12:49:27","新北市永和區永貞路306號","121.511878333333","25.0048383333333","6500400","永和區"
"234048","863-TW","2019/09/07 12:49:46","新北市永和區福和路1號","121.526351666667","25.0099366666667","6500400","永和區"
"234025","9371-KE","2019/09/07 12:49:32","新北市永和區中正路664號","121.51681","25.0089","6500400","永和區"
"234010","9373-KE","2019/09/07 12:49:29","新北市永和區保福路二段158巷1號","121.509146666667","25.0150516666667","6500400","永和區"
"248017","KED-0813","2019/09/07 12:49:29","新北市五股區中興路二段63巷17號","121.460308333333","25.0753433333333","6501500","五股區"
"234022","9380-KE","2019/09/07 12:49:27","新北市永和區竹林路119巷35號","121.521783333333","25.0119083333333","6500400","永和區"
"234076","969-R7","2019/09/07 12:49:26","新北市永和區中正路254號","121.516725","24.9984383333333","6500400","永和區"
"234001","AAC-295","2019/09/07 12:49:27","新北市永和區永和路二段8號","121.514556666667","25.0102466666667","6500400","永和區"
"231036","110-UY","2019/09/07 12:49:31","新北市新店區安一路一段1-1號","121.518946666667","24.9610983333333","6500600","新店區"
"231023","260-TV","2019/09/07 12:49:41","新北市新店區安一路一段1-1號","121.51919","24.961085","6500600","新店區"
"231003","268-BY","2019/09/07 12:49:27","新北市新店區安一路一段1-1號","121.519768333333","24.961315","6500600","新店區"
"231035","278-BY","2019/09/07 12:49:36","新北市新店區安一路一段1-1號","121.519658333333","24.961135","6500600","新店區"
"231017","AAD-862","2019/09/07 12:49:40","新北市新店區安一路一段1-1號","121.519985","24.9611766666667","6500600","新店區"
"231020","515-UM","2019/09/07 12:49:26","新北市新店區安一路一段1-1號","121.519146666667","24.9612133333333","6500600","新店區"
"231010","719-UM","2019/09/07 12:49:25","新北市新店區安一路一段1-1號","121.51936","24.96104","6500600","新店區"
"231026","720-UM","2019/09/07 12:49:33","新北市新店區安一路一段1-1號","121.518803333333","24.9613483333333","6500600","新店區"
"235029","098-UM","2019/09/07 12:49:30","新北市中和區中正路470號","121.489928333333","24.9943283333333","6500300","中和區"
"235022","151-BY","2019/09/07 12:49:41","新北市中和區員山路36巷16-2號","121.485088333333","24.9916583333333","6500300","中和區"
"235002","185-VK","2019/09/07 12:49:34","新北市中和區員山路36巷13號","121.484178333333","24.9909266666667","6500300","中和區"
"235031","255-BX","2019/09/07 12:49:39","新北市中和區中山路二段568巷46號","121.482221666667","25.0068833333333","6500300","中和區"
"235005","802-TS","2019/09/07 12:49:39","新北市中和區和城路一段271巷1號","121.48556","24.9916466666667","6500300","中和區"
"235016","805-TS","2019/09/07 12:49:28","新北市中和區員山路36巷16-3號","121.484555","24.9910316666667","6500300","中和區"
"235017","900-TW","2019/09/07 12:49:31","新北市中和區員山路36巷16-3號","121.485143333333","24.991375","6500300","中和區"
"235028","911-UM","2019/09/07 12:49:29","新北市中和區員山路36巷16-3號","121.485033333333","24.9913233333333","6500300","中和區"
"235001","AAC-213","2019/09/07 12:49:31","新北市中和區中正路395號","121.489878333333","24.9935583333333","6500300","中和區"
"228005","097-TW","2019/09/07 12:49:46","新北市貢寮區福連里福連街34-1號","121.98865","25.0111183333333","6502600","貢寮區"
"228004","212-TW","2019/09/07 12:49:40","新北市貢寮區吉林里內寮街10-2號","121.888586666667","24.996935","6502600","貢寮區"
"207002","749-BX","2019/09/07 12:49:29","新北市萬里區雙興里二坪路28-1號","121.6445","25.1687183333333","6502800","萬里區"
"207001","662-BX","2019/09/07 12:49:45","新北市萬里區萬里里瑪鋉路126號","121.690525","25.17921","6502800","萬里區"
"237014","760-BX","2019/09/07 12:49:27","新北市三峽區中山路459巷135號","121.348585","24.9329633333333","6500900","三峽區"
"235032","KEA-2873","2019/09/07 12:49:26","新北市中和區員山路36巷16-3號","121.48499","24.99123","6500300","中和區"
"235025","KEA-2875","2019/09/07 12:49:37","新北市中和區員山路36巷13號","121.484408333333","24.9911433333333","6500300","中和區"
"235026","KEA-2876","2019/09/07 12:49:46","新北市中和區員山路36巷16-3號","121.48492","24.9914566666667","6500300","中和區"
