"lineid","car","time","location","longitude","latitude","cityid","cityname"
"234044","148-BY","2019/09/07 12:59:25","新北市永和區得和路373巷14號","121.525128333333","25.0002333333333","6500400","永和區"
"234078","298-R6","2019/09/07 12:59:44","新北市永和區永亨路67-1號","121.521255","25.0060333333333","6500400","永和區"
"234036","336-UY","2019/09/07 12:59:28","新北市永和區成功路二段207號","121.526628333333","24.9958916666667","6500400","永和區"
"234062","337-UY","2019/09/07 12:59:36","新北市永和區秀朗路一段146號","121.518306666667","25.0034483333333","6500400","永和區"
"234084","338-UY","2019/09/07 12:59:37","新北市永和區永寧街129巷2號","121.518036666667","25.0053883333333","6500400","永和區"
"234068","552-UM","2019/09/07 12:59:28","新北市永和區中興街84巷8號","121.518533333333","25.01166","6500400","永和區"
"234015","745-BX","2019/09/07 12:59:37","新北市永和區永和路二段299號","121.516106666667","25.016105","6500400","永和區"
"234028","746-BX","2019/09/07 12:59:43","新北市永和區秀朗路二段272號","121.526055","24.9980616666667","6500400","永和區"
"234052","KEA-2590","2019/09/07 12:59:34","新北市永和區竹林路64號","121.518361666667","25.0134816666667","6500400","永和區"
"234005","KED-0605","2019/09/07 12:59:35","新北市永和區永和路二段46號","121.514686666667","25.0106866666667","6500400","永和區"
"234012","KEA-2591","2019/09/07 12:59:34","新北市永和區信義路17巷9弄2號","121.513628333333","25.01143","6500400","永和區"
"234060","AAD-866","2019/09/07 12:59:26","新北市永和區福和路301號","121.516435","25.00718","6500400","永和區"
"234040","862-TW","2019/09/07 12:59:46","新北市永和區永貞路267號","121.511851666667","25.0047833333333","6500400","永和區"
"234048","863-TW","2019/09/07 12:59:35","新北市永和區保安路23號","121.51029","25.0167266666667","6500400","永和區"
"234025","9371-KE","2019/09/07 12:59:33","新北市永和區永和路一段38號","121.513013333333","25.005325","6500400","永和區"
"234010","9373-KE","2019/09/07 12:59:29","新北市永和區文化路113巷21弄26號","121.513738333333","25.013945","6500400","永和區"
"248017","KED-0813","2019/09/07 12:59:29","新北市五股區中興路二段63巷17號","121.460333333333","25.0754033333333","6501500","五股區"
"234022","9380-KE","2019/09/07 12:59:27","新北市永和區竹林路75巷15-2號","121.519706666667","25.0139666666667","6500400","永和區"
"234076","969-R7","2019/09/07 12:59:46","新北市永和區民享街1巷2號","121.514866666667","24.995785","6500400","永和區"
"234072","AAC-211","2019/09/07 12:59:40","新北市永和區福和路1號","121.525695","25.00945","6500400","永和區"
"234066","AAC-212","2019/09/07 12:59:32","新北市永和區自由街58號","121.513731666667","25.0058266666667","6500400","永和區"
"234001","AAC-295","2019/09/07 12:59:27","新北市永和區永平路145號","121.511441666667","25.0084033333333","6500400","永和區"
"231029","106-UY","2019/09/07 12:59:44","新北市新店區安華路28-1號","121.519481666667","24.960965","6500600","新店區"
"231018","107-UY","2019/09/07 12:59:40","新北市新店區安一路一段1-1號","121.51941","24.961175","6500600","新店區"
"231036","110-UY","2019/09/07 12:59:31","新北市新店區安華路1-1號","121.51952","24.9603683333333","6500600","新店區"
"231023","260-TV","2019/09/07 12:59:41","新北市新店區安一路一段1-1號","121.51929","24.9613483333333","6500600","新店區"
"231003","268-BY","2019/09/07 12:59:47","新北市新店區安一路一段1-1號","121.519751666667","24.9613316666667","6500600","新店區"
"231035","278-BY","2019/09/07 12:59:36","新北市新店區安一路一段1-1號","121.519668333333","24.9611333333333","6500600","新店區"
"231017","AAD-862","2019/09/07 12:59:40","新北市新店區安一路一段1-1號","121.519681666667","24.961195","6500600","新店區"
"231020","515-UM","2019/09/07 12:59:46","新北市新店區安一路一段1-1號","121.519325","24.9611483333333","6500600","新店區"
"231001","617-UM","2019/09/07 12:59:36","新北市新店區安一路一段1-1號","121.519208333333","24.96109","6500600","新店區"
"231034","641-BX","2019/09/07 12:59:40","新北市新店區安華路28-1號","121.519498333333","24.960595","6500600","新店區"
"231012","KED-0819","2019/09/07 12:59:41","新北市新店區安一路一段1-1號","121.519598333333","24.96123","6500600","新店區"
"231010","719-UM","2019/09/07 12:59:45","新北市新店區安一路一段1-1號","121.519461666667","24.9612166666667","6500600","新店區"
"231026","720-UM","2019/09/07 12:59:33","新北市新店區安一路一段1-1號","121.51946","24.96159","6500600","新店區"
"231037","AKT-0513","2019/09/07 12:59:42","新北市新店區安華路28-1號","121.51942","24.9605816666667","6500600","新店區"
"235027","006-UY","2019/09/07 12:59:38","新北市中和區員山路36巷16-2號","121.48545","24.99136","6500300","中和區"
"235020","096-UM","2019/09/07 12:59:41","新北市中和區員山路36巷16-3號","121.484601666667","24.9909616666667","6500300","中和區"
"235029","098-UM","2019/09/07 12:59:30","新北市中和區景平路788號","121.495865","25.0058066666667","6500300","中和區"
"235022","151-BY","2019/09/07 12:59:41","新北市中和區圓通路367巷33弄12號","121.494303333333","24.9848833333333","6500300","中和區"
"235002","185-VK","2019/09/07 12:59:34","新北市中和區景平路59-18號","121.520818333333","24.99104","6500300","中和區"
"235031","255-BX","2019/09/07 12:59:39","新北市中和區中山路二段449號","121.484015","25.004945","6500300","中和區"
"235034","558-UM","2019/09/07 12:59:31","新北市中和區員山路36巷16-2號","121.485243333333","24.9917433333333","6500300","中和區"
"235009","565-BX","2019/09/07 12:59:28","新北市中和區員山路36巷16-2號","121.485171666667","24.99164","6500300","中和區"
"235021","801-TS","2019/09/07 12:59:41","新北市中和區員山路36巷16-3號","121.485146666667","24.9914333333333","6500300","中和區"
"235005","802-TS","2019/09/07 12:59:39","新北市中和區和城路一段271巷1號","121.485568333333","24.9916683333333","6500300","中和區"
"235016","805-TS","2019/09/07 12:59:28","新北市中和區員山路36巷16-8號","121.485466666667","24.9924716666667","6500300","中和區"
"235017","900-TW","2019/09/07 12:59:31","新北市中和區員山路36巷16-2號","121.485258333333","24.9914466666667","6500300","中和區"
"235028","911-UM","2019/09/07 12:59:29","新北市中和區中正路277號","121.495373333333","24.9938033333333","6500300","中和區"
"235015","157-BY","2019/09/07 12:59:41","新北市中和區中正路637巷60弄61號","121.485518333333","24.9928366666667","6500300","中和區"
"235001","AAC-213","2019/09/07 12:59:31","新北市中和區景平路149號","121.51383","24.9920833333333","6500300","中和區"
"235023","AAC-215","2019/09/07 12:59:30","新北市中和區員山路36巷16-3號","121.48517","24.9912766666667","6500300","中和區"
"228005","097-TW","2019/09/07 12:59:26","新北市貢寮區福隆里東興街31-1號","121.952216666667","25.0206","6502600","貢寮區"
"228004","212-TW","2019/09/07 12:59:40","新北市貢寮區吉林里內寮街10-1號","121.887366666667","24.9891533333333","6502600","貢寮區"
"207002","749-BX","2019/09/07 12:59:29","新北市萬里區雙興里大坪路27-2號","121.633776666667","25.168585","6502800","萬里區"
"207001","662-BX","2019/09/07 12:59:45","新北市萬里區萬里里獅頭路22-1號","121.692958333333","25.1782383333333","6502800","萬里區"
"252005","AAC-283","2019/09/07 12:59:39","新北市三芝區埔坪里埔頭坑41號","121.504551666667","25.2646133333333","6502100","三芝區"
"237014","760-BX","2019/09/07 12:59:27","新北市三峽區中山路459巷135號","121.348581666667","24.932955","6500900","三峽區"
"235032","KEA-2873","2019/09/07 12:59:26","新北市中和區員山路36巷16-3號","121.485145","24.99132","6500300","中和區"
"235025","KEA-2875","2019/09/07 12:59:37","新北市土城區延壽路77巷4弄33號","121.469008333333","24.9931983333333","6500300","中和區"
"235026","KEA-2876","2019/09/07 12:59:46","新北市中和區中正路468號","121.489975","24.9943466666667","6500300","中和區"
