"lineid","car","time","location","longitude","latitude","cityid","cityname"
"234044","148-BY","2019/09/07 13:39:45","新北市永和區秀朗路二段68號","121.522758333333","25.0015833333333","6500400","永和區"
"234078","298-R6","2019/09/07 13:39:33","新北市永和區國中路104巷8弄19號","121.525346666667","25.0063633333333","6500400","永和區"
"234036","336-UY","2019/09/07 13:39:28","新北市永和區民樂街31巷4號","121.52785","25.00147","6500400","永和區"
"234062","337-UY","2019/09/07 13:39:41","新北市永和區秀朗路二段24巷28弄14號","121.519483333333","25.0019733333333","6500400","永和區"
"234084","338-UY","2019/09/07 13:39:37","新北市永和區永亨路167號","121.525916666667","25.00371","6500400","永和區"
"234068","552-UM","2019/09/07 13:39:28","新北市永和區中興街1號","121.515353333333","25.0122516666667","6500400","永和區"
"234015","745-BX","2019/09/07 13:39:37","新北市永和區永和路二段425巷75弄5號","121.513426666667","25.0170666666667","6500400","永和區"
"234028","746-BX","2019/09/07 13:39:43","新北市永和區民權路29巷8號","121.520491666667","24.9978233333333","6500400","永和區"
"234052","KEA-2590","2019/09/07 13:39:34","新北市永和區竹林路39巷22號","121.518981666667","25.01467","6500400","永和區"
"234005","KED-0605","2019/09/07 13:39:34","新北市永和區中山路一段2號","121.514378333333","25.0105716666667","6500400","永和區"
"234012","KEA-2591","2019/09/07 13:39:34","新北市永和區永平路238巷10號","121.50942","25.01151","6500400","永和區"
"234060","AAD-866","2019/09/07 13:39:26","新北市永和區中正路446號","121.517366666667","25.0028366666667","6500400","永和區"
"234040","862-TW","2019/09/07 13:39:27","新北市永和區中和路373號","121.508416666667","24.9997383333333","6500400","永和區"
"234048","863-TW","2019/09/07 13:39:46","新北市永和區環河西路一段109號","121.510958333333","25.0174133333333","6500400","永和區"
"234025","9371-KE","2019/09/07 13:39:32","新北市永和區保生路55-1號","121.504516666667","25.0109316666667","6500400","永和區"
"234010","9373-KE","2019/09/07 13:39:28","新北市永和區保福路二段50號","121.510936666667","25.0121766666667","6500400","永和區"
"248017","KED-0813","2019/09/07 13:39:29","新北市五股區民義路二段54-21號","121.407276666667","25.106635","6501500","五股區"
"234022","9380-KE","2019/09/07 13:39:47","新北市永和區中正路702巷20弄1號","121.51652","25.010565","6500400","永和區"
"234076","969-R7","2019/09/07 13:39:46","新北市永和區得和路233-1號","121.520075","25.0002083333333","6500400","永和區"
"234072","AAC-211","2019/09/07 13:39:40","新北市永和區竹林路211號","121.520883333333","25.0088466666667","6500400","永和區"
"234066","AAC-212","2019/09/07 13:39:32","新北市永和區永平路173巷7號","121.510198333333","25.0084133333333","6500400","永和區"
"234001","AAC-295","2019/09/07 13:39:27","新北市永和區自強街8巷5弄2號","121.514756666667","25.007515","6500400","永和區"
"244005","248-BX","2019/09/07 13:39:25","新北市林口區中華路555號","121.382208333333","25.09183","6501700","林口區"
"222001","696-SL","2019/09/07 13:39:44","新北市深坑區深南路88巷1號","121.62098","25.0115683333333","6501800","深坑區"
"231030","002-UM","2019/09/07 13:39:42","新北市新店區安康路一段351-1號","121.519655","24.96388","6500600","新店區"
"231024","0291-UT","2019/09/07 13:39:43","新北市新店區華興街36號","121.53709","24.9689416666667","6500600","新店區"
"231027","0293-UT","2019/09/07 13:39:39","新北市新店區新店後街44號","121.537823333333","24.95371","6500600","新店區"
"231005","046-UY","2019/09/07 13:39:33","新北市新店區中興路三段6號","121.547458333333","24.9777133333333","6500600","新店區"
"231029","106-UY","2019/09/07 13:39:44","新北市新店區安康路二段236號","121.50939","24.959155","6500600","新店區"
"231018","107-UY","2019/09/07 13:39:40","新北市新店區百忍街17巷1號","121.534486666667","24.975645","6500600","新店區"
"231013","108-UY","2019/09/07 13:39:32","新北市新店區中正路454-5號","121.5345","24.979105","6500600","新店區"
"231036","110-UY","2019/09/07 13:39:31","新北市新店區安祥路147巷46號","121.476496666667","24.9570416666667","6500600","新店區"
"231033","256-BX","2019/09/07 13:39:30","新北市新店區莒光路59號","121.52348","24.9590683333333","6500600","新店區"
"231023","260-TV","2019/09/07 13:39:41","新北市新店區新店路167號","121.537095","24.9556066666667","6500600","新店區"
"231003","268-BY","2019/09/07 13:39:26","新北市新店區中正路6號","121.545716666667","24.9695283333333","6500600","新店區"
"231035","278-BY","2019/09/07 13:39:44","新北市新店區安忠路86-7號","121.511658333333","24.95823","6500600","新店區"
"231017","AAD-862","2019/09/07 13:39:40","新北市新店區竹林路2巷29弄1號","121.550131666667","24.9504533333333","6500600","新店區"
"231006","355-BY","2019/09/07 13:39:33","新北市新店區光明街1-1號","121.538095","24.9591016666667","6500600","新店區"
"231038","3712-VJ","2019/09/07 13:39:27","新北市新店區安華路1-1號","121.519451666667","24.9603366666667","6500600","新店區"
"231025","4715-K9","2019/09/07 13:39:35","新北市新店區中央五街37號","121.528583333333","24.975045","6500600","新店區"
"231020","515-UM","2019/09/07 13:39:46","新北市新店區永興路88-1號","121.544078333333","24.9337283333333","6500600","新店區"
"231001","617-UM","2019/09/07 13:39:36","新北市新店區中央路75號","121.532348333333","24.97678","6500600","新店區"
"231002","618-UM","2019/09/07 13:39:41","新北市新店區中央一街45號","121.527028333333","24.9737933333333","6500600","新店區"
"231034","641-BX","2019/09/07 13:39:40","新北市新店區黎明路57巷50號","121.504275","24.947855","6500600","新店區"
"231012","KED-0819","2019/09/07 13:39:41","新北市新店區德正街27巷1號","121.544521666667","24.9714083333333","6500600","新店區"
"231010","719-UM","2019/09/07 13:39:25","新北市新店區平等街7號","121.53696","24.97416","6500600","新店區"
"231026","720-UM","2019/09/07 13:39:33","新北市新店區北宜路一段170號","121.540595","24.9530466666667","6500600","新店區"
"231028","897-TW","2019/09/07 13:39:33","新北市新店區安和路一段6-6號","121.517348333333","24.96549","6500600","新店區"
"231004","899-TW","2019/09/07 13:39:41","新北市新店區北新路二段1號","121.5427","24.97129","6500600","新店區"
"231037","AKT-0513","2019/09/07 13:39:42","新北市新店區薏仁坑路6號","121.500258333333","24.9579983333333","6500600","新店區"
"235030","003-UY","2019/09/07 13:39:38","新北市中和區水源路45號","121.504851666667","25.0035666666667","6500300","中和區"
"235027","006-UY","2019/09/07 13:39:38","新北市中和區連城路347巷16弄20號","121.487546666667","24.9951","6500300","中和區"
"235020","096-UM","2019/09/07 13:39:41","新北市中和區中正路1196號","121.480251666667","25.01035","6500300","中和區"
"235003","097-UM","2019/09/07 13:39:46","新北市中和區景平路278巷14弄4號","121.514265","24.99299","6500300","中和區"
"235029","098-UM","2019/09/07 13:39:30","新北市中和區莊敬路33巷48號","121.500478333333","25.0070133333333","6500300","中和區"
"235004","150-BY","2019/09/07 13:39:31","新北市中和區安平路59號","121.509533333333","24.9950633333333","6500300","中和區"
"235022","151-BY","2019/09/07 13:39:41","新北市中和區員山路37-10號","121.482113333333","24.9904666666667","6500300","中和區"
"235055","183-VK","2019/09/07 13:39:28","新北市中和區德光路77巷1號","121.469538333333","25.0035283333333","6500300","中和區"
"235002","185-VK","2019/09/07 13:39:34","新北市中和區大勇街60巷33號","121.518995","24.9947316666667","6500300","中和區"
"235013","186-VK","2019/09/07 13:39:43","新北市中和區景安路116號","121.505298333333","24.9949833333333","6500300","中和區"
"235031","255-BX","2019/09/07 13:39:39","新北市中和區新生街220巷1弄1號","121.483406666667","24.9984133333333","6500300","中和區"
"235008","293-VK","2019/09/07 13:39:36","新北市中和區復興路280巷5號","121.502218333333","24.9909866666667","6500300","中和區"
"235036","301-VK","2019/09/07 13:39:40","新北市中和區連城路103號","121.496331666667","24.9996","6500300","中和區"
"235007","352-BY","2019/09/07 13:39:26","新北市中和區景平路75號","121.518098333333","24.9917166666667","6500300","中和區"
"235006","KEA-2878","2019/09/07 13:39:41","新北市中和區成功路127巷21號","121.526973333333","24.9909416666667","6500300","中和區"
"235014","4979-A6","2019/09/07 13:39:40","新北市中和區景新街496巷28弄10號","121.513088333333","24.9859783333333","6500300","中和區"
"235033","4980-A6","2019/09/07 13:39:38","新北市中和區連城路87號","121.496778333333","25.0002966666667","6500300","中和區"
"235034","558-UM","2019/09/07 13:39:31","新北市中和區圓通路43號","121.500856666667","24.9975533333333","6500300","中和區"
"235009","565-BX","2019/09/07 13:39:28","新北市中和區南山路236巷63弄1號","121.50389","24.9876483333333","6500300","中和區"
"235024","KED-0823","2019/09/07 13:39:28","新北市中和區中山路三段206號","121.471613333333","25.00645","6500300","中和區"
"235018","640-BX","2019/09/07 13:39:31","新北市中和區民治街120號","121.475228333333","25.0035283333333","6500300","中和區"
"235011","732-UM","2019/09/07 13:39:39","新北市中和區興南路二段40號","121.50683","24.9852516666667","6500300","中和區"
"235010","733-UM","2019/09/07 13:39:28","新北市中和區忠孝街101巷1號","121.511838333333","24.9861366666667","6500300","中和區"
"235035","783-BX","2019/09/07 13:39:40","新北市中和區立德街98巷55號","121.487656666667","25.0089216666667","6500300","中和區"
"235021","801-TS","2019/09/07 13:39:41","新北市中和區民安街25巷4號","121.480528333333","25.00017","6500300","中和區"
"235005","802-TS","2019/09/07 13:39:39","新北市中和區中和路390號","121.511108333333","25.002625","6500300","中和區"
"235016","805-TS","2019/09/07 13:39:48","新北市中和區興南路三段52巷6號","121.493771666667","24.97618","6500300","中和區"
"235012","896-TW","2019/09/07 13:39:43","新北市中和區中正路169號","121.498133333333","24.9935716666667","6500300","中和區"
"235017","900-TW","2019/09/07 13:39:40","新北市中和區華福街55號","121.466645","24.9966833333333","6500300","中和區"
"235028","911-UM","2019/09/07 13:39:29","新北市中和區景平路519號","121.4992","24.9988833333333","6500300","中和區"
"235015","157-BY","2019/09/07 13:39:41","新北市中和區華新街143巷106弄33號","121.506866666667","24.9783133333333","6500300","中和區"
"235001","AAC-213","2019/09/07 13:39:31","新北市中和區秀朗路三段128巷12弄1號","121.524573333333","24.99289","6500300","中和區"
"235023","AAC-215","2019/09/07 13:39:30","新北市中和區錦和路350-1號","121.490553333333","24.9935333333333","6500300","中和區"
"220013","072-UY","2019/09/07 13:39:34","新北市板橋區館前東路53號","121.461288333333","25.0074116666667","6500100","板橋區"
"220034","073-UY","2019/09/07 13:39:34","新北市板橋區華東街1-10號","121.448271666667","24.9950716666667","6500100","板橋區"
"220105","075-UY","2019/09/07 13:39:29","新北市板橋區民生路二段120號","121.470595","25.01948","6500100","板橋區"
"220017","AAD-861","2019/09/07 13:39:33","新北市板橋區縣民大道一段92-1號","121.456125","25.0047316666667","6500100","板橋區"
"220068","120-SR","2019/09/07 13:39:39","新北市板橋區民生路二段120號","121.470713333333","25.019735","6500100","板橋區"
"247005","893-R6","2019/09/07 13:39:46","新北市五股區中興路二段37巷25號","121.460708333333","25.0745766666667","6501400","蘆洲區"
"247007","341-TH","2019/09/07 13:39:29","新北市五股區四維路183號","121.468068333333","25.0754583333333","6501400","蘆洲區"
"247003","336-TH","2019/09/07 13:39:43","新北市蘆洲區中原路46號","121.45938","25.0824116666667","6501400","蘆洲區"
"247013","056-VK","2019/09/07 13:39:41","新北市五股區成泰路三段358號","121.451395","25.0983716666667","6501400","蘆洲區"
"228005","097-TW","2019/09/07 13:39:26","新北市貢寮區美豐里文秀坑1-3號","121.904491666667","25.052805","6502600","貢寮區"
"228004","212-TW","2019/09/07 13:36:40","新北市貢寮區龍崗里石壁坑街30號","121.909873333333","25.0020866666667","6502600","貢寮區"
"253003","6232-TK","2019/09/07 13:39:44","新北市石門區內石門17號","121.573398333333","25.2746633333333","6502200","石門區"
"253004","6251-TK","2019/09/07 13:39:29","新北市石門區阿里荖50號","121.607313333333","25.2749383333333","6502200","石門區"
"253002","637-UY","2019/09/07 13:39:33","新北市石門區九芎林33-3號","121.566438333333","25.256465","6502200","石門區"
"253001","KEC-0718","2019/09/07 13:39:31","新北市三芝區新庄里新庄子96號","121.515586666667","25.2756633333333","6502200","石門區"
"207002","749-BX","2019/09/07 13:39:29","新北市萬里區崁腳里崁腳路166號","121.644995","25.1557916666667","6502800","萬里區"
"207001","662-BX","2019/09/07 13:39:45","新北市萬里區大鵬里萬里加投45-1號","121.641935","25.2110083333333","6502800","萬里區"
"252005","AAC-283","2019/09/07 13:39:39","新北市三芝區圓山里木屐寮38號","121.530698333333","25.226465","6502100","三芝區"
"236040","KED-0685","2019/09/07 13:39:41","新北市土城區城林路6巷80號","121.438505","24.9797116666667","6501300","土城區"
"220038","KED-0812","2019/09/07 13:39:28","新北市板橋區民生路二段120號","121.470761666667","25.01938","6500100","板橋區"
"236024","269-VK","2019/09/07 13:39:27","新北市土城區城林路6巷80號","121.438635","24.9798933333333","6501300","土城區"
"236013","270-VK","2019/09/07 13:39:33","新北市土城區城林路6巷80號","121.438615","24.9798183333333","6501300","土城區"
"247011","KED-0683","2019/09/07 13:39:30","新北市五股區中興路三段163號","121.449151666667","25.08071","6501400","蘆洲區"
"236017","401-BY","2019/09/07 13:39:42","新北市土城區城林路6巷80號","121.438595","24.9798933333333","6501300","土城區"
"236060","915-UM","2019/09/07 13:39:30","新北市土城區城林路6巷80號","121.438498333333","24.9797033333333","6501300","土城區"
"221029","298-VK","2019/09/07 13:39:28","新北市汐止區南陽街65號","121.624433333333","25.0638133333333","6501100","汐止區"
"220027","145-BY","2019/09/07 13:39:28","新北市板橋區館前西路166-1號","121.452465","25.00862","6500100","板橋區"
"220030","610-BX","2019/09/07 13:39:37","新北市板橋區大觀路三段59巷17弄6-1號","121.437401666667","24.99541","6500100","板橋區"
"220004","276-BY","2019/09/07 13:39:44","新北市板橋區南雅南路一段1巷42號","121.45754","25.0064283333333","6500100","板橋區"
"220020","277-BY","2019/09/07 13:39:36","新北市板橋區大觀路2段435-7號","121.447433333333","24.9960266666667","6500100","板橋區"
"220043","283-UM","2019/09/07 13:39:32","新北市板橋區民生路二段120號","121.47057","25.0198433333333","6500100","板橋區"
"220019","283-VK","2019/09/07 13:39:33","新北市板橋區四川路二段140巷12號","121.449486666667","24.9932416666667","6500100","板橋區"
"220031","286-VK","2019/09/07 13:39:44","新北市板橋區大觀路二段10號","121.446855","25.0036716666667","6500100","板橋區"
"220029","287-VK","2019/09/07 13:39:23","新北市板橋區板城路421號","121.448058333333","24.9963283333333","6500100","板橋區"
"220009","293-UM","2019/09/07 13:39:35","新北市板橋區民生路二段120號","121.470745","25.0195783333333","6500100","板橋區"
"220010","295-UM","2019/09/07 13:39:29","新北市板橋區民生路二段161巷7號","121.470055","25.0196133333333","6500100","板橋區"
"220032","296-UM","2019/09/07 13:39:43","新北市板橋區大觀路二段148巷1號","121.441896666667","24.9996","6500100","板橋區"
"220014","299-UM","2019/09/07 13:39:46","新北市板橋區莊敬路208巷6弄3號","121.471141666667","25.0208783333333","6500100","板橋區"
"220023","303-R5","2019/09/07 13:39:37","新北市板橋區大觀路二段266號","121.449298333333","24.9965666666667","6500100","板橋區"
"220041","307-R5","2019/09/07 13:39:36","新北市板橋區民生路二段89-4號","121.471548333333","25.01842","6500100","板橋區"
"220037","491-VK","2019/09/07 13:39:44","新北市板橋區民生路二段161巷1號","121.470113333333","25.0201883333333","6500100","板橋區"
"220104","560-BX","2019/09/07 13:39:31","新北市板橋區南雅西路二段145巷6號","121.451611666667","25.01187","6500100","板橋區"
"220052","561-BX","2019/09/07 13:39:39","新北市板橋區民生路二段56-6號","121.470881666667","25.018565","6500100","板橋區"
"220028","568-UM","2019/09/07 13:39:37","新北市板橋區華東街1-9號","121.448183333333","24.9948716666667","6500100","板橋區"
"220011","609-BX","2019/09/07 13:39:46","新北市板橋區民生路二段56-6號","121.470996666667","25.0188183333333","6500100","板橋區"
"220005","686-BX","2019/09/07 13:39:28","新北市板橋區華興街91巷4號","121.456455","25.0051133333333","6500100","板橋區"
"220025","687-BX","2019/09/07 13:39:31","新北市板橋區大觀路三段212巷72號","121.429741666667","24.9934316666667","6500100","板橋區"
"220002","741-BX","2019/09/07 13:39:25","新北市板橋區南雅南路二段122-6號","121.451458333333","24.9984883333333","6500100","板橋區"
"220051","KEA-2699","2019/09/07 13:39:27","新北市板橋區莊敬路208巷8弄9號","121.47055","25.020485","6500100","板橋區"
"220003","827-TW","2019/09/07 13:39:33","新北市板橋區忠孝路23號","121.460495","25.0019416666667","6500100","板橋區"
"220022","895-R6","2019/09/07 13:39:29","新北市板橋區南雅南路一段8-9號","121.455995","25.0063866666667","6500100","板橋區"
"220021","985-R7","2019/09/07 13:39:35","新北市板橋區南雅南路二段116號","121.454418333333","25.0000716666667","6500100","板橋區"
"220046","AAC-210","2019/09/07 13:39:30","新北市板橋區民生路二段120號","121.470545","25.0197333333333","6500100","板橋區"
"220012","AAC-253","2019/09/07 13:39:33","新北市板橋區板新路200巷22號","121.46878","25.0167766666667","6500100","板橋區"
"235032","KEA-2873","2019/09/07 13:39:26","新北市中和區中正路167巷15號","121.498411666667","24.9928","6500300","中和區"
"235025","KEA-2875","2019/09/07 13:39:37","新北市中和區民享街30巷5號","121.473716666667","25.0035133333333","6500300","中和區"
"235026","KEA-2876","2019/09/07 13:39:16","新北市中和區中山路二段328-3號","121.495138333333","25.00231","6500300","中和區"
