"lineid","car","time","location","longitude","latitude","cityid","cityname"
"222001","696-SL","2019/09/07 15:19:44","新北市深坑區深南路88巷1號","121.621195","25.0117633333333","6501800","深坑區"
"231030","002-UM","2019/09/07 15:19:42","新北市新店區安民街341號","121.516936666667","24.974955","6500600","新店區"
"231024","0291-UT","2019/09/07 15:19:43","新北市新店區新明街10號","121.541048333333","24.9682716666667","6500600","新店區"
"231005","046-UY","2019/09/07 15:19:33","新北市新店區建國路239號","121.537551666667","24.9820716666667","6500600","新店區"
"231029","106-UY","2019/09/07 15:19:44","新北市新店區安康路三段738號","121.473995","24.9419466666667","6500600","新店區"
"231018","107-UY","2019/09/07 15:19:40","新北市新店區中央八街88號","121.527016666667","24.9775383333333","6500600","新店區"
"231013","108-UY","2019/09/07 15:19:43","新北市新店區永業路81巷1弄1-1號","121.52953","24.9494383333333","6500600","新店區"
"231036","110-UY","2019/09/07 15:19:31","新北市新店區安祥路69巷15號","121.48194","24.9614116666667","6500600","新店區"
"231039","187-VK","2019/09/07 15:19:44","新北市新店區寶元路一段65號","121.542208333333","24.9858383333333","6500600","新店區"
"231033","256-BX","2019/09/07 15:19:30","新北市新店區安康路三段132號","121.490853333333","24.9517733333333","6500600","新店區"
"231023","260-TV","2019/09/07 15:19:41","新北市新店區北新路一段64巷43號","121.542266666667","24.9656583333333","6500600","新店區"
"231003","268-BY","2019/09/07 15:19:46","新北市新店區寶高路120巷1號","121.554623333333","24.9761066666667","6500600","新店區"
"231035","278-BY","2019/09/07 15:19:36","新北市新店區安和路三段21巷3號","121.517196666667","24.981095","6500600","新店區"
"231017","AAD-862","2019/09/07 15:19:40","新北市新店區玉山路22號","121.568088333333","24.9554866666667","6500600","新店區"
"231038","3712-VJ","2019/09/07 15:19:27","新北市新店區安華路28-1號","121.519815","24.9609283333333","6500600","新店區"
"231025","4715-K9","2019/09/07 15:19:35","新北市新店區環河路107-5號","121.531728333333","24.9701883333333","6500600","新店區"
"231020","515-UM","2019/09/07 15:19:26","新北市新店區湖興路128-18號","121.561933333333","24.9304666666667","6500600","新店區"
"231001","617-UM","2019/09/07 15:19:36","新北市新店區北新路一段138號","121.542293333333","24.9702666666667","6500600","新店區"
"231002","618-UM","2019/09/07 15:19:41","新北市新店區中正路707號","121.533788333333","24.9910683333333","6500600","新店區"
"231034","641-BX","2019/09/07 15:19:40","新北市新店區如意街3巷2號","121.49558","24.9491833333333","6500600","新店區"
"231012","KED-0819","2019/09/07 15:19:41","新北市新店區寶慶街9號","121.54367","24.9867866666667","6500600","新店區"
"231026","720-UM","2019/09/07 15:19:40","新北市新店區中正路247巷2號","121.538851666667","24.9730533333333","6500600","新店區"
"231028","897-TW","2019/09/07 15:19:33","新北市新店區僑愛三路12號","121.499461666667","24.944675","6500600","新店區"
"231004","899-TW","2019/09/07 15:19:41","新北市新店區建國路64號","121.54058","24.9758533333333","6500600","新店區"
"231037","AKT-0513","2019/09/07 15:19:42","新北市新店區安興路81號","121.51551","24.9752133333333","6500600","新店區"
"241013","270-UM","2019/09/07 15:17:26","新北市三重區重新路四段121號","121.485098333333","25.0519916666667","6500200","三重區"
"241025","743-BX","2019/09/07 15:19:30","新北市三重區重新路四段121號","121.485013333333","25.0522233333333","6500200","三重區"
"235030","003-UY","2019/09/07 15:19:38","新北市中和區保平路342號","121.506683333333","25.0041733333333","6500300","中和區"
"235003","097-UM","2019/09/07 15:19:25","新北市三重區重新路五段326巷25-1號","121.479546666667","25.04285","6500300","中和區"
"235055","183-VK","2019/09/07 15:19:27","新北市八里區商港路105巷15號","121.388425","25.1471883333333","6500300","中和區"
"235036","301-VK","2019/09/07 15:19:40","新北市中和區連城路219巷9號","121.494808333333","24.9968766666667","6500300","中和區"
"235014","4979-A6","2019/09/07 15:19:39","新北市中和區景安路177巷10號","121.505821666667","24.994005","6500300","中和區"
"235033","4980-A6","2019/09/07 15:19:38","新北市中和區中正路446號","121.490958333333","24.9942966666667","6500300","中和區"
"235012","896-TW","2019/09/07 15:19:43","新北市中和區景新街368號","121.512053333333","24.9904133333333","6500300","中和區"
"235023","AAC-215","2019/09/07 15:19:41","新北市中和區圓通路316號","121.486106666667","24.98809","6500300","中和區"
"220013","072-UY","2019/09/07 15:19:34","新北市板橋區南雅南路一段131號","121.455276666667","25.0042833333333","6500100","板橋區"
"220034","073-UY","2019/09/07 15:19:34","新北市樹林區環河路2-2號","121.425648333333","24.9770333333333","6500100","板橋區"
"247006","893-R6","2019/09/07 14:53:52","新北市五股區中興路三段163號","121.449243333333","25.080825","6501400","蘆洲區"
"247008","341-TH","2019/09/07 14:53:54","新北市五股區中興路三段163號","121.449306666667","25.080705","6501400","蘆洲區"
"253004","6251-TK","2019/09/07 15:19:40","新北市石門區茂林社區86號","121.592723333333","25.2696516666667","6502200","石門區"
"207002","749-BX","2019/09/07 15:19:29","新北市萬里區崁腳里內中福路29號","121.659866666667","25.1650016666667","6502800","萬里區"
"207001","662-BX","2019/09/07 15:19:45","新北市萬里區大鵬里萬里加投19-12號","121.650478333333","25.209255","6502800","萬里區"
"236040","KED-0685","2019/09/07 15:19:41","新北市土城區裕民路185巷7號","121.453875","24.984775","6501300","土城區"
"236029","253-BX","2019/09/07 15:19:43","新北市土城區中央路一段294號","121.443423333333","24.9823433333333","6501300","土城區"
"236024","269-VK","2019/09/07 15:19:27","新北市土城區員林街61巷2弄2號","121.444121666667","24.97774","6501300","土城區"
"236013","270-VK","2019/09/07 15:19:43","新北市土城區廣福街6號","121.457298333333","24.988855","6501300","土城區"
"236032","271-VK","2019/09/07 15:19:44","新北市土城區國際路158巷54號","121.46791","24.9747683333333","6501300","土城區"
"236068","KEA-2877","2019/09/07 15:19:30","新北市土城區裕民路185巷36弄6號","121.454483333333","24.98464","6501300","土城區"
"236017","401-BY","2019/09/07 15:19:42","新北市土城區明峰街83號","121.468871666667","24.98742","6501300","土城區"
"236057","912-UM","2019/09/07 15:19:37","新北市土城區光明街28巷30號","121.441368333333","24.9742816666667","6501300","土城區"
"236045","913-UM","2019/09/07 15:19:42","新北市土城區明德路一段86號","121.464856666667","24.9798833333333","6501300","土城區"
"236060","915-UM","2019/09/07 15:19:32","新北市土城區金城路三段33巷22號","121.465051666667","24.9874733333333","6501300","土城區"
"236054","AAC-216","2019/09/07 15:19:38","新北市土城區延和路19號","121.464281666667","24.9882066666667","6501300","土城區"
"220027","145-BY","2019/09/07 15:19:28","新北市板橋區公館街19號","121.460603333333","25.0145183333333","6500100","板橋區"
"220031","286-VK","2019/09/07 15:19:40","新北市板橋區僑中二街102巷14號","121.445563333333","25.00848","6500100","板橋區"
"220029","287-VK","2019/09/07 15:19:43","新北市板橋區僑中一街80巷1弄12號","121.447058333333","25.012045","6500100","板橋區"
"220025","687-BX","2019/09/07 15:19:31","新北市板橋區大觀路一段29巷131弄125號","121.451741666667","25.00522","6500100","板橋區"
"220003","827-TW","2019/09/07 15:19:33","新北市板橋區國慶路149巷37弄3號","121.460751666667","24.997965","6500100","板橋區"
"220022","895-R6","2019/09/07 15:19:29","新北市板橋區僑中一街124巷74-5號","121.448293333333","25.0178383333333","6500100","板橋區"
"235062","KEA-2876","2019/09/07 15:07:48","新北市中和區員山路36巷16-3號","121.484981666667","24.9914333333333","6500300","中和區"
