"lineid","car","time","location","longitude","latitude","cityid","cityname"
"222001","696-SL","2019/09/07 15:49:44","新北市深坑區深南路88巷1號","121.621186666667","25.0117433333333","6501800","深坑區"
"231030","002-UM","2019/09/07 15:49:42","新北市新店區永安街64號","121.519431666667","24.9868166666667","6500600","新店區"
"231029","106-UY","2019/09/07 15:49:44","新北市新店區安華路30巷1號","121.519346666667","24.9596216666667","6500600","新店區"
"231018","107-UY","2019/09/07 15:49:40","新北市新店區中正路663巷1弄2號","121.532958333333","24.9900416666667","6500600","新店區"
"231013","108-UY","2019/09/07 15:49:43","新北市新店區永業路81巷3弄2號","121.530008333333","24.9492216666667","6500600","新店區"
"231039","187-VK","2019/09/07 15:49:44","新北市新店區北新路一段1號","121.536633333333","24.9586783333333","6500600","新店區"
"231033","256-BX","2019/09/07 15:49:30","新北市新店區雙城路82號","121.492185","24.948815","6500600","新店區"
"231023","260-TV","2019/09/07 15:49:41","新北市新店區安康路一段3-1號","121.53419","24.9608016666667","6500600","新店區"
"231003","268-BY","2019/09/07 15:49:46","新北市新店區寶興路60巷4號","121.549815","24.9719316666667","6500600","新店區"
"231035","278-BY","2019/09/07 15:49:36","新北市新店區安民街365巷10弄2號","121.516045","24.97569","6500600","新店區"
"231017","AAD-862","2019/09/07 15:49:40","新北市新店區中華路83號","121.539471666667","24.968665","6500600","新店區"
"231020","515-UM","2019/09/07 15:49:46","新北市新店區新烏路一段85巷5號","121.54778","24.9420483333333","6500600","新店區"
"231034","641-BX","2019/09/07 15:49:39","新北市新店區吉祥街15巷1號","121.497733333333","24.9455966666667","6500600","新店區"
"231026","720-UM","2019/09/07 15:49:40","新北市新店區民權路161號","121.533906666667","24.9823466666667","6500600","新店區"
"231037","AKT-0513","2019/09/07 15:49:42","新北市新店區安民街133巷11號","121.515976666667","24.9692116666667","6500600","新店區"
"241028","022-UY","2019/09/07 15:49:36","新北市三重區中正南路93號","121.494291666667","25.0582","6500200","三重區"
"241015","062-VK","2019/09/07 15:49:44","新北市三重區重新路四段121號","121.485068333333","25.0520816666667","6500200","三重區"
"241017","063-VK","2019/09/07 15:49:33","新北市三重區大仁街1號","121.491633333333","25.063565","6500200","三重區"
"241024","065-VK","2019/09/07 15:49:26","新北市三重區忠孝路三段84巷16號","121.48043","25.0650616666667","6500200","三重區"
"241007","066-VK","2019/09/07 15:49:36","新北市三重區忠孝路二段160號","121.482218333333","25.068215","6500200","三重區"
"241002","090-VK","2019/09/07 15:49:37","新北市三重區重新路四段121號","121.484868333333","25.05195","6500200","三重區"
"241032","269-UM","2019/09/07 15:49:46","新北市三重區三陽路100巷3弄13號","121.48301","25.05816","6500200","三重區"
"241013","270-UM","2019/09/07 15:49:36","新北市三重區六張街3號","121.49564","25.07069","6500200","三重區"
"241020","478-VK","2019/09/07 15:49:27","新北市三重區忠孝路三段84巷16號","121.4804","25.0650316666667","6500200","三重區"
"241026","480-VK","2019/09/07 15:49:39","新北市三重區重新路四段121號","121.484818333333","25.0525333333333","6500200","三重區"
"241019","KEA-2593","2019/09/07 15:49:36","新北市三重區自強路二段74巷25號","121.487715","25.06966","6500200","三重區"
"241005","AAD-863","2019/09/07 15:49:36","新北市三重區中正北路165巷73號","121.479313333333","25.0710316666667","6500200","三重區"
"241025","743-BX","2019/09/07 15:49:30","新北市三重區新北大道一段250號","121.479856666667","25.0613933333333","6500200","三重區"
"241022","KED-0820","2019/09/07 15:49:38","新北市三重區新北大道一段250號","121.479925","25.0613266666667","6500200","三重區"
"241016","887-TS","2019/09/07 15:49:37","新北市三重區重新路四段121號","121.484951666667","25.0523583333333","6500200","三重區"
"241012","941-UM","2019/09/07 15:49:32","新北市三重區正義北路107巷35號","121.498258333333","25.0658983333333","6500200","三重區"
"241029","942-UM","2019/09/07 15:49:30","新北市三重區大同南路159號","121.496936666667","25.0557433333333","6500200","三重區"
"241033","AAC-255","2019/09/07 15:49:44","新北市三重區光復路一段111號","121.472078333333","25.0517483333333","6500200","三重區"
"235055","183-VK","2019/09/07 15:49:27","新北市五股區五工一路109號","121.456928333333","25.0705483333333","6500300","中和區"
"235033","4980-A6","2019/09/07 15:49:38","新北市中和區中正路637巷44弄1號","121.4852","24.9942933333333","6500300","中和區"
"247006","893-R6","2019/09/07 15:35:56","新北市五股區中興路三段2巷10號","121.4488","25.08113","6501400","蘆洲區"
"224005","271-BY","2019/09/07 15:49:31","新北市瑞芳區中山路24號","121.80403","25.106225","6501200","瑞芳區"
"227001","642-TC","2019/09/07 15:49:30","新北市雙溪區三港里雙澳路26號","121.869486666667","25.04829","6502500","雙溪區"
"227002","400-TW","2019/09/07 15:49:34","新北市雙溪區平林里外平林45-3號","121.851518333333","25.035905","6502500","雙溪區"
"236013","270-VK","2019/09/07 15:49:33","新北市板橋區四川路二段245巷125號","121.453606666667","24.9927733333333","6501300","土城區"
"247012","KED-0683","2019/09/07 15:45:32","新北市五股區中興路三段163號","121.449288333333","25.08068","6501400","蘆洲區"
"236068","KEA-2877","2019/09/07 15:49:30","新北市土城區福安街1號","121.420353333333","24.9651566666667","6501300","土城區"
"236017","401-BY","2019/09/07 15:49:42","新北市土城區延吉街5巷1號","121.471938333333","24.98931","6501300","土城區"
"236057","912-UM","2019/09/07 15:49:38","新北市土城區中正路1號","121.44208","24.9750233333333","6501300","土城區"
"235061","KEA-2875","2019/09/07 15:36:58","新北市中和區員山路36巷13號","121.484408333333","24.9911916666667","6500300","中和區"
