"lineid","car","time","location","longitude","latitude","cityid","cityname"
"249005","172-UM","2019/09/07 17:09:32","新北市八里區華富山3-1號","121.415928333333","25.1463666666667","6502300","八里區"
"249001","173-UM","2019/09/07 17:09:44","新北市八里區中華路二段201號","121.405621666667","25.1497183333333","6502300","八里區"
"249004","303-UY","2019/09/07 17:09:47","新北市八里區忠孝路85號","121.424841666667","25.160545","6502300","八里區"
"249002","305-UY","2019/09/07 17:09:41","新北市八里區米倉18號","121.440015","25.149995","6502300","八里區"
"244007","080-UY","2019/09/07 17:09:42","新北市林口區菁埔10-2號","121.378486666667","25.09677","6501700","林口區"
"244019","402-UM","2019/09/07 17:09:32","新北市林口區公園路223巷1號","121.373936666667","25.0748683333333","6501700","林口區"
"244023","483-VK","2019/09/07 17:09:30","新北市林口區仁愛路一段665號","121.387781666667","25.0764583333333","6501700","林口區"
"244017","485-VK","2019/09/07 17:09:39","新北市林口區粉寮69號","121.405095","25.0908166666667","6501700","林口區"
"244009","656-BX","2019/09/07 17:09:47","新北市林口區文化北路二段550巷1號","121.37841","25.0922866666667","6501700","林口區"
"244025","837-TS","2019/09/07 17:09:38","新北市林口區中山路256-1號","121.38549","25.0795983333333","6501700","林口區"
"244021","838-TS","2019/09/07 17:09:38","新北市林口區粉寮路二段88巷7號","121.405111666667","25.0884866666667","6501700","林口區"
"231046","719-UM","2019/09/07 17:01:52","新北市新店區灣潭路15-2號","121.542646666667","24.9430183333333","6500600","新店區"
"241011","013-R5","2019/09/07 17:09:36","新北市三重區仁愛街53巷42號","121.49737","25.07237","6500200","三重區"
"241028","022-UY","2019/09/07 17:09:36","新北市三重區重新路三段108號","121.492388333333","25.06035","6500200","三重區"
"241008","059-VK","2019/09/07 17:09:39","新北市三重區力行路二段138-1號","121.482476666667","25.0756933333333","6500200","三重區"
"241015","062-VK","2019/09/07 17:09:44","新北市三重區長生街47號","121.499975","25.0664116666667","6500200","三重區"
"241017","063-VK","2019/09/07 17:09:33","新北市三重區大同北路91號","121.494728333333","25.0636533333333","6500200","三重區"
"241024","065-VK","2019/09/07 17:09:45","新北市三重區中正北路346號","121.477915","25.0692633333333","6500200","三重區"
"241007","066-VK","2019/09/07 17:09:36","新北市三重區三和路四段163巷79號","121.4861","25.0794266666667","6500200","三重區"
"241002","090-VK","2019/09/07 17:09:36","新北市三重區自強路五段27號","121.493388333333","25.0809","6500200","三重區"
"241003","091-VK","2019/09/07 17:09:44","新北市三重區富福街105號","121.493373333333","25.0855366666667","6500200","三重區"
"241006","262-UM","2019/09/07 17:09:30","新北市三重區三和路四段109號","121.48627","25.0772033333333","6500200","三重區"
"241009","267-UM","2019/09/07 17:09:36","新北市三重區仁愛街676號","121.482136666667","25.0802016666667","6500200","三重區"
"241018","268-UM","2019/09/07 17:09:30","新北市三重區正義北路332-1號","121.494338333333","25.0704033333333","6500200","三重區"
"241032","269-UM","2019/09/07 17:09:36","新北市三重區興華街14號","121.485681666667","25.059775","6500200","三重區"
"241013","270-UM","2019/09/07 17:09:36","新北市三重區仁孝街24號","121.496286666667","25.0741183333333","6500200","三重區"
"241030","KED-0822","2019/09/07 17:09:28","新北市三重區集成路49號","121.489441666667","25.0530866666667","6500200","三重區"
"241004","475-VK","2019/09/07 17:09:37","新北市三重區五華街124號","121.491783333333","25.0831116666667","6500200","三重區"
"241020","478-VK","2019/09/07 17:09:47","新北市三重區自強路三段18號","121.486943333333","25.07225","6500200","三重區"
"241026","480-VK","2019/09/07 17:09:39","新北市三重區重新路一段51-2號","121.50187","25.0638666666667","6500200","三重區"
"241014","543-UM","2019/09/07 17:09:44","新北市三重區龍濱路231號","121.50173","25.0721466666667","6500200","三重區"
"241023","545-UM","2019/09/07 17:09:46","新北市三重區忠孝路三段84巷1號","121.480256666667","25.0645716666667","6500200","三重區"
"241001","547-UM","2019/09/07 17:09:30","新北市三重區五華街1巷2號","121.49554","25.0796566666667","6500200","三重區"
"241019","KEA-2593","2019/09/07 17:09:36","新北市三重區自強路二段74巷63號","121.487015","25.0694933333333","6500200","三重區"
"241005","AAD-863","2019/09/07 17:09:36","新北市三重區永安北路二段35巷35號","121.483361666667","25.082355","6500200","三重區"
"241025","743-BX","2019/09/07 17:09:30","新北市三重區中正北路560巷89號","121.470913333333","25.068695","6500200","三重區"
"241022","KED-0820","2019/09/07 17:09:38","新北市三重區重陽路二段16號","121.486648333333","25.0623816666667","6500200","三重區"
"241016","887-TS","2019/09/07 17:09:36","新北市三重區大同北路54巷1號","121.494215","25.063555","6500200","三重區"
"241012","941-UM","2019/09/07 17:09:32","新北市三重區仁信街4號","121.501538333333","25.075615","6500200","三重區"
"241029","942-UM","2019/09/07 17:09:30","新北市三重區重新路四段43號","121.48794","25.057535","6500200","三重區"
"241033","AAC-255","2019/09/07 17:09:44","新北市三重區中興北街234號","121.468923333333","25.0607783333333","6500200","三重區"
"247016","KEA-2869","2019/09/07 17:09:28","新北市蘆洲區光華路71號","121.468046666667","25.0826966666667","6501400","蘆洲區"
"247010","KED-0682","2019/09/07 17:09:39","新北市蘆洲區三民路52號","121.47537","25.0836633333333","6501400","蘆洲區"
"235064","911-UM","2019/09/07 17:06:10","新北市中和區員山路36巷16-3號","121.485055","24.9912133333333","6500300","中和區"
"247006","893-R6","2019/09/07 17:09:35","新北市蘆洲區長安街102巷63號","121.462715","25.0820833333333","6501400","蘆洲區"
"247020","546-UM","2019/09/07 17:09:32","新北市蘆洲區民族路426巷51號","121.472555","25.0940016666667","6501400","蘆洲區"
"247018","500-BY","2019/09/07 17:09:27","新北市蘆洲區復興路162號","121.47754","25.0881083333333","6501400","蘆洲區"
"247008","341-TH","2019/09/07 17:09:29","新北市蘆洲區民生街53號","121.474746666667","25.0787766666667","6501400","蘆洲區"
"247004","336-TH","2019/09/07 17:09:37","新北市蘆洲區長安街140號","121.460131666667","25.0820566666667","6501400","蘆洲區"
"247024","057-VK","2019/09/07 17:09:32","新北市蘆洲區長興路7號","121.464495","25.0826683333333","6501400","蘆洲區"
"247014","056-VK","2019/09/07 17:09:34","新北市蘆洲區中央路2-1號","121.473306666667","25.0824616666667","6501400","蘆洲區"
"247022","007-UY","2019/09/07 17:09:38","新北市蘆洲區民族路377號","121.470043333333","25.0905883333333","6501400","蘆洲區"
"247002","001-UY","2019/09/07 17:09:43","新北市蘆洲區永樂街38巷2號","121.458113333333","25.0885083333333","6501400","蘆洲區"
"228003","097-TW","2019/09/07 17:09:42","新北市貢寮區福隆里東興街31-1號","121.952518333333","25.0206616666667","6502600","貢寮區"
"228001","212-TW","2019/09/07 17:09:26","新北市貢寮區仁理村研海街45號","121.926531666667","25.0404283333333","6502600","貢寮區"
"228002","663-BX","2019/09/07 17:09:47","新北市貢寮區龍崗里泮宮路43號","121.907998333333","25.017115","6502600","貢寮區"
"224006","676-BX","2019/09/07 17:09:44","新北市瑞芳區楓子瀨路95-1號","121.779788333333","25.0981716666667","6501200","瑞芳區"
"224009","275-VK","2019/09/07 17:09:44","新北市瑞芳區濱二路30號","121.842543333333","25.114225","6501200","瑞芳區"
"224008","273-VK","2019/09/07 17:09:32","新北市瑞芳區九芎橋路14號","121.832136666667","25.0914566666667","6501200","瑞芳區"
"224005","271-BY","2019/09/07 17:09:46","新北市瑞芳區鼻頭路95號","121.916081666667","25.124205","6501200","瑞芳區"
"227001","642-TC","2019/09/07 17:09:09","新北市雙溪區三貂里政光路13-5號","121.850648333333","25.070015","6502500","雙溪區"
"227002","400-TW","2019/09/07 17:09:34","新北市雙溪區上林里內平林12號","121.837205","25.0298433333333","6502500","雙溪區"
"251009","008-UM","2019/09/07 17:09:29","新北市淡水區中正路一段122號","121.422921666667","25.1785333333333","6501000","淡水區"
"251004","009-UM","2019/09/07 17:09:32","新北市淡水區中正東路二段88巷15號","121.459065","25.1505033333333","6501000","淡水區"
"251015","KEA-2871","2019/09/07 17:09:28","新北市淡水區忠愛街1號","121.454651666667","25.17138","6501000","淡水區"
"251016","179-VK","2019/09/07 17:09:46","新北市淡水區社厝坑3-6號","121.474873333333","25.1881683333333","6501000","淡水區"
"251008","181-VK","2019/09/07 17:09:31","新北市淡水區樹梅坑17號","121.471283333333","25.144145","6501000","淡水區"
"251013","182-VK","2019/09/07 17:09:31","新北市淡水區大埤頭6號","121.482936666667","25.1973716666667","6501000","淡水區"
"251010","413-VK","2019/09/07 17:09:34","新北市淡水區中正路二段31號","121.419631666667","25.1815016666667","6501000","淡水區"
"251012","441-VK","2019/09/07 17:09:38","新北市淡水區中山北路一段108號","121.442776666667","25.1767266666667","6501000","淡水區"
"251007","442-VK","2019/09/07 17:09:31","新北市淡水區民生路56號","121.462005","25.1379366666667","6501000","淡水區"
"251005","443-VK","2019/09/07 17:09:32","新北市淡水區鄧公路19-1號","121.450268333333","25.16995","6501000","淡水區"
"251006","561-UM","2019/09/07 17:09:44","新北市淡水區真理街6號","121.438438333333","25.1745083333333","6501000","淡水區"
"251014","577-R6","2019/09/07 17:09:29","新北市淡水區八里堆7-6號","121.461255","25.2244766666667","6501000","淡水區"
"251011","650-BX","2019/09/07 17:09:41","新北市淡水區坪頂路50號","121.457975","25.162545","6501000","淡水區"
"252002","178-VK","2019/09/07 17:09:37","新北市三芝區忠孝街1-42號","121.505901666667","25.2531316666667","6502100","三芝區"
"233002","762-BX","2019/09/07 17:09:47","新北市烏來區西羅岸路6號","121.548115","24.8655016666667","6502900","烏來區"
"247012","KED-0683","2019/09/07 17:09:29","新北市蘆洲區信義路268號","121.478156666667","25.0868733333333","6501400","蘆洲區"
"252001","KED-0821","2019/09/07 17:09:34","新北市三芝區淡金路一段4-5號","121.498001666667","25.259995","6502100","三芝區"
"242042","AAC-296","2019/09/07 17:09:08","新北市新莊區新泰路357巷3弄57號","121.441908333333","25.03943","6500500","新莊區"
"242061","986-R7","2019/09/07 17:09:34","新北市新莊區新泰路357巷1弄57號","121.442561666667","25.0397","6500500","新莊區"
"242004","751-BX","2019/09/07 17:09:36","新北市新莊區三和路12-21號","121.442298333333","25.0386","6500500","新莊區"
"242058","705-TV","2019/09/07 17:09:38","新北市新莊區三和路12-17號","121.442273333333","25.0375533333333","6500500","新莊區"
"242029","615-BX","2019/09/07 17:09:33","新北市新莊區新泰路357巷3弄57號","121.44204","25.0392816666667","6500500","新莊區"
"242027","613-BX","2019/09/07 17:09:39","新北市新莊區新泰路255巷83號","121.442411666667","25.03924","6500500","新莊區"
"242048","566-BX","2019/09/07 17:09:36","新北市泰山區中山路二段410號","121.431461666667","25.042855","6500500","新莊區"
"242053","497-BY","2019/09/07 17:09:36","新北市新莊區新泰路357巷3弄23號","121.442031666667","25.040705","6500500","新莊區"
"242002","441-UM","2019/09/07 17:09:42","新北市新莊區三和路12-15號","121.442111666667","25.03728","6500500","新莊區"
"242007","440-UM","2019/09/07 17:09:28","新北市新莊區新泰路255巷83號","121.442311666667","25.0388683333333","6500500","新莊區"
"242044","415-TV","2019/09/07 17:09:43","新北市新莊區新泰路357巷3弄49號","121.441936666667","25.04013","6500500","新莊區"
"242013","413-TV","2019/09/07 17:09:28","新北市新莊區新泰路357巷3弄57號","121.442038333333","25.0394416666667","6500500","新莊區"
"242051","400-BY","2019/09/07 17:09:25","新北市新莊區新莊路773號","121.442005","25.0327266666667","6500500","新莊區"
"242025","362-BY","2019/09/07 17:09:40","新北市新莊區新泰路255巷83號","121.442016666667","25.039005","6500500","新莊區"
"242023","353-BY","2019/09/07 17:09:34","新北市新莊區新泰路357巷3弄57號","121.44204","25.0391483333333","6500500","新莊區"
"242017","173-VK","2019/09/07 17:09:32","新北市新莊區三和路12-21號","121.44193","25.0387066666667","6500500","新莊區"
"242030","175-VK","2019/09/07 17:09:30","新北市新莊區三和路12-21號","121.441981666667","25.038665","6500500","新莊區"
"242021","KED-0687","2019/09/07 17:09:44","新北市新莊區三和路12-21號","121.442295","25.0380066666667","6500500","新莊區"
"242036","348-TH","2019/09/07 17:09:31","新北市新莊區新泰路413巷25號","121.442475","25.0442666666667","6500500","新莊區"
"242009","349-TH","2019/09/07 17:09:42","新北市新莊區三和路12-21號","121.442318333333","25.038365","6500500","新莊區"
"242034","350-TH","2019/09/07 17:09:38","新北市新莊區新泰路357巷3弄45號","121.441988333333","25.0402133333333","6500500","新莊區"
"242019","351-TH","2019/09/07 17:09:29","新北市新莊區新泰路357巷3弄57號","121.442056666667","25.0394933333333","6500500","新莊區"
"238019","599-UM","2019/09/07 17:09:35","新北市樹林區育德街78號","121.387556666667","24.9684216666667","6500700","樹林區"
"238017","283-BY","2019/09/07 17:09:24","新北市樹林區大安路316號","121.417273333333","24.991775","6500700","樹林區"
"238014","282-BY","2019/09/07 17:09:40","新北市樹林區文化街91巷6號","121.415925","24.9895583333333","6500700","樹林區"
"238016","169-UY","2019/09/07 17:09:28","新北市樹林區八德街1號","121.417576666667","24.9849816666667","6500700","樹林區"
"239007","AAC-297","2019/09/07 17:09:36","新北市鶯歌區信義街6號","121.353338333333","24.955745","6500800","鶯歌區"
"239006","891-R6","2019/09/07 17:09:35","新北市鶯歌區八德路2巷20弄1號","121.336376666667","24.9465683333333","6500800","鶯歌區"
"239008","527-UM","2019/09/07 17:09:47","新北市鶯歌區尖山路101巷1-3號","121.347871666667","24.94725","6500800","鶯歌區"
"239001","417-VK","2019/09/07 17:09:33","新北市鶯歌區尖山路140巷8號","121.346398333333","24.9492816666667","6500800","鶯歌區"
"239003","360-BY","2019/09/07 17:09:29","新北市鶯歌區八德路16號","121.330661666667","24.9554516666667","6500800","鶯歌區"
"239002","359-BY","2019/09/07 17:09:31","新北市鶯歌區建國路224號","121.348618333333","24.9534666666667","6500800","鶯歌區"
"239004","193-VK","2019/09/07 17:09:31","新北市鶯歌區文化路324巷3弄1號","121.349681666667","24.94515","6500800","鶯歌區"
"233001","KEA-2870","2019/09/07 17:09:35","新北市烏來區野要街30-1號","121.548533333333","24.85435","6502900","烏來區"
"242046","281-VK","2019/09/07 17:09:29","新北市新莊區新泰路357巷3弄49號","121.441935","25.040085","6500500","新莊區"
"242011","280-VK","2019/09/07 17:09:35","新北市新莊區三和路12-21號","121.441773333333","25.038365","6500500","新莊區"
"235062","KEA-2876","2019/09/07 17:03:52","新北市中和區員山路36巷16-3號","121.485085","24.9913433333333","6500300","中和區"
