"lineid","car","time","location","longitude","latitude","cityid","cityname"
"249005","172-UM","2019/09/07 17:19:32","新北市五股區凌雲路三段118-3號","121.419718333333","25.128885","6502300","八里區"
"249001","173-UM","2019/09/07 17:19:24","新北市八里區中華路二段165巷3號","121.407651666667","25.1508766666667","6502300","八里區"
"249004","303-UY","2019/09/07 17:19:27","新北市八里區賢三街86號","121.417528333333","25.157965","6502300","八里區"
"249002","305-UY","2019/09/07 17:19:41","新北市八里區龍米路二段117巷20號","121.445073333333","25.1428383333333","6502300","八里區"
"244007","080-UY","2019/09/07 17:19:42","新北市林口區湖子17號","121.385888333333","25.09076","6501700","林口區"
"244019","402-UM","2019/09/07 17:19:32","新北市林口區公園路165號","121.371131666667","25.07158","6501700","林口區"
"244023","483-VK","2019/09/07 17:19:30","新北市林口區隆林街96號","121.3858","25.0751133333333","6501700","林口區"
"244017","485-VK","2019/09/07 17:19:39","新北市林口區中山路164號","121.390505","25.0787716666667","6501700","林口區"
"244009","656-BX","2019/09/07 17:19:27","新北市林口區中北一街76號","121.385748333333","25.0887783333333","6501700","林口區"
"244011","701-TV","2019/09/07 17:19:44","新北市林口區中正路345巷1弄1號","121.387913333333","25.077285","6501700","林口區"
"244025","837-TS","2019/09/07 17:19:38","新北市林口區仁愛二路63號","121.368471666667","25.07537","6501700","林口區"
"244021","838-TS","2019/09/07 17:19:38","新北市林口區粉寮路二段458號","121.404335","25.09878","6501700","林口區"
"231046","719-UM","2019/09/07 17:12:32","新北市新店區直潭一街64號","121.535578333333","24.940395","6500600","新店區"
"241011","013-R5","2019/09/07 17:19:36","新北市三重區河邊北街108號","121.503715","25.070875","6500200","三重區"
"241028","022-UY","2019/09/07 17:19:36","新北市三重區仁化街107號","121.494496666667","25.058005","6500200","三重區"
"241008","059-VK","2019/09/07 17:19:39","新北市三重區永福街72巷25號","121.47996","25.076445","6500200","三重區"
"241015","062-VK","2019/09/07 17:19:44","新北市三重區福德北路82號","121.501731666667","25.0662916666667","6500200","三重區"
"241017","063-VK","2019/09/07 17:19:33","新北市三重區大同北路91號","121.494606666667","25.0636766666667","6500200","三重區"
"241024","065-VK","2019/09/07 17:19:45","新北市三重區中正北路191巷1號","121.477403333333","25.0698516666667","6500200","三重區"
"241007","066-VK","2019/09/07 17:19:36","新北市三重區慈愛街9-1號","121.485161666667","25.0786566666667","6500200","三重區"
"241003","091-VK","2019/09/07 17:19:44","新北市三重區富福街33號","121.490861666667","25.083685","6500200","三重區"
"241009","267-UM","2019/09/07 17:19:36","新北市三重區三和路四段141號","121.48445","25.0781316666667","6500200","三重區"
"241018","268-UM","2019/09/07 17:19:30","新北市三重區安慶街203-1號","121.492911666667","25.0682883333333","6500200","三重區"
"241032","269-UM","2019/09/07 17:19:06","新北市三重區中華路18號","121.483161666667","25.06073","6500200","三重區"
"241013","270-UM","2019/09/07 17:19:36","新北市三重區仁愛街104號","121.495366666667","25.074175","6500200","三重區"
"241030","KED-0822","2019/09/07 17:19:28","新北市三重區集美街117號","121.490001666667","25.0528066666667","6500200","三重區"
"241020","478-VK","2019/09/07 17:19:27","新北市三重區永德街9號","121.489203333333","25.072555","6500200","三重區"
"241026","480-VK","2019/09/07 17:19:39","新北市三重區正義南路20號","121.498235","25.0614366666667","6500200","三重區"
"241014","543-UM","2019/09/07 17:19:24","新北市三重區三和路二段83號","121.500146666667","25.0684383333333","6500200","三重區"
"241023","545-UM","2019/09/07 17:19:26","新北市三重區忠孝路三段50巷56號","121.482423333333","25.06506","6500200","三重區"
"241001","547-UM","2019/09/07 17:19:30","新北市三重區碧華街211號","121.488548333333","25.0828333333333","6500200","三重區"
"241019","KEA-2593","2019/09/07 17:19:36","新北市三重區忠孝路二段2-1號","121.486843333333","25.071385","6500200","三重區"
"241005","AAD-863","2019/09/07 17:19:36","新北市三重區永安北路二段5巷42號","121.483105","25.081355","6500200","三重區"
"241025","743-BX","2019/09/07 17:19:30","新北市三重區中正北路380號","121.476593333333","25.069735","6500200","三重區"
"241022","KED-0820","2019/09/07 17:19:38","新北市三重區中正北路64巷20號","121.4861","25.0638033333333","6500200","三重區"
"241016","887-TS","2019/09/07 17:19:36","新北市三重區大同北路97-3號","121.494343333333","25.0636683333333","6500200","三重區"
"241012","941-UM","2019/09/07 17:19:32","新北市三重區仁昌街97號","121.49984","25.0750916666667","6500200","三重區"
"241029","942-UM","2019/09/07 17:19:10","新北市三重區重新路三段204號","121.490103333333","25.0582483333333","6500200","三重區"
"241033","AAC-255","2019/09/07 17:19:44","新北市三重區中興北街136號","121.46891","25.0561533333333","6500200","三重區"
"247016","KEA-2869","2019/09/07 17:19:28","新北市蘆洲區正和街96巷35號","121.467373333333","25.0814233333333","6501400","蘆洲區"
"247010","KED-0682","2019/09/07 17:19:39","新北市蘆洲區中山一路120巷7弄2號","121.477436666667","25.081905","6501400","蘆洲區"
"235064","911-UM","2019/09/07 17:19:41","新北市中和區員山路36巷16-3號","121.485096666667","24.9911266666667","6500300","中和區"
"247006","893-R6","2019/09/07 17:19:35","新北市蘆洲區長安街73巷13號","121.462246666667","25.0794916666667","6501400","蘆洲區"
"247020","546-UM","2019/09/07 17:19:32","新北市蘆洲區仁愛街31號","121.472136666667","25.092695","6501400","蘆洲區"
"247018","500-BY","2019/09/07 17:19:28","新北市蘆洲區民權路96巷3弄2號","121.474645","25.0885383333333","6501400","蘆洲區"
"247008","341-TH","2019/09/07 17:19:29","新北市蘆洲區永安北路一段72巷31號","121.476223333333","25.07693","6501400","蘆洲區"
"247004","336-TH","2019/09/07 17:19:37","新北市蘆洲區中原路64號","121.458671666667","25.0822016666667","6501400","蘆洲區"
"247024","057-VK","2019/09/07 17:19:31","新北市蘆洲區長榮路345號","121.459546666667","25.08766","6501400","蘆洲區"
"247014","056-VK","2019/09/07 17:19:34","新北市蘆洲區中正路94號","121.470238333333","25.0840016666667","6501400","蘆洲區"
"247022","007-UY","2019/09/07 17:19:38","新北市蘆洲區民義街9巷7號","121.471081666667","25.08878","6501400","蘆洲區"
"247002","001-UY","2019/09/07 17:19:43","新北市蘆洲區永樂街38巷31號","121.458156666667","25.0893916666667","6501400","蘆洲區"
"228003","097-TW","2019/09/07 17:19:43","新北市貢寮區福隆里興隆街24-1號","121.944411666667","25.0166683333333","6502600","貢寮區"
"228001","212-TW","2019/09/07 17:19:46","新北市貢寮區仁理村仁和路1號","121.923555","25.0481916666667","6502600","貢寮區"
"228002","663-BX","2019/09/07 17:19:46","新北市貢寮區雙玉里下雙溪街26號","121.923895","25.0100783333333","6502600","貢寮區"
"224006","676-BX","2019/09/07 17:19:24","新北市瑞芳區傑魚坑路261號","121.787271666667","25.10612","6501200","瑞芳區"
"224009","275-VK","2019/09/07 17:19:45","新北市瑞芳區汽車路157號","121.838348333333","25.109935","6501200","瑞芳區"
"224008","273-VK","2019/09/07 17:19:32","新北市瑞芳區侯硐路48號","121.825745","25.0829183333333","6501200","瑞芳區"
"224005","271-BY","2019/09/07 17:19:45","新北市瑞芳區鼻頭路247號","121.902541666667","25.1217216666667","6501200","瑞芳區"
"227001","642-TC","2019/09/07 17:19:29","新北市雙溪區三貂里十三層5號","121.85052","25.0645483333333","6502500","雙溪區"
"227002","400-TW","2019/09/07 17:19:34","新北市雙溪區平林里梅竹蹊42號","121.861251666667","25.0359333333333","6502500","雙溪區"
"251009","008-UM","2019/09/07 17:19:29","新北市淡水區三民街22號","121.439065","25.1718133333333","6501000","淡水區"
"251004","009-UM","2019/09/07 17:11:15","新北市淡水區中正東路二段88巷15號","121.459065","25.150505","6501000","淡水區"
"251015","KEA-2871","2019/09/07 17:19:28","新北市淡水區樹林口22號","121.477456666667","25.1698766666667","6501000","淡水區"
"251016","179-VK","2019/09/07 17:19:46","新北市淡水區社厝坑5-1號","121.470441666667","25.1899083333333","6501000","淡水區"
"251008","181-VK","2019/09/07 17:19:31","新北市淡水區大同路293號","121.46775","25.14238","6501000","淡水區"
"251013","182-VK","2019/09/07 17:19:31","新北市淡水區破瓦厝子3-5號","121.472086666667","25.1975833333333","6501000","淡水區"
"251010","413-VK","2019/09/07 17:19:34","新北市淡水區中正路一段22巷100號","121.426898333333","25.1859866666667","6501000","淡水區"
"251012","441-VK","2019/09/07 17:19:38","新北市淡水區中山北路一段156號","121.44421","25.1779333333333","6501000","淡水區"
"251007","442-VK","2019/09/07 17:19:31","新北市淡水區民生路56號","121.462005","25.1379366666667","6501000","淡水區"
"251005","443-VK","2019/09/07 17:19:32","新北市淡水區鄧公路19號","121.451401666667","25.169965","6501000","淡水區"
"251006","561-UM","2019/09/07 17:19:44","新北市淡水區大智街10號","121.441648333333","25.17452","6501000","淡水區"
"251014","577-R6","2019/09/07 17:18:09","新北市淡水區番子田114號","121.463776666667","25.2295883333333","6501000","淡水區"
"251011","650-BX","2019/09/07 17:19:41","新北市淡水區坪頂路70巷6號","121.459175","25.162855","6501000","淡水區"
"251003","766-UM","2019/09/07 17:19:39","新北市淡水區中正路一段25號","121.426206666667","25.1763466666667","6501000","淡水區"
"207003","550-UM","2019/09/07 17:19:29","新北市萬里區萬里里獅頭路23號","121.693446666667","25.178225","6502800","萬里區"
"252002","178-VK","2019/09/07 17:19:37","新北市三芝區忠孝街1-14號","121.505553333333","25.2539433333333","6502100","三芝區"
"233002","762-BX","2019/09/07 17:19:27","新北市烏來區環山路82巷84號","121.54786","24.8634866666667","6502900","烏來區"
"247012","KED-0683","2019/09/07 17:19:36","新北市蘆洲區信義路319巷6號","121.4779","25.086295","6501400","蘆洲區"
"252001","KED-0821","2019/09/07 17:19:34","新北市三芝區長安街119號","121.498005","25.2596333333333","6502100","三芝區"
"242042","AAC-296","2019/09/07 17:19:28","新北市新莊區新樹路52-5號","121.437213333333","25.0270166666667","6500500","新莊區"
"242061","986-R7","2019/09/07 17:19:34","新北市新莊區公園一路67號","121.442371666667","25.0369333333333","6500500","新莊區"
"242004","751-BX","2019/09/07 17:19:36","新北市新莊區復興路一段95號","121.448853333333","25.0427716666667","6500500","新莊區"
"242058","705-TV","2019/09/07 17:16:38","新北市新莊區三和路12-16號","121.442255","25.0374616666667","6500500","新莊區"
"242029","615-BX","2019/09/07 17:19:33","新北市新莊區幸福路509號","121.455835","25.04928","6500500","新莊區"
"242027","613-BX","2019/09/07 17:19:39","新北市新莊區中港路333號","121.452418333333","25.0451383333333","6500500","新莊區"
"242048","566-BX","2019/09/07 17:19:36","新北市新莊區龍安路75號","121.41573","25.02143","6500500","新莊區"
"242053","497-BY","2019/09/07 17:19:36","新北市新莊區環河路636-1號","121.436698333333","25.0107533333333","6500500","新莊區"
"242002","441-UM","2019/09/07 17:19:42","新北市新莊區瓊林路50-1號","121.446135","25.0287516666667","6500500","新莊區"
"242007","440-UM","2019/09/07 17:19:28","新北市新莊區中平路75號","121.444681666667","25.0450133333333","6500500","新莊區"
"242044","415-TV","2019/09/07 17:19:43","新北市新莊區富國路156號","121.423271666667","25.02492","6500500","新莊區"
"242013","413-TV","2019/09/07 17:19:28","新北市新莊區新泰路502巷54號","121.444411666667","25.0463733333333","6500500","新莊區"
"242051","400-BY","2019/09/07 17:19:45","新北市新莊區瓊林南路12-3號","121.436225","25.0188883333333","6500500","新莊區"
"242025","362-BY","2019/09/07 17:19:40","新北市新莊區中平路82巷8號","121.445113333333","25.0448466666667","6500500","新莊區"
"242023","353-BY","2019/09/07 17:19:34","新北市新莊區中平路82巷12號","121.445298333333","25.044765","6500500","新莊區"
"242039","135-UY","2019/09/07 17:19:29","新北市新莊區民安路318號","121.428735","25.0220816666667","6500500","新莊區"
"242056","172-VK","2019/09/07 17:19:37","新北市新莊區新莊路658號","121.442515","25.032865","6500500","新莊區"
"242017","173-VK","2019/09/07 17:19:32","新北市新莊區三和路12-21號","121.442105","25.0384583333333","6500500","新莊區"
"242031","175-VK","2019/09/07 17:19:30","新北市新莊區新泰路462號","121.443236666667","25.0447983333333","6500500","新莊區"
"242021","KED-0687","2019/09/07 17:19:25","新北市新莊區新泰路210號","121.446743333333","25.0386433333333","6500500","新莊區"
"242015","346-TH","2019/09/07 17:19:39","新北市新莊區新泰路319號","121.4451","25.041475","6500500","新莊區"
"242036","348-TH","2019/09/07 17:19:31","新北市新莊區民安路429巷3號","121.433961666667","25.0232133333333","6500500","新莊區"
"242009","349-TH","2019/09/07 17:19:42","新北市新莊區立信三街25-7號","121.442403333333","25.0501216666667","6500500","新莊區"
"242034","350-TH","2019/09/07 17:19:38","新北市新莊區瓊林路46-3號","121.447336666667","25.0293516666667","6500500","新莊區"
"242019","351-TH","2019/09/07 17:19:28","新北市新莊區中平路82巷20號","121.445636666667","25.044765","6500500","新莊區"
"238015","755-BX","2019/09/07 17:19:30","新北市樹林區大安路267號","121.419045","24.993725","6500700","樹林區"
"238023","601-UM","2019/09/07 17:19:29","新北市樹林區中正路439-1號","121.41501","25.0089866666667","6500700","樹林區"
"238019","599-UM","2019/09/07 17:19:35","新北市樹林區八德街328號","121.40925","24.9697266666667","6500700","樹林區"
"238024","5061-A6","2019/09/07 17:19:29","新北市樹林區樹新路81號","121.427593333333","24.9951966666667","6500700","樹林區"
"238018","KEA-2217","2019/09/07 17:19:39","新北市樹林區樹中街38號","121.421168333333","24.9853516666667","6500700","樹林區"
"238022","KEA-2213","2019/09/07 17:19:36","新北市樹林區仁愛街54號","121.423888333333","24.9828916666667","6500700","樹林區"
"238021","KEA-2539","2019/09/07 17:19:35","新北市樹林區西圳街一段71號","121.40033","24.9629866666667","6500700","樹林區"
"238017","283-BY","2019/09/07 17:19:24","新北市樹林區光武街32巷6號","121.416415","25.0056616666667","6500700","樹林區"
"238014","282-BY","2019/09/07 17:19:40","新北市樹林區大安路211號","121.420491666667","24.99534","6500700","樹林區"
"238020","268-VK","2019/09/07 17:19:33","新北市樹林區千歲街101-2號","121.428571666667","25.000885","6500700","樹林區"
"238026","172-UY","2019/09/07 17:19:33","新北市樹林區東順街86號","121.408418333333","24.9756783333333","6500700","樹林區"
"238016","169-UY","2019/09/07 17:19:28","新北市樹林區中山路二段10號","121.417631666667","24.9850933333333","6500700","樹林區"
"239007","AAC-297","2019/09/07 17:19:36","新北市鶯歌區光復街25號","121.351461666667","24.955535","6500800","鶯歌區"
"239006","891-R6","2019/09/07 17:19:45","新北市鶯歌區福昌街4號","121.333356666667","24.9608","6500800","鶯歌區"
"239008","527-UM","2019/09/07 17:19:27","新北市鶯歌區中山路37號","121.351926666667","24.956965","6500800","鶯歌區"
"239005","526-UM","2019/09/07 17:19:43","新北市鶯歌區福德二街10號","121.329988333333","24.967425","6500800","鶯歌區"
"239001","417-VK","2019/09/07 17:19:33","新北市鶯歌區尖山路177號","121.344826666667","24.94752","6500800","鶯歌區"
"239003","360-BY","2019/09/07 17:19:29","新北市鶯歌區德昌街27號","121.333205","24.9596583333333","6500800","鶯歌區"
"239002","359-BY","2019/09/07 17:19:31","新北市鶯歌區建國路170號","121.350166666667","24.9535766666667","6500800","鶯歌區"
"239004","193-VK","2019/09/07 17:19:31","新北市鶯歌區文化路417-5號","121.353005","24.9487983333333","6500800","鶯歌區"
"233001","KEA-2870","2019/09/07 17:19:35","新北市烏來區環山路181-1號","121.549926666667","24.8526133333333","6502900","烏來區"
"242046","281-VK","2019/09/07 17:19:29","新北市新莊區新樹路65-7號","121.439408333333","25.030745","6500500","新莊區"
"242011","280-VK","2019/09/07 17:19:35","新北市新莊區新泰路502巷46號","121.444066666667","25.0464116666667","6500500","新莊區"
"235062","KEA-2876","2019/09/07 17:19:28","新北市中和區員山路36巷16-3號","121.485056666667","24.9913883333333","6500300","中和區"
