"lineid","car","time","location","longitude","latitude","cityid","cityname"
"234026","9371-KE","2019/09/07 17:59:40","新北市永和區水源街2巷24號","121.512123333333","25.005735","6500400","永和區"
"249005","172-UM","2019/09/07 17:59:32","新北市八里區荖阡坑路16號","121.397831666667","25.138285","6502300","八里區"
"249001","173-UM","2019/09/07 17:59:46","新北市八里區龍米路二段41號","121.44831","25.1402233333333","6502300","八里區"
"249004","303-UY","2019/09/07 17:59:26","新北市八里區龍米路三段15號","121.428033333333","25.1589083333333","6502300","八里區"
"249002","305-UY","2019/09/07 17:59:41","新北市八里區龍形五街15號","121.450051666667","25.1334616666667","6502300","八里區"
"249003","593-UM","2019/09/07 17:59:40","新北市八里區中華路二段165巷19弄20號","121.410065","25.151535","6502300","八里區"
"248016","026-BX","2019/09/07 17:59:40","新北市五股區中興路二段163號","121.457615","25.077615","6501500","五股區"
"248020","KED-0813","2019/09/07 17:59:41","新北市五股區中興路二段63巷17號","121.46029","25.0753166666667","6501500","五股區"
"248004","677-BX","2019/09/07 17:59:34","新北市五股區更洲路47號","121.456893333333","25.0790816666667","6501500","五股區"
"232011","375-UM","2019/09/07 17:59:35","新北市坪林區北宜路八段229號","121.709051666667","24.9350166666667","6502000","坪林區"
"244007","080-UY","2019/09/07 17:59:42","新北市林口區林口路134號","121.388158333333","25.0818616666667","6501700","林口區"
"244019","402-UM","2019/09/07 17:59:32","新北市林口區文化一路一段100巷12號","121.373936666667","25.0707","6501700","林口區"
"244013","KEA-2802","2019/09/07 17:59:43","新北市林口區中山路160巷15號","121.391533333333","25.0796783333333","6501700","林口區"
"244023","483-VK","2019/09/07 17:59:30","新北市林口區育林街30號","121.385983333333","25.073745","6501700","林口區"
"244017","485-VK","2019/09/07 17:59:39","新北市林口區忠孝路372號","121.369178333333","25.0714166666667","6501700","林口區"
"244009","656-BX","2019/09/07 17:59:27","新北市林口區竹林路606巷22號","121.385486666667","25.0829116666667","6501700","林口區"
"244011","701-TV","2019/09/07 17:59:44","新北市林口區中正路79號","121.394866666667","25.0773683333333","6501700","林口區"
"244025","837-TS","2019/09/07 17:59:38","新北市林口區三民路18號","121.358661666667","25.06661","6501700","林口區"
"244021","838-TS","2019/09/07 17:59:39","新北市林口區新寮27號","121.397098333333","25.067825","6501700","林口區"
"222003","436-BY","2019/09/07 17:59:27","新北市深坑區炮子崙24號","121.605205","24.9877183333333","6501800","深坑區"
"222002","659-BX","2019/09/07 17:59:33","新北市深坑區平埔街7號","121.615548333333","25.0009566666667","6501800","深坑區"
"241024","065-VK","2019/09/07 17:59:25","新北市三重區國道路一段39巷1號","121.48406","25.0730583333333","6500200","三重區"
"241016","887-TS","2019/09/07 17:59:36","新北市五股區中興路三段2-3號","121.452893333333","25.0746933333333","6500200","三重區"
"241033","AAC-255","2019/09/07 17:59:44","新北市三重區重新路五段513號","121.471645","25.04645","6500200","三重區"
"235063","006-UY","2019/09/07 17:59:33","新北市中和區員山路36巷16-3號","121.485096666667","24.9913633333333","6500300","中和區"
"235056","096-UM","2019/09/07 17:59:32","新北市中和區員山路36巷16-3號","121.484563333333","24.9911483333333","6500300","中和區"
"235065","098-UM","2019/09/07 17:59:29","新北市中和區中山路二段375號","121.487348333333","25.00485","6500300","中和區"
"235058","151-BY","2019/09/07 17:59:30","新北市中和區圓通路367巷33弄45號","121.495928333333","24.9857533333333","6500300","中和區"
"235038","185-VK","2019/09/07 17:59:35","新北市中和區中正路273號","121.495563333333","24.99369","6500300","中和區"
"235042","KEA-2878","2019/09/07 17:59:26","新北市中和區和城路一段271巷1號","121.4855","24.9918983333333","6500300","中和區"
"247016","KEA-2869","2019/09/07 17:59:42","新北市蘆洲區中正路185巷92號","121.465443333333","25.0838416666667","6501400","蘆洲區"
"247010","KED-0682","2019/09/07 17:59:39","新北市蘆洲區信義路214號","121.47899","25.0849883333333","6501400","蘆洲區"
"235045","565-BX","2019/09/07 17:59:33","新北市中和區中正路637巷60弄61號","121.485585","24.993115","6500300","中和區"
"235060","KED-0823","2019/09/07 17:59:39","新北市中和區和城路一段271巷1號","121.485511666667","24.9916016666667","6500300","中和區"
"235054","640-BX","2019/09/07 17:59:37","新北市中和區員山路72-1號","121.481108333333","24.993655","6500300","中和區"
"235057","801-TS","2019/09/07 17:59:36","新北市中和區員山路82巷6-3號","121.481313333333","24.9934766666667","6500300","中和區"
"235041","802-TS","2019/09/07 17:59:33","新北市中和區和城路一段271巷1號","121.485488333333","24.9915866666667","6500300","中和區"
"235052","805-TS","2019/09/07 17:59:36","新北市中和區中正路637巷52弄1號","121.485426666667","24.9934366666667","6500300","中和區"
"235064","911-UM","2019/09/07 17:59:41","新北市中和區中正路277號","121.495278333333","24.9937316666667","6500300","中和區"
"235051","157-BY","2019/09/07 17:59:33","新北市中和區員山路36巷13號","121.48438","24.9912516666667","6500300","中和區"
"235037","AAC-213","2019/09/07 17:59:30","新北市中和區景平路149號","121.513986666667","24.99205","6500300","中和區"
"247006","893-R6","2019/09/07 17:59:35","新北市蘆洲區中華街31號","121.463313333333","25.081355","6501400","蘆洲區"
"247020","546-UM","2019/09/07 17:59:32","新北市蘆洲區民權路121巷16弄2號","121.471395","25.0893466666667","6501400","蘆洲區"
"247018","500-BY","2019/09/07 17:59:27","新北市蘆洲區復興路312號","121.481556666667","25.090035","6501400","蘆洲區"
"247004","336-TH","2019/09/07 17:59:37","新北市蘆洲區永康街71號","121.456043333333","25.0852633333333","6501400","蘆洲區"
"247002","001-UY","2019/09/07 17:59:43","新北市蘆洲區永平街32巷45弄14號","121.458986666667","25.092665","6501400","蘆洲區"
"226004","312-R5","2019/09/07 17:59:32","新北市平溪區石底里公園街18-3號","121.733401666667","25.0257","6502400","平溪區"
"228003","097-TW","2019/09/07 17:59:43","新北市貢寮區真理里美艷山街6-2號","121.928835","25.0607633333333","6502600","貢寮區"
"228001","212-TW","2019/09/07 17:59:26","新北市貢寮區仁理村仁愛路106巷36號","121.929005","25.0535516666667","6502600","貢寮區"
"228002","663-BX","2019/09/07 17:59:46","新北市貢寮區福隆里桂安街17號","121.967483333333","25.023175","6502600","貢寮區"
"224006","676-BX","2019/09/07 17:59:44","新北市瑞芳區大寮路356-1號","121.784878333333","25.1032133333333","6501200","瑞芳區"
"224009","275-VK","2019/09/07 17:59:25","新北市瑞芳區山尖路197號","121.850853333333","25.1127583333333","6501200","瑞芳區"
"224008","273-VK","2019/09/07 17:59:44","新北市瑞芳區明燈路一段45巷105號","121.822186666667","25.1039933333333","6501200","瑞芳區"
"224005","271-BY","2019/09/07 17:59:25","新北市瑞芳區深澳路16-6號","121.819325","25.1309233333333","6501200","瑞芳區"
"227002","400-TW","2019/09/07 17:59:34","新北市雙溪區共和里東榮街52號","121.866345","25.0336766666667","6502500","雙溪區"
"253005","032-BX","2019/09/07 17:59:27","新北市石門區中山路62-6號","121.567226666667","25.29001","6502200","石門區"
"253006","295-VK","2019/09/07 17:59:39","新北市石門區大丘田45-1號","121.549765","25.2751466666667","6502200","石門區"
"222001","KEA-2212","2019/09/07 17:59:43","新北市深坑區北深路二段185號","121.612265","25.0012216666667","6501800","深坑區"
"208002","KEA-2872","2019/09/07 17:59:41","新北市金山區三界壇路56號","121.620981666667","25.2301933333333","6502700","金山區"
"208003","665-BX","2019/09/07 17:59:36","新北市金山區磺港里磺港路127號","121.646276666667","25.2276183333333","6502700","金山區"
"251009","008-UM","2019/09/07 17:59:29","新北市淡水區中山路163號","121.441018333333","25.173475","6501000","淡水區"
"251004","009-UM","2019/09/07 17:59:32","新北市淡水區民權路187號","121.459671666667","25.1335583333333","6501000","淡水區"
"251015","KEA-2871","2019/09/07 17:59:28","新北市淡水區興福寮31-1號","121.489688333333","25.1627116666667","6501000","淡水區"
"251016","179-VK","2019/09/07 17:59:46","新北市淡水區淡金路三段36號","121.448061666667","25.1990683333333","6501000","淡水區"
"251008","181-VK","2019/09/07 17:59:31","新北市淡水區八勢一街40號","121.461455","25.15517","6501000","淡水區"
"251013","182-VK","2019/09/07 17:59:31","新北市淡水區泉洲厝31號","121.479555","25.1910016666667","6501000","淡水區"
"251010","413-VK","2019/09/07 17:59:34","新北市淡水區中正路一段87巷1號","121.421713333333","25.1791016666667","6501000","淡水區"
"251012","441-VK","2019/09/07 17:59:38","新北市淡水區北新路三段38巷7號","121.484493333333","25.186975","6501000","淡水區"
"251005","443-VK","2019/09/07 17:59:32","新北市淡水區英專路130號","121.44644","25.1726433333333","6501000","淡水區"
"251001","559-UM","2019/09/07 17:59:29","新北市淡水區民權路94巷1號","121.463126666667","25.1248266666667","6501000","淡水區"
"251006","561-UM","2019/09/07 17:59:44","新北市淡水區真理街1號","121.438178333333","25.1729183333333","6501000","淡水區"
"251014","577-R6","2019/09/07 17:59:29","新北市淡水區公埔子16-6號","121.480885","25.224295","6501000","淡水區"
"251011","650-BX","2019/09/07 17:54:43","新北市淡水區吳(仔)厝9號","121.479086666667","25.14698","6501000","淡水區"
"251002","672-BX","2019/09/07 17:59:29","新北市淡水區鼻頭街18-5號","121.446211666667","25.1669416666667","6501000","淡水區"
"251003","766-UM","2019/09/07 17:59:39","新北市淡水區大忠街47號","121.444741666667","25.1763933333333","6501000","淡水區"
"207003","550-UM","2019/09/07 17:59:29","新北市萬里區野柳里東澳路66號","121.692788333333","25.20094","6502800","萬里區"
"207004","291-VK","2019/09/07 17:59:32","新北市萬里區萬里里瑪鋉路5號","121.686131666667","25.1749416666667","6502800","萬里區"
"252002","178-VK","2019/09/07 17:59:37","新北市三芝區中山路二段39號","121.502951666667","25.2551366666667","6502100","三芝區"
"208001","170-UY","2019/09/07 17:59:30","新北市金山區磺港里磺港路228號","121.644523333333","25.2256316666667","6502700","金山區"
"237007","153-BY","2019/09/07 17:59:43","新北市三峽區中園街149號","121.367251666667","24.9228983333333","6500900","三峽區"
"237009","210-TH","2019/09/07 17:59:38","新北市三峽區中山路106巷5號","121.366071666667","24.9360666666667","6500900","三峽區"
"237013","252-BX","2019/09/07 17:59:30","新北市三峽區長泰街70-2號","121.376663333333","24.9334016666667","6500900","三峽區"
"237012","275-BY","2019/09/07 17:59:32","新北市三峽區民生街19巷9號","121.376141666667","24.9359133333333","6500900","三峽區"
"237008","302-VK","2019/09/07 17:59:46","新北市三峽區白雞33-21號","121.370961666667","24.9120783333333","6500900","三峽區"
"237014","433-BY","2019/09/07 17:59:45","新北市三峽區和平街36巷7弄6號","121.370921666667","24.9374016666667","6500900","三峽區"
"237006","5529-G3","2019/09/07 17:59:37","新北市三峽區介壽路二段138巷1弄42-3號","121.398033333333","24.9327666666667","6500900","三峽區"
"237011","KEA-2596","2019/09/07 17:59:35","新北市三峽區中正路一段60-1號","121.375","24.9302033333333","6500900","三峽區"
"237015","649-BX","2019/09/07 17:59:30","新北市三峽區詩朗139號","121.405036666667","24.910825","6500900","三峽區"
"237010","706-TV","2019/09/07 17:59:36","新北市三峽區仁愛街18號","121.368286666667","24.9325166666667","6500900","三峽區"
"237004","756-BX","2019/09/07 17:59:35","新北市三峽區大埔路88號","121.3664","24.9071533333333","6500900","三峽區"
"237005","AKY-6261","2019/09/07 17:59:44","新北市三峽區和平街79巷9號","121.36962","24.937205","6500900","三峽區"
"236042","KED-0685","2019/09/07 17:59:35","新北市土城區城林路6巷80號","121.438518333333","24.9796016666667","6501300","土城區"
"236030","253-BX","2019/09/07 17:59:28","新北市土城區城林路6巷80號","121.438655","24.9796416666667","6501300","土城區"
"236026","269-VK","2019/09/07 17:59:44","新北市土城區承天路45號","121.438773333333","24.9640116666667","6501300","土城區"
"236014","270-VK","2019/09/07 17:59:33","新北市土城區城林路6巷80號","121.43861","24.9797916666667","6501300","土城區"
"236038","271-VK","2019/09/07 17:59:37","新北市土城區金城路一段112號","121.446351666667","24.9758483333333","6501300","土城區"
"247012","KED-0683","2019/09/07 17:59:28","新北市蘆洲區民族路167巷11號","121.47836","25.0881166666667","6501400","蘆洲區"
"236070","KEA-2877","2019/09/07 17:59:32","新北市土城區青雲路605巷6號","121.459536666667","24.9694733333333","6501300","土城區"
"252001","KED-0821","2019/09/07 17:59:34","新北市三芝區中興街二段2號","121.498373333333","25.2566066666667","6502100","三芝區"
"236021","401-BY","2019/09/07 17:59:30","新北市土城區中華路二段2號","121.438775","24.97988","6501300","土城區"
"236059","912-UM","2019/09/07 17:59:37","新北市土城區中央路三段260號","121.427238333333","24.9639733333333","6501300","土城區"
"236049","913-UM","2019/09/07 17:59:33","新北市土城區員福街30號","121.441301666667","24.9787183333333","6501300","土城區"
"236063","915-UM","2019/09/07 17:59:30","新北市土城區員福街50號","121.440475","24.9790616666667","6501300","土城區"
"236055","AAC-216","2019/09/07 17:59:29","新北市土城區中華路二段50號","121.43917","24.9776866666667","6501300","土城區"
"242042","AAC-296","2019/09/07 17:59:28","新北市新莊區中正路723-7號","121.423111666667","25.0292116666667","6500500","新莊區"
"242061","986-R7","2019/09/07 17:59:39","新北市新莊區新樹路497巷1號","121.432661666667","25.0121716666667","6500500","新莊區"
"242004","751-BX","2019/09/07 17:59:35","新北市新莊區福樂街56巷28號","121.458765","25.0460666666667","6500500","新莊區"
"242058","705-TV","2019/09/07 17:59:38","新北市新莊區雙鳳路134巷6號","121.41284","25.02814","6500500","新莊區"
"242029","615-BX","2019/09/07 17:59:33","新北市新莊區中平路110巷18號","121.445595","25.0455966666667","6500500","新莊區"
"242027","613-BX","2019/09/07 17:59:39","新北市新莊區思源路448號","121.459943333333","25.053585","6500500","新莊區"
"242048","566-BX","2019/09/07 17:59:39","新北市新莊區萬安街61號","121.421468333333","25.024225","6500500","新莊區"
"242053","497-BY","2019/09/07 17:59:36","新北市新莊區光華街52號","121.428546666667","25.011755","6500500","新莊區"
"242002","441-UM","2019/09/07 17:59:42","新北市新莊區大觀街42巷12號","121.45455","25.0359583333333","6500500","新莊區"
"242007","440-UM","2019/09/07 17:59:28","新北市新莊區自信街65巷7號","121.455413333333","25.0486616666667","6500500","新莊區"
"242044","415-TV","2019/09/07 17:59:43","新北市新莊區雙鳳路29號","121.416475","25.0269766666667","6500500","新莊區"
"242013","413-TV","2019/09/07 17:59:27","新北市新莊區中和街125巷3號","121.447093333333","25.0484516666667","6500500","新莊區"
"242051","400-BY","2019/09/07 17:59:45","新北市新莊區龍安路496號","121.42614","25.0171316666667","6500500","新莊區"
"242025","362-BY","2019/09/07 17:59:40","新北市新莊區五工路58號","121.458815","25.0628016666667","6500500","新莊區"
"242023","353-BY","2019/09/07 17:59:34","新北市新莊區福壽街23號","121.458026666667","25.0480766666667","6500500","新莊區"
"242039","135-UY","2019/09/07 17:59:29","新北市新莊區民安西路88巷12弄2號","121.425986666667","25.0200716666667","6500500","新莊區"
"242056","172-VK","2019/09/07 17:59:17","新北市新莊區豐年街124巷18號","121.445553333333","25.029865","6500500","新莊區"
"242017","173-VK","2019/09/07 17:59:32","新北市新莊區中和街60巷47號","121.449986666667","25.0450466666667","6500500","新莊區"
"242031","175-VK","2019/09/07 17:59:44","新北市新莊區新泰路305巷11號","121.444871666667","25.0408933333333","6500500","新莊區"
"242021","KED-0687","2019/09/07 17:59:24","新北市新莊區中華路一段6號","121.451978333333","25.0364533333333","6500500","新莊區"
"242015","346-TH","2019/09/07 17:59:46","新北市新莊區中平路119巷19號","121.443918333333","25.046625","6500500","新莊區"
"242036","348-TH","2019/09/07 17:59:31","新北市新莊區建福路73號","121.426908333333","25.0268183333333","6500500","新莊區"
"242009","349-TH","2019/09/07 17:59:42","新北市新莊區中原路185號","121.453076666667","25.0544166666667","6500500","新莊區"
"242034","350-TH","2019/09/07 17:59:38","新北市新莊區福海街31巷2號","121.445171666667","25.034045","6500500","新莊區"
"242019","351-TH","2019/09/07 17:59:28","新北市新莊區明中街45-2號","121.457411666667","25.03922","6500500","新莊區"
"238015","755-BX","2019/09/07 17:59:30","新北市樹林區啟智街80巷8號","121.418956666667","24.9924366666667","6500700","樹林區"
"238023","601-UM","2019/09/07 17:59:29","新北市樹林區龍興街59巷6號","121.403648333333","25.0152516666667","6500700","樹林區"
"238019","599-UM","2019/09/07 17:59:35","新北市樹林區太平路148號","121.41856","24.9781466666667","6500700","樹林區"
"238018","KEA-2217","2019/09/07 17:59:32","新北市樹林區中正路7-1號","121.430398333333","24.9974233333333","6500700","樹林區"
"238022","KEA-2213","2019/09/07 17:59:36","新北市樹林區太平路150巷7號","121.41816","24.9777383333333","6500700","樹林區"
"238021","KEA-2539","2019/09/07 17:59:34","新北市樹林區柑園街一段142-1號","121.398923333333","24.9568633333333","6500700","樹林區"
"238025","303-VK","2019/09/07 17:59:43","新北市樹林區三俊街14號","121.41124","25.0153666666667","6500700","樹林區"
"238017","283-BY","2019/09/07 17:59:44","新北市樹林區中正路655號","121.412373333333","25.0129233333333","6500700","樹林區"
"238014","282-BY","2019/09/07 17:59:40","新北市樹林區千歲街61巷40弄13號","121.426008333333","24.9990933333333","6500700","樹林區"
"238020","268-VK","2019/09/07 17:59:33","新北市樹林區俊英街113-3號","121.424706666667","25.0098466666667","6500700","樹林區"
"238026","172-UY","2019/09/07 17:59:33","新北市樹林區中洲街30巷13弄35號","121.398183333333","24.9722883333333","6500700","樹林區"
"238016","169-UY","2019/09/07 17:59:43","新北市樹林區啟智街139號","121.416965","24.9882966666667","6500700","樹林區"
"239007","AAC-297","2019/09/07 17:59:39","新北市鶯歌區永樂街7號","121.341828333333","24.9531483333333","6500800","鶯歌區"
"239006","891-R6","2019/09/07 17:59:35","新北市鶯歌區鶯桃路413巷34弄34號","121.330753333333","24.9641783333333","6500800","鶯歌區"
"239008","527-UM","2019/09/07 17:59:27","新北市鶯歌區香賓街11巷2號","121.336823333333","24.979495","6500800","鶯歌區"
"239005","526-UM","2019/09/07 17:59:43","新北市鶯歌區鳳五路117-1號","121.330541666667","24.9722616666667","6500800","鶯歌區"
"239001","417-VK","2019/09/07 17:59:33","新北市鶯歌區中正三路256-2號","121.32947","24.9363116666667","6500800","鶯歌區"
"239003","360-BY","2019/09/07 17:59:29","新北市鶯歌區鶯桃路344號","121.333871666667","24.962415","6500800","鶯歌區"
"239002","359-BY","2019/09/07 17:59:31","新北市鶯歌區光明街90號","121.346508333333","24.9558566666667","6500800","鶯歌區"
"221008","489-VK","2019/09/07 17:59:26","新北市汐止區康寧街649號","121.637573333333","25.0722516666667","6501100","汐止區"
"221010","269-BY","2019/09/07 17:59:38","新北市汐止區汐萬路二段237號","121.646665","25.087995","6501100","汐止區"
"221023","279-VK","2019/09/07 17:59:44","新北市汐止區明峰街72號","121.63148","25.0711933333333","6501100","汐止區"
"221029","298-VK","2019/09/07 17:59:46","新北市汐止區樟樹二路344-1號","121.641523333333","25.07059","6501100","汐止區"
"221031","353-TW","2019/09/07 17:59:40","新北市汐止區中興路96巷2號","121.635115","25.06247","6501100","汐止區"
"221035","622-UM","2019/09/07 17:59:37","新北市汐止區汐萬路一段212號","121.651991666667","25.07245","6501100","汐止區"
"221025","623-UM","2019/09/07 17:59:43","新北市汐止區仁愛路17號","121.659351666667","25.06405","6501100","汐止區"
"221033","647-BX","2019/09/07 17:59:42","新北市汐止區合順街39巷1號","121.620601666667","25.0433166666667","6501100","汐止區"
"221018","753-BX","2019/09/07 17:59:37","新北市汐止區忠孝東路339巷7號","121.664645","25.0701316666667","6501100","汐止區"
"242046","281-VK","2019/09/07 17:59:38","新北市新莊區福營路165巷33號","121.432503333333","25.0301516666667","6500500","新莊區"
"242011","280-VK","2019/09/07 17:59:35","新北市新莊區中原路217巷5號","121.450566666667","25.0538633333333","6500500","新莊區"
"235061","KEA-2875","2019/09/07 17:59:23","新北市中和區員山路61號","121.480636666667","24.993565","6500300","中和區"
"235062","KEA-2876","2019/09/07 17:59:40","新北市中和區民樂路81號","121.484983333333","25.0014683333333","6500300","中和區"
