"lineid","car","time","location","longitude","latitude","cityid","cityname"
"234007","KED-0605","2019/09/07 18:09:34","新北市永和區環河東路二段30號","121.522658333333","25.01278","6500400","永和區"
"234026","9371-KE","2019/09/07 18:09:40","新北市永和區自由街26號","121.514348333333","25.0064233333333","6500400","永和區"
"249005","172-UM","2019/09/07 18:09:32","新北市八里區荖阡坑路15-4號","121.399838333333","25.141225","6502300","八里區"
"249001","173-UM","2019/09/07 18:09:44","新北市八里區龍米路二段35號","121.448516666667","25.1399666666667","6502300","八里區"
"249004","303-UY","2019/09/07 18:09:27","新北市八里區龍米路二段200巷3號","121.43373","25.1587816666667","6502300","八里區"
"249002","305-UY","2019/09/07 18:09:41","新北市八里區龍米路一段356巷40號","121.452156666667","25.130515","6502300","八里區"
"249003","593-UM","2019/09/07 18:09:40","新北市八里區中華路二段305-2號","121.402496666667","25.1471466666667","6502300","八里區"
"248016","026-BX","2019/09/07 18:09:40","新北市五股區成泰路三段157號","121.44512","25.0916733333333","6501500","五股區"
"248006","077-UY","2019/09/07 18:09:42","新北市五股區中興路二段53號","121.461845","25.0764283333333","6501500","五股區"
"248020","KED-0813","2019/09/07 18:09:41","新北市五股區凌雲路一段21號","121.454431666667","25.0992366666667","6501500","五股區"
"248014","261-SL","2019/09/07 18:09:29","新北市五股區成泰路一段189巷29號","121.433561666667","25.0763266666667","6501500","五股區"
"248010","272-BY","2019/09/07 18:09:39","新北市五股區成泰路一段219-18號","121.43468","25.0776966666667","6501500","五股區"
"248004","677-BX","2019/09/07 18:09:34","新北市五股區成泰路二段65號","121.43795","25.0837266666667","6501500","五股區"
"232011","375-UM","2019/09/07 18:09:35","新北市坪林區國中路4號","121.713463333333","24.9388333333333","6502000","坪林區"
"244007","080-UY","2019/09/07 18:09:42","新北市林口區林口路124巷10弄2號","121.38903","25.0816816666667","6501700","林口區"
"244019","402-UM","2019/09/07 18:09:32","新北市林口區忠孝路569巷59號","121.374495","25.06876","6501700","林口區"
"244013","KEA-2802","2019/09/07 18:09:23","新北市林口區佳林路101巷15號","121.38696","25.0800483333333","6501700","林口區"
"244023","483-VK","2019/09/07 18:09:30","新北市林口區東湖路93巷11號","121.384403333333","25.0728383333333","6501700","林口區"
"244017","485-VK","2019/09/07 18:09:39","新北市林口區八德路36號","121.367518333333","25.0665683333333","6501700","林口區"
"244009","656-BX","2019/09/07 18:09:27","新北市林口區民生路166號","121.379831666667","25.0876766666667","6501700","林口區"
"244011","701-TV","2019/09/07 18:09:44","新北市林口區新寮1-61號","121.39284","25.0764166666667","6501700","林口區"
"244025","837-TS","2019/09/07 18:09:38","新北市林口區文明街182號","121.36143","25.0728233333333","6501700","林口區"
"244021","838-TS","2019/09/07 18:09:38","新北市林口區自強六街26號","121.399375","25.0761266666667","6501700","林口區"
"222003","436-BY","2019/09/07 18:09:33","新北市深坑區文山路三段15號","121.612568333333","24.998005","6501800","深坑區"
"222002","659-BX","2019/09/07 18:09:33","新北市深坑區文化街52號","121.618863333333","25.0014683333333","6501800","深坑區"
"231055","0291-UT","2019/09/07 18:09:39","新北市新店區安華路28-1號","121.519895","24.9606933333333","6500600","新店區"
"231044","046-UY","2019/09/07 18:09:47","新北市新店區安華路28-1號","121.519555","24.9608433333333","6500600","新店區"
"231060","106-UY","2019/09/07 18:09:29","新北市新店區安華路28-1號","121.519543333333","24.9607616666667","6500600","新店區"
"231051","107-UY","2019/09/07 18:09:34","新北市新店區安一路一段1-1號","121.519691666667","24.9610983333333","6500600","新店區"
"231054","260-TV","2019/09/07 18:09:36","新北市新店區安華路28-1號","121.51939","24.960965","6500600","新店區"
"231042","268-BY","2019/09/07 18:09:31","新北市新店區安一路一段1-1號","121.519845","24.9613366666667","6500600","新店區"
"231064","278-BY","2019/09/07 18:09:41","新北市新店區安一路一段1-1號","121.519803333333","24.9610666666667","6500600","新店區"
"231050","AAD-862","2019/09/07 18:09:43","新北市新店區安華路28-1號","121.519821666667","24.9609666666667","6500600","新店區"
"231056","4715-K9","2019/09/07 18:09:29","新北市新店區安華路28-1號","121.519375","24.96057","6500600","新店區"
"231052","515-UM","2019/09/07 18:09:45","新北市新店區安一路一段1-1號","121.519161666667","24.96115","6500600","新店區"
"231040","617-UM","2019/09/07 18:09:42","新北市新店區安華路28-1號","121.519375","24.9608566666667","6500600","新店區"
"231057","720-UM","2019/09/07 18:09:30","新北市新店區安一路一段1-1號","121.519078333333","24.9611283333333","6500600","新店區"
"231043","899-TW","2019/09/07 18:09:28","新北市新店區安華路28-1號","121.519263333333","24.960755","6500600","新店區"
"241024","065-VK","2019/09/07 18:09:46","新北市三重區中正北路193巷35弄18號","121.476555","25.0710533333333","6500200","三重區"
"241033","AAC-255","2019/09/07 18:09:44","新北市三重區中興北街62號","121.469011666667","25.0517983333333","6500200","三重區"
"235063","006-UY","2019/09/07 18:09:33","新北市中和區中正路589巷15號","121.485648333333","24.9935616666667","6500300","中和區"
"235056","096-UM","2019/09/07 18:09:32","新北市中和區新生街6號","121.483101666667","25.004665","6500300","中和區"
"235039","097-UM","2019/09/07 18:09:37","新北市中和區錦和路350-1號","121.490233333333","24.993545","6500300","中和區"
"235065","098-UM","2019/09/07 18:09:29","新北市中和區莊敬路49巷18號","121.501603333333","25.0059733333333","6500300","中和區"
"235040","150-BY","2019/09/07 18:09:29","新北市中和區中正路273號","121.495636666667","24.993805","6500300","中和區"
"235058","151-BY","2019/09/07 18:09:30","新北市中和區圓通路367巷58號","121.492226666667","24.9848483333333","6500300","中和區"
"235055","183-VK","2019/09/07 18:09:33","新北市中和區員山路36巷16-3號","121.48511","24.9913933333333","6500300","中和區"
"235038","185-VK","2019/09/07 18:09:35","新北市中和區景平路114號","121.519625","24.99168","6500300","中和區"
"235072","301-VK","2019/09/07 18:09:39","新北市中和區中正路509號","121.488531666667","24.994255","6500300","中和區"
"235043","352-BY","2019/09/07 18:07:37","新北市中和區中正路291號","121.493298333333","24.9937916666667","6500300","中和區"
"235042","KEA-2878","2019/09/07 18:09:46","新北市中和區景平路406號","121.508861666667","24.9932233333333","6500300","中和區"
"235050","4979-A6","2019/09/07 18:09:32","新北市中和區錦和路350-1號","121.490093333333","24.9935233333333","6500300","中和區"
"235069","4980-A6","2019/09/07 18:09:33","新北市中和區員山路36巷16-2號","121.485296666667","24.99179","6500300","中和區"
"235045","565-BX","2019/09/07 18:09:33","新北市中和區板南路104號","121.503565","24.9924633333333","6500300","中和區"
"235060","KED-0823","2019/09/07 18:09:39","新北市中和區員山路111號","121.480855","24.9947966666667","6500300","中和區"
"235054","640-BX","2019/09/07 18:09:37","新北市中和區莒光路213號","121.469033333333","24.9946233333333","6500300","中和區"
"235057","801-TS","2019/09/07 18:09:36","新北市中和區民享街97巷19號","121.47546","24.9995816666667","6500300","中和區"
"235041","802-TS","2019/09/07 18:09:33","新北市中和區和城路一段271巷1號","121.485491666667","24.99164","6500300","中和區"
"235052","805-TS","2019/09/07 18:09:36","新北市中和區中正路13號","121.50298","24.9933033333333","6500300","中和區"
"235048","896-TW","2019/09/07 18:09:30","新北市中和區員山路36巷16-2號","121.485256666667","24.99157","6500300","中和區"
"235064","911-UM","2019/09/07 18:09:41","新北市中和區中正路166號","121.498368333333","24.993825","6500300","中和區"
"235051","157-BY","2019/09/07 18:09:32","新北市中和區復興路307號","121.501286666667","24.990145","6500300","中和區"
"235037","AAC-213","2019/09/07 18:09:30","新北市中和區景德街84號","121.516428333333","24.99151","6500300","中和區"
"235059","AAC-215","2019/09/07 18:09:28","新北市中和區員山路36巷16-3號","121.485051666667","24.99128","6500300","中和區"
"247002","001-UY","2019/09/07 18:09:43","新北市蘆洲區永平街32巷69弄11號","121.45965","25.093415","6501400","蘆洲區"
"226004","312-R5","2019/09/07 18:09:32","新北市平溪區白石里白石腳3號","121.722115","25.0215083333333","6502400","平溪區"
"228003","097-TW","2019/09/07 18:09:42","新北市貢寮區真理里美艷山街6-2號","121.928836666667","25.060755","6502600","貢寮區"
"228001","212-TW","2019/09/07 18:09:46","新北市貢寮區真理里新港街26巷55弄2-1號","121.927383333333","25.0528366666667","6502600","貢寮區"
"228002","663-BX","2019/09/07 18:09:46","新北市貢寮區福連里福興街39-3號","121.994605","25.0142783333333","6502600","貢寮區"
"224006","676-BX","2019/09/07 18:09:44","新北市瑞芳區中山路68號","121.802803333333","25.1064283333333","6501200","瑞芳區"
"224002","639-TC","2019/09/07 18:09:45","新北市瑞芳區三爪子坑路80號","121.810163333333","25.1055533333333","6501200","瑞芳區"
"224007","285-BY","2019/09/07 18:09:31","新北市瑞芳區四腳亭坑路9號","121.777743333333","25.10961","6501200","瑞芳區"
"224009","275-VK","2019/09/07 18:09:25","新北市瑞芳區金光路117號","121.853085","25.1060433333333","6501200","瑞芳區"
"224008","273-VK","2019/09/07 18:09:32","新北市瑞芳區員山子路23號","121.821401666667","25.103","6501200","瑞芳區"
"224005","271-BY","2019/09/07 18:09:31","新北市瑞芳區深澳路2號","121.816665","25.128875","6501200","瑞芳區"
"227001","642-TC","2019/09/07 18:09:30","新北市雙溪區三貂里定福路1-2號","121.850675","25.063385","6502500","雙溪區"
"227002","400-TW","2019/09/07 18:09:34","新北市雙溪區共和里東榮街52號","121.866351666667","25.0336516666667","6502500","雙溪區"
"253005","032-BX","2019/09/07 18:09:27","新北市石門區福安街53號","121.568376666667","25.2917133333333","6502200","石門區"
"253006","295-VK","2019/09/07 18:09:39","新北市石門區老梅路52巷15號","121.54651","25.288685","6502200","石門區"
"222001","KEA-2212","2019/09/07 18:09:43","新北市深坑區北深路二段151號","121.61421","25.0021533333333","6501800","深坑區"
"208002","KEA-2872","2019/09/07 18:09:45","新北市金山區法鼓路93號","121.624661666667","25.2338533333333","6502700","金山區"
"208003","665-BX","2019/09/07 18:09:30","新北市金山區民生路196-2號","121.646158333333","25.2219616666667","6502700","金山區"
"251009","008-UM","2019/09/07 18:09:29","新北市淡水區大仁街6巷25號","121.443046666667","25.1752233333333","6501000","淡水區"
"251004","009-UM","2019/09/07 18:09:32","新北市淡水區民族路110巷43弄1號","121.461461666667","25.1352216666667","6501000","淡水區"
"251015","KEA-2871","2019/09/07 18:09:28","新北市淡水區興福寮88巷1號","121.485365","25.1649266666667","6501000","淡水區"
"251016","179-VK","2019/09/07 18:09:46","新北市淡水區淡金路三段46巷62號","121.45069","25.2003183333333","6501000","淡水區"
"251008","181-VK","2019/09/07 18:09:31","新北市淡水區中正東路二段7號","121.458046666667","25.1583283333333","6501000","淡水區"
"251013","182-VK","2019/09/07 18:09:31","新北市淡水區竹圍子12號","121.476346666667","25.1937966666667","6501000","淡水區"
"251010","413-VK","2019/09/07 18:09:34","新北市淡水區沙崙路97號","121.422218333333","25.1824633333333","6501000","淡水區"
"251012","441-VK","2019/09/07 18:09:38","新北市淡水區北新路三段82號","121.485533333333","25.1878683333333","6501000","淡水區"
"251005","443-VK","2019/09/07 18:09:32","新北市淡水區水源街一段120號","121.447231666667","25.17183","6501000","淡水區"
"251001","559-UM","2019/09/07 18:09:29","新北市淡水區自立路10號","121.463045","25.1297766666667","6501000","淡水區"
"251006","561-UM","2019/09/07 18:09:45","新北市淡水區新民街82號","121.43843","25.176535","6501000","淡水區"
"251014","577-R6","2019/09/07 18:09:28","新北市淡水區南平15號","121.488461666667","25.2190533333333","6501000","淡水區"
"251011","650-BX","2019/09/07 18:09:41","新北市淡水區三空泉5號","121.476326666667","25.1612116666667","6501000","淡水區"
"251002","672-BX","2019/09/07 18:09:29","新北市淡水區中正東路一段3巷2號","121.45053","25.164525","6501000","淡水區"
"251003","766-UM","2019/09/07 18:09:39","新北市淡水區大忠街113巷20號","121.447298333333","25.177425","6501000","淡水區"
"207003","550-UM","2019/09/07 18:09:39","新北市萬里區野柳里港東路161號","121.690166666667","25.20451","6502800","萬里區"
"207004","291-VK","2019/09/07 18:09:32","新北市萬里區中幅里中福路84號","121.676145","25.1708133333333","6502800","萬里區"
"252002","178-VK","2019/09/07 18:09:37","新北市三芝區中山路二段39號","121.502896666667","25.2551333333333","6502100","三芝區"
"252003","249-BX","2019/09/07 18:09:31","新北市三芝區埔頭里埔頭37號","121.498556666667","25.2603783333333","6502100","三芝區"
"208001","170-UY","2019/09/07 18:09:30","新北市金山區磺港里磺港路73號","121.647553333333","25.227035","6502700","金山區"
"237007","153-BY","2019/09/07 18:09:43","新北市三峽區中正路二段370巷81號","121.364253333333","24.9116666666667","6500900","三峽區"
"237009","210-TH","2019/09/07 18:09:36","新北市三峽區大仁路55號","121.365318333333","24.9374366666667","6500900","三峽區"
"237013","252-BX","2019/09/07 18:09:47","新北市三峽區長泰街33巷14弄9號","121.377156666667","24.9317983333333","6500900","三峽區"
"237012","275-BY","2019/09/07 18:09:31","新北市三峽區民生街1巷5-64號","121.378845","24.9349083333333","6500900","三峽區"
"237008","302-VK","2019/09/07 18:09:46","新北市三峽區白雞58-23號","121.386005","24.9097233333333","6500900","三峽區"
"237014","433-BY","2019/09/07 18:09:25","新北市三峽區國光街63巷8號","121.373848333333","24.937995","6500900","三峽區"
"237006","5529-G3","2019/09/07 18:09:29","新北市三峽區介壽路三段20號","121.396005","24.9361366666667","6500900","三峽區"
"237011","KEA-2596","2019/09/07 18:09:35","新北市三峽區介壽路一段232號","121.378568333333","24.9303183333333","6500900","三峽區"
"237015","649-BX","2019/09/07 18:09:30","新北市三峽區紫新路32巷1號","121.42229","24.9219616666667","6500900","三峽區"
"237010","706-TV","2019/09/07 18:09:36","新北市三峽區中園街18號","121.368278333333","24.9270733333333","6500900","三峽區"
"237004","756-BX","2019/09/07 18:09:35","新北市三峽區大埔路393號","121.372246666667","24.8962","6500900","三峽區"
"237005","AKY-6261","2019/09/07 18:09:44","新北市三峽區忠孝街7號","121.3708","24.9345","6500900","三峽區"
"236042","KED-0685","2019/09/07 18:09:35","新北市土城區城林路6巷80號","121.438375","24.979525","6501300","土城區"
"233002","762-BX","2019/09/07 18:09:27","新北市烏來區紅河12-2號","121.538783333333","24.8843633333333","6502900","烏來區"
"236030","253-BX","2019/09/07 18:09:28","新北市土城區城林路6巷80號","121.438655","24.9796416666667","6501300","土城區"
"236026","269-VK","2019/09/07 18:09:43","新北市土城區承天路47號","121.438818333333","24.96381","6501300","土城區"
"236014","270-VK","2019/09/07 18:09:33","新北市土城區學府路二段83號","121.448441666667","24.980745","6501300","土城區"
"236038","271-VK","2019/09/07 18:09:37","新北市土城區青雲路451巷2弄2號","121.459091666667","24.97462","6501300","土城區"
"236070","KEA-2877","2019/09/07 18:09:32","新北市土城區明德路一段130號","121.463766666667","24.978995","6501300","土城區"
"252001","KED-0821","2019/09/07 18:09:34","新北市三芝區中興街二段2號","121.49838","25.256605","6502100","三芝區"
"236021","401-BY","2019/09/07 18:09:30","新北市土城區員福街6號","121.441873333333","24.9784466666667","6501300","土城區"
"236059","912-UM","2019/09/07 18:09:37","新北市土城區中央路四段176號","121.4166","24.9579583333333","6501300","土城區"
"236049","913-UM","2019/09/07 18:09:33","新北市土城區明德路一段365-1號","121.45353","24.9790083333333","6501300","土城區"
"236063","915-UM","2019/09/07 18:09:30","新北市土城區金城路三段202-3號","121.469468333333","24.9886266666667","6501300","土城區"
"236055","AAC-216","2019/09/07 18:09:29","新北市土城區中華路二段92號","121.438273333333","24.9747733333333","6501300","土城區"
"242042","AAC-296","2019/09/07 18:09:28","新北市新莊區中正路694巷10號","121.41841","25.0285083333333","6500500","新莊區"
"242061","986-R7","2019/09/07 18:09:42","新北市新莊區新樹路160號","121.435111666667","25.0228033333333","6500500","新莊區"
"242004","751-BX","2019/09/07 18:09:35","新北市新莊區自由街22號","121.45585","25.047085","6500500","新莊區"
"242058","705-TV","2019/09/07 18:09:38","新北市新莊區新北大道七段488號","121.413081666667","25.0299516666667","6500500","新莊區"
"242029","615-BX","2019/09/07 18:09:33","新北市新莊區幸福路860號","121.443756666667","25.0489333333333","6500500","新莊區"
"242027","613-BX","2019/09/07 18:09:40","新北市新莊區幸福路503號","121.45641","25.0492066666667","6500500","新莊區"
"242048","566-BX","2019/09/07 18:09:36","新北市新莊區萬安街5號","121.421698333333","25.0248966666667","6500500","新莊區"
"242053","497-BY","2019/09/07 18:09:38","新北市新莊區民安西路327巷4弄4號","121.428071666667","25.0113283333333","6500500","新莊區"
"242002","441-UM","2019/09/07 18:09:42","新北市新莊區新莊路39號","121.45879","25.0373016666667","6500500","新莊區"
"242007","440-UM","2019/09/07 18:09:28","新北市新莊區自強街23巷9號","121.454098333333","25.046265","6500500","新莊區"
"242044","415-TV","2019/09/07 18:09:23","新北市新莊區鳳山街56巷57號","121.413121666667","25.0273416666667","6500500","新莊區"
"242013","413-TV","2019/09/07 18:09:27","新北市新莊區中正路384號","121.441966666667","25.03448","6500500","新莊區"
"242051","400-BY","2019/09/07 18:09:45","新北市新莊區民本街27巷17號","121.429146666667","25.01926","6500500","新莊區"
"242025","362-BY","2019/09/07 18:09:40","新北市新莊區五權一路11-2號","121.45944","25.0677933333333","6500500","新莊區"
"242039","135-UY","2019/09/07 18:09:29","新北市新莊區新樹路206巷20號","121.432668333333","25.0218833333333","6500500","新莊區"
"242056","172-VK","2019/09/07 18:09:37","新北市新莊區豐年街豐1巷44號","121.447966666667","25.031255","6500500","新莊區"
"242017","173-VK","2019/09/07 18:09:32","新北市新莊區中港路311號","121.452663333333","25.0446783333333","6500500","新莊區"
"242031","175-VK","2019/09/07 18:09:30","新北市新莊區新泰路277巷31號","121.444561666667","25.040215","6500500","新莊區"
"242021","KED-0687","2019/09/07 18:09:24","新北市新莊區建興街56巷1號","121.449983333333","25.0385483333333","6500500","新莊區"
"242015","346-TH","2019/09/07 18:09:39","新北市新莊區中和街59巷10弄9號","121.446778333333","25.0471983333333","6500500","新莊區"
"242036","348-TH","2019/09/07 18:09:31","新北市新莊區後港一路49巷1弄1號","121.425895","25.026465","6500500","新莊區"
"242009","349-TH","2019/09/07 18:09:42","新北市新莊區昌平街41巷1號","121.454568333333","25.052405","6500500","新莊區"
"242034","350-TH","2019/09/07 18:09:37","新北市新莊區新豐街65號","121.446385","25.0335933333333","6500500","新莊區"
"242019","351-TH","2019/09/07 18:09:28","新北市新莊區公園路129-2號","121.457098333333","25.040655","6500500","新莊區"
"238015","755-BX","2019/09/07 18:09:30","新北市樹林區大安路339巷2號","121.416745","24.99089","6500700","樹林區"
"238023","601-UM","2019/09/07 18:09:29","新北市樹林區三寶街19號","121.40693","25.015515","6500700","樹林區"
"238019","599-UM","2019/09/07 18:09:35","新北市樹林區水源街15號","121.425055","24.9830466666667","6500700","樹林區"
"238018","KEA-2217","2019/09/07 18:09:32","新北市樹林區保安街一段20巷40號","121.428361666667","24.9949766666667","6500700","樹林區"
"238022","KEA-2213","2019/09/07 18:09:36","新北市樹林區太平路209號","121.418608333333","24.9777666666667","6500700","樹林區"
"238021","KEA-2539","2019/09/07 18:09:34","新北市樹林區柑園街二段149巷1號","121.382328333333","24.9538433333333","6500700","樹林區"
"238025","303-VK","2019/09/07 18:09:43","新北市樹林區保安街二段195號","121.414231666667","25.003635","6500700","樹林區"
"238017","283-BY","2019/09/07 18:09:24","新北市樹林區中正路865號","121.408803333333","25.018055","6500700","樹林區"
"238014","282-BY","2019/09/07 18:09:40","新北市樹林區潭興街22號","121.425175","24.9989366666667","6500700","樹林區"
"238020","268-VK","2019/09/07 18:09:33","新北市樹林區俊英街113-3號","121.4247","25.0098466666667","6500700","樹林區"
"238026","172-UY","2019/09/07 18:09:33","新北市樹林區育德街2號","121.392808333333","24.9706416666667","6500700","樹林區"
"238016","169-UY","2019/09/07 18:09:32","新北市樹林區中山路一段242巷16弄1號","121.42059","24.9879683333333","6500700","樹林區"
"239007","AAC-297","2019/09/07 18:09:36","新北市鶯歌區尖山埔路102號","121.347238333333","24.9511866666667","6500800","鶯歌區"
"239006","891-R6","2019/09/07 18:09:35","新北市鶯歌區鶯桃路365巷6號","121.333261666667","24.9628966666667","6500800","鶯歌區"
"239008","527-UM","2019/09/07 18:09:47","新北市鶯歌區明圓街21號","121.336213333333","24.9773283333333","6500800","鶯歌區"
"239005","526-UM","2019/09/07 18:09:43","新北市鶯歌區鶯桃路668巷73號","121.32994","24.971785","6500800","鶯歌區"
"239001","417-VK","2019/09/07 18:09:42","新北市鶯歌區中正三路460-2號","121.321368333333","24.9342783333333","6500800","鶯歌區"
"239003","360-BY","2019/09/07 18:09:29","新北市鶯歌區福安街13巷1號","121.335665","24.9652916666667","6500800","鶯歌區"
"239002","359-BY","2019/09/07 18:09:31","新北市鶯歌區中山路249巷10號","121.346888333333","24.956565","6500800","鶯歌區"
"221008","489-VK","2019/09/07 18:09:46","新北市汐止區明峰街190號","121.628186666667","25.0697666666667","6501100","汐止區"
"221036","130-UY","2019/09/07 18:09:37","新北市汐止區大同路三段116號","121.672146666667","25.0767933333333","6501100","汐止區"
"221015","131-UY","2019/09/07 18:09:41","新北市汐止區長江街256巷1號","121.665126666667","25.080225","6501100","汐止區"
"221010","269-BY","2019/09/07 18:09:38","新北市汐止區汐萬路二段275巷1弄25號","121.646335","25.0880883333333","6501100","汐止區"
"221012","278-VK","2019/09/07 18:09:42","新北市汐止區長興街二段50巷10號","121.674528333333","25.0811383333333","6501100","汐止區"
"221023","279-VK","2019/09/07 18:09:37","新北市汐止區民族五街69號","121.62821","25.0703616666667","6501100","汐止區"
"221032","280-BY","2019/09/07 18:09:24","新北市汐止區橫科路73巷22-2號","121.619323333333","25.0514616666667","6501100","汐止區"
"221029","298-VK","2019/09/07 18:09:46","新北市汐止區樟樹二路134號","121.639905","25.0656483333333","6501100","汐止區"
"221021","299-VK","2019/09/07 18:09:37","新北市汐止區新興路16號","121.656336666667","25.0646783333333","6501100","汐止區"
"221031","353-TW","2019/09/07 18:09:40","新北市汐止區中興路167號","121.630953333333","25.06629","6501100","汐止區"
"221035","622-UM","2019/09/07 18:09:38","新北市汐止區汐萬路一段115巷2號","121.654266666667","25.0708516666667","6501100","汐止區"
"221025","623-UM","2019/09/07 18:09:43","新北市汐止區秀峰路160號","121.660313333333","25.0621566666667","6501100","汐止區"
"221033","647-BX","2019/09/07 18:09:42","新北市汐止區宜興街30巷22號","121.622311666667","25.0409916666667","6501100","汐止區"
"221002","707-TV","2019/09/07 18:09:31","新北市汐止區福德一路215號","121.634668333333","25.0652683333333","6501100","汐止區"
"221018","753-BX","2019/09/07 18:09:17","新北市汐止區招商街19巷25號","121.667623333333","25.0681916666667","6501100","汐止區"
"233001","KEA-2870","2019/09/07 18:09:43","新北市烏來區新烏路五段46號","121.543745","24.8767583333333","6502900","烏來區"
"220082","610-BX","2019/09/07 18:09:44","新北市板橋區華東街1-10號","121.448246666667","24.9949583333333","6500100","板橋區"
"242046","281-VK","2019/09/07 18:09:29","新北市新莊區中正路657-11號","121.428783333333","25.03001","6500500","新莊區"
"242011","280-VK","2019/09/07 18:09:35","新北市新莊區中信街88號","121.44786","25.053345","6500500","新莊區"
"220073","985-R7","2019/09/07 18:09:25","新北市板橋區板城路421號","121.447858333333","24.9960616666667","6500100","板橋區"
"235068","KEA-2873","2019/09/07 18:09:43","新北市中和區員山路36巷16-3號","121.484998333333","24.9912983333333","6500300","中和區"
"235061","KEA-2875","2019/09/07 18:09:23","新北市中和區國光街215巷24弄4號","121.466673333333","25.0001566666667","6500300","中和區"
"235062","KEA-2876","2019/09/07 18:09:40","新北市中和區景平路999巷3號","121.49535","25.005885","6500300","中和區"
