"lineid","car","time","location","longitude","latitude","cityid","cityname"
"234046","148-BY","2019/09/07 18:29:33","新北市永和區福和路1號","121.525825","25.0095366666667","6500400","永和區"
"234081","298-R6","2019/09/07 18:29:36","新北市永和區福和路8巷1號","121.524993333333","25.0090516666667","6500400","永和區"
"234086","338-UY","2019/09/07 18:29:32","新北市永和區福和路8巷1號","121.52504","25.00907","6500400","永和區"
"234017","745-BX","2019/09/07 18:29:29","新北市永和區福和路1號","121.526325","25.0095233333333","6500400","永和區"
"234007","KED-0605","2019/09/07 18:29:34","新北市永和區環河西路二段7-11號","121.509183333333","25.0168533333333","6500400","永和區"
"234026","9371-KE","2019/09/07 18:29:40","新北市永和區永貞路419號","121.507251666667","25.0093933333333","6500400","永和區"
"234011","9373-KE","2019/09/07 18:29:40","新北市永和區保福路二段165號","121.509048333333","25.01491","6500400","永和區"
"249005","172-UM","2019/09/07 18:29:32","新北市八里區長坑口47-1號","121.389208333333","25.1339533333333","6502300","八里區"
"249001","173-UM","2019/09/07 18:29:44","新北市八里區龍米路一段92號","121.454028333333","25.1238883333333","6502300","八里區"
"249004","303-UY","2019/09/07 18:29:26","新北市八里區忠孝路70號","121.426385","25.1603783333333","6502300","八里區"
"249002","305-UY","2019/09/07 18:29:41","新北市八里區龍形三街6巷10號","121.449831666667","25.132795","6502300","八里區"
"249003","593-UM","2019/09/07 18:15:51","新北市八里區博物館路10-1號","121.41507","25.1639433333333","6502300","八里區"
"248016","026-BX","2019/09/07 18:29:40","新北市五股區凌雲路一段83巷1-5號","121.450325","25.1006216666667","6501500","五股區"
"248008","KED-0815","2019/09/07 18:29:31","新北市蘆洲區永安南路二段150號","121.462083333333","25.0783766666667","6501500","五股區"
"248020","KED-0813","2019/09/07 18:29:41","新北市五股區孝義路55巷5號","121.451456666667","25.112205","6501500","五股區"
"248012","247-BX","2019/09/07 18:29:39","新北市五股區御成路122號","121.441495","25.0938783333333","6501500","五股區"
"248014","261-SL","2019/09/07 18:29:29","新北市五股區成泰路一段145號","121.435413333333","25.0731333333333","6501500","五股區"
"248010","272-BY","2019/09/07 18:29:26","新北市五股區水碓路9號","121.433673333333","25.0723816666667","6501500","五股區"
"248004","677-BX","2019/09/07 18:29:34","新北市五股區民義路一段152號","121.433025","25.0874333333333","6501500","五股區"
"248002","678-BX","2019/09/07 18:29:33","新北市五股區西雲路116-5號","121.44469","25.0935783333333","6501500","五股區"
"234077","969-R7","2019/09/07 18:29:30","新北市永和區福和路1號","121.526461666667","25.0098583333333","6500400","永和區"
"232011","375-UM","2019/09/07 18:29:35","新北市坪林區坪雙路一段41號","121.711698333333","24.94246","6502000","坪林區"
"244007","080-UY","2019/09/07 18:29:42","新北市林口區後湖13號","121.387883333333","25.0980583333333","6501700","林口區"
"244019","402-UM","2019/09/07 18:29:32","新北市林口區忠孝路627號","121.379676666667","25.0694166666667","6501700","林口區"
"244013","KEA-2802","2019/09/07 18:29:43","新北市林口區文化一路一段118號","121.374063333333","25.0716283333333","6501700","林口區"
"244023","483-VK","2019/09/07 18:29:30","新北市林口區仁愛路二段98號","121.3838","25.07503","6501700","林口區"
"244017","485-VK","2019/09/07 18:29:39","新北市林口區文化二路66-5號","121.365625","25.068845","6501700","林口區"
"244009","656-BX","2019/09/07 18:29:47","新北市林口區寶林路21號","121.386385","25.0838316666667","6501700","林口區"
"244011","701-TV","2019/09/07 18:29:44","新北市林口區興林路15號","121.389845","25.0769366666667","6501700","林口區"
"244025","837-TS","2019/09/07 18:29:37","新北市林口區南勢六街55號","121.35573","25.071655","6501700","林口區"
"244021","838-TS","2019/09/07 18:29:38","新北市林口區自強二街68號","121.399738333333","25.0767316666667","6501700","林口區"
"222003","436-BY","2019/09/07 18:29:27","新北市深坑區翠谷街25號","121.626851666667","25.008735","6501800","深坑區"
"222002","659-BX","2019/09/07 18:29:33","新北市深坑區雲鄉路141號","121.62221","24.9981916666667","6501800","深坑區"
"231061","002-UM","2019/09/07 18:29:31","新北市新店區安華路28-1號","121.519673333333","24.96076","6500600","新店區"
"231055","0291-UT","2019/09/07 18:29:39","新北市新店區北新路二段29巷1弄5號","121.5421","24.9722433333333","6500600","新店區"
"231058","0293-UT","2019/09/07 18:29:40","新北市新店區環河路19巷23號","121.537621666667","24.9598166666667","6500600","新店區"
"231044","046-UY","2019/09/07 18:29:48","新北市新店區安華路28-1號","121.519243333333","24.9605866666667","6500600","新店區"
"231060","106-UY","2019/09/07 18:29:29","新北市新店區安華路28-1號","121.51958","24.9607966666667","6500600","新店區"
"231051","107-UY","2019/09/07 18:29:34","新北市新店區安一路一段1-1號","121.519678333333","24.96108","6500600","新店區"
"231062","256-BX","2019/09/07 18:29:37","新北市新店區安一路一段1-1號","121.519975","24.9611716666667","6500600","新店區"
"231054","260-TV","2019/09/07 18:29:36","新北市新店區安一路一段1-1號","121.519328333333","24.96108","6500600","新店區"
"231042","268-BY","2019/09/07 18:29:31","新北市新店區安一路一段1-1號","121.519738333333","24.9613333333333","6500600","新店區"
"231064","278-BY","2019/09/07 18:29:41","新北市新店區安一路一段1-1號","121.519633333333","24.9610833333333","6500600","新店區"
"231050","AAD-862","2019/09/07 18:29:43","新北市新店區安華路28-1號","121.519836666667","24.96105","6500600","新店區"
"231045","355-BY","2019/09/07 18:29:47","新北市新店區安華路28-1號","121.519356666667","24.9609566666667","6500600","新店區"
"231056","4715-K9","2019/09/07 18:29:29","新北市新店區二十張路129巷3弄1號","121.536241666667","24.97887","6500600","新店區"
"231052","515-UM","2019/09/07 18:29:25","新北市新店區北宜路一段256號","121.545493333333","24.952805","6500600","新店區"
"231063","616-UM","2019/09/07 18:29:27","新北市新店區安華路1-1號","121.519406666667","24.9604916666667","6500600","新店區"
"231040","617-UM","2019/09/07 18:29:42","新北市新店區安華路28-1號","121.519363333333","24.9608933333333","6500600","新店區"
"231048","KED-0819","2019/09/07 18:29:40","新北市新店區安一路一段1-1號","121.519733333333","24.96117","6500600","新店區"
"231057","720-UM","2019/09/07 18:29:30","新北市新店區安一路一段1-1號","121.519211666667","24.9612583333333","6500600","新店區"
"231059","897-TW","2019/09/07 18:29:35","新北市新店區安華路28-1號","121.519585","24.9606766666667","6500600","新店區"
"231043","899-TW","2019/09/07 18:29:28","新北市新店區安華路28-1號","121.519255","24.9607916666667","6500600","新店區"
"231066","AKT-0513","2019/09/07 18:29:30","新北市新店區安華路28-1號","121.519475","24.96055","6500600","新店區"
"235066","003-UY","2019/09/07 18:29:38","新北市中和區中山路二段120號","121.502651666667","25.0038333333333","6500300","中和區"
"235063","006-UY","2019/09/07 18:29:33","新北市中和區連城路403號","121.486118333333","24.996145","6500300","中和區"
"235056","096-UM","2019/09/07 18:29:32","新北市中和區員山路611巷2弄2號","121.47768","25.011535","6500300","中和區"
"235039","097-UM","2019/09/07 18:29:37","新北市永和區安樂路92號","121.514231666667","24.9989183333333","6500300","中和區"
"235065","098-UM","2019/09/07 18:29:29","新北市中和區中山路二段64巷16弄2號","121.503283333333","25.0058333333333","6500300","中和區"
"235040","150-BY","2019/09/07 18:29:29","新北市中和區安平路31號","121.509463333333","24.9948983333333","6500300","中和區"
"235058","151-BY","2019/09/07 18:29:30","新北市中和區圓通路316號","121.486373333333","24.9876833333333","6500300","中和區"
"235055","183-VK","2019/09/07 18:29:33","新北市中和區中山路三段209號","121.471863333333","25.0063316666667","6500300","中和區"
"235038","185-VK","2019/09/07 18:29:35","新北市中和區立人街57號","121.52027","24.994185","6500300","中和區"
"235049","186-VK","2019/09/07 18:29:41","新北市中和區景安路117號","121.505813333333","24.996465","6500300","中和區"
"235067","255-BX","2019/09/07 18:29:42","新北市中和區新生街28號","121.483176666667","25.0039566666667","6500300","中和區"
"235044","293-VK","2019/09/07 18:29:41","新北市中和區復興路304號","121.50135","24.9903","6500300","中和區"
"235072","301-VK","2019/09/07 18:29:39","新北市中和區連城路137號","121.495903333333","24.9989266666667","6500300","中和區"
"235043","352-BY","2019/09/07 18:29:37","新北市中和區景平路249號","121.50887","24.9928866666667","6500300","中和區"
"235042","KEA-2878","2019/09/07 18:29:38","新北市中和區自立路56巷18號","121.522556666667","24.9917583333333","6500300","中和區"
"235050","4979-A6","2019/09/07 18:29:32","新北市中和區景新街362巷10號","121.511948333333","24.990165","6500300","中和區"
"235069","4980-A6","2019/09/07 18:29:33","新北市中和區連城路125號","121.496093333333","24.99922","6500300","中和區"
"235070","558-UM","2019/09/07 18:29:36","新北市中和區景新街129號","121.505703333333","24.9973233333333","6500300","中和區"
"235045","565-BX","2019/09/07 18:29:33","新北市中和區復興路51號","121.504663333333","24.9899516666667","6500300","中和區"
"235060","KED-0823","2019/09/07 18:29:38","新北市中和區中山路二段583號","121.480196666667","25.0057033333333","6500300","中和區"
"235054","640-BX","2019/09/07 18:29:37","新北市中和區莒光路70號","121.472276666667","25.0031166666667","6500300","中和區"
"235046","733-UM","2019/09/07 18:29:40","新北市中和區捷運路125號","121.507388333333","24.9905966666667","6500300","中和區"
"235057","801-TS","2019/09/07 18:29:36","新北市中和區員山路327巷21號","121.480573333333","25.0016816666667","6500300","中和區"
"235041","802-TS","2019/09/07 18:29:33","新北市中和區景安路24號","121.507451666667","24.99856","6500300","中和區"
"235052","805-TS","2019/09/07 18:29:36","新北市中和區興南路二段96號","121.505158333333","24.9843466666667","6500300","中和區"
"235048","896-TW","2019/09/07 18:29:30","新北市中和區中正路49號","121.501873333333","24.9933783333333","6500300","中和區"
"235053","900-TW","2019/09/07 18:29:10","新北市土城區金城路三段257號","121.471783333333","24.9901383333333","6500300","中和區"
"235064","911-UM","2019/09/07 18:29:41","新北市中和區連城路125號","121.496095","24.999245","6500300","中和區"
"235051","157-BY","2019/09/07 18:29:32","新北市中和區興南路二段114巷10弄38號","121.50405","24.9851183333333","6500300","中和區"
"235037","AAC-213","2019/09/07 18:29:30","新北市中和區景德街52號","121.51768","24.9915033333333","6500300","中和區"
"235059","AAC-215","2019/09/07 18:29:48","新北市中和區員山路36巷16-3號","121.484995","24.9912","6500300","中和區"
"220065","072-UY","2019/09/07 18:29:36","新北市板橋區南雅南路二段140號","121.451766666667","24.9962633333333","6500100","板橋區"
"220069","AAD-861","2019/09/07 18:29:26","新北市板橋區大觀路二段266號","121.449175","24.9964633333333","6500100","板橋區"
"226004","312-R5","2019/09/07 18:29:32","新北市平溪區靜安路二段292號","121.729911666667","25.02236","6502400","平溪區"
"228003","097-TW","2019/09/07 18:29:42","新北市貢寮區和美里和美街40號","121.91243","25.089585","6502600","貢寮區"
"228001","212-TW","2019/09/07 18:29:46","新北市貢寮區仁理村仁和路110號","121.922818333333","25.0509","6502600","貢寮區"
"228002","663-BX","2019/09/07 18:29:46","新北市貢寮區福連里福連街15號","121.988105","25.013345","6502600","貢寮區"
"224010","AGQ-8101","2019/09/07 18:29:36","新北市瑞芳區基山街31巷20號","121.846005","25.1100583333333","6501200","瑞芳區"
"224006","676-BX","2019/09/07 18:29:44","新北市瑞芳區明燈路二段105號","121.80997","25.10785","6501200","瑞芳區"
"224002","639-TC","2019/09/07 18:29:29","新北市瑞芳區三爪子坑路29巷60號","121.813818333333","25.106125","6501200","瑞芳區"
"224007","285-BY","2019/09/07 18:29:31","新北市瑞芳區大埔路吉慶公園城37號","121.764186666667","25.099285","6501200","瑞芳區"
"224009","275-VK","2019/09/07 18:29:44","新北市瑞芳區五號路128號","121.854943333333","25.1108333333333","6501200","瑞芳區"
"224008","273-VK","2019/09/07 18:29:32","新北市瑞芳區逢甲路216號","121.806588333333","25.1102383333333","6501200","瑞芳區"
"224005","271-BY","2019/09/07 18:29:25","新北市瑞芳區台電新村28號","121.813751666667","25.1284283333333","6501200","瑞芳區"
"227001","642-TC","2019/09/07 18:29:30","新北市雙溪區牡丹里牡丹39號","121.852535","25.0584166666667","6502500","雙溪區"
"227002","400-TW","2019/09/07 18:29:34","新北市雙溪區魚行里坤溪21-1號","121.870338333333","25.02869","6502500","雙溪區"
"253005","032-BX","2019/09/07 18:29:33","新北市石門區老崩山2號","121.553063333333","25.2914616666667","6502200","石門區"
"253006","295-VK","2019/09/07 18:29:39","新北市石門區公地16號","121.54573","25.290225","6502200","石門區"
"222001","KEA-2212","2019/09/07 18:29:43","新北市深坑區北深路一段175號","121.63304","25.01088","6501800","深坑區"
"208002","KEA-2872","2019/09/07 18:29:41","新北市金山區忠孝一路3號","121.63938","25.2190833333333","6502700","金山區"
"208003","665-BX","2019/09/07 18:29:30","新北市金山區中山路192號","121.637876666667","25.221485","6502700","金山區"
"251004","009-UM","2019/09/07 18:29:32","新北市淡水區民族路31巷27號","121.462201666667","25.1364983333333","6501000","淡水區"
"251015","KEA-2871","2019/09/07 18:26:08","新北市淡水區興福寮88巷216號","121.485946666667","25.16667","6501000","淡水區"
"251016","179-VK","2019/09/07 18:29:46","新北市淡水區下圭柔山70巷2號","121.446313333333","25.2079783333333","6501000","淡水區"
"251008","181-VK","2019/09/07 18:29:31","新北市淡水區北投子87-2號","121.46816","25.1784483333333","6501000","淡水區"
"251013","182-VK","2019/09/07 18:29:31","新北市淡水區椿子林20號","121.479996666667","25.20381","6501000","淡水區"
"251010","413-VK","2019/09/07 18:29:34","新北市淡水區沙崙路181巷1號","121.424143333333","25.1841633333333","6501000","淡水區"
"251012","441-VK","2019/09/07 18:29:38","新北市淡水區北新路一段129-1號","121.457311666667","25.1820283333333","6501000","淡水區"
"251005","443-VK","2019/09/07 18:29:34","新北市淡水區中正東路35巷11號","121.446483333333","25.1686466666667","6501000","淡水區"
"251001","559-UM","2019/09/07 18:29:29","新北市淡水區自強路369號","121.46436","25.1331616666667","6501000","淡水區"
"251006","561-UM","2019/09/07 18:29:44","新北市淡水區新生街51巷22號","121.440655","25.1755983333333","6501000","淡水區"
"251014","577-R6","2019/09/07 18:29:28","新北市淡水區南平26-1號","121.493871666667","25.2146816666667","6501000","淡水區"
"251011","650-BX","2019/09/07 18:29:41","新北市淡水區坪頂路41號","121.45722","25.1622316666667","6501000","淡水區"
"251002","672-BX","2019/09/07 18:29:29","新北市淡水區竿蓁二街61-2號","121.454908333333","25.1632433333333","6501000","淡水區"
"251003","766-UM","2019/09/07 18:29:39","新北市淡水區北新路169巷14號","121.449713333333","25.18016","6501000","淡水區"
"207003","550-UM","2019/09/07 18:29:31","新北市萬里區野柳里港西路6號","121.685178333333","25.2032766666667","6502800","萬里區"
"207004","291-VK","2019/09/07 18:29:32","新北市萬里區萬里里瑪鋉路21號","121.687316666667","25.175365","6502800","萬里區"
"252002","178-VK","2019/09/07 18:29:37","新北市三芝區中山路二段39號","121.502916666667","25.2551233333333","6502100","三芝區"
"252003","249-BX","2019/09/07 18:29:31","新北市三芝區後厝里北勢子43號","121.471756666667","25.2524483333333","6502100","三芝區"
"208001","170-UY","2019/09/07 18:29:30","新北市金山區金包里街148號","121.637488333333","25.2225833333333","6502700","金山區"
"237007","153-BY","2019/09/07 18:29:43","新北市三峽區中正路三段170巷11號","121.35257","24.9040633333333","6500900","三峽區"
"237009","210-TH","2019/09/07 18:29:36","新北市三峽區大同路228號","121.36658","24.925975","6500900","三峽區"
"237013","252-BX","2019/09/07 18:29:27","新北市三峽區光明路69巷24號","121.376578333333","24.9291083333333","6500900","三峽區"
"237012","275-BY","2019/09/07 18:29:31","新北市三峽區三樹路168巷11號","121.379163333333","24.9406133333333","6500900","三峽區"
"237008","302-VK","2019/09/07 18:29:46","新北市三峽區白雞68-317號","121.392041666667","24.9100133333333","6500900","三峽區"
"237014","433-BY","2019/09/07 18:29:45","新北市三峽區文化路103號","121.370653333333","24.9361","6500900","三峽區"
"237006","5529-G3","2019/09/07 18:29:29","新北市三峽區溪東路473巷74號","121.415366666667","24.9293066666667","6500900","三峽區"
"237011","KEA-2596","2019/09/07 18:29:35","新北市三峽區溪東路218巷2-1號","121.407525","24.932035","6500900","三峽區"
"237015","649-BX","2019/09/07 18:29:30","新北市三峽區竹崙路144號","121.43501","24.908935","6500900","三峽區"
"237010","706-TV","2019/09/07 18:29:36","新北市三峽區中山路131號","121.365235","24.9359783333333","6500900","三峽區"
"237004","756-BX","2019/09/07 18:29:35","新北市三峽區五寮22號","121.374838333333","24.8703433333333","6500900","三峽區"
"237005","AKY-6261","2019/09/07 18:29:44","新北市三峽區清水街330號","121.371571666667","24.933935","6500900","三峽區"
"236042","KED-0685","2019/09/07 18:29:37","新北市土城區裕民路67巷14號","121.449823333333","24.9879916666667","6501300","土城區"
"236030","253-BX","2019/09/07 18:29:28","新北市土城區水源街73號","121.439605","24.9764383333333","6501300","土城區"
"236026","269-VK","2019/09/07 18:29:43","新北市土城區南天母路135巷16號","121.448345","24.9546083333333","6501300","土城區"
"236014","270-VK","2019/09/07 18:29:33","新北市土城區青雲路39巷7號","121.460303333333","24.9874133333333","6501300","土城區"
"236038","271-VK","2019/09/07 18:29:37","新北市土城區青雲路449號","121.45877","24.9751733333333","6501300","土城區"
"236070","KEA-2877","2019/09/07 18:29:34","新北市土城區永豐路255巷27弄28號","121.476673333333","24.9736133333333","6501300","土城區"
"252001","KED-0821","2019/09/07 18:29:34","新北市三芝區中興街二段6號","121.498496666667","25.25645","6502100","三芝區"
"236021","401-BY","2019/09/07 18:29:30","新北市土城區明德路一段93巷6號","121.466051666667","24.9833883333333","6501300","土城區"
"236059","912-UM","2019/09/07 18:29:37","新北市土城區中央路四段196-1號","121.416131666667","24.957635","6501300","土城區"
"236049","913-UM","2019/09/07 18:29:33","新北市土城區青雲路453號","121.458686666667","24.9745966666667","6501300","土城區"
"236063","915-UM","2019/09/07 18:29:44","新北市土城區延壽路75巷23弄2號","121.468828333333","24.9918383333333","6501300","土城區"
"236055","AAC-216","2019/09/07 18:29:29","新北市土城區中華路一段245號","121.441041666667","24.981865","6501300","土城區"
"242042","AAC-296","2019/09/07 18:29:28","新北市新莊區雙鳳路90巷4弄1號","121.415211666667","25.0284833333333","6500500","新莊區"
"242061","986-R7","2019/09/07 18:29:34","新北市新莊區富國路176巷7號","121.424115","25.0241316666667","6500500","新莊區"
"242058","705-TV","2019/09/07 18:29:38","新北市新莊區中正路891-45號","121.413766666667","25.0229083333333","6500500","新莊區"
"242029","615-BX","2019/09/07 18:29:33","新北市新莊區新泰路357巷3弄57號","121.44206","25.0393783333333","6500500","新莊區"
"242053","497-BY","2019/09/07 18:29:36","新北市新莊區樹新路120巷38號","121.430101666667","24.9960316666667","6500500","新莊區"
"242002","441-UM","2019/09/07 18:29:22","新北市新莊區瓊林路59-28號","121.443961666667","25.0262583333333","6500500","新莊區"
"242044","415-TV","2019/09/07 18:29:43","新北市新莊區新北大道七段842號","121.413713333333","25.0236483333333","6500500","新莊區"
"242025","362-BY","2019/09/07 18:29:40","新北市新莊區中央路106號","121.457123333333","25.0588216666667","6500500","新莊區"
"242056","172-VK","2019/09/07 18:29:35","新北市新莊區瓊泰路77巷16號","121.442593333333","25.0292366666667","6500500","新莊區"
"242015","346-TH","2019/09/07 18:29:39","新北市新莊區新泰路352號","121.444531666667","25.04252","6500500","新莊區"
"242009","349-TH","2019/09/07 18:29:42","新北市新莊區中華路二段13號","121.453741666667","25.0456","6500500","新莊區"
"242019","351-TH","2019/09/07 18:29:28","新北市新莊區中正路255號","121.449955","25.0355133333333","6500500","新莊區"
"238015","755-BX","2019/09/07 18:29:30","新北市樹林區啟智街187巷2號","121.415123333333","24.9871766666667","6500700","樹林區"
"238023","601-UM","2019/09/07 18:29:29","新北市樹林區三福街114號","121.406461666667","25.0163283333333","6500700","樹林區"
"238020","571-TV","2019/09/07 18:29:41","新北市樹林區三俊街213-1號","121.420646666667","25.01533","6500700","樹林區"
"238024","5061-A6","2019/09/07 18:29:46","新北市樹林區育英街2巷38號","121.423421666667","24.990205","6500700","樹林區"
"238018","KEA-2217","2019/09/07 18:29:32","新北市樹林區樹新路34巷4號","121.427451666667","24.99456","6500700","樹林區"
"238025","303-VK","2019/09/07 18:29:42","新北市樹林區保安街一段122號","121.42332","24.9949683333333","6500700","樹林區"
"238017","283-BY","2019/09/07 18:29:44","新北市樹林區光榮街3巷1號","121.412966666667","25.0039566666667","6500700","樹林區"
"238014","282-BY","2019/09/07 18:29:40","新北市樹林區大安路111巷8號","121.423156666667","24.9974833333333","6500700","樹林區"
"238026","172-UY","2019/09/07 18:29:33","新北市樹林區佳園路一段75巷186號","121.396711666667","24.97075","6500700","樹林區"
"239007","AAC-297","2019/09/07 18:29:36","新北市鶯歌區建國路166號","121.350226666667","24.9536333333333","6500800","鶯歌區"
"239006","891-R6","2019/09/07 18:29:35","新北市鶯歌區鶯桃路296巷48號","121.335818333333","24.9612383333333","6500800","鶯歌區"
"239008","527-UM","2019/09/07 18:29:27","新北市鶯歌區朝陽街2號","121.336251666667","24.9765783333333","6500800","鶯歌區"
"239005","526-UM","2019/09/07 18:29:43","新北市鶯歌區鶯桃路668巷71號","121.329603333333","24.971445","6500800","鶯歌區"
"239001","417-VK","2019/09/07 18:29:33","新北市鶯歌區高職東街3巷18號","121.340015","24.9423533333333","6500800","鶯歌區"
"239003","360-BY","2019/09/07 18:29:29","新北市鶯歌區福安街13巷1號","121.335515","24.96525","6500800","鶯歌區"
"239002","359-BY","2019/09/07 18:29:31","新北市鶯歌區中正一路47號","121.3523","24.9537883333333","6500800","鶯歌區"
"239004","193-VK","2019/09/07 18:29:31","新北市鶯歌區尖山路174巷32號","121.344308333333","24.9486316666667","6500800","鶯歌區"
"221036","130-UY","2019/09/07 18:29:37","新北市汐止區大同路三段143號","121.669348333333","25.07769","6501100","汐止區"
"221015","131-UY","2019/09/07 18:26:13","新北市汐止區鄉長路二段90-1號","121.665695","25.0857683333333","6501100","汐止區"
"221010","269-BY","2019/09/07 18:29:38","新北市汐止區汐萬路35號","121.644146666667","25.091565","6501100","汐止區"
"221012","278-VK","2019/09/07 18:29:45","新北市汐止區保長路35巷11號","121.673115","25.0799116666667","6501100","汐止區"
"221023","279-VK","2019/09/07 18:29:37","新北市汐止區康寧街474巷7-2號","121.63225","25.0679033333333","6501100","汐止區"
"221032","280-BY","2019/09/07 18:29:24","新北市汐止區福山街62巷11號","121.618526666667","25.0464966666667","6501100","汐止區"
"221027","281-BY","2019/09/07 18:29:35","新北市汐止區和平街69號","121.661488333333","25.0706516666667","6501100","汐止區"
"221021","299-VK","2019/09/07 18:29:37","新北市汐止區新台五路一段148號","121.653335","25.062","6501100","汐止區"
"221031","353-TW","2019/09/07 18:29:40","新北市汐止區新台五路一段35號","121.636215","25.05544","6501100","汐止區"
"221035","622-UM","2019/09/07 18:29:37","新北市汐止區大同路二段204號","121.653408333333","25.06483","6501100","汐止區"
"221025","623-UM","2019/09/07 18:29:43","新北市汐止區仁愛路110號","121.662513333333","25.0635116666667","6501100","汐止區"
"221038","646-BX","2019/09/07 18:29:33","新北市汐止區忠孝東路247號","121.662991666667","25.0676416666667","6501100","汐止區"
"221033","647-BX","2019/09/07 18:29:42","新北市汐止區宜興街33巷2號","121.6221","25.042145","6501100","汐止區"
"221002","707-TV","2019/09/07 18:29:31","新北市汐止區福德一路143號","121.636785","25.0669033333333","6501100","汐止區"
"221018","753-BX","2019/09/07 18:29:37","新北市汐止區茄苳路122號","121.668035","25.0700966666667","6501100","汐止區"
"220082","610-BX","2019/09/07 18:29:44","新北市板橋區華東街1-9號","121.448243333333","24.9949166666667","6500100","板橋區"
"220056","276-BY","2019/09/07 18:29:38","新北市板橋區四川路二段130巷25弄8-1號","121.44912","24.994495","6500100","板橋區"
"220071","283-VK","2019/09/07 18:29:35","新北市板橋區華東街1-9號","121.448296666667","24.9947416666667","6500100","板橋區"
"220084","296-UM","2019/09/07 18:29:26","新北市板橋區華東街1-9號","121.448231666667","24.9948933333333","6500100","板橋區"
"242046","281-VK","2019/09/07 18:29:29","新北市新莊區中正路803巷26號","121.421626666667","25.0279533333333","6500500","新莊區"
"242011","280-VK","2019/09/07 18:29:35","新北市新莊區中榮街126號","121.44645","25.05261","6500500","新莊區"
"220035","560-BX","2019/09/07 18:29:29","新北市板橋區南雅南路二段32號","121.454331666667","25.0030366666667","6500100","板橋區"
"220057","686-BX","2019/09/07 18:29:34","新北市板橋區南雅南路二段146號","121.451625","24.99605","6500100","板橋區"
"220077","687-BX","2019/09/07 18:29:34","新北市板橋區華東街1-10號","121.448361666667","24.9950116666667","6500100","板橋區"
"220054","741-BX","2019/09/07 18:29:31","新北市板橋區華東街1-9號","121.448251666667","24.994825","6500100","板橋區"
"220055","827-TW","2019/09/07 18:29:39","新北市板橋區四川路二段247號","121.450113333333","24.99316","6500100","板橋區"
"220074","895-R6","2019/09/07 18:29:44","新北市板橋區華東街1-10號","121.448278333333","24.9949533333333","6500100","板橋區"
"220073","985-R7","2019/09/07 18:29:45","新北市板橋區四川路二段253號","121.450283333333","24.99335","6500100","板橋區"
"235068","KEA-2873","2019/09/07 18:29:43","新北市中和區中正路271-3號","121.49572","24.99348","6500300","中和區"
"235061","KEA-2875","2019/09/07 18:29:23","新北市中和區民享街95-1號","121.474831666667","25.000295","6500300","中和區"
"235062","KEA-2876","2019/09/07 18:29:40","新北市中和區中山路二段312巷33弄19號","121.494765","25.0039083333333","6500300","中和區"
