"lineid","car","time","location","longitude","latitude","cityid","cityname"
"234046","148-BY","2019/09/07 18:49:33","新北市永和區秀朗路二段124-3號","121.524846666667","25.0015216666667","6500400","永和區"
"234081","298-R6","2019/09/07 18:49:36","新北市永和區永利路83-1號","121.521276666667","25.003475","6500400","永和區"
"234038","336-UY","2019/09/07 18:49:42","新北市永和區福和路1號","121.525048333333","25.009055","6500400","永和區"
"234064","337-UY","2019/09/07 18:49:11","新北市永和區福和路1號","121.526243333333","25.0097433333333","6500400","永和區"
"234086","338-UY","2019/09/07 18:49:32","新北市永和區中正路164號","121.515091666667","24.9967583333333","6500400","永和區"
"234017","745-BX","2019/09/07 18:49:29","新北市永和區永和路二段299號","121.516113333333","25.016105","6500400","永和區"
"234030","746-BX","2019/09/07 18:49:30","新北市永和區得和路323號","121.523383333333","24.999755","6500400","永和區"
"234007","KED-0605","2019/09/07 18:49:34","新北市永和區文化路123號","121.51223","25.01535","6500400","永和區"
"234013","KEA-2591","2019/09/07 18:49:45","新北市永和區保福路二段133巷25號","121.509346666667","25.013555","6500400","永和區"
"234061","AAD-866","2019/09/07 18:49:41","新北市永和區福和路309巷3號","121.516345","25.0069516666667","6500400","永和區"
"234050","863-TW","2019/09/07 18:49:37","新北市永和區福和路1號","121.526511666667","25.01002","6500400","永和區"
"234011","9373-KE","2019/09/07 18:49:40","新北市永和區文化路124號","121.513076666667","25.0153083333333","6500400","永和區"
"249005","172-UM","2019/09/07 18:49:32","新北市八里區長道坑16-1號","121.39552","25.1170083333333","6502300","八里區"
"249001","173-UM","2019/09/07 18:49:44","新北市八里區龍米路二段56號","121.448195","25.1407716666667","6502300","八里區"
"249002","305-UY","2019/09/07 18:49:41","新北市八里區龍形一街33巷6-2號","121.449316666667","25.12948","6502300","八里區"
"248016","026-BX","2019/09/07 18:49:40","新北市五股區凌雲路一段134巷21號","121.45003","25.10283","6501500","五股區"
"248006","077-UY","2019/09/07 18:49:43","新北市五股區四維路85號","121.467283333333","25.0725033333333","6501500","五股區"
"248008","KED-0815","2019/09/07 18:49:31","新北市五股區中興路一段151巷32號","121.465103333333","25.0728216666667","6501500","五股區"
"248020","KED-0813","2019/09/07 18:49:41","新北市五股區凌雲路三段田埔巷3-1號","121.433935","25.11969","6501500","五股區"
"248012","247-BX","2019/09/07 18:49:39","新北市五股區成泰路二段145號","121.439051666667","25.0853883333333","6501500","五股區"
"248014","261-SL","2019/09/07 18:49:29","新北市五股區民義路一段107巷32號","121.43223","25.0849566666667","6501500","五股區"
"248010","272-BY","2019/09/07 18:49:46","新北市五股區水碓七路81號","121.429691666667","25.0722433333333","6501500","五股區"
"248004","677-BX","2019/09/07 18:49:34","新北市五股區民義路二段43號","121.410595","25.1042833333333","6501500","五股區"
"248002","678-BX","2019/09/07 18:49:33","新北市五股區成泰路三段437號","121.449838333333","25.0978933333333","6501500","五股區"
"234023","9380-KE","2019/09/07 18:49:26","新北市永和區竹林路119巷28-3號","121.521838333333","25.0118116666667","6500400","永和區"
"234077","969-R7","2019/09/07 18:49:30","新北市永和區中正路2巷29弄13號","121.51378","24.9940766666667","6500400","永和區"
"232011","375-UM","2019/09/07 18:49:35","新北市坪林區坪林街55號","121.711428333333","24.9375733333333","6502000","坪林區"
"244007","080-UY","2019/09/07 18:49:42","新北市林口區太平嶺1鄰3號","121.378981666667","25.1118816666667","6501700","林口區"
"244019","402-UM","2019/09/07 18:49:32","新北市林口區麗園二街10-5號","121.378145","25.0695166666667","6501700","林口區"
"244013","KEA-2802","2019/09/07 18:49:43","新北市林口區麗園二街23巷15-9號","121.379275","25.07025","6501700","林口區"
"244023","483-VK","2019/09/07 18:49:30","新北市林口區文化一路二段2號","121.380333333333","25.0767766666667","6501700","林口區"
"244017","485-VK","2019/09/07 18:49:39","新北市林口區文化二路一段20巷25弄2號","121.366065","25.0680033333333","6501700","林口區"
"244009","656-BX","2019/09/07 18:49:27","新北市林口區竹林路356號","121.391603333333","25.08429","6501700","林口區"
"244011","701-TV","2019/09/07 18:49:44","新北市林口區仁愛路一段285巷62號","121.395453333333","25.074315","6501700","林口區"
"244025","837-TS","2019/09/07 18:49:38","新北市林口區忠孝一路148號","121.36043","25.0743366666667","6501700","林口區"
"244021","838-TS","2019/09/07 18:49:38","新北市林口區工六路100號","121.401298333333","25.07663","6501700","林口區"
"243010","297-R6","2019/09/07 18:49:42","新北市泰山區辭修路48號","121.428591666667","25.057145","6501600","泰山區"
"243014","KEA-2801","2019/09/07 18:49:32","新北市泰山區犁頭窠3-1號","121.422095","25.0605633333333","6501600","泰山區"
"243016","421-VK","2019/09/07 18:44:25","新北市泰山區明志路一段515號","121.430501666667","25.0541783333333","6501600","泰山區"
"243015","680-BX","2019/09/07 18:49:27","新北市泰山區美寧街58號","121.430461666667","25.0646133333333","6501600","泰山區"
"222003","436-BY","2019/09/07 18:49:27","新北市深坑區深南路51-1號","121.621348333333","25.010255","6501800","深坑區"
"222002","659-BX","2019/09/07 18:49:33","新北市深坑區文山路一段69號","121.627006666667","25.001925","6501800","深坑區"
"231061","002-UM","2019/09/07 18:49:31","新北市新店區安華路28-1號","121.519836666667","24.96083","6500600","新店區"
"231055","0291-UT","2019/09/07 18:49:39","新北市新店區新生街37號","121.539351666667","24.9668816666667","6500600","新店區"
"231058","0293-UT","2019/09/07 18:49:42","新北市新店區北宜路一段115巷15號","121.540871666667","24.9548416666667","6500600","新店區"
"231044","046-UY","2019/09/07 18:49:28","新北市新店區光明街123號","121.539065","24.96182","6500600","新店區"
"231060","106-UY","2019/09/07 18:49:29","新北市新店區安華路28-1號","121.519665","24.96082","6500600","新店區"
"231051","107-UY","2019/09/07 18:49:34","新北市新店區中央路81號","121.532403333333","24.9766166666667","6500600","新店區"
"231049","108-UY","2019/09/07 18:49:45","新北市新店區中央路149號","121.530015","24.9733683333333","6500600","新店區"
"231065","110-UY","2019/09/07 18:49:42","新北市新店區安康路三段172號","121.489526666667","24.9518016666667","6500600","新店區"
"231062","256-BX","2019/09/07 18:49:37","新北市新店區安一路一段1-1號","121.519741666667","24.9611133333333","6500600","新店區"
"231054","260-TV","2019/09/07 18:49:36","新北市新店區安一路一段1-1號","121.519245","24.961095","6500600","新店區"
"231042","268-BY","2019/09/07 18:49:31","新北市新店區中正路75巷61號","121.54315","24.9693116666667","6500600","新店區"
"231064","278-BY","2019/09/07 18:49:41","新北市新店區安一路一段1-1號","121.51964","24.961095","6500600","新店區"
"231050","AAD-862","2019/09/07 18:49:43","新北市新店區安康路一段50-1號","121.529678333333","24.9613666666667","6500600","新店區"
"231045","355-BY","2019/09/07 18:49:47","新北市新店區安華路28-1號","121.519235","24.9609033333333","6500600","新店區"
"231056","4715-K9","2019/09/07 18:49:29","新北市新店區大同街8巷4號","121.539675","24.9801966666667","6500600","新店區"
"231052","515-UM","2019/09/07 18:49:45","新北市新店區永興路10號","121.545603333333","24.9401916666667","6500600","新店區"
"231063","616-UM","2019/09/07 18:49:27","新北市新店區安華路1-1號","121.519453333333","24.9604816666667","6500600","新店區"
"231040","617-UM","2019/09/07 18:49:42","新北市新店區安康路一段107-2號","121.528771666667","24.9616716666667","6500600","新店區"
"231048","KED-0819","2019/09/07 18:49:40","新北市新店區環河路29巷1號","121.53713","24.9613433333333","6500600","新店區"
"231046","719-UM","2019/09/07 18:49:32","新北市新店區直潭路71號","121.532323333333","24.9421966666667","6500600","新店區"
"231057","720-UM","2019/09/07 18:49:30","新北市新店區新烏路一段215號","121.549258333333","24.9313983333333","6500600","新店區"
"231059","897-TW","2019/09/07 18:49:35","新北市新店區安華路28-1號","121.519606666667","24.9606","6500600","新店區"
"231043","899-TW","2019/09/07 18:49:28","新北市新店區安康路一段164-1號","121.52602","24.962995","6500600","新店區"
"231066","AKT-0513","2019/09/07 18:49:30","新北市新店區安華路1-1號","121.519433333333","24.9604166666667","6500600","新店區"
"241035","462-BY","2019/09/07 18:49:43","新北市三重區重新路四段121號","121.484908333333","25.0518783333333","6500200","三重區"
"235066","003-UY","2019/09/07 18:49:38","新北市中和區中山路二段131巷33號","121.50382","25.002765","6500300","中和區"
"235063","006-UY","2019/09/07 18:49:33","新北市中和區錦和路115號","121.490535","24.9944616666667","6500300","中和區"
"235056","096-UM","2019/09/07 18:49:32","新北市中和區員山路466巷17弄23號","121.480458333333","25.0072283333333","6500300","中和區"
"235039","097-UM","2019/09/07 18:49:37","新北市中和區安樂路217巷37號","121.513506666667","24.9980333333333","6500300","中和區"
"235065","098-UM","2019/09/07 18:49:29","新北市中和區中山路二段2巷45弄36號","121.501465","25.006935","6500300","中和區"
"235040","150-BY","2019/09/07 18:49:29","新北市中和區安平路36巷3號","121.510208333333","24.994855","6500300","中和區"
"235058","151-BY","2019/09/07 18:49:30","新北市中和區連城路532巷3-4號","121.475356666667","24.991925","6500300","中和區"
"235055","183-VK","2019/09/07 18:49:33","新北市中和區民生街85巷3弄2號","121.469106666667","25.0042516666667","6500300","中和區"
"235038","185-VK","2019/09/07 18:49:35","新北市中和區大勇街48號","121.517515","24.994075","6500300","中和區"
"235049","186-VK","2019/09/07 18:49:41","新北市中和區景安路177巷27號","121.506651666667","24.9944916666667","6500300","中和區"
"235067","255-BX","2019/09/07 18:49:42","新北市中和區中正路831號","121.484733333333","25.00204","6500300","中和區"
"235044","293-VK","2019/09/07 18:49:41","新北市中和區復興路348號","121.49996","24.9904366666667","6500300","中和區"
"235072","301-VK","2019/09/07 18:49:39","新北市中和區中山路二段14號","121.504926666667","25.0055716666667","6500300","中和區"
"235043","352-BY","2019/09/07 18:49:37","新北市中和區秀朗路三段64號","121.526391666667","24.9948766666667","6500300","中和區"
"235042","KEA-2878","2019/09/07 18:49:46","新北市中和區秀朗路三段70巷34號","121.525533333333","24.9945183333333","6500300","中和區"
"235050","4979-A6","2019/09/07 18:49:32","新北市中和區忠孝街62巷9弄1號","121.513116666667","24.9839633333333","6500300","中和區"
"235069","4980-A6","2019/09/07 18:49:33","新北市中和區中和路139號","121.502038333333","24.9996966666667","6500300","中和區"
"235070","558-UM","2019/09/07 18:49:36","新北市中和區安和路195號","121.5058","24.9983233333333","6500300","中和區"
"235045","565-BX","2019/09/07 18:49:32","新北市中和區興南路一段25號","121.511171666667","24.9907283333333","6500300","中和區"
"235060","KED-0823","2019/09/07 18:49:38","新北市中和區民治街11巷2號","121.475216666667","25.0041883333333","6500300","中和區"
"235054","640-BX","2019/09/07 18:49:37","新北市中和區民享街1號","121.473853333333","25.0057833333333","6500300","中和區"
"235047","732-UM","2019/09/07 18:49:26","新北市中和區興南路二段34巷57弄1號","121.504843333333","24.9859283333333","6500300","中和區"
"235046","733-UM","2019/09/07 18:49:40","新北市中和區興南路一段106號","121.509811666667","24.9888783333333","6500300","中和區"
"235057","801-TS","2019/09/07 18:49:36","新北市中和區民利街58巷3弄1號","121.478843333333","24.9990433333333","6500300","中和區"
"235041","802-TS","2019/09/07 18:49:33","新北市中和區安平路123號","121.511371666667","24.9980816666667","6500300","中和區"
"235052","805-TS","2019/09/07 18:49:36","新北市中和區興南路二段399巷38號","121.499293333333","24.97886","6500300","中和區"
"235048","896-TW","2019/09/07 18:49:30","新北市中和區華新街61號","121.507976666667","24.9842333333333","6500300","中和區"
"235053","900-TW","2019/09/07 18:49:29","新北市中和區民德路290巷5號","121.467083333333","24.9957666666667","6500300","中和區"
"235064","911-UM","2019/09/07 18:49:41","新北市中和區泰和街40號","121.499203333333","24.9999033333333","6500300","中和區"
"235051","157-BY","2019/09/07 18:49:32","新北市中和區忠孝街106巷22號","121.512838333333","24.9843816666667","6500300","中和區"
"235037","AAC-213","2019/09/07 18:49:30","新北市中和區秀朗路三段10巷37弄2號","121.524113333333","24.9960933333333","6500300","中和區"
"235059","AAC-215","2019/09/07 18:49:28","新北市中和區圓通路393巷18號","121.489835","24.988555","6500300","中和區"
"220065","072-UY","2019/09/07 18:49:36","新北市板橋區館前東路108-1號","121.463196666667","25.0077","6500100","板橋區"
"220086","073-UY","2019/09/07 18:49:47","新北市板橋區南雅西路二段145巷3號","121.4517","25.0114883333333","6500100","板橋區"
"220106","075-UY","2019/09/07 18:49:40","新北市板橋區莒光路52-1號","121.470773333333","25.0243316666667","6500100","板橋區"
"220069","AAD-861","2019/09/07 18:49:46","新北市板橋區華興街81號","121.456843333333","25.005135","6500100","板橋區"
"220106","120-SR","2019/09/07 18:49:42","新北市板橋區大同街35巷28號","121.477418333333","25.0278483333333","6500100","板橋區"
"226004","312-R5","2019/09/07 18:49:43","新北市平溪區平溪里平溪街46號","121.738046666667","25.02691","6502400","平溪區"
"228003","097-TW","2019/09/07 18:49:42","新北市貢寮區和美里龍洞街35號","121.916151666667","25.11166","6502600","貢寮區"
"228001","212-TW","2019/09/07 18:49:46","新北市貢寮區仁理村保健街73號","121.923708333333","25.0516866666667","6502600","貢寮區"
"228002","663-BX","2019/09/07 18:49:46","新北市貢寮區福隆里東興街6-11號","121.950786666667","25.0211","6502600","貢寮區"
"224006","676-BX","2019/09/07 18:49:44","新北市瑞芳區中正路100號","121.80517","25.107695","6501200","瑞芳區"
"224002","639-TC","2019/09/07 18:49:45","新北市瑞芳區中山路307-2號","121.79377","25.1095416666667","6501200","瑞芳區"
"224007","285-BY","2019/09/07 18:49:31","新北市瑞芳區大埔路慶安新村28號","121.762628333333","25.1002866666667","6501200","瑞芳區"
"224009","275-VK","2019/09/07 18:49:44","新北市瑞芳區祈堂路53-1號","121.8596","25.1104516666667","6501200","瑞芳區"
"224008","273-VK","2019/09/07 18:49:32","新北市瑞芳區裕民新城1號","121.801931666667","25.1119933333333","6501200","瑞芳區"
"224005","271-BY","2019/09/07 18:49:45","新北市瑞芳區濱二路56-1號","121.8319","25.118335","6501200","瑞芳區"
"227001","642-TC","2019/09/07 18:49:30","新北市雙溪區牡丹里下坑11號","121.851033333333","25.0561816666667","6502500","雙溪區"
"227002","400-TW","2019/09/07 18:49:34","新北市雙溪區共和里中山路57號","121.867615","25.03175","6502500","雙溪區"
"253005","032-BX","2019/09/07 18:49:27","新北市石門區中山路28-3號","121.56579","25.2899166666667","6502200","石門區"
"253006","295-VK","2019/09/07 18:49:39","新北市石門區下員坑15號","121.511691666667","25.28491","6502200","石門區"
"222001","KEA-2212","2019/09/07 18:49:43","新北市深坑區北深路一段32號","121.638075","25.010525","6501800","深坑區"
"208002","KEA-2872","2019/09/07 18:49:41","新北市金山區信義路33號","121.635523333333","25.2197833333333","6502700","金山區"
"208003","665-BX","2019/09/07 18:48:12","新北市金山區中山路391號","121.633536666667","25.2251083333333","6502700","金山區"
"251009","008-UM","2019/09/07 18:49:29","新北市淡水區重建街226號","121.441431666667","25.1750583333333","6501000","淡水區"
"251015","KEA-2871","2019/09/07 18:49:28","新北市淡水區糞箕湖17-2號","121.48726","25.169815","6501000","淡水區"
"251016","179-VK","2019/09/07 18:49:46","新北市淡水區下圭柔山71-3號","121.447016666667","25.2062483333333","6501000","淡水區"
"251008","181-VK","2019/09/07 18:49:31","新北市淡水區北投子14-6號","121.447366666667","25.18495","6501000","淡水區"
"251013","182-VK","2019/09/07 18:49:31","新北市淡水區安子內5號","121.484233333333","25.2150783333333","6501000","淡水區"
"251010","413-VK","2019/09/07 18:49:34","新北市淡水區沙崙路20號","121.421163333333","25.1812","6501000","淡水區"
"243009","549-UM","2019/09/07 18:49:36","新北市泰山區泰林路二段362號","121.428788333333","25.0636983333333","6501600","泰山區"
"251012","441-VK","2019/09/07 18:49:37","新北市淡水區北新路2號","121.444296666667","25.177705","6501000","淡水區"
"251001","559-UM","2019/09/07 18:49:29","新北市淡水區自強路275號","121.462545","25.1283283333333","6501000","淡水區"
"251014","577-R6","2019/09/07 18:49:43","新北市淡水區崙頂3號","121.489791666667","25.2237983333333","6501000","淡水區"
"251011","650-BX","2019/09/07 18:49:41","新北市淡水區鄧公路2巷1號","121.448718333333","25.1687616666667","6501000","淡水區"
"251002","672-BX","2019/09/07 18:49:28","新北市淡水區學府路60號","121.44862","25.1699583333333","6501000","淡水區"
"251003","766-UM","2019/09/07 18:49:39","新北市淡水區中山北路一段186巷27弄1-1號","121.446175","25.1788633333333","6501000","淡水區"
"207003","550-UM","2019/09/07 18:49:29","新北市萬里區野柳里港東路201號","121.689641666667","25.2038266666667","6502800","萬里區"
"207004","291-VK","2019/09/07 18:49:32","新北市萬里區萬里里獅頭路23號","121.693211666667","25.1782116666667","6502800","萬里區"
"252002","178-VK","2019/09/07 18:49:37","新北市三芝區中正路一段112號","121.504855","25.2563683333333","6502100","三芝區"
"252003","249-BX","2019/09/07 18:49:31","新北市三芝區後厝里大片頭81-1號","121.459176666667","25.2446316666667","6502100","三芝區"
"208001","170-UY","2019/09/07 18:49:30","新北市金山區文化三路66巷1號","121.63422","25.225615","6502700","金山區"
"237007","153-BY","2019/09/07 18:49:43","新北市三峽區中正路二段490號","121.363","24.906875","6500900","三峽區"
"237013","252-BX","2019/09/07 18:49:47","新北市三峽區光明路69巷25號","121.376578333333","24.9292016666667","6500900","三峽區"
"237012","275-BY","2019/09/07 18:49:31","新北市三峽區三樹路340號","121.38393","24.9433383333333","6500900","三峽區"
"237008","302-VK","2019/09/07 18:49:46","新北市三峽區正義街206號","121.368103333333","24.91409","6500900","三峽區"
"237014","433-BY","2019/09/07 18:49:45","新北市三峽區隆恩街551號","121.357408333333","24.94021","6500900","三峽區"
"237006","5529-G3","2019/09/07 18:49:29","新北市三峽區溪東路211巷31弄3號","121.405501666667","24.9341633333333","6500900","三峽區"
"237011","KEA-2596","2019/09/07 18:49:35","新北市三峽區溪東路57號","121.400871666667","24.9348033333333","6500900","三峽區"
"237015","649-BX","2019/09/07 18:49:30","新北市三峽區建安25-3號","121.44592","24.927515","6500900","三峽區"
"237010","706-TV","2019/09/07 18:49:36","新北市三峽區復興路449號","121.36262","24.9385233333333","6500900","三峽區"
"237004","756-BX","2019/09/07 18:49:35","新北市三峽區有木37號","121.431586666667","24.8634716666667","6500900","三峽區"
"237005","AKY-6261","2019/09/07 18:49:44","新北市三峽區中山路459巷135號","121.349093333333","24.9333933333333","6500900","三峽區"
"236042","KED-0685","2019/09/07 18:49:35","新北市土城區裕民路114巷29號","121.450271666667","24.9854683333333","6501300","土城區"
"236030","253-BX","2019/09/07 18:49:28","新北市土城區中央路二段233號","121.4403","24.972385","6501300","土城區"
"236026","269-VK","2019/09/07 18:49:44","新北市土城區慶安街29巷12號","121.441523333333","24.972825","6501300","土城區"
"236014","270-VK","2019/09/07 18:49:48","新北市土城區金城路二段338巷6號","121.460498333333","24.9840666666667","6501300","土城區"
"236038","271-VK","2019/09/07 18:49:37","新北市土城區明德路一段221巷9號","121.463683333333","24.9780283333333","6501300","土城區"
"236070","KEA-2877","2019/09/07 18:49:32","新北市土城區延和路21巷9號","121.464123333333","24.9887466666667","6501300","土城區"
"252001","KED-0821","2019/09/07 18:49:34","新北市三芝區中正路三段9號","121.502885","25.2540133333333","6502100","三芝區"
"236021","401-BY","2019/09/07 18:49:30","新北市土城區延安街42-5號","121.46753","24.9852183333333","6501300","土城區"
"236059","912-UM","2019/09/07 18:49:37","新北市土城區金城路二段2巷5號","121.447585","24.9760983333333","6501300","土城區"
"236049","913-UM","2019/09/07 18:49:33","新北市土城區青雲路2號","121.460345","24.989845","6501300","土城區"
"236063","915-UM","2019/09/07 18:49:30","新北市土城區金城路三段175號","121.46936","24.98869","6501300","土城區"
"236055","AAC-216","2019/09/07 18:49:29","新北市土城區裕民路190號","121.453015","24.98501","6501300","土城區"
"242029","615-BX","2019/09/07 18:49:33","新北市新莊區新泰路357巷3弄57號","121.441896666667","25.0394216666667","6500500","新莊區"
"242009","349-TH","2019/09/07 18:49:42","新北市新莊區瓊林路59-56號","121.444758333333","25.026155","6500500","新莊區"
"238023","601-UM","2019/09/07 18:49:29","新北市樹林區工興街14巷1號","121.399033333333","25.013735","6500700","樹林區"
"238019","599-UM","2019/09/07 18:49:35","新北市樹林區東興街3號","121.409943333333","24.980465","6500700","樹林區"
"238020","571-TV","2019/09/07 18:49:41","新北市樹林區三龍街94巷11號","121.41446","25.0180366666667","6500700","樹林區"
"238024","5061-A6","2019/09/07 18:49:29","新北市樹林區太順街52號","121.418131666667","24.9794066666667","6500700","樹林區"
"238018","KEA-2217","2019/09/07 18:49:32","新北市樹林區四德街29號","121.425661666667","24.99209","6500700","樹林區"
"238022","KEA-2213","2019/09/07 18:49:36","新北市樹林區中華路190-8號","121.411333333333","24.9804933333333","6500700","樹林區"
"238021","KEA-2539","2019/09/07 18:49:33","新北市樹林區西圳街二段57巷1號","121.38748","24.960255","6500700","樹林區"
"238017","283-BY","2019/09/07 18:49:44","新北市樹林區光興街50號","121.409873333333","25.0026883333333","6500700","樹林區"
"238014","282-BY","2019/09/07 18:49:40","新北市樹林區大安路111巷25號","121.423141666667","24.9975966666667","6500700","樹林區"
"238026","172-UY","2019/09/07 18:49:33","新北市樹林區育德街113號","121.389531666667","24.9682683333333","6500700","樹林區"
"239007","AAC-297","2019/09/07 18:49:36","新北市鶯歌區中正一路438號","121.361985","24.9570583333333","6500800","鶯歌區"
"239006","891-R6","2019/09/07 18:49:35","新北市鶯歌區鶯桃路296巷46-3號","121.335786666667","24.961215","6500800","鶯歌區"
"239008","527-UM","2019/09/07 18:49:27","新北市鶯歌區朝陽街2號","121.336248333333","24.9765733333333","6500800","鶯歌區"
"239005","526-UM","2019/09/07 18:49:43","新北市鶯歌區鳳吉二街130號","121.328168333333","24.97465","6500800","鶯歌區"
"239001","417-VK","2019/09/07 18:49:33","新北市鶯歌區二甲路光照巷2號","121.338386666667","24.940385","6500800","鶯歌區"
"239003","360-BY","2019/09/07 18:49:29","新北市鶯歌區鶯桃路526號","121.331673333333","24.96692","6500800","鶯歌區"
"239002","359-BY","2019/09/07 18:49:31","新北市鶯歌區中山路300號","121.342876666667","24.9573483333333","6500800","鶯歌區"
"239004","193-VK","2019/09/07 18:49:31","新北市鶯歌區國中街140號","121.339281666667","24.93972","6500800","鶯歌區"
"221036","130-UY","2019/09/07 18:49:37","新北市汐止區大同路三段39號","121.666696666667","25.0764516666667","6501100","汐止區"
"221015","131-UY","2019/09/07 18:49:38","新北市汐止區鄉友街5號","121.668098333333","25.0807383333333","6501100","汐止區"
"221032","280-BY","2019/09/07 18:49:24","新北市汐止區橫科路322巷24弄6-1號","121.620283333333","25.05016","6501100","汐止區"
"221029","298-VK","2019/09/07 18:49:26","新北市汐止區樟樹一路1巷52號","121.640816666667","25.0625333333333","6501100","汐止區"
"221021","299-VK","2019/09/07 18:49:37","新北市汐止區新興路46號","121.657106666667","25.0631416666667","6501100","汐止區"
"221031","353-TW","2019/09/07 18:49:40","新北市汐止區福德一路274號","121.632083333333","25.0640866666667","6501100","汐止區"
"221035","622-UM","2019/09/07 18:49:37","新北市汐止區大同路二段122號","121.651066666667","25.063865","6501100","汐止區"
"221025","623-UM","2019/09/07 18:49:43","新北市汐止區福安街20巷21號","121.661761666667","25.064295","6501100","汐止區"
"221002","707-TV","2019/09/07 18:49:31","新北市汐止區大同路一段36號","121.62208","25.0549666666667","6501100","汐止區"
"221018","753-BX","2019/09/07 18:49:37","新北市汐止區茄福街10號","121.672791666667","25.06749","6501100","汐止區"
"220079","145-BY","2019/09/07 18:49:26","新北市板橋區南雅西路二段192巷1弄9-2號","121.452146666667","25.0146733333333","6500100","板橋區"
"220082","610-BX","2019/09/07 18:49:44","新北市板橋區篤行路三段玉平巷76弄8號","121.427611666667","24.9858033333333","6500100","板橋區"
"220101","245-BX","2019/09/07 18:49:28","新北市板橋區文化路二段182巷23號","121.472311666667","25.0265883333333","6500100","板橋區"
"220091","267-BY","2019/09/07 18:49:46","新北市板橋區雙十路二段47巷53號","121.475066666667","25.0251266666667","6500100","板橋區"
"220056","276-BY","2019/09/07 18:49:41","新北市板橋區四川路一段200號","121.459565","25.0023933333333","6500100","板橋區"
"220072","277-BY","2019/09/07 18:49:27","新北市板橋區金門街19巷1號","121.433773333333","24.994695","6500100","板橋區"
"220094","283-UM","2019/09/07 18:49:15","新北市板橋區莒光路8-2號","121.469543333333","25.0248566666667","6500100","板橋區"
"220071","283-VK","2019/09/07 18:49:35","新北市板橋區四川路一段20號","121.45944","25.0064483333333","6500100","板橋區"
"220053","285-VK","2019/09/07 18:49:42","新北市板橋區成功路49號","121.474863333333","25.0178616666667","6500100","板橋區"
"220083","286-VK","2019/09/07 18:49:36","新北市板橋區大觀路二段22巷32號","121.44513","25.0036233333333","6500100","板橋區"
"220081","287-VK","2019/09/07 18:49:38","新北市板橋區光華街13巷26號","121.453486666667","25.0113916666667","6500100","板橋區"
"220061","293-UM","2019/09/07 18:49:33","新北市板橋區永豐街115號","121.474326666667","25.0195516666667","6500100","板橋區"
"220062","295-UM","2019/09/07 18:49:46","新北市板橋區中山路二段40巷6弄2號","121.47319","25.014845","6500100","板橋區"
"220084","296-UM","2019/09/07 18:49:46","新北市板橋區大觀路二段150巷23號","121.441658333333","24.99955","6500100","板橋區"
"220067","299-UM","2019/09/07 18:49:32","新北市板橋區三民路二段正隆巷29號","121.477316666667","25.013335","6500100","板橋區"
"242046","281-VK","2019/09/07 18:49:29","新北市樹林區中正路163號","121.424118333333","25.0022733333333","6500500","新莊區"
"220075","303-R5","2019/09/07 18:49:30","新北市板橋區館前西路158-8號","121.454516666667","25.0088983333333","6500100","板橋區"
"220092","307-R5","2019/09/07 18:49:32","新北市板橋區文化路一段136巷8弄8號","121.465533333333","25.0182","6500100","板橋區"
"220098","317-R6","2019/09/07 18:49:42","新北市板橋區民生路二段234巷24弄3號","121.470426666667","25.0221966666667","6500100","板橋區"
"220089","487-VK","2019/09/07 18:49:33","新北市板橋區文化路二段464號","121.474993333333","25.0326883333333","6500100","板橋區"
"220088","491-VK","2019/09/07 18:49:35","新北市板橋區莒光路18號","121.469785","25.0247666666667","6500100","板橋區"
"220035","560-BX","2019/09/07 18:49:29","新北市板橋區中正路275巷79弄3號","121.452233333333","25.01786","6500100","板橋區"
"220103","561-BX","2019/09/07 18:49:41","新北市板橋區介壽街84巷11號","121.469858333333","25.0183183333333","6500100","板橋區"
"220080","568-UM","2019/09/07 18:49:28","新北市板橋區大觀路二段265巷66弄18號","121.441893333333","24.99699","6500100","板橋區"
"220063","609-BX","2019/09/07 18:49:34","新北市板橋區中山路二段73號","121.4734","25.0157","6500100","板橋區"
"220057","686-BX","2019/09/07 18:49:34","新北市板橋區重慶路198號","121.462593333333","25.0027683333333","6500100","板橋區"
"220077","687-BX","2019/09/07 18:49:34","新北市板橋區大觀路二段174巷170號","121.441951666667","25.0034283333333","6500100","板橋區"
"220054","741-BX","2019/09/07 18:49:31","新北市板橋區館前東路15號","121.460071666667","25.007305","6500100","板橋區"
"220102","KEA-2699","2019/09/07 18:49:37","新北市板橋區萬板路478號","121.480048333333","25.0259483333333","6500100","板橋區"
"220055","827-TW","2019/09/07 18:49:43","新北市板橋區忠孝路58號","121.461128333333","25.001815","6500100","板橋區"
"220090","831-TW","2019/09/07 18:49:31","新北市板橋區四維路177巷4弄10號","121.4633","25.0262366666667","6500100","板橋區"
"220074","895-R6","2019/09/07 18:49:44","新北市板橋區南門街53號","121.45723","25.0084533333333","6500100","板橋區"
"220073","985-R7","2019/09/07 18:49:38","新北市板橋區館前西路154-3號","121.455206666667","25.0084483333333","6500100","板橋區"
"220097","AAC-210","2019/09/07 18:49:45","新北市板橋區陽明街129巷1號","121.463231666667","25.023545","6500100","板橋區"
"220064","AAC-253","2019/09/07 18:49:42","新北市板橋區縣民大道二段116號","121.46733","25.0156383333333","6500100","板橋區"
"235068","KEA-2873","2019/09/07 18:49:43","新北市中和區中正路211巷36弄6號","121.497123333333","24.9927916666667","6500300","中和區"
"235061","KEA-2875","2019/09/07 18:49:23","新北市中和區民享街69巷3號","121.474471666667","25.0022683333333","6500300","中和區"
"235062","KEA-2876","2019/09/07 18:49:40","新北市中和區中山路二段496號","121.48691","25.0049016666667","6500300","中和區"
