"lineid","car","time","location","longitude","latitude","cityid","cityname"
"234046","148-BY","2019/09/07 18:59:33","新北市永和區得和路373巷16弄1號","121.525108333333","25.0003683333333","6500400","永和區"
"234081","298-R6","2019/09/07 18:59:36","新北市永和區永亨路83號","121.522036666667","25.00573","6500400","永和區"
"234038","336-UY","2019/09/07 18:59:42","新北市永和區成功路二段207號","121.526568333333","24.9959766666667","6500400","永和區"
"234064","337-UY","2019/09/07 18:59:31","新北市永和區秀朗路一段134號","121.517826666667","25.0034","6500400","永和區"
"234086","338-UY","2019/09/07 18:59:12","新北市永和區永利路16-1號","121.517975","25.0058433333333","6500400","永和區"
"234070","552-UM","2019/09/07 18:59:25","新北市永和區竹林路96巷7號","121.51922","25.0120666666667","6500400","永和區"
"234017","745-BX","2019/09/07 18:59:29","新北市永和區永和路二段299號","121.51612","25.0160866666667","6500400","永和區"
"234030","746-BX","2019/09/07 18:59:38","新北市永和區秀朗路二段281號","121.526173333333","24.9981633333333","6500400","永和區"
"234054","KEA-2590","2019/09/07 18:59:45","新北市永和區竹林路62號","121.51814","25.01354","6500400","永和區"
"234007","KED-0605","2019/09/07 18:59:34","新北市永和區中山路一段50號","121.513263333333","25.0106566666667","6500400","永和區"
"234013","KEA-2591","2019/09/07 18:59:25","新北市永和區信義路17巷9弄1號","121.513973333333","25.011725","6500400","永和區"
"234061","AAD-866","2019/09/07 18:59:41","新北市永和區中正路497巷3號","121.516596666667","25.0066566666667","6500400","永和區"
"234042","862-TW","2019/09/07 18:59:26","新北市永和區永貞路306號","121.511948333333","25.0049016666667","6500400","永和區"
"234050","863-TW","2019/09/07 18:59:37","新北市永和區保安路2號","121.510806666667","25.0174","6500400","永和區"
"234026","9371-KE","2019/09/07 18:59:40","新北市永和區安樂路451號","121.51434","25.0049383333333","6500400","永和區"
"234011","9373-KE","2019/09/07 18:59:40","新北市永和區信義路126-1號","121.51241","25.0150783333333","6500400","永和區"
"249005","172-UM","2019/09/07 18:59:32","新北市八里區長道坑5-2號","121.39384","25.1226466666667","6502300","八里區"
"249001","173-UM","2019/09/07 18:59:35","新北市八里區龍米路二段180號","121.43412","25.1583983333333","6502300","八里區"
"249002","305-UY","2019/09/07 18:59:41","新北市八里區龍形一街33巷6-2號","121.449326666667","25.1294816666667","6502300","八里區"
"248016","026-BX","2019/09/07 18:59:40","新北市五股區成泰路三段577巷22號","121.451556666667","25.102885","6501500","五股區"
"248006","077-UY","2019/09/07 18:59:42","新北市五股區四維路183號","121.468078333333","25.0754466666667","6501500","五股區"
"248008","KED-0815","2019/09/07 18:59:32","新北市五股區中興路一段120號","121.465883333333","25.0735833333333","6501500","五股區"
"248020","KED-0813","2019/09/07 18:59:41","新北市五股區凌雲路三段59-6號","121.425213333333","25.1249616666667","6501500","五股區"
"248012","247-BX","2019/09/07 18:59:39","新北市五股區中興路四段48巷16號","121.438646666667","25.08342","6501500","五股區"
"248014","261-SL","2019/09/07 18:59:29","新北市五股區工商路199號","121.433395","25.08697","6501500","五股區"
"248010","272-BY","2019/09/07 18:59:26","新北市五股區水碓一路23號","121.430481666667","25.0714016666667","6501500","五股區"
"248004","677-BX","2019/09/07 18:59:34","新北市五股區民義路二段61-1號","121.40951","25.1051916666667","6501500","五股區"
"248002","678-BX","2019/09/07 18:59:33","新北市五股區凌雲路一段110號","121.4502","25.1018033333333","6501500","五股區"
"234023","9380-KE","2019/09/07 18:59:46","新北市永和區竹林路75巷43號","121.520808333333","25.0143033333333","6500400","永和區"
"234077","969-R7","2019/09/07 18:59:33","新北市永和區得和路104巷16號","121.51788","24.9995283333333","6500400","永和區"
"234074","AAC-211","2019/09/07 18:59:40","新北市永和區福和路1號","121.525798333333","25.0095216666667","6500400","永和區"
"234067","AAC-212","2019/09/07 18:59:44","新北市永和區自由街58號","121.513908333333","25.0059216666667","6500400","永和區"
"234003","AAC-295","2019/09/07 18:59:45","新北市永和區和平街76號","121.51171","25.00989","6500400","永和區"
"232011","375-UM","2019/09/07 18:59:35","新北市坪林區水聳淒坑20-2號","121.71135","24.9340183333333","6502000","坪林區"
"244007","080-UY","2019/09/07 18:59:42","新北市林口區太平里10鄰26號","121.376323333333","25.1156033333333","6501700","林口區"
"244019","402-UM","2019/09/07 18:59:32","新北市林口區仁愛路二段201-1號","121.377503333333","25.0743683333333","6501700","林口區"
"244013","KEA-2802","2019/09/07 18:59:43","新北市林口區麗園一街2巷2號","121.37587","25.0715183333333","6501700","林口區"
"244023","483-VK","2019/09/07 18:59:35","新北市林口區文化二路二段102號","121.378996666667","25.0818333333333","6501700","林口區"
"244017","485-VK","2019/09/07 18:59:39","新北市林口區公園路131巷1號","121.369055","25.0704666666667","6501700","林口區"
"244009","656-BX","2019/09/07 18:59:47","新北市林口區林口路91號","121.389466666667","25.0801133333333","6501700","林口區"
"244011","701-TV","2019/09/07 18:59:44","新北市林口區中正路337號","121.38823","25.0775933333333","6501700","林口區"
"244025","837-TS","2019/09/07 18:59:38","新北市林口區南勢街192巷9號","121.36106","25.0750816666667","6501700","林口區"
"243010","297-R6","2019/09/07 18:59:42","新北市泰山區明志路一段352巷15弄30號","121.429308333333","25.0587716666667","6501600","泰山區"
"243014","KEA-2801","2019/09/07 18:59:32","新北市泰山區泰林路二段603號","121.421443333333","25.0633716666667","6501600","泰山區"
"243016","421-VK","2019/09/07 18:44:25","新北市泰山區明志路一段515號","121.430501666667","25.0541783333333","6501600","泰山區"
"243011","KEA-2216","2019/09/07 18:59:47","新北市泰山區明志路二段254號","121.426978333333","25.04756","6501600","泰山區"
"243015","680-BX","2019/09/07 18:59:46","新北市泰山區美寧街54號","121.430525","25.064535","6501600","泰山區"
"222003","436-BY","2019/09/07 18:59:27","新北市深坑區深南路88巷1號","121.621408333333","25.0107733333333","6501800","深坑區"
"222002","659-BX","2019/09/07 18:59:33","新北市深坑區文山路一段33號","121.629665","25.004065","6501800","深坑區"
"231061","002-UM","2019/09/07 18:59:31","新北市新店區安華路28-1號","121.519665","24.9608616666667","6500600","新店區"
"231055","0291-UT","2019/09/07 18:59:47","新北市新店區北新路一段271巷24號","121.54021","24.9672183333333","6500600","新店區"
"231058","0293-UT","2019/09/07 18:59:40","新北市新店區中興路一段203號","121.54356","24.965445","6500600","新店區"
"231044","046-UY","2019/09/07 18:59:48","新北市新店區寶中路72號","121.547875","24.9806216666667","6500600","新店區"
"231060","106-UY","2019/09/07 18:59:29","新北市新店區安忠路57巷11弄14號","121.515456666667","24.9579483333333","6500600","新店區"
"231051","107-UY","2019/09/07 18:59:34","新北市新店區百忍街12號","121.53469","24.9756633333333","6500600","新店區"
"231049","108-UY","2019/09/07 18:59:25","新北市新店區中正路454-5號","121.534465","24.979045","6500600","新店區"
"231065","110-UY","2019/09/07 18:59:42","新北市新店區安祥路147巷82號","121.475626666667","24.9554766666667","6500600","新店區"
"231062","256-BX","2019/09/07 18:59:37","新北市新店區安豐路60號","121.498468333333","24.9539916666667","6500600","新店區"
"231054","260-TV","2019/09/07 18:59:16","新北市新店區新店路13號","121.540265","24.9528116666667","6500600","新店區"
"231042","268-BY","2019/09/07 18:59:31","新北市新店區中興路一段282號","121.545628333333","24.9685833333333","6500600","新店區"
"231064","278-BY","2019/09/07 18:59:41","新北市新店區安康路一段355號","121.51979","24.9629166666667","6500600","新店區"
"231050","AAD-862","2019/09/07 18:59:43","新北市新店區新烏路一段11巷7號","121.54733","24.9513066666667","6500600","新店區"
"231045","355-BY","2019/09/07 18:59:28","新北市新店區安康路一段82號","121.528108333333","24.9618883333333","6500600","新店區"
"231056","4715-K9","2019/09/07 18:59:29","新北市新店區民權路107-4號","121.536223333333","24.98218","6500600","新店區"
"231067","4772-VM","2019/09/07 18:59:41","新北市新店區安康路一段76巷9號","121.528455","24.9624033333333","6500600","新店區"
"231052","515-UM","2019/09/07 18:59:45","新北市新店區屈尺路22號","121.548635","24.9226266666667","6500600","新店區"
"231063","616-UM","2019/09/07 18:59:46","新北市新店區安華路1-1號","121.519535","24.9604866666667","6500600","新店區"
"231040","617-UM","2019/09/07 18:59:42","新北市新店區中央路25號","121.533155","24.9779816666667","6500600","新店區"
"231041","618-UM","2019/09/07 18:59:40","新北市新店區安康路一段3-1號","121.53416","24.9606916666667","6500600","新店區"
"231048","KED-0819","2019/09/07 18:59:40","新北市新店區德正街23巷12-1號","121.544705","24.97214","6500600","新店區"
"231046","719-UM","2019/09/07 18:58:32","新北市新店區直潭二街65號","121.534961666667","24.9402716666667","6500600","新店區"
"231057","720-UM","2019/09/07 18:59:30","新北市新店區百齡一路12號","121.553028333333","24.93251","6500600","新店區"
"231059","897-TW","2019/09/07 18:59:35","新北市新店區安華路28-1號","121.519713333333","24.960735","6500600","新店區"
"231043","899-TW","2019/09/07 18:59:28","新北市新店區北新路二段18號","121.542785","24.9713516666667","6500600","新店區"
"231066","AKT-0513","2019/09/07 18:59:35","新北市新店區安豐路30-1號","121.50087","24.9567433333333","6500600","新店區"
"241035","462-BY","2019/09/07 18:59:44","新北市三重區重新路四段121號","121.484921666667","25.0518833333333","6500200","三重區"
"235066","003-UY","2019/09/07 18:59:38","新北市中和區中山路二段131巷5弄3號","121.502861666667","25.0028316666667","6500300","中和區"
"235063","006-UY","2019/09/07 18:59:33","新北市中和區中正路592號","121.485973333333","24.9951583333333","6500300","中和區"
"235056","096-UM","2019/09/07 18:59:32","新北市板橋區三民路二段206-2號","121.478843333333","25.01202","6500300","中和區"
"235039","097-UM","2019/09/07 18:59:37","新北市中和區景平路64巷13弄22號","121.521423333333","24.99153","6500300","中和區"
"235065","098-UM","2019/09/07 18:59:29","新北市中和區福祥路136號","121.49882","25.0068483333333","6500300","中和區"
"235040","150-BY","2019/09/07 18:59:29","新北市中和區安樂路81號","121.512628333333","24.9943833333333","6500300","中和區"
"235058","151-BY","2019/09/07 18:59:30","新北市中和區員山路105號","121.48088","24.9945","6500300","中和區"
"235055","183-VK","2019/09/07 18:59:33","新北市中和區德光路77巷6弄2號","121.469851666667","25.00343","6500300","中和區"
"235038","185-VK","2019/09/07 18:59:35","新北市中和區立人街24-5號","121.518855","24.9941133333333","6500300","中和區"
"235049","186-VK","2019/09/07 18:59:40","新北市中和區明仁街16號","121.506241666667","24.9955","6500300","中和區"
"235067","255-BX","2019/09/07 18:59:42","新北市中和區員山路226巷13弄12號","121.482506666667","25.00011","6500300","中和區"
"235044","293-VK","2019/09/07 18:59:41","新北市中和區中興街180巷45號","121.498223333333","24.9896666666667","6500300","中和區"
"235072","301-VK","2019/09/07 18:59:39","新北市中和區中山路二段240號","121.497995","25.0025133333333","6500300","中和區"
"235043","352-BY","2019/09/07 18:59:37","新北市中和區秀朗路三段179號","121.524473333333","24.9905816666667","6500300","中和區"
"235042","KEA-2878","2019/09/07 18:59:46","新北市中和區秀朗路三段22巷11號","121.525746666667","24.996175","6500300","中和區"
"235050","4979-A6","2019/09/07 18:59:32","新北市中和區忠孝街2-2號","121.508928333333","24.9829283333333","6500300","中和區"
"235069","4980-A6","2019/09/07 18:59:35","新北市中和區圓通路109巷7號","121.500081666667","24.9963283333333","6500300","中和區"
"235070","558-UM","2019/09/07 18:59:36","新北市中和區中和路133號","121.501928333333","25.000025","6500300","中和區"
"235045","565-BX","2019/09/07 18:59:32","新北市中和區景新街467巷20弄126號","121.51494","24.98725","6500300","中和區"
"235060","KED-0823","2019/09/07 18:59:38","新北市中和區中山路三段120號","121.475011666667","25.0062866666667","6500300","中和區"
"235054","640-BX","2019/09/07 18:59:37","新北市中和區民德路155號","121.46865","25.0000866666667","6500300","中和區"
"235047","732-UM","2019/09/07 18:59:26","新北市中和區興南路二段54巷11弄12號","121.505435","24.9852466666667","6500300","中和區"
"235046","733-UM","2019/09/07 18:59:40","新北市中和區興南路二段33號","121.507821666667","24.98567","6500300","中和區"
"235071","783-BX","2019/09/07 18:59:36","新北市中和區員山路36巷16-3號","121.485236666667","24.9912183333333","6500300","中和區"
"235057","801-TS","2019/09/07 18:59:36","新北市中和區民利街77號","121.478295","24.99808","6500300","中和區"
"235041","802-TS","2019/09/07 18:59:41","新北市中和區景安路1號","121.508071666667","24.999255","6500300","中和區"
"235052","805-TS","2019/09/07 18:59:36","新北市中和區興南路二段347號","121.500226666667","24.9801416666667","6500300","中和區"
"235048","896-TW","2019/09/07 18:59:30","新北市中和區工專路147號","121.508548333333","24.978805","6500300","中和區"
"235053","900-TW","2019/09/07 18:59:29","新北市中和區和平路200巷1-7號","121.46447","24.9952","6500300","中和區"
"235064","911-UM","2019/09/07 18:59:41","新北市中和區泰和街30巷16號","121.499098333333","25.0010633333333","6500300","中和區"
"235051","157-BY","2019/09/07 18:59:32","新北市中和區忠孝街19巷31號","121.509691666667","24.9845483333333","6500300","中和區"
"235037","AAC-213","2019/09/07 18:59:30","新北市中和區秀朗路三段58-3號","121.525798333333","24.9951333333333","6500300","中和區"
"235059","AAC-215","2019/09/07 18:59:28","新北市中和區圓通路369巷19弄7號","121.491291666667","24.9883166666667","6500300","中和區"
"220065","072-UY","2019/09/07 18:59:36","新北市板橋區民族路287巷12號","121.471186666667","25.00716","6500100","板橋區"
"220086","073-UY","2019/09/07 18:59:27","新北市板橋區大智街23號","121.455221666667","25.0149233333333","6500100","板橋區"
"220106","075-UY","2019/09/07 18:59:42","新北市板橋區雙十路三段10巷9號","121.472171666667","25.03083","6500100","板橋區"
"220069","AAD-861","2019/09/07 18:59:46","新北市板橋區四川路一段146號","121.459968333333","25.00356","6500100","板橋區"
"220106","120-SR","2019/09/07 18:59:42","新北市板橋區三民路一段31巷44號","121.481185","25.0230116666667","6500100","板橋區"
"247008","002-UY","2019/09/07 18:59:29","新北市五股區中興路三段163號","121.449195","25.0805833333333","6501400","蘆洲區"
"226004","312-R5","2019/09/07 18:59:32","新北市平溪區靜安路二段400號","121.738786666667","25.0244466666667","6502400","平溪區"
"228003","097-TW","2019/09/07 18:59:42","新北市貢寮區和美里龍洞街56-3號","121.912551666667","25.1143383333333","6502600","貢寮區"
"228001","212-TW","2019/09/07 18:59:26","新北市貢寮區仁理村仁義街12號","121.92384","25.0517933333333","6502600","貢寮區"
"228002","663-BX","2019/09/07 18:59:46","新北市貢寮區福隆里東興街106巷23弄1號","121.946296666667","25.0182366666667","6502600","貢寮區"
"224006","676-BX","2019/09/07 18:59:44","新北市瑞芳區民權街6巷17號","121.807216666667","25.1066766666667","6501200","瑞芳區"
"224002","639-TC","2019/09/07 18:59:45","新北市瑞芳區靜安路四段10號","121.796883333333","25.08632","6501200","瑞芳區"
"224007","285-BY","2019/09/07 18:59:31","新北市瑞芳區中央路7號","121.762001666667","25.1037683333333","6501200","瑞芳區"
"224009","275-VK","2019/09/07 18:59:24","新北市瑞芳區洞頂路148號","121.859545","25.1178816666667","6501200","瑞芳區"
"224008","273-VK","2019/09/07 18:59:32","新北市瑞芳區逢甲路340-9號","121.798476666667","25.1169283333333","6501200","瑞芳區"
"224005","271-BY","2019/09/07 18:59:45","新北市瑞芳區連福新城25號","121.820275","25.1190333333333","6501200","瑞芳區"
"227001","642-TC","2019/09/07 18:59:30","新北市雙溪區牡丹里中正路60號","121.866068333333","25.0424883333333","6502500","雙溪區"
"227002","400-TW","2019/09/07 18:59:34","新北市雙溪區平林里外平林9-4號","121.859203333333","25.0379416666667","6502500","雙溪區"
"253005","032-BX","2019/09/07 18:59:27","新北市石門區中央路6號","121.566496666667","25.2913216666667","6502200","石門區"
"253006","295-VK","2019/09/07 18:59:39","新北市石門區八甲4-7號","121.52097","25.282895","6502200","石門區"
"222001","KEA-2212","2019/09/07 18:59:43","新北市深坑區北深路一段300號","121.624175","25.0058583333333","6501800","深坑區"
"208002","KEA-2872","2019/09/07 18:59:41","新北市金山區仁愛路67巷14號","121.634548333333","25.220875","6502700","金山區"
"208003","665-BX","2019/09/07 18:59:30","新北市金山區中正路89號","121.633305","25.2215766666667","6502700","金山區"
"251009","008-UM","2019/09/07 18:59:29","新北市淡水區文化路15號","121.439503333333","25.1725783333333","6501000","淡水區"
"251015","KEA-2871","2019/09/07 18:59:28","新北市淡水區糞箕湖118號","121.487678333333","25.1717183333333","6501000","淡水區"
"251016","179-VK","2019/09/07 18:59:31","新北市淡水區淡金路三段325號","121.448976666667","25.206085","6501000","淡水區"
"251013","182-VK","2019/09/07 18:59:31","新北市淡水區安子內3號","121.487816666667","25.2154866666667","6501000","淡水區"
"251010","413-VK","2019/09/07 18:59:34","新北市淡水區淡海路85號","121.4228","25.18161","6501000","淡水區"
"243009","549-UM","2019/09/07 18:59:35","新北市泰山區泰林路二段365號","121.427983333333","25.0637266666667","6501600","泰山區"
"251012","441-VK","2019/09/07 18:59:37","新北市淡水區新興街109號","121.440676666667","25.18086","6501000","淡水區"
"251007","442-VK","2019/09/07 18:59:31","新北市淡水區民生路113巷1弄41號","121.46292","25.1386116666667","6501000","淡水區"
"251001","559-UM","2019/09/07 18:59:29","新北市淡水區自強路60號","121.463168333333","25.127575","6501000","淡水區"
"251014","577-R6","2019/09/07 18:59:28","新北市淡水區小中寮32號","121.49102","25.2262683333333","6501000","淡水區"
"251011","650-BX","2019/09/07 18:59:41","新北市淡水區鄧公路30巷2弄30號","121.453811666667","25.1689933333333","6501000","淡水區"
"251002","672-BX","2019/09/07 18:59:28","新北市淡水區中正東路55-8號","121.446851666667","25.16783","6501000","淡水區"
"251003","766-UM","2019/09/07 18:59:38","新北市淡水區中山北路一段149巷27號","121.443056666667","25.17781","6501000","淡水區"
"207003","550-UM","2019/09/07 18:59:29","新北市萬里區大鵬里頂社2-1號","121.660365","25.2072166666667","6502800","萬里區"
"207004","291-VK","2019/09/07 18:59:32","新北市萬里區萬里里獅頭路23號","121.693226666667","25.1783066666667","6502800","萬里區"
"252002","178-VK","2019/09/07 18:59:37","新北市三芝區中正路一段16-1號","121.502953333333","25.2588233333333","6502100","三芝區"
"252003","249-BX","2019/09/07 18:59:31","新北市三芝區後厝里北勢子22-16號","121.473058333333","25.25331","6502100","三芝區"
"208001","170-UY","2019/09/07 18:59:30","新北市金山區民生路51巷1-2號","121.641896666667","25.2196716666667","6502700","金山區"
"237007","153-BY","2019/09/07 18:59:43","新北市三峽區大埔路32-1號","121.366031666667","24.90913","6500900","三峽區"
"237013","252-BX","2019/09/07 18:59:27","新北市三峽區光明路69巷25號","121.376598333333","24.92923","6500900","三峽區"
"237012","275-BY","2019/09/07 18:59:31","新北市三峽區三樹路222巷72-1號","121.38343","24.9422066666667","6500900","三峽區"
"237008","302-VK","2019/09/07 18:59:46","新北市三峽區中正路一段191巷4號","121.372903333333","24.9276866666667","6500900","三峽區"
"237014","433-BY","2019/09/07 18:59:25","新北市三峽區隆恩街166-7號","121.363243333333","24.9431866666667","6500900","三峽區"
"237006","5529-G3","2019/09/07 18:59:29","新北市三峽區溪東路233巷4弄13號","121.407105","24.9337316666667","6500900","三峽區"
"237011","KEA-2596","2019/09/07 18:59:34","新北市三峽區介壽路三段231-3號","121.40478","24.9459116666667","6500900","三峽區"
"237015","649-BX","2019/09/07 18:59:30","新北市三峽區建安85號","121.452901666667","24.9219166666667","6500900","三峽區"
"237010","706-TV","2019/09/07 18:59:36","新北市三峽區復興路174巷4號","121.37072","24.9388766666667","6500900","三峽區"
"237004","756-BX","2019/09/07 18:59:35","新北市三峽區有木189號","121.448791666667","24.8420466666667","6500900","三峽區"
"237005","AKY-6261","2019/09/07 18:59:24","新北市三峽區中山路459巷135號","121.348653333333","24.9329133333333","6500900","三峽區"
"236042","KED-0685","2019/09/07 18:59:15","新北市土城區學府路一段231號","121.45123","24.9839733333333","6501300","土城區"
"236030","253-BX","2019/09/07 18:59:28","新北市土城區興城路49巷12號","121.441353333333","24.9708433333333","6501300","土城區"
"236026","269-VK","2019/09/07 18:59:43","新北市土城區光明街38號","121.442165","24.9735733333333","6501300","土城區"
"236014","270-VK","2019/09/07 18:59:47","新北市土城區永豐路19-1號","121.462661666667","24.98815","6501300","土城區"
"236038","271-VK","2019/09/07 18:59:38","新北市土城區明德路一段240巷26弄41號","121.461271666667","24.9784416666667","6501300","土城區"
"236070","KEA-2877","2019/09/07 18:59:32","新北市土城區金城路二段223號","121.455061666667","24.9821433333333","6501300","土城區"
"252001","KED-0821","2019/09/07 18:59:34","新北市三芝區中興街二段260號","121.501768333333","25.253015","6502100","三芝區"
"236021","401-BY","2019/09/07 18:59:43","新北市土城區延吉街168巷1號","121.468288333333","24.9855066666667","6501300","土城區"
"236059","912-UM","2019/09/07 18:59:37","新北市土城區金城路二段260號","121.457955","24.9839466666667","6501300","土城區"
"236049","913-UM","2019/09/07 18:59:33","新北市土城區青雲路240號","121.459048333333","24.9804116666667","6501300","土城區"
"236063","915-UM","2019/09/07 18:59:33","新北市土城區延和路88巷7號","121.466723333333","24.9889933333333","6501300","土城區"
"236055","AAC-216","2019/09/07 18:59:29","新北市土城區學成路164號","121.4481","24.9891133333333","6501300","土城區"
"242029","615-BX","2019/09/07 18:59:33","新北市新莊區新泰路357巷3弄57號","121.44193","25.0393516666667","6500500","新莊區"
"238023","601-UM","2019/09/07 18:59:29","新北市樹林區大慶街68號","121.396445","25.01403","6500700","樹林區"
"238019","599-UM","2019/09/07 18:59:15","新北市樹林區東陽街43號","121.413531666667","24.9812666666667","6500700","樹林區"
"238020","571-TV","2019/09/07 18:59:41","新北市樹林區三龍街28-1號","121.411976666667","25.0180933333333","6500700","樹林區"
"238024","5061-A6","2019/09/07 18:59:29","新北市樹林區八德街640號","121.396766666667","24.9693766666667","6500700","樹林區"
"238022","KEA-2213","2019/09/07 18:59:38","新北市樹林區東興街43號","121.410631666667","24.9776716666667","6500700","樹林區"
"238021","KEA-2539","2019/09/07 18:59:32","新北市樹林區柑園街二段320號","121.373256666667","24.9517066666667","6500700","樹林區"
"238017","283-BY","2019/09/07 18:59:24","新北市樹林區光興街44號","121.40989","25.00271","6500700","樹林區"
"238014","282-BY","2019/09/07 18:59:40","新北市樹林區潭興街143巷9號","121.42546","24.99994","6500700","樹林區"
"238026","172-UY","2019/09/07 18:59:33","新北市樹林區中和街22號","121.390473333333","24.9734883333333","6500700","樹林區"
"238016","169-UY","2019/09/07 18:59:28","新北市樹林區文化街40號","121.418658333333","24.9880866666667","6500700","樹林區"
"239007","AAC-297","2019/09/07 18:59:36","新北市鶯歌區中正一路221號","121.354131666667","24.95718","6500800","鶯歌區"
"239006","891-R6","2019/09/07 18:59:35","新北市鶯歌區鶯桃路296巷70號","121.336608333333","24.9616516666667","6500800","鶯歌區"
"239008","527-UM","2019/09/07 18:59:47","新北市鶯歌區國際一路116巷2號","121.336123333333","24.9763683333333","6500800","鶯歌區"
"239005","526-UM","2019/09/07 18:59:43","新北市鶯歌區鳳吉一街99號","121.327313333333","24.9744633333333","6500800","鶯歌區"
"239001","417-VK","2019/09/07 18:59:33","新北市鶯歌區中正二路192號","121.339545","24.9432333333333","6500800","鶯歌區"
"239003","360-BY","2019/09/07 18:59:29","新北市鶯歌區鶯桃路658巷135號","121.33285","24.9714333333333","6500800","鶯歌區"
"239002","359-BY","2019/09/07 18:59:31","新北市鶯歌區中山路291號","121.344425","24.9568916666667","6500800","鶯歌區"
"239004","193-VK","2019/09/07 18:59:31","新北市鶯歌區中正三路237號","121.334256666667","24.9388583333333","6500800","鶯歌區"
"221008","489-VK","2019/09/07 18:59:42","新北市汐止區康寧街609號","121.636081666667","25.0709033333333","6501100","汐止區"
"221036","130-UY","2019/09/07 18:59:37","新北市汐止區水碓街55號","121.66518","25.0692616666667","6501100","汐止區"
"221015","131-UY","2019/09/07 18:59:33","新北市汐止區吉祥街3號","121.667943333333","25.0799083333333","6501100","汐止區"
"221032","280-BY","2019/09/07 18:59:44","新北市汐止區橫科路367巷24弄5號","121.623601666667","25.048205","6501100","汐止區"
"221029","298-VK","2019/09/07 18:59:46","新北市汐止區樟樹一路238號","121.642266666667","25.06688","6501100","汐止區"
"221031","353-TW","2019/09/07 18:59:40","新北市汐止區福德一路300巷34號","121.630465","25.064435","6501100","汐止區"
"221035","622-UM","2019/09/07 18:59:37","新北市汐止區大同路二段339號","121.656436666667","25.0671666666667","6501100","汐止區"
"221002","707-TV","2019/09/07 18:59:31","新北市汐止區大同路一段2號","121.621011666667","25.0550383333333","6501100","汐止區"
"220079","145-BY","2019/09/07 18:59:26","新北市板橋區大智街71巷5弄2號","121.453241666667","25.01483","6500100","板橋區"
"220082","610-BX","2019/09/07 18:59:44","新北市板橋區滿平街111號","121.428433333333","24.9886183333333","6500100","板橋區"
"220101","245-BX","2019/09/07 18:59:48","新北市板橋區萬板路3號","121.47022","25.0209583333333","6500100","板橋區"
"220091","267-BY","2019/09/07 18:59:46","新北市板橋區大同街8巷41號","121.477881666667","25.0261933333333","6500100","板橋區"
"220056","276-BY","2019/09/07 18:59:38","新北市板橋區信義路60號","121.457243333333","24.9938033333333","6500100","板橋區"
"220072","277-BY","2019/09/07 18:59:27","新北市板橋區篤行路一段33號","121.432013333333","24.994415","6500100","板橋區"
"220094","283-UM","2019/09/07 18:59:35","新北市板橋區光武街169號","121.465263333333","25.0300066666667","6500100","板橋區"
"220071","283-VK","2019/09/07 18:59:35","新北市板橋區忠孝路196巷43號","121.465603333333","25.0016433333333","6500100","板橋區"
"220053","285-VK","2019/09/07 18:59:32","新北市板橋區太和街5巷4號","121.473528333333","25.0201533333333","6500100","板橋區"
"220083","286-VK","2019/09/07 18:59:41","新北市板橋區大觀路一段38巷156弄77號","121.443163333333","25.00684","6500100","板橋區"
"220081","287-VK","2019/09/07 18:59:38","新北市板橋區光華街19巷36號","121.4533","25.01206","6500100","板橋區"
"220061","293-UM","2019/09/07 18:59:32","新北市板橋區懷仁街85巷8號","121.477778333333","25.0186833333333","6500100","板橋區"
"220062","295-UM","2019/09/07 18:59:46","新北市板橋區三民路二段241號","121.479033333333","25.0125783333333","6500100","板橋區"
"220084","296-UM","2019/09/07 18:59:26","新北市板橋區龍興街40號","121.443141666667","25.0007283333333","6500100","板橋區"
"220067","299-UM","2019/09/07 18:59:46","新北市板橋區民享街116巷6號","121.478146666667","25.0156283333333","6500100","板橋區"
"220075","303-R5","2019/09/07 18:59:30","新北市板橋區茶館街15號","121.45662","25.01063","6500100","板橋區"
"220092","307-R5","2019/09/07 18:59:32","新北市板橋區文化路二段225巷60弄52號","121.469093333333","25.0296066666667","6500100","板橋區"
"220098","317-R6","2019/09/07 18:59:42","新北市板橋區民生路二段226巷31弄2號","121.471203333333","25.0222283333333","6500100","板橋區"
"220089","487-VK","2019/09/07 18:59:43","新北市板橋區文化路二段139號","121.470086666667","25.0268266666667","6500100","板橋區"
"220088","491-VK","2019/09/07 18:59:35","新北市板橋區文化路二段182巷7弄7號","121.472218333333","25.0273","6500100","板橋區"
"220035","560-BX","2019/09/07 18:59:29","新北市板橋區中正路273號","121.455611666667","25.0188533333333","6500100","板橋區"
"220103","561-BX","2019/09/07 18:59:41","新北市板橋區文化路一段188巷11弄70號","121.469448333333","25.01913","6500100","板橋區"
"220080","568-UM","2019/09/07 18:59:38","新北市板橋區大觀路二段力行1巷97號","121.444875","24.9980466666667","6500100","板橋區"
"220063","609-BX","2019/09/07 18:59:34","新北市板橋區三民路二段120號","121.47923","25.0163883333333","6500100","板橋區"
"220057","686-BX","2019/09/07 18:57:34","新北市板橋區重慶路293-1號","121.46333","24.9991966666667","6500100","板橋區"
"220077","687-BX","2019/09/07 18:59:34","新北市板橋區龍興街52號","121.443243333333","25.0011233333333","6500100","板橋區"
"220054","741-BX","2019/09/07 18:59:31","新北市板橋區重慶路139巷21號","121.463691666667","25.0047316666667","6500100","板橋區"
"220102","KEA-2699","2019/09/07 18:59:37","新北市板橋區萬板路818巷9號","121.483026666667","25.0266916666667","6500100","板橋區"
"220055","827-TW","2019/09/07 18:59:45","新北市板橋區新站路3號","121.46703","25.011395","6500100","板橋區"
"220090","831-TW","2019/09/07 18:59:43","新北市板橋區裕民街25-2號","121.461941666667","25.0289133333333","6500100","板橋區"
"220074","895-R6","2019/09/07 18:59:44","新北市板橋區倉後街3號","121.45547","25.009565","6500100","板橋區"
"220073","985-R7","2019/09/07 18:59:45","新北市板橋區中正路148號","121.456796666667","25.0163033333333","6500100","板橋區"
"220097","AAC-210","2019/09/07 18:59:30","新北市板橋區幸福路70巷30號","121.460228333333","25.02095","6500100","板橋區"
"220064","AAC-253","2019/09/07 18:59:42","新北市板橋區板新路28號","121.474201666667","25.0136483333333","6500100","板橋區"
"235068","KEA-2873","2019/09/07 18:59:43","新北市中和區圓通路229號","121.496351666667","24.9943166666667","6500300","中和區"
"235061","KEA-2875","2019/09/07 18:59:23","新北市中和區中山路三段121號","121.474473333333","25.0061483333333","6500300","中和區"
