"lineid","car","time","location","longitude","latitude","cityid","cityname"
"234046","148-BY","2019/09/07 19:09:33","新北市永和區永元路18巷35號","121.524005","25.0002933333333","6500400","永和區"
"234081","298-R6","2019/09/07 19:09:36","新北市永和區永亨路61號","121.52107","25.006065","6500400","永和區"
"234038","336-UY","2019/09/07 19:09:42","新北市永和區民樂街73巷1號","121.527365","24.9972733333333","6500400","永和區"
"234064","337-UY","2019/09/07 19:09:39","新北市永和區秀朗路二段26號","121.520916666667","25.002685","6500400","永和區"
"234086","338-UY","2019/09/07 19:09:32","新北市永和區永貞路73號","121.518788333333","25.0043516666667","6500400","永和區"
"234070","552-UM","2019/09/07 19:09:45","新北市永和區豫溪街95巷10弄3號","121.518133333333","25.010845","6500400","永和區"
"234017","745-BX","2019/09/07 19:09:45","新北市永和區文化路90巷15弄1號","121.513755","25.0159233333333","6500400","永和區"
"234030","746-BX","2019/09/07 19:09:30","新北市永和區民生路25巷21號","121.524421666667","24.99856","6500400","永和區"
"234054","KEA-2590","2019/09/07 19:09:45","新北市永和區中興街133巷8號","121.518626666667","25.0126333333333","6500400","永和區"
"234007","KED-0605","2019/09/07 19:09:34","新北市永和區中山路一段212號","121.508533333333","25.0085883333333","6500400","永和區"
"234013","KEA-2591","2019/09/07 19:09:47","新北市永和區保福路二段61號","121.510821666667","25.01233","6500400","永和區"
"234061","AAD-866","2019/09/07 19:09:41","新北市永和區安樂路304巷2號","121.514505","25.004995","6500400","永和區"
"234042","862-TW","2019/09/07 19:09:34","新北市永和區永貞路334-1號","121.511296666667","25.00566","6500400","永和區"
"234050","863-TW","2019/09/07 19:09:37","新北市永和區文化路135巷22弄1號","121.51044","25.0147333333333","6500400","永和區"
"234026","9371-KE","2019/09/07 19:09:47","新北市永和區安樂路274號","121.514698333333","25.004225","6500400","永和區"
"234011","9373-KE","2019/09/07 19:09:40","新北市永和區仁愛路141巷9號","121.511711666667","25.01186","6500400","永和區"
"249005","172-UM","2019/09/07 19:09:32","新北市八里區中華路三段27號","121.396465","25.1429883333333","6502300","八里區"
"249001","173-UM","2019/09/07 19:09:44","新北市八里區龍米路二段203-9號","121.43249","25.158355","6502300","八里區"
"249002","305-UY","2019/09/07 19:09:41","新北市八里區龍形一街33巷6-2號","121.449308333333","25.1294616666667","6502300","八里區"
"249003","593-UM","2019/09/07 19:09:30","新北市八里區博物館路105號","121.408985","25.1593466666667","6502300","八里區"
"248008","KED-0815","2019/09/07 19:09:31","新北市五股區中興路二段37巷29號","121.460711666667","25.0740816666667","6501500","五股區"
"248020","KED-0813","2019/09/07 19:09:41","新北市五股區凌雲路三段59-6號","121.425213333333","25.1249816666667","6501500","五股區"
"248012","247-BX","2019/09/07 19:09:39","新北市五股區中興路四段48巷16號","121.438636666667","25.083395","6501500","五股區"
"248014","261-SL","2019/09/07 19:09:29","新北市五股區民義路一段185-11號","121.432008333333","25.0878433333333","6501500","五股區"
"248010","272-BY","2019/09/07 19:09:46","新北市五股區水碓一路23號","121.430578333333","25.0712683333333","6501500","五股區"
"248004","677-BX","2019/09/07 19:09:34","新北市五股區五福路7號","121.434176666667","25.0878033333333","6501500","五股區"
"248002","678-BX","2019/09/07 19:09:33","新北市五股區凌雲路一段158巷6號","121.447796666667","25.10297","6501500","五股區"
"234023","9380-KE","2019/09/07 19:09:34","新北市永和區中興街10巷11號","121.515566666667","25.011195","6500400","永和區"
"234077","969-R7","2019/09/07 19:09:42","新北市永和區民族街27巷1號","121.518985","24.9995783333333","6500400","永和區"
"234074","AAC-211","2019/09/07 19:09:40","新北市永和區竹林路239號","121.520843333333","25.0081316666667","6500400","永和區"
"234067","AAC-212","2019/09/07 19:09:44","新北市永和區保平路21號","121.51268","25.0075066666667","6500400","永和區"
"234003","AAC-295","2019/09/07 19:09:45","新北市永和區保福路一段45號","121.51246","25.0092733333333","6500400","永和區"
"244013","KEA-2802","2019/09/07 19:09:43","新北市林口區民生路134號","121.37876","25.0881783333333","6501700","林口區"
"244023","483-VK","2019/09/07 19:09:30","新北市林口區民權路110號","121.373571666667","25.083245","6501700","林口區"
"244011","701-TV","2019/09/07 19:09:24","新北市林口區中正路264巷31號","121.388643333333","25.078245","6501700","林口區"
"244025","837-TS","2019/09/07 19:09:38","新北市林口區文化北路一段472號","121.365385","25.0773916666667","6501700","林口區"
"243010","297-R6","2019/09/07 19:09:42","新北市泰山區仁愛路39巷21號","121.431145","25.05527","6501600","泰山區"
"243014","KEA-2801","2019/09/07 19:09:32","新北市泰山區泰林路二段480號","121.4251","25.0642266666667","6501600","泰山區"
"243016","421-VK","2019/09/07 18:44:25","新北市泰山區明志路一段515號","121.430501666667","25.0541783333333","6501600","泰山區"
"243011","KEA-2216","2019/09/07 19:09:47","新北市泰山區明志路二段346號","121.425901666667","25.0453","6501600","泰山區"
"243013","646-TV","2019/09/07 19:09:38","新北市泰山區明志路三段277號","121.423126666667","25.036765","6501600","泰山區"
"243015","680-BX","2019/09/07 19:09:46","新北市泰山區明志路一段412號","121.430708333333","25.056795","6501600","泰山區"
"222003","436-BY","2019/09/07 19:09:29","新北市深坑區深南路170號","121.62585","25.015135","6501800","深坑區"
"222002","659-BX","2019/09/07 19:09:33","新北市深坑區紅葉街61號","121.632276666667","25.013875","6501800","深坑區"
"231061","002-UM","2019/09/07 19:09:44","新北市新店區安康路一段249-1號","121.524675","24.963305","6500600","新店區"
"231055","0291-UT","2019/09/07 19:09:39","新北市新店區力行路92號","121.538313333333","24.9665933333333","6500600","新店區"
"231058","0293-UT","2019/09/07 19:09:42","新北市新店區中興路一段81號","121.5406","24.961495","6500600","新店區"
"231044","046-UY","2019/09/07 19:09:28","新北市新店區中興路三段221-1號","121.543393333333","24.9825933333333","6500600","新店區"
"231060","106-UY","2019/09/07 19:09:29","新北市新店區安康路二段310號","121.505796666667","24.9581566666667","6500600","新店區"
"231051","107-UY","2019/09/07 19:09:34","新北市新店區中正路382巷36號","121.535703333333","24.9782916666667","6500600","新店區"
"231049","108-UY","2019/09/07 19:09:31","新北市新店區二十張路25巷3號","121.539016666667","24.982085","6500600","新店區"
"231065","110-UY","2019/09/07 19:09:42","新北市新店區安祥路140號","121.474428333333","24.9558633333333","6500600","新店區"
"231062","256-BX","2019/09/07 19:09:37","新北市新店區安平路52號","121.520475","24.968435","6500600","新店區"
"231054","260-TV","2019/09/07 19:09:36","新北市新店區新店路193號","121.537141666667","24.956255","6500600","新店區"
"231042","268-BY","2019/09/07 19:09:31","新北市新店區中興路一段199號","121.543436666667","24.9653116666667","6500600","新店區"
"231064","278-BY","2019/09/07 19:09:41","新北市新店區安忠路56巷6號","121.512931666667","24.959485","6500600","新店區"
"231050","AAD-862","2019/09/07 19:09:43","新北市新店區竹林路2巷27弄2號","121.550076666667","24.9506816666667","6500600","新店區"
"231045","355-BY","2019/09/07 19:09:35","新北市新店區北宜路一段106號","121.538983333333","24.955345","6500600","新店區"
"231056","4715-K9","2019/09/07 19:09:29","新北市新店區安興路105號","121.515056666667","24.9779333333333","6500600","新店區"
"231067","4772-VM","2019/09/07 19:09:41","新北市新店區安康路一段281巷14-1號","121.523668333333","24.9620616666667","6500600","新店區"
"231052","515-UM","2019/09/07 19:09:25","新北市新店區自強路96號","121.546298333333","24.9237216666667","6500600","新店區"
"231063","616-UM","2019/09/07 19:09:26","新北市新店區車子路134號","121.505223333333","24.94955","6500600","新店區"
"231040","617-UM","2019/09/07 19:09:46","新北市新店區三民路100號","121.533936666667","24.9737566666667","6500600","新店區"
"231041","618-UM","2019/09/07 19:09:47","新北市新店區溪園路413號","121.524275","24.9785133333333","6500600","新店區"
"231048","KED-0819","2019/09/07 19:09:40","新北市新店區德正街27巷29弄131號","121.545708333333","24.9731","6500600","新店區"
"231046","719-UM","2019/09/07 19:03:52","新北市新店區新潭路一段61號","121.526271666667","24.942515","6500600","新店區"
"231057","720-UM","2019/09/07 19:09:30","新北市新店區百齡一路12號","121.553031666667","24.9325133333333","6500600","新店區"
"231059","897-TW","2019/09/07 19:09:35","新北市新店區安和路一段6-6號","121.517386666667","24.965555","6500600","新店區"
"231043","899-TW","2019/09/07 19:09:28","新北市新店區中興路二段252號","121.547395","24.9758433333333","6500600","新店區"
"231066","AKT-0513","2019/09/07 19:09:30","新北市新店區安康路二段456巷6號","121.493475","24.954495","6500600","新店區"
"241035","462-BY","2019/09/07 19:09:43","新北市三重區新北大道一段7號","121.48963","25.0613916666667","6500200","三重區"
"241026","480-VK","2019/09/07 19:09:28","新北市三重區重安街141號","121.495498333333","25.0546133333333","6500200","三重區"
"241022","KED-0820","2019/09/07 19:09:38","新北市三重區三民街155巷9號","121.484446666667","25.0647216666667","6500200","三重區"
"241029","942-UM","2019/09/07 19:09:45","新北市三重區重安街87巷14號","121.493186666667","25.0550633333333","6500200","三重區"
"235066","003-UY","2019/09/07 19:09:38","新北市中和區廣福路50號","121.50405","25.0019816666667","6500300","中和區"
"235063","006-UY","2019/09/07 19:09:32","新北市中和區連城路249巷12弄1號","121.493866666667","24.9962366666667","6500300","中和區"
"235056","096-UM","2019/09/07 19:09:35","新北市中和區中正路1161號","121.481986666667","25.008815","6500300","中和區"
"235039","097-UM","2019/09/07 19:09:37","新北市中和區景平路3號","121.523655","24.9902433333333","6500300","中和區"
"235065","098-UM","2019/09/07 19:09:30","新北市中和區中山路二段136巷17號","121.501465","25.00416","6500300","中和區"
"235040","150-BY","2019/09/07 19:09:29","新北市中和區宜安路85號","121.510896666667","24.9975033333333","6500300","中和區"
"235058","151-BY","2019/09/07 19:09:30","新北市中和區連城路475號","121.48323","24.9958466666667","6500300","中和區"
"235055","183-VK","2019/09/07 19:09:33","新北市中和區德光路119-1號","121.467945","25.0031566666667","6500300","中和區"
"235038","185-VK","2019/09/07 19:09:35","新北市中和區大仁街20巷37號","121.518873333333","24.9932116666667","6500300","中和區"
"235049","186-VK","2019/09/07 19:09:40","新北市中和區景新街216號","121.507146666667","24.9951883333333","6500300","中和區"
"235067","255-BX","2019/09/07 19:09:42","新北市中和區民樂路50號","121.483181666667","25.00071","6500300","中和區"
"235044","293-VK","2019/09/07 19:09:41","新北市中和區中興街263-1號","121.500068333333","24.9887333333333","6500300","中和區"
"235072","301-VK","2019/09/07 19:09:39","新北市中和區永和路52號","121.499168333333","25.0040633333333","6500300","中和區"
"235043","352-BY","2019/09/07 19:09:37","新北市中和區景平路332號","121.512171666667","24.9928633333333","6500300","中和區"
"235042","KEA-2878","2019/09/07 19:09:46","新北市中和區自強路15巷6號","121.520706666667","24.9934233333333","6500300","中和區"
"235050","4979-A6","2019/09/07 19:09:32","新北市中和區復興路249巷11弄3號","121.503566666667","24.989695","6500300","中和區"
"235069","4980-A6","2019/09/07 19:09:33","新北市中和區中和路217巷12號","121.50444","25.00066","6500300","中和區"
"235070","558-UM","2019/09/07 19:09:36","新北市中和區連城路70巷1號","121.497433333333","25.001505","6500300","中和區"
"235045","565-BX","2019/09/07 19:09:32","新北市中和區景新街447-1號","121.51317","24.988565","6500300","中和區"
"235060","KED-0823","2019/09/07 19:09:38","新北市中和區員山路364號","121.48088","25.00381","6500300","中和區"
"235054","640-BX","2019/09/07 19:09:37","新北市中和區國光街109巷14號","121.469725","25.00002","6500300","中和區"
"235047","732-UM","2019/09/07 19:09:46","新北市中和區景平路239巷33弄48號","121.510063333333","24.9913816666667","6500300","中和區"
"235046","733-UM","2019/09/07 19:09:40","新北市中和區華新街117號","121.507131666667","24.9820383333333","6500300","中和區"
"235071","783-BX","2019/09/07 19:09:36","新北市中和區連城路354號","121.48217","24.9955516666667","6500300","中和區"
"235057","801-TS","2019/09/07 19:09:36","新北市中和區員山路423巷12弄3號","121.480408333333","25.0032333333333","6500300","中和區"
"235041","802-TS","2019/09/07 19:09:33","新北市永和區中和路373號","121.50836","24.99972","6500300","中和區"
"235052","805-TS","2019/09/07 19:09:36","新北市中和區興南路二段142巷23號","121.503078333333","24.9838366666667","6500300","中和區"
"235048","896-TW","2019/09/07 19:09:35","新北市中和區忠孝街39-2號","121.511621666667","24.9838133333333","6500300","中和區"
"235053","900-TW","2019/09/07 19:09:29","新北市中和區華福街71巷2號","121.467255","24.9969333333333","6500300","中和區"
"235064","911-UM","2019/09/07 19:09:41","新北市中和區中和路40巷14號","121.499445","25.00133","6500300","中和區"
"235051","157-BY","2019/09/07 19:09:32","新北市中和區興南路一段75號","121.51016","24.989125","6500300","中和區"
"235037","AAC-213","2019/09/07 19:09:30","新北市中和區秀朗路三段10巷37弄14號","121.523573333333","24.9958966666667","6500300","中和區"
"235059","AAC-215","2019/09/07 19:09:28","新北市中和區圓通路296巷31弄1號","121.48862","24.9904916666667","6500300","中和區"
"220065","072-UY","2019/09/07 19:09:36","新北市板橋區民族路219巷20號","121.469338333333","25.0081033333333","6500100","板橋區"
"220086","073-UY","2019/09/07 19:09:27","新北市板橋區中正路250巷23號","121.456651666667","25.019525","6500100","板橋區"
"220106","075-UY","2019/09/07 19:09:40","新北市板橋區長江路二段275號","121.46993","25.0329183333333","6500100","板橋區"
"220069","AAD-861","2019/09/07 19:09:46","新北市板橋區貴興路8號","121.457611666667","25.0043266666667","6500100","板橋區"
"220106","120-SR","2019/09/07 19:09:42","新北市板橋區中山路二段443巷61號","121.48075","25.0221733333333","6500100","板橋區"
"247008","002-UY","2019/09/07 19:00:37","新北市五股區中興路三段163號","121.449188333333","25.0805783333333","6501400","蘆洲區"
"226004","312-R5","2019/09/07 19:09:32","新北市平溪區靜安路二段565號","121.749103333333","25.0239816666667","6502400","平溪區"
"228003","097-TW","2019/09/07 19:09:43","新北市貢寮區和美里和美街38號","121.912231666667","25.0893433333333","6502600","貢寮區"
"228001","212-TW","2019/09/07 19:09:46","新北市貢寮區真理里新港街10號","121.925455","25.0543133333333","6502600","貢寮區"
"228002","663-BX","2019/09/07 19:09:46","新北市貢寮區福隆里福隆街32-1號","121.945108333333","25.0174333333333","6502600","貢寮區"
"224010","AGQ-8101","2019/09/07 19:09:36","新北市瑞芳區基山街140號","121.843623333333","25.1081866666667","6501200","瑞芳區"
"224006","676-BX","2019/09/07 19:09:44","新北市瑞芳區中山路46號","121.8033","25.106355","6501200","瑞芳區"
"224002","639-TC","2019/09/07 19:09:45","新北市平溪區新寮里五分寮10-2號","121.800078333333","25.074135","6501200","瑞芳區"
"224009","275-VK","2019/09/07 19:09:47","新北市瑞芳區洞頂路101巷18號","121.860508333333","25.12171","6501200","瑞芳區"
"224008","273-VK","2019/09/07 19:09:32","新北市瑞芳區瑞芳街102-1號","121.801756666667","25.11054","6501200","瑞芳區"
"224005","271-BY","2019/09/07 19:09:25","新北市瑞芳區中山路266號","121.799143333333","25.1079783333333","6501200","瑞芳區"
"227001","642-TC","2019/09/07 19:09:30","新北市雙溪區牡丹里自強路8巷19號","121.864855","25.03787","6502500","雙溪區"
"227002","400-TW","2019/09/07 19:09:34","新北市雙溪區平林里外平林10-3號","121.859091666667","25.038025","6502500","雙溪區"
"253005","032-BX","2019/09/07 19:09:27","新北市石門區阿里磅1號","121.590968333333","25.290875","6502200","石門區"
"253006","295-VK","2019/09/07 19:09:39","新北市石門區崁子腳58-5號","121.53008","25.286265","6502200","石門區"
"222001","KEA-2212","2019/09/07 19:09:43","新北市深坑區北深路一段300號","121.62424","25.00571","6501800","深坑區"
"208002","KEA-2872","2019/09/07 19:09:41","新北市金山區中正路73號","121.633835","25.2216933333333","6502700","金山區"
"208003","665-BX","2019/09/07 19:09:30","新北市金山區中正路6號","121.636575","25.2224","6502700","金山區"
"251009","008-UM","2019/09/07 19:09:29","新北市淡水區重建街36號","121.439905","25.1712533333333","6501000","淡水區"
"251015","KEA-2871","2019/09/07 19:09:28","新北市淡水區白石腳7-6號","121.485416666667","25.1747883333333","6501000","淡水區"
"251016","179-VK","2019/09/07 19:09:46","新北市淡水區淡金路三段212號","121.448916666667","25.2044183333333","6501000","淡水區"
"251013","182-VK","2019/09/07 19:09:31","新北市淡水區安子內12-1號","121.481546666667","25.2190316666667","6501000","淡水區"
"251010","413-VK","2019/09/07 19:09:34","新北市淡水區中正路一段156巷3號","121.421161666667","25.1802383333333","6501000","淡水區"
"243009","549-UM","2019/09/07 19:09:16","新北市泰山區明志路一段122巷15號","121.432976666667","25.0635883333333","6501600","泰山區"
"251007","442-VK","2019/09/07 19:09:31","新北市淡水區民生路135巷32號","121.466656666667","25.1391316666667","6501000","淡水區"
"251005","443-VK","2019/09/07 19:09:31","新北市淡水區原德路11號","121.4421","25.171195","6501000","淡水區"
"251001","559-UM","2019/09/07 19:09:29","新北市淡水區自強路201巷39號","121.462148333333","25.1268","6501000","淡水區"
"251014","577-R6","2019/09/07 19:09:28","新北市淡水區小中寮19-2號","121.485055","25.2289416666667","6501000","淡水區"
"251002","672-BX","2019/09/07 19:09:28","新北市淡水區中山路50號","121.444026666667","25.1702966666667","6501000","淡水區"
"251003","766-UM","2019/09/07 19:09:39","新北市淡水區大義街3號","121.443845","25.1780066666667","6501000","淡水區"
"207003","550-UM","2019/09/07 19:09:43","新北市萬里區大鵬里頂社28號","121.65677","25.2105783333333","6502800","萬里區"
"207004","291-VK","2019/09/07 19:09:32","新北市萬里區萬里里瑪鋉下街58-1號","121.691663333333","25.1795983333333","6502800","萬里區"
"252002","178-VK","2019/09/07 19:09:37","新北市三芝區中正路一段44號","121.503441666667","25.258195","6502100","三芝區"
"252003","249-BX","2019/09/07 19:09:36","新北市三芝區錫板里南勢崗5-5號","121.480951666667","25.263015","6502100","三芝區"
"208001","170-UY","2019/09/07 19:09:30","新北市金山區金包里街68號","121.639051666667","25.2213866666667","6502700","金山區"
"237007","153-BY","2019/09/07 19:09:43","新北市三峽區中正路二段42巷50號","121.364305","24.9205416666667","6500900","三峽區"
"237013","252-BX","2019/09/07 19:09:27","新北市三峽區光明路69巷25號","121.376568333333","24.9292183333333","6500900","三峽區"
"237012","275-BY","2019/09/07 19:09:31","新北市三峽區三樹路222巷254弄64號","121.393648333333","24.9444633333333","6500900","三峽區"
"237008","302-VK","2019/09/07 19:09:46","新北市三峽區光明路106巷16號","121.376225","24.9273266666667","6500900","三峽區"
"237014","433-BY","2019/09/07 19:09:45","新北市三峽區復興路341號","121.364183333333","24.938705","6500900","三峽區"
"237006","5529-G3","2019/09/07 19:09:29","新北市三峽區橫溪路99巷20-4號","121.401083333333","24.9359316666667","6500900","三峽區"
"237011","KEA-2596","2019/09/07 19:09:34","新北市三峽區介壽路三段107號","121.395496666667","24.9392816666667","6500900","三峽區"
"237015","649-BX","2019/09/07 19:09:30","新北市三峽區安坑34-8號","121.451193333333","24.929865","6500900","三峽區"
"237010","706-TV","2019/09/07 19:09:36","新北市三峽區國光街322號","121.37227","24.9393483333333","6500900","三峽區"
"237004","756-BX","2019/09/07 19:09:35","新北市三峽區有木202號","121.441118333333","24.850285","6500900","三峽區"
"237005","AKY-6261","2019/09/07 19:09:44","新北市三峽區中山路459巷42號","121.356841666667","24.9371266666667","6500900","三峽區"
"236030","253-BX","2019/09/07 19:09:28","新北市土城區城林路6巷80號","121.43864","24.9800066666667","6501300","土城區"
"236026","269-VK","2019/09/07 19:09:43","新北市土城區中正路74巷6弄2號","121.444698333333","24.9748516666667","6501300","土城區"
"236014","270-VK","2019/09/07 19:09:45","新北市土城區學府路一段99巷13號","121.45657","24.987285","6501300","土城區"
"236038","271-VK","2019/09/07 19:09:37","新北市土城區清水路100號","121.457645","24.9815083333333","6501300","土城區"
"236070","KEA-2877","2019/09/07 19:09:32","新北市土城區裕生路55號","121.447755","24.9864933333333","6501300","土城區"
"252001","KED-0821","2019/09/07 19:09:34","新北市三芝區長勤街82號","121.500265","25.2550933333333","6502100","三芝區"
"236021","401-BY","2019/09/07 19:09:39","新北市土城區延吉街134號","121.469086666667","24.9857433333333","6501300","土城區"
"236059","912-UM","2019/09/07 19:09:37","新北市土城區金城路一段131號","121.444813333333","24.9737333333333","6501300","土城區"
"236055","AAC-216","2019/09/07 19:09:36","新北市土城區學府路一段217號","121.451553333333","24.9842933333333","6501300","土城區"
"242029","615-BX","2019/09/07 19:09:33","新北市新莊區新泰路357巷3弄57號","121.441846666667","25.0392933333333","6500500","新莊區"
"238023","601-UM","2019/09/07 19:09:29","新北市樹林區三興路35號","121.396153333333","25.0147066666667","6500700","樹林區"
"238019","599-UM","2019/09/07 19:09:35","新北市樹林區東華街19號","121.414746666667","24.9823","6500700","樹林區"
"238020","571-TV","2019/09/07 19:09:41","新北市樹林區三俊街314號","121.423395","25.013925","6500700","樹林區"
"238022","KEA-2213","2019/09/07 19:09:36","新北市樹林區中山路二段151巷15-2號","121.4079","24.9774216666667","6500700","樹林區"
"238021","KEA-2539","2019/09/07 19:09:32","新北市樹林區柑園街二段441號","121.363638333333","24.9464616666667","6500700","樹林區"
"238025","303-VK","2019/09/07 19:09:42","新北市樹林區民和街83巷10號","121.378875","24.9730533333333","6500700","樹林區"
"238017","283-BY","2019/09/07 19:09:44","新北市樹林區光興街50號","121.409843333333","25.002735","6500700","樹林區"
"238014","282-BY","2019/09/07 19:09:40","新北市樹林區千歲街134巷7號","121.427638333333","24.9985716666667","6500700","樹林區"
"238026","172-UY","2019/09/07 19:09:33","新北市樹林區佳園路一段41巷18號","121.39393","24.9710833333333","6500700","樹林區"
"238016","169-UY","2019/09/07 19:09:28","新北市樹林區復興路373巷7弄14號","121.417865","24.9868333333333","6500700","樹林區"
"239007","AAC-297","2019/09/07 19:09:36","新北市鶯歌區中山路138巷44號","121.352306666667","24.9608416666667","6500800","鶯歌區"
"239006","891-R6","2019/09/07 19:09:35","新北市鶯歌區鶯桃路296巷94弄26號","121.337518333333","24.961545","6500800","鶯歌區"
"239008","527-UM","2019/09/07 19:09:27","新北市鶯歌區國際二路68號","121.334998333333","24.97638","6500800","鶯歌區"
"239005","526-UM","2019/09/07 19:09:23","新北市鶯歌區大湖路361巷24弄20號","121.32978","24.9779966666667","6500800","鶯歌區"
"239001","417-VK","2019/09/07 19:09:33","新北市鶯歌區鶯桃路134號","121.338031666667","24.9547583333333","6500800","鶯歌區"
"239003","360-BY","2019/09/07 19:09:29","新北市鶯歌區鶯桃路399號","121.333193333333","24.9640333333333","6500800","鶯歌區"
"239002","359-BY","2019/09/07 19:09:31","新北市鶯歌區中山路210號","121.34505","24.9570833333333","6500800","鶯歌區"
"239004","193-VK","2019/09/07 19:09:31","新北市鶯歌區中正三路282巷10弄12號","121.328773333333","24.9366033333333","6500800","鶯歌區"
"221008","489-VK","2019/09/07 19:09:42","新北市汐止區康寧街418-1號","121.630485","25.0680133333333","6501100","汐止區"
"221036","130-UY","2019/09/07 19:09:37","新北市汐止區南昌街23號","121.663288333333","25.0693433333333","6501100","汐止區"
"221015","131-UY","2019/09/07 19:09:33","新北市汐止區鄉長路一段37號","121.665285","25.0749666666667","6501100","汐止區"
"221031","353-TW","2019/09/07 19:09:40","新北市汐止區中興路181號","121.630258333333","25.0668483333333","6501100","汐止區"
"221035","622-UM","2019/09/07 19:09:37","新北市汐止區汐萬路一段39-3號","121.654986666667","25.069445","6501100","汐止區"
"221002","707-TV","2019/09/07 19:09:31","新北市汐止區大同路一段336號","121.637925","25.0589166666667","6501100","汐止區"
"220079","145-BY","2019/09/07 19:09:26","新北市板橋區中正路31號","121.456235","25.012835","6500100","板橋區"
"220082","610-BX","2019/09/07 19:09:44","新北市板橋區溪崑二街33號","121.428495","24.9911866666667","6500100","板橋區"
"220101","245-BX","2019/09/07 19:09:28","新北市板橋區莊敬路31號","121.473501666667","25.0273233333333","6500100","板橋區"
"220091","267-BY","2019/09/07 19:09:46","新北市板橋區縣民大道三段223號","121.480533333333","25.02536","6500100","板橋區"
"220056","276-BY","2019/09/07 19:09:38","新北市板橋區信義路74巷7弄1號","121.456628333333","24.992765","6500100","板橋區"
"220072","277-BY","2019/09/07 19:09:47","新北市板橋區溪城路91-1號","121.427071666667","24.98318","6500100","板橋區"
"220094","283-UM","2019/09/07 19:09:35","新北市板橋區吳鳳路19巷20號","121.466795","25.0307333333333","6500100","板橋區"
"220071","283-VK","2019/09/07 19:09:36","新北市板橋區忠孝路154巷41號","121.464403333333","25.0011033333333","6500100","板橋區"
"220053","285-VK","2019/09/07 19:09:31","新北市板橋區富山街53巷3弄2號","121.47727","25.019955","6500100","板橋區"
"220083","286-VK","2019/09/07 19:09:37","新北市板橋區龍興街99巷3號","121.444121666667","25.0029583333333","6500100","板橋區"
"220081","287-VK","2019/09/07 19:09:38","新北市板橋區南雅西路二段156巷26號","121.452285","25.0128066666667","6500100","板橋區"
"220061","293-UM","2019/09/07 19:09:33","新北市板橋區中山路二段318巷25號","121.480493333333","25.0185333333333","6500100","板橋區"
"220062","295-UM","2019/09/07 19:09:40","新北市板橋區三民路二段居仁巷1弄2號","121.479458333333","25.0135116666667","6500100","板橋區"
"220084","296-UM","2019/09/07 19:09:26","新北市板橋區溪崑一街30巷30號","121.429288333333","24.991445","6500100","板橋區"
"220067","299-UM","2019/09/07 19:09:43","新北市板橋區長安街224巷2號","121.475023333333","25.0121633333333","6500100","板橋區"
"220075","303-R5","2019/09/07 19:09:30","新北市板橋區南雅南路一段3巷25-7號","121.45676","25.0058783333333","6500100","板橋區"
"220092","307-R5","2019/09/07 19:09:32","新北市板橋區松江街72巷13號","121.469236666667","25.0278966666667","6500100","板橋區"
"220098","317-R6","2019/09/07 19:09:42","新北市板橋區民有街12號","121.466343333333","25.0247366666667","6500100","板橋區"
"220089","487-VK","2019/09/07 19:09:37","新北市板橋區文化路一段90號","121.464305","25.0177066666667","6500100","板橋區"
"220088","491-VK","2019/09/07 19:09:43","新北市板橋區雙十路二段4-3號","121.476996666667","25.0256466666667","6500100","板橋區"
"220035","560-BX","2019/09/07 19:09:46","新北市板橋區中正路399巷9號","121.453591666667","25.02236","6500100","板橋區"
"220103","561-BX","2019/09/07 19:09:41","新北市板橋區文化路一段210號","121.466425","25.0202133333333","6500100","板橋區"
"220080","568-UM","2019/09/07 19:09:35","新北市板橋區大觀路二段37巷276號","121.449821666667","25.0011333333333","6500100","板橋區"
"220063","609-BX","2019/09/07 19:09:42","新北市板橋區三民路二段110號","121.479133333333","25.01664","6500100","板橋區"
"220057","686-BX","2019/09/07 19:09:35","新北市板橋區國慶路199號","121.463215","24.9965733333333","6500100","板橋區"
"220077","687-BX","2019/09/07 19:09:34","新北市板橋區大觀路二段185號","121.444753333333","24.9998933333333","6500100","板橋區"
"220054","741-BX","2019/09/07 19:09:31","新北市板橋區重慶路69巷10號","121.462416666667","25.0069016666667","6500100","板橋區"
"220102","KEA-2699","2019/09/07 19:09:37","新北市板橋區文聖街146號","121.478611666667","25.0277783333333","6500100","板橋區"
"220055","827-TW","2019/09/07 19:09:39","新北市板橋區新民街7巷29號","121.463783333333","25.010615","6500100","板橋區"
"220090","831-TW","2019/09/07 19:09:31","新北市板橋區長江路一段106巷13弄12號","121.460536666667","25.0293","6500100","板橋區"
"220074","895-R6","2019/09/07 19:09:24","新北市板橋區中正路自強新村43-2號","121.455021666667","25.0138783333333","6500100","板橋區"
"220073","985-R7","2019/09/07 19:09:45","新北市板橋區中正路251號","121.455778333333","25.0183266666667","6500100","板橋區"
"220097","AAC-210","2019/09/07 19:09:30","新北市板橋區幸福路60巷31-2號","121.460533333333","25.0209816666667","6500100","板橋區"
"220064","AAC-253","2019/09/07 19:09:42","新北市板橋區縣民大道二段60號","121.462826666667","25.0124516666667","6500100","板橋區"
"235068","KEA-2873","2019/09/07 19:09:43","新北市中和區圓通路160-1號","121.497528333333","24.9956316666667","6500300","中和區"
"235061","KEA-2875","2019/09/07 19:09:23","新北市中和區中山路三段2號","121.479825","25.0060583333333","6500300","中和區"
