"lineid","car","time","location","longitude","latitude","cityid","cityname"
"234046","148-BY","2019/09/07 19:29:33","新北市永和區秀朗路二段239號","121.526358333333","24.9998816666667","6500400","永和區"
"234081","298-R6","2019/09/07 19:29:36","新北市永和區環河東路三段54號","121.526885","25.006235","6500400","永和區"
"234038","336-UY","2019/09/07 19:29:42","新北市永和區民樂街36號","121.527418333333","25.0007583333333","6500400","永和區"
"234064","337-UY","2019/09/07 19:29:31","新北市永和區中正路368巷1弄88號","121.520526666667","25.0007033333333","6500400","永和區"
"234086","338-UY","2019/09/07 19:29:32","新北市永和區國中路2號","121.524151666667","25.0043166666667","6500400","永和區"
"234070","552-UM","2019/09/07 19:29:46","新北市永和區豫溪街43號","121.516841666667","25.0099383333333","6500400","永和區"
"234017","745-BX","2019/09/07 19:29:42","新北市永和區環河西路一段87號","121.512451666667","25.01794","6500400","永和區"
"234030","746-BX","2019/09/07 19:29:30","新北市永和區四維街74號","121.523625","24.99834","6500400","永和區"
"234054","KEA-2590","2019/09/07 19:29:45","新北市永和區復興街19巷2號","121.51611","25.0131216666667","6500400","永和區"
"234007","KED-0605","2019/09/07 19:29:34","新北市永和區永和路一段157-1號","121.514348333333","25.009695","6500400","永和區"
"234013","KEA-2591","2019/09/07 19:29:25","新北市永和區中山路一段213號","121.508525","25.00815","6500400","永和區"
"234061","AAD-866","2019/09/07 19:29:41","新北市永和區中正路504號","121.517296666667","25.0044083333333","6500400","永和區"
"234042","862-TW","2019/09/07 19:29:48","新北市永和區中和路525號","121.511283333333","25.0029733333333","6500400","永和區"
"234050","863-TW","2019/09/07 19:29:37","新北市永和區信義路77號","121.512455","25.013315","6500400","永和區"
"234026","9371-KE","2019/09/07 19:29:40","新北市中和區安平路222號","121.51396","25.0000633333333","6500400","永和區"
"234011","9373-KE","2019/09/07 19:29:40","新北市永和區保安路292號","121.505058333333","25.0117616666667","6500400","永和區"
"249003","593-UM","2019/09/07 19:29:30","新北市八里區商港一路22號","121.397058333333","25.1480183333333","6502300","八里區"
"248008","KED-0815","2019/09/07 19:29:45","新北市五股區中興路一段93號","121.466651666667","25.07281","6501500","五股區"
"248020","KED-0813","2019/09/07 19:29:41","新北市五股區凌雲路三段104號","121.426203333333","25.12298","6501500","五股區"
"248012","247-BX","2019/09/07 19:29:39","新北市五股區成泰路二段91巷21號","121.437461666667","25.0842416666667","6501500","五股區"
"248014","261-SL","2019/09/07 19:29:29","新北市五股區民義路一段157-10號","121.432143333333","25.0872516666667","6501500","五股區"
"248010","272-BY","2019/09/07 19:29:26","新北市五股區水碓一路23號","121.4306","25.0712516666667","6501500","五股區"
"248004","677-BX","2019/09/07 19:29:34","新北市五股區五福路39號","121.433451666667","25.0895933333333","6501500","五股區"
"248002","678-BX","2019/09/07 19:29:33","新北市五股區凌雲路一段158巷6號","121.447796666667","25.10298","6501500","五股區"
"234023","9380-KE","2019/09/07 19:29:26","新北市永和區竹林路91巷43弄2號","121.52129","25.0127883333333","6500400","永和區"
"234077","969-R7","2019/09/07 19:29:30","新北市永和區民族街43巷8號","121.518936666667","24.99839","6500400","永和區"
"234074","AAC-211","2019/09/07 19:29:39","新北市永和區光復街60巷25號","121.517791666667","25.017505","6500400","永和區"
"234067","AAC-212","2019/09/07 19:29:44","新北市永和區保平路113號","121.510873333333","25.0065966666667","6500400","永和區"
"234003","AAC-295","2019/09/07 19:29:36","新北市永和區秀朗路一段14號","121.513933333333","25.00685","6500400","永和區"
"244023","483-VK","2019/09/07 19:29:33","新北市林口區仁愛路二段700號","121.369338333333","25.0807483333333","6501700","林口區"
"243012","AAD-798","2019/09/07 19:29:37","新北市泰山區仁義路220巷12號","121.432826666667","25.0535483333333","6501600","泰山區"
"243010","297-R6","2019/09/07 19:29:41","新北市泰山區民生路17巷2號","121.42996","25.0524783333333","6501600","泰山區"
"243014","KEA-2801","2019/09/07 19:29:32","新北市泰山區中港西路422號","121.433775","25.0538883333333","6501600","泰山區"
"243016","421-VK","2019/09/07 19:29:45","新北市泰山區明志路三段222號","121.421246666667","25.035875","6501600","泰山區"
"243011","KEA-2216","2019/09/07 19:29:26","新北市泰山區貴子路120號","121.428175","25.0407566666667","6501600","泰山區"
"243013","646-TV","2019/09/07 19:29:38","新北市泰山區貴子路36巷22號","121.425786666667","25.040805","6501600","泰山區"
"243015","680-BX","2019/09/07 19:29:46","新北市泰山區明志路二段136巷1-1號","121.427318333333","25.0512066666667","6501600","泰山區"
"222003","436-BY","2019/09/07 19:29:27","新北市深坑區深南路51-1號","121.621328333333","25.0096516666667","6501800","深坑區"
"222002","659-BX","2019/09/07 19:29:33","新北市深坑區北深路一段177號","121.632546666667","25.0108083333333","6501800","深坑區"
"231061","002-UM","2019/09/07 19:29:31","新北市新店區安康路一段355-4號","121.51733","24.9639633333333","6500600","新店區"
"231058","0293-UT","2019/09/07 19:29:40","新北市新店區北新路二段228巷11號","121.543403333333","24.9772666666667","6500600","新店區"
"231044","046-UY","2019/09/07 19:29:28","新北市新店區寶強路8號","121.543803333333","24.9786833333333","6500600","新店區"
"231060","106-UY","2019/09/07 19:29:32","新北市新店區安康路二段51號","121.514375","24.9634583333333","6500600","新店區"
"231051","107-UY","2019/09/07 19:29:34","新北市新店區中央五街22號","121.529325","24.9744933333333","6500600","新店區"
"231049","108-UY","2019/09/07 19:29:25","新北市新店區二十張路1巷2弄6號","121.540196666667","24.98214","6500600","新店區"
"231065","110-UY","2019/09/07 19:29:42","新北市新店區安祥路109巷1弄59號","121.478201666667","24.9608166666667","6500600","新店區"
"231062","256-BX","2019/09/07 19:29:37","新北市新店區莒光路70號","121.522976666667","24.9552633333333","6500600","新店區"
"231054","260-TV","2019/09/07 19:29:36","新北市新店區文中路45號","121.539575","24.95666","6500600","新店區"
"231042","268-BY","2019/09/07 19:29:30","新北市新店區中興路一段110-1號","121.541243333333","24.9623383333333","6500600","新店區"
"231064","278-BY","2019/09/07 19:29:41","新北市新店區安康路二段85巷10號","121.513495","24.962515","6500600","新店區"
"231050","AAD-862","2019/09/07 19:29:43","新北市新店區北宜路二段82巷11號","121.553735","24.9517166666667","6500600","新店區"
"231045","355-BY","2019/09/07 19:29:27","新北市新店區北宜路二段209號","121.55316","24.9533333333333","6500600","新店區"
"231056","4715-K9","2019/09/07 19:29:29","新北市新店區安康路二段320巷15弄2號","121.50427","24.9596933333333","6500600","新店區"
"231052","515-UM","2019/09/07 19:29:45","新北市新店區新烏路二段202號","121.547523333333","24.91632","6500600","新店區"
"231063","616-UM","2019/09/07 19:29:27","新北市新店區達觀路16號","121.503205","24.9406916666667","6500600","新店區"
"231040","617-UM","2019/09/07 19:29:42","新北市新店區三民路31-10號","121.537806666667","24.9704816666667","6500600","新店區"
"231041","618-UM","2019/09/07 19:29:40","新北市新店區中正路558號","121.533645","24.9871083333333","6500600","新店區"
"231048","KED-0819","2019/09/07 19:29:44","新北市新店區五峰路70巷11號","121.54613","24.96762","6500600","新店區"
"231046","719-UM","2019/09/07 19:29:32","新北市新店區北新路一段8號","121.540708333333","24.965355","6500600","新店區"
"231057","720-UM","2019/09/07 19:29:30","新北市新店區花園一路二段27號","121.55136","24.93252","6500600","新店區"
"231059","897-TW","2019/09/07 19:29:34","新北市新店區安和路三段42號","121.517958333333","24.98169","6500600","新店區"
"231043","899-TW","2019/09/07 19:29:28","新北市新店區北新路二段166號","121.543101666667","24.9757466666667","6500600","新店區"
"231066","AKT-0513","2019/09/07 19:29:30","新北市新店區安康路三段359巷16號","121.484613333333","24.9496083333333","6500600","新店區"
"241028","022-UY","2019/09/07 19:29:43","新北市三重區中寮街29號","121.492548333333","25.058965","6500200","三重區"
"241008","059-VK","2019/09/07 19:29:24","新北市三重區永福街135巷30號","121.477545","25.0771416666667","6500200","三重區"
"241031","061-VK","2019/09/07 19:29:37","新北市三重區重新路四段184巷40號","121.488263333333","25.0550516666667","6500200","三重區"
"241017","063-VK","2019/09/07 19:29:32","新北市三重區中正北路25巷25弄5號","121.49336","25.0627066666667","6500200","三重區"
"241007","066-VK","2019/09/07 19:29:36","新北市三重區慈愛街149號","121.489466666667","25.079435","6500200","三重區"
"241006","262-UM","2019/09/07 19:29:30","新北市三重區車路頭街76號","121.484325","25.0736816666667","6500200","三重區"
"241009","267-UM","2019/09/07 19:29:36","新北市三重區溪尾街242巷78號","121.485961666667","25.0813583333333","6500200","三重區"
"241032","269-UM","2019/09/07 19:29:45","新北市三重區三陽路64號","121.483903333333","25.0586533333333","6500200","三重區"
"241013","270-UM","2019/09/07 19:29:30","新北市三重區仁愛街110號","121.495278333333","25.07445","6500200","三重區"
"241030","KED-0822","2019/09/07 19:29:43","新北市三重區成功路41巷4號","121.490141666667","25.0514283333333","6500200","三重區"
"241035","462-BY","2019/09/07 19:29:43","新北市三重區信義西街1號","121.498121666667","25.0648983333333","6500200","三重區"
"241020","478-VK","2019/09/07 19:29:30","新北市三重區三和路四段20巷18號","121.490353333333","25.0737616666667","6500200","三重區"
"241026","480-VK","2019/09/07 19:29:27","新北市三重區文化南路38-1號","121.500336666667","25.06118","6500200","三重區"
"241022","KED-0820","2019/09/07 19:29:38","新北市三重區重陽路二段52巷83弄1號","121.484225","25.0655383333333","6500200","三重區"
"241012","941-UM","2019/09/07 19:29:32","新北市三重區河邊北街262號","121.501658333333","25.076445","6500200","三重區"
"241029","942-UM","2019/09/07 19:29:43","新北市三重區重安街144號","121.495415","25.05498","6500200","三重區"
"235066","003-UY","2019/09/07 19:29:38","新北市中和區中和路102號","121.502703333333","24.9996816666667","6500300","中和區"
"235063","006-UY","2019/09/07 19:29:37","新北市中和區連城路203巷10弄2號","121.495033333333","24.9974033333333","6500300","中和區"
"235056","096-UM","2019/09/07 19:29:32","新北市中和區員山路581巷2弄5號","121.477788333333","25.0094983333333","6500300","中和區"
"235039","097-UM","2019/09/07 19:29:37","新北市中和區秀峰街107號","121.520546666667","24.99037","6500300","中和區"
"235065","098-UM","2019/09/07 19:29:29","新北市中和區中山路二段2巷45弄5號","121.502315","25.0065516666667","6500300","中和區"
"235040","150-BY","2019/09/07 19:29:29","新北市中和區景安路79巷45號","121.50766","24.99587","6500300","中和區"
"235058","151-BY","2019/09/07 19:29:30","新北市中和區員山路124巷17號","121.482116666667","24.996025","6500300","中和區"
"235055","183-VK","2019/09/07 19:29:33","新北市中和區民享街33-1號","121.474031666667","25.0041416666667","6500300","中和區"
"235038","185-VK","2019/09/07 19:29:35","新北市中和區立人街13號","121.521546666667","24.9940733333333","6500300","中和區"
"235049","186-VK","2019/09/07 19:29:40","新北市中和區安平路17號","121.509186666667","24.994185","6500300","中和區"
"235067","255-BX","2019/09/07 19:29:42","新北市中和區新生街220巷17號","121.482866666667","24.9983166666667","6500300","中和區"
"235044","293-VK","2019/09/07 19:29:41","新北市中和區捷運路48-3號","121.508028333333","24.9905533333333","6500300","中和區"
"235072","301-VK","2019/09/07 19:29:39","新北市中和區連城路265巷10弄2號","121.491615","24.9954383333333","6500300","中和區"
"235043","352-BY","2019/09/07 19:29:37","新北市中和區安和路5-1號","121.511711666667","24.9934733333333","6500300","中和區"
"235042","KEA-2878","2019/09/07 19:29:26","新北市中和區中和路262巷43弄6號","121.509708333333","24.9995533333333","6500300","中和區"
"235070","558-UM","2019/09/07 19:29:37","新北市中和區景平路666-1號","121.497426666667","25.00075","6500300","中和區"
"235045","565-BX","2019/09/07 19:29:32","新北市中和區景新街399巷8號","121.51303","24.989835","6500300","中和區"
"235060","KED-0823","2019/09/07 19:29:38","新北市中和區新生街16巷11號","121.482621666667","25.00427","6500300","中和區"
"235054","640-BX","2019/09/07 19:29:37","新北市中和區莒光路63號","121.472346666667","25.0037016666667","6500300","中和區"
"235047","732-UM","2019/09/07 19:29:26","新北市中和區景平路259巷40號","121.506673333333","24.9928133333333","6500300","中和區"
"235046","733-UM","2019/09/07 19:29:40","新北市中和區忠孝街37巷2號","121.511036666667","24.9836816666667","6500300","中和區"
"235071","783-BX","2019/09/07 19:29:36","新北市中和區新生街226號","121.483803333333","24.9982966666667","6500300","中和區"
"235057","801-TS","2019/09/07 19:29:44","新北市中和區員山路152-3號","121.481373333333","24.9985966666667","6500300","中和區"
"235041","802-TS","2019/09/07 19:29:40","新北市永和區中和路525號","121.511316666667","25.0028866666667","6500300","中和區"
"235052","805-TS","2019/09/07 19:29:36","新北市中和區華新街143巷70號","121.506246666667","24.9791416666667","6500300","中和區"
"235048","896-TW","2019/09/07 19:29:30","新北市中和區忠孝街106巷4號","121.512173333333","24.98442","6500300","中和區"
"235053","900-TW","2019/09/07 19:29:29","新北市中和區民德路173號","121.468608333333","24.9996083333333","6500300","中和區"
"235064","911-UM","2019/09/07 19:29:41","新北市中和區南山路127巷11號","121.502918333333","24.997345","6500300","中和區"
"235051","157-BY","2019/09/07 19:29:41","新北市中和區景新街140-3號","121.505526666667","24.9977466666667","6500300","中和區"
"235037","AAC-213","2019/09/07 19:29:30","新北市中和區秀朗路三段50巷2弄2號","121.526058333333","24.995535","6500300","中和區"
"235059","AAC-215","2019/09/07 19:29:28","新北市中和區圓通路252巷36弄1號","121.492343333333","24.99303","6500300","中和區"
"220065","072-UY","2019/09/07 19:29:39","新北市板橋區國泰街75巷27號","121.467826666667","25.0056366666667","6500100","板橋區"
"220086","073-UY","2019/09/07 19:29:27","新北市板橋區中正路216巷76號","121.457951666667","25.0189633333333","6500100","板橋區"
"220106","075-UY","2019/09/07 19:29:43","新北市板橋區文化路二段550號","121.476178333333","25.0340666666667","6500100","板橋區"
"220069","AAD-861","2019/09/07 19:29:46","新北市板橋區南雅南路二段18號","121.454441666667","25.0035216666667","6500100","板橋區"
"220106","120-SR","2019/09/07 19:29:42","新北市板橋區萬安街118號","121.483675","25.024545","6500100","板橋區"
"247004","336-TH","2019/09/07 19:29:36","新北市蘆洲區長安街130號","121.460435","25.08199","6501400","蘆洲區"
"247008","002-UY","2019/09/07 19:29:42","新北市五股區中興路二段182巷3號","121.455668333333","25.078065","6501400","蘆洲區"
"226004","312-R5","2019/09/07 19:29:33","新北市平溪區十分里十分街156號","121.777898333333","25.04336","6502400","平溪區"
"228003","097-TW","2019/09/07 19:29:42","新北市貢寮區和美里和美街22-1號","121.912766666667","25.082645","6502600","貢寮區"
"228001","212-TW","2019/09/07 19:29:26","新北市貢寮區真理里大澳街36號","121.925081666667","25.05616","6502600","貢寮區"
"224008","273-VK","2019/09/07 19:29:32","新北市瑞芳區一坑路323號","121.801493333333","25.109145","6501200","瑞芳區"
"227001","642-TC","2019/09/07 19:29:30","新北市雙溪區新基里新基北街43號","121.868205","25.0397016666667","6502500","雙溪區"
"227002","400-TW","2019/09/07 19:29:34","新北市雙溪區雙溪里光復街3號","121.865176666667","25.0355566666667","6502500","雙溪區"
"222001","KEA-2212","2019/09/07 19:29:43","新北市深坑區北深路二段134號","121.615875","25.0029233333333","6501800","深坑區"
"208002","KEA-2872","2019/09/07 19:28:21","新北市金山區中山路315號","121.635606666667","25.2236733333333","6502700","金山區"
"208003","665-BX","2019/09/07 19:29:42","新北市金山區仁愛路37-5號","121.636161666667","25.2198116666667","6502700","金山區"
"251009","008-UM","2019/09/07 19:29:29","新北市淡水區北新路33號","121.445245","25.1777533333333","6501000","淡水區"
"251015","KEA-2871","2019/09/07 19:29:28","新北市淡水區北新路三段132號","121.488031666667","25.1897483333333","6501000","淡水區"
"251016","179-VK","2019/09/07 19:29:31","新北市淡水區淡金路三段350巷18號","121.450771666667","25.2083566666667","6501000","淡水區"
"251008","181-VK","2019/09/07 19:29:42","新北市淡水區中正路一段33號","121.42593","25.1765833333333","6501000","淡水區"
"251013","182-VK","2019/09/07 19:29:31","新北市淡水區安子內18號","121.471581666667","25.2187883333333","6501000","淡水區"
"251010","413-VK","2019/09/07 19:29:34","新北市淡水區中正路二段301號","121.426348333333","25.1901133333333","6501000","淡水區"
"243009","549-UM","2019/09/07 19:29:35","新北市泰山區半山雅1號","121.431826666667","25.0673483333333","6501600","泰山區"
"251007","442-VK","2019/09/07 19:29:31","新北市淡水區八勢路13號","121.460543333333","25.1538466666667","6501000","淡水區"
"251005","443-VK","2019/09/07 19:29:31","新北市淡水區水源街一段47巷33號","121.444035","25.17334","6501000","淡水區"
"251001","559-UM","2019/09/07 19:29:29","新北市淡水區民權路141號","121.460076666667","25.1364433333333","6501000","淡水區"
"251006","561-UM","2019/09/07 19:29:44","新北市淡水區大義街51號","121.441446666667","25.1783266666667","6501000","淡水區"
"251014","577-R6","2019/09/07 19:29:28","新北市淡水區小中寮19-7號","121.484708333333","25.2297133333333","6501000","淡水區"
"251002","672-BX","2019/09/07 19:29:28","新北市淡水區新民街一段117號","121.428078333333","25.1877966666667","6501000","淡水區"
"251003","766-UM","2019/09/07 19:29:39","新北市淡水區中山北路三段112號","121.44417","25.1928716666667","6501000","淡水區"
"207003","550-UM","2019/09/07 19:29:29","新北市萬里區大鵬里萬里加投103-1號","121.646131666667","25.2130183333333","6502800","萬里區"
"207004","291-VK","2019/09/07 19:29:32","新北市萬里區萬里里瑪鋉路89號","121.688701666667","25.17726","6502800","萬里區"
"252002","178-VK","2019/09/07 19:29:37","新北市三芝區淡金路二段18-1號","121.502705","25.25951","6502100","三芝區"
"208001","170-UY","2019/09/07 19:29:30","新北市金山區中正路20號","121.635971666667","25.2222883333333","6502700","金山區"
"237007","153-BY","2019/09/07 19:29:43","新北市三峽區二鬮路136巷14號","121.35924","24.907965","6500900","三峽區"
"237009","210-TH","2019/09/07 19:29:36","新北市三峽區中山路13巷9號","121.3692","24.9340483333333","6500900","三峽區"
"237013","252-BX","2019/09/07 19:29:27","新北市三峽區介壽路一段318巷13號","121.3811","24.9295166666667","6500900","三峽區"
"237012","275-BY","2019/09/07 19:29:31","新北市三峽區三樹路98巷119號","121.383153333333","24.9395866666667","6500900","三峽區"
"237008","302-VK","2019/09/07 19:29:26","新北市三峽區永安街127號","121.373826666667","24.9284416666667","6500900","三峽區"
"237014","433-BY","2019/09/07 19:29:45","新北市三峽區中山路63巷8號","121.366913333333","24.93433","6500900","三峽區"
"237006","5529-G3","2019/09/07 19:29:29","新北市三峽區中正路一段336巷15弄2號","121.369956666667","24.9249516666667","6500900","三峽區"
"237011","KEA-2596","2019/09/07 19:29:34","新北市三峽區介壽路一段225號","121.379015","24.9304233333333","6500900","三峽區"
"237015","649-BX","2019/09/07 19:29:30","新北市三峽區安坑7號","121.439493333333","24.9266833333333","6500900","三峽區"
"237010","706-TV","2019/09/07 19:29:36","新北市三峽區復興路172號","121.370715","24.9384733333333","6500900","三峽區"
"237004","756-BX","2019/09/07 19:29:36","新北市三峽區有木206號","121.439078333333","24.8514683333333","6500900","三峽區"
"237005","AKY-6261","2019/09/07 19:29:44","新北市三峽區中山路184巷19號","121.364445","24.93726","6500900","三峽區"
"236042","KED-0685","2019/09/07 19:29:35","新北市土城區學府路一段276號","121.45031","24.9832516666667","6501300","土城區"
"236026","269-VK","2019/09/07 19:29:43","新北市土城區中央路二段61巷20號","121.443118333333","24.97869","6501300","土城區"
"236070","KEA-2877","2019/09/07 19:29:32","新北市土城區裕民路185巷36弄8號","121.454461666667","24.9844966666667","6501300","土城區"
"252001","KED-0821","2019/09/07 19:29:34","新北市三芝區長勤街63-1號","121.50009","25.256065","6502100","三芝區"
"236021","401-BY","2019/09/07 19:29:30","新北市土城區峰廷街3號","121.469095","24.987265","6501300","土城區"
"236049","913-UM","2019/09/07 19:29:43","新北市土城區清水路173號","121.459385","24.9814633333333","6501300","土城區"
"236055","AAC-216","2019/09/07 19:29:29","新北市土城區學府路一段276號","121.450143333333","24.983075","6501300","土城區"
"242004","751-BX","2019/09/07 19:29:35","新北市新莊區思源路50號","121.460478333333","25.0439516666667","6500500","新莊區"
"238015","755-BX","2019/09/07 19:29:38","新北市樹林區大安路541號","121.412698333333","24.98436","6500700","樹林區"
"238023","601-UM","2019/09/07 19:29:37","新北市樹林區三福街30號","121.408335","25.01666","6500700","樹林區"
"238019","599-UM","2019/09/07 19:29:35","新北市樹林區鎮前街347巷1弄2號","121.416775","24.9836","6500700","樹林區"
"238020","571-TV","2019/09/07 19:29:41","新北市樹林區俊英街123巷1號","121.424468333333","25.010645","6500700","樹林區"
"238024","5061-A6","2019/09/07 19:29:29","新北市樹林區福德街17號","121.400978333333","24.9760666666667","6500700","樹林區"
"238018","KEA-2217","2019/09/07 19:29:32","新北市樹林區中華路291-3號","121.416875","24.9801983333333","6500700","樹林區"
"238022","KEA-2213","2019/09/07 19:29:36","新北市樹林區國凱街52號","121.420343333333","24.9788666666667","6500700","樹林區"
"238021","KEA-2539","2019/09/07 19:29:39","新北市樹林區佳園路三段225號","121.385086666667","24.9461416666667","6500700","樹林區"
"238025","303-VK","2019/09/07 19:29:42","新北市樹林區中山路二段89號","121.411505","24.982885","6500700","樹林區"
"238017","283-BY","2019/09/07 19:29:24","新北市樹林區光興街270號","121.406698333333","25.0049516666667","6500700","樹林區"
"238014","282-BY","2019/09/07 19:29:40","新北市樹林區千歲街6巷17號","121.425661666667","24.9951816666667","6500700","樹林區"
"238026","172-UY","2019/09/07 19:29:33","新北市樹林區佳園路三段89號","121.387631666667","24.9524066666667","6500700","樹林區"
"238016","169-UY","2019/09/07 19:29:28","新北市樹林區復興路466號","121.413371666667","24.9836283333333","6500700","樹林區"
"239007","AAC-297","2019/09/07 19:29:36","新北市鶯歌區大湖路161巷5號","121.343878333333","24.9662983333333","6500800","鶯歌區"
"239006","891-R6","2019/09/07 19:29:35","新北市鶯歌區鶯桃路67巷26號","121.340948333333","24.952095","6500800","鶯歌區"
"239008","527-UM","2019/09/07 19:29:27","新北市鶯歌區國際二路2巷13號","121.3394","24.9732566666667","6500800","鶯歌區"
"239005","526-UM","2019/09/07 19:29:43","新北市鶯歌區中湖街287號","121.348433333333","24.976715","6500800","鶯歌區"
"239001","417-VK","2019/09/07 19:29:33","新北市鶯歌區鶯桃路129巷16號","121.337605","24.954085","6500800","鶯歌區"
"239003","360-BY","2019/09/07 19:29:29","新北市鶯歌區國慶街167號","121.351191666667","24.9531016666667","6500800","鶯歌區"
"239002","359-BY","2019/09/07 19:29:31","新北市鶯歌區中山路219號","121.346496666667","24.9569916666667","6500800","鶯歌區"
"239004","193-VK","2019/09/07 19:29:35","新北市鶯歌區中正三路鄭厝巷18-2號","121.333183333333","24.93392","6500800","鶯歌區"
"221008","489-VK","2019/09/07 19:29:42","新北市汐止區康寧街237號","121.624285","25.0667033333333","6501100","汐止區"
"221027","281-BY","2019/09/07 19:29:35","新北市汐止區忠孝東路9號","121.658286666667","25.0659183333333","6501100","汐止區"
"221031","353-TW","2019/09/07 19:29:40","新北市汐止區康寧街901號","121.650751666667","25.0753333333333","6501100","汐止區"
"221025","623-UM","2019/09/07 19:29:43","新北市汐止區新台五路二段6號","121.660235","25.0649866666667","6501100","汐止區"
"221038","646-BX","2019/09/07 19:29:27","新北市汐止區秀峰路9號","121.659225","25.06673","6501100","汐止區"
"220079","145-BY","2019/09/07 19:29:46","新北市板橋區民權路202巷10弄1號","121.460441666667","25.0153216666667","6500100","板橋區"
"220082","610-BX","2019/09/07 19:29:44","新北市板橋區金門街231號","121.432265","24.9896433333333","6500100","板橋區"
"220101","245-BX","2019/09/07 19:29:48","新北市板橋區莊敬路231號","121.472676666667","25.0215116666667","6500100","板橋區"
"220091","267-BY","2019/09/07 19:29:46","新北市板橋區文聖街149巷20號","121.479368333333","25.02831","6500100","板橋區"
"220056","276-BY","2019/09/07 19:29:38","新北市板橋區信義路105-1號","121.457386666667","24.9936916666667","6500100","板橋區"
"220072","277-BY","2019/09/07 19:29:47","新北市板橋區金門街253巷16弄8號","121.432631666667","24.9879933333333","6500100","板橋區"
"220094","283-UM","2019/09/07 19:29:35","新北市板橋區銘傳街41-1號","121.469","25.03131","6500100","板橋區"
"220071","283-VK","2019/09/07 19:29:35","新北市板橋區大豐街148號","121.460913333333","25.000825","6500100","板橋區"
"220053","285-VK","2019/09/07 19:29:30","新北市板橋區懷仁街77巷35號","121.477743333333","25.0193583333333","6500100","板橋區"
"220083","286-VK","2019/09/07 19:29:37","新北市板橋區龍興街73巷35號","121.442455","25.002655","6500100","板橋區"
"220081","287-VK","2019/09/07 19:29:38","新北市板橋區大觀路一段28巷1弄102號","121.452046666667","25.0063766666667","6500100","板橋區"
"220061","293-UM","2019/09/07 19:29:32","新北市板橋區中山路一段265巷36弄1號","121.469101666667","25.0152166666667","6500100","板橋區"
"220062","295-UM","2019/09/07 19:29:30","新北市板橋區三民路二段121號","121.479483333333","25.015615","6500100","板橋區"
"220084","296-UM","2019/09/07 19:29:47","新北市板橋區滿平街148號","121.428993333333","24.98785","6500100","板橋區"
"220067","299-UM","2019/09/07 19:29:46","新北市板橋區長安街138巷30號","121.473161666667","25.0088633333333","6500100","板橋區"
"220075","303-R5","2019/09/07 19:29:30","新北市板橋區中正路275巷93號","121.450826666667","25.0181283333333","6500100","板橋區"
"220092","307-R5","2019/09/07 19:29:41","新北市板橋區陽明街164巷19號","121.464206666667","25.0245533333333","6500100","板橋區"
"220098","317-R6","2019/09/07 19:29:42","新北市板橋區民有街78號","121.465178333333","25.0269383333333","6500100","板橋區"
"220089","487-VK","2019/09/07 19:29:33","新北市板橋區龍泉街99-1號","121.45713","25.0245133333333","6500100","板橋區"
"220088","491-VK","2019/09/07 19:29:35","新北市板橋區文化路二段578號","121.476608333333","25.034645","6500100","板橋區"
"220035","560-BX","2019/09/07 19:29:29","新北市板橋區中正路362號","121.454355","25.0238183333333","6500100","板橋區"
"220103","561-BX","2019/09/07 19:29:41","新北市板橋區陽明街29巷28號","121.463971666667","25.02256","6500100","板橋區"
"220080","568-UM","2019/09/07 19:29:48","新北市板橋區大觀路二段3巷18號","121.447831666667","25.003715","6500100","板橋區"
"220063","609-BX","2019/09/07 19:29:34","新北市板橋區中山路二段505巷14號","121.48224","25.02189","6500100","板橋區"
"220057","686-BX","2019/09/07 19:29:34","新北市板橋區國慶路133號","121.460906666667","24.99602","6500100","板橋區"
"220077","687-BX","2019/09/07 19:29:34","新北市板橋區大觀路一段28巷40號","121.449906666667","25.0097866666667","6500100","板橋區"
"220054","741-BX","2019/09/07 19:29:48","新北市板橋區重慶路155巷35號","121.463483333333","25.0041966666667","6500100","板橋區"
"220102","KEA-2699","2019/09/07 19:29:37","新北市板橋區雙十路二段46巷15號","121.476151666667","25.028095","6500100","板橋區"
"220055","827-TW","2019/09/07 19:29:39","新北市板橋區重慶路278巷9號","121.462551666667","24.9996366666667","6500100","板橋區"
"220090","831-TW","2019/09/07 19:29:30","新北市板橋區長江路一段48巷17號","121.45944","25.0281416666667","6500100","板橋區"
"220074","895-R6","2019/09/07 19:29:44","新北市板橋區西門街14號","121.455381666667","25.0114466666667","6500100","板橋區"
"220073","985-R7","2019/09/07 19:29:45","新北市板橋區中正路330號","121.454421666667","25.0216233333333","6500100","板橋區"
"220097","AAC-210","2019/09/07 19:29:40","新北市板橋區文化路一段285巷2弄28號","121.464288333333","25.01956","6500100","板橋區"
"220064","AAC-253","2019/09/07 19:29:42","新北市板橋區民權路33號","121.462225","25.0109933333333","6500100","板橋區"
"235068","KEA-2873","2019/09/07 19:29:43","新北市中和區景平路493巷17號","121.499361666667","24.99708","6500300","中和區"
"235061","KEA-2875","2019/09/07 19:29:25","新北市中和區民利街71號","121.478726666667","24.9982633333333","6500300","中和區"
