"lineid","car","time","location","longitude","latitude","cityid","cityname"
"234046","148-BY","2019/09/07 19:49:44","新北市永和區永利路135號","121.524186666667","25.0032766666667","6500400","永和區"
"234081","298-R6","2019/09/07 19:49:35","新北市永和區國中路4號","121.524381666667","25.00435","6500400","永和區"
"234038","336-UY","2019/09/07 19:47:02","新北市永和區民樂街39巷18弄44號","121.528465","24.9989833333333","6500400","永和區"
"234064","337-UY","2019/09/07 19:49:46","新北市永和區中正路368巷17號","121.518245","25.0008583333333","6500400","永和區"
"234086","338-UY","2019/09/07 19:49:39","新北市永和區永利路16-1號","121.517976666667","25.0059116666667","6500400","永和區"
"234070","552-UM","2019/09/07 19:49:25","新北市永和區竹林路88號","121.519465","25.0126166666667","6500400","永和區"
"234017","745-BX","2019/09/07 19:49:29","新北市永和區永和路二段299號","121.51606","25.0160983333333","6500400","永和區"
"234030","746-BX","2019/09/07 19:49:30","新北市永和區民生路67巷22號","121.523778333333","24.99714","6500400","永和區"
"234054","KEA-2590","2019/09/07 19:49:45","新北市永和區竹林路75巷25弄9號","121.520121666667","25.0144616666667","6500400","永和區"
"234007","KED-0605","2019/09/07 19:49:34","新北市中和區中和路265號","121.505506666667","24.9997366666667","6500400","永和區"
"234013","KEA-2591","2019/09/07 19:49:25","新北市永和區永平路306號","121.507183333333","25.0124566666667","6500400","永和區"
"234061","AAD-866","2019/09/07 19:49:41","新北市永和區中正路98號","121.514286666667","24.995645","6500400","永和區"
"234042","862-TW","2019/09/07 19:49:39","新北市永和區中和路389巷47號","121.508098333333","25.0018933333333","6500400","永和區"
"234050","863-TW","2019/09/07 19:49:37","新北市永和區保安路168號","121.507978333333","25.014385","6500400","永和區"
"234026","9371-KE","2019/09/07 19:49:40","新北市永和區雙和街52巷1-1號","121.509093333333","25.0032116666667","6500400","永和區"
"234011","9373-KE","2019/09/07 19:49:40","新北市永和區仁愛路352巷112弄12號","121.501146666667","25.008575","6500400","永和區"
"249005","172-UM","2019/09/07 19:49:32","新北市八里區中華路三段170-1號","121.392213333333","25.130365","6502300","八里區"
"249001","173-UM","2019/09/07 19:49:33","新北市八里區中華路二段248號","121.40568","25.149895","6502300","八里區"
"249004","303-UY","2019/09/07 19:49:28","新北市八里區仁愛路17號","121.413381666667","25.1610566666667","6502300","八里區"
"249002","305-UY","2019/09/07 19:49:41","新北市八里區頂寮五街17號","121.451555","25.12603","6502300","八里區"
"249003","593-UM","2019/09/07 19:49:30","新北市八里區華峰三街37號","121.398621666667","25.1454633333333","6502300","八里區"
"248016","026-BX","2019/09/07 19:49:40","新北市五股區成泰路四段22巷2-1號","121.453735","25.1067583333333","6501500","五股區"
"248008","KED-0815","2019/09/07 19:49:38","新北市五股區四維路169號","121.467665","25.07512","6501500","五股區"
"248020","KED-0813","2019/09/07 19:49:41","新北市五股區中直路48號","121.417943333333","25.1196866666667","6501500","五股區"
"248012","247-BX","2019/09/07 19:49:39","新北市五股區成泰路一段235號","121.435975","25.0794916666667","6501500","五股區"
"248014","261-SL","2019/09/07 19:49:29","新北市五股區五福路22巷4號","121.434578333333","25.089015","6501500","五股區"
"248010","272-BY","2019/09/07 19:49:26","新北市五股區登林路貿商巷1弄2號","121.429555","25.06991","6501500","五股區"
"248004","677-BX","2019/09/07 19:49:34","新北市五股區成泰路一段106-1號","121.435701666667","25.071765","6501500","五股區"
"248002","678-BX","2019/09/07 19:49:33","新北市五股區成泰路四段14號","121.453395","25.10677","6501500","五股區"
"234023","9380-KE","2019/09/07 19:49:26","新北市永和區永和路二段28號","121.5146","25.0103366666667","6500400","永和區"
"234077","969-R7","2019/09/07 19:49:30","新北市永和區民治街97巷7號","121.51687","24.9981033333333","6500400","永和區"
"234074","AAC-211","2019/09/07 19:49:39","新北市永和區竹林路215號","121.520998333333","25.0088533333333","6500400","永和區"
"234067","AAC-212","2019/09/07 19:49:43","新北市永和區永平路173巷6號","121.51038","25.0089866666667","6500400","永和區"
"234003","AAC-295","2019/09/07 19:49:41","新北市永和區福和路372號","121.514418333333","25.00764","6500400","永和區"
"244023","483-VK","2019/09/07 19:49:30","新北市林口區仁愛路二段526號","121.372925","25.0782","6501700","林口區"
"243012","AAD-798","2019/09/07 19:49:37","新北市泰山區仁愛路100巷40號","121.433563333333","25.0545583333333","6501600","泰山區"
"243016","421-VK","2019/09/07 19:46:05","新北市泰山區新北大道六段407號","121.421718333333","25.03159","6501600","泰山區"
"243011","KEA-2216","2019/09/07 19:49:26","新北市泰山區明志路三段204巷10弄15號","121.422918333333","25.0386833333333","6501600","泰山區"
"222003","436-BY","2019/09/07 19:49:27","新北市深坑區深南路51-1號","121.621233333333","25.0098183333333","6501800","深坑區"
"222002","659-BX","2019/09/07 19:49:33","新北市深坑區北深路一段361號","121.622298333333","25.0049383333333","6501800","深坑區"
"231061","002-UM","2019/09/07 19:49:31","新北市新店區安民街253號","121.517293333333","24.9724033333333","6500600","新店區"
"231058","0293-UT","2019/09/07 19:49:40","新北市新店區中華路60巷1弄1號","121.539643333333","24.9690866666667","6500600","新店區"
"231044","046-UY","2019/09/07 19:49:28","新北市新店區復興路76號","121.537673333333","24.9868533333333","6500600","新店區"
"231060","106-UY","2019/09/07 19:49:29","新北市新店區安康路二段161號","121.51024","24.9593233333333","6500600","新店區"
"231051","107-UY","2019/09/07 19:49:34","新北市新店區中央三街61號","121.526916666667","24.9750083333333","6500600","新店區"
"231049","108-UY","2019/09/07 19:49:25","新北市新店區民權路127巷15號","121.535655","24.9817083333333","6500600","新店區"
"231065","110-UY","2019/09/07 19:49:42","新北市新店區安祥路109巷151弄8號","121.478365","24.958905","6500600","新店區"
"231068","187-VK","2019/09/07 19:49:29","新北市新店區安一路一段1-1號","121.519616666667","24.9612183333333","6500600","新店區"
"231062","256-BX","2019/09/07 19:49:37","新北市新店區永業路51巷2號","121.531826666667","24.95468","6500600","新店區"
"231054","260-TV","2019/09/07 19:49:45","新北市新店區光明街32號","121.538331666667","24.9589866666667","6500600","新店區"
"231042","268-BY","2019/09/07 19:49:30","新北市新店區中興路一段268-1號","121.545153333333","24.9677783333333","6500600","新店區"
"231064","278-BY","2019/09/07 19:49:41","新北市新店區光華街5巷1號","121.517825","24.9688183333333","6500600","新店區"
"231050","AAD-862","2019/09/07 19:49:43","新北市新店區北宜路二段419號","121.560275","24.9545916666667","6500600","新店區"
"231045","355-BY","2019/09/07 19:49:47","新北市新店區北宜路二段457號","121.561618333333","24.9542133333333","6500600","新店區"
"231056","4715-K9","2019/09/07 19:49:29","新北市新店區民權路42巷32號","121.539235","24.98375","6500600","新店區"
"231067","4772-VM","2019/09/07 19:49:41","新北市新店區精忠路10-1號","121.53251","24.959095","6500600","新店區"
"231052","515-UM","2019/09/07 19:49:39","新北市新店區新烏路三段206號","121.550951666667","24.9016733333333","6500600","新店區"
"231063","616-UM","2019/09/07 19:49:26","新北市新店區車子路11號","121.503033333333","24.9520016666667","6500600","新店區"
"231040","617-UM","2019/09/07 19:49:42","新北市新店區中正路75巷71號","121.543188333333","24.9689166666667","6500600","新店區"
"231041","618-UM","2019/09/07 19:49:40","新北市新店區中央路206號","121.530398333333","24.973965","6500600","新店區"
"231048","KED-0819","2019/09/07 19:49:40","新北市新店區五峰路61巷1號","121.548323333333","24.9697316666667","6500600","新店區"
"231046","719-UM","2019/09/07 19:47:12","新北市新店區福園街10巷1號","121.532746666667","24.9728183333333","6500600","新店區"
"231057","720-UM","2019/09/07 19:49:30","新北市新店區梅崗三路1號","121.55809","24.9311933333333","6500600","新店區"
"231059","897-TW","2019/09/07 19:49:34","新北市新店區安和路二段251號","121.516578333333","24.9777283333333","6500600","新店區"
"231043","899-TW","2019/09/07 19:49:28","新北市新店區中正路263-3號","121.538385","24.973905","6500600","新店區"
"231066","AKT-0513","2019/09/07 19:49:30","新北市新店區安康路三段165巷2弄8號","121.489281666667","24.95136","6500600","新店區"
"241011","013-R5","2019/09/07 19:49:28","新北市三重區介壽路39巷6號","121.49899","25.0701116666667","6500200","三重區"
"241028","022-UY","2019/09/07 19:49:43","新北市三重區中正南路127號","121.493991666667","25.05721","6500200","三重區"
"241008","059-VK","2019/09/07 19:49:44","新北市三重區永福街155號","121.478695","25.0760516666667","6500200","三重區"
"241031","061-VK","2019/09/07 19:49:37","新北市三重區重新路四段101-1號","121.485748333333","25.0542616666667","6500200","三重區"
"241015","062-VK","2019/09/07 19:49:44","新北市三重區三和路一段2號","121.503915","25.0642166666667","6500200","三重區"
"241017","063-VK","2019/09/07 19:49:32","新北市三重區重陽路三段5巷8弄27號","121.489538333333","25.06658","6500200","三重區"
"241024","065-VK","2019/09/07 19:49:29","新北市三重區頂崁街210巷26號","121.475963333333","25.0679466666667","6500200","三重區"
"241007","066-VK","2019/09/07 19:49:36","新北市三重區忠孝路三段18號","121.481541666667","25.0672083333333","6500200","三重區"
"241003","091-VK","2019/09/07 19:49:43","新北市三重區五華街93巷62號","121.493951666667","25.0851116666667","6500200","三重區"
"241006","262-UM","2019/09/07 19:49:41","新北市三重區永福街269號","121.481565","25.0740333333333","6500200","三重區"
"241009","267-UM","2019/09/07 19:49:36","新北市三重區三和路四段396巷10號","121.480866666667","25.07904","6500200","三重區"
"241032","269-UM","2019/09/07 19:49:25","新北市三重區捷運路19巷33號","121.484703333333","25.0578066666667","6500200","三重區"
"241013","270-UM","2019/09/07 19:49:30","新北市三重區三和路三段85號","121.494455","25.072315","6500200","三重區"
"241030","KED-0822","2019/09/07 19:49:27","新北市三重區環河南路254巷41號","121.489531666667","25.0513983333333","6500200","三重區"
"241035","462-BY","2019/09/07 19:49:46","新北市三重區大榮街50號","121.499018333333","25.0635683333333","6500200","三重區"
"241020","478-VK","2019/09/07 19:49:31","新北市三重區三和路四段2號","121.491823333333","25.073785","6500200","三重區"
"241026","480-VK","2019/09/07 19:49:27","新北市三重區中央南路37號","121.501368333333","25.0619916666667","6500200","三重區"
"241014","543-UM","2019/09/07 19:49:43","新北市三重區長元街98巷18弄9號","121.50212","25.0675916666667","6500200","三重區"
"241023","545-UM","2019/09/07 19:49:25","新北市三重區頂崁街172號","121.477585","25.0659183333333","6500200","三重區"
"241001","547-UM","2019/09/07 19:49:29","新北市三重區仁愛街315巷3弄4號","121.49303","25.079195","6500200","三重區"
"241019","KEA-2593","2019/09/07 19:49:43","新北市三重區自強路二段74巷25號","121.487725","25.0696883333333","6500200","三重區"
"241005","AAD-863","2019/09/07 19:49:36","新北市三重區溪尾街325巷18號","121.488611666667","25.0838933333333","6500200","三重區"
"241025","743-BX","2019/09/07 19:49:30","新北市三重區忠孝路三段52號","121.480673333333","25.0656333333333","6500200","三重區"
"241016","887-TS","2019/09/07 19:49:36","新北市三重區正義北路48巷74號","121.495595","25.0634883333333","6500200","三重區"
"241012","941-UM","2019/09/07 19:49:32","新北市三重區仁興街39巷26號","121.500428333333","25.07628","6500200","三重區"
"241029","942-UM","2019/09/07 19:49:45","新北市三重區光明路13巷7號","121.490778333333","25.0585716666667","6500200","三重區"
"241033","AAC-255","2019/09/07 19:49:44","新北市三重區中興南街29-1號","121.470481666667","25.043915","6500200","三重區"
"235066","003-UY","2019/09/07 19:49:38","新北市中和區南工路6號","121.505406666667","25.0002166666667","6500300","中和區"
"235056","096-UM","2019/09/07 19:49:31","新北市中和區中山路三段170巷8弄1號","121.472511666667","25.007545","6500300","中和區"
"235039","097-UM","2019/09/07 19:49:37","新北市中和區大勇街27巷25號","121.516348333333","24.99382","6500300","中和區"
"235065","098-UM","2019/09/07 19:49:29","新北市中和區福祥路96號","121.499161666667","25.0059316666667","6500300","中和區"
"235040","150-BY","2019/09/07 19:49:29","新北市中和區安和路39號","121.50965","24.9948566666667","6500300","中和區"
"235058","151-BY","2019/09/07 19:49:30","新北市中和區員山路150巷2弄21號","121.48175","24.9978133333333","6500300","中和區"
"235055","183-VK","2019/09/07 19:49:33","新北市中和區德光路15巷21號","121.471446666667","25.0033933333333","6500300","中和區"
"235038","185-VK","2019/09/07 19:49:35","新北市中和區自強路2號","121.52032","24.9960533333333","6500300","中和區"
"235049","186-VK","2019/09/07 19:49:40","新北市中和區景平路552號","121.502351666667","24.9947833333333","6500300","中和區"
"235067","255-BX","2019/09/07 19:49:42","新北市中和區中正路751巷3弄12號","121.484353333333","24.9993933333333","6500300","中和區"
"235044","293-VK","2019/09/07 19:49:41","新北市中和區南山路146巷13號","121.503328333333","24.992425","6500300","中和區"
"235072","301-VK","2019/09/07 19:49:39","新北市中和區連城路281巷2弄13號","121.490246666667","24.9957266666667","6500300","中和區"
"235043","352-BY","2019/09/07 19:49:37","新北市中和區興南路二段159巷7號","121.505305","24.9830483333333","6500300","中和區"
"235042","KEA-2878","2019/09/07 19:49:26","新北市中和區宜安路96號","121.51058","24.9977433333333","6500300","中和區"
"247016","KEA-2869","2019/09/07 19:49:33","新北市蘆洲區中正路259號","121.467623333333","25.087185","6501400","蘆洲區"
"235050","4979-A6","2019/09/07 19:49:32","新北市中和區景平路241巷84弄54號","121.506113333333","24.9923766666667","6500300","中和區"
"235070","558-UM","2019/09/07 19:49:36","新北市中和區圓通路145巷2號","121.498586666667","24.9955433333333","6500300","中和區"
"235045","565-BX","2019/09/07 19:49:32","新北市中和區安樂路1號","121.51159","24.9918783333333","6500300","中和區"
"235047","732-UM","2019/09/07 19:49:46","新北市中和區和平街132號","121.506558333333","24.9917383333333","6500300","中和區"
"235046","733-UM","2019/09/07 19:49:40","新北市中和區捷運路6號","121.510221666667","24.9895766666667","6500300","中和區"
"235041","802-TS","2019/09/07 19:49:33","新北市中和區中安街122號","121.511205","25.00052","6500300","中和區"
"235052","805-TS","2019/09/07 19:49:35","新北市中和區興南路二段113巷2號","121.505503333333","24.9842833333333","6500300","中和區"
"235048","896-TW","2019/09/07 19:49:30","新北市中和區興南路一段58號","121.510851666667","24.9904933333333","6500300","中和區"
"235053","900-TW","2019/09/07 19:49:29","新北市中和區民德路216號","121.46821","24.998075","6500300","中和區"
"235051","157-BY","2019/09/07 19:49:32","新北市中和區中興街180巷33號","121.498351666667","24.9891366666667","6500300","中和區"
"235037","AAC-213","2019/09/07 19:49:30","新北市中和區自立路137號","121.522101666667","24.993785","6500300","中和區"
"235059","AAC-215","2019/09/07 19:49:47","新北市中和區圓通路284號","121.491453333333","24.9906183333333","6500300","中和區"
"220065","072-UY","2019/09/07 19:49:36","新北市板橋區民族路256號","121.469276666667","25.00701","6500100","板橋區"
"220086","073-UY","2019/09/07 19:49:47","新北市板橋區中正路236巷77號","121.459108333333","25.0196433333333","6500100","板橋區"
"220106","075-UY","2019/09/07 19:49:40","新北市板橋區民治街52巷20號","121.478843333333","25.0328583333333","6500100","板橋區"
"220069","AAD-861","2019/09/07 19:49:27","新北市板橋區大明街42號","121.457978333333","25.0027983333333","6500100","板橋區"
"220068","120-SR","2019/09/07 19:49:44","新北市板橋區光復街140號","121.484458333333","25.0192383333333","6500100","板橋區"
"247004","336-TH","2019/09/07 19:49:36","新北市蘆洲區中原路67號","121.458615","25.081955","6501400","蘆洲區"
"247014","056-VK","2019/09/07 19:49:37","新北市蘆洲區復興路30-7號","121.472881666667","25.0844616666667","6501400","蘆洲區"
"247008","002-UY","2019/09/07 19:49:42","新北市蘆洲區中山一路67號","121.4783","25.0810883333333","6501400","蘆洲區"
"247002","001-UY","2019/09/07 19:49:41","新北市蘆洲區永樂街38巷40號","121.458531666667","25.0899716666667","6501400","蘆洲區"
"226004","312-R5","2019/09/07 19:49:32","新北市平溪區十分里十分街66巷17號","121.77501","25.0426283333333","6502400","平溪區"
"228003","097-TW","2019/09/07 19:49:42","新北市貢寮區真理里美艷山街5-1號","121.926355","25.0596616666667","6502600","貢寮區"
"228001","212-TW","2019/09/07 19:49:46","新北市貢寮區真理里新港街117號","121.927053333333","25.0563316666667","6502600","貢寮區"
"224010","AGQ-8101","2019/09/07 19:49:36","新北市瑞芳區輕便路294號","121.84366","25.1091933333333","6501200","瑞芳區"
"224002","639-TC","2019/09/07 19:49:25","新北市瑞芳區民享新村22號","121.817003333333","25.10557","6501200","瑞芳區"
"227001","642-TC","2019/09/07 19:49:30","新北市雙溪區新基里中華路45號","121.86585","25.0375383333333","6502500","雙溪區"
"227002","400-TW","2019/09/07 19:49:34","新北市雙溪區雙溪里內挖路47號","121.863218333333","25.0367333333333","6502500","雙溪區"
"222001","KEA-2212","2019/09/07 19:49:43","新北市深坑區北深路三段85號","121.606383333333","25.0015316666667","6501800","深坑區"
"208002","KEA-2872","2019/09/07 19:49:41","新北市金山區環金路87號","121.636971666667","25.2173016666667","6502700","金山區"
"208003","665-BX","2019/09/07 19:49:30","新北市金山區海興路1-3號","121.634036666667","25.244055","6502700","金山區"
"251009","008-UM","2019/09/07 19:49:29","新北市淡水區中正路38-1號","121.44372","25.1693033333333","6501000","淡水區"
"251004","009-UM","2019/09/07 19:49:28","新北市淡水區民權路185巷22號","121.460321666667","25.13377","6501000","淡水區"
"251015","KEA-2871","2019/09/07 19:49:28","新北市淡水區山子頂24-1號","121.49138","25.187195","6501000","淡水區"
"251016","179-VK","2019/09/07 19:49:39","新北市淡水區三塊厝2號","121.453015","25.210175","6501000","淡水區"
"251008","181-VK","2019/09/07 19:49:31","新北市淡水區中正路一段24巷2-4號","121.426765","25.1770066666667","6501000","淡水區"
"251013","182-VK","2019/09/07 19:49:31","新北市淡水區頂田寮路109號","121.458653333333","25.2162066666667","6501000","淡水區"
"251012","441-VK","2019/09/07 19:49:37","新北市淡水區淡金路三段23號","121.446301666667","25.19725","6501000","淡水區"
"251007","442-VK","2019/09/07 19:49:31","新北市淡水區竿蓁一街56號","121.452898333333","25.1663783333333","6501000","淡水區"
"251005","443-VK","2019/09/07 19:49:31","新北市淡水區中正東路6號","121.44688","25.1672516666667","6501000","淡水區"
"251001","559-UM","2019/09/07 19:49:29","新北市淡水區淡金路160號","121.458598333333","25.1653316666667","6501000","淡水區"
"251006","561-UM","2019/09/07 19:49:44","新北市淡水區水碓街15號","121.443498333333","25.1769583333333","6501000","淡水區"
"251014","577-R6","2019/09/07 19:49:28","新北市淡水區番社前1-7號","121.468271666667","25.2360966666667","6501000","淡水區"
"251011","650-BX","2019/09/07 19:49:38","新北市淡水區紅樹林路195號","121.460685","25.1564366666667","6501000","淡水區"
"251002","672-BX","2019/09/07 19:49:28","新北市淡水區下圭柔山91-4號","121.428906666667","25.2079","6501000","淡水區"
"207003","550-UM","2019/09/07 19:49:29","新北市萬里區大鵬里下社9-4號","121.647061666667","25.2172633333333","6502800","萬里區"
"207004","291-VK","2019/09/07 19:49:39","新北市萬里區萬里里瑪鋉路205號","121.690445","25.1793083333333","6502800","萬里區"
"252002","178-VK","2019/09/07 19:49:37","新北市三芝區三民街33號","121.504683333333","25.2585766666667","6502100","三芝區"
"208001","170-UY","2019/09/07 19:49:44","新北市金山區重和里林口30號","121.596566666667","25.2098866666667","6502700","金山區"
"237007","153-BY","2019/09/07 19:49:43","新北市三峽區二鬮路136巷20弄51號","121.357515","24.9099916666667","6500900","三峽區"
"237009","210-TH","2019/09/07 19:49:44","新北市三峽區清水街426號","121.368718333333","24.9260883333333","6500900","三峽區"
"237013","252-BX","2019/09/07 19:49:27","新北市三峽區溪北街95號","121.397845","24.9355616666667","6500900","三峽區"
"237012","275-BY","2019/09/07 19:49:31","新北市三峽區中華路31號","121.372938333333","24.9312283333333","6500900","三峽區"
"237008","302-VK","2019/09/07 19:49:46","新北市三峽區大同路201號","121.370878333333","24.9270783333333","6500900","三峽區"
"237014","433-BY","2019/09/07 19:49:45","新北市三峽區添福141-17號","121.374971666667","24.9010433333333","6500900","三峽區"
"237006","5529-G3","2019/09/07 19:49:29","新北市三峽區中正路一段336巷15弄2號","121.369941666667","24.9249683333333","6500900","三峽區"
"237015","649-BX","2019/09/07 19:49:30","新北市三峽區溪東路107號","121.401945","24.9345383333333","6500900","三峽區"
"237004","756-BX","2019/09/07 19:49:35","新北市三峽區圳頭40號","121.377308333333","24.8862633333333","6500900","三峽區"
"237005","AKY-6261","2019/09/07 19:49:44","新北市三峽區長泰街102號","121.375935","24.9331833333333","6500900","三峽區"
"236042","KED-0685","2019/09/07 19:49:35","新北市土城區裕民路233巷21號","121.454611666667","24.9835166666667","6501300","土城區"
"236030","253-BX","2019/09/07 19:49:28","新北市土城區中央路一段294號","121.443281666667","24.9823616666667","6501300","土城區"
"236026","269-VK","2019/09/07 19:49:43","新北市土城區中央路二段61巷54號","121.444513333333","24.97844","6501300","土城區"
"236070","KEA-2877","2019/09/07 19:49:32","新北市土城區中央路二段254號","121.441583333333","24.9747916666667","6501300","土城區"
"252001","KED-0821","2019/09/07 19:49:34","新北市三芝區公正街66號","121.499826666667","25.2574816666667","6502100","三芝區"
"236021","401-BY","2019/09/07 19:49:30","新北市土城區延吉街92號","121.470606666667","24.9863333333333","6501300","土城區"
"236059","912-UM","2019/09/07 19:49:40","新北市土城區中央路一段104號","121.446675","24.9883333333333","6501300","土城區"
"236049","913-UM","2019/09/07 19:49:33","新北市土城區青雲路236號","121.459035","24.980645","6501300","土城區"
"236063","915-UM","2019/09/07 19:49:30","新北市土城區金城路三段163巷16號","121.468866666667","24.9892733333333","6501300","土城區"
"236055","AAC-216","2019/09/07 19:49:29","新北市土城區延和路213號","121.469798333333","24.98984","6501300","土城區"
"242004","751-BX","2019/09/07 19:46:51","新北市新莊區化成路45號","121.465145","25.04463","6500500","新莊區"
"242048","566-BX","2019/09/07 19:49:36","新北市新莊區後港一路28巷16弄2號","121.425511666667","25.0250616666667","6500500","新莊區"
"242007","440-UM","2019/09/07 19:49:28","新北市新莊區新北大道三段7號","121.458036666667","25.0600216666667","6500500","新莊區"
"242013","413-TV","2019/09/07 19:49:27","新北市新莊區中泰街58號","121.45032","25.0469383333333","6500500","新莊區"
"242023","353-BY","2019/09/07 19:49:34","新北市新莊區化成路158號","121.465476666667","25.045225","6500500","新莊區"
"242039","135-UY","2019/09/07 19:49:29","新北市新莊區民安路299巷51號","121.429575","25.0237183333333","6500500","新莊區"
"242056","172-VK","2019/09/07 19:49:36","新北市新莊區新泰路87號","121.448785","25.0343483333333","6500500","新莊區"
"242017","173-VK","2019/09/07 19:49:32","新北市新莊區中華路一段226號","121.45264","25.042935","6500500","新莊區"
"242031","175-VK","2019/09/07 19:49:37","新北市新莊區忠孝街110號","121.443823333333","25.0375283333333","6500500","新莊區"
"242021","KED-0687","2019/09/07 19:49:44","新北市新莊區新泰路145號","121.44799","25.0365866666667","6500500","新莊區"
"242036","348-TH","2019/09/07 19:49:31","新北市新莊區建安街101巷34號","121.427123333333","25.0234883333333","6500500","新莊區"
"242034","350-TH","2019/09/07 19:49:37","新北市新莊區仁愛街69號","121.444253333333","25.0376616666667","6500500","新莊區"
"238015","755-BX","2019/09/07 19:49:30","新北市樹林區樹德街35號","121.421708333333","24.9915716666667","6500700","樹林區"
"238023","601-UM","2019/09/07 19:49:47","新北市樹林區中正路345-2號","121.420126666667","25.0057383333333","6500700","樹林區"
"238019","599-UM","2019/09/07 19:49:35","新北市樹林區東陽街35號","121.413176666667","24.9814166666667","6500700","樹林區"
"238020","571-TV","2019/09/07 19:49:41","新北市樹林區千歲街109號","121.429226666667","25.0013983333333","6500700","樹林區"
"238024","5061-A6","2019/09/07 19:49:29","新北市樹林區中山路三段44號","121.39458","24.972925","6500700","樹林區"
"238022","KEA-2213","2019/09/07 19:49:42","新北市樹林區國凱街74號","121.420965","24.9789216666667","6500700","樹林區"
"238021","KEA-2539","2019/09/07 19:49:35","新北市樹林區佳園路三段101巷62弄11號","121.393793333333","24.9494233333333","6500700","樹林區"
"238025","303-VK","2019/09/07 19:49:42","新北市樹林區中山路二段54號","121.416265","24.984485","6500700","樹林區"
"238017","283-BY","2019/09/07 19:49:44","新北市樹林區保安街二段167巷13號","121.414493333333","25.0027666666667","6500700","樹林區"
"238014","282-BY","2019/09/07 19:49:40","新北市樹林區千歲街46巷3號","121.426381666667","24.9967433333333","6500700","樹林區"
"239006","891-R6","2019/09/07 19:49:35","新北市鶯歌區文化路253號","121.353306666667","24.9531","6500800","鶯歌區"
"239001","417-VK","2019/09/07 19:49:37","新北市鶯歌區尖山埔路146號","121.343391666667","24.9495983333333","6500800","鶯歌區"
"239002","359-BY","2019/09/07 19:49:31","新北市鶯歌區大湖路394號","121.344443333333","24.97353","6500800","鶯歌區"
"239004","193-VK","2019/09/07 19:49:31","新北市鶯歌區二甲路43-17號","121.33705","24.93455","6500800","鶯歌區"
"221008","489-VK","2019/09/07 19:49:42","新北市汐止區康寧街61巷22弄3號","121.619513333333","25.0671066666667","6501100","汐止區"
"221010","269-BY","2019/09/07 19:49:38","新北市汐止區汐萬路一段411號","121.649203333333","25.0794266666667","6501100","汐止區"
"221012","278-VK","2019/09/07 19:49:42","新北市汐止區大同路三段356號","121.680215","25.0711","6501100","汐止區"
"221023","279-VK","2019/09/07 19:49:34","新北市汐止區中興路270號","121.628865","25.0688266666667","6501100","汐止區"
"221021","299-VK","2019/09/07 19:49:37","新北市汐止區水源路一段143號","121.656018333333","25.0620433333333","6501100","汐止區"
"221031","353-TW","2019/09/07 19:49:40","新北市汐止區伯爵街2巷31號","121.643353333333","25.075655","6501100","汐止區"
"221025","623-UM","2019/09/07 19:49:43","新北市汐止區秀峰路81巷11號","121.660733333333","25.0644383333333","6501100","汐止區"
"221038","646-BX","2019/09/07 19:49:46","新北市汐止區忠孝東路415號","121.665816666667","25.071355","6501100","汐止區"
"220079","145-BY","2019/09/07 19:49:26","新北市板橋區民權路202巷17弄24號","121.45985","25.0167133333333","6500100","板橋區"
"220082","610-BX","2019/09/07 19:49:44","新北市板橋區大觀路三段180巷30號","121.429823333333","24.9937233333333","6500100","板橋區"
"220101","245-BX","2019/09/07 19:49:28","新北市板橋區縣民大道三段101號","121.476261666667","25.0223633333333","6500100","板橋區"
"220091","267-BY","2019/09/07 19:49:28","新北市板橋區民治街81巷15號","121.480403333333","25.0323216666667","6500100","板橋區"
"220056","276-BY","2019/09/07 19:49:38","新北市板橋區四川路二段47巷3弄1號","121.454243333333","24.9947916666667","6500100","板橋區"
"220072","277-BY","2019/09/07 19:49:27","新北市板橋區金門街159號","121.43285","24.9904283333333","6500100","板橋區"
"220094","283-UM","2019/09/07 19:49:35","新北市板橋區雨農路17巷1號","121.46201","25.0245333333333","6500100","板橋區"
"220071","283-VK","2019/09/07 19:49:35","新北市板橋區和平路190巷12號","121.464425","24.995025","6500100","板橋區"
"220053","285-VK","2019/09/07 19:49:32","新北市板橋區永豐街13號","121.474706666667","25.0168316666667","6500100","板橋區"
"220083","286-VK","2019/09/07 19:49:36","新北市板橋區僑中三街40號","121.445316666667","25.0050916666667","6500100","板橋區"
"220081","287-VK","2019/09/07 19:49:38","新北市板橋區大觀路一段29巷33號","121.450251666667","25.007575","6500100","板橋區"
"220061","293-UM","2019/09/07 19:49:32","新北市板橋區觀光街66號","121.469923333333","25.0167316666667","6500100","板橋區"
"220062","295-UM","2019/09/07 19:49:46","新北市板橋區中山路二段416巷52號","121.483018333333","25.0193383333333","6500100","板橋區"
"220084","296-UM","2019/09/07 19:49:26","新北市板橋區溪崑二街145號","121.42624","24.98823","6500100","板橋區"
"220067","299-UM","2019/09/07 19:49:46","新北市板橋區長安街210號","121.474495","25.012035","6500100","板橋區"
"220075","303-R5","2019/09/07 19:49:30","新北市板橋區大勇街8巷1號","121.45396","25.0170916666667","6500100","板橋區"
"220092","307-R5","2019/09/07 19:49:32","新北市板橋區新海路109巷1弄1號","121.461026666667","25.0225533333333","6500100","板橋區"
"220098","317-R6","2019/09/07 19:49:42","新北市板橋區四維路269巷47號","121.461268333333","25.027335","6500100","板橋區"
"220089","487-VK","2019/09/07 19:49:33","新北市板橋區四維路175-1號","121.464496666667","25.026255","6500100","板橋區"
"220088","491-VK","2019/09/07 19:49:38","新北市板橋區懷德街127巷1號","121.478898333333","25.03089","6500100","板橋區"
"220035","560-BX","2019/09/07 19:49:29","新北市板橋區中正路375巷38號","121.453836666667","25.0204733333333","6500100","板橋區"
"220103","561-BX","2019/09/07 19:49:41","新北市板橋區英士路58巷7號","121.460625","25.0251083333333","6500100","板橋區"
"220080","568-UM","2019/09/07 19:49:28","新北市板橋區大觀路二段37巷330號","121.449951666667","25.0024016666667","6500100","板橋區"
"220063","609-BX","2019/09/07 19:49:39","新北市板橋區三民路一段31巷1號","121.479203333333","25.02312","6500100","板橋區"
"220057","686-BX","2019/09/07 19:49:34","新北市板橋區四川路二段4巷4號","121.456635","24.9967583333333","6500100","板橋區"
"220077","687-BX","2019/09/07 19:49:36","新北市板橋區僑中二街120巷2號","121.445505","25.0059933333333","6500100","板橋區"
"220054","741-BX","2019/09/07 19:49:31","新北市板橋區忠孝路239巷32號","121.46723","25.0035516666667","6500100","板橋區"
"220102","KEA-2699","2019/09/07 19:49:37","新北市板橋區莊敬路36-2號","121.473255","25.0271933333333","6500100","板橋區"
"220055","827-TW","2019/09/07 19:49:39","新北市板橋區和平路31號","121.459946666667","24.9957216666667","6500100","板橋區"
"220090","831-TW","2019/09/07 19:49:33","新北市板橋區新海路72巷64號","121.461825","25.0235633333333","6500100","板橋區"
"220074","895-R6","2019/09/07 19:49:44","新北市板橋區館前西路139號","121.456371666667","25.00784","6500100","板橋區"
"220073","985-R7","2019/09/07 19:49:45","新北市板橋區國光路51號","121.458056666667","25.018005","6500100","板橋區"
"220097","AAC-210","2019/09/07 19:49:31","新北市板橋區光正街16巷14號","121.46316","25.0174916666667","6500100","板橋區"
"220064","AAC-253","2019/09/07 19:49:42","新北市板橋區民族路300號","121.470588333333","25.0067566666667","6500100","板橋區"
"235068","KEA-2873","2019/09/07 19:49:43","新北市中和區莊敬路3號","121.499663333333","25.0044616666667","6500300","中和區"
"235061","KEA-2875","2019/09/07 19:49:42","新北市中和區民樂路3號","121.481555","25.00114","6500300","中和區"
"235026","KEA-2876","2019/09/07 19:46:37","新北市中和區員山路36巷16-3號","121.48497","24.9915233333333","6500300","中和區"
