"lineid","car","time","location","longitude","latitude","cityid","cityname"
"248012","247-BX","2019/09/07 20:59:39","新北市八里區中華路三段27號","121.396568333333","25.1431616666667","6501500","五股區"
"231061","002-UM","2019/09/07 20:59:39","新北市新店區永安街62巷2號","121.519211666667","24.9868633333333","6500600","新店區"
"231060","106-UY","2019/09/07 20:59:29","新北市新店區安康路三段527號","121.482415","24.9471433333333","6500600","新店區"
"231051","107-UY","2019/09/07 20:59:34","新北市新店區中正路663巷7弄15號","121.533028333333","24.990155","6500600","新店區"
"231049","108-UY","2019/09/07 20:59:45","新北市新店區薏仁坑路自強巷6號","121.496818333333","24.9583616666667","6500600","新店區"
"231065","110-UY","2019/09/07 20:59:22","新北市新店區安祥路69巷54弄57號","121.483495","24.9585533333333","6500600","新店區"
"231068","187-VK","2019/09/07 20:59:29","新北市新店區寶元路二段67號","121.547538333333","24.9808466666667","6500600","新店區"
"231062","256-BX","2019/09/07 20:59:37","新北市新店區裕合街74號","121.490286666667","24.9485066666667","6500600","新店區"
"231054","260-TV","2019/09/07 20:59:36","新北市新店區大新街7巷26號","121.544106666667","24.9679266666667","6500600","新店區"
"231042","268-BY","2019/09/07 20:59:30","新北市新店區寶興路60巷3號","121.549946666667","24.971815","6500600","新店區"
"231064","278-BY","2019/09/07 20:59:41","新北市新店區薏仁坑路6號","121.500271666667","24.95797","6500600","新店區"
"231050","AAD-862","2019/09/07 20:59:43","新北市新店區三民路73號","121.536023333333","24.9714583333333","6500600","新店區"
"231063","616-UM","2019/09/07 20:59:26","新北市新店區玫瑰路38號","121.495948333333","24.9498416666667","6500600","新店區"
"231040","617-UM","2019/09/07 20:59:42","新北市新店區中正路177號","121.54087","24.9721616666667","6500600","新店區"
"231059","897-TW","2019/09/07 20:59:35","新北市新店區僑信路74巷23號","121.49888","24.9480733333333","6500600","新店區"
"231043","899-TW","2019/09/07 20:59:28","新北市新店區中央路151號","121.529403333333","24.9724216666667","6500600","新店區"
"231066","AKT-0513","2019/09/07 20:59:29","新北市新店區安民街12號","121.515318333333","24.9643383333333","6500600","新店區"
"241011","013-R5","2019/09/07 20:59:28","新北市三重區秀江街111號","121.499858333333","25.0722033333333","6500200","三重區"
"241028","022-UY","2019/09/07 20:59:43","新北市三重區正義南路47號","121.498185","25.0606683333333","6500200","三重區"
"241008","059-VK","2019/09/07 20:59:44","新北市三重區車路頭街135-1號","121.484266666667","25.0761283333333","6500200","三重區"
"241031","061-VK","2019/09/07 20:59:37","新北市三重區重陽路一段113巷2弄1號","121.487631666667","25.05993","6500200","三重區"
"241015","062-VK","2019/09/07 20:59:44","新北市三重區福德北路57號","121.502128333333","25.0653866666667","6500200","三重區"
"241017","063-VK","2019/09/07 20:59:32","新北市三重區國隆路30號","121.492235","25.06443","6500200","三重區"
"241024","065-VK","2019/09/07 20:59:29","新北市三重區大勇街49號","121.481348333333","25.07195","6500200","三重區"
"241002","090-VK","2019/09/07 20:59:36","新北市三重區五華街7巷49號","121.496111666667","25.080565","6500200","三重區"
"241003","091-VK","2019/09/07 20:59:43","新北市三重區進安街198號","121.49388","25.085985","6500200","三重區"
"241007","742-BX","2019/09/07 20:59:31","新北市三重區三和路四段99號","121.487223333333","25.0764233333333","6500200","三重區"
"241006","262-UM","2019/09/07 20:59:30","新北市三重區永福街52號","121.48168","25.0781066666667","6500200","三重區"
"241009","267-UM","2019/09/07 20:59:36","新北市三重區車路頭街135-1號","121.484228333333","25.0759216666667","6500200","三重區"
"241032","269-UM","2019/09/07 20:59:44","新北市三重區三陽路118號","121.482978333333","25.0587816666667","6500200","三重區"
"241013","270-UM","2019/09/07 20:59:29","新北市三重區仁賢街12-1號","121.4957","25.0749316666667","6500200","三重區"
"241030","KED-0822","2019/09/07 20:59:27","新北市三重區中正南路269號","121.493261666667","25.0522466666667","6500200","三重區"
"241004","475-VK","2019/09/07 20:59:33","新北市三重區仁愛街423-1號","121.490373333333","25.0814566666667","6500200","三重區"
"241020","478-VK","2019/09/07 20:59:31","新北市三重區忠孝路二段34號","121.485793333333","25.0710433333333","6500200","三重區"
"241026","480-VK","2019/09/07 20:59:27","新北市三重區文化南路45號","121.500225","25.0613566666667","6500200","三重區"
"241014","543-UM","2019/09/07 20:59:43","新北市三重區長壽街120巷11號","121.50252","25.0691083333333","6500200","三重區"
"241023","545-UM","2019/09/07 20:59:25","新北市三重區洛陽街45巷11號","121.482353333333","25.063745","6500200","三重區"
"241001","547-UM","2019/09/07 20:59:29","新北市三重區三和路四段146號","121.488435","25.0754833333333","6500200","三重區"
"241019","KEA-2593","2019/09/07 20:59:43","新北市三重區三張街104號","121.487928333333","25.06991","6500200","三重區"
"241005","AAD-863","2019/09/07 20:59:36","新北市三重區集智街2號","121.487776666667","25.08626","6500200","三重區"
"241025","743-BX","2019/09/07 20:59:30","新北市三重區貴陽街18-1號","121.484151666667","25.0619283333333","6500200","三重區"
"241022","KED-0820","2019/09/07 20:59:38","新北市三重區中正北路20巷12號","121.488001666667","25.0624516666667","6500200","三重區"
"241016","887-TS","2019/09/07 20:59:36","新北市三重區正義北路88號","121.497155","25.0646966666667","6500200","三重區"
"241012","941-UM","2019/09/07 20:59:32","新北市三重區仁信街27號","121.501265","25.0755133333333","6500200","三重區"
"241029","942-UM","2019/09/07 20:59:25","新北市三重區電信街33號","121.49703","25.0584","6500200","三重區"
"241033","AAC-255","2019/09/07 20:59:41","新北市三重區光復路二段28號","121.472096666667","25.0542666666667","6500200","三重區"
"235055","183-VK","2019/09/07 20:59:33","新北市三重區五谷王北街181-1號","121.478103333333","25.0534066666667","6500300","中和區"
"247016","KEA-2869","2019/09/07 20:59:33","新北市蘆洲區正和街86號","121.46832","25.0808766666667","6501400","蘆洲區"
"247010","KED-0682","2019/09/07 20:59:36","新北市蘆洲區鷺江街87號","121.476878333333","25.08367","6501400","蘆洲區"
"247006","893-R6","2019/09/07 20:59:36","新北市蘆洲區永安南路二段16巷8號","121.467863333333","25.077245","6501400","蘆洲區"
"247020","546-UM","2019/09/07 20:59:40","新北市蘆洲區民族路371號","121.471111666667","25.0912633333333","6501400","蘆洲區"
"247018","500-BY","2019/09/07 20:59:28","新北市蘆洲區民權路136-2號","121.473101666667","25.0888916666667","6501400","蘆洲區"
"247004","336-TH","2019/09/07 20:59:36","新北市蘆洲區永安南路二段268號","121.458641666667","25.08073","6501400","蘆洲區"
"247024","057-VK","2019/09/07 20:59:36","新北市蘆洲區長興路213號","121.46112","25.08636","6501400","蘆洲區"
"247014","056-VK","2019/09/07 20:59:37","新北市蘆洲區中山二路36巷35號","121.474051666667","25.08339","6501400","蘆洲區"
"247022","007-UY","2019/09/07 20:59:38","新北市蘆洲區民族路419號","121.468805","25.0896866666667","6501400","蘆洲區"
"247008","002-UY","2019/09/07 20:59:42","新北市蘆洲區民生街76號","121.472843333333","25.0791166666667","6501400","蘆洲區"
"247002","001-UY","2019/09/07 20:59:41","新北市蘆洲區永平街16號","121.459176666667","25.0905983333333","6501400","蘆洲區"
"251015","KEA-2871","2019/09/07 20:59:28","新北市淡水區淡金路四段542巷17號","121.452818333333","25.2270766666667","6501000","淡水區"
"251016","179-VK","2019/09/07 20:59:31","新北市淡水區牛埔子10-1號","121.44991","25.21845","6501000","淡水區"
"251013","182-VK","2019/09/07 20:59:31","新北市淡水區番子厝13號","121.461371666667","25.2014266666667","6501000","淡水區"
"251010","413-VK","2019/09/07 20:59:34","新北市淡水區中正路一段116-3號","121.423913333333","25.17874","6501000","淡水區"
"251012","441-VK","2019/09/07 20:59:37","新北市淡水區淡金路五段72號","121.454541666667","25.233505","6501000","淡水區"
"251007","442-VK","2019/09/07 20:59:31","新北市淡水區仁愛街2巷25號","121.446473333333","25.1710566666667","6501000","淡水區"
"251005","443-VK","2019/09/07 20:59:31","新北市淡水區學府路51巷2弄8號","121.4478","25.1697283333333","6501000","淡水區"
"251001","559-UM","2019/09/07 20:59:29","新北市淡水區北投子14-5號","121.448895","25.18323","6501000","淡水區"
"251014","577-R6","2019/09/07 20:59:28","新北市淡水區溪口7-3號","121.45562","25.2365833333333","6501000","淡水區"
"251011","650-BX","2019/09/07 20:59:38","新北市淡水區新民街226巷1號","121.436295","25.180705","6501000","淡水區"
"251002","672-BX","2019/09/07 20:59:28","新北市淡水區英專路67號","121.445621666667","25.1711","6501000","淡水區"
"251003","766-UM","2019/09/07 20:59:38","新北市淡水區新春街125巷5號","121.441351666667","25.18237","6501000","淡水區"
"247012","KED-0683","2019/09/07 20:59:32","新北市蘆洲區民權路8-1號","121.476721666667","25.0858","6501400","蘆洲區"
"242002","441-UM","2019/09/07 20:59:42","新北市三重區光復路二段175號","121.472411666667","25.061915","6500500","新莊區"
"242036","348-TH","2019/09/07 20:59:30","新北市新莊區瓊泰路186號","121.443066666667","25.03362","6500500","新莊區"
"242009","349-TH","2019/09/07 20:59:41","新北市三重區中興南街37號","121.470145","25.0427916666667","6500500","新莊區"
"221035","622-UM","2019/09/07 20:59:37","新北市汐止區汐萬路一段115巷1號","121.654638333333","25.07004","6501100","汐止區"
"220083","286-VK","2019/09/07 20:59:36","新北市樹林區八德街262-1號","121.417825","24.972235","6500100","板橋區"
"220081","287-VK","2019/09/07 20:59:37","新北市五股區天乙路102-18號","121.44696","25.1071233333333","6500100","板橋區"
