"lineid","car","time","location","longitude","latitude","cityid","cityname"
"251004","180-VK","2019/09/07 22:09:28","新北市淡水區民族路33號","121.462283333333","25.1358483333333","6501000","淡水區"
"251008","181-VK","2019/09/07 22:09:31","新北市淡水區學府路104號","121.449883333333","25.17178","6501000","淡水區"
"251010","413-VK","2019/09/07 22:09:34","新北市淡水區沙崙路200號","121.424668333333","25.1838733333333","6501000","淡水區"
"251007","442-VK","2019/09/07 22:09:31","新北市淡水區北新路180號","121.449406666667","25.1786383333333","6501000","淡水區"
"251005","443-VK","2019/09/07 22:09:31","新北市淡水區鄧公路19號","121.451435","25.16999","6501000","淡水區"
"251006","561-UM","2019/09/07 22:09:32","新北市淡水區新生街88號","121.439523333333","25.1747966666667","6501000","淡水區"
"251011","650-BX","2019/09/07 22:09:38","新北市淡水區水碓街7號","121.443155","25.177115","6501000","淡水區"
