"lineid","car","time","location","longitude","latitude","cityid","cityname"
"234081","298-R6","2019/09/19 18:19:31","新北市永和區福和路1號","121.526153333333","25.009755","6500400","永和區"
"234026","9371-KE","2019/09/19 18:19:37","新北市永和區豫溪街42巷4號","121.515488333333","25.0095583333333","6500400","永和區"
"234011","9373-KE","2019/09/19 18:19:42","新北市永和區竹林路75巷4弄34號","121.521733333333","25.0141733333333","6500400","永和區"
"249005","172-UM","2019/09/19 18:19:36","新北市八里區荖阡坑路15-25號","121.400516666667","25.1401716666667","6502300","八里區"
"249001","173-UM","2019/09/19 18:19:30","新北市八里區龍米路一段135號","121.4522","25.12684","6502300","八里區"
"249004","303-UY","2019/09/19 18:19:28","新北市八里區龍米路二段236-3號","121.431553333333","25.15893","6502300","八里區"
"249002","305-UY","2019/09/19 18:19:33","新北市八里區龍形二街25號","121.45061","25.132185","6502300","八里區"
"248014","025-BX","2019/09/19 18:19:34","新北市五股區自強路90巷1號","121.432461666667","25.0725333333333","6501500","五股區"
"248016","026-BX","2019/09/19 18:19:23","新北市五股區成泰路三段477巷18號","121.449908333333","25.0988883333333","6501500","五股區"
"248006","077-UY","2019/09/19 18:19:33","新北市五股區中興路一段89號","121.46683","25.07288","6501500","五股區"
"248008","KED-0815","2019/09/19 18:19:31","新北市五股區更洲路32巷8弄14號","121.459255","25.0796316666667","6501500","五股區"
"248020","KED-0813","2019/09/19 18:19:31","新北市五股區孝義路45號","121.454286666667","25.1104883333333","6501500","五股區"
"248012","247-BX","2019/09/19 18:19:36","新北市五股區御史路1巷101弄2號","121.440985","25.0912483333333","6501500","五股區"
"248010","272-BY","2019/09/19 18:19:31","新北市五股區成泰路一段139巷2弄2號","121.435106666667","25.0729683333333","6501500","五股區"
"248004","677-BX","2019/09/19 18:19:28","新北市五股區工商路84-1號","121.438033333333","25.0851166666667","6501500","五股區"
"248002","678-BX","2019/09/19 18:19:36","新北市五股區西雲路46號","121.443443333333","25.09092","6501500","五股區"
"232011","076-UY","2019/09/19 18:19:27","新北市坪林區坪雙路一段41號","121.711695","24.9424516666667","6502000","坪林區"
"244007","080-UY","2019/09/19 18:19:37","新北市林口區後湖17-4號","121.386701666667","25.0965516666667","6501700","林口區"
"244013","KEA-2802","2019/09/19 18:19:37","新北市林口區文化一路二段106號","121.382338333333","25.0795916666667","6501700","林口區"
"244023","483-VK","2019/09/19 18:19:32","新北市林口區仁愛路二段98號","121.383908333333","25.075105","6501700","林口區"
"244017","485-VK","2019/09/19 18:19:40","新北市林口區八德路78號","121.36556","25.0656","6501700","林口區"
"244009","656-BX","2019/09/19 18:19:36","新北市林口區民生路166號","121.379746666667","25.0877666666667","6501700","林口區"
"244011","701-TV","2019/09/19 18:19:34","新北市林口區中正路153號","121.392943333333","25.0772533333333","6501700","林口區"
"244025","837-TS","2019/09/19 18:19:32","新北市林口區文化北路一段192-100號","121.357291666667","25.070395","6501700","林口區"
"244021","838-TS","2019/09/19 18:19:29","新北市林口區自強一街5號","121.39776","25.0787033333333","6501700","林口區"
"243013","646-TV","2019/09/19 18:19:28","新北市泰山區南林路93號","121.415565","25.0512133333333","6501600","泰山區"
"222003","436-BY","2019/09/19 18:19:34","新北市深坑區旺耽路67號","121.626275","25.0030233333333","6501800","深坑區"
"222002","659-BX","2019/09/19 18:19:28","新北市深坑區雲鄉路133號","121.622858333333","24.998055","6501800","深坑區"
"231055","0291-UT","2019/09/19 18:19:40","新北市新店區安康路一段17號","121.533086666667","24.9603216666667","6500600","新店區"
"231044","046-UY","2019/09/19 18:19:21","新北市新店區安華路28-1號","121.519185","24.9607616666667","6500600","新店區"
"231060","106-UY","2019/09/19 18:19:24","新北市新店區安華路28-1號","121.51965","24.9608033333333","6500600","新店區"
"231051","107-UY","2019/09/19 18:19:40","新北市新店區安一路一段1-1號","121.519578333333","24.9611383333333","6500600","新店區"
"221025","KEA-2785","2019/09/19 18:19:41","新北市汐止區秀峰路128-1號","121.659921666667","25.0630166666667","6501100","汐止區"
"231054","260-TV","2019/09/19 18:19:25","新北市新店區安一路一段1-1號","121.519306666667","24.9611683333333","6500600","新店區"
"231042","268-BY","2019/09/19 18:19:36","新北市新店區安一路一段1-1號","121.51974","24.9613316666667","6500600","新店區"
"231064","278-BY","2019/09/19 18:19:25","新北市新店區安一路一段1-1號","121.519828333333","24.9611016666667","6500600","新店區"
"231050","AAD-862","2019/09/19 18:19:32","新北市新店區安華路28-1號","121.519711666667","24.9609016666667","6500600","新店區"
"231045","355-BY","2019/09/19 18:19:32","新北市新店區安華路28-1號","121.51924","24.96072","6500600","新店區"
"231058","3713-VJ","2019/09/19 18:19:34","新北市新店區秀山路68-1號","121.531008333333","24.9609816666667","6500600","新店區"
"231056","4715-K9","2019/09/19 18:19:25","新北市新店區中央路2號","121.53386","24.97876","6500600","新店區"
"231052","513-UM","2019/09/19 18:19:37","新北市新店區秀山路14號","121.532623333333","24.9603133333333","6500600","新店區"
"231041","619-UM","2019/09/19 18:19:34","新北市新店區安華路28-1號","121.519445","24.9606566666667","6500600","新店區"
"231063","641-BX","2019/09/19 18:19:25","新北市新店區安華路28-1號","121.519571666667","24.960645","6500600","新店區"
"231047","KED-0819","2019/09/19 18:19:40","新北市新店區安一路一段1-1號","121.519808333333","24.9612","6500600","新店區"
"231057","720-UM","2019/09/19 18:19:33","新北市新店區安一路一段1-1號","121.519316666667","24.96106","6500600","新店區"
"231059","897-TW","2019/09/19 18:19:23","新北市新店區安華路28-1號","121.519605","24.960695","6500600","新店區"
"231043","899-TW","2019/09/19 18:19:32","新北市新店區安華路28-1號","121.519278333333","24.9607633333333","6500600","新店區"
"231066","AKT-0513","2019/09/19 18:19:44","新北市新店區安華路28-1號","121.519655","24.96055","6500600","新店區"
"235066","003-UY","2019/09/19 18:19:27","新北市中和區中山路二段120號","121.502731666667","25.0036683333333","6500300","中和區"
"235063","006-UY","2019/09/19 18:19:42","新北市中和區連城路347巷16弄1號","121.488436666667","24.9948683333333","6500300","中和區"
"235056","096-UM","2019/09/19 18:19:27","新北市板橋區三民路二段220巷22號","121.477751666667","25.011625","6500300","中和區"
"235039","097-UM","2019/09/19 18:19:33","新北市中和區景平路416號","121.508118333333","24.99313","6500300","中和區"
"235065","098-UM","2019/09/19 18:19:31","新北市中和區莊敬路49巷18號","121.501646666667","25.0061533333333","6500300","中和區"
"235040","150-BY","2019/09/19 18:19:24","新北市中和區景安路116號","121.505408333333","24.9950133333333","6500300","中和區"
"235058","151-BY","2019/09/19 18:19:37","新北市中和區圓通路369巷35號","121.489281666667","24.98638","6500300","中和區"
"235038","185-VK","2019/09/19 18:19:43","新北市中和區自立路48號","121.523023333333","24.9921733333333","6500300","中和區"
"235049","186-VK","2019/09/19 18:19:26","新北市中和區錦和路350-1號","121.490545","24.9936483333333","6500300","中和區"
"235072","301-VK","2019/09/19 18:19:42","新北市中和區連城路237-1號","121.493783333333","24.9973133333333","6500300","中和區"
"235043","352-BY","2019/09/19 18:19:39","新北市中和區南山路233號","121.503761666667","24.9933266666667","6500300","中和區"
"235042","KEA-2878","2019/09/19 18:19:37","新北市中和區大仁街20巷25弄12號","121.51888","24.9934883333333","6500300","中和區"
"235050","4979-A6","2019/09/19 18:19:36","新北市中和區捷運路129號","121.507165","24.9907166666667","6500300","中和區"
"235069","4980-A6","2019/09/19 18:19:42","新北市中和區連城路167號","121.495546666667","24.9985","6500300","中和區"
"235070","558-UM","2019/09/19 18:19:30","新北市中和區南華路5號","121.502008333333","24.9955883333333","6500300","中和區"
"235045","565-BX","2019/09/19 18:19:24","新北市中和區景安路212號","121.50398","24.9907166666667","6500300","中和區"
"235060","KED-0823","2019/09/19 18:19:30","新北市中和區員山路431號","121.480888333333","25.00371","6500300","中和區"
"235054","640-BX","2019/09/19 18:19:39","新北市中和區民享街117巷2號","121.474516666667","24.998945","6500300","中和區"
"235047","732-UM","2019/09/19 18:19:37","新北市中和區南山路493號","121.507971666667","24.9878166666667","6500300","中和區"
"235046","733-UM","2019/09/19 18:19:34","新北市中和區錦和路350-1號","121.49042","24.9935616666667","6500300","中和區"
"235057","801-TS","2019/09/19 18:19:27","新北市中和區民安街53-2號","121.479171666667","24.99983","6500300","中和區"
"235041","802-TS","2019/09/19 18:19:38","新北市中和區中正路252號","121.4956","24.994005","6500300","中和區"
"235052","805-TS","2019/09/19 18:19:32","新北市中和區興南路二段133號","121.505251666667","24.9842133333333","6500300","中和區"
"235048","896-TW","2019/09/19 18:19:40","新北市中和區錦和路350-1號","121.490361666667","24.9935583333333","6500300","中和區"
"235053","900-TW","2019/09/19 18:19:30","新北市中和區連城路523巷13弄26號","121.482248333333","24.9936266666667","6500300","中和區"
"235064","911-UM","2019/09/19 18:19:41","新北市中和區連城路139巷58號","121.496848333333","24.9971683333333","6500300","中和區"
"235051","157-BY","2019/09/19 18:19:26","新北市中和區忠孝街5巷7號","121.50927","24.9830616666667","6500300","中和區"
"235037","AAC-213","2019/09/19 18:19:29","新北市中和區景德街95-8號","121.515215","24.9911166666667","6500300","中和區"
"235059","AAC-215","2019/09/19 18:19:42","新北市中和區員山路36巷16-3號","121.485163333333","24.9914183333333","6500300","中和區"
"226004","312-R5","2019/09/19 18:19:30","新北市平溪區薯榔里雙菁路94號","121.713926666667","25.0212016666667","6502400","平溪區"
"228003","097-TW","2019/09/19 18:19:24","新北市貢寮區真理里美艷山街64-2號","121.920308333333","25.07223","6502600","貢寮區"
"228001","212-TW","2019/09/19 18:19:35","新北市貢寮區仁理村仁愛路66巷27號","121.926655","25.05241","6502600","貢寮區"
"228002","663-BX","2019/09/19 18:19:30","新北市貢寮區福連里馬崗街3-2號","122.00147","25.013955","6502600","貢寮區"
"224010","AGQ-8101","2019/09/19 18:19:33","新北市瑞芳區街頂巷56號","121.844075","25.1079566666667","6501200","瑞芳區"
"224006","676-BX","2019/09/19 18:19:43","新北市瑞芳區三爪子坑路106巷1-2號","121.808111666667","25.1049066666667","6501200","瑞芳區"
"224002","639-TC","2019/09/19 18:19:33","新北市瑞芳區三爪子坑路30號","121.810498333333","25.1062616666667","6501200","瑞芳區"
"224007","285-BY","2019/09/19 18:19:35","新北市瑞芳區大埔路67巷5-1號","121.76429","25.1014983333333","6501200","瑞芳區"
"224009","275-VK","2019/09/19 18:19:36","新北市瑞芳區祈堂路223號","121.856951666667","25.1093833333333","6501200","瑞芳區"
"224008","273-VK","2019/09/19 18:19:31","新北市瑞芳區逢甲路34號","121.811388333333","25.1083816666667","6501200","瑞芳區"
"224005","271-BY","2019/09/19 18:19:37","新北市瑞芳區建基新村34號","121.812203333333","25.1302716666667","6501200","瑞芳區"
"227001","642-TC","2019/09/19 18:19:31","新北市雙溪區牡丹里牡丹73號","121.851705","25.0593616666667","6502500","雙溪區"
"227002","400-TW","2019/09/19 18:19:24","新北市雙溪區共和里泰和街13號","121.863015","25.0339216666667","6502500","雙溪區"
"253005","032-BX","2019/09/19 18:19:40","新北市石門區中央路5號","121.566381666667","25.29156","6502200","石門區"
"253006","295-VK","2019/09/19 18:19:34","新北市石門區老梅路75號","121.546118333333","25.289195","6502200","石門區"
"222001","KEA-2212","2019/09/19 18:19:41","新北市深坑區北深路二段51-1號","121.619068333333","25.0040566666667","6501800","深坑區"
"208002","KEA-2872","2019/09/19 18:19:33","新北市金山區磺清路135號","121.639365","25.227345","6502700","金山區"
"208003","665-BX","2019/09/19 18:19:43","新北市金山區民生路1號","121.649225","25.22418","6502700","金山區"
"251004","009-UM","2019/09/19 18:19:33","新北市淡水區民族路152號","121.462578333333","25.1337916666667","6501000","淡水區"
"251005","010-UM","2019/09/19 18:19:35","新北市淡水區水源街一段122巷37號","121.447073333333","25.1703783333333","6501000","淡水區"
"251015","KEA-2871","2019/09/19 18:19:31","新北市淡水區興福寮88巷85號","121.484563333333","25.1655866666667","6501000","淡水區"
"251016","179-VK","2019/09/19 18:19:30","新北市淡水區淡金路三段228巷24號","121.449708333333","25.2049566666667","6501000","淡水區"
"251013","180-VK","2019/09/19 18:19:43","新北市淡水區行忠路590號","121.468041666667","25.19919","6501000","淡水區"
"251008","181-VK","2019/09/19 18:19:23","新北市淡水區淡金路16巷80號","121.460426666667","25.1604783333333","6501000","淡水區"
"251010","413-VK","2019/09/19 18:19:38","新北市淡水區淡海路202號","121.420266666667","25.18545","6501000","淡水區"
"251012","441-VK","2019/09/19 18:19:27","新北市淡水區北新路二段77-5號","121.480575","25.1855666666667","6501000","淡水區"
"251001","559-UM","2019/09/19 18:19:26","新北市淡水區自強路110-6號","121.461636666667","25.1314066666667","6501000","淡水區"
"251006","561-UM","2019/09/19 18:19:30","新北市淡水區新民街76巷28號","121.439225","25.177195","6501000","淡水區"
"251014","577-R6","2019/09/19 18:19:31","新北市淡水區崙頂14號","121.491165","25.2217466666667","6501000","淡水區"
"251011","650-BX","2019/09/19 18:19:26","新北市淡水區三空泉9-1號","121.47457","25.1630016666667","6501000","淡水區"
"251002","672-BX","2019/09/19 18:19:27","新北市淡水區中正東路一段125號","121.45523","25.1594816666667","6501000","淡水區"
"251003","673-BX","2019/09/19 18:19:30","新北市淡水區北新路180號","121.449475","25.1787633333333","6501000","淡水區"
"207003","550-UM","2019/09/19 18:19:43","新北市萬里區野柳里港西路74號","121.685656666667","25.2049783333333","6502800","萬里區"
"207004","291-VK","2019/09/19 18:19:42","新北市萬里區中幅里中福路177號","121.674173333333","25.16548","6502800","萬里區"
"252002","178-VK","2019/09/19 18:19:32","新北市三芝區中山路二段39號","121.502916666667","25.2551316666667","6502100","三芝區"
"252003","292-VK","2019/09/19 18:19:24","新北市三芝區錫板里南勢崗2號","121.480978333333","25.2632666666667","6502100","三芝區"
"208001","170-UY","2019/09/19 18:19:22","新北市金山區自強路22號","121.640343333333","25.2167183333333","6502700","金山區"
"237004","KEA-2597","2019/09/19 18:19:24","新北市三峽區五寮1-3號","121.376903333333","24.87218","6500900","三峽區"
"237007","153-BY","2019/09/19 18:19:25","新北市三峽區中正路二段534號","121.360703333333","24.906495","6500900","三峽區"
"237009","210-TH","2019/09/19 18:19:38","新北市三峽區大仁路2號","121.366873333333","24.9377","6500900","三峽區"
"237013","252-BX","2019/09/19 18:19:37","新北市三峽區大同路2-1號","121.378403333333","24.9301","6500900","三峽區"
"237012","275-BY","2019/09/19 18:19:40","新北市三峽區民生街1巷5-1號","121.37848","24.9363566666667","6500900","三峽區"
"237008","302-VK","2019/09/19 18:19:31","新北市三峽區白雞68-85號","121.39269","24.9085733333333","6500900","三峽區"
"237014","433-BY","2019/09/19 18:19:24","新北市三峽區復興路78號","121.37314","24.9372666666667","6500900","三峽區"
"237006","5529-G3","2019/09/19 18:19:21","新北市三峽區溪東路218巷32號","121.407243333333","24.93005","6500900","三峽區"
"237011","KEA-2596","2019/09/19 18:19:39","新北市三峽區溪東路201號","121.404326666667","24.9334916666667","6500900","三峽區"
"237015","649-BX","2019/09/19 18:19:31","新北市三峽區竹崙路10號","121.426708333333","24.92272","6500900","三峽區"
"237010","706-TV","2019/09/19 18:19:29","新北市三峽區民族街126號","121.369345","24.928835","6500900","三峽區"
"237005","AKY-6261","2019/09/19 18:19:36","新北市三峽區忠孝街32號","121.370928333333","24.9338766666667","6500900","三峽區"
"236042","KED-0685","2019/09/19 18:19:33","新北市土城區裕生路21巷1弄2號","121.4487","24.9871816666667","6501300","土城區"
"233002","762-BX","2019/09/19 18:19:37","新北市烏來區忠治126號","121.548453333333","24.8838966666667","6502900","烏來區"
"236030","253-BX","2019/09/19 18:19:39","新北市土城區中央路二段180巷12號","121.441191666667","24.9764933333333","6501300","土城區"
"236026","269-VK","2019/09/19 18:19:36","新北市土城區承天路18號","121.439431666667","24.9635416666667","6501300","土城區"
"236014","270-VK","2019/09/19 18:19:31","新北市土城區青雲路39巷5號","121.460363333333","24.9876483333333","6501300","土城區"
"236038","271-VK","2019/09/19 18:19:42","新北市土城區青雲路483巷9-1號","121.459473333333","24.9739533333333","6501300","土城區"
"236070","KEA-2877","2019/09/19 18:19:28","新北市土城區明德路一段93巷4號","121.465968333333","24.983285","6501300","土城區"
"252001","KED-0821","2019/09/19 18:19:37","新北市三芝區中興街二段2號","121.498375","25.2566483333333","6502100","三芝區"
"236021","401-BY","2019/09/19 18:19:44","新北市土城區明德路一段375-1號","121.454875","24.9781966666667","6501300","土城區"
"236059","912-UM","2019/09/19 18:19:27","新北市土城區中央路四段464號","121.409943333333","24.950575","6501300","土城區"
"236049","913-UM","2019/09/19 18:19:35","新北市土城區明德路一段361-1號","121.456488333333","24.977645","6501300","土城區"
"236063","915-UM","2019/09/19 18:19:40","新北市土城區金城路三段202-3號","121.469418333333","24.9885616666667","6501300","土城區"
"236055","AAC-216","2019/09/19 18:19:41","新北市土城區中華路二段196號","121.437538333333","24.97022","6501300","土城區"
"242042","AAC-296","2019/09/19 18:19:33","新北市新莊區天祥街116號","121.414621666667","25.0298166666667","6500500","新莊區"
"242061","986-R7","2019/09/19 18:19:41","新北市新莊區新樹路48號","121.437693333333","25.0273833333333","6500500","新莊區"
"242004","751-BX","2019/09/19 18:19:36","新北市新莊區復興路一段203號","121.452181666667","25.0435216666667","6500500","新莊區"
"242027","613-BX","2019/09/19 18:19:41","新北市新莊區新泰路528號","121.44197","25.04686","6500500","新莊區"
"242058","612-BX","2019/09/19 18:19:41","新北市新莊區新北大道七段842號","121.413698333333","25.0236666666667","6500500","新莊區"
"242053","497-BY","2019/09/19 18:19:37","新北市新莊區民安西路410巷10弄1號","121.42819","25.0092233333333","6500500","新莊區"
"242051","442-UM","2019/09/19 18:19:36","新北市新莊區民安東路27號","121.428368333333","25.021005","6500500","新莊區"
"242002","441-UM","2019/09/19 18:19:38","新北市新莊區碧江街18-7號","121.455431666667","25.0346766666667","6500500","新莊區"
"242007","440-UM","2019/09/19 18:19:35","新北市新莊區自治街35號","121.454086666667","25.0479666666667","6500500","新莊區"
"242044","415-TV","2019/09/19 18:19:34","新北市新莊區鳳山街48號","121.414378333333","25.0258316666667","6500500","新莊區"
"242025","362-BY","2019/09/19 18:19:32","新北市新莊區五工三路95號","121.458118333333","25.0654016666667","6500500","新莊區"
"242015","132-UY","2019/09/19 18:19:29","新北市新莊區中和街130號","121.447526666667","25.048105","6500500","新莊區"
"242056","172-VK","2019/09/19 18:19:27","新北市新莊區瓊林路13-1號","121.44922","25.0313616666667","6500500","新莊區"
"242031","175-VK","2019/09/19 18:19:31","新北市新莊區新泰路255巷76號","121.44312","25.039435","6500500","新莊區"
"242021","KED-0687","2019/09/19 18:19:30","新北市新莊區中正路170號","121.450751666667","25.0358766666667","6500500","新莊區"
"242009","349-TH","2019/09/19 18:19:37","新北市新莊區昌盛街35巷1弄19號","121.453163333333","25.0502483333333","6500500","新莊區"
"238015","755-BX","2019/09/19 18:19:23","新北市樹林區文化街79巷1號","121.416841666667","24.9890866666667","6500700","樹林區"
"238023","601-UM","2019/09/19 18:19:22","新北市樹林區三福街114號","121.406453333333","25.0162683333333","6500700","樹林區"
"238019","599-UM","2019/09/19 18:19:36","新北市樹林區水源街32巷65號","121.425055","24.98019","6500700","樹林區"
"238024","5061-A6","2019/09/19 18:19:34","新北市樹林區豐林街64號","121.422168333333","24.9980633333333","6500700","樹林區"
"238018","KEA-2217","2019/09/19 18:19:37","新北市樹林區保安街一段20巷2號","121.427615","24.99355","6500700","樹林區"
"238025","303-VK","2019/09/19 18:19:35","新北市樹林區保安街一段295號","121.418238333333","24.997675","6500700","樹林區"
"238017","283-BY","2019/09/19 18:19:32","新北市樹林區保安街二段333巷3號","121.4118","25.007495","6500700","樹林區"
"238020","268-VK","2019/09/19 18:19:25","新北市樹林區三俊街50號","121.412355","25.01559","6500700","樹林區"
"238026","172-UY","2019/09/19 18:19:42","新北市樹林區佳園路一段75巷11弄53號","121.39516","24.96995","6500700","樹林區"
"238016","169-UY","2019/09/19 18:19:34","新北市樹林區中山路一段412號","121.417376666667","24.9851766666667","6500700","樹林區"
"239007","AAC-297","2019/09/19 18:19:28","新北市鶯歌區育英街53號","121.347128333333","24.9526983333333","6500800","鶯歌區"
"239006","891-R6","2019/09/19 18:19:26","新北市鶯歌區鶯桃路451-1號","121.332068333333","24.9656083333333","6500800","鶯歌區"
"239008","527-UM","2019/09/19 18:19:35","新北市鶯歌區朝陽街4號","121.336271666667","24.9766033333333","6500800","鶯歌區"
"239005","526-UM","2019/09/19 18:19:38","新北市鶯歌區鶯桃路668巷73號","121.329973333333","24.971835","6500800","鶯歌區"
"239001","417-VK","2019/09/19 18:19:42","新北市鶯歌區中正三路121號","121.337915","24.9407216666667","6500800","鶯歌區"
"239003","360-BY","2019/09/19 18:19:42","新北市鶯歌區福安街58號","121.335583333333","24.9651816666667","6500800","鶯歌區"
"239002","359-BY","2019/09/19 18:19:40","新北市鶯歌區中山路329巷3號","121.343808333333","24.9566066666667","6500800","鶯歌區"
"221036","130-UY","2019/09/19 18:19:32","新北市汐止區長安路181號","121.671973333333","25.0771016666667","6501100","汐止區"
"221015","131-UY","2019/09/19 18:19:32","新北市汐止區長江街363號","121.667878333333","25.0823383333333","6501100","汐止區"
"244019","KED-0667","2019/09/19 18:19:42","新北市林口區忠孝路594巷3號","121.375935","25.067865","6501700","林口區"
"221010","269-BY","2019/09/19 18:19:42","新北市汐止區祥雲街12號","121.646168333333","25.0898683333333","6501100","汐止區"
"221012","278-VK","2019/09/19 18:19:20","新北市汐止區保一街81-1號","121.674605","25.0802433333333","6501100","汐止區"
"221023","279-VK","2019/09/19 18:19:26","新北市汐止區明峰街190號","121.628176666667","25.0696683333333","6501100","汐止區"
"221032","280-BY","2019/09/19 18:19:38","新北市汐止區力行街54號","121.616703333333","25.0496116666667","6501100","汐止區"
"221021","299-VK","2019/09/19 18:19:41","新北市汐止區龍安路24號","121.655445","25.0639916666667","6501100","汐止區"
"221031","353-TW","2019/09/19 18:19:34","新北市汐止區中興路210號","121.63121","25.0661016666667","6501100","汐止區"
"221035","622-UM","2019/09/19 18:19:35","新北市汐止區汐萬路一段114號","121.653938333333","25.0712283333333","6501100","汐止區"
"221038","646-BX","2019/09/19 18:19:43","新北市汐止區仁愛路200巷2號","121.664925","25.0656866666667","6501100","汐止區"
"221033","647-BX","2019/09/19 18:19:26","新北市汐止區宜興街40巷5弄1號","121.622175","25.04187","6501100","汐止區"
"221002","707-TV","2019/09/19 18:19:34","新北市汐止區福德一路201巷25號","121.635901666667","25.064805","6501100","汐止區"
"221018","753-BX","2019/09/19 18:18:50","新北市汐止區茄苳路70號","121.66665","25.07056","6501100","汐止區"
"233001","KEA-2870","2019/09/19 18:19:32","新北市烏來區新烏路四段3號","121.551163333333","24.8904866666667","6502900","烏來區"
"220081","287-VK","2019/09/19 18:19:29","新北市板橋區華東街1-10號","121.448263333333","24.9949766666667","6500100","板橋區"
"220034","297-UM","2019/09/19 18:17:33","新北市板橋區華東街1-10號","121.448421666667","24.9949633333333","6500100","板橋區"
"242046","281-VK","2019/09/19 18:19:25","新北市新莊區中正路829巷22弄41號","121.420728333333","25.0268216666667","6500500","新莊區"
"242011","280-VK","2019/09/19 18:19:31","新北市新莊區中港路587號","121.451015","25.052255","6500500","新莊區"
"220073","985-R7","2019/09/19 18:19:27","新北市板橋區華東街1-10號","121.448318333333","24.9949266666667","6500100","板橋區"
"235068","KEA-2873","2019/09/19 18:19:45","新北市中和區中正路589巷15號","121.485731666667","24.9935833333333","6500300","中和區"
"235061","KEA-2875","2019/09/19 18:19:22","新北市中和區莒光路158號","121.472601666667","25.00029","6500300","中和區"
"235062","KEA-2876","2019/09/19 18:19:42","新北市中和區景平路739號","121.49638","25.0044533333333","6500300","中和區"
