"lineid","car","time","location","longitude","latitude","cityid","cityname"
"234046","148-BY","2019/09/19 19:19:33","新北市永和區得和路373巷3-1號","121.524743333333","24.999705","6500400","永和區"
"234081","298-R6","2019/09/19 19:19:31","新北市永和區福和路74號","121.523013333333","25.0079966666667","6500400","永和區"
"234038","336-UY","2019/09/19 19:19:27","新北市永和區民樂街55巷2號","121.527461666667","24.9984616666667","6500400","永和區"
"234064","337-UY","2019/09/19 19:19:41","新北市永和區永元路17巷9號","121.521283333333","25.0006666666667","6500400","永和區"
"234086","338-UY","2019/09/19 19:19:42","新北市永和區永利路72號","121.520236666667","25.004315","6500400","永和區"
"234070","552-UM","2019/09/19 19:19:34","新北市永和區豫溪街55號","121.517213333333","25.009925","6500400","永和區"
"234017","745-BX","2019/09/19 19:19:42","新北市永和區文化路144巷31弄7號","121.512076666667","25.0168033333333","6500400","永和區"
"234030","746-BX","2019/09/19 19:19:43","新北市永和區厚德街46號","121.52503","24.998765","6500400","永和區"
"234054","KEA-2590","2019/09/19 19:19:35","新北市永和區中興街20號","121.516081666667","25.0118733333333","6500400","永和區"
"234007","KED-0605","2019/09/19 19:19:39","新北市永和區中山路一段224號","121.50811","25.0082566666667","6500400","永和區"
"234013","KEA-2591","2019/09/19 19:19:33","新北市永和區信義路57號","121.512946666667","25.01256","6500400","永和區"
"234061","AAD-866","2019/09/19 19:19:31","新北市永和區秀朗路一段175號","121.517091666667","25.0036783333333","6500400","永和區"
"234042","862-TW","2019/09/19 19:19:39","新北市永和區保平路203巷33號","121.509688333333","25.0050716666667","6500400","永和區"
"234050","863-TW","2019/09/19 19:19:42","新北市永和區仁愛路104巷4號","121.512105","25.013415","6500400","永和區"
"234026","9371-KE","2019/09/19 19:19:37","新北市永和區得和路42巷23號","121.515316666667","24.9996316666667","6500400","永和區"
"234011","9373-KE","2019/09/19 19:19:41","新北市永和區保福路二段23巷19號","121.510105","25.0111983333333","6500400","永和區"
"249001","173-UM","2019/09/19 19:19:30","新北市八里區中華路二段96號","121.410605","25.1533683333333","6502300","八里區"
"248008","KED-0815","2019/09/19 19:19:31","新北市五股區中興路二段83巷26-3號","121.46014","25.0753616666667","6501500","五股區"
"248020","KED-0813","2019/09/19 19:19:31","新北市五股區凌雲路三段57號","121.425286666667","25.124985","6501500","五股區"
"248012","247-BX","2019/09/19 19:19:36","新北市五股區中興路四段48巷16號","121.438606666667","25.0834566666667","6501500","五股區"
"248010","272-BY","2019/09/19 19:19:31","新北市五股區水碓一路23號","121.430618333333","25.0712816666667","6501500","五股區"
"248004","677-BX","2019/09/19 19:19:28","新北市五股區五福路119號","121.432065","25.091175","6501500","五股區"
"248002","678-BX","2019/09/19 19:19:36","新北市五股區凌雲路一段158巷6號","121.447796666667","25.1029633333333","6501500","五股區"
"234023","9380-KE","2019/09/19 19:19:27","新北市永和區竹林路117-1號","121.519971666667","25.011565","6500400","永和區"
"234077","969-R7","2019/09/19 19:19:41","新北市永和區民治街77號","121.517756666667","24.9980216666667","6500400","永和區"
"234074","AAC-211","2019/09/19 19:19:38","新北市永和區竹林路94-1號","121.519518333333","25.0122566666667","6500400","永和區"
"234067","AAC-212","2019/09/19 19:19:44","新北市永和區保平路50巷3號","121.511181666667","25.00727","6500400","永和區"
"234003","AAC-295","2019/09/19 19:19:28","新北市永和區中山路一段142號","121.510045","25.0096983333333","6500400","永和區"
"244023","483-VK","2019/09/19 19:19:32","新北市林口區文化三路一段617巷88號","121.370383333333","25.0781833333333","6501700","林口區"
"244025","837-TS","2019/09/19 19:19:31","新北市林口區民族路220號","121.36927","25.0780183333333","6501700","林口區"
"243012","AAD-798","2019/09/19 19:19:23","新北市泰山區仁義路11巷1號","121.432051666667","25.0555416666667","6501600","泰山區"
"243010","297-R6","2019/09/19 19:19:43","新北市泰山區明志路二段34號","121.429483333333","25.0534116666667","6501600","泰山區"
"243014","KEA-2801","2019/09/19 19:19:27","新北市泰山區泰林路二段150號","121.434088333333","25.0600616666667","6501600","泰山區"
"243016","421-VK","2019/09/19 19:19:38","新北市泰山區明志路三段156號","121.424191666667","25.0396933333333","6501600","泰山區"
"243009","KEA-2215","2019/09/19 19:19:34","新北市泰山區和平街9-2號","121.43417","25.064625","6501600","泰山區"
"243011","KEA-2216","2019/09/19 19:19:39","新北市泰山區貴子路15巷3弄1號","121.426501666667","25.0422233333333","6501600","泰山區"
"243013","646-TV","2019/09/19 19:19:39","新北市泰山區明志路三段145巷2弄11號","121.425136666667","25.0395233333333","6501600","泰山區"
"243015","680-BX","2019/09/19 19:19:25","新北市泰山區公園路36號","121.428925","25.05439","6501600","泰山區"
"222003","436-BY","2019/09/19 19:19:34","新北市深坑區深南路204號","121.626571666667","25.01604","6501800","深坑區"
"222002","659-BX","2019/09/19 19:19:28","新北市深坑區北深路一段177號","121.63249","25.0108666666667","6501800","深坑區"
"231044","046-UY","2019/09/19 19:19:41","新北市新店區中興路三段330號","121.54204","24.9864083333333","6500600","新店區"
"231060","106-UY","2019/09/19 19:19:41","新北市新店區安康路二段115-1號","121.512511666667","24.96162","6500600","新店區"
"231051","107-UY","2019/09/19 19:19:40","新北市新店區中央路192號","121.530838333333","24.9746716666667","6500600","新店區"
"231049","108-UY","2019/09/19 19:19:23","新北市新店區明德路111號","121.541538333333","24.9793983333333","6500600","新店區"
"231065","110-UY","2019/09/19 19:19:37","新北市新店區安祥路108巷33號","121.475325","24.9570733333333","6500600","新店區"
"231062","256-BX","2019/09/19 19:19:29","新北市新店區安康路一段164-1號","121.52599","24.9630016666667","6500600","新店區"
"231054","260-TV","2019/09/19 19:19:25","新北市新店區國校路6號","121.537938333333","24.95631","6500600","新店區"
"231042","268-BY","2019/09/19 19:19:36","新北市新店區北宜路一段3號","121.538455","24.958515","6500600","新店區"
"231064","278-BY","2019/09/19 19:19:45","新北市新店區安忠路57巷26弄15號","121.51266","24.95842","6500600","新店區"
"231050","AAD-862","2019/09/19 19:19:32","新北市新店區竹林路65號","121.553048333333","24.9513216666667","6500600","新店區"
"231045","355-BY","2019/09/19 19:19:32","新北市新店區北宜路一段260號","121.545676666667","24.9527733333333","6500600","新店區"
"231058","3713-VJ","2019/09/19 19:19:34","新北市新店區光明街286巷4號","121.540578333333","24.9637716666667","6500600","新店區"
"231056","4715-K9","2019/09/19 19:19:25","新北市新店區安康路二段414巷2號","121.495968333333","24.9578366666667","6500600","新店區"
"231052","513-UM","2019/09/19 19:19:37","新北市新店區自強路246號","121.547571666667","24.9187566666667","6500600","新店區"
"231040","617-UM","2019/09/19 19:19:43","新北市新店區三民路62號","121.535123333333","24.97214","6500600","新店區"
"231041","619-UM","2019/09/19 19:19:34","新北市新店區溪園路203號","121.526406666667","24.98407","6500600","新店區"
"231063","641-BX","2019/09/19 19:19:25","新北市新店區達觀路14巷1-3號","121.50402","24.9425316666667","6500600","新店區"
"231047","KED-0819","2019/09/19 19:19:40","新北市新店區德正街27巷26號","121.54536","24.9710333333333","6500600","新店區"
"231046","719-UM","2019/09/19 19:19:30","新北市新店區華城路12-1號","121.529188333333","24.9578816666667","6500600","新店區"
"231057","720-UM","2019/09/19 19:19:33","新北市新店區百齡一路12號","121.553016666667","24.93242","6500600","新店區"
"231059","897-TW","2019/09/19 19:19:38","新北市新店區安和路三段21巷3號","121.517193333333","24.9808266666667","6500600","新店區"
"231043","899-TW","2019/09/19 19:19:32","新北市新店區寶橋路15號","121.543815","24.9739633333333","6500600","新店區"
"231066","AKT-0513","2019/09/19 19:19:24","新北市新店區安祥路35-2號","121.490708333333","24.9567516666667","6500600","新店區"
"241031","061-VK","2019/09/19 19:19:33","新北市三重區重新路四段97-1號","121.485906666667","25.0548516666667","6500200","三重區"
"241017","063-VK","2019/09/19 19:19:34","新北市三重區大同北路217號","121.491635","25.0659566666667","6500200","三重區"
"241007","066-VK","2019/09/19 19:19:39","新北市三重區慈愛街68號","121.487296666667","25.0795683333333","6500200","三重區"
"241006","262-UM","2019/09/19 19:19:43","新北市三重區力行路二段143號","121.483566666667","25.0772033333333","6500200","三重區"
"241009","267-UM","2019/09/19 19:19:29","新北市三重區溪尾街230巷63號","121.486306666667","25.0812216666667","6500200","三重區"
"241032","269-UM","2019/09/19 19:19:41","新北市三重區新生街87號","121.484006666667","25.0594433333333","6500200","三重區"
"241013","270-UM","2019/09/19 19:19:37","新北市三重區仁愛街103號","121.49569","25.0740133333333","6500200","三重區"
"241025","271-UM","2019/09/19 19:19:24","新北市三重區中正北路406號","121.47534","25.0705033333333","6500200","三重區"
"241035","KEA-2210","2019/09/19 19:19:43","新北市三重區信義西街138號","121.495451666667","25.0642966666667","6500200","三重區"
"241030","KED-0822","2019/09/19 19:19:34","新北市三重區成功路41巷70號","121.491295","25.0530783333333","6500200","三重區"
"241020","478-VK","2019/09/19 19:19:34","新北市三重區大智街234號","121.48973","25.0725133333333","6500200","三重區"
"241026","480-VK","2019/09/19 19:19:31","新北市三重區正義南路86巷2號","121.498883333333","25.05781","6500200","三重區"
"241022","KED-0820","2019/09/19 19:19:34","新北市三重區重陽路二段46號","121.487156666667","25.0633483333333","6500200","三重區"
"241029","942-UM","2019/09/19 19:19:32","新北市三重區重安街15-1號","121.490498333333","25.0577616666667","6500200","三重區"
"235066","003-UY","2019/09/19 19:19:27","新北市中和區中和路102號","121.502675","24.9998033333333","6500300","中和區"
"235063","006-UY","2019/09/19 19:19:42","新北市中和區連城路249巷26弄1號","121.494661666667","24.995255","6500300","中和區"
"235056","096-UM","2019/09/19 19:19:43","新北市中和區中山路三段104號","121.47686","25.0061733333333","6500300","中和區"
"235039","097-UM","2019/09/19 19:19:33","新北市中和區秀峰街119巷6弄10號","121.519298333333","24.9901866666667","6500300","中和區"
"235065","098-UM","2019/09/19 19:19:43","新北市中和區中山路二段64巷16弄5號","121.50345","25.006085","6500300","中和區"
"235040","150-BY","2019/09/19 19:19:23","新北市中和區保健路48巷48號","121.509346666667","24.9961066666667","6500300","中和區"
"235058","151-BY","2019/09/19 19:19:37","新北市中和區和城路一段271巷1號","121.48544","24.9916016666667","6500300","中和區"
"235038","185-VK","2019/09/19 19:19:43","新北市中和區大仁街10巷48-6號","121.520246666667","24.9925833333333","6500300","中和區"
"235049","186-VK","2019/09/19 19:19:28","新北市中和區景新街289號","121.509756666667","24.9932966666667","6500300","中和區"
"235067","255-BX","2019/09/19 19:19:31","新北市中和區員山路124巷46號","121.48268","24.9962716666667","6500300","中和區"
"235044","293-VK","2019/09/19 19:19:29","新北市中和區復興路286號","121.501983333333","24.9903233333333","6500300","中和區"
"235072","301-VK","2019/09/19 19:19:22","新北市中和區連城路263巷4弄2號","121.491528333333","24.995875","6500300","中和區"
"235043","352-BY","2019/09/19 19:19:39","新北市中和區景平路460號","121.505825","24.9936666666667","6500300","中和區"
"235042","KEA-2878","2019/09/19 19:19:37","新北市中和區安樂路217巷35弄5號","121.513795","24.997895","6500300","中和區"
"235050","4979-A6","2019/09/19 19:19:36","新北市中和區景安路208巷6號","121.503665","24.9911083333333","6500300","中和區"
"235069","4980-A6","2019/09/19 19:19:42","新北市中和區景平路736巷1弄12號","121.497523333333","25.0040316666667","6500300","中和區"
"235070","558-UM","2019/09/19 19:19:30","新北市中和區中和路98號","121.501366666667","25.0003766666667","6500300","中和區"
"235045","565-BX","2019/09/19 19:19:44","新北市中和區景新街423巷35弄19號","121.513858333333","24.9904866666667","6500300","中和區"
"235060","KED-0823","2019/09/19 19:19:29","新北市中和區新生街112巷18號","121.48272","25.0029983333333","6500300","中和區"
"235054","640-BX","2019/09/19 19:19:39","新北市中和區國光街102巷11弄18號","121.4707","25.0012383333333","6500300","中和區"
"235047","732-UM","2019/09/19 19:19:37","新北市中和區景平路239巷32號","121.508481666667","24.9921833333333","6500300","中和區"
"235046","733-UM","2019/09/19 19:19:34","新北市中和區忠孝街20巷5號","121.510613333333","24.9826466666667","6500300","中和區"
"235071","783-BX","2019/09/19 19:19:26","新北市中和區中正路637巷52弄1號","121.485548333333","24.9940933333333","6500300","中和區"
"235057","801-TS","2019/09/19 19:19:30","新北市中和區員山路376號","121.480706666667","25.0041983333333","6500300","中和區"
"235041","802-TS","2019/09/19 19:19:38","新北市永和區中和路381號","121.508518333333","24.999955","6500300","中和區"
"235052","805-TS","2019/09/19 19:19:32","新北市中和區興南路二段130號","121.504276666667","24.98361","6500300","中和區"
"235048","896-TW","2019/09/19 19:19:40","新北市中和區景新街436號","121.513093333333","24.98842","6500300","中和區"
"235053","900-TW","2019/09/19 19:19:30","新北市中和區華安街17巷2-3號","121.46676","24.9981916666667","6500300","中和區"
"235064","911-UM","2019/09/19 19:19:41","新北市中和區南山路70巷2號","121.502106666667","24.9963633333333","6500300","中和區"
"235051","157-BY","2019/09/19 19:19:26","新北市中和區景平路239巷1號","121.50987","24.9927816666667","6500300","中和區"
"235037","AAC-213","2019/09/19 19:19:29","新北市中和區秀朗路三段10巷14弄16號","121.524981666667","24.99662","6500300","中和區"
"235059","AAC-215","2019/09/19 19:19:42","新北市中和區圓通路286巷10號","121.491503333333","24.9911983333333","6500300","中和區"
"220065","072-UY","2019/09/19 19:19:43","新北市板橋區民族路129巷26號","121.468028333333","25.0088966666667","6500100","板橋區"
"220086","073-UY","2019/09/19 19:19:26","新北市板橋區幸福路70巷1號","121.460611666667","25.0199616666667","6500100","板橋區"
"220106","075-UY","2019/09/19 19:19:41","新北市板橋區江寧路三段119號","121.47335","25.0332066666667","6500100","板橋區"
"220069","AAD-861","2019/09/19 19:19:28","新北市板橋區稚暉街35號","121.457121666667","25.00416","6500100","板橋區"
"226004","312-R5","2019/09/19 19:19:30","新北市平溪區靜安路三段296號","121.77663","25.0408216666667","6502400","平溪區"
"228003","097-TW","2019/09/19 19:19:24","新北市貢寮區和美里和美街22-1號","121.912821666667","25.082635","6502600","貢寮區"
"228001","212-TW","2019/09/19 19:19:35","新北市貢寮區真理里新港街10號","121.925458333333","25.0543383333333","6502600","貢寮區"
"228002","663-BX","2019/09/19 19:19:30","新北市貢寮區龍門里復興街14號","121.926646666667","25.02637","6502600","貢寮區"
"224008","273-VK","2019/09/19 19:19:31","新北市瑞芳區逢甲路402號","121.797203333333","25.11262","6501200","瑞芳區"
"227001","642-TC","2019/09/19 19:19:31","新北市雙溪區新基里新基北街40號","121.868543333333","25.0380583333333","6502500","雙溪區"
"227002","400-TW","2019/09/19 19:19:44","新北市雙溪區平林里梅竹蹊66-1號","121.860145","25.035825","6502500","雙溪區"
"253005","032-BX","2019/09/19 19:19:40","新北市石門區阿里荖8-3號","121.609088333333","25.28006","6502200","石門區"
"253006","295-VK","2019/09/19 19:19:14","新北市石門區崁子腳26號","121.535438333333","25.29077","6502200","石門區"
"222001","KEA-2212","2019/09/19 19:19:41","新北市深坑區北深路二段84號","121.61746","25.003495","6501800","深坑區"
"208002","KEA-2872","2019/09/19 19:19:32","新北市金山區中華路113號","121.633628333333","25.2202683333333","6502700","金山區"
"208003","665-BX","2019/09/19 19:19:32","新北市金山區中山路216號","121.637383333333","25.2218683333333","6502700","金山區"
"251009","008-UM","2019/09/19 19:19:26","新北市淡水區清水街105號","121.440608333333","25.1707566666667","6501000","淡水區"
"251005","010-UM","2019/09/19 19:19:35","新北市淡水區水源街一段29號","121.443135","25.1723816666667","6501000","淡水區"
"251015","KEA-2871","2019/09/19 19:19:30","新北市淡水區山子邊1-2號","121.484921666667","25.1835133333333","6501000","淡水區"
"251016","179-VK","2019/09/19 19:19:30","新北市淡水區淡金路三段350巷18號","121.45077","25.2083166666667","6501000","淡水區"
"251013","180-VK","2019/09/19 19:19:43","新北市淡水區安子內12-1號","121.481533333333","25.2190766666667","6501000","淡水區"
"251008","181-VK","2019/09/19 19:19:23","新北市淡水區新市二路二段2號","121.426548333333","25.1960266666667","6501000","淡水區"
"251010","413-VK","2019/09/19 19:19:43","新北市淡水區沙崙路181巷27號","121.423121666667","25.18459","6501000","淡水區"
"251007","442-VK","2019/09/19 19:19:25","新北市淡水區民生路119號","121.465158333333","25.13875","6501000","淡水區"
"251001","559-UM","2019/09/19 19:19:25","新北市淡水區民權路92巷35-1號","121.462036666667","25.1267333333333","6501000","淡水區"
"251014","577-R6","2019/09/19 19:19:31","新北市淡水區小中寮19-7號","121.484751666667","25.229645","6501000","淡水區"
"251002","672-BX","2019/09/19 19:19:27","新北市淡水區文化路18號","121.439628333333","25.1725933333333","6501000","淡水區"
"251003","673-BX","2019/09/19 19:19:30","新北市淡水區中山北路一段33號","121.441558333333","25.17517","6501000","淡水區"
"207003","550-UM","2019/09/19 19:19:29","新北市萬里區大鵬里萬里加投29號","121.647685","25.2063633333333","6502800","萬里區"
"207004","291-VK","2019/09/19 19:19:42","新北市萬里區萬里里成功新村73號","121.688911666667","25.1748766666667","6502800","萬里區"
"208001","170-UY","2019/09/19 19:19:43","新北市金山區金包里街58號","121.639285","25.221185","6502700","金山區"
"237004","KEA-2597","2019/09/19 19:19:43","新北市三峽區有木206號","121.43909","24.851625","6500900","三峽區"
"237007","153-BY","2019/09/19 19:19:25","新北市三峽區二鬮路140號","121.359746666667","24.90781","6500900","三峽區"
"237009","210-TH","2019/09/19 19:19:38","新北市三峽區民生街225號","121.371295","24.934785","6500900","三峽區"
"237013","252-BX","2019/09/19 19:19:29","新北市三峽區光明路75巷20號","121.37757","24.9281983333333","6500900","三峽區"
"237012","275-BY","2019/09/19 19:19:39","新北市三峽區三樹路222巷236弄23號","121.391418333333","24.9430733333333","6500900","三峽區"
"237008","302-VK","2019/09/19 19:19:31","新北市三峽區永安街183號","121.373156666667","24.92675","6500900","三峽區"
"237014","433-BY","2019/09/19 19:19:24","新北市三峽區中山路277巷17號","121.361658333333","24.936815","6500900","三峽區"
"237006","5529-G3","2019/09/19 19:19:41","新北市三峽區介壽路一段352號","121.381706666667","24.9303916666667","6500900","三峽區"
"237011","KEA-2596","2019/09/19 19:19:39","新北市三峽區介壽路三段41號","121.395663333333","24.9371916666667","6500900","三峽區"
"237015","649-BX","2019/09/19 19:19:31","新北市三峽區安坑64-4號","121.469036666667","24.9296666666667","6500900","三峽區"
"237010","706-TV","2019/09/19 19:19:29","新北市三峽區國光街57號","121.374513333333","24.93803","6500900","三峽區"
"237005","AKY-6261","2019/09/19 19:19:36","新北市三峽區中山路459巷50-2號","121.356131666667","24.93766","6500900","三峽區"
"236026","269-VK","2019/09/19 19:19:36","新北市土城區中央路二段149巷30弄12號","121.443136666667","24.9766633333333","6501300","土城區"
"236014","270-VK","2019/09/19 19:19:31","新北市土城區廣福街32號","121.457553333333","24.9901183333333","6501300","土城區"
"236070","KEA-2877","2019/09/19 19:19:28","新北市土城區學成路147號","121.448796666667","24.9895483333333","6501300","土城區"
"252001","KED-0821","2019/09/19 19:19:37","新北市三芝區長勤街37巷25號","121.501673333333","25.2548233333333","6502100","三芝區"
"236021","401-BY","2019/09/19 19:19:44","新北市土城區峰廷街3號","121.469063333333","24.9873166666667","6501300","土城區"
"236059","912-UM","2019/09/19 19:19:26","新北市土城區中央路二段258號","121.441605","24.9745483333333","6501300","土城區"
"236049","913-UM","2019/09/19 19:19:34","新北市土城區明德路一段365-1號","121.453663333333","24.9791016666667","6501300","土城區"
"236055","AAC-216","2019/09/19 19:19:41","新北市土城區學府路一段276號","121.450226666667","24.9833016666667","6501300","土城區"
"242004","751-BX","2019/09/19 19:19:36","新北市新莊區新泰路361巷23號","121.442353333333","25.04286","6500500","新莊區"
"242009","349-TH","2019/09/19 19:19:37","新北市新莊區中正路459號","121.44237","25.0336816666667","6500500","新莊區"
"238015","755-BX","2019/09/19 19:18:03","新北市樹林區光明街30號","121.411618333333","24.99051","6500700","樹林區"
"238023","601-UM","2019/09/19 19:19:42","新北市樹林區中正路865號","121.408838333333","25.0181416666667","6500700","樹林區"
"238019","599-UM","2019/09/19 19:19:36","新北市樹林區東華街39號","121.415238333333","24.98158","6500700","樹林區"
"238022","KEA-2213","2019/09/19 19:19:31","新北市樹林區中山路二段151巷6弄1號","121.40678","24.97838","6500700","樹林區"
"238021","KEA-2539","2019/09/19 19:19:28","新北市樹林區柑園街二段203巷16號","121.376743333333","24.95112","6500700","樹林區"
"238025","303-VK","2019/09/19 19:19:35","新北市樹林區中山路三段92號","121.39322","24.9722716666667","6500700","樹林區"
"238017","283-BY","2019/09/19 19:19:32","新北市樹林區光興街86-5號","121.408766666667","25.002635","6500700","樹林區"
"238014","282-BY","2019/09/19 19:19:26","新北市樹林區中正路22-1號","121.427755","24.999495","6500700","樹林區"
"238020","268-VK","2019/09/19 19:19:25","新北市樹林區俊英街125巷2號","121.424088333333","25.010935","6500700","樹林區"
"238026","172-UY","2019/09/19 19:19:22","新北市樹林區地政街41號","121.39485","24.9718033333333","6500700","樹林區"
"238016","169-UY","2019/09/19 19:19:34","新北市樹林區備前街25號","121.417326666667","24.985875","6500700","樹林區"
"239007","AAC-297","2019/09/19 19:19:28","新北市鶯歌區中山路138巷17-5號","121.351318333333","24.95978","6500800","鶯歌區"
"239006","891-R6","2019/09/19 19:19:25","新北市鶯歌區鶯桃路296巷72弄22號","121.337323333333","24.961125","6500800","鶯歌區"
"239008","527-UM","2019/09/19 19:19:35","新北市鶯歌區國際二路12巷27號","121.338325","24.9749766666667","6500800","鶯歌區"
"239005","526-UM","2019/09/19 19:19:43","新北市鶯歌區中湖街2號","121.346303333333","24.97291","6500800","鶯歌區"
"239001","417-VK","2019/09/19 19:19:42","新北市鶯歌區永明街60巷7號","121.340686666667","24.9554483333333","6500800","鶯歌區"
"239003","360-BY","2019/09/19 19:19:42","新北市鶯歌區德昌街21號","121.333421666667","24.9599666666667","6500800","鶯歌區"
"239002","359-BY","2019/09/19 19:19:40","新北市鶯歌區中山路26號","121.35241","24.9570966666667","6500800","鶯歌區"
"239004","193-VK","2019/09/19 19:19:40","新北市鶯歌區中正三路318巷33號","121.327391666667","24.936195","6500800","鶯歌區"
"221008","489-VK","2019/09/19 19:19:27","新北市汐止區康寧街310號","121.626848333333","25.06726","6501100","汐止區"
"221031","353-TW","2019/09/19 19:19:34","新北市汐止區汐萬路一段312號","121.650361666667","25.075465","6501100","汐止區"
"221035","622-UM","2019/09/19 19:19:35","新北市汐止區汐萬路一段312號","121.650418333333","25.0750433333333","6501100","汐止區"
"221002","707-TV","2019/09/19 19:19:34","新北市汐止區中興路8號","121.637296666667","25.0591216666667","6501100","汐止區"
"220079","145-BY","2019/09/19 19:19:36","新北市板橋區民權路202巷7弄30號","121.458825","25.0150466666667","6500100","板橋區"
"220080","200-UY","2019/09/19 19:19:42","新北市板橋區大觀路二段5號","121.447136666667","25.00385","6500100","板橋區"
"220082","610-BX","2019/09/19 19:19:43","新北市板橋區溪崑二街134號","121.425855","24.9877216666667","6500100","板橋區"
"220056","276-BY","2019/09/19 19:19:23","新北市板橋區信義路215號","121.4595","24.99153","6500100","板橋區"
"220072","277-BY","2019/09/19 19:19:38","新北市板橋區金門街337巷7弄1號","121.430198333333","24.984855","6500100","板橋區"
"220101","280-UM","2019/09/19 19:19:40","新北市板橋區縣民大道三段121巷2號","121.47713","25.0228883333333","6500100","板橋區"
"220094","285-UM","2019/09/19 19:19:32","新北市板橋區吳鳳路50巷20號","121.46975","25.0303516666667","6500100","板橋區"
"220053","285-VK","2019/09/19 19:19:32","新北市板橋區富山街95號","121.476426666667","25.021835","6500100","板橋區"
"220083","286-VK","2019/09/19 19:19:31","新北市板橋區大觀路二段174巷186弄1號","121.442418333333","25.0036783333333","6500100","板橋區"
"220081","287-VK","2019/09/19 19:19:39","新北市板橋區南雅西路一段122號","121.452723333333","25.0066766666667","6500100","板橋區"
"220061","293-UM","2019/09/19 19:19:36","新北市板橋區成功路6巷13號","121.475978333333","25.01709","6500100","板橋區"
"220084","296-UM","2019/09/19 19:19:44","新北市板橋區溪崑二街73巷6號","121.428165","24.9900666666667","6500100","板橋區"
"220075","303-R5","2019/09/19 19:19:23","新北市板橋區南雅西路一段23號","121.453943333333","25.0042233333333","6500100","板橋區"
"220062","305-R5","2019/09/19 19:19:34","新北市板橋區三民路二段153巷32弄2號","121.48102","25.01467","6500100","板橋區"
"220092","307-R5","2019/09/19 19:19:27","新北市板橋區光武街2巷17號","121.468528333333","25.0252633333333","6500100","板橋區"
"220047","317-R6","2019/09/19 19:19:37","新北市板橋區自由路51巷9-3號","121.465028333333","25.0234116666667","6500100","板橋區"
"220089","487-VK","2019/09/19 19:19:41","新北市板橋區陽明街261號","121.462535","25.02553","6500100","板橋區"
"220088","491-VK","2019/09/19 19:19:23","新北市板橋區雙十路二段151號","121.474508333333","25.02818","6500100","板橋區"
"220035","560-BX","2019/09/19 19:19:37","新北市板橋區瑞安街31巷10號","121.456013333333","25.0226433333333","6500100","板橋區"
"220103","561-BX","2019/09/19 19:19:33","新北市板橋區陽明街23巷8弄4號","121.465701666667","25.0206083333333","6500100","板橋區"
"220071","568-UM","2019/09/19 19:19:30","新北市板橋區重慶路337號","121.464051666667","24.9982083333333","6500100","板橋區"
"220063","609-BX","2019/09/19 19:19:40","新北市板橋區三民路一段1巷28號","121.480141666667","25.0244216666667","6500100","板橋區"
"220091","637-BX","2019/09/19 19:19:42","新北市板橋區文聖街70號","121.477258333333","25.0303366666667","6500100","板橋區"
"220057","686-BX","2019/09/19 19:19:36","新北市板橋區和平路66號","121.461201666667","24.9945616666667","6500100","板橋區"
"220077","687-BX","2019/09/19 19:19:42","新北市板橋區大觀路二段121號","121.445983333333","25.0014016666667","6500100","板橋區"
"220093","689-BX","2019/09/19 19:19:32","新北市板橋區新海路150號","121.460526666667","25.0237766666667","6500100","板橋區"
"220054","741-BX","2019/09/19 19:19:39","新北市板橋區校前街38號","121.460993333333","25.0032133333333","6500100","板橋區"
"220102","KEA-2699","2019/09/19 19:19:38","新北市板橋區雙十路二段130巷2弄19號","121.474621666667","25.0288366666667","6500100","板橋區"
"220055","827-TW","2019/09/19 19:19:34","新北市板橋區民族路57號","121.464661666667","25.008835","6500100","板橋區"
"220067","829-TW","2019/09/19 19:19:28","新北市板橋區長安街138巷7弄59號","121.474166666667","25.0093166666667","6500100","板橋區"
"220068","830-TW","2019/09/19 19:19:35","新北市板橋區萬安街85巷2-1號","121.483438333333","25.02541","6500100","板橋區"
"220090","831-TW","2019/09/19 19:19:35","新北市板橋區裕民街98-1號","121.460098333333","25.0280616666667","6500100","板橋區"
"220074","895-R6","2019/09/19 19:19:40","新北市板橋區中正路自強新村91-1號","121.4549","25.0131716666667","6500100","板橋區"
"220073","985-R7","2019/09/19 19:19:27","新北市板橋區新生街74號","121.457838333333","25.0211816666667","6500100","板橋區"
"220097","AAC-210","2019/09/19 19:14:00","新北市板橋區新海路82號","121.4619","25.0219616666667","6500100","板橋區"
"220064","AAC-253","2019/09/19 19:19:30","新北市板橋區公園街30號","121.462601666667","25.0085733333333","6500100","板橋區"
"235068","KEA-2873","2019/09/19 19:19:15","新北市中和區景平路545巷1弄2號","121.498438333333","24.9990516666667","6500300","中和區"
"235061","KEA-2875","2019/09/19 19:19:22","新北市中和區民利街71號","121.478718333333","24.998285","6500300","中和區"
