"lineid","car","time","location","longitude","latitude","cityid","cityname"
"251004","009-UM","2019/09/19 22:09:25","新北市淡水區民族路33號","121.462325","25.135835","6501000","淡水區"
"251005","010-UM","2019/09/19 22:09:35","新北市淡水區鄧公路19號","121.451436666667","25.170015","6501000","淡水區"
"251008","181-VK","2019/09/19 22:09:43","新北市淡水區學府路104號","121.449878333333","25.1717616666667","6501000","淡水區"
"251010","413-VK","2019/09/19 22:09:37","新北市淡水區沙崙路196號","121.424405","25.18371","6501000","淡水區"
"251007","442-VK","2019/09/19 22:09:43","新北市淡水區北新路180號","121.449486666667","25.1787016666667","6501000","淡水區"
"251011","650-BX","2019/09/19 22:09:30","新北市淡水區水碓街5號","121.443133333333","25.1770916666667","6501000","淡水區"
