"lineid","car","time","location","longitude","latitude","cityid","cityname"
"222004","289-BY","2019/09/20 09:09:38","新北市深坑區土庫尖路75-1號","121.63123","25.01823","6501800","深坑區"
"231007","189-VK","2019/09/20 09:09:43","新北市新店區新潭路三段109號","121.506538333333","24.9099183333333","6500600","新店區"
"231009","192-VK","2019/09/20 09:09:37","新北市新店區平廣路一段80號","121.531041666667","24.8990433333333","6500600","新店區"
"226001","7418-A5","2019/09/20 08:42:46","新北市平溪區東勢里番仔坑16號","121.755321666667","24.9914216666667","6502400","平溪區"
"226006","AGD-0702","2019/09/20 09:09:28","新北市平溪區靜安路二段295號","121.73267","25.0244416666667","6502400","平溪區"
"223003","205-TH","2019/09/20 09:09:45","新北市石碇區北宜路六段十三股巷1號","121.649226666667","24.9476183333333","6501900","石碇區"
"223008","406-TH","2019/09/20 08:59:15","新北市石碇區光明路16號","121.683406666667","25.0330433333333","6501900","石碇區"
"223001","592-UM","2019/09/20 09:09:37","新北市石碇區北宜路六段十三股巷1號","121.64916","24.9476916666667","6501900","石碇區"
"223004","660-BX","2019/09/20 09:09:30","新北市石碇區磨石坑36-6號","121.69198","24.966415","6501900","石碇區"
"223007","661-BX","2019/09/20 09:09:31","新北市石碇區光明路2號","121.67375","25.02684","6501900","石碇區"
"223005","677-TV","2019/09/20 09:09:39","新北市石碇區磨石坑36-6號","121.692155","24.966645","6501900","石碇區"
"227003","282-VK","2019/09/20 09:09:30","新北市雙溪區泰平里料角坑9號","121.81257","24.9746233333333","6502500","雙溪區"
"237014","760-BX","2019/09/20 09:09:30","新北市三峽區竹崙路111號","121.433576666667","24.9114066666667","6500900","三峽區"
