"lineid","car","time","location","longitude","latitude","cityid","cityname"
"222004","289-BY","2019/09/20 09:39:38","新北市深坑區北深路一段278巷16號","121.629106666667","25.01075","6501800","深坑區"
"231009","192-VK","2019/09/20 09:39:37","新北市新店區小坑一路22號","121.532425","24.9140933333333","6500600","新店區"
"223008","406-TH","2019/09/20 09:39:38","新北市石碇區大湖格2號","121.70459","25.01545","6501900","石碇區"
"223001","592-UM","2019/09/20 09:39:37","新北市石碇區北宜路四段9號","121.614943333333","24.96117","6501900","石碇區"
"227003","282-VK","2019/09/20 09:27:30","新北市雙溪區泰平里溪尾寮13號","121.820875","24.9602516666667","6502500","雙溪區"
"237014","760-BX","2019/09/20 09:39:30","新北市三峽區成福路6巷50號","121.419068333333","24.9280383333333","6500900","三峽區"
