"lineid","car","time","location","longitude","latitude","cityid","cityname"
"234044","148-BY","2019/09/20 13:09:29","新北市永和區永元路18巷38弄1號","121.524036666667","25.000245","6500400","永和區"
"234078","298-R6","2019/09/20 13:09:32","新北市永和區永亨路83號","121.521981666667","25.00572","6500400","永和區"
"234036","336-UY","2019/09/20 13:09:44","新北市永和區民樂街69巷1號","121.52742","24.9978066666667","6500400","永和區"
"234062","337-UY","2019/09/20 13:09:35","新北市永和區秀朗路二段63號","121.522075","25.0020716666667","6500400","永和區"
"234084","338-UY","2019/09/20 13:09:41","新北市永和區永貞路47-1號","121.519691666667","25.00456","6500400","永和區"
"234068","552-UM","2019/09/20 13:09:30","新北市永和區豫溪街137巷1弄10號","121.519183333333","25.010475","6500400","永和區"
"234015","745-BX","2019/09/20 13:09:35","新北市永和區文化路90巷17號","121.513713333333","25.01614","6500400","永和區"
"234028","746-BX","2019/09/20 13:09:30","新北市永和區民生路23號","121.52291","24.9988216666667","6500400","永和區"
"234052","KEA-2590","2019/09/20 13:09:33","新北市永和區中興街133巷12號","121.518513333333","25.01266","6500400","永和區"
"234005","KED-0605","2019/09/20 13:09:37","新北市永和區中山路一段130號","121.510516666667","25.0099683333333","6500400","永和區"
"234012","KEA-2591","2019/09/20 13:09:41","新北市永和區保福路二段14-1號","121.510918333333","25.01136","6500400","永和區"
"234060","AAD-866","2019/09/20 13:09:32","新北市永和區秀朗路一段83號","121.515238333333","25.006545","6500400","永和區"
"234040","862-TW","2019/09/20 13:09:39","新北市永和區保平路111巷5號","121.51171","25.005995","6500400","永和區"
"234048","863-TW","2019/09/20 13:09:43","新北市永和區仁愛路104巷7弄23號","121.510948333333","25.0141083333333","6500400","永和區"
"234025","9371-KE","2019/09/20 13:09:25","新北市永和區自由街58號","121.513788333333","25.0059283333333","6500400","永和區"
"234010","9373-KE","2019/09/20 13:09:41","新北市永和區仁愛路24號","121.514681666667","25.0137883333333","6500400","永和區"
"248019","KED-0813","2019/09/20 13:09:38","新北市五股區凌雲路一段21號","121.454923333333","25.09828","6501500","五股區"
"234022","9380-KE","2019/09/20 13:09:43","新北市永和區中興街10巷27號","121.516226666667","25.0110766666667","6500400","永和區"
"234076","969-R7","2019/09/20 13:09:34","新北市永和區智光街107巷8號","121.515681666667","24.9960233333333","6500400","永和區"
"234072","AAC-211","2019/09/20 13:09:40","新北市永和區竹林路198號","121.52047","25.0095666666667","6500400","永和區"
"234066","AAC-212","2019/09/20 13:09:27","新北市永和區永和路一段63號","121.513133333333","25.0070633333333","6500400","永和區"
"234001","AAC-295","2019/09/20 13:09:38","新北市永和區中山路一段30號","121.513626666667","25.0106016666667","6500400","永和區"
"244004","248-BX","2019/09/20 13:09:47","新北市林口區中山路681號","121.377786666667","25.0838766666667","6501700","林口區"
"231005","046-UY","2019/09/20 13:09:40","新北市新店區安華路28-1號","121.519366666667","24.9608083333333","6500600","新店區"
"231002","047-UY","2019/09/20 13:09:37","新北市新店區安華路28-1號","121.519341666667","24.96087","6500600","新店區"
"231029","106-UY","2019/09/20 13:09:42","新北市新店區安華路28-1號","121.519716666667","24.96081","6500600","新店區"
"231018","107-UY","2019/09/20 13:09:39","新北市新店區安康路一段355號","121.519845","24.96273","6500600","新店區"
"231036","110-UY","2019/09/20 13:09:33","新北市新店區安康路二段393號","121.494298333333","24.9539816666667","6500600","新店區"
"231032","256-BX","2019/09/20 13:09:36","新北市新店區安華路28-1號","121.519838333333","24.96104","6500600","新店區"
"231023","260-TV","2019/09/20 13:09:25","新北市新店區安一路一段1-1號","121.519465","24.9611483333333","6500600","新店區"
"231003","268-BY","2019/09/20 13:09:27","新北市新店區安一路一段1-1號","121.519811666667","24.9616783333333","6500600","新店區"
"231035","278-BY","2019/09/20 13:09:34","新北市新店區安一路一段1-1號","121.519698333333","24.96112","6500600","新店區"
"231016","AAD-862","2019/09/20 13:09:41","新北市新店區安一路一段1-1號","121.519706666667","24.9611533333333","6500600","新店區"
"231024","4716-K9","2019/09/20 13:09:33","新北市新店區安華路28-1號","121.519636666667","24.9605583333333","6500600","新店區"
"231025","4715-K9","2019/09/20 13:09:28","新北市新店區安華路28-1號","121.519445","24.9606516666667","6500600","新店區"
"231022","513-UM","2019/09/20 13:09:28","新北市新店區安一路一段1-1號","121.519715","24.96115","6500600","新店區"
"231034","641-BX","2019/09/20 13:09:36","新北市新店區安華路28-1號","121.51959","24.96052","6500600","新店區"
"231012","KED-0819","2019/09/20 13:09:35","新北市新店區安一路一段1-1號","121.519826666667","24.9611666666667","6500600","新店區"
"231026","720-UM","2019/09/20 13:09:46","新北市新店區安一路一段1-1號","121.5194","24.9614133333333","6500600","新店區"
"231028","897-TW","2019/09/20 13:09:30","新北市新店區安華路28-1號","121.519665","24.960875","6500600","新店區"
"231001","898-TW","2019/09/20 13:09:43","新北市新店區安華路30巷1號","121.519658333333","24.9598383333333","6500600","新店區"
"231004","899-TW","2019/09/20 13:09:25","新北市新店區安華路28-1號","121.519286666667","24.9608766666667","6500600","新店區"
"235003","097-UM","2019/09/20 13:09:38","新北市中和區中正路637巷52弄1號","121.4855","24.9934533333333","6500300","中和區"
"235029","098-UM","2019/09/20 13:09:39","新北市中和區莊敬路49巷20弄22號","121.502723333333","25.0058766666667","6500300","中和區"
"235004","150-BY","2019/09/20 13:09:11","新北市中和區中正路637巷52弄1號","121.485401666667","24.9935716666667","6500300","中和區"
"235022","151-BY","2019/09/20 13:09:29","新北市中和區圓通路367巷60-1號","121.491835","24.9841033333333","6500300","中和區"
"235019","183-VK","2019/09/20 13:09:44","新北市中和區員山路36巷16-3號","121.4851","24.9913616666667","6500300","中和區"
"235002","185-VK","2019/09/20 13:09:42","新北市中和區大智街2號","121.519853333333","24.9918633333333","6500300","中和區"
"235031","255-BX","2019/09/20 13:09:35","新北市中和區新生街195號","121.48391","25.0002166666667","6500300","中和區"
"235036","301-VK","2019/09/20 13:09:44","新北市中和區中正路589巷1號","121.485896666667","24.9944133333333","6500300","中和區"
"235007","352-BY","2019/09/20 13:09:26","新北市中和區中正路244號","121.495901666667","24.9941366666667","6500300","中和區"
"235006","KEA-2878","2019/09/20 13:09:36","新北市中和區圓通路208號","121.496081666667","24.9940733333333","6500300","中和區"
"235033","4980-A6","2019/09/20 13:09:41","新北市中和區錦和路350-1號","121.489993333333","24.9935233333333","6500300","中和區"
"235034","558-UM","2019/09/20 13:09:42","新北市中和區圓通路169號","121.497763333333","24.9953316666667","6500300","中和區"
"235009","565-BX","2019/09/20 13:09:44","新北市中和區中正路169號","121.498043333333","24.9937216666667","6500300","中和區"
"235024","KED-0823","2019/09/20 13:09:36","新北市中和區員山路82巷6-3號","121.481223333333","24.9935683333333","6500300","中和區"
"235035","783-BX","2019/09/20 13:09:42","新北市中和區板南路492-5號","121.485863333333","25.007575","6500300","中和區"
"235021","801-TS","2019/09/20 13:09:33","新北市中和區民享街97巷22號","121.475425","24.9999633333333","6500300","中和區"
"235005","802-TS","2019/09/20 13:09:31","新北市中和區錦和路350-1號","121.490175","24.9936","6500300","中和區"
"235016","805-TS","2019/09/20 13:09:29","新北市中和區中正路19號","121.502876666667","24.9934416666667","6500300","中和區"
"235028","911-UM","2019/09/20 13:09:41","新北市中和區中正路140號","121.49918","24.9939266666667","6500300","中和區"
"235015","157-BY","2019/09/20 13:09:33","新北市中和區南山路287號","121.504265","24.9922166666667","6500300","中和區"
"235001","AAC-213","2019/09/20 13:09:39","新北市中和區景德街65號","121.517015","24.9914633333333","6500300","中和區"
"247013","056-VK","2019/09/20 13:09:41","新北市五股區中興路三段2巷10號","121.449183333333","25.0811166666667","6501400","蘆洲區"
"207002","749-BX","2019/09/20 13:09:34","新北市萬里區崁腳里崁腳路92號","121.647448333333","25.1593683333333","6502800","萬里區"
"207001","662-BX","2019/09/20 13:09:33","新北市萬里區萬里里獅頭路21-1號","121.692585","25.178065","6502800","萬里區"
"237014","760-BX","2019/09/20 13:09:42","新北市三峽區復興路369號","121.36353","24.938505","6500900","三峽區"
"235032","KEA-2873","2019/09/20 13:09:44","新北市中和區員山路36巷16-3號","121.485071666667","24.9913466666667","6500300","中和區"
"235025","KEA-2875","2019/09/20 13:09:38","新北市中和區民德路187號","121.468348333333","24.9992583333333","6500300","中和區"
"235026","KEA-2876","2019/09/20 13:09:42","新北市中和區中山路二段359巷7號","121.48879","25.0036933333333","6500300","中和區"
