"lineid","car","time","location","longitude","latitude","cityid","cityname"
"234044","148-BY","2019/09/20 13:29:29","新北市永和區秀朗路二段226巷2號","121.526246666667","24.9997433333333","6500400","永和區"
"234078","298-R6","2019/09/20 13:29:32","新北市永和區福和路5-1號","121.525031666667","25.0087133333333","6500400","永和區"
"234036","336-UY","2019/09/20 13:29:28","新北市永和區民樂街30巷2號","121.527585","25.0012533333333","6500400","永和區"
"234062","337-UY","2019/09/20 13:29:35","新北市永和區中正路368巷1弄88號","121.52052","25.0007716666667","6500400","永和區"
"234084","338-UY","2019/09/20 13:29:41","新北市永和區成功路一段28巷14號","121.526285","25.0048383333333","6500400","永和區"
"234068","552-UM","2019/09/20 13:29:30","新北市永和區竹林路182號","121.520426666667","25.0097066666667","6500400","永和區"
"234015","745-BX","2019/09/20 13:29:36","新北市永和區永和路二段425巷5號","121.515191666667","25.017705","6500400","永和區"
"234028","746-BX","2019/09/20 13:29:30","新北市永和區民權路29巷10號","121.520616666667","24.9978233333333","6500400","永和區"
"234052","KEA-2590","2019/09/20 13:29:33","新北市永和區復興街19巷7號","121.51608","25.0131266666667","6500400","永和區"
"234005","KED-0605","2019/09/20 13:29:37","新北市永和區中山路一段201號","121.508971666667","25.0087","6500400","永和區"
"234012","KEA-2591","2019/09/20 13:29:28","新北市永和區中山路一段184巷9弄19號","121.508193333333","25.0089883333333","6500400","永和區"
"234060","AAD-866","2019/09/20 13:29:46","新北市永和區永貞路145號","121.51618","25.0041366666667","6500400","永和區"
"234040","862-TW","2019/09/20 13:29:39","新北市永和區水源街39巷1號","121.51037","25.0042816666667","6500400","永和區"
"234048","863-TW","2019/09/20 13:29:23","新北市永和區保福路二段92號","121.510375","25.0133933333333","6500400","永和區"
"234025","9371-KE","2019/09/20 13:29:25","新北市永和區永和路二段5號","121.514368333333","25.0100783333333","6500400","永和區"
"234010","9373-KE","2019/09/20 13:29:35","新北市永和區仁愛路141巷30弄26號","121.512063333333","25.011475","6500400","永和區"
"248019","KED-0813","2019/09/20 13:29:40","新北市五股區孝義路84號","121.448985","25.1154916666667","6501500","五股區"
"234022","9380-KE","2019/09/20 13:29:43","新北市永和區竹林路91巷43弄2號","121.521236666667","25.01275","6500400","永和區"
"234076","969-R7","2019/09/20 13:29:25","新北市永和區中正路286巷7號","121.517656666667","24.99859","6500400","永和區"
"234072","AAC-211","2019/09/20 13:29:40","新北市永和區環河東路一段76號","121.519435","25.0166066666667","6500400","永和區"
"234066","AAC-212","2019/09/20 13:29:33","新北市永和區永貞路353號","121.50915","25.0075566666667","6500400","永和區"
"234001","AAC-295","2019/09/20 13:29:38","新北市永和區永和路一段105號","121.513786666667","25.00781","6500400","永和區"
"244004","248-BX","2019/09/20 13:29:27","新北市林口區頂福里39號","121.347288333333","25.0910483333333","6501700","林口區"
"231030","002-UM","2019/09/20 13:29:25","新北市新店區安華路28-1號","121.519685","24.96092","6500600","新店區"
"231005","046-UY","2019/09/20 13:29:40","新北市新店區光明街151號","121.539406666667","24.9623466666667","6500600","新店區"
"231002","047-UY","2019/09/20 13:29:37","新北市新店區秀山路72號","121.531346666667","24.9608616666667","6500600","新店區"
"231029","106-UY","2019/09/20 13:29:42","新北市新店區安華路28-1號","121.519795","24.96076","6500600","新店區"
"231018","107-UY","2019/09/20 13:29:39","新北市新店區中央路81號","121.532181666667","24.9765533333333","6500600","新店區"
"231013","108-UY","2019/09/20 13:29:31","新北市新店區中央路133巷14號","121.530545","24.9735483333333","6500600","新店區"
"231036","110-UY","2019/09/20 13:29:33","新北市新店區安祥路156巷32號","121.473481666667","24.9539683333333","6500600","新店區"
"231032","256-BX","2019/09/20 13:29:36","新北市新店區安豐路63-1號","121.497863333333","24.952325","6500600","新店區"
"231023","260-TV","2019/09/20 13:29:24","新北市新店區北宜路一段168號","121.540373333333","24.9529333333333","6500600","新店區"
"231003","268-BY","2019/09/20 13:29:27","新北市新店區北新路一段126巷25號","121.543413333333","24.9697166666667","6500600","新店區"
"231035","278-BY","2019/09/20 13:29:34","新北市新店區安康路一段355號","121.519915","24.9627366666667","6500600","新店區"
"231016","AAD-862","2019/09/20 13:29:41","新北市新店區北宜路一段222號","121.544016666667","24.95313","6500600","新店區"
"231006","355-BY","2019/09/20 13:29:24","新北市新店區安華路28-1號","121.519251666667","24.9609633333333","6500600","新店區"
"231038","3712-VJ","2019/09/20 13:29:30","新北市新店區安華路28-1號","121.51922","24.9605966666667","6500600","新店區"
"231027","3713-VJ","2019/09/20 13:29:34","新北市新店區環河路19巷5弄2號","121.537641666667","24.9607183333333","6500600","新店區"
"231024","4716-K9","2019/09/20 13:29:33","新北市新店區中正路128巷11號","121.542633333333","24.9720816666667","6500600","新店區"
"231025","4715-K9","2019/09/20 13:29:28","新北市新店區中央五街37號","121.528543333333","24.97503","6500600","新店區"
"231022","513-UM","2019/09/20 13:29:28","新北市新店區新烏路一段130號","121.544588333333","24.9341266666667","6500600","新店區"
"231034","641-BX","2019/09/20 13:29:36","新北市新店區安華路28-1號","121.51967","24.9605066666667","6500600","新店區"
"231012","KED-0819","2019/09/20 13:29:35","新北市新店區安康路一段96號","121.527561666667","24.96226","6500600","新店區"
"231010","719-UM","2019/09/20 13:29:27","新北市新店區中央路7號","121.533403333333","24.97859","6500600","新店區"
"231026","720-UM","2019/09/20 13:29:26","新北市新店區安一路一段1-1號","121.519276666667","24.9612233333333","6500600","新店區"
"231028","897-TW","2019/09/20 13:29:30","新北市新店區安華路28-1號","121.519708333333","24.9608666666667","6500600","新店區"
"231001","898-TW","2019/09/20 13:29:43","新北市新店區安康路一段92-1號","121.52785","24.9620616666667","6500600","新店區"
"231004","899-TW","2019/09/20 13:29:25","新北市新店區安一路一段1-1號","121.519756666667","24.961775","6500600","新店區"
"231037","AKT-0513","2019/09/20 13:29:26","新北市新店區薏仁坑路57號","121.490988333333","24.9639833333333","6500600","新店區"
"235030","003-UY","2019/09/20 13:29:37","新北市中和區中山路二段119號","121.50293","25.0037866666667","6500300","中和區"
"235020","096-UM","2019/09/20 13:29:36","新北市中和區中正路747號","121.48491","24.9997166666667","6500300","中和區"
"235003","097-UM","2019/09/20 13:29:38","新北市中和區景平路176號","121.516825","24.9925","6500300","中和區"
"235029","098-UM","2019/09/20 13:29:39","新北市中和區莊敬路49巷13號","121.5013","25.0056566666667","6500300","中和區"
"235004","150-BY","2019/09/20 13:29:31","新北市中和區安平路59號","121.509575","24.9951383333333","6500300","中和區"
"235022","151-BY","2019/09/20 13:29:30","新北市中和區圓通路369巷36-1號","121.490871666667","24.984555","6500300","中和區"
"235019","183-VK","2019/09/20 13:29:44","新北市中和區國光街102巷21號","121.471153333333","25.000735","6500300","中和區"
"235002","185-VK","2019/09/20 13:29:45","新北市中和區自強路48號","121.520138333333","24.9949383333333","6500300","中和區"
"235013","186-VK","2019/09/20 13:29:31","新北市中和區景安路80號","121.50562","24.996255","6500300","中和區"
"235031","255-BX","2019/09/20 13:29:35","新北市中和區新生街220巷15弄2號","121.482898333333","24.997915","6500300","中和區"
"235008","293-VK","2019/09/20 13:29:38","新北市中和區中興街169號","121.499896666667","24.9904166666667","6500300","中和區"
"235036","301-VK","2019/09/20 13:29:44","新北市中和區連城路237-1號","121.493781666667","24.9972916666667","6500300","中和區"
"235007","352-BY","2019/09/20 13:29:26","新北市中和區景平路243-1號","121.509336666667","24.9929033333333","6500300","中和區"
"235006","KEA-2878","2019/09/20 13:29:36","新北市中和區自立路56巷17號","121.522783333333","24.9916316666667","6500300","中和區"
"247015","KEA-2869","2019/09/20 13:29:44","新北市五股區中興路三段163號","121.449261666667","25.0807466666667","6501400","蘆洲區"
"235014","4979-A6","2019/09/20 13:29:32","新北市中和區景新街362巷5號","121.51195","24.990095","6500300","中和區"
"235033","4980-A6","2019/09/20 13:29:41","新北市中和區連城路127巷6弄2號","121.496408333333","24.998675","6500300","中和區"
"235034","558-UM","2019/09/20 13:29:42","新北市中和區南華路52號","121.504208333333","24.99682","6500300","中和區"
"235009","565-BX","2019/09/20 13:29:44","新北市中和區南山路236巷24弄56號","121.504258333333","24.988795","6500300","中和區"
"235024","KED-0823","2019/09/20 13:29:36","新北市中和區中山路三段33號","121.479001666667","25.0058783333333","6500300","中和區"
"235018","640-BX","2019/09/20 13:29:23","新北市中和區民享街32巷18號","121.473028333333","25.0031916666667","6500300","中和區"
"235011","732-UM","2019/09/20 13:29:24","新北市中和區中興街169號","121.499941666667","24.9905266666667","6500300","中和區"
"235010","733-UM","2019/09/20 13:29:39","新北市中和區南山路146巷3號","121.503571666667","24.9923633333333","6500300","中和區"
"235035","783-BX","2019/09/20 13:29:22","新北市中和區中板路18巷3弄25號","121.483376666667","25.013195","6500300","中和區"
"235021","801-TS","2019/09/20 13:29:43","新北市中和區民安街42巷42號","121.478861666667","25.0012866666667","6500300","中和區"
"235005","802-TS","2019/09/20 13:29:31","新北市中和區中和路324巷3弄2號","121.510001666667","25.00077","6500300","中和區"
"235016","805-TS","2019/09/20 13:29:28","新北市中和區興南路二段94號","121.505261666667","24.9842233333333","6500300","中和區"
"235012","896-TW","2019/09/20 13:29:34","新北市中和區中正路637巷52弄1號","121.485531666667","24.9935616666667","6500300","中和區"
"235017","900-TW","2019/09/20 13:29:31","新北市中和區連城路607號","121.4784","24.993085","6500300","中和區"
"235028","911-UM","2019/09/20 13:29:41","新北市中和區連城路109巷67號","121.49725","24.9979983333333","6500300","中和區"
"235015","157-BY","2019/09/20 13:29:33","新北市中和區興南路二段142巷16號","121.502923333333","24.9841416666667","6500300","中和區"
"235001","AAC-213","2019/09/20 13:29:39","新北市中和區景德街40號","121.517865","24.991545","6500300","中和區"
"235023","AAC-215","2019/09/20 13:29:29","新北市中和區員山路36巷16-3號","121.484996666667","24.9913083333333","6500300","中和區"
"220013","072-UY","2019/09/20 13:29:40","新北市板橋區南雅南路二段140號","121.451828333333","24.996225","6500100","板橋區"
"220034","073-UY","2019/09/20 13:29:29","新北市板橋區華東街1-10號","121.44826","24.9950833333333","6500100","板橋區"
"247013","056-VK","2019/09/20 13:29:41","新北市五股區中興路三段2巷10號","121.44912","25.081115","6501400","蘆洲區"
"235027","251-BX","2019/09/20 13:29:39","新北市中和區連城路347巷4弄1號","121.488291666667","24.9954583333333","6500300","中和區"
"207002","749-BX","2019/09/20 13:29:34","新北市萬里區崁腳里崁腳路166號","121.645085","25.1558316666667","6502800","萬里區"
"207001","662-BX","2019/09/20 13:27:53","新北市萬里區龜吼里石角路12號","121.683855","25.1915466666667","6502800","萬里區"
"237014","760-BX","2019/09/20 13:29:42","新北市三峽區中園街46號","121.368195","24.926315","6500900","三峽區"
"220027","145-BY","2019/09/20 13:29:33","新北市板橋區華東街1-10號","121.448373333333","24.9950866666667","6500100","板橋區"
"220030","610-BX","2019/09/20 13:29:31","新北市板橋區華東街1-10號","121.448258333333","24.994935","6500100","板橋區"
"220004","276-BY","2019/09/20 13:29:31","新北市板橋區華東街1-9號","121.44813","24.9949433333333","6500100","板橋區"
"220020","277-BY","2019/09/20 13:29:28","新北市板橋區華東街1-10號","121.448283333333","24.99516","6500100","板橋區"
"220043","285-UM","2019/09/20 13:29:41","新北市板橋區民生路二段161巷1號","121.470131666667","25.0200883333333","6500100","板橋區"
"220031","286-VK","2019/09/20 13:29:29","新北市板橋區華東街1-10號","121.448396666667","24.99507","6500100","板橋區"
"220029","287-VK","2019/09/20 13:29:37","新北市板橋區華東街1-10號","121.448263333333","24.9950383333333","6500100","板橋區"
"220032","296-UM","2019/09/20 13:29:25","新北市板橋區華東街1-9號","121.448195","24.994945","6500100","板橋區"
"220038","487-VK","2019/09/20 13:29:33","新北市板橋區民生路二段161巷1號","121.470005","25.0200616666667","6500100","板橋區"
"220104","560-BX","2019/09/20 13:29:45","新北市板橋區館前西路160巷2號","121.452968333333","25.0087383333333","6500100","板橋區"
"220005","686-BX","2019/09/20 13:29:30","新北市板橋區華東街1-9號","121.448235","24.9949233333333","6500100","板橋區"
"220025","687-BX","2019/09/20 13:29:40","新北市板橋區大觀路二段265巷7-7號","121.443798333333","24.994625","6500100","板橋區"
"220003","827-TW","2019/09/20 13:29:28","新北市板橋區華東街1-9號","121.448223333333","24.99495","6500100","板橋區"
"220022","895-R6","2019/09/20 13:29:34","新北市板橋區南雅南路二段138號","121.451926666667","24.9964133333333","6500100","板橋區"
"220021","985-R7","2019/09/20 13:29:26","新北市板橋區四川路二段102號","121.450856666667","24.99408","6500100","板橋區"
"235032","KEA-2873","2019/09/20 13:29:44","新北市中和區中正路273-5號","121.495646666667","24.9933","6500300","中和區"
"235025","KEA-2875","2019/09/20 13:29:38","新北市中和區民享街114巷4號","121.474256666667","24.99931","6500300","中和區"
"235026","KEA-2876","2019/09/20 13:29:31","新北市中和區景平路677巷3號","121.496355","25.0027066666667","6500300","中和區"
