"lineid","car","time","location","longitude","latitude","cityid","cityname"
"234044","148-BY","2019/09/20 13:59:40","新北市永和區成功路一段26號","121.527028333333","25.0048116666667","6500400","永和區"
"234078","298-R6","2019/09/20 13:59:36","新北市永和區林森路112巷9弄3號","121.522058333333","25.0041916666667","6500400","永和區"
"234036","336-UY","2019/09/20 13:59:27","新北市永和區成功路二段80號","121.52664","24.9986866666667","6500400","永和區"
"234062","337-UY","2019/09/20 13:59:35","新北市永和區中正路412巷20弄21號","121.518918333333","25.001475","6500400","永和區"
"234084","338-UY","2019/09/20 13:59:41","新北市永和區福和路152號","121.521655","25.0079766666667","6500400","永和區"
"234068","552-UM","2019/09/20 13:59:30","新北市永和區國光路51號","121.519021666667","25.0081933333333","6500400","永和區"
"234015","745-BX","2019/09/20 13:59:35","新北市永和區永和路二段234號","121.515706666667","25.0143166666667","6500400","永和區"
"234028","746-BX","2019/09/20 13:59:30","新北市永和區民權路49巷5弄18號","121.521306666667","24.9976933333333","6500400","永和區"
"234052","KEA-2590","2019/09/20 13:59:33","新北市永和區竹林路39巷42弄1號","121.520191666667","25.0152433333333","6500400","永和區"
"234005","KED-0605","2019/09/20 13:59:37","新北市中和區中和路326號","121.509663333333","25.000925","6500400","永和區"
"234012","KEA-2591","2019/09/20 13:59:28","新北市永和區保生路55號","121.504691666667","25.0105916666667","6500400","永和區"
"234060","AAD-866","2019/09/20 13:59:32","新北市永和區安樂路100巷28號","121.515583333333","24.9987483333333","6500400","永和區"
"234040","862-TW","2019/09/20 13:59:39","新北市永和區雙和街16巷20號","121.509993333333","25.0027683333333","6500400","永和區"
"234048","863-TW","2019/09/20 13:59:43","新北市永和區保安路264號","121.505873333333","25.012365","6500400","永和區"
"234025","9371-KE","2019/09/20 13:59:25","新北市永和區自由街49號","121.513936666667","25.0059333333333","6500400","永和區"
"234010","9373-KE","2019/09/20 13:59:35","新北市永和區仁愛路352巷120號","121.500286666667","25.00853","6500400","永和區"
"248019","KED-0813","2019/09/20 13:59:38","新北市五股區凌雲路三段71-19號","121.42389","25.1248716666667","6501500","五股區"
"234022","9380-KE","2019/09/20 13:59:43","新北市永和區永和路二段235號","121.515645","25.0143433333333","6500400","永和區"
"234076","969-R7","2019/09/20 13:59:38","新北市永和區民族街43巷6號","121.51874","24.9984333333333","6500400","永和區"
"234072","AAC-211","2019/09/20 13:59:40","新北市永和區豫溪街136巷1號","121.521311666667","25.0103916666667","6500400","永和區"
"234066","AAC-212","2019/09/20 13:59:27","新北市永和區永貞路356號","121.51031","25.0065166666667","6500400","永和區"
"234001","AAC-295","2019/09/20 13:59:38","新北市永和區福和路316號","121.51615","25.0073333333333","6500400","永和區"
"244004","248-BX","2019/09/20 13:59:27","新北市林口區源泉街164號","121.354241666667","25.0711383333333","6501700","林口區"
"231030","002-UM","2019/09/20 13:59:25","新北市新店區安康路一段230-3號","121.522325","24.96381","6500600","新店區"
"231005","046-UY","2019/09/20 13:59:40","新北市新店區中興路三段174號","121.544191666667","24.9810533333333","6500600","新店區"
"231002","047-UY","2019/09/20 13:59:37","新北市新店區中正路556號","121.533626666667","24.9869333333333","6500600","新店區"
"231029","106-UY","2019/09/20 13:59:42","新北市新店區安和路一段21號","121.516866666667","24.96456","6500600","新店區"
"231018","107-UY","2019/09/20 13:59:39","新北市新店區中央路109號","121.530966666667","24.97472","6500600","新店區"
"231013","108-UY","2019/09/20 13:59:31","新北市新店區明德路62號","121.541621666667","24.9793283333333","6500600","新店區"
"231036","110-UY","2019/09/20 13:59:33","新北市新店區安祥路109巷3弄6號","121.475375","24.9596016666667","6500600","新店區"
"231032","256-BX","2019/09/20 13:59:36","新北市新店區莒光路44巷21弄11-3號","121.518473333333","24.9521916666667","6500600","新店區"
"231023","260-TV","2019/09/20 13:59:25","新北市新店區文中路45號","121.539635","24.9566316666667","6500600","新店區"
"231003","268-BY","2019/09/20 13:59:27","新北市新店區光明街22號","121.538308333333","24.9586983333333","6500600","新店區"
"231035","278-BY","2019/09/20 13:59:34","新北市新店區安和路二段119號","121.518303333333","24.9708283333333","6500600","新店區"
"231016","AAD-862","2019/09/20 13:59:40","新北市新店區郵政路1號","121.557753333333","24.9528683333333","6500600","新店區"
"231006","355-BY","2019/09/20 13:59:24","新北市新店區北宜路二段103號","121.550388333333","24.9525016666667","6500600","新店區"
"231038","3712-VJ","2019/09/20 13:59:30","新北市新店區安華路30巷3號","121.519576666667","24.95923","6500600","新店區"
"231027","3713-VJ","2019/09/20 13:59:34","新北市新店區北宜路一段3號","121.538446666667","24.9583983333333","6500600","新店區"
"231024","4716-K9","2019/09/20 13:59:33","新北市新店區新生街17號","121.539933333333","24.9661916666667","6500600","新店區"
"231025","4715-K9","2019/09/20 13:59:28","新北市新店區中正路312巷6號","121.537773333333","24.9749483333333","6500600","新店區"
"231022","513-UM","2019/09/20 13:59:28","新北市新店區屈尺路75號","121.545875","24.9226766666667","6500600","新店區"
"231034","641-BX","2019/09/20 13:59:36","新北市新店區達觀路27-1號","121.503953333333","24.9386516666667","6500600","新店區"
"231012","KED-0819","2019/09/20 13:59:35","新北市新店區中興路二段81號","121.5469","24.9710883333333","6500600","新店區"
"231026","720-UM","2019/09/20 13:59:26","新北市新店區三民路159巷19弄44號","121.532198333333","24.9732833333333","6500600","新店區"
"231028","897-TW","2019/09/20 13:59:30","新北市新店區安和路三段8號","121.518021666667","24.98094","6500600","新店區"
"231001","898-TW","2019/09/20 13:59:43","新北市新店區三民路45號","121.537095","24.9709366666667","6500600","新店區"
"231004","899-TW","2019/09/20 13:59:45","新北市新店區北新路二段167號","121.542885","24.976375","6500600","新店區"
"231037","AKT-0513","2019/09/20 13:59:26","新北市新店區安康路三段355巷9號","121.484746666667","24.9506","6500600","新店區"
"235030","003-UY","2019/09/20 13:59:37","新北市中和區水源路6巷10號","121.503376666667","25.00335","6500300","中和區"
"235020","096-UM","2019/09/20 13:59:36","新北市中和區中正路1216號","121.479823333333","25.0107466666667","6500300","中和區"
"235003","097-UM","2019/09/20 13:59:38","新北市中和區秀朗路三段179號","121.52441","24.99086","6500300","中和區"
"235029","098-UM","2019/09/20 13:59:39","新北市中和區中山路二段136巷25號","121.501275","25.0043583333333","6500300","中和區"
"235004","150-BY","2019/09/20 13:59:31","新北市中和區保健路46巷26弄24號","121.50792","24.9956533333333","6500300","中和區"
"235022","151-BY","2019/09/20 13:59:29","新北市中和區連城路523巷11弄3號","121.481775","24.9942716666667","6500300","中和區"
"235019","183-VK","2019/09/20 13:59:36","新北市中和區德光路59號","121.469871666667","25.003895","6500300","中和區"
"235002","185-VK","2019/09/20 13:59:42","新北市中和區立人街18號","121.519158333333","24.9942283333333","6500300","中和區"
"235013","186-VK","2019/09/20 13:59:30","新北市中和區景新街168-2號","121.505895","24.996725","6500300","中和區"
"235031","255-BX","2019/09/20 13:59:34","新北市中和區新生街168號","121.483691666667","25.0002233333333","6500300","中和區"
"235008","293-VK","2019/09/20 13:59:41","新北市中和區中興街180巷45號","121.498246666667","24.9897366666667","6500300","中和區"
"235036","301-VK","2019/09/20 13:59:44","新北市中和區中山路二段129號","121.50256","25.00346","6500300","中和區"
"235007","352-BY","2019/09/20 13:59:46","新北市中和區成功路54號","121.526045","24.9924933333333","6500300","中和區"
"235006","KEA-2878","2019/09/20 13:59:36","新北市中和區秀朗路三段140巷4號","121.524161666667","24.99171","6500300","中和區"
"247015","KEA-2869","2019/09/20 13:59:24","新北市蘆洲區光華路43號","121.468875","25.08298","6501400","蘆洲區"
"247009","KED-0682","2019/09/20 13:59:36","新北市蘆洲區集賢路226號","121.482541666667","25.08644","6501400","蘆洲區"
"235014","4979-A6","2019/09/20 13:59:32","新北市中和區華新街48號","121.507978333333","24.98407","6500300","中和區"
"235033","4980-A6","2019/09/20 13:59:41","新北市中和區中和路185號","121.503468333333","24.9997966666667","6500300","中和區"
"235034","558-UM","2019/09/20 13:59:42","新北市中和區中和路118號","121.503105","24.9997233333333","6500300","中和區"
"235009","565-BX","2019/09/20 13:59:45","新北市中和區景新街467巷31號","121.514498333333","24.9887733333333","6500300","中和區"
"235024","KED-0823","2019/09/20 13:59:36","新北市中和區民治街28號","121.475181666667","25.0038183333333","6500300","中和區"
"235018","640-BX","2019/09/20 13:59:43","新北市中和區民德路140號","121.468631666667","25.0005183333333","6500300","中和區"
"235011","732-UM","2019/09/20 13:59:44","新北市中和區興南路二段92號","121.505208333333","24.9843666666667","6500300","中和區"
"235010","733-UM","2019/09/20 13:59:39","新北市中和區興南路二段33號","121.507686666667","24.9858","6500300","中和區"
"235035","783-BX","2019/09/20 13:59:42","新北市中和區立德街32號","121.489045","25.00715","6500300","中和區"
"235021","801-TS","2019/09/20 13:59:33","新北市中和區民利街48號","121.479336666667","24.9988683333333","6500300","中和區"
"235005","802-TS","2019/09/20 13:59:35","新北市中和區中安街54號","121.512846666667","25.0023566666667","6500300","中和區"
"235016","805-TS","2019/09/20 13:59:44","新北市中和區興南路二段261巷6號","121.504246666667","24.98051","6500300","中和區"
"235012","896-TW","2019/09/20 13:59:34","新北市中和區華新街53號","121.507905","24.9844033333333","6500300","中和區"
"235017","900-TW","2019/09/20 13:59:31","新北市板橋區和平路185巷1號","121.463951666667","24.996445","6500300","中和區"
"235028","911-UM","2019/09/20 13:59:41","新北市中和區中和路40巷5號","121.499551666667","25.001105","6500300","中和區"
"235015","157-BY","2019/09/20 13:59:33","新北市中和區忠孝街19巷46號","121.509596666667","24.9850133333333","6500300","中和區"
"235001","AAC-213","2019/09/20 13:59:39","新北市中和區秀朗路三段58-3號","121.525748333333","24.995085","6500300","中和區"
"235023","AAC-215","2019/09/20 13:59:29","新北市中和區圓通路369巷10號","121.49055","24.9881216666667","6500300","中和區"
"220013","072-UY","2019/09/20 13:59:40","新北市板橋區漢生東路324號","121.471778333333","25.0079216666667","6500100","板橋區"
"220034","073-UY","2019/09/20 13:59:29","新北市板橋區大智街29號","121.454871666667","25.0151133333333","6500100","板橋區"
"220105","075-UY","2019/09/20 13:59:36","新北市板橋區文化路二段263巷12號","121.470955","25.029445","6500100","板橋區"
"220017","AAD-861","2019/09/20 13:59:42","新北市板橋區四川路一段102號","121.459631666667","25.0046833333333","6500100","板橋區"
"247005","893-R6","2019/09/20 13:59:28","新北市蘆洲區中山一路312號","121.469268333333","25.0772183333333","6501400","蘆洲區"
"247019","546-UM","2019/09/20 13:59:32","新北市蘆洲區民族路422巷17號","121.473921666667","25.0928566666667","6501400","蘆洲區"
"247017","500-BY","2019/09/20 13:59:24","新北市蘆洲區民族路253號","121.476741666667","25.090395","6501400","蘆洲區"
"247007","341-TH","2019/09/20 13:59:45","新北市蘆洲區重陽一街1號","121.481756666667","25.0813116666667","6501400","蘆洲區"
"247003","336-TH","2019/09/20 13:59:29","新北市蘆洲區長安街98巷14號","121.462753333333","25.0815583333333","6501400","蘆洲區"
"247013","056-VK","2019/09/20 13:59:41","新北市蘆洲區保和街71號","121.469401666667","25.0861533333333","6501400","蘆洲區"
"247021","007-UY","2019/09/20 13:59:38","新北市蘆洲區中正路263巷2號","121.467351666667","25.0873916666667","6501400","蘆洲區"
"247001","001-UY","2019/09/20 13:59:31","新北市蘆洲區三民路605號","121.460621666667","25.093655","6501400","蘆洲區"
"235027","251-BX","2019/09/20 13:59:39","新北市中和區中正路552號","121.486991666667","24.9946166666667","6500300","中和區"
"207002","749-BX","2019/09/20 13:59:34","新北市萬里區溪底里溪底路8號","121.622645","25.1477233333333","6502800","萬里區"
"207001","662-BX","2019/09/20 13:59:33","新北市萬里區磺潭里清水13號","121.635541666667","25.2017533333333","6502800","萬里區"
"237014","760-BX","2019/09/20 13:59:42","新北市三峽區中山路184巷8號","121.364135","24.93673","6500900","三峽區"
"236024","269-VK","2019/09/20 13:59:36","新北市土城區承天路37號","121.437898333333","24.9644033333333","6501300","土城區"
"236013","270-VK","2019/09/20 13:59:34","新北市土城區城林路6巷80號","121.438488333333","24.9796966666667","6501300","土城區"
"236032","271-VK","2019/09/20 13:59:29","新北市土城區員福街50號","121.440433333333","24.9791333333333","6501300","土城區"
"247011","KED-0683","2019/09/20 13:59:39","新北市蘆洲區中興街52號","121.48166","25.0874133333333","6501400","蘆洲區"
"236067","KEA-2877","2019/09/20 13:59:44","新北市土城區和平路73號","121.444205","24.9711116666667","6501300","土城區"
"236016","401-BY","2019/09/20 13:59:35","新北市土城區城林路6巷80號","121.438588333333","24.979835","6501300","土城區"
"236077","752-BX","2019/09/20 13:59:25","新北市土城區永寧路32巷2號","121.42922","24.9606066666667","6501300","土城區"
"236057","912-UM","2019/09/20 13:59:37","新北市土城區中央路三段260號","121.427221666667","24.9640233333333","6501300","土城區"
"236045","913-UM","2019/09/20 13:59:37","新北市土城區城林路6巷80號","121.438515","24.9797283333333","6501300","土城區"
"236060","915-UM","2019/09/20 13:59:45","新北市土城區城林路6巷80號","121.438458333333","24.9797716666667","6501300","土城區"
"236054","AAC-216","2019/09/20 13:59:24","新北市土城區中華路二段92號","121.438193333333","24.9747566666667","6501300","土城區"
"220027","145-BY","2019/09/20 13:59:33","新北市板橋區大智街93號","121.453058333333","25.0158416666667","6500100","板橋區"
"220028","200-UY","2019/09/20 13:59:37","新北市板橋區大觀路二段力行1巷3弄2號","121.445293333333","24.9991916666667","6500100","板橋區"
"220030","610-BX","2019/09/20 13:59:31","新北市板橋區篤行路三段8號","121.429318333333","24.9878016666667","6500100","板橋區"
"220040","267-BY","2019/09/20 13:59:41","新北市板橋區大同街8巷54號","121.477961666667","25.0262066666667","6500100","板橋區"
"220004","276-BY","2019/09/20 13:59:31","新北市板橋區信義路147號","121.458166666667","24.99289","6500100","板橋區"
"220020","277-BY","2019/09/20 13:59:36","新北市板橋區大觀路三段50巷53號","121.431983333333","24.9960033333333","6500100","板橋區"
"220050","280-UM","2019/09/20 13:59:36","新北市板橋區萬板路13號","121.470493333333","25.0210516666667","6500100","板橋區"
"220019","283-VK","2019/09/20 13:59:31","新北市板橋區重慶路245巷57號","121.465345","25.001075","6500100","板橋區"
"220043","285-UM","2019/09/20 13:59:41","新北市板橋區光武街138號","121.465386666667","25.0300216666667","6500100","板橋區"
"220001","285-VK","2019/09/20 13:59:33","新北市板橋區永豐街115號","121.474368333333","25.0195933333333","6500100","板橋區"
"220031","286-VK","2019/09/20 13:59:29","新北市板橋區大觀路一段38巷180號","121.44154","25.00467","6500100","板橋區"
"220029","287-VK","2019/09/20 13:59:37","新北市板橋區南雅西路二段100號","121.452446666667","25.0117633333333","6500100","板橋區"
"220009","293-UM","2019/09/20 13:59:27","新北市板橋區三民路二段21巷40號","121.480613333333","25.0182166666667","6500100","板橋區"
"220032","296-UM","2019/09/20 13:59:25","新北市板橋區篤行路一段16號","121.431296666667","24.9955183333333","6500100","板橋區"
"220023","303-R5","2019/09/20 13:59:45","新北市板橋區南雅東路100巷12號","121.454248333333","25.007295","6500100","板橋區"
"220010","305-R5","2019/09/20 13:59:35","新北市板橋區三民路二段245巷63號","121.480931666667","25.0125983333333","6500100","板橋區"
"220041","307-R5","2019/09/20 13:59:46","新北市板橋區文化路二段225巷60弄46號","121.469133333333","25.0295033333333","6500100","板橋區"
"220047","317-R6","2019/09/20 13:59:37","新北市板橋區民生路二段234巷77號","121.470355","25.022635","6500100","板橋區"
"220038","487-VK","2019/09/20 13:59:38","新北市板橋區文化路二段159號","121.470258333333","25.0272133333333","6500100","板橋區"
"220037","491-VK","2019/09/20 13:59:32","新北市板橋區莊敬路48-2號","121.472703333333","25.02705","6500100","板橋區"
"220104","560-BX","2019/09/20 13:59:25","新北市板橋區中正路325巷23號","121.454185","25.0197016666667","6500100","板橋區"
"220052","561-BX","2019/09/20 13:59:38","新北市板橋區介壽街27號","121.46831","25.0199783333333","6500100","板橋區"
"220011","609-BX","2019/09/20 13:59:27","新北市板橋區三民路二段125號","121.47924","25.0155533333333","6500100","板橋區"
"220005","686-BX","2019/09/20 13:59:30","新北市板橋區國慶路212號","121.463686666667","24.9972283333333","6500100","板橋區"
"220025","687-BX","2019/09/20 13:59:40","新北市板橋區大觀路二段345號","121.44097","24.9983816666667","6500100","板橋區"
"220042","689-BX","2019/09/20 13:59:41","新北市板橋區民生路三段203號","121.465273333333","25.027875","6500100","板橋區"
"220002","741-BX","2019/09/20 13:59:27","新北市板橋區重慶路139巷12號","121.462726666667","25.004475","6500100","板橋區"
"220051","KEA-2699","2019/09/20 13:59:41","新北市板橋區田單街2巷17號","121.481963333333","25.0285183333333","6500100","板橋區"
"220003","827-TW","2019/09/20 13:59:27","新北市板橋區民安街18號","121.466901666667","25.011595","6500100","板橋區"
"220014","829-TW","2019/09/20 13:59:36","新北市板橋區三民路二段正隆巷34號","121.477181666667","25.0135716666667","6500100","板橋區"
"220016","830-TW","2019/09/20 13:59:43","新北市板橋區中山路二段443巷54號","121.481103333333","25.021595","6500100","板橋區"
"220039","831-TW","2019/09/20 13:59:38","新北市板橋區裕民街5-1號","121.462441666667","25.0291416666667","6500100","板橋區"
"220022","895-R6","2019/09/20 13:59:34","新北市板橋區西門街59號","121.454413333333","25.0091766666667","6500100","板橋區"
"220021","985-R7","2019/09/20 13:59:46","新北市板橋區中正路33號","121.456223333333","25.012935","6500100","板橋區"
"220046","AAC-210","2019/09/20 13:58:59","新北市板橋區幸福路60巷75號","121.45981","25.0217816666667","6500100","板橋區"
"220012","AAC-253","2019/09/20 13:59:26","新北市板橋區民生路一段33號","121.476368333333","25.0119416666667","6500100","板橋區"
"235032","KEA-2873","2019/09/20 13:59:14","新北市中和區景平路545巷1弄7號","121.498558333333","24.99903","6500300","中和區"
"235025","KEA-2875","2019/09/20 13:59:38","新北市中和區中山路二段523巷32弄6號","121.481391666667","25.0038566666667","6500300","中和區"
"235026","KEA-2876","2019/09/20 13:59:31","新北市中和區中山路二段366巷13-1號","121.491755","25.00449","6500300","中和區"
