"lineid","car","time","location","longitude","latitude","cityid","cityname"
"234007","KED-0605","2019/09/20 18:09:25","新北市永和區環河東路二段36號","121.52287","25.01252","6500400","永和區"
"249005","172-UM","2019/09/20 18:09:39","新北市八里區荖阡坑路15-40號","121.401726666667","25.1397816666667","6502300","八里區"
"249001","173-UM","2019/09/20 18:09:44","新北市八里區龍米路二段36號","121.448493333333","25.1400966666667","6502300","八里區"
"249004","303-UY","2019/09/20 18:09:28","新北市八里區龍米路二段200巷5號","121.433753333333","25.158835","6502300","八里區"
"249002","305-UY","2019/09/20 18:09:45","新北市八里區龍米路一段356巷46號","121.45212","25.1303133333333","6502300","八里區"
"232011","076-UY","2019/09/20 18:09:37","新北市坪林區國中路4號","121.713418333333","24.9389983333333","6502000","坪林區"
"244017","069-UM","2019/09/20 18:09:30","新北市林口區文化一路一段35號","121.37058","25.0692216666667","6501700","林口區"
"244007","080-UY","2019/09/20 18:09:30","新北市林口區竹林路548號","121.387611666667","25.0847383333333","6501700","林口區"
"244013","KEA-2802","2019/09/20 18:09:29","新北市林口區竹林路77號","121.388303333333","25.0791083333333","6501700","林口區"
"244023","483-VK","2019/09/20 18:09:42","新北市林口區隆林街123巷5號","121.38454","25.0743466666667","6501700","林口區"
"244009","656-BX","2019/09/20 18:09:27","新北市林口區文化三路二段366號","121.378868333333","25.0858266666667","6501700","林口區"
"244011","701-TV","2019/09/20 18:09:44","新北市林口區中正路74巷5弄1號","121.394591666667","25.0779483333333","6501700","林口區"
"244025","837-TS","2019/09/20 18:09:33","新北市林口區文化北路一段293-2號","121.360203333333","25.0726416666667","6501700","林口區"
"244021","838-TS","2019/09/20 18:09:36","新北市林口區自強九街20號","121.400598333333","25.0758183333333","6501700","林口區"
"222003","436-BY","2019/09/20 18:09:34","新北市深坑區文山路三段16-1號","121.612588333333","24.9980583333333","6501800","深坑區"
"222002","659-BX","2019/09/20 18:09:41","新北市深坑區文化街52號","121.618995","25.0016533333333","6501800","深坑區"
"231044","046-UY","2019/09/20 18:09:36","新北市新店區安華路28-1號","121.519306666667","24.96069","6500600","新店區"
"231060","106-UY","2019/09/20 18:09:29","新北市新店區安華路28-1號","121.519605","24.9608333333333","6500600","新店區"
"231062","256-BX","2019/09/20 18:09:28","新北市新店區安一路一段1-1號","121.51971","24.9610683333333","6500600","新店區"
"231054","260-TV","2019/09/20 18:09:43","新北市新店區安一路一段1-1號","121.519296666667","24.961095","6500600","新店區"
"231064","278-BY","2019/09/20 18:09:26","新北市新店區安一路一段1-1號","121.519791666667","24.9611383333333","6500600","新店區"
"231050","AAD-862","2019/09/20 18:09:25","新北市新店區安華路28-1號","121.519615","24.9609983333333","6500600","新店區"
"231058","3713-VJ","2019/09/20 18:09:43","新北市新店區安華路28-1號","121.51924","24.9606466666667","6500600","新店區"
"231056","4715-K9","2019/09/20 18:09:35","新北市新店區安華路1-1號","121.51945","24.9604133333333","6500600","新店區"
"231053","513-UM","2019/09/20 18:09:38","新北市新店區安一路一段1-1號","121.519681666667","24.961295","6500600","新店區"
"231048","KED-0819","2019/09/20 18:09:36","新北市新店區安一路一段1-1號","121.519966666667","24.961235","6500600","新店區"
"231057","720-UM","2019/09/20 18:09:25","新北市新店區安一路一段1-1號","121.519228333333","24.96127","6500600","新店區"
"231059","897-TW","2019/09/20 18:09:33","新北市新店區安華路28-1號","121.519793333333","24.9608183333333","6500600","新店區"
"231043","899-TW","2019/09/20 18:09:32","新北市新店區安華路28-1號","121.519185","24.9608316666667","6500600","新店區"
"241024","065-VK","2019/09/20 18:09:43","新北市三重區中正北路193巷35弄63號","121.47854","25.071415","6500200","三重區"
"241032","269-UM","2019/09/20 18:09:33","新北市八里區中山路三段106號","121.391348333333","25.142285","6500200","三重區"
"241033","AAC-255","2019/09/20 18:09:45","新北市三重區中興北街62-1號","121.468988333333","25.0518916666667","6500200","三重區"
"235039","097-UM","2019/09/20 18:09:28","新北市中和區錦和路350-1號","121.490038333333","24.9935583333333","6500300","中和區"
"235065","098-UM","2019/09/20 18:09:38","新北市中和區莊敬路49巷18號","121.501616666667","25.0061483333333","6500300","中和區"
"235058","151-BY","2019/09/20 18:09:38","新北市中和區圓通路367巷59弄2號","121.492423333333","24.9835283333333","6500300","中和區"
"235038","185-VK","2019/09/20 18:08:25","新北市中和區景平路316號","121.5123","24.99264","6500300","中和區"
"235072","301-VK","2019/09/20 18:09:26","新北市中和區中正路464號","121.49016","24.99419","6500300","中和區"
"235043","352-BY","2019/09/20 18:09:43","新北市中和區中正路209號","121.497216666667","24.9935466666667","6500300","中和區"
"235042","KEA-2878","2019/09/20 18:09:26","新北市中和區錦和路350-1號","121.490183333333","24.9935933333333","6500300","中和區"
"235050","4979-A6","2019/09/20 18:09:44","新北市中和區錦和路350-1號","121.490096666667","24.9935516666667","6500300","中和區"
"235069","4980-A6","2019/09/20 18:09:24","新北市中和區中正路505號","121.488625","24.994205","6500300","中和區"
"235070","558-UM","2019/09/20 18:09:28","新北市中和區圓通路163-1號","121.497861666667","24.995505","6500300","中和區"
"235045","565-BX","2019/09/20 18:09:29","新北市中和區中正路171號","121.49776","24.9934166666667","6500300","中和區"
"235060","KED-0823","2019/09/20 18:09:43","新北市中和區連城路469巷70弄18號","121.482805","24.9936533333333","6500300","中和區"
"235054","640-BX","2019/09/20 18:09:26","新北市中和區員山路77巷11弄5號","121.480218333333","24.9935583333333","6500300","中和區"
"235047","732-UM","2019/09/20 18:09:40","新北市中和區中正路213號","121.497003333333","24.9936433333333","6500300","中和區"
"235046","733-UM","2019/09/20 18:09:33","新北市中和區員山路36巷13號","121.48421","24.990965","6500300","中和區"
"235071","783-BX","2019/09/20 18:09:40","新北市中和區員山路36巷16-2號","121.485263333333","24.9912233333333","6500300","中和區"
"235057","801-TS","2019/09/20 18:09:34","新北市中和區民享街97巷17號","121.475373333333","24.999635","6500300","中和區"
"235052","805-TS","2019/09/20 18:09:29","新北市中和區中正路19號","121.502908333333","24.993485","6500300","中和區"
"235064","911-UM","2019/09/20 18:09:38","新北市中和區中興街118巷8號","121.499943333333","24.9935766666667","6500300","中和區"
"235051","157-BY","2019/09/20 18:09:31","新北市中和區復興路316號","121.50094","24.9903383333333","6500300","中和區"
"226004","312-R5","2019/09/20 18:09:41","新北市平溪區薯榔里薯榔寮29號","121.713628333333","25.01938","6502400","平溪區"
"235063","251-BX","2019/09/20 18:09:26","新北市中和區員山路36巷16-2號","121.485448333333","24.99141","6500300","中和區"
"228003","097-TW","2019/09/20 18:09:27","新北市貢寮區真理里美艷山街6-2號","121.928816666667","25.0607516666667","6502600","貢寮區"
"228002","663-BX","2019/09/20 18:09:35","新北市貢寮區福連里馬崗街2-7號","121.99922","25.013775","6502600","貢寮區"
"228001","670-TC","2019/09/20 18:09:31","新北市貢寮區真理里新港街26巷55弄2-1號","121.927376666667","25.0528816666667","6502600","貢寮區"
"224006","676-BX","2019/09/20 18:09:30","新北市瑞芳區中山路44號","121.803481666667","25.106405","6501200","瑞芳區"
"224002","639-TC","2019/09/20 18:09:40","新北市瑞芳區三爪子坑路149巷22-14號","121.811688333333","25.10592","6501200","瑞芳區"
"224007","285-BY","2019/09/20 18:09:27","新北市瑞芳區四腳亭坑路22號","121.7772","25.1094883333333","6501200","瑞芳區"
"224009","275-VK","2019/09/20 18:09:43","新北市瑞芳區金光路221號","121.852076666667","25.1068383333333","6501200","瑞芳區"
"224008","273-VK","2019/09/20 18:09:34","新北市瑞芳區員山子路23號","121.821395","25.10304","6501200","瑞芳區"
"224005","271-BY","2019/09/20 18:09:31","新北市瑞芳區深澳路42號","121.815828333333","25.1282683333333","6501200","瑞芳區"
"227001","642-TC","2019/09/20 18:09:31","新北市雙溪區三貂里定福路1-2號","121.85082","25.063535","6502500","雙溪區"
"227002","400-TW","2019/09/20 18:09:28","新北市雙溪區共和里東榮街29號","121.866033333333","25.0335533333333","6502500","雙溪區"
"253005","032-BX","2019/09/20 18:09:27","新北市石門區福安街45號","121.568471666667","25.2918683333333","6502200","石門區"
"253006","295-VK","2019/09/20 18:09:41","新北市石門區老梅路52巷25弄1號","121.546455","25.28806","6502200","石門區"
"222001","KEA-2212","2019/09/20 18:09:43","新北市深坑區北深路二段182號","121.614078333333","25.0024466666667","6501800","深坑區"
"208002","KEA-2872","2019/09/20 18:09:41","新北市金山區清泉里清水路1-2號","121.628301666667","25.2361866666667","6502700","金山區"
"208003","665-BX","2019/09/20 18:09:38","新北市金山區民生路196號","121.645736666667","25.22174","6502700","金山區"
"251009","008-UM","2019/09/20 18:09:30","新北市淡水區大仁街6巷19號","121.442901666667","25.17499","6501000","淡水區"
"251004","009-UM","2019/09/20 18:09:35","新北市淡水區民族路110巷43弄7號","121.461411666667","25.1350033333333","6501000","淡水區"
"251001","011-UM","2019/09/20 18:09:37","新北市淡水區自立路10號","121.4632","25.1295266666667","6501000","淡水區"
"251002","012-UM","2019/09/20 18:09:30","新北市淡水區中正東路一段3巷2號","121.450478333333","25.1645133333333","6501000","淡水區"
"251008","181-VK","2019/09/20 18:09:40","新北市淡水區淡金路16巷62弄1號","121.459776666667","25.160975","6501000","淡水區"
"251010","413-VK","2019/09/20 18:09:31","新北市淡水區中正路二段50巷10號","121.419868333333","25.1833333333333","6501000","淡水區"
"251012","441-VK","2019/09/20 18:09:40","新北市淡水區泉洲厝19號","121.490426666667","25.1908083333333","6501000","淡水區"
"251005","443-VK","2019/09/20 18:09:32","新北市淡水區水源街一段141號","121.447215","25.1718583333333","6501000","淡水區"
"251006","561-UM","2019/09/20 18:09:41","新北市淡水區真理街3巷24-1號","121.437745","25.1764233333333","6501000","淡水區"
"251011","650-BX","2019/09/20 18:09:41","新北市淡水區三空泉5號","121.477431666667","25.16207","6501000","淡水區"
"251003","766-UM","2019/09/20 18:09:39","新北市淡水區大忠街113巷29號","121.447335","25.1776066666667","6501000","淡水區"
"207003","550-UM","2019/09/20 18:09:27","新北市萬里區野柳里港東路167-1號","121.690123333333","25.2051316666667","6502800","萬里區"
"207004","291-VK","2019/09/20 18:09:46","新北市萬里區中幅里中福路97號","121.675425","25.170095","6502800","萬里區"
"252002","178-VK","2019/09/20 18:09:36","新北市三芝區中山路二段35號","121.502866666667","25.2551866666667","6502100","三芝區"
"252003","292-VK","2019/09/20 18:09:26","新北市三芝區埔頭里埔頭37號","121.49847","25.2603316666667","6502100","三芝區"
"208001","170-UY","2019/09/20 18:09:39","新北市金山區磺港里磺港路59號","121.648266666667","25.2278933333333","6502700","金山區"
"237004","KEA-2597","2019/09/20 18:09:39","新北市三峽區大埔1-3號","121.374851666667","24.8905366666667","6500900","三峽區"
"237007","153-BY","2019/09/20 18:09:27","新北市三峽區中正路二段370巷81號","121.364281666667","24.91167","6500900","三峽區"
"237009","210-TH","2019/09/20 18:09:25","新北市三峽區大仁路65號","121.365065","24.9374183333333","6500900","三峽區"
"237013","252-BX","2019/09/20 18:09:37","新北市三峽區大同路2-1號","121.3784","24.9301133333333","6500900","三峽區"
"237012","275-BY","2019/09/20 18:09:37","新北市三峽區民生街1巷1-35號","121.37777","24.93484","6500900","三峽區"
"237008","302-VK","2019/09/20 18:09:17","新北市三峽區白雞53號","121.384618333333","24.9125666666667","6500900","三峽區"
"237014","433-BY","2019/09/20 18:09:36","新北市三峽區國光街63巷6號","121.373985","24.9379766666667","6500900","三峽區"
"237006","5529-G3","2019/09/20 18:09:30","新北市三峽區介壽路三段16號","121.395698333333","24.9362833333333","6500900","三峽區"
"237011","KEA-2596","2019/09/20 18:09:38","新北市三峽區大同路1-2號","121.378251666667","24.9297383333333","6500900","三峽區"
"237015","649-BX","2019/09/20 18:09:24","新北市三峽區紫新路47號","121.422178333333","24.9217933333333","6500900","三峽區"
"237010","706-TV","2019/09/20 18:09:37","新北市三峽區民權街193號","121.36772","24.9291516666667","6500900","三峽區"
"237005","AKY-6261","2019/09/20 18:09:32","新北市三峽區和平街24-2號","121.370253333333","24.9363633333333","6500900","三峽區"
"236042","KED-0685","2019/09/20 18:09:43","新北市土城區城林路6巷80號","121.438463333333","24.9797016666667","6501300","土城區"
"236026","269-VK","2019/09/20 18:09:40","新北市土城區承天路20號","121.439601666667","24.9634016666667","6501300","土城區"
"236014","270-VK","2019/09/20 18:09:42","新北市土城區學府路一段242號","121.451726666667","24.9847216666667","6501300","土城區"
"236039","271-VK","2019/09/20 18:09:34","新北市土城區明德路一段280-1號","121.457523333333","24.977435","6501300","土城區"
"236069","KEA-2877","2019/09/20 18:09:28","新北市土城區明德路一段280-1號","121.457323333333","24.9775","6501300","土城區"
"252001","KED-0821","2019/09/20 18:09:43","新北市三芝區中興街二段2號","121.498358333333","25.2566516666667","6502100","三芝區"
"236020","401-BY","2019/09/20 18:09:31","新北市土城區員林街1號","121.442471666667","24.97815","6501300","土城區"
"236079","752-BX","2019/09/20 18:09:36","新北市土城區永安街85號","121.431026666667","24.963875","6501300","土城區"
"236059","912-UM","2019/09/20 18:09:45","新北市土城區中央路四段280號","121.414445","24.9564166666667","6501300","土城區"
"236048","913-UM","2019/09/20 18:09:37","新北市土城區明德路一段365-1號","121.453561666667","24.97906","6501300","土城區"
"236063","915-UM","2019/09/20 18:09:44","新北市土城區中正路75號","121.445055","24.9756783333333","6501300","土城區"
"236055","AAC-216","2019/09/20 18:09:36","新北市土城區中華路二段92號","121.43828","24.97474","6501300","土城區"
"242041","AAC-296","2019/09/20 18:09:40","新北市新莊區丹鳳街18號","121.421415","25.0292","6500500","新莊區"
"242060","986-R7","2019/09/20 18:09:43","新北市新莊區新樹路335號","121.433116666667","25.0188","6500500","新莊區"
"242005","751-BX","2019/09/20 18:09:37","新北市新莊區自立街108號","121.455103333333","25.0454216666667","6500500","新莊區"
"242029","615-BX","2019/09/20 18:09:41","新北市新莊區中平路190號","121.444763333333","25.0481466666667","6500500","新莊區"
"242027","613-BX","2019/09/20 18:09:38","新北市新莊區幸福路47號","121.457788333333","25.0493233333333","6500500","新莊區"
"242058","612-BX","2019/09/20 18:09:32","新北市新莊區新北大道七段241號","121.412978333333","25.029665","6500500","新莊區"
"242048","566-BX","2019/09/20 18:09:37","新北市新莊區萬安街5號","121.421713333333","25.0249466666667","6500500","新莊區"
"242054","497-BY","2019/09/20 18:09:25","新北市新莊區民安西路309號","121.427111666667","25.0113983333333","6500500","新莊區"
"242050","442-UM","2019/09/20 18:09:39","新北市新莊區民本街11巷2弄2號","121.427938333333","25.0200816666667","6500500","新莊區"
"242002","441-UM","2019/09/20 18:09:42","新北市新莊區新莊路38號","121.45823","25.0370333333333","6500500","新莊區"
"242007","440-UM","2019/09/20 18:09:28","新北市新莊區中華路二段42號","121.453971666667","25.0456266666667","6500500","新莊區"
"242044","415-TV","2019/09/20 18:09:43","新北市新莊區雙鳳路150號","121.41282","25.0275083333333","6500500","新莊區"
"242013","413-TV","2019/09/20 18:09:35","新北市新莊區新泰路357巷3弄57號","121.44201","25.0394133333333","6500500","新莊區"
"242025","362-BY","2019/09/20 18:09:36","新北市新莊區五工路58號","121.458816666667","25.0628116666667","6500500","新莊區"
"242015","132-UY","2019/09/20 18:09:41","新北市新莊區中平路132巷6號","121.445366666667","25.0466716666667","6500500","新莊區"
"242039","135-UY","2019/09/20 18:09:31","新北市新莊區民安東路51號","121.429708333333","25.02079","6500500","新莊區"
"242056","172-VK","2019/09/20 18:09:39","新北市新莊區豐年街豐2巷34號","121.447605","25.0307366666667","6500500","新莊區"
"242017","173-VK","2019/09/20 18:09:39","新北市新莊區中港路297號","121.452896666667","25.044265","6500500","新莊區"
"242032","175-VK","2019/09/20 18:09:41","新北市新莊區新泰路277巷18號","121.444875","25.0402983333333","6500500","新莊區"
"242021","KED-0687","2019/09/20 18:09:36","新北市新莊區新興街39號","121.450673333333","25.03839","6500500","新莊區"
"242046","346-TH","2019/09/20 18:09:44","新北市新莊區福營路221號","121.430211666667","25.0302116666667","6500500","新莊區"
"242037","348-TH","2019/09/20 18:09:36","新北市新莊區後港一路63號","121.42645","25.026575","6500500","新莊區"
"242009","349-TH","2019/09/20 18:09:46","新北市新莊區昌平街71巷14號","121.453875","25.0538116666667","6500500","新莊區"
"242034","350-TH","2019/09/20 18:09:41","新北市新莊區新豐街65號","121.446378333333","25.0334966666667","6500500","新莊區"
"242019","351-TH","2019/09/20 18:09:38","新北市新莊區長青街37巷22弄7號","121.455953333333","25.041145","6500500","新莊區"
"238015","755-BX","2019/09/20 18:09:36","新北市樹林區大安路349號","121.416448333333","24.9905","6500700","樹林區"
"238023","601-UM","2019/09/20 18:09:27","新北市樹林區三福街67巷9號","121.407771666667","25.0158483333333","6500700","樹林區"
"238019","599-UM","2019/09/20 18:09:44","新北市樹林區忠孝街95號","121.424436666667","24.980995","6500700","樹林區"
"238018","KEA-2217","2019/09/20 18:09:39","新北市樹林區保順街75號","121.429303333333","24.9943483333333","6500700","樹林區"
"238022","KEA-2213","2019/09/20 18:09:32","新北市樹林區太平路150巷1號","121.418571666667","24.9779066666667","6500700","樹林區"
"238021","KEA-2539","2019/09/20 18:09:25","新北市樹林區柑園街二段143號","121.38262","24.954615","6500700","樹林區"
"238025","303-VK","2019/09/20 18:09:41","新北市樹林區保安街二段180號","121.412535","25.01004","6500700","樹林區"
"238017","283-BY","2019/09/20 18:09:30","新北市樹林區中正路702號","121.409301666667","25.0175166666667","6500700","樹林區"
"238014","282-BY","2019/09/20 18:09:42","新北市樹林區潭興街47號","121.42373","24.9985016666667","6500700","樹林區"
"238020","268-VK","2019/09/20 18:09:37","新北市樹林區俊興街286號","121.418645","25.0170133333333","6500700","樹林區"
"238026","172-UY","2019/09/20 18:09:31","新北市樹林區佳園路一段35號","121.39294","24.9709766666667","6500700","樹林區"
"238016","169-UY","2019/09/20 18:09:34","新北市樹林區中山路一段242巷10號","121.420658333333","24.9879183333333","6500700","樹林區"
"239007","AAC-297","2019/09/20 18:09:40","新北市鶯歌區鶯桃路7號","121.344001666667","24.9503016666667","6500800","鶯歌區"
"239006","891-R6","2019/09/20 18:09:41","新北市鶯歌區鶯桃路417號","121.332781666667","24.9647533333333","6500800","鶯歌區"
"239008","527-UM","2019/09/20 18:09:43","新北市鶯歌區國際一路108巷1號","121.3354","24.977135","6500800","鶯歌區"
"239005","526-UM","2019/09/20 18:09:47","新北市鶯歌區鶯桃路668巷73號","121.329948333333","24.9718216666667","6500800","鶯歌區"
"239001","417-VK","2019/09/20 18:09:33","新北市鶯歌區國中街6號","121.34126","24.944935","6500800","鶯歌區"
"239003","360-BY","2019/09/20 18:09:26","新北市鶯歌區永吉街9巷1號","121.336541666667","24.9583783333333","6500800","鶯歌區"
"239002","359-BY","2019/09/20 18:09:36","新北市鶯歌區國華路41號","121.34283","24.955375","6500800","鶯歌區"
"239004","193-VK","2019/09/20 18:09:36","新北市鶯歌區尖山路88號","121.348633333333","24.94952","6500800","鶯歌區"
"221008","489-VK","2019/09/20 18:09:39","新北市汐止區明峰街163號","121.628943333333","25.0700966666667","6501100","汐止區"
"221036","130-UY","2019/09/20 18:09:32","新北市汐止區大同路三段116號","121.672081666667","25.07673","6501100","汐止區"
"221015","131-UY","2019/09/20 18:09:28","新北市汐止區長江街286號","121.66516","25.0809183333333","6501100","汐止區"
"244019","KED-0667","2019/09/20 18:09:25","新北市林口區忠孝路566號","121.37451","25.068195","6501700","林口區"
"221010","269-BY","2019/09/20 18:09:47","新北市汐止區汐萬路二段236號","121.646535","25.0885433333333","6501100","汐止區"
"221012","278-VK","2019/09/20 18:09:31","新北市汐止區長興街二段50巷31號","121.67475","25.0810633333333","6501100","汐止區"
"221023","279-VK","2019/09/20 18:09:35","新北市汐止區民族六街2巷23號","121.628443333333","25.0701716666667","6501100","汐止區"
"221032","280-BY","2019/09/20 18:09:33","新北市汐止區橫科路73巷2-1號","121.619385","25.0507866666667","6501100","汐止區"
"221029","298-VK","2019/09/20 18:09:35","新北市汐止區樟樹二路134號","121.64001","25.0656266666667","6501100","汐止區"
"221021","299-VK","2019/09/20 18:09:38","新北市汐止區新興路12號","121.656316666667","25.0647733333333","6501100","汐止區"
"221031","353-TW","2019/09/20 18:09:42","新北市汐止區中興路216號","121.630973333333","25.0663283333333","6501100","汐止區"
"221035","622-UM","2019/09/20 18:09:34","新北市汐止區汐萬路一段115巷50號","121.65308","25.0701433333333","6501100","汐止區"
"221025","623-UM","2019/09/20 18:09:45","新北市汐止區秀峰路147號","121.660521666667","25.0621466666667","6501100","汐止區"
"221038","646-BX","2019/09/20 18:09:39","新北市汐止區南興路83巷2號","121.653228333333","25.0588416666667","6501100","汐止區"
"221033","647-BX","2019/09/20 18:09:40","新北市汐止區林森街21號","121.621725","25.0405483333333","6501100","汐止區"
"221002","707-TV","2019/09/20 18:09:34","新北市汐止區福德一路215號","121.634628333333","25.0652016666667","6501100","汐止區"
"221018","753-BX","2019/09/20 18:09:33","新北市汐止區招商街19巷25號","121.667455","25.0681883333333","6501100","汐止區"
"242011","280-VK","2019/09/20 18:09:34","新北市新莊區中港路中慶巷39號","121.449176666667","25.05368","6500500","新莊區"
"235068","KEA-2873","2019/09/20 18:09:25","新北市中和區員山路36巷16-3號","121.48511","24.9910866666667","6500300","中和區"
"235061","KEA-2875","2019/09/20 18:09:25","新北市中和區民德路264號","121.468065","24.9966383333333","6500300","中和區"
"235062","KEA-2876","2019/09/20 18:09:43","新北市中和區橋和路172號","121.494568333333","25.006305","6500300","中和區"
