"lineid","car","time","location","longitude","latitude","cityid","cityname"
"234007","KED-0605","2019/09/20 18:19:44","新北市永和區仁愛路306巷26號","121.50274","25.00875","6500400","永和區"
"249005","172-UM","2019/09/20 18:19:39","新北市八里區荖阡坑路15-40號","121.401708333333","25.139815","6502300","八里區"
"249001","173-UM","2019/09/20 18:19:44","新北市八里區龍米路一段470號","121.449881666667","25.1361416666667","6502300","八里區"
"249004","303-UY","2019/09/20 18:19:28","新北市八里區龍米路二段232巷1弄1號","121.431123333333","25.15911","6502300","八里區"
"249002","305-UY","2019/09/20 18:19:45","新北市八里區龍形一街2-1號","121.450725","25.1307883333333","6502300","八里區"
"232011","076-UY","2019/09/20 18:19:37","新北市坪林區坪雙路一段41號","121.711688333333","24.9424416666667","6502000","坪林區"
"244017","069-UM","2019/09/20 18:19:30","新北市林口區八德路20巷17號","121.367425","25.0678416666667","6501700","林口區"
"244007","080-UY","2019/09/20 18:19:30","新北市林口區後湖4-2號","121.389636666667","25.0977466666667","6501700","林口區"
"244013","KEA-2802","2019/09/20 18:19:29","新北市林口區信義路58-7號","121.382433333333","25.078755","6501700","林口區"
"244023","483-VK","2019/09/20 18:19:27","新北市林口區東湖路153巷151號","121.382263333333","25.073585","6501700","林口區"
"244009","656-BX","2019/09/20 18:19:27","新北市林口區文林一街11巷68號","121.377221666667","25.0870566666667","6501700","林口區"
"244011","701-TV","2019/09/20 18:19:44","新北市林口區中正路144號","121.39285","25.0773283333333","6501700","林口區"
"244025","837-TS","2019/09/20 18:19:33","新北市林口區文化北路一段127號","121.356451666667","25.0691616666667","6501700","林口區"
"244021","838-TS","2019/09/20 18:19:36","新北市林口區自強一街19號","121.398188333333","25.0783716666667","6501700","林口區"
"222003","436-BY","2019/09/20 18:19:34","新北市深坑區旺耽路67號","121.626265","25.003015","6501800","深坑區"
"222002","659-BX","2019/09/20 18:19:41","新北市深坑區雲鄉路18號","121.621256666667","24.9995616666667","6501800","深坑區"
"231044","046-UY","2019/09/20 18:19:35","新北市新店區安華路28-1號","121.51931","24.9605966666667","6500600","新店區"
"231041","047-UY","2019/09/20 18:19:40","新北市新店區安華路28-1號","121.519063333333","24.9608983333333","6500600","新店區"
"231060","106-UY","2019/09/20 18:19:29","新北市新店區安華路28-1號","121.519645","24.9607933333333","6500600","新店區"
"231051","107-UY","2019/09/20 18:19:41","新北市新店區安一路一段1-1號","121.519193333333","24.9612416666667","6500600","新店區"
"231062","256-BX","2019/09/20 18:19:28","新北市新店區安一路一段1-1號","121.519691666667","24.9610916666667","6500600","新店區"
"231054","260-TV","2019/09/20 18:19:23","新北市新店區安一路一段1-1號","121.519358333333","24.9611033333333","6500600","新店區"
"231042","268-BY","2019/09/20 18:19:32","新北市新店區安一路一段1-1號","121.519755","24.9613216666667","6500600","新店區"
"231064","278-BY","2019/09/20 18:19:26","新北市新店區安一路一段1-1號","121.519788333333","24.9611166666667","6500600","新店區"
"231050","AAD-862","2019/09/20 18:19:45","新北市新店區安華路28-1號","121.519621666667","24.9609883333333","6500600","新店區"
"231045","355-BY","2019/09/20 18:19:32","新北市新店區安華路28-1號","121.519271666667","24.960655","6500600","新店區"
"231058","3713-VJ","2019/09/20 18:19:23","新北市新店區安康路一段231號","121.525315","24.9632016666667","6500600","新店區"
"231055","4716-K9","2019/09/20 18:19:40","新北市新店區安康路一段33-1號","121.53223","24.9604883333333","6500600","新店區"
"231056","4715-K9","2019/09/20 18:19:15","新北市新店區中央路151號","121.529535","24.9719316666667","6500600","新店區"
"231053","513-UM","2019/09/20 18:19:38","新北市新店區秀山路14號","121.532775","24.9602583333333","6500600","新店區"
"231063","641-BX","2019/09/20 18:19:39","新北市新店區安華路28-1號","121.519536666667","24.960625","6500600","新店區"
"231048","KED-0819","2019/09/20 18:19:36","新北市新店區安一路一段1-1號","121.51991","24.9611883333333","6500600","新店區"
"231057","720-UM","2019/09/20 18:19:45","新北市新店區安一路一段1-1號","121.519295","24.9611783333333","6500600","新店區"
"231059","897-TW","2019/09/20 18:19:33","新北市新店區安華路28-1號","121.519713333333","24.9607383333333","6500600","新店區"
"231043","899-TW","2019/09/20 18:19:32","新北市新店區安華路28-1號","121.51938","24.9607966666667","6500600","新店區"
"231066","AKT-0513","2019/09/20 18:19:35","新北市新店區安華路28-1號","121.519635","24.96058","6500600","新店區"
"241032","269-UM","2019/09/20 18:19:33","新北市五股區凌雲路二段66號","121.438901666667","25.1062166666667","6500200","三重區"
"241033","AAC-255","2019/09/20 18:19:25","新北市三重區光復路一段47號","121.472205","25.048525","6500200","三重區"
"235056","096-UM","2019/09/20 18:19:31","新北市中和區新生街45號","121.48335","25.00299","6500300","中和區"
"235039","097-UM","2019/09/20 18:19:28","新北市中和區景平路363號","121.504498333333","24.9934433333333","6500300","中和區"
"235065","098-UM","2019/09/20 18:19:38","新北市中和區莊敬路49巷18號","121.501643333333","25.0061366666667","6500300","中和區"
"235040","150-BY","2019/09/20 18:19:36","新北市中和區中正路28號","121.502556666667","24.9937983333333","6500300","中和區"
"235058","151-BY","2019/09/20 18:19:38","新北市中和區圓通路369巷36-1號","121.490893333333","24.9844266666667","6500300","中和區"
"235038","185-VK","2019/09/20 18:19:25","新北市中和區大智街42巷36-2號","121.522893333333","24.99212","6500300","中和區"
"235049","186-VK","2019/09/20 18:19:32","新北市中和區錦和路350-1號","121.490393333333","24.9935816666667","6500300","中和區"
"235072","301-VK","2019/09/20 18:19:26","新北市中和區連城路237-1號","121.493798333333","24.9972966666667","6500300","中和區"
"235043","352-BY","2019/09/20 18:19:43","新北市中和區南山路233號","121.503588333333","24.9931816666667","6500300","中和區"
"235042","KEA-2878","2019/09/20 18:19:26","新北市中和區景平路265號","121.508205","24.9929616666667","6500300","中和區"
"235050","4979-A6","2019/09/20 18:19:24","新北市中和區捷運路61巷7號","121.508936666667","24.9894716666667","6500300","中和區"
"235069","4980-A6","2019/09/20 18:19:44","新北市中和區連城路167號","121.49553","24.9985166666667","6500300","中和區"
"235070","558-UM","2019/09/20 18:19:28","新北市中和區南山路127巷18弄42號","121.503576666667","24.9963933333333","6500300","中和區"
"235045","565-BX","2019/09/20 18:19:29","新北市中和區復興路37號","121.505215","24.989825","6500300","中和區"
"235060","KED-0823","2019/09/20 18:19:23","新北市中和區連城路378號","121.480958333333","24.99517","6500300","中和區"
"235054","640-BX","2019/09/20 18:19:26","新北市土城區延壽路77巷4弄21號","121.469021666667","24.9930566666667","6500300","中和區"
"235047","732-UM","2019/09/20 18:19:40","新北市中和區南山路252號","121.507838333333","24.98851","6500300","中和區"
"235046","733-UM","2019/09/20 18:19:32","新北市中和區錦和路350-1號","121.490511666667","24.9935566666667","6500300","中和區"
"235071","783-BX","2019/09/20 18:19:40","新北市中和區員山路36巷16-3號","121.485173333333","24.991235","6500300","中和區"
"235057","801-TS","2019/09/20 18:19:34","新北市中和區民安街67號","121.478468333333","24.9997066666667","6500300","中和區"
"235041","802-TS","2019/09/20 18:19:25","新北市中和區中正路277號","121.495375","24.9938033333333","6500300","中和區"
"235052","805-TS","2019/09/20 18:19:29","新北市中和區興南路二段80號","121.505818333333","24.984575","6500300","中和區"
"235048","896-TW","2019/09/20 18:19:41","新北市中和區中正路275號","121.495481666667","24.9937533333333","6500300","中和區"
"235053","900-TW","2019/09/20 18:19:42","新北市中和區連城路469巷79弄22號","121.484","24.993705","6500300","中和區"
"235064","911-UM","2019/09/20 18:19:38","新北市中和區圓通路141巷41號","121.498793333333","24.9946533333333","6500300","中和區"
"235051","157-BY","2019/09/20 18:19:31","新北市中和區興南路二段242巷11號","121.502685","24.9826766666667","6500300","中和區"
"220065","072-UY","2019/09/20 18:19:37","新北市板橋區華東街1-9號","121.448143333333","24.9949466666667","6500100","板橋區"
"226004","312-R5","2019/09/20 18:19:41","新北市平溪區靜安路二段76號","121.71771","25.022625","6502400","平溪區"
"235063","251-BX","2019/09/20 18:19:26","新北市中和區中正路508號","121.488611666667","24.9946233333333","6500300","中和區"
"228003","097-TW","2019/09/20 18:19:27","新北市貢寮區和美里和美街63號","121.922308333333","25.07112","6502600","貢寮區"
"228002","663-BX","2019/09/20 18:19:35","新北市貢寮區福連里福興街24-1號","121.991331666667","25.0120866666667","6502600","貢寮區"
"228001","670-TC","2019/09/20 18:19:31","新北市貢寮區真理里新港街26巷55弄2-1號","121.92723","25.05275","6502600","貢寮區"
"224010","AGQ-8101","2019/09/20 18:19:34","新北市瑞芳區崙頂路111號","121.844501666667","25.1068466666667","6501200","瑞芳區"
"224006","676-BX","2019/09/20 18:19:29","新北市瑞芳區中正路2號","121.809306666667","25.1071166666667","6501200","瑞芳區"
"224002","639-TC","2019/09/20 18:19:40","新北市瑞芳區三爪子坑路69巷34號","121.812463333333","25.1062883333333","6501200","瑞芳區"
"224007","285-BY","2019/09/20 18:19:27","新北市瑞芳區大埔路18號","121.765225","25.1021133333333","6501200","瑞芳區"
"224009","275-VK","2019/09/20 18:19:43","新北市瑞芳區祈堂路184號","121.857671666667","25.1095466666667","6501200","瑞芳區"
"224008","273-VK","2019/09/20 18:19:35","新北市瑞芳區逢甲路68號","121.810808333333","25.1083266666667","6501200","瑞芳區"
"224005","271-BY","2019/09/20 18:19:30","新北市瑞芳區建基新村1號","121.812815","25.1304316666667","6501200","瑞芳區"
"227001","642-TC","2019/09/20 18:19:31","新北市雙溪區牡丹里牡丹73號","121.851703333333","25.0593283333333","6502500","雙溪區"
"227002","400-TW","2019/09/20 18:19:28","新北市雙溪區共和里中山路2號","121.863793333333","25.0337983333333","6502500","雙溪區"
"253005","032-BX","2019/09/20 18:19:27","新北市石門區中央路22-1號","121.567855","25.2926366666667","6502200","石門區"
"253006","295-VK","2019/09/20 18:19:35","新北市石門區老梅路63號","121.545811666667","25.2892266666667","6502200","石門區"
"222001","KEA-2212","2019/09/20 18:19:43","新北市深坑區北深路二段58號","121.619051666667","25.00418","6501800","深坑區"
"208002","KEA-2872","2019/09/20 18:19:41","新北市金山區磺清路135號","121.639371666667","25.227345","6502700","金山區"
"208003","665-BX","2019/09/20 18:19:38","新北市金山區中山路73號","121.640618333333","25.2185466666667","6502700","金山區"
"251004","009-UM","2019/09/20 18:19:32","新北市淡水區民權路215巷100號","121.462653333333","25.133555","6501000","淡水區"
"251001","011-UM","2019/09/20 18:19:37","新北市淡水區自強路299號","121.46149","25.13146","6501000","淡水區"
"251002","012-UM","2019/09/20 18:19:30","新北市淡水區中正東路一段125號","121.45546","25.1593916666667","6501000","淡水區"
"251008","181-VK","2019/09/20 18:19:40","新北市淡水區水源街二段346巷1弄1號","121.464281666667","25.1754666666667","6501000","淡水區"
"251010","413-VK","2019/09/20 18:19:31","新北市淡水區淡海路199號","121.420381666667","25.1846683333333","6501000","淡水區"
"251012","441-VK","2019/09/20 18:19:40","新北市淡水區北新路二段77-5號","121.48057","25.1855566666667","6501000","淡水區"
"251005","443-VK","2019/09/20 18:19:32","新北市淡水區水源街一段122巷37號","121.447118333333","25.1704883333333","6501000","淡水區"
"251006","561-UM","2019/09/20 18:19:41","新北市淡水區新民街65號","121.438535","25.17638","6501000","淡水區"
"251011","650-BX","2019/09/20 18:19:38","新北市淡水區三空泉9-2號","121.474203333333","25.16327","6501000","淡水區"
"251003","766-UM","2019/09/20 18:19:39","新北市淡水區北新路180號","121.449478333333","25.1787466666667","6501000","淡水區"
"207003","550-UM","2019/09/20 18:19:27","新北市萬里區野柳里港西路77號","121.685791666667","25.2051683333333","6502800","萬里區"
"207004","291-VK","2019/09/20 18:19:38","新北市萬里區中幅里中福路202-1號","121.673216666667","25.1651916666667","6502800","萬里區"
"252002","178-VK","2019/09/20 18:19:36","新北市三芝區中山路二段39號","121.502903333333","25.255125","6502100","三芝區"
"252003","292-VK","2019/09/20 18:19:26","新北市三芝區錫板里南勢崗5-3號","121.479996666667","25.2625816666667","6502100","三芝區"
"208001","170-UY","2019/09/20 18:19:39","新北市金山區環金路19號","121.64119","25.2176016666667","6502700","金山區"
"237004","KEA-2597","2019/09/20 18:19:39","新北市三峽區五寮36-3號","121.372011666667","24.8676216666667","6500900","三峽區"
"237007","153-BY","2019/09/20 18:19:27","新北市三峽區中正路二段612號","121.35868","24.9056916666667","6500900","三峽區"
"237009","210-TH","2019/09/20 18:19:45","新北市三峽區中山路146號","121.364963333333","24.9362883333333","6500900","三峽區"
"237013","252-BX","2019/09/20 18:19:28","新北市三峽區永安街9巷3-9號","121.377718333333","24.9298183333333","6500900","三峽區"
"237012","275-BY","2019/09/20 18:19:36","新北市三峽區三樹路50號","121.377776666667","24.9378883333333","6500900","三峽區"
"237008","302-VK","2019/09/20 18:19:37","新北市三峽區白雞68-209號","121.390626666667","24.9084583333333","6500900","三峽區"
"237014","433-BY","2019/09/20 18:19:36","新北市三峽區復興路57號","121.373238333333","24.93696","6500900","三峽區"
"237006","5529-G3","2019/09/20 18:19:30","新北市三峽區溪東路235號","121.406638333333","24.9326333333333","6500900","三峽區"
"237011","KEA-2596","2019/09/20 18:19:38","新北市三峽區橫溪路140號","121.399206666667","24.93522","6500900","三峽區"
"237015","649-BX","2019/09/20 18:19:44","新北市三峽區竹崙路17號","121.428471666667","24.9226483333333","6500900","三峽區"
"237010","706-TV","2019/09/20 18:19:37","新北市三峽區民族街15號","121.369366666667","24.9308866666667","6500900","三峽區"
"237005","AKY-6261","2019/09/20 18:19:32","新北市三峽區秀川街26巷3號","121.371506666667","24.93431","6500900","三峽區"
"236042","KED-0685","2019/09/20 18:19:43","新北市土城區樂利街3巷2號","121.448358333333","24.9861166666667","6501300","土城區"
"236030","253-BX","2019/09/20 18:19:39","新北市土城區順風路41號","121.440736666667","24.97674","6501300","土城區"
"236026","269-VK","2019/09/20 18:19:40","新北市土城區承天路22號","121.439705","24.9633383333333","6501300","土城區"
"236014","270-VK","2019/09/20 18:19:42","新北市土城區青雲路39巷7號","121.4603","24.9873683333333","6501300","土城區"
"236039","271-VK","2019/09/20 18:19:38","新北市土城區青雲路483巷5號","121.459465","24.9739716666667","6501300","土城區"
"236069","KEA-2877","2019/09/20 18:19:28","新北市土城區永豐路202巷14號","121.466293333333","24.9835316666667","6501300","土城區"
"252001","KED-0821","2019/09/20 18:19:43","新北市三芝區中興街二段2號","121.498353333333","25.2566533333333","6502100","三芝區"
"236020","401-BY","2019/09/20 18:19:31","新北市土城區明德路一段103號","121.465531666667","24.9826583333333","6501300","土城區"
"236079","752-BX","2019/09/20 18:19:24","新北市土城區中央路三段281巷21號","121.425708333333","24.9622133333333","6501300","土城區"
"236059","912-UM","2019/09/20 18:19:45","新北市土城區中央路四段466號","121.409953333333","24.950575","6501300","土城區"
"236048","913-UM","2019/09/20 18:19:39","新北市土城區明德路一段375-3號","121.454415","24.9783616666667","6501300","土城區"
"236063","915-UM","2019/09/20 18:19:25","新北市土城區金城路三段202-1號","121.469301666667","24.98849","6501300","土城區"
"236055","AAC-216","2019/09/20 18:19:36","新北市土城區中華路二段128號","121.437643333333","24.9734133333333","6501300","土城區"
"242041","AAC-296","2019/09/20 18:19:41","新北市新莊區天祥街134號","121.41421","25.0298766666667","6500500","新莊區"
"242060","986-R7","2019/09/20 18:19:45","新北市新莊區新樹路119號","121.437205","25.0263716666667","6500500","新莊區"
"242029","615-BX","2019/09/20 18:19:41","新北市泰山區泰林路一段2-1號","121.442006666667","25.0479483333333","6500500","新莊區"
"242027","613-BX","2019/09/20 18:19:38","新北市新莊區幸福路599號","121.45325","25.04921","6500500","新莊區"
"242058","612-BX","2019/09/20 18:19:32","新北市新莊區天祥街120巷3弄9號","121.413863333333","25.030485","6500500","新莊區"
"242048","566-BX","2019/09/20 18:19:46","新北市新莊區後港一路1號","121.42397","25.0262","6500500","新莊區"
"242054","497-BY","2019/09/20 18:19:45","新北市新莊區民安西路410巷8弄1號","121.428323333333","25.009495","6500500","新莊區"
"242050","442-UM","2019/09/20 18:19:39","新北市新莊區新樹路206巷4號","121.43361","25.0205316666667","6500500","新莊區"
"242002","441-UM","2019/09/20 18:19:32","新北市新莊區大觀街4號","121.454573333333","25.0341533333333","6500500","新莊區"
"242007","440-UM","2019/09/20 18:19:28","新北市新莊區自信街1號","121.45348","25.04835","6500500","新莊區"
"242044","415-TV","2019/09/20 18:19:43","新北市新莊區天泉二街1號","121.415268333333","25.0246266666667","6500500","新莊區"
"242025","362-BY","2019/09/20 18:19:36","新北市新莊區五權一路13-3號","121.459896666667","25.0681516666667","6500500","新莊區"
"242015","132-UY","2019/09/20 18:19:40","新北市新莊區中平路184巷10弄7號","121.44547","25.0483483333333","6500500","新莊區"
"242056","172-VK","2019/09/20 18:19:31","新北市新莊區瓊林路46-9號","121.44713","25.02925","6500500","新莊區"
"242032","175-VK","2019/09/20 18:19:31","新北市新莊區新泰路255巷77號","121.443046666667","25.0393966666667","6500500","新莊區"
"242021","KED-0687","2019/09/20 18:19:29","新北市新莊區中正路245號","121.450133333333","25.035655","6500500","新莊區"
"242046","346-TH","2019/09/20 18:19:44","新北市新莊區福營路308號","121.42232","25.02737","6500500","新莊區"
"242037","348-TH","2019/09/20 18:19:36","新北市新莊區後港一路49巷3弄11號","121.425156666667","25.026705","6500500","新莊區"
"242009","349-TH","2019/09/20 18:19:25","新北市新莊區中華路二段36-1號","121.45389","25.0455233333333","6500500","新莊區"
"238015","755-BX","2019/09/20 18:19:36","新北市樹林區文化街112巷15號","121.416885","24.9901516666667","6500700","樹林區"
"238023","601-UM","2019/09/20 18:19:38","新北市樹林區三福街4-1號","121.408833333333","25.0168066666667","6500700","樹林區"
"238019","599-UM","2019/09/20 18:19:44","新北市樹林區水源街32巷30號","121.425086666667","24.9811683333333","6500700","樹林區"
"238024","5061-A6","2019/09/20 18:19:36","新北市樹林區大安路123號","121.422265","24.9976816666667","6500700","樹林區"
"238018","KEA-2217","2019/09/20 18:19:40","新北市樹林區保安街一段20巷2號","121.427601666667","24.993535","6500700","樹林區"
"238025","303-VK","2019/09/20 18:19:41","新北市樹林區保安街一段287-6號","121.418853333333","24.9973533333333","6500700","樹林區"
"238017","283-BY","2019/09/20 18:19:30","新北市樹林區保安街三段44號","121.412693333333","25.01169","6500700","樹林區"
"238014","282-BY","2019/09/20 18:19:29","新北市樹林區大安路111巷41號","121.42332","24.9975533333333","6500700","樹林區"
"238020","268-VK","2019/09/20 18:19:37","新北市樹林區三龍街92號","121.414515","25.0186633333333","6500700","樹林區"
"238026","172-UY","2019/09/20 18:19:31","新北市樹林區佳園路一段80巷3-1號","121.392745","24.9695866666667","6500700","樹林區"
"238016","169-UY","2019/09/20 18:19:34","新北市樹林區啟智街173巷10號","121.415956666667","24.9871783333333","6500700","樹林區"
"239007","AAC-297","2019/09/20 18:19:40","新北市鶯歌區育英街67號","121.347231666667","24.9522083333333","6500800","鶯歌區"
"239006","891-R6","2019/09/20 18:19:41","新北市鶯歌區鶯桃路365巷110號","121.330346666667","24.9620766666667","6500800","鶯歌區"
"239008","527-UM","2019/09/20 18:19:43","新北市鶯歌區朝陽街63巷3弄2號","121.338746666667","24.97818","6500800","鶯歌區"
"239005","526-UM","2019/09/20 18:19:27","新北市鶯歌區鶯桃路668巷23號","121.328976666667","24.9701966666667","6500800","鶯歌區"
"239001","417-VK","2019/09/20 18:19:33","新北市鶯歌區中正三路福德巷2弄26號","121.339163333333","24.940955","6500800","鶯歌區"
"239003","360-BY","2019/09/20 18:19:46","新北市鶯歌區福安街32巷44號","121.335465","24.9633916666667","6500800","鶯歌區"
"239002","359-BY","2019/09/20 18:19:36","新北市鶯歌區光明街34號","121.348391666667","24.9558966666667","6500800","鶯歌區"
"239004","193-VK","2019/09/20 18:19:36","新北市鶯歌區尖山路103-7號","121.348011666667","24.9487866666667","6500800","鶯歌區"
"221036","130-UY","2019/09/20 18:19:32","新北市汐止區大同路三段199號","121.671391666667","25.0772233333333","6501100","汐止區"
"221015","131-UY","2019/09/20 18:19:30","新北市汐止區鄉長路二段25-1號","121.66827","25.0826716666667","6501100","汐止區"
"244019","KED-0667","2019/09/20 18:19:25","新北市林口區忠孝路614號","121.377175","25.0683133333333","6501700","林口區"
"221010","269-BY","2019/09/20 18:19:27","新北市汐止區祥雲街18巷5號","121.646588333333","25.0897733333333","6501100","汐止區"
"221012","278-VK","2019/09/20 18:19:31","新北市汐止區保一街81-1號","121.674628333333","25.080235","6501100","汐止區"
"221023","279-VK","2019/09/20 18:19:35","新北市汐止區中興路201號","121.629185","25.0684583333333","6501100","汐止區"
"221032","280-BY","2019/09/20 18:19:33","新北市汐止區力行街1號","121.617403333333","25.0513516666667","6501100","汐止區"
"221029","298-VK","2019/09/20 18:19:35","新北市汐止區樟樹二路330巷76號","121.643106666667","25.0700633333333","6501100","汐止區"
"221021","299-VK","2019/09/20 18:19:38","新北市汐止區新台五路一段171號","121.654861666667","25.0630233333333","6501100","汐止區"
"221031","353-TW","2019/09/20 18:19:42","新北市汐止區中興路153號","121.631283333333","25.065985","6501100","汐止區"
"221035","622-UM","2019/09/20 18:19:34","新北市汐止區汐萬路一段115巷1號","121.654475","25.070445","6501100","汐止區"
"221025","623-UM","2019/09/20 18:19:25","新北市汐止區勤進路12巷37號","121.659036666667","25.0626483333333","6501100","汐止區"
"221038","646-BX","2019/09/20 18:19:39","新北市汐止區仁愛路207號","121.664943333333","25.0662533333333","6501100","汐止區"
"221033","647-BX","2019/09/20 18:19:39","新北市汐止區宜興街50巷2號","121.622453333333","25.0423483333333","6501100","汐止區"
"221002","707-TV","2019/09/20 18:19:33","新北市汐止區福德一路201巷27號","121.635845","25.064735","6501100","汐止區"
"221018","753-BX","2019/09/20 18:19:33","新北市汐止區茄苳路72巷4號","121.666665","25.07038","6501100","汐止區"
"220080","200-UY","2019/09/20 18:19:31","新北市板橋區華東街1-9號","121.448146666667","24.9948266666667","6500100","板橋區"
"220082","610-BX","2019/09/20 18:19:43","新北市板橋區華東街1-9號","121.44822","24.9949066666667","6500100","板橋區"
"220081","287-VK","2019/09/20 18:19:32","新北市板橋區華東街1-10號","121.44828","24.9949666666667","6500100","板橋區"
"220062","305-R5","2019/09/20 18:19:34","新北市板橋區民生路二段161巷9號","121.470296666667","25.0196516666667","6500100","板橋區"
"242011","280-VK","2019/09/20 18:19:33","新北市新莊區中港路589號","121.45105","25.0522166666667","6500500","新莊區"
"220064","AAC-253","2019/09/20 18:19:31","新北市板橋區華東街1-10號","121.44837","24.9949466666667","6500100","板橋區"
"235068","KEA-2873","2019/09/20 18:19:25","新北市中和區員山路36巷16-3號","121.48507","24.9912766666667","6500300","中和區"
"235061","KEA-2875","2019/09/20 18:19:25","新北市中和區莒光路177巷6號","121.47314","24.9991666666667","6500300","中和區"
"235062","KEA-2876","2019/09/20 18:19:13","新北市中和區中山路二段312巷55號","121.495113333333","25.0047066666667","6500300","中和區"
