"lineid","car","time","location","longitude","latitude","cityid","cityname"
"234046","148-BY","2019/09/20 18:29:31","新北市永和區福和路1號","121.525781666667","25.0095","6500400","永和區"
"234081","298-R6","2019/09/20 18:29:25","新北市永和區福和路1號","121.526003333333","25.00963","6500400","永和區"
"234086","338-UY","2019/09/20 18:29:40","新北市永和區福和路285號","121.517445","25.007385","6500400","永和區"
"234017","745-BX","2019/09/20 18:29:27","新北市永和區福和路1號","121.526396666667","25.0096733333333","6500400","永和區"
"234007","KED-0605","2019/09/20 18:29:25","新北市永和區保順路59號","121.502715","25.0115316666667","6500400","永和區"
"234011","9373-KE","2019/09/20 18:29:37","新北市永和區保福路二段156號","121.509146666667","25.0149683333333","6500400","永和區"
"249005","172-UM","2019/09/20 18:29:39","新北市八里區中華路三段145巷7號","121.392298333333","25.1332633333333","6502300","八里區"
"249001","173-UM","2019/09/20 18:29:44","新北市八里區龍米路一段221號","121.45143","25.1320183333333","6502300","八里區"
"249004","303-UY","2019/09/20 18:29:28","新北市八里區忠孝路90號","121.425968333333","25.1604366666667","6502300","八里區"
"249002","305-UY","2019/09/20 18:29:25","新北市八里區龍形三街6巷5號","121.449985","25.1323816666667","6502300","八里區"
"232011","076-UY","2019/09/20 18:29:37","新北市坪林區坪雙路一段41號","121.711706666667","24.94244","6502000","坪林區"
"244017","069-UM","2019/09/20 18:29:30","新北市林口區公園路43號","121.367336666667","25.06832","6501700","林口區"
"244007","080-UY","2019/09/20 18:29:30","新北市林口區湖北里52-2號","121.384756666667","25.1037133333333","6501700","林口區"
"244013","KEA-2802","2019/09/20 18:29:29","新北市林口區中正路510號","121.381981666667","25.0771183333333","6501700","林口區"
"244023","483-VK","2019/09/20 18:29:27","新北市林口區仁愛路二段50號","121.384823333333","25.0758483333333","6501700","林口區"
"244009","656-BX","2019/09/20 18:29:27","新北市林口區林口路92-1號","121.388908333333","25.0810116666667","6501700","林口區"
"244011","701-TV","2019/09/20 18:29:23","新北市林口區興林路17巷5弄2號","121.390551666667","25.0770216666667","6501700","林口區"
"244025","837-TS","2019/09/20 18:29:33","新北市林口區南勢六街71-1號","121.35518","25.0721416666667","6501700","林口區"
"244021","838-TS","2019/09/20 18:29:36","新北市林口區自強二街46號","121.399078333333","25.077155","6501700","林口區"
"243015","680-BX","2019/09/20 18:29:38","新北市泰山區犁頭窠3-1號","121.422208333333","25.0605683333333","6501600","泰山區"
"222003","436-BY","2019/09/20 18:29:34","新北市深坑區翠谷街28號","121.62667","25.0091183333333","6501800","深坑區"
"222002","659-BX","2019/09/20 18:29:41","新北市深坑區雲鄉路153號","121.621573333333","24.99836","6501800","深坑區"
"231061","002-UM","2019/09/20 18:29:28","新北市新店區安華路28-1號","121.519935","24.9607933333333","6500600","新店區"
"231044","046-UY","2019/09/20 18:29:35","新北市新店區安華路28-1號","121.519431666667","24.9608666666667","6500600","新店區"
"231041","047-UY","2019/09/20 18:29:40","新北市新店區安華路28-1號","121.519221666667","24.960855","6500600","新店區"
"231060","106-UY","2019/09/20 18:29:29","新北市新店區安華路28-1號","121.519661666667","24.9607633333333","6500600","新店區"
"231051","107-UY","2019/09/20 18:29:41","新北市新店區安康路一段319號","121.522","24.963665","6500600","新店區"
"231065","110-UY","2019/09/20 18:29:40","新北市新店區安一路一段1-1號","121.519326666667","24.96133","6500600","新店區"
"231062","256-BX","2019/09/20 18:29:28","新北市新店區安一路一段1-1號","121.519595","24.9611466666667","6500600","新店區"
"231054","260-TV","2019/09/20 18:29:43","新北市新店區安一路一段1-1號","121.519305","24.9612433333333","6500600","新店區"
"231042","268-BY","2019/09/20 18:29:32","新北市新店區光明街139號","121.539345","24.9621166666667","6500600","新店區"
"231064","278-BY","2019/09/20 18:29:46","新北市新店區安一路一段1-1號","121.519638333333","24.9611033333333","6500600","新店區"
"231050","AAD-862","2019/09/20 18:29:25","新北市新店區安一路一段1-1號","121.51992","24.961195","6500600","新店區"
"231045","355-BY","2019/09/20 18:29:32","新北市新店區安華路28-1號","121.51923","24.960805","6500600","新店區"
"231058","3713-VJ","2019/09/20 18:29:23","新北市新店區環河路19巷20號","121.537536666667","24.9603183333333","6500600","新店區"
"231055","4716-K9","2019/09/20 18:29:40","新北市新店區中正路128巷5號","121.542296666667","24.9716683333333","6500600","新店區"
"231056","4715-K9","2019/09/20 18:29:35","新北市新店區二十張路105巷16號","121.536855","24.9790133333333","6500600","新店區"
"231053","513-UM","2019/09/20 18:29:38","新北市新店區北宜路一段254號","121.545486666667","24.9528216666667","6500600","新店區"
"231063","641-BX","2019/09/20 18:29:39","新北市新店區安華路28-1號","121.519653333333","24.9605533333333","6500600","新店區"
"231048","KED-0819","2019/09/20 18:29:36","新北市新店區安華路28-1號","121.52003","24.9610233333333","6500600","新店區"
"231057","720-UM","2019/09/20 18:29:45","新北市新店區安一路一段1-1號","121.519275","24.961195","6500600","新店區"
"231059","897-TW","2019/09/20 18:29:33","新北市新店區安華路28-1號","121.519791666667","24.9607166666667","6500600","新店區"
"231040","898-TW","2019/09/20 18:29:27","新北市新店區安一路一段1-1號","121.519496666667","24.9611","6500600","新店區"
"231043","899-TW","2019/09/20 18:29:32","新北市新店區安華路28-1號","121.519355","24.96077","6500600","新店區"
"231066","AKT-0513","2019/09/20 18:29:35","新北市新店區安華路28-1號","121.519538333333","24.9606983333333","6500600","新店區"
"241032","269-UM","2019/09/20 18:29:33","新北市三重區光復路二段178-1號","121.471903333333","25.062155","6500200","三重區"
"235056","096-UM","2019/09/20 18:29:31","新北市中和區員山路611巷1號","121.477871666667","25.0113333333333","6500300","中和區"
"235039","097-UM","2019/09/20 18:29:28","新北市中和區安平路176號","121.512843333333","24.9988483333333","6500300","中和區"
"235065","098-UM","2019/09/20 18:29:38","新北市中和區中山路二段64巷22號","121.503011666667","25.0059383333333","6500300","中和區"
"235040","150-BY","2019/09/20 18:29:36","新北市中和區安平路59號","121.509506666667","24.9951733333333","6500300","中和區"
"235058","151-BY","2019/09/20 18:29:37","新北市中和區圓通路316號","121.486481666667","24.9877483333333","6500300","中和區"
"235038","185-VK","2019/09/20 18:29:45","新北市中和區自強路54號","121.52013","24.99472","6500300","中和區"
"235049","186-VK","2019/09/20 18:29:31","新北市中和區景安路163號","121.505306666667","24.9946383333333","6500300","中和區"
"235072","301-VK","2019/09/20 18:29:26","新北市中和區連城路8號","121.499073333333","25.0023233333333","6500300","中和區"
"235043","352-BY","2019/09/20 18:29:24","新北市中和區景平路263號","121.508351666667","24.9927666666667","6500300","中和區"
"235042","KEA-2878","2019/09/20 18:29:26","新北市中和區大仁街20巷25弄39號","121.51946","24.993695","6500300","中和區"
"235050","4979-A6","2019/09/20 18:29:44","新北市中和區景新街410巷18弄24號","121.511906666667","24.990095","6500300","中和區"
"235069","4980-A6","2019/09/20 18:29:44","新北市中和區連城路123號","121.496161666667","24.9993633333333","6500300","中和區"
"235070","558-UM","2019/09/20 18:29:28","新北市中和區景平路566號","121.501893333333","24.9953966666667","6500300","中和區"
"235045","565-BX","2019/09/20 18:29:29","新北市中和區復興路2號","121.506305","24.9898033333333","6500300","中和區"
"235060","KED-0823","2019/09/20 18:29:43","新北市中和區員山路483號","121.47998","25.0053966666667","6500300","中和區"
"235054","640-BX","2019/09/20 18:29:26","新北市中和區民享街95-5號","121.474995","25.0000133333333","6500300","中和區"
"235047","732-UM","2019/09/20 18:29:40","新北市中和區南山路523-1號","121.507915","24.98727","6500300","中和區"
"235046","733-UM","2019/09/20 18:29:32","新北市中和區興南路一段77號","121.510021666667","24.9891316666667","6500300","中和區"
"235071","783-BX","2019/09/20 18:29:40","新北市中和區員山路36巷16-3號","121.48516","24.991245","6500300","中和區"
"235057","801-TS","2019/09/20 18:29:34","新北市中和區員山路327巷48號","121.48029","25.00179","6500300","中和區"
"235041","802-TS","2019/09/20 18:29:25","新北市中和區景安路6號","121.507751666667","24.99896","6500300","中和區"
"235052","805-TS","2019/09/20 18:29:29","新北市中和區興南路二段124號","121.504383333333","24.9836483333333","6500300","中和區"
"235048","896-TW","2019/09/20 18:29:41","新北市中和區中正路19號","121.502951666667","24.99335","6500300","中和區"
"235053","900-TW","2019/09/20 18:29:42","新北市中和區連城路506號","121.477433333333","24.9925","6500300","中和區"
"235064","911-UM","2019/09/20 18:29:38","新北市中和區連城路109巷38號","121.497158333333","24.9979533333333","6500300","中和區"
"235051","157-BY","2019/09/20 18:29:31","新北市中和區興南路二段114巷10弄10號","121.503901666667","24.9847466666667","6500300","中和區"
"235059","AAC-215","2019/09/20 18:29:39","新北市中和區員山路36巷16-3號","121.484838333333","24.991125","6500300","中和區"
"220065","072-UY","2019/09/20 18:29:37","新北市板橋區南雅南路二段11-4號","121.454046666667","25.0024683333333","6500100","板橋區"
"220069","AAD-861","2019/09/20 18:29:34","新北市板橋區華東街1-10號","121.448323333333","24.9950966666667","6500100","板橋區"
"226004","312-R5","2019/09/20 18:29:41","新北市平溪區石底里公園街18-3號","121.73324","25.025885","6502400","平溪區"
"235063","251-BX","2019/09/20 18:29:46","新北市中和區連城路389巷10弄4號","121.486203333333","24.9957383333333","6500300","中和區"
"228003","097-TW","2019/09/20 18:29:27","新北市貢寮區和美里和美街38號","121.912193333333","25.0889616666667","6502600","貢寮區"
"228002","663-BX","2019/09/20 18:29:35","新北市貢寮區福連里福連街15號","121.988061666667","25.0133466666667","6502600","貢寮區"
"228001","670-TC","2019/09/20 18:29:31","新北市貢寮區仁理村仁義街4號","121.923688333333","25.0520983333333","6502600","貢寮區"
"224010","AGQ-8101","2019/09/20 18:29:34","新北市瑞芳區基山街31巷24號","121.846315","25.1104066666667","6501200","瑞芳區"
"224006","676-BX","2019/09/20 18:29:29","新北市瑞芳區明燈路二段66號","121.809313333333","25.10742","6501200","瑞芳區"
"224002","639-TC","2019/09/20 18:29:40","新北市瑞芳區三爪子坑路25號","121.813483333333","25.1076016666667","6501200","瑞芳區"
"224007","285-BY","2019/09/20 18:29:35","新北市瑞芳區大埔路吉慶公園城30號","121.76455","25.0997316666667","6501200","瑞芳區"
"224009","275-VK","2019/09/20 18:29:43","新北市瑞芳區五號路308號","121.856845","25.1114566666667","6501200","瑞芳區"
"224008","273-VK","2019/09/20 18:29:34","新北市瑞芳區岳王路1巷29號","121.805945","25.1104083333333","6501200","瑞芳區"
"224005","271-BY","2019/09/20 18:29:46","新北市瑞芳區建基路一段4號","121.820576666667","25.1208316666667","6501200","瑞芳區"
"227001","642-TC","2019/09/20 18:29:31","新北市雙溪區牡丹里牡丹135號","121.851085","25.05905","6502500","雙溪區"
"227002","400-TW","2019/09/20 18:29:29","新北市雙溪區魚行里坤溪35號","121.87037","25.030785","6502500","雙溪區"
"253005","032-BX","2019/09/20 18:29:27","新北市石門區老崩山10-6號","121.552606666667","25.29104","6502200","石門區"
"253006","295-VK","2019/09/20 18:29:35","新北市石門區公地16號","121.545748333333","25.2902316666667","6502200","石門區"
"222001","KEA-2212","2019/09/20 18:29:43","新北市深坑區北深路一段175號","121.63305","25.0109033333333","6501800","深坑區"
"208002","KEA-2872","2019/09/20 18:29:41","新北市金山區忠孝一路5號","121.639328333333","25.21908","6502700","金山區"
"208003","665-BX","2019/09/20 18:29:43","新北市金山區中山路269號","121.636491666667","25.2229066666667","6502700","金山區"
"251004","009-UM","2019/09/20 18:29:32","新北市淡水區民族路31巷29號","121.462293333333","25.1364733333333","6501000","淡水區"
"251001","011-UM","2019/09/20 18:29:37","新北市淡水區自強路381號","121.464728333333","25.1335316666667","6501000","淡水區"
"251002","012-UM","2019/09/20 18:29:30","新北市淡水區竿蓁二街65號","121.454868333333","25.16333","6501000","淡水區"
"251008","181-VK","2019/09/20 18:29:40","新北市淡水區北投子87-2號","121.46745","25.1779266666667","6501000","淡水區"
"251010","413-VK","2019/09/20 18:29:31","新北市淡水區沙崙路181巷1號","121.424113333333","25.1842083333333","6501000","淡水區"
"251012","441-VK","2019/09/20 18:29:40","新北市淡水區北新路一段129-1號","121.457086666667","25.1819733333333","6501000","淡水區"
"251005","443-VK","2019/09/20 18:29:32","新北市淡水區中正東路35號","121.445926666667","25.1683433333333","6501000","淡水區"
"251006","561-UM","2019/09/20 18:29:41","新北市淡水區新生街51巷35號","121.440738333333","25.1759733333333","6501000","淡水區"
"251011","650-BX","2019/09/20 18:29:38","新北市淡水區坪頂路52巷16號","121.457728333333","25.1624566666667","6501000","淡水區"
"251003","766-UM","2019/09/20 18:29:39","新北市淡水區北新路169巷14號","121.449703333333","25.180245","6501000","淡水區"
"207003","550-UM","2019/09/20 18:29:27","新北市萬里區野柳里港東路14號","121.687251666667","25.2036316666667","6502800","萬里區"
"207004","291-VK","2019/09/20 18:29:43","新北市萬里區萬里里瑪鋉路12-4號","121.687791666667","25.175675","6502800","萬里區"
"252002","178-VK","2019/09/20 18:29:36","新北市三芝區中山路二段37號","121.502865","25.2551366666667","6502100","三芝區"
"252003","292-VK","2019/09/20 18:29:26","新北市三芝區後厝里北勢子45-33號","121.470468333333","25.2515","6502100","三芝區"
"208001","170-UY","2019/09/20 18:29:39","新北市金山區文化二路4號","121.63686","25.224615","6502700","金山區"
"237004","KEA-2597","2019/09/20 18:29:39","新北市三峽區五寮36-7號","121.372905","24.8694466666667","6500900","三峽區"
"237007","153-BY","2019/09/20 18:29:27","新北市三峽區中正路三段170巷20號","121.352571666667","24.9041533333333","6500900","三峽區"
"237009","210-TH","2019/09/20 18:29:25","新北市三峽區大同路253號","121.366631666667","24.9259983333333","6500900","三峽區"
"237013","252-BX","2019/09/20 18:29:28","新北市三峽區光明路69巷25號","121.376556666667","24.9291233333333","6500900","三峽區"
"237012","275-BY","2019/09/20 18:29:36","新北市三峽區三樹路250號","121.379331666667","24.9431883333333","6500900","三峽區"
"237008","302-VK","2019/09/20 18:29:37","新北市三峽區白雞81-1號","121.402958333333","24.90947","6500900","三峽區"
"237014","433-BY","2019/09/20 18:29:36","新北市三峽區信義街2號","121.370721666667","24.9360583333333","6500900","三峽區"
"237006","5529-G3","2019/09/20 18:29:38","新北市三峽區溪東路371巷2弄1號","121.41208","24.9297416666667","6500900","三峽區"
"237011","KEA-2596","2019/09/20 18:29:37","新北市三峽區溪東路218巷24弄2號","121.406855","24.930435","6500900","三峽區"
"237015","649-BX","2019/09/20 18:29:44","新北市三峽區竹崙路116號","121.433886666667","24.91091","6500900","三峽區"
"237010","706-TV","2019/09/20 18:29:37","新北市三峽區復興路485號","121.361308333333","24.9384316666667","6500900","三峽區"
"237005","AKY-6261","2019/09/20 18:29:32","新北市三峽區民族街5巷68號","121.369936666667","24.932695","6500900","三峽區"
"236042","KED-0685","2019/09/20 18:29:43","新北市土城區學成路91巷10號","121.450646666667","24.9880983333333","6501300","土城區"
"236030","253-BX","2019/09/20 18:29:39","新北市土城區水源街81巷6號","121.439481666667","24.9762883333333","6501300","土城區"
"236026","269-VK","2019/09/20 18:29:40","新北市土城區南天母路137-2號","121.447676666667","24.95399","6501300","土城區"
"236014","270-VK","2019/09/20 18:29:42","新北市土城區青雲路39巷7號","121.460291666667","24.987365","6501300","土城區"
"236039","271-VK","2019/09/20 18:29:34","新北市土城區青雲路449號","121.458728333333","24.975205","6501300","土城區"
"236069","KEA-2877","2019/09/20 18:29:44","新北市土城區永豐路255巷38號","121.475715","24.972825","6501300","土城區"
"252001","KED-0821","2019/09/20 18:29:43","新北市三芝區中興街二段6號","121.498483333333","25.2564466666667","6502100","三芝區"
"236020","401-BY","2019/09/20 18:29:31","新北市土城區永豐路202巷14號","121.466268333333","24.9834433333333","6501300","土城區"
"236079","752-BX","2019/09/20 18:29:44","新北市土城區大暖路61-2號","121.422106666667","24.9581516666667","6501300","土城區"
"236059","912-UM","2019/09/20 18:29:45","新北市土城區中央路四段200號","121.416101666667","24.9575583333333","6501300","土城區"
"236048","913-UM","2019/09/20 18:29:37","新北市土城區青雲路369號","121.458896666667","24.9763883333333","6501300","土城區"
"236063","915-UM","2019/09/20 18:29:25","新北市土城區延壽路118-2號","121.469113333333","24.99404","6501300","土城區"
"236055","AAC-216","2019/09/20 18:29:36","新北市土城區中華路一段245號","121.441018333333","24.9818","6501300","土城區"
"242041","AAC-296","2019/09/20 18:29:40","新北市新莊區天祥街80號","121.415651666667","25.0293466666667","6500500","新莊區"
"242060","986-R7","2019/09/20 18:29:43","新北市新莊區民安路393號","121.432306666667","25.0229766666667","6500500","新莊區"
"242027","613-BX","2019/09/20 18:29:38","新北市新莊區幸福路815號","121.445581666667","25.0489616666667","6500500","新莊區"
"242058","612-BX","2019/09/20 18:29:32","新北市新莊區新北大道七段758號","121.412671666667","25.0254616666667","6500500","新莊區"
"242054","497-BY","2019/09/20 18:29:25","新北市新莊區大安路10巷3號","121.430986666667","25.0063883333333","6500500","新莊區"
"242002","441-UM","2019/09/20 18:29:32","新北市新莊區瓊林路38-1號","121.448665","25.0308583333333","6500500","新莊區"
"242044","415-TV","2019/09/20 18:29:43","新北市新莊區中山路三段656號","121.413333333333","25.0242983333333","6500500","新莊區"
"242025","362-BY","2019/09/20 18:29:36","新北市新莊區五權一路12巷9弄16號","121.457855","25.06497","6500500","新莊區"
"242015","132-UY","2019/09/20 18:29:40","新北市泰山區磚雅厝3號","121.442091666667","25.0416383333333","6500500","新莊區"
"242056","172-VK","2019/09/20 18:29:31","新北市新莊區瓊林路172-7號","121.440943333333","25.0230633333333","6500500","新莊區"
"242021","KED-0687","2019/09/20 18:29:29","新北市新莊區新泰路357巷2-2號","121.441988333333","25.0412466666667","6500500","新莊區"
"242046","346-TH","2019/09/20 18:29:24","新北市新莊區中正路829巷5號","121.420965","25.0276666666667","6500500","新莊區"
"238015","755-BX","2019/09/20 18:29:36","新北市樹林區大安路515號","121.414221666667","24.98619","6500700","樹林區"
"238023","601-UM","2019/09/20 18:29:27","新北市樹林區三福街114號","121.406426666667","25.01626","6500700","樹林區"
"238019","599-UM","2019/09/20 18:29:44","新北市樹林區國凱街108號","121.422205","24.979775","6500700","樹林區"
"238024","5061-A6","2019/09/20 18:29:36","新北市樹林區育英街1號","121.422693333333","24.98905","6500700","樹林區"
"238018","KEA-2217","2019/09/20 18:29:33","新北市樹林區樹新路95號","121.42798","24.995445","6500700","樹林區"
"238017","283-BY","2019/09/20 18:29:30","新北市樹林區光榮街9號","121.41283","25.0039616666667","6500700","樹林區"
"238014","282-BY","2019/09/20 18:29:29","新北市樹林區大安路111巷41號","121.42331","24.9975516666667","6500700","樹林區"
"238020","268-VK","2019/09/20 18:29:37","新北市樹林區三龍街28-3號","121.411488333333","25.017895","6500700","樹林區"
"238026","172-UY","2019/09/20 18:29:31","新北市樹林區佳園路一段75巷184號","121.396435","24.9702933333333","6500700","樹林區"
"238016","169-UY","2019/09/20 18:29:34","新北市樹林區中山路二段78號","121.415151666667","24.9839816666667","6500700","樹林區"
"239007","AAC-297","2019/09/20 18:29:40","新北市鶯歌區重慶街108號","121.347956666667","24.9523716666667","6500800","鶯歌區"
"239006","891-R6","2019/09/20 18:29:41","新北市鶯歌區德昌街7-1號","121.333663333333","24.9604833333333","6500800","鶯歌區"
"239005","526-UM","2019/09/20 18:29:27","新北市鶯歌區鳳吉二街124號","121.328003333333","24.9745816666667","6500800","鶯歌區"
"239001","417-VK","2019/09/20 18:29:33","新北市鶯歌區國中街197號","121.338205","24.9391766666667","6500800","鶯歌區"
"239003","360-BY","2019/09/20 18:29:26","新北市鶯歌區福安街58號","121.335568333333","24.9652083333333","6500800","鶯歌區"
"239002","359-BY","2019/09/20 18:29:36","新北市鶯歌區國華路31號","121.34296","24.9556816666667","6500800","鶯歌區"
"239004","193-VK","2019/09/20 18:29:36","新北市鶯歌區尖山路168巷9號","121.344941666667","24.9483633333333","6500800","鶯歌區"
"221036","130-UY","2019/09/20 18:29:32","新北市汐止區大同路三段143號","121.669355","25.0777316666667","6501100","汐止區"
"221015","131-UY","2019/09/20 18:29:28","新北市汐止區鄉長路二段23巷5號","121.667348333333","25.082575","6501100","汐止區"
"244019","KED-0667","2019/09/20 18:29:25","新北市林口區麗園二街33巷2號","121.380283333333","25.0693333333333","6501700","林口區"
"221010","269-BY","2019/09/20 18:29:27","新北市汐止區汐萬路35號","121.64412","25.091345","6501100","汐止區"
"221012","278-VK","2019/09/20 18:29:32","新北市汐止區保長路35巷11號","121.673098333333","25.07991","6501100","汐止區"
"221023","279-VK","2019/09/20 18:29:35","新北市汐止區康寧街474巷7-1號","121.632333333333","25.0679733333333","6501100","汐止區"
"221032","280-BY","2019/09/20 18:29:38","新北市汐止區民權街二段97巷4弄9號","121.618823333333","25.0471083333333","6501100","汐止區"
"221027","281-BY","2019/09/20 18:29:44","新北市汐止區和平街75號","121.661381666667","25.0706933333333","6501100","汐止區"
"221029","298-VK","2019/09/20 18:29:35","新北市汐止區樟樹二路330巷76號","121.643095","25.0700533333333","6501100","汐止區"
"221021","299-VK","2019/09/20 18:29:38","新北市汐止區新台五路一段151號","121.653661666667","25.0622583333333","6501100","汐止區"
"221031","353-TW","2019/09/20 18:29:42","新北市汐止區光復街8巷21號","121.638248333333","25.0575166666667","6501100","汐止區"
"221035","622-UM","2019/09/20 18:29:34","新北市汐止區大同路二段209號","121.652818333333","25.0646616666667","6501100","汐止區"
"221025","623-UM","2019/09/20 18:29:25","新北市汐止區仁愛路121巷1號","121.662878333333","25.0638616666667","6501100","汐止區"
"221038","646-BX","2019/09/20 18:29:39","新北市汐止區忠孝東路236號","121.66249","25.0669983333333","6501100","汐止區"
"221033","647-BX","2019/09/20 18:29:39","新北市汐止區宜興街22號","121.621486666667","25.041655","6501100","汐止區"
"221002","707-TV","2019/09/20 18:29:33","新北市汐止區福德一路153號","121.636548333333","25.0666016666667","6501100","汐止區"
"221018","753-BX","2019/09/20 18:29:33","新北市汐止區茄苳路114號","121.667861666667","25.0700633333333","6501100","汐止區"
"220079","145-BY","2019/09/20 18:29:45","新北市板橋區華東街1-10號","121.448325","24.9951083333333","6500100","板橋區"
"220080","200-UY","2019/09/20 18:29:31","新北市板橋區華東街1-9號","121.44814","24.994855","6500100","板橋區"
"220082","610-BX","2019/09/20 18:29:43","新北市板橋區華東街1-9號","121.448251666667","24.994915","6500100","板橋區"
"220056","276-BY","2019/09/20 18:29:32","新北市板橋區四川路二段130巷25弄10號","121.448911666667","24.9946183333333","6500100","板橋區"
"220071","283-VK","2019/09/20 18:29:27","新北市板橋區華東街1-9號","121.448011666667","24.994935","6500100","板橋區"
"220081","287-VK","2019/09/20 18:29:32","新北市板橋區華東街1-10號","121.448311666667","24.9949916666667","6500100","板橋區"
"220084","296-UM","2019/09/20 18:29:33","新北市板橋區華東街1-9號","121.448143333333","24.9949533333333","6500100","板橋區"
"220062","305-R5","2019/09/20 18:29:34","新北市板橋區民生路二段161巷9號","121.47029","25.0196033333333","6500100","板橋區"
"242011","280-VK","2019/09/20 18:29:33","新北市新莊區中榮街47號","121.44938","25.05271","6500500","新莊區"
"220035","560-BX","2019/09/20 18:29:29","新北市板橋區南雅南路二段94號","121.453513333333","25.0013766666667","6500100","板橋區"
"220057","686-BX","2019/09/20 18:29:41","新北市板橋區南雅南路二段144巷2號","121.451445","24.9962533333333","6500100","板橋區"
"220055","827-TW","2019/09/20 18:29:34","新北市板橋區四川路二段140巷18號","121.449366666667","24.9933483333333","6500100","板橋區"
"220073","985-R7","2019/09/20 18:29:31","新北市板橋區四川路二段140巷16弄28號","121.448706666667","24.9944416666667","6500100","板橋區"
"220064","AAC-253","2019/09/20 18:29:31","新北市板橋區華東街262號","121.452651666667","25.0013033333333","6500100","板橋區"
"235068","KEA-2873","2019/09/20 18:29:25","新北市中和區錦和路201號","121.490926666667","24.9903666666667","6500300","中和區"
"235061","KEA-2875","2019/09/20 18:29:25","新北市中和區民享街91-12號","121.474756666667","25.00078","6500300","中和區"
"235062","KEA-2876","2019/09/20 18:29:43","新北市中和區中山路二段312巷8號","121.495661666667","25.002865","6500300","中和區"
