"lineid","car","time","location","longitude","latitude","cityid","cityname"
"234046","148-BY","2019/09/20 18:59:31","新北市永和區得和路373巷31弄9號","121.524646666667","25.0006916666667","6500400","永和區"
"234081","298-R6","2019/09/20 18:59:25","新北市永和區國中路200號","121.522193333333","25.0061933333333","6500400","永和區"
"234038","336-UY","2019/09/20 18:59:25","新北市永和區成功路二段207號","121.526536666667","24.995915","6500400","永和區"
"234064","337-UY","2019/09/20 18:59:28","新北市永和區秀朗路一段146號","121.5182","25.0034916666667","6500400","永和區"
"234086","338-UY","2019/09/20 18:59:40","新北市永和區永利路20號","121.51807","25.0057866666667","6500400","永和區"
"234070","552-UM","2019/09/20 18:59:29","新北市永和區竹林路96巷4號","121.519241666667","25.0121016666667","6500400","永和區"
"234017","745-BX","2019/09/20 18:59:27","新北市永和區永和路二段299號","121.516036666667","25.01612","6500400","永和區"
"234030","746-BX","2019/09/20 18:59:29","新北市永和區四維街42號","121.525343333333","24.9981566666667","6500400","永和區"
"234054","KEA-2590","2019/09/20 18:59:42","新北市永和區竹林路66巷5號","121.518246666667","25.0133","6500400","永和區"
"234007","KED-0605","2019/09/20 18:59:44","新北市永和區中山路一段62號","121.512826666667","25.01079","6500400","永和區"
"234013","KEA-2591","2019/09/20 18:59:43","新北市永和區信義路17巷20號","121.513276666667","25.0112183333333","6500400","永和區"
"234061","AAD-866","2019/09/20 18:59:44","新北市永和區福和路307號","121.516228333333","25.0070933333333","6500400","永和區"
"234042","862-TW","2019/09/20 18:59:35","新北市永和區永貞路306號","121.511923333333","25.00488","6500400","永和區"
"234050","863-TW","2019/09/20 18:59:39","新北市永和區文化路151號","121.510656666667","25.0162233333333","6500400","永和區"
"234011","9373-KE","2019/09/20 18:59:37","新北市永和區文化路146號","121.51273","25.0153016666667","6500400","永和區"
"249005","172-UM","2019/09/20 18:59:38","新北市八里區長道坑11號","121.395225","25.1229","6502300","八里區"
"249001","173-UM","2019/09/20 18:59:30","新北市八里區龍米路一段346號","121.451458333333","25.130815","6502300","八里區"
"234023","9380-KE","2019/09/20 18:59:39","新北市永和區竹林路75巷33弄21號","121.520818333333","25.0144466666667","6500400","永和區"
"234077","969-R7","2019/09/20 18:59:30","新北市永和區智光街30號","121.517838333333","24.9988433333333","6500400","永和區"
"234067","AAC-212","2019/09/20 18:59:39","新北市永和區自由街60號","121.513701666667","25.00585","6500400","永和區"
"232011","076-UY","2019/09/20 18:59:36","新北市坪林區水聳淒坑19-2號","121.712036666667","24.934505","6502000","坪林區"
"244017","069-UM","2019/09/20 18:59:30","新北市林口區文化二路一段20巷9號","121.365213333333","25.0671416666667","6501700","林口區"
"244013","KEA-2802","2019/09/20 18:59:29","新北市林口區麗園一街2巷2號","121.376078333333","25.0718683333333","6501700","林口區"
"244023","483-VK","2019/09/20 18:59:27","新北市林口區民權路12巷5號","121.371668333333","25.0798683333333","6501700","林口區"
"244009","656-BX","2019/09/20 18:59:27","新北市林口區林口路62號","121.390285","25.0791416666667","6501700","林口區"
"244011","701-TV","2019/09/20 18:59:23","新北市林口區中正路318號","121.387853333333","25.0777533333333","6501700","林口區"
"244025","837-TS","2019/09/20 18:59:33","新北市林口區南勢街192巷11號","121.361121666667","25.075155","6501700","林口區"
"243012","AAD-798","2019/09/20 18:59:41","新北市泰山區泰林路二段73巷31號","121.434385","25.0578266666667","6501600","泰山區"
"243010","297-R6","2019/09/20 18:59:29","新北市泰山區辭修路24號","121.42906","25.0581733333333","6501600","泰山區"
"243014","KEA-2801","2019/09/20 18:59:44","新北市泰山區泰林路二段595號","121.421666666667","25.063525","6501600","泰山區"
"243011","KEA-2216","2019/09/20 18:59:32","新北市泰山區明志路二段228號","121.427221666667","25.048305","6501600","泰山區"
"243015","680-BX","2019/09/20 18:59:38","新北市泰山區美寧街48號","121.43045","25.064395","6501600","泰山區"
"222003","436-BY","2019/09/20 18:59:34","新北市深坑區深南路88巷1號","121.621436666667","25.010815","6501800","深坑區"
"222002","659-BX","2019/09/20 18:59:41","新北市深坑區文山路一段31巷2號","121.629883333333","25.0033416666667","6501800","深坑區"
"231061","002-UM","2019/09/20 18:59:28","新北市新店區安華路28-1號","121.519675","24.9607333333333","6500600","新店區"
"231044","046-UY","2019/09/20 18:59:35","新北市新店區寶中路72號","121.54782","24.9805933333333","6500600","新店區"
"231041","047-UY","2019/09/20 18:59:40","新北市新店區安康路一段3-1號","121.53454","24.9607283333333","6500600","新店區"
"231060","106-UY","2019/09/20 18:59:29","新北市新店區安華路30巷1號","121.51901","24.9592","6500600","新店區"
"231051","107-UY","2019/09/20 18:58:56","新北市新店區三民路189號","121.535328333333","24.9754816666667","6500600","新店區"
"231049","108-UY","2019/09/20 18:59:42","新北市新店區二十張路143-1號","121.53515","24.97883","6500600","新店區"
"231065","110-UY","2019/09/20 18:59:40","新北市新店區安祥路147巷58號","121.47615","24.956365","6500600","新店區"
"231062","256-BX","2019/09/20 18:59:28","新北市新店區安康路二段350-1號","121.502803333333","24.9576233333333","6500600","新店區"
"231054","260-TV","2019/09/20 18:59:43","新北市新店區光明街1-1號","121.538006666667","24.959145","6500600","新店區"
"231042","268-BY","2019/09/20 18:59:32","新北市新店區中興路一段289號","121.545591666667","24.9687566666667","6500600","新店區"
"231064","278-BY","2019/09/20 18:59:26","新北市新店區安華路8號","121.519835","24.9623333333333","6500600","新店區"
"231050","AAD-862","2019/09/20 18:59:45","新北市新店區新烏路一段9-1號","121.547198333333","24.9515066666667","6500600","新店區"
"231045","355-BY","2019/09/20 18:59:32","新北市新店區秀山路66號","121.530841666667","24.9609816666667","6500600","新店區"
"231058","3713-VJ","2019/09/20 18:59:23","新北市新店區中興路一段139號","121.542028333333","24.963645","6500600","新店區"
"231055","4716-K9","2019/09/20 18:59:39","新北市新店區新生街11號","121.540026666667","24.9661783333333","6500600","新店區"
"231056","4715-K9","2019/09/20 18:59:43","新北市新店區二十張路46巷37弄18號","121.53606","24.981725","6500600","新店區"
"231067","4772-VM","2019/09/20 18:59:33","新北市新店區安康路一段76巷18-1號","121.528541666667","24.962885","6500600","新店區"
"231053","513-UM","2019/09/20 18:59:38","新北市新店區櫻花街55巷18號","121.548998333333","24.9245416666667","6500600","新店區"
"231063","641-BX","2019/09/20 18:59:39","新北市新店區安華路3號","121.519038333333","24.9592916666667","6500600","新店區"
"231048","KED-0819","2019/09/20 18:59:36","新北市新店區德正街42號","121.544308333333","24.97152","6500600","新店區"
"231046","719-UM","2019/09/20 18:59:36","新北市新店區直潭二街23號","121.535525","24.942085","6500600","新店區"
"231057","720-UM","2019/09/20 18:59:45","新北市新店區百齡一路12號","121.553036666667","24.9324983333333","6500600","新店區"
"231059","897-TW","2019/09/20 18:59:33","新北市新店區安華路28-1號","121.519606666667","24.96083","6500600","新店區"
"231040","898-TW","2019/09/20 18:59:27","新北市新店區中央路45號","121.532868333333","24.97758","6500600","新店區"
"231043","899-TW","2019/09/20 18:59:32","新北市新店區北新路一段140號","121.542413333333","24.9704283333333","6500600","新店區"
"231066","AKT-0513","2019/09/20 18:59:35","新北市新店區安豐路22巷4號","121.501565","24.956115","6500600","新店區"
"235066","003-UY","2019/09/20 18:59:37","新北市中和區水源路6巷6號","121.503495","25.00341","6500300","中和區"
"235056","096-UM","2019/09/20 18:59:31","新北市板橋區三民路二段204-3號","121.478913333333","25.0123783333333","6500300","中和區"
"235039","097-UM","2019/09/20 18:59:28","新北市中和區大智街57號","121.52114","24.992085","6500300","中和區"
"235065","098-UM","2019/09/20 18:59:38","新北市中和區福祥路131號","121.498503333333","25.0071933333333","6500300","中和區"
"235040","150-BY","2019/09/20 18:59:36","新北市中和區宜安路23巷5號","121.512706666667","24.995605","6500300","中和區"
"235058","151-BY","2019/09/20 18:59:37","新北市中和區連城路569巷9弄5號","121.479496666667","24.9941616666667","6500300","中和區"
"235038","185-VK","2019/09/20 18:59:45","新北市中和區立人街24-5號","121.51896","24.9941283333333","6500300","中和區"
"235049","186-VK","2019/09/20 18:59:31","新北市中和區明仁街12號","121.506111666667","24.9955216666667","6500300","中和區"
"235067","255-BX","2019/09/20 18:59:33","新北市中和區新生街164號","121.483591666667","25.000235","6500300","中和區"
"235044","293-VK","2019/09/20 18:59:34","新北市中和區中興街161巷2弄2號","121.500231666667","24.9908833333333","6500300","中和區"
"235072","301-VK","2019/09/20 18:59:46","新北市中和區永和路9巷1號","121.49914","25.0040316666667","6500300","中和區"
"235043","352-BY","2019/09/20 18:59:43","新北市中和區景平路100-2號","121.520128333333","24.9915616666667","6500300","中和區"
"235042","KEA-2878","2019/09/20 18:59:26","新北市中和區秀朗路三段60巷46號","121.524786666667","24.9948716666667","6500300","中和區"
"235050","4979-A6","2019/09/20 18:59:44","新北市中和區華新街48號","121.507961666667","24.98412","6500300","中和區"
"235069","4980-A6","2019/09/20 18:59:44","新北市中和區圓通路12號","121.501618333333","24.9980316666667","6500300","中和區"
"235070","558-UM","2019/09/20 18:59:28","新北市中和區中和路137號","121.501943333333","24.9998916666667","6500300","中和區"
"235045","565-BX","2019/09/20 18:59:29","新北市中和區景新街467巷35弄11號","121.514196666667","24.988915","6500300","中和區"
"235060","KED-0823","2019/09/20 18:59:23","新北市中和區民治街5巷2號","121.475","25.0049716666667","6500300","中和區"
"235054","640-BX","2019/09/20 18:59:26","新北市中和區民享街14號","121.474008333333","25.00395","6500300","中和區"
"235047","732-UM","2019/09/20 18:59:40","新北市中和區興南路二段94號","121.50545","24.9844683333333","6500300","中和區"
"235046","733-UM","2019/09/20 18:59:32","新北市中和區興南路二段33號","121.50777","24.9858116666667","6500300","中和區"
"235071","783-BX","2019/09/20 18:59:40","新北市中和區員山路36巷16-3號","121.485171666667","24.9912133333333","6500300","中和區"
"235057","801-TS","2019/09/20 18:59:39","新北市中和區民利街74號","121.47838","24.9983683333333","6500300","中和區"
"235041","802-TS","2019/09/20 18:59:25","新北市中和區景安路58號","121.506943333333","24.9979116666667","6500300","中和區"
"235052","805-TS","2019/09/20 18:59:29","新北市中和區興南路二段114巷2號","121.504281666667","24.9842066666667","6500300","中和區"
"235048","896-TW","2019/09/20 18:59:41","新北市中和區華新街143巷71弄13號","121.508356666667","24.978855","6500300","中和區"
"235053","900-TW","2019/09/20 18:59:42","新北市板橋區和平路174巷1弄5號","121.464178333333","24.995215","6500300","中和區"
"235064","911-UM","2019/09/20 18:59:38","新北市中和區中和路40巷4-3號","121.499671666667","25.00133","6500300","中和區"
"235051","157-BY","2019/09/20 18:59:31","新北市中和區忠孝街19巷43號","121.509456666667","24.985005","6500300","中和區"
"235059","AAC-215","2019/09/20 18:59:39","新北市中和區圓通路369巷33弄7號","121.491098333333","24.98804","6500300","中和區"
"220065","072-UY","2019/09/20 18:59:37","新北市板橋區民族路247巷9弄8號","121.471111666667","25.0080783333333","6500100","板橋區"
"220086","073-UY","2019/09/20 18:59:39","新北市板橋區大智街10號","121.456113333333","25.0148716666667","6500100","板橋區"
"220106","075-UY","2019/09/20 18:59:35","新北市板橋區雙十路三段10巷11號","121.472171666667","25.03089","6500100","板橋區"
"220069","AAD-861","2019/09/20 18:59:35","新北市板橋區大華街96-2號","121.458866666667","25.005345","6500100","板橋區"
"226004","312-R5","2019/09/20 18:59:41","新北市平溪區南山里南山坪21號","121.772405","25.0373183333333","6502400","平溪區"
"235063","251-BX","2019/09/20 18:59:26","新北市中和區中正路520號","121.488113333333","24.9944316666667","6500300","中和區"
"228003","097-TW","2019/09/20 18:59:27","新北市貢寮區和美里龍洞街56-2號","121.912155","25.1139233333333","6502600","貢寮區"
"228002","663-BX","2019/09/20 18:59:38","新北市貢寮區福隆里東興街106巷21弄2號","121.946158333333","25.0180566666667","6502600","貢寮區"
"228001","670-TC","2019/09/20 18:59:31","新北市貢寮區仁理村研海街12-1號","121.923751666667","25.0516266666667","6502600","貢寮區"
"224006","676-BX","2019/09/20 18:59:29","新北市瑞芳區東和路3號","121.804413333333","25.10628","6501200","瑞芳區"
"224007","285-BY","2019/09/20 18:59:27","新北市瑞芳區中央路48巷180號","121.758595","25.1025316666667","6501200","瑞芳區"
"224009","275-VK","2019/09/20 18:59:43","新北市瑞芳區長仁路37-1號","121.865403333333","25.1177716666667","6501200","瑞芳區"
"224008","273-VK","2019/09/20 18:59:34","新北市瑞芳區逢甲路340-9號","121.798403333333","25.1168483333333","6501200","瑞芳區"
"224005","271-BY","2019/09/20 18:59:11","新北市瑞芳區瑞濱路185號","121.818416666667","25.1136933333333","6501200","瑞芳區"
"227001","642-TC","2019/09/20 18:59:31","新北市雙溪區牡丹里中正路60號","121.866105","25.0424516666667","6502500","雙溪區"
"227002","400-TW","2019/09/20 18:59:28","新北市雙溪區平林里康福家園1號","121.858288333333","25.03768","6502500","雙溪區"
"253005","032-BX","2019/09/20 18:59:27","新北市石門區中央路37-2號","121.568706666667","25.29568","6502200","石門區"
"253006","295-VK","2019/09/20 18:59:35","新北市石門區下員坑30-7號","121.519758333333","25.2821966666667","6502200","石門區"
"222001","KEA-2212","2019/09/20 18:59:43","新北市深坑區北深路一段300號","121.624256666667","25.0057033333333","6501800","深坑區"
"208002","KEA-2872","2019/09/20 18:59:46","新北市金山區仁愛路67巷18號","121.63433","25.22104","6502700","金山區"
"208003","665-BX","2019/09/20 18:59:38","新北市金山區中正路120號","121.632436666667","25.22157","6502700","金山區"
"251009","008-UM","2019/09/20 18:59:30","新北市淡水區重建街119號","121.440085","25.173045","6501000","淡水區"
"251001","011-UM","2019/09/20 18:59:37","新北市淡水區自強路245號","121.463118333333","25.127365","6501000","淡水區"
"251002","012-UM","2019/09/20 18:59:30","新北市淡水區中正東路55-4號","121.446796666667","25.1678683333333","6501000","淡水區"
"251010","413-VK","2019/09/20 18:59:31","新北市淡水區淡海路69巷8弄6號","121.422751666667","25.181565","6501000","淡水區"
"251012","441-VK","2019/09/20 18:59:40","新北市淡水區新興街109號","121.440671666667","25.1808783333333","6501000","淡水區"
"251007","442-VK","2019/09/20 18:59:33","新北市淡水區民生路113巷1弄46號","121.46286","25.13867","6501000","淡水區"
"251011","650-BX","2019/09/20 18:59:38","新北市淡水區鄧公路30巷2弄33號","121.453445","25.1691616666667","6501000","淡水區"
"251003","766-UM","2019/09/20 18:59:39","新北市淡水區中山北路一段149巷24號","121.442951666667","25.1780716666667","6501000","淡水區"
"207003","550-UM","2019/09/20 18:59:27","新北市萬里區大鵬里頂社2-1號","121.659783333333","25.207325","6502800","萬里區"
"207004","291-VK","2019/09/20 18:59:26","新北市萬里區萬里里獅頭路23號","121.69325","25.178245","6502800","萬里區"
"252002","178-VK","2019/09/20 18:59:36","新北市三芝區中正路一段56號","121.503595","25.25799","6502100","三芝區"
"252003","292-VK","2019/09/20 18:59:43","新北市三芝區後厝里北勢子42-3號","121.472178333333","25.2525983333333","6502100","三芝區"
"208001","170-UY","2019/09/20 18:59:39","新北市金山區民生路51巷1-2號","121.641898333333","25.2198066666667","6502700","金山區"
"237004","KEA-2597","2019/09/20 18:59:39","新北市三峽區有木212號","121.440756666667","24.8515283333333","6500900","三峽區"
"237007","153-BY","2019/09/20 18:59:27","新北市三峽區中正路二段136號","121.366175","24.9164516666667","6500900","三峽區"
"237013","252-BX","2019/09/20 18:59:28","新北市三峽區光明路69巷24號","121.376573333333","24.9290983333333","6500900","三峽區"
"237012","275-BY","2019/09/20 18:59:37","新北市三峽區三樹路222巷72-1號","121.383243333333","24.9422266666667","6500900","三峽區"
"237008","302-VK","2019/09/20 18:59:37","新北市三峽區大同路100號","121.374676666667","24.927175","6500900","三峽區"
"237014","433-BY","2019/09/20 18:59:36","新北市三峽區隆恩街230號","121.358488333333","24.9414333333333","6500900","三峽區"
"237006","5529-G3","2019/09/20 18:59:30","新北市三峽區溪東路233巷4弄29號","121.407931666667","24.9338066666667","6500900","三峽區"
"237011","KEA-2596","2019/09/20 18:59:37","新北市三峽區介壽路三段160-1號","121.40196","24.9437216666667","6500900","三峽區"
"237015","649-BX","2019/09/20 18:59:44","新北市三峽區建安75-6號","121.45044","24.925025","6500900","三峽區"
"237010","706-TV","2019/09/20 18:59:37","新北市三峽區復興路321號","121.364836666667","24.9386833333333","6500900","三峽區"
"237005","AKY-6261","2019/09/20 18:59:32","新北市三峽區中山路459巷135號","121.348646666667","24.9329416666667","6500900","三峽區"
"236042","KED-0685","2019/09/20 18:59:43","新北市土城區學府路一段237號","121.450793333333","24.9838833333333","6501300","土城區"
"236030","253-BX","2019/09/20 18:59:39","新北市土城區中央路二段257號","121.43992","24.97138","6501300","土城區"
"236026","269-VK","2019/09/20 18:59:40","新北市土城區中央路二段246號","121.441838333333","24.9748683333333","6501300","土城區"
"236014","270-VK","2019/09/20 18:59:42","新北市土城區立德路29巷7-1號","121.462133333333","24.9882783333333","6501300","土城區"
"236039","271-VK","2019/09/20 18:59:34","新北市土城區仁愛路13巷1號","121.460285","24.9808433333333","6501300","土城區"
"236069","KEA-2877","2019/09/20 18:59:34","新北市土城區清水路99巷13號","121.456753333333","24.9822216666667","6501300","土城區"
"252001","KED-0821","2019/09/20 18:59:23","新北市三芝區中興街二段260號","121.501751666667","25.2530516666667","6502100","三芝區"
"236020","401-BY","2019/09/20 18:59:41","新北市土城區德峰街41巷10號","121.467835","24.98619","6501300","土城區"
"236079","752-BX","2019/09/20 18:58:24","新北市土城區中央路四段378號","121.412935","24.9546166666667","6501300","土城區"
"236059","912-UM","2019/09/20 18:59:45","新北市土城區金城路二段266號","121.458305","24.984105","6501300","土城區"
"236048","913-UM","2019/09/20 18:59:39","新北市土城區青雲路309號","121.458993333333","24.979145","6501300","土城區"
"236063","915-UM","2019/09/20 18:59:44","新北市土城區金城路三段131巷16號","121.467571666667","24.988815","6501300","土城區"
"236055","AAC-216","2019/09/20 18:59:36","新北市土城區學成路164號","121.448056666667","24.9890966666667","6501300","土城區"
"238023","601-UM","2019/09/20 18:59:27","新北市樹林區大慶街47號","121.396463333333","25.0139083333333","6500700","樹林區"
"238003","599-UM","2019/09/20 18:59:37","新北市樹林區東榮街147巷2弄19號","121.414123333333","24.9811233333333","6500700","樹林區"
"238022","KEA-2213","2019/09/20 18:59:40","新北市樹林區東興街43號","121.41062","24.9776716666667","6500700","樹林區"
"238021","KEA-2539","2019/09/20 18:59:30","新北市樹林區柑園街二段328巷6弄29號","121.373266666667","24.9527033333333","6500700","樹林區"
"238025","303-VK","2019/09/20 18:59:41","新北市樹林區中山路三段22號","121.395566666667","24.9729566666667","6500700","樹林區"
"238017","283-BY","2019/09/20 18:59:30","新北市樹林區光興街50號","121.409851666667","25.0027383333333","6500700","樹林區"
"238014","282-BY","2019/09/20 18:59:29","新北市樹林區潭興街143巷28弄2號","121.424961666667","24.9997083333333","6500700","樹林區"
"238020","268-VK","2019/09/20 18:59:37","新北市樹林區俊英街219巷29號","121.420691666667","25.0114366666667","6500700","樹林區"
"238026","172-UY","2019/09/20 18:59:31","新北市樹林區中和街12號","121.391511666667","24.9731766666667","6500700","樹林區"
"238016","169-UY","2019/09/20 18:59:34","新北市樹林區文化街28號","121.419303333333","24.98769","6500700","樹林區"
"239007","AAC-297","2019/09/20 18:59:40","新北市鶯歌區成功街10號","121.358601666667","24.9574583333333","6500800","鶯歌區"
"239006","891-R6","2019/09/20 18:59:41","新北市鶯歌區鶯桃路296巷53號","121.335873333333","24.96131","6500800","鶯歌區"
"239008","527-UM","2019/09/20 18:59:32","新北市鶯歌區晨曦街35號","121.338108333333","24.9770466666667","6500800","鶯歌區"
"239005","526-UM","2019/09/20 18:59:27","新北市鶯歌區大湖路361巷81-1號","121.332775","24.9758533333333","6500800","鶯歌區"
"239001","417-VK","2019/09/20 18:59:33","新北市鶯歌區永明街13號","121.338236666667","24.9551716666667","6500800","鶯歌區"
"239003","360-BY","2019/09/20 18:59:26","新北市鶯歌區鶯桃路656號","121.329313333333","24.9692266666667","6500800","鶯歌區"
"239002","359-BY","2019/09/20 18:59:36","新北市鶯歌區中正一路307號","121.356676666667","24.9570366666667","6500800","鶯歌區"
"239004","193-VK","2019/09/20 18:59:36","新北市鶯歌區中正三路247巷76號","121.333588333333","24.93651","6500800","鶯歌區"
"221008","489-VK","2019/09/20 18:59:39","新北市汐止區康寧街753巷2弄8號","121.639325","25.0739416666667","6501100","汐止區"
"221036","130-UY","2019/09/20 18:59:32","新北市汐止區水碓街63號","121.665091666667","25.0686266666667","6501100","汐止區"
"221015","131-UY","2019/09/20 18:59:28","新北市汐止區吉祥街12巷12號","121.668775","25.0804233333333","6501100","汐止區"
"244019","KED-0667","2019/09/20 18:59:45","新北市林口區仁愛路二段201-1號","121.377176666667","25.0740783333333","6501700","林口區"
"221032","280-BY","2019/09/20 18:59:33","新北市汐止區橫科路407巷81弄1號","121.628193333333","25.0485233333333","6501100","汐止區"
"221029","298-VK","2019/09/20 18:56:35","新北市汐止區樟樹一路113號","121.64191","25.06412","6501100","汐止區"
"221031","353-TW","2019/09/20 18:59:42","新北市汐止區福德一路300巷49號","121.630195","25.0645583333333","6501100","汐止區"
"221035","622-UM","2019/09/20 18:59:34","新北市汐止區大同路二段314號","121.655586666667","25.0667333333333","6501100","汐止區"
"221002","707-TV","2019/09/20 18:59:33","新北市汐止區大同路一段2號","121.620936666667","25.0549833333333","6501100","汐止區"
"220079","145-BY","2019/09/20 18:59:25","新北市板橋區大智街73號","121.453585","25.01562","6500100","板橋區"
"220080","200-UY","2019/09/20 18:59:31","新北市板橋區大觀路二段265巷1弄14號","121.443503333333","24.9984683333333","6500100","板橋區"
"220082","610-BX","2019/09/20 18:59:44","新北市板橋區溪崑一街126號","121.429215","24.9883033333333","6500100","板橋區"
"220091","267-BY","2019/09/20 18:59:40","新北市板橋區大同街8巷24號","121.477285","25.02604","6500100","板橋區"
"220056","276-BY","2019/09/20 18:59:31","新北市板橋區信義路161號","121.458466666667","24.992495","6500100","板橋區"
"220072","277-BY","2019/09/20 18:59:25","新北市板橋區大觀路三段36巷6號","121.433878333333","24.99597","6500100","板橋區"
"220101","280-UM","2019/09/20 18:59:33","新北市板橋區民生路二段172號","121.47158","25.0204933333333","6500100","板橋區"
"220071","283-VK","2019/09/20 18:59:27","新北市板橋區忠孝路176巷25號","121.46531","25.0018133333333","6500100","板橋區"
"220094","285-UM","2019/09/20 18:59:46","新北市板橋區光武街161號","121.465316666667","25.0297583333333","6500100","板橋區"
"220053","285-VK","2019/09/20 18:59:37","新北市板橋區太和街5巷6號","121.473463333333","25.0200266666667","6500100","板橋區"
"220083","286-VK","2019/09/20 18:59:47","新北市板橋區大觀路一段38巷156弄15號","121.442515","25.00527","6500100","板橋區"
"220081","287-VK","2019/09/20 18:59:32","新北市板橋區光華街15巷9號","121.453498333333","25.0117216666667","6500100","板橋區"
"220061","293-UM","2019/09/20 18:59:32","新北市板橋區中山路二段273號","121.477645","25.0180016666667","6500100","板橋區"
"220084","296-UM","2019/09/20 18:59:33","新北市板橋區龍興街63巷2號","121.443063333333","25.0013866666667","6500100","板橋區"
"220075","303-R5","2019/09/20 18:59:31","新北市板橋區南雅東路100巷13號","121.453941666667","25.007735","6500100","板橋區"
"220062","305-R5","2019/09/20 18:59:34","新北市板橋區中山路二段176號","121.47733","25.0173866666667","6500100","板橋區"
"220092","307-R5","2019/09/20 18:59:33","新北市板橋區文化路二段225巷60弄42號","121.469138333333","25.0293966666667","6500100","板橋區"
"220098","317-R6","2019/09/20 18:59:34","新北市板橋區莊敬路168號","121.471616666667","25.022375","6500100","板橋區"
"220089","487-VK","2019/09/20 18:59:38","新北市板橋區文化路二段347號","121.47269","25.0305483333333","6500100","板橋區"
"220088","491-VK","2019/09/20 18:59:43","新北市板橋區文化路二段182巷5弄10號","121.472111666667","25.0274666666667","6500100","板橋區"
"220035","560-BX","2019/09/20 18:59:29","新北市板橋區中正路281號","121.455555","25.01903","6500100","板橋區"
"220103","561-BX","2019/09/20 18:59:36","新北市板橋區介壽街21號","121.468061666667","25.0200483333333","6500100","板橋區"
"220063","609-BX","2019/09/20 18:59:31","新北市板橋區三民路二段67號","121.479341666667","25.0170866666667","6500100","板橋區"
"220057","686-BX","2019/09/20 18:59:41","新北市板橋區國慶路212號","121.463683333333","24.9972016666667","6500100","板橋區"
"220077","687-BX","2019/09/20 18:59:38","新北市板橋區龍興街71巷1號","121.443716666667","25.001715","6500100","板橋區"
"220093","689-BX","2019/09/20 18:59:28","新北市板橋區民生路三段257號","121.464566666667","25.0293733333333","6500100","板橋區"
"220054","741-BX","2019/09/20 18:59:32","新北市板橋區重慶路139巷15號","121.463465","25.0046116666667","6500100","板橋區"
"220102","KEA-2699","2019/09/20 18:59:33","新北市板橋區田單街2巷38號","121.482186666667","25.0275966666667","6500100","板橋區"
"220055","827-TW","2019/09/20 18:59:34","新北市板橋區中山路一段128號","121.463343333333","25.0108","6500100","板橋區"
"220067","829-TW","2019/09/20 18:59:39","新北市板橋區民享街116巷1-3號","121.478033333333","25.0157866666667","6500100","板橋區"
"220068","830-TW","2019/09/20 18:59:32","新北市板橋區中山路二段443巷78號","121.481018333333","25.0223783333333","6500100","板橋區"
"220090","831-TW","2019/09/20 18:59:33","新北市板橋區裕民街43號","121.461481666667","25.0286333333333","6500100","板橋區"
"220074","895-R6","2019/09/20 18:59:34","新北市板橋區林園街7-1號","121.454013333333","25.0092483333333","6500100","板橋區"
"220073","985-R7","2019/09/20 18:59:31","新北市板橋區西門街2號","121.455888333333","25.0115766666667","6500100","板橋區"
"220097","AAC-210","2019/09/20 18:58:09","新北市板橋區幸福路60巷81號","121.459716666667","25.0218183333333","6500100","板橋區"
"220064","AAC-253","2019/09/20 18:59:31","新北市板橋區板新路121巷3號","121.471238333333","25.01499","6500100","板橋區"
"235068","KEA-2873","2019/09/20 18:59:42","新北市中和區圓通路232巷1號","121.494846666667","24.992905","6500300","中和區"
"235061","KEA-2875","2019/09/20 18:59:25","新北市中和區中山路三段179巷16號","121.473635","25.0057616666667","6500300","中和區"
"235062","KEA-2876","2019/09/20 18:59:13","新北市中和區中山路二段526巷37號","121.485795","25.0059766666667","6500300","中和區"
