"lineid","car","time","location","longitude","latitude","cityid","cityname"
"234081","298-R6","2019/09/20 20:29:45","新北市永和區福和路145號","121.520748333333","25.0075816666667","6500400","永和區"
"234038","336-UY","2019/09/20 20:29:45","新北市永和區民樂街31巷6弄15號","121.52889","25.0016316666667","6500400","永和區"
"234064","337-UY","2019/09/20 20:29:28","新北市永和區中正路528號","121.517241666667","25.005065","6500400","永和區"
"234086","338-UY","2019/09/20 20:29:40","新北市永和區永和路二段243號","121.515723333333","25.0147016666667","6500400","永和區"
"234070","552-UM","2019/09/20 20:29:29","新北市永和區永亨路11號","121.519505","25.00582","6500400","永和區"
"234054","KEA-2590","2019/09/20 20:29:42","新北市永和區環河東路一段80號","121.519538333333","25.0164033333333","6500400","永和區"
"234061","AAD-866","2019/09/20 20:29:44","新北市永和區安樂路208-1號","121.51508","25.0017983333333","6500400","永和區"
"234042","862-TW","2019/09/20 20:29:35","新北市永和區安樂路330號","121.514433333333","25.0058933333333","6500400","永和區"
"234050","863-TW","2019/09/20 20:29:39","新北市永和區新生路149號","121.507375","25.0148683333333","6500400","永和區"
"249001","173-UM","2019/09/20 20:29:40","新北市八里區中山路三段106號","121.391028333333","25.142255","6502300","八里區"
"249004","303-UY","2019/09/20 20:29:33","新北市八里區中山路一段129巷29號","121.414008333333","25.1585566666667","6502300","八里區"
"249002","305-UY","2019/09/20 20:29:45","新北市八里區龍米路二段81號","121.447835","25.14167","6502300","八里區"
"234023","9380-KE","2019/09/20 20:29:39","新北市永和區博愛街32巷17-1號","121.518878333333","25.0153","6500400","永和區"
"234074","AAC-211","2019/09/20 20:29:33","新北市永和區豫溪街191巷7弄15號","121.523391666667","25.01085","6500400","永和區"
"234067","AAC-212","2019/09/20 20:29:32","新北市永和區保平路290號","121.508046666667","25.0044766666667","6500400","永和區"
"243012","AAD-798","2019/09/20 20:29:40","新北市泰山區楓江路10號","121.433573333333","25.0624583333333","6501600","泰山區"
"243014","KEA-2801","2019/09/20 20:29:44","新北市泰山區泰林路二段525號","121.42376","25.0637333333333","6501600","泰山區"
"243016","421-VK","2019/09/20 20:29:32","新北市泰山區明志路二段211號","121.427383333333","25.0487083333333","6501600","泰山區"
"243009","KEA-2215","2019/09/20 20:29:39","新北市泰山區忠孝街41巷1號","121.428458333333","25.065395","6501600","泰山區"
"243011","KEA-2216","2019/09/20 20:29:32","新北市泰山區明志路三段174號","121.424276666667","25.0390066666667","6501600","泰山區"
"243013","646-TV","2019/09/20 20:29:45","新北市泰山區中央路14巷3號","121.426461666667","25.043705","6501600","泰山區"
"243015","680-BX","2019/09/20 20:29:38","新北市泰山區仁德路82號","121.433098333333","25.056375","6501600","泰山區"
"222003","436-BY","2019/09/20 20:29:34","新北市深坑區深坑街93號","121.61422","25.0015166666667","6501800","深坑區"
"222002","659-BX","2019/09/20 20:29:41","新北市深坑區萬福路45號","121.599435","25.0068216666667","6501800","深坑區"
"231061","002-UM","2019/09/20 20:29:27","新北市新店區安興路32號","121.515763333333","24.9702266666667","6500600","新店區"
"231044","046-UY","2019/09/20 20:29:35","新北市新店區建國路153號","121.538735","24.9788516666667","6500600","新店區"
"231041","047-UY","2019/09/20 20:29:40","新北市新店區中正路501-4號","121.533563333333","24.983805","6500600","新店區"
"231060","106-UY","2019/09/20 20:29:09","新北市新店區錦秀路11巷88號","121.480526666667","24.94334","6500600","新店區"
"231051","107-UY","2019/09/20 20:29:41","新北市新店區中央八街73號","121.52779","24.97685","6500600","新店區"
"231049","108-UY","2019/09/20 20:29:42","新北市新店區永業路81巷7弄2號","121.53067","24.9486566666667","6500600","新店區"
"231065","110-UY","2019/09/20 20:29:44","新北市新店區安祥路102巷46弄35號","121.485778333333","24.963665","6500600","新店區"
"231068","187-VK","2019/09/20 20:29:33","新北市新店區民權路15號","121.542243333333","24.9828516666667","6500600","新店區"
"231062","256-BX","2019/09/20 20:29:33","新北市新店區安泰路60巷7號","121.483915","24.9467166666667","6500600","新店區"
"231054","260-TV","2019/09/20 20:29:43","新北市新店區檳榔路109號","121.544436666667","24.96166","6500600","新店區"
"231042","268-BY","2019/09/20 20:29:32","新北市新店區寶橋路230號","121.551513333333","24.9788933333333","6500600","新店區"
"231064","278-BY","2019/09/20 20:29:26","新北市新店區新和街59巷17號","121.519325","24.9860166666667","6500600","新店區"
"231050","AAD-862","2019/09/20 20:29:45","新北市新店區建興街9巷1號","121.539933333333","24.9763433333333","6500600","新店區"
"231045","355-BY","2019/09/20 20:29:32","新北市新店區新坡一街13號","121.549433333333","24.9627616666667","6500600","新店區"
"231058","3713-VJ","2019/09/20 20:29:43","新北市新店區中央路19號","121.53325","24.9782033333333","6500600","新店區"
"231055","4716-K9","2019/09/20 20:29:39","新北市新店區光明街187號","121.539908333333","24.9633416666667","6500600","新店區"
"231056","4715-K9","2019/09/20 20:29:35","新北市新店區中央七街58號","121.528061666667","24.97606","6500600","新店區"
"231067","4772-VM","2019/09/20 20:29:33","新北市新店區安華路28-1號","121.51999","24.9608116666667","6500600","新店區"
"231053","513-UM","2019/09/20 20:29:37","新北市新店區松林路36號","121.546225","24.9102683333333","6500600","新店區"
"231063","641-BX","2019/09/20 20:29:39","新北市新店區玫瑰路4-1號","121.493566666667","24.9513816666667","6500600","新店區"
"231048","KED-0819","2019/09/20 20:29:36","新北市新店區寶慶街58巷21-1號","121.541993333333","24.987255","6500600","新店區"
"231057","720-UM","2019/09/20 20:29:25","新北市新店區花園十路二段4號","121.555866666667","24.93324","6500600","新店區"
"231059","897-TW","2019/09/20 20:29:33","新北市新店區安德街153號","121.508296666667","24.9597416666667","6500600","新店區"
"231040","898-TW","2019/09/20 20:29:27","新北市新店區三民路122號","121.534491666667","24.9743983333333","6500600","新店區"
"231043","899-TW","2019/09/20 20:29:32","新北市新店區建國路95號","121.540461666667","24.9767833333333","6500600","新店區"
"231066","AKT-0513","2019/09/20 20:29:34","新北市新店區安興路81號","121.51544","24.97523","6500600","新店區"
"241011","013-R5","2019/09/20 20:29:32","新北市三重區龍門路64號","121.496745","25.0725716666667","6500200","三重區"
"241028","022-UY","2019/09/20 20:29:35","新北市三重區光興街91號","121.497363333333","25.0599483333333","6500200","三重區"
"241008","059-VK","2019/09/20 20:29:46","新北市三重區下竹圍街42-1號","121.481041666667","25.074905","6500200","三重區"
"241005","060-VK","2019/09/20 20:29:33","新北市三重區五華街141巷37號","121.492553333333","25.085775","6500200","三重區"
"241031","061-VK","2019/09/20 20:29:33","新北市三重區三寧街25號","121.4896","25.05984","6500200","三重區"
"241015","062-VK","2019/09/20 20:29:31","新北市三重區正義北路107巷68號","121.498635","25.0660716666667","6500200","三重區"
"241017","063-VK","2019/09/20 20:29:37","新北市三重區自強路一段201號","121.49165","25.0683383333333","6500200","三重區"
"241024","065-VK","2019/09/20 20:29:42","新北市三重區中正北路276巷26號","121.48033","25.0673566666667","6500200","三重區"
"241007","066-VK","2019/09/20 20:29:35","新北市三重區自強路四段22號","121.488623333333","25.0765216666667","6500200","三重區"
"241002","090-VK","2019/09/20 20:29:31","新北市三重區仁義街190號","121.496661666667","25.08174","6500200","三重區"
"241003","091-VK","2019/09/20 20:29:27","新北市三重區富華街151號","121.493128333333","25.0848166666667","6500200","三重區"
"241014","742-BX","2019/09/20 20:29:30","新北市三重區長壽街120巷10號","121.502065","25.0692833333333","6500200","三重區"
"241006","262-UM","2019/09/20 20:29:28","新北市三重區車路頭街139巷14號","121.484278333333","25.0761883333333","6500200","三重區"
"241016","266-UM","2019/09/20 20:29:34","新北市三重區龍濱路172號","121.501333333333","25.0728183333333","6500200","三重區"
"241009","267-UM","2019/09/20 20:29:43","新北市三重區永福街81號","121.48008","25.07767","6500200","三重區"
"241032","269-UM","2019/09/20 20:29:33","新北市三重區重陽路一段120巷48號","121.48506","25.06017","6500200","三重區"
"241013","270-UM","2019/09/20 20:29:29","新北市三重區三和路四段3號","121.49162","25.07414","6500200","三重區"
"241025","271-UM","2019/09/20 20:29:28","新北市三重區頂崁街210巷23弄1號","121.475821666667","25.068155","6500200","三重區"
"241035","KEA-2210","2019/09/20 20:29:36","新北市三重區正義北路120號","121.496846666667","25.0654516666667","6500200","三重區"
"241030","KED-0822","2019/09/20 20:29:39","新北市三重區成功路60號","121.488681666667","25.0510066666667","6500200","三重區"
"241016","462-BY","2019/09/20 20:29:30","新北市三重區正義北路188號","121.496338333333","25.0669433333333","6500200","三重區"
"241020","478-VK","2019/09/20 20:29:37","新北市三重區忠孝路一段23號","121.491978333333","25.072005","6500200","三重區"
"241026","480-VK","2019/09/20 20:29:43","新北市三重區環河南路22號","121.503461666667","25.0624533333333","6500200","三重區"
"241023","545-UM","2019/09/20 20:29:38","新北市三重區自由街17巷4號","121.479836666667","25.0667183333333","6500200","三重區"
"241001","547-UM","2019/09/20 20:29:43","新北市三重區聯華街124號","121.485021666667","25.07483","6500200","三重區"
"241019","KEA-2593","2019/09/20 20:29:25","新北市三重區重陽路四段77號","121.492483333333","25.07098","6500200","三重區"
"241022","KED-0820","2019/09/20 20:29:37","新北市三重區中正北路20巷12號","121.488026666667","25.06247","6500200","三重區"
"241004","887-TS","2019/09/20 20:29:30","新北市三重區溪尾街210號","121.488103333333","25.0812733333333","6500200","三重區"
"241029","942-UM","2019/09/20 20:29:46","新北市三重區集美街112巷1號","121.488975","25.05399","6500200","三重區"
"241033","AAC-255","2019/09/20 20:29:34","新北市三重區五谷王北街80巷11號","121.475715","25.053205","6500200","三重區"
"247016","KEA-2869","2019/09/20 20:29:32","新北市蘆洲區光華路40號","121.468993333333","25.08317","6501400","蘆洲區"
"247010","KED-0682","2019/09/20 20:29:37","新北市蘆洲區民族路172號","121.479773333333","25.086565","6501400","蘆洲區"
"235050","4979-A6","2019/09/20 20:29:44","新北市中和區景平路421號","121.501746666667","24.9951616666667","6500300","中和區"
"235069","4980-A6","2019/09/20 20:29:27","新北市中和區中正路446號","121.490973333333","24.99433","6500300","中和區"
"235059","AAC-215","2019/09/20 20:29:39","新北市中和區員山路36巷9號","121.483511666667","24.9911","6500300","中和區"
"247006","893-R6","2019/09/20 20:29:46","新北市蘆洲區光華路175巷56號","121.465685","25.08087","6501400","蘆洲區"
"247020","546-UM","2019/09/20 20:29:28","新北市蘆洲區仁愛街169-2號","121.468236666667","25.094115","6501400","蘆洲區"
"247018","500-BY","2019/09/20 20:29:45","新北市蘆洲區民族路336巷28號","121.47747","25.091075","6501400","蘆洲區"
"247008","341-TH","2019/09/20 20:29:40","新北市蘆洲區永安北路二段76巷11號","121.482865","25.0850616666667","6501400","蘆洲區"
"247004","336-TH","2019/09/20 20:29:43","新北市蘆洲區長安街222號","121.458128333333","25.0848916666667","6501400","蘆洲區"
"247024","057-VK","2019/09/20 20:29:42","新北市蘆洲區光復路70巷16號","121.464646666667","25.08515","6501400","蘆洲區"
"247014","056-VK","2019/09/20 20:29:47","新北市蘆洲區中山二路19號","121.475003333333","25.0817733333333","6501400","蘆洲區"
"247022","007-UY","2019/09/20 20:29:43","新北市蘆洲區中正路261號","121.467466666667","25.0872916666667","6501400","蘆洲區"
"247002","001-UY","2019/09/20 20:29:45","新北市蘆洲區長安街361巷8-1號","121.456693333333","25.08748","6501400","蘆洲區"
"222001","KEA-2212","2019/09/20 20:29:43","新北市深坑區北深路三段278號","121.597845","25.0049","6501800","深坑區"
"251009","008-UM","2019/09/20 20:29:30","新北市淡水區中正東路一段105巷3號","121.45318","25.1606216666667","6501000","淡水區"
"251001","011-UM","2019/09/20 20:29:37","新北市淡水區中山北路二段1號","121.444416666667","25.1830583333333","6501000","淡水區"
"251002","012-UM","2019/09/20 20:29:30","新北市淡水區中正路27號","121.442408333333","25.1695583333333","6501000","淡水區"
"251008","181-VK","2019/09/20 20:29:40","新北市淡水區沙崙路183巷11號","121.42434","25.18481","6501000","淡水區"
"251010","413-VK","2019/09/20 20:29:31","新北市淡水區沙崙路181巷15號","121.423998333333","25.184325","6501000","淡水區"
"251012","441-VK","2019/09/20 20:29:40","新北市淡水區頂田寮路37號","121.455403333333","25.2163116666667","6501000","淡水區"
"251006","561-UM","2019/09/20 20:29:41","新北市淡水區商工路356號","121.468415","25.1854216666667","6501000","淡水區"
"251003","766-UM","2019/09/20 20:29:39","新北市淡水區新民街21號","121.439358333333","25.1751816666667","6501000","淡水區"
"252002","178-VK","2019/09/20 20:29:36","新北市三芝區淡金路二段47-2號","121.503685","25.2605366666667","6502100","三芝區"
"247012","KED-0683","2019/09/20 20:29:40","新北市蘆洲區復興路267號","121.481018333333","25.0900266666667","6501400","蘆洲區"
"252001","KED-0821","2019/09/20 20:29:43","新北市三芝區中山路一段35號","121.500601666667","25.257985","6502100","三芝區"
"242041","AAC-296","2019/09/20 20:29:46","新北市新莊區中正路694巷10號","121.418333333333","25.028475","6500500","新莊區"
"242060","986-R7","2019/09/20 20:29:28","新北市新莊區新樹路234巷26號","121.431803333333","25.0201416666667","6500500","新莊區"
"242005","751-BX","2019/09/20 20:29:31","新北市新莊區化成路361號","121.465705","25.056895","6500500","新莊區"
"242029","615-BX","2019/09/20 20:29:33","新北市新莊區昌平街31巷9號","121.454258333333","25.0513916666667","6500500","新莊區"
"242027","613-BX","2019/09/20 20:29:43","新北市新莊區幸福路552號","121.454895","25.0493366666667","6500500","新莊區"
"242058","612-BX","2019/09/20 20:29:29","新北市新莊區四維路177號","121.422211666667","25.02131","6500500","新莊區"
"242048","566-BX","2019/09/20 20:29:37","新北市新莊區成功街145號","121.423256666667","25.0167166666667","6500500","新莊區"
"242054","497-BY","2019/09/20 20:29:42","新北市新莊區西盛街344巷4號","121.427756666667","25.0141616666667","6500500","新莊區"
"242050","442-UM","2019/09/20 20:29:39","新北市新莊區民安西路189巷23號","121.42697","25.01536","6500500","新莊區"
"242002","441-UM","2019/09/20 20:29:32","新北市新莊區中正路育農巷1號","121.456968333333","25.0379916666667","6500500","新莊區"
"242007","440-UM","2019/09/20 20:29:38","新北市新莊區思源路331號","121.459836666667","25.04964","6500500","新莊區"
"242044","415-TV","2019/09/20 20:29:29","新北市新莊區中正路新建巷20號","121.414195","25.02208","6500500","新莊區"
"242013","413-TV","2019/09/20 20:29:29","新北市新莊區中平路270巷7弄24號","121.44607","25.0509216666667","6500500","新莊區"
"242025","362-BY","2019/09/20 20:29:43","新北市新莊區五工三路48-1號","121.460203333333","25.0644966666667","6500500","新莊區"
"242023","353-BY","2019/09/20 20:29:39","新北市新莊區化成路1002號","121.46516","25.0646716666667","6500500","新莊區"
"242015","132-UY","2019/09/20 20:29:32","新北市新莊區中平路46巷27號","121.44592","25.0438583333333","6500500","新莊區"
"242039","135-UY","2019/09/20 20:29:43","新北市新莊區民安路294號","121.428103333333","25.0217616666667","6500500","新莊區"
"242056","172-VK","2019/09/20 20:29:31","新北市新莊區新莊路751巷87號","121.442768333333","25.030725","6500500","新莊區"
"242017","173-VK","2019/09/20 20:29:36","新北市新莊區中港二街46號","121.450446666667","25.0459483333333","6500500","新莊區"
"242032","175-VK","2019/09/20 20:29:35","新北市新莊區三和路6號","121.440365","25.0345183333333","6500500","新莊區"
"242021","KED-0687","2019/09/20 20:29:25","新北市新莊區公園路22號","121.448431666667","25.039025","6500500","新莊區"
"242046","346-TH","2019/09/20 20:29:24","新北市新莊區裕民街83-6號","121.418456666667","25.02371","6500500","新莊區"
"242037","348-TH","2019/09/20 20:29:43","新北市新莊區後港一路46巷6號","121.426208333333","25.02575","6500500","新莊區"
"242009","349-TH","2019/09/20 20:29:42","新北市新莊區昌盛街81巷4弄12號","121.456121666667","25.050465","6500500","新莊區"
"242034","350-TH","2019/09/20 20:29:36","新北市新莊區中正路222號","121.448816666667","25.0356633333333","6500500","新莊區"
"242019","351-TH","2019/09/20 20:29:42","新北市新莊區銘德街49巷4弄2號","121.457276666667","25.04314","6500500","新莊區"
"221008","489-VK","2019/09/20 20:29:39","新北市汐止區康寧街77號","121.619541666667","25.066445","6501100","汐止區"
"221036","130-UY","2019/09/20 20:29:32","新北市汐止區仁愛路151巷32號","121.663388333333","25.065585","6501100","汐止區"
"221015","131-UY","2019/09/20 20:29:28","新北市汐止區建成路160巷16號","121.661796666667","25.0740516666667","6501100","汐止區"
"221010","269-BY","2019/09/20 20:29:27","新北市汐止區八連路一段528號","121.638663333333","25.093315","6501100","汐止區"
"221012","278-VK","2019/09/20 20:29:31","新北市汐止區汐平路二段66號","121.698583333333","25.0609366666667","6501100","汐止區"
"221023","279-VK","2019/09/20 20:29:41","新北市汐止區明峰街201號","121.627831666667","25.06942","6501100","汐止區"
"221032","280-BY","2019/09/20 20:29:33","新北市汐止區弘道街53巷12號","121.618708333333","25.0488716666667","6501100","汐止區"
"221027","281-BY","2019/09/20 20:29:44","新北市汐止區中正路199號","121.65858","25.068925","6501100","汐止區"
"221029","298-VK","2019/09/20 20:29:35","新北市汐止區樟樹一路119巷10弄20號","121.640426666667","25.0648316666667","6501100","汐止區"
"221021","299-VK","2019/09/20 20:29:38","新北市汐止區水源路一段284號","121.65412","25.0582683333333","6501100","汐止區"
"221031","353-TW","2019/09/20 20:29:42","新北市汐止區中興路150巷13號","121.632903333333","25.065","6501100","汐止區"
"221035","622-UM","2019/09/20 20:29:34","新北市汐止區長江街99號","121.658108333333","25.072955","6501100","汐止區"
"221025","623-UM","2019/09/20 20:29:45","新北市汐止區水源路二段88巷1弄2號","121.656331666667","25.0557683333333","6501100","汐止區"
"221038","646-BX","2019/09/20 20:29:33","新北市汐止區忠孝東路9號","121.65777","25.0657266666667","6501100","汐止區"
"221033","647-BX","2019/09/20 20:29:39","新北市汐止區林森街69巷2號","121.623066666667","25.0407566666667","6501100","汐止區"
"221002","707-TV","2019/09/20 20:29:33","新北市汐止區福德二路69-3號","121.633658333333","25.066725","6501100","汐止區"
"221018","753-BX","2019/09/20 20:25:33","新北市汐止區茄苳路225巷6號","121.671233333333","25.069","6501100","汐止區"
"220083","286-VK","2019/09/20 20:29:42","新北市板橋區僑中二街104巷48號","121.444285","25.00818","6500100","板橋區"
"220081","287-VK","2019/09/20 20:29:32","新北市板橋區龍興街73巷2號","121.444073333333","25.00205","6500100","板橋區"
"242011","280-VK","2019/09/20 20:29:33","新北市新莊區中榮街84號","121.447985","25.05267","6500500","新莊區"
"220055","827-TW","2019/09/20 20:29:34","新北市板橋區四川路一段373號","121.458226666667","24.9995633333333","6500100","板橋區"
"220068","830-TW","2019/09/20 20:29:44","新北市板橋區光復街170號","121.485156666667","25.0197433333333","6500100","板橋區"
"235073","KEA-2876","2019/09/20 20:09:58","新北市中和區員山路36巷16-3號","121.485095","24.99148","6500300","中和區"
