"lineid","car","time","location","longitude","latitude","cityid","cityname"
"231051","107-UY","2019/09/20 21:19:41","新北市新店區安和路三段4巷3號","121.518786666667","24.9809433333333","6500600","新店區"
"231054","260-TV","2019/09/20 21:19:43","新北市新店區薏仁坑路6-1號","121.499805","24.9585483333333","6500600","新店區"
"231050","AAD-862","2019/09/20 21:19:45","新北市新店區中正路195號","121.540481666667","24.97247","6500600","新店區"
"231063","641-BX","2019/09/20 21:19:39","新北市新店區如意街124號","121.497105","24.947005","6500600","新店區"
"241011","013-R5","2019/09/20 21:19:32","新北市三重區龍濱路197號","121.50183","25.0713966666667","6500200","三重區"
"241005","060-VK","2019/09/20 21:19:33","新北市三重區碧華街1號","121.483463333333","25.0812166666667","6500200","三重區"
"241031","061-VK","2019/09/20 21:19:32","新北市三重區重新路五段408巷19號","121.475741666667","25.0455833333333","6500200","三重區"
"241015","062-VK","2019/09/20 21:19:31","新北市三重區龍濱路283巷8號","121.50117","25.0736483333333","6500200","三重區"
"241017","063-VK","2019/09/20 21:19:36","新北市三重區中正北路25巷25弄2號","121.493206666667","25.0626133333333","6500200","三重區"
"241024","065-VK","2019/09/20 21:19:42","新北市三重區中正北路115巷6號","121.484088333333","25.0677533333333","6500200","三重區"
"241007","066-VK","2019/09/20 21:19:35","新北市三重區正義北路258號","121.495971666667","25.0686583333333","6500200","三重區"
"241002","090-VK","2019/09/20 21:19:31","新北市三重區仁義街283號","121.495621666667","25.08371","6500200","三重區"
"241003","091-VK","2019/09/20 21:19:27","新北市三重區仁義街220巷3號","121.495133333333","25.0841566666667","6500200","三重區"
"241014","742-BX","2019/09/20 21:19:30","新北市三重區萬全街9號","121.499361666667","25.0697066666667","6500200","三重區"
"241006","262-UM","2019/09/20 21:19:28","新北市三重區重光街124-1號","121.466061666667","25.0654766666667","6500200","三重區"
"241009","267-UM","2019/09/20 21:19:42","新北市五股區中興路三段163號","121.448851666667","25.0808966666667","6500200","三重區"
"241032","269-UM","2019/09/20 21:19:33","新北市三重區光復路二段175號","121.472171666667","25.0616366666667","6500200","三重區"
"241013","270-UM","2019/09/20 21:19:29","新北市三重區仁愛街81-1號","121.495905","25.07318","6500200","三重區"
"241030","KED-0822","2019/09/20 21:19:39","新北市三重區光復路二段180號","121.471483333333","25.0625883333333","6500200","三重區"
"241016","462-BY","2019/09/20 21:19:30","新北市三重區自強路一段95號","121.495835","25.0663683333333","6500200","三重區"
"241026","480-VK","2019/09/20 21:19:43","新北市三重區中正南路117號","121.494115","25.05731","6500200","三重區"
"241023","545-UM","2019/09/20 21:19:38","新北市三重區中正北路176巷27號","121.482665","25.0659183333333","6500200","三重區"
"241001","547-UM","2019/09/20 21:19:23","新北市三重區碧華街211-1號","121.488538333333","25.08276","6500200","三重區"
"241004","887-TS","2019/09/20 21:19:30","新北市三重區集賢路87-1號","121.493643333333","25.086825","6500200","三重區"
"241033","AAC-255","2019/09/20 21:19:34","新北市三重區光復路二段102巷26號","121.470745","25.0580216666667","6500200","三重區"
"235018","640-BX","2019/09/20 21:16:17","新北市中和區員山路36巷16-3號","121.48511","24.9914583333333","6500300","中和區"
"247006","893-R6","2019/09/20 21:19:39","新北市蘆洲區中華街6號","121.463505","25.0815966666667","6501400","蘆洲區"
"247008","341-TH","2019/09/20 21:19:37","新北市蘆洲區信義路73巷13號","121.475975","25.080665","6501400","蘆洲區"
"247022","007-UY","2019/09/20 21:19:23","新北市蘆洲區仁愛街333-1號","121.467785","25.0935983333333","6501400","蘆洲區"
"247002","001-UY","2019/09/20 21:19:25","新北市蘆洲區永樂街78號","121.456918333333","25.0885833333333","6501400","蘆洲區"
"251009","008-UM","2019/09/20 21:19:30","新北市淡水區民族路33巷16-11號","121.46334","25.1357183333333","6501000","淡水區"
"251004","009-UM","2019/09/20 21:19:44","新北市淡水區民族路33號","121.46228","25.1358233333333","6501000","淡水區"
"251001","011-UM","2019/09/20 21:19:37","新北市淡水區濱海路一段306巷60弄33號","121.441923333333","25.1915816666667","6501000","淡水區"
"251002","012-UM","2019/09/20 21:19:30","新北市淡水區學府路172巷21號","121.448288333333","25.17496","6501000","淡水區"
"251008","181-VK","2019/09/20 21:19:40","新北市淡水區水源街二段201號","121.45743","25.1762016666667","6501000","淡水區"
"251010","413-VK","2019/09/20 21:19:31","新北市淡水區中正路一段156巷51號","121.421841666667","25.1809216666667","6501000","淡水區"
"251012","441-VK","2019/09/20 21:19:40","新北市淡水區淡金路五段35巷46號","121.452493333333","25.2347383333333","6501000","淡水區"
"251005","443-VK","2019/09/20 21:19:32","新北市淡水區仁愛街18巷10號","121.44703","25.17029","6501000","淡水區"
"251011","650-BX","2019/09/20 21:19:27","新北市淡水區新民街120巷29號","121.438861666667","25.1788333333333","6501000","淡水區"
"251003","766-UM","2019/09/20 21:19:39","新北市淡水區崁頂15-5號","121.438998333333","25.1860516666667","6501000","淡水區"
"247012","KED-0683","2019/09/20 21:19:44","新北市蘆洲區中興街63號","121.481725","25.0875916666667","6501400","蘆洲區"
"242019","351-TH","2019/09/20 21:19:38","新北市八里區荖阡坑路4-28號","121.398183333333","25.142415","6500500","新莊區"
"221033","647-BX","2019/09/20 21:19:39","新北市汐止區汐萬路一段256巷3號","121.653416666667","25.0745966666667","6501100","汐止區"
"220074","895-R6","2019/09/20 21:13:49","新北市板橋區華東街1-9號","121.448193333333","24.994975","6500100","板橋區"
