"lineid","car","time","location","longitude","latitude","cityid","cityname"
"241011","013-R5","2019/09/20 21:29:32","新北市三重區龍濱路285號","121.50113","25.07333","6500200","三重區"
"241005","060-VK","2019/09/20 21:29:33","新北市三重區仁華街2號","121.483426666667","25.0812283333333","6500200","三重區"
"241017","063-VK","2019/09/20 21:29:36","新北市三重區中正北路25巷25弄1號","121.493163333333","25.0626266666667","6500200","三重區"
"241024","065-VK","2019/09/20 21:29:43","新北市三重區中正北路115巷6號","121.484083333333","25.067725","6500200","三重區"
"241007","066-VK","2019/09/20 21:29:35","新北市三重區信義西街138號","121.495458333333","25.06424","6500200","三重區"
"241003","091-VK","2019/09/20 21:29:28","新北市三重區進安街78號","121.495973333333","25.0848166666667","6500200","三重區"
"241032","269-UM","2019/09/20 21:29:33","新北市八里區荖阡坑路34-2號","121.400991666667","25.13079","6500200","三重區"
"241016","462-BY","2019/09/20 21:29:30","新北市三重區信義西街138號","121.495548333333","25.0643116666667","6500200","三重區"
"235018","640-BX","2019/09/20 21:16:17","新北市中和區員山路36巷16-3號","121.48511","24.9914583333333","6500300","中和區"
"247006","893-R6","2019/09/20 21:29:26","新北市五股區新五路二段372巷20號","121.447961666667","25.0850766666667","6501400","蘆洲區"
"247008","341-TH","2019/09/20 21:29:35","新北市蘆洲區中原路90號","121.457323333333","25.0815083333333","6501400","蘆洲區"
"251009","008-UM","2019/09/20 21:29:29","新北市淡水區民族路33巷2-9號","121.46395","25.1370016666667","6501000","淡水區"
"251004","009-UM","2019/09/20 21:29:24","新北市淡水區民權路119號","121.46022","25.1369666666667","6501000","淡水區"
"251001","011-UM","2019/09/20 21:29:37","新北市淡水區新市二路三段18號","121.43279","25.1937333333333","6501000","淡水區"
"251002","012-UM","2019/09/20 21:29:30","新北市淡水區學府路172巷21號","121.44829","25.174925","6501000","淡水區"
"251008","181-VK","2019/09/20 21:29:40","新北市淡水區水源街二段94號","121.451973333333","25.1743533333333","6501000","淡水區"
"251010","413-VK","2019/09/20 21:29:31","新北市淡水區中正路二段50巷12弄28號","121.420471666667","25.1826683333333","6501000","淡水區"
"251012","441-VK","2019/09/20 21:29:40","新北市淡水區石頭埔8號","121.452618333333","25.2345983333333","6501000","淡水區"
"251005","443-VK","2019/09/20 21:29:32","新北市淡水區水源街一段54號","121.444481666667","25.1722383333333","6501000","淡水區"
"251006","561-UM","2019/09/20 21:29:30","新北市淡水區公明街87號","121.444056666667","25.1683033333333","6501000","淡水區"
"251011","650-BX","2019/09/20 21:29:27","新北市淡水區新民街164號","121.437046666667","25.17832","6501000","淡水區"
"251003","766-UM","2019/09/20 21:29:39","新北市淡水區新春街65巷15號","121.437721666667","25.1825666666667","6501000","淡水區"
"242019","351-TH","2019/09/20 21:29:38","新北市五股區新五路三段13號","121.445078333333","25.0887833333333","6500500","新莊區"
"220074","895-R6","2019/09/20 21:13:49","新北市板橋區華東街1-9號","121.448193333333","24.994975","6500100","板橋區"
