"lineid","car","time","location","longitude","latitude","cityid","cityname"
"235018","640-BX","2019/09/20 21:16:17","新北市中和區員山路36巷16-3號","121.48511","24.9914583333333","6500300","中和區"
"251009","008-UM","2019/09/20 21:39:29","新北市淡水區民生路124巷30號","121.464215","25.137495","6501000","淡水區"
"251004","009-UM","2019/09/20 21:39:44","新北市淡水區民生路1-2號","121.460221666667","25.13782","6501000","淡水區"
"251001","011-UM","2019/09/20 21:39:37","新北市淡水區新市二路三段152號","121.435371666667","25.1942883333333","6501000","淡水區"
"251002","012-UM","2019/09/20 21:39:30","新北市淡水區學府路183號","121.446563333333","25.174625","6501000","淡水區"
"251008","181-VK","2019/09/20 21:39:40","新北市淡水區水源街二段62號","121.450971666667","25.1740483333333","6501000","淡水區"
"251010","413-VK","2019/09/20 21:39:31","新北市淡水區沙崙路216巷52號","121.426341666667","25.1839033333333","6501000","淡水區"
"251012","441-VK","2019/09/20 21:39:39","新北市淡水區淡金路四段191號","121.451595","25.2217616666667","6501000","淡水區"
"251007","442-VK","2019/09/20 21:39:32","新北市淡水區水源街二段194號","121.456941666667","25.1757116666667","6501000","淡水區"
"251005","443-VK","2019/09/20 21:39:32","新北市淡水區水源街一段62巷2號","121.444938333333","25.1720133333333","6501000","淡水區"
"251006","561-UM","2019/09/20 21:39:30","新北市淡水區中正路11巷3號","121.437868333333","25.1707316666667","6501000","淡水區"
"251011","650-BX","2019/09/20 21:39:42","新北市淡水區新民街218號","121.436033333333","25.1802","6501000","淡水區"
"251003","766-UM","2019/09/20 21:39:39","新北市淡水區新民街276號","121.435668333333","25.1811566666667","6501000","淡水區"
"242019","351-TH","2019/09/20 21:39:38","新北市泰山區泰林路一段4號","121.442031666667","25.04818","6500500","新莊區"
"220074","895-R6","2019/09/20 21:13:49","新北市板橋區華東街1-9號","121.448193333333","24.994975","6500100","板橋區"
