"lineid","car","time","location","longitude","latitude","cityid","cityname"
"232010","076-UY","2019/09/21 07:39:32","新北市坪林區磨壁潭10-1號","121.723495","24.93805","6502000","坪林區"
"244005","248-BX","2019/09/21 07:39:37","新北市林口區下福里2鄰39號","121.313055","25.1045316666667","6501700","林口區"
"226005","5620-A6","2019/09/21 07:39:40","新北市平溪區嶺腳里中華街42號","121.739088333333","25.0251866666667","6502400","平溪區"
"226007","7418-A5","2019/09/21 07:39:27","新北市平溪區平湖里大厝31號","121.780385","25.0287466666667","6502400","平溪區"
"226003","AGD-0702","2019/09/21 07:33:06","新北市平溪區嶺腳里嶺腳寮85號","121.748768333333","25.0352533333333","6502400","平溪區"
"223003","205-TH","2019/09/21 07:39:36","新北市石碇區烏塗窟46-2號","121.655745","24.97341","6501900","石碇區"
"223008","406-TH","2019/09/21 07:36:30","新北市石碇區靜安路一段337號","121.69875","25.0145933333333","6501900","石碇區"
"223001","592-UM","2019/09/21 07:39:24","新北市石碇區烏塗窟46-1號","121.65588","24.973075","6501900","石碇區"
"223004","660-BX","2019/09/21 07:39:39","新北市石碇區八分寮55-3號","121.64448","25.0123683333333","6501900","石碇區"
"223007","661-BX","2019/09/21 07:39:29","新北市石碇區靜安路一段337號","121.698853333333","25.01447","6501900","石碇區"
"227004","282-VK","2019/09/21 07:39:42","新北市雙溪區雙溪里太平路54號","121.864758333333","25.0353966666667","6502500","雙溪區"
"252004","292-VK","2019/09/21 07:39:40","新北市三芝區店子里菜公坑99-3號","121.511975","25.2060066666667","6502100","三芝區"
"252007","AAC-283","2019/09/21 07:39:34","新北市三芝區車新路41號","121.487181666667","25.2659483333333","6502100","三芝區"
"237014","760-BX","2019/09/21 07:39:39","新北市三峽區有木31-2號","121.428286666667","24.8629316666667","6500900","三峽區"
