"lineid","car","time","location","longitude","latitude","cityid","cityname"
"232001","758-BX","2019/07/04 08:19:28","新北市坪林區大粗坑6-1號","121.732375","24.948355","6502000","坪林區"
"244006","080-UY","2019/07/04 08:19:42","新北市林口區中湖46號","121.383058333333","25.0951483333333","6501700","林口區"
"244003","248-BX","2019/07/04 08:19:41","新北市林口區下福12號","121.314563333333","25.1100483333333","6501700","林口區"
"244018","402-UM","2019/07/04 08:19:13","新北市林口區文化北路一段200號","121.379263333333","25.07513","6501700","林口區"
"244012","KEA-2802","2019/07/04 08:19:39","新北市林口區佳林路186號","121.383196666667","25.07674","6501700","林口區"
"244022","483-VK","2019/07/04 08:19:40","新北市林口區隆林街85號","121.385993333333","25.0751133333333","6501700","林口區"
"244016","485-VK","2019/07/04 08:19:37","新北市林口區文化一路二段202號","121.383266666667","25.0807066666667","6501700","林口區"
"244008","656-BX","2019/07/04 08:19:37","新北市林口區中北三街161號","121.383353333333","25.0831083333333","6501700","林口區"
"244010","701-TV","2019/07/04 08:19:40","新北市林口區中正路352號","121.386488333333","25.0777216666667","6501700","林口區"
"244024","837-TS","2019/07/04 08:19:45","新北市林口區文化三路一段367號","121.36519","25.0728966666667","6501700","林口區"
"244020","838-TS","2019/07/04 08:19:42","新北市林口區粉寮路一段183號","121.399921666667","25.0822116666667","6501700","林口區"
"222006","289-BY","2019/07/04 08:19:42","新北市深坑區萬福路81號","121.602846666667","25.009445","6501800","深坑區"
"231069","189-VK","2019/07/04 08:19:34","新北市新店區新潭路一段78-1號","121.525125","24.9398916666667","6500600","新店區"
"231008","512-UM","2019/07/04 08:19:36","新北市新店區新烏路二段396號","121.551566666667","24.9092266666667","6500600","新店區"
"226007","7418-A5","2019/07/04 08:19:35","新北市平溪區東勢里芊蓁林37號","121.75165","25.0162983333333","6502400","平溪區"
"226003","AGD-0702","2019/07/04 08:19:42","新北市平溪區靜安路三段400號","121.783986666667","25.0512883333333","6502400","平溪區"
"223003","205-TH","2019/07/04 08:19:44","新北市石碇區北宜路六段塗潭巷15號","121.649958333333","24.9318916666667","6501900","石碇區"
"223008","406-TH","2019/07/04 08:19:42","新北市石碇區靜安路一段151號","121.67203","25.0060266666667","6501900","石碇區"
"223001","592-UM","2019/07/04 08:19:35","新北市石碇區北宜路六段塗潭巷15號","121.649941666667","24.931935","6501900","石碇區"
"223004","660-BX","2019/07/04 08:19:46","新北市石碇區外按9-2號","121.65065","24.997375","6501900","石碇區"
"223007","661-BX","2019/07/04 08:19:26","新北市石碇區靜安路一段151號","121.671961666667","25.00595","6501900","石碇區"
"223005","677-TV","2019/07/04 08:19:40","新北市石碇區石崁1號","121.651491666667","25.0027316666667","6501900","石碇區"
"224010","AGQ-8101","2019/07/04 08:19:37","新北市瑞芳區民權街3-1號","121.809316666667","25.1083","6501200","瑞芳區"
"252004","249-BX","2019/07/04 08:18:36","新北市三芝區興華里車埕59號","121.498676666667","25.1969316666667","6502100","三芝區"
"252007","AAC-283","2019/07/04 08:19:26","新北市三芝區後厝里大片頭62-2號","121.46252","25.2454633333333","6502100","三芝區"
"237014","760-BX","2019/07/04 08:19:32","新北市三峽區插角248-1號","121.425258333333","24.85611","6500900","三峽區"
"226005","ANY-2373","2019/07/04 08:19:40","新北市平溪區南山里南山坪118-1號","121.783236666667","25.0441683333333","6502400","平溪區"
"242038","AAC-296","2019/07/04 08:19:40","新北市新莊區富國路204號","121.424875","25.0241483333333","6500500","新莊區"
"242059","986-R7","2019/07/04 08:19:35","新北市新莊區新樹路457號","121.43268","25.01324","6500500","新莊區"
"242001","751-BX","2019/07/04 08:19:37","新北市新莊區大觀街42巷2-5號","121.454093333333","25.035615","6500500","新莊區"
"242028","615-BX","2019/07/04 08:19:41","新北市新莊區中平路87巷1號","121.444806666667","25.04562","6500500","新莊區"
"242026","613-BX","2019/07/04 08:19:33","新北市新莊區福壽街153號","121.45804","25.0532066666667","6500500","新莊區"
"242057","612-BX","2019/07/04 08:19:45","新北市新莊區新北大道七段437號","121.413751666667","25.02396","6500500","新莊區"
"242045","566-BX","2019/07/04 08:19:37","新北市新莊區建國一路37號","121.434198333333","25.0309566666667","6500500","新莊區"
"242049","497-BY","2019/07/04 08:19:43","新北市新莊區龍安路498號","121.426593333333","25.0171516666667","6500500","新莊區"
"242003","440-UM","2019/07/04 08:19:31","新北市新莊區福樂街31號","121.457836666667","25.0455016666667","6500500","新莊區"
"242040","415-TV","2019/07/04 08:19:42","新北市新莊區中正路614巷4弄1號","121.42571","25.0306666666667","6500500","新莊區"
"242010","413-TV","2019/07/04 08:19:36","新北市新莊區中港路中慶巷26號","121.449715","25.0538116666667","6500500","新莊區"
"242047","400-BY","2019/07/04 08:19:29","新北市新莊區萬安街60巷11號","121.4206","25.0233016666667","6500500","新莊區"
"242024","362-BY","2019/07/04 08:19:26","新北市新莊區新北大道二段298號","121.46493","25.0613333333333","6500500","新莊區"
"242022","353-BY","2019/07/04 08:19:30","新北市新莊區福樂街82號","121.457743333333","25.046855","6500500","新莊區"
"242012","132-UY","2019/07/04 08:19:26","新北市新莊區中誠街167號","121.448225","25.0473516666667","6500500","新莊區"
"242035","135-UY","2019/07/04 08:19:44","新北市新莊區建福路46號","121.426603333333","25.0276916666667","6500500","新莊區"
"242052","172-VK","2019/07/04 08:19:37","新北市新莊區新樹路699巷9號","121.432543333333","25.0019416666667","6500500","新莊區"
"242014","173-VK","2019/07/04 08:19:40","新北市新莊區新泰路502巷56號","121.444518333333","25.0462616666667","6500500","新莊區"
"242020","175-VK","2019/07/04 08:19:35","新北市新莊區永寧街32巷2號","121.452916666667","25.0392266666667","6500500","新莊區"
"242008","176-VK","2019/07/04 08:19:42","新北市新莊區昌明街58號","121.455665","25.0522383333333","6500500","新莊區"
"242018","KED-0687","2019/07/04 08:19:40","新北市新莊區民樂街42號","121.457996666667","25.0413","6500500","新莊區"
"242055","346-TH","2019/07/04 08:19:40","新北市新莊區瓊林路40巷17號","121.447071666667","25.0301783333333","6500500","新莊區"
"242033","348-TH","2019/07/04 08:19:44","新北市新莊區景德路467號","121.443551666667","25.0331083333333","6500500","新莊區"
"242006","349-TH","2019/07/04 08:19:28","新北市新莊區福樂街122號","121.456985","25.0478516666667","6500500","新莊區"
"242030","350-TH","2019/07/04 08:19:28","新北市新莊區新泰路347巷5弄10號","121.443938333333","25.041905","6500500","新莊區"
"242016","351-TH","2019/07/04 08:19:38","新北市新莊區中港路341號","121.452113333333","25.0454133333333","6500500","新莊區"
"233003","KEA-2870","2019/07/04 08:19:42","新北市烏來區烏來街45-1號","121.551645","24.8650383333333","6502900","烏來區"
"242043","281-VK","2019/07/04 08:19:29","新北市新莊區雙鳳路21號","121.41677","25.0269033333333","6500500","新莊區"
