"lineid","car","time","location","longitude","latitude","cityid","cityname"
"244006","080-UY","2019/07/04 08:49:42","新北市林口區竹林路267號","121.389475","25.0808983333333","6501700","林口區"
"244003","248-BX","2019/07/04 08:49:42","新北市林口區嘉寶里47-1號","121.312196666667","25.1216016666667","6501700","林口區"
"244018","402-UM","2019/07/04 08:49:33","新北市林口區忠孝路569號","121.373765","25.06805","6501700","林口區"
"244012","KEA-2802","2019/07/04 08:49:39","新北市林口區中山路188-2號","121.38924","25.0789483333333","6501700","林口區"
"244022","483-VK","2019/07/04 08:49:34","新北市林口區興林路318巷13號","121.388163333333","25.0704533333333","6501700","林口區"
"244016","485-VK","2019/07/04 08:49:37","新北市林口區八德路48巷1號","121.366791666667","25.0662466666667","6501700","林口區"
"244008","656-BX","2019/07/04 08:49:37","新北市林口區佳林路56巷6弄10號","121.385763333333","25.0821983333333","6501700","林口區"
"244010","701-TV","2019/07/04 08:49:40","新北市林口區仁愛路一段272巷16號","121.39334","25.07625","6501700","林口區"
"244024","837-TS","2019/07/04 08:49:45","新北市林口區源泉街28號","121.35779","25.0726016666667","6501700","林口區"
"244020","838-TS","2019/07/04 08:49:42","新北市林口區自強四街20號","121.399428333333","25.0765216666667","6501700","林口區"
"222006","289-BY","2019/07/04 08:49:42","新北市深坑區風格街31巷16號","121.627658333333","25.01732","6501800","深坑區"
"231069","189-VK","2019/07/04 08:49:34","新北市新店區新潭路三段236號","121.501265","24.9041816666667","6500600","新店區"
"231008","512-UM","2019/07/04 08:49:36","新北市新店區松林路31號","121.548258333333","24.909775","6500600","新店區"
"226007","7418-A5","2019/07/04 08:49:34","新北市平溪區東勢里芊蓁坑30號","121.727465","24.9789466666667","6502400","平溪區"
"226003","AGD-0702","2019/07/04 08:49:36","新北市平溪區十分里十分街212號","121.779436666667","25.0442116666667","6502400","平溪區"
"223003","205-TH","2019/07/04 08:49:44","新北市石碇區北宜路六段柑腳巷2號","121.659586666667","24.938035","6501900","石碇區"
"223008","406-TH","2019/07/04 08:49:42","新北市石碇區碇南路二段松柏崎巷53號","121.678926666667","25.0259333333333","6501900","石碇區"
"223001","592-UM","2019/07/04 08:49:35","新北市石碇區北宜路六段柑腳巷2號","121.659605","24.9380366666667","6501900","石碇區"
"223004","660-BX","2019/07/04 08:49:46","新北市石碇區崩山15號","121.675171666667","24.9702966666667","6501900","石碇區"
"223007","661-BX","2019/07/04 08:49:26","新北市石碇區碇南路二段5-1號","121.67038","25.0261266666667","6501900","石碇區"
"223005","677-TV","2019/07/04 08:49:40","新北市石碇區崩山24-2號","121.678576666667","24.96786","6501900","石碇區"
"252004","249-BX","2019/07/04 08:49:36","新北市三芝區興華里田心子15-14號","121.492801666667","25.2042933333333","6502100","三芝區"
"252007","AAC-283","2019/07/04 08:49:40","新北市三芝區錫板里海尾15-12號","121.47716","25.2543916666667","6502100","三芝區"
"237014","760-BX","2019/07/04 08:49:32","新北市三峽區有木5號","121.424483333333","24.869605","6500900","三峽區"
"226005","ANY-2373","2019/07/04 08:49:40","新北市平溪區十分里十分街172號","121.778465","25.04375","6502400","平溪區"
"242038","AAC-296","2019/07/04 08:49:40","新北市新莊區民安路299巷38號","121.429648333333","25.0234066666667","6500500","新莊區"
"242059","986-R7","2019/07/04 08:49:35","新北市新莊區富國路176巷5號","121.424173333333","25.0241433333333","6500500","新莊區"
"242001","751-BX","2019/07/04 08:49:43","新北市新莊區新豐街2號","121.449056666667","25.034675","6500500","新莊區"
"242028","615-BX","2019/07/04 08:49:33","新北市新莊區中原路353號","121.444875","25.054285","6500500","新莊區"
"242026","613-BX","2019/07/04 08:49:33","新北市新莊區中平路377巷28號","121.44301","25.0525866666667","6500500","新莊區"
"242057","612-BX","2019/07/04 08:49:25","新北市新莊區中正路897-10號","121.411596666667","25.021625","6500500","新莊區"
"242045","566-BX","2019/07/04 08:49:36","新北市新莊區中正路829巷22弄41號","121.420745","25.0268166666667","6500500","新莊區"
"242049","497-BY","2019/07/04 08:49:43","新北市新莊區民安西路193號","121.426078333333","25.0153733333333","6500500","新莊區"
"242003","440-UM","2019/07/04 08:49:45","新北市新莊區化成路29巷46號","121.463353333333","25.043915","6500500","新莊區"
"242040","415-TV","2019/07/04 08:49:31","新北市新莊區天祥街81巷17號","121.415168333333","25.0285166666667","6500500","新莊區"
"242010","413-TV","2019/07/04 08:49:29","新北市新莊區中港路531巷58號","121.450036666667","25.0517633333333","6500500","新莊區"
"242047","400-BY","2019/07/04 08:49:29","新北市新莊區民安路102號","121.424055","25.0259133333333","6500500","新莊區"
"242024","362-BY","2019/07/04 08:49:26","新北市新莊區五工二路84號","121.4598","25.06637","6500500","新莊區"
"242022","353-BY","2019/07/04 08:49:30","新北市新莊區化成路526號","121.466303333333","25.0527566666667","6500500","新莊區"
"242012","132-UY","2019/07/04 08:49:46","新北市新莊區中港路415號","121.452178333333","25.047495","6500500","新莊區"
"242035","135-UY","2019/07/04 08:49:47","新北市新莊區建安街72號","121.426803333333","25.0243816666667","6500500","新莊區"
"242052","172-VK","2019/07/04 08:49:37","新北市新莊區民安西路365號","121.428553333333","25.010385","6500500","新莊區"
"242014","173-VK","2019/07/04 08:49:40","新北市新莊區復興路一段19號","121.446015","25.04168","6500500","新莊區"
"242020","175-VK","2019/07/04 08:49:35","新北市新莊區建中街18號","121.449403333333","25.03757","6500500","新莊區"
"242008","176-VK","2019/07/04 08:49:42","新北市新莊區昌隆街28號","121.45408","25.0507633333333","6500500","新莊區"
"242018","KED-0687","2019/07/04 08:49:41","新北市新莊區民樂街60號","121.457953333333","25.041865","6500500","新莊區"
"242055","346-TH","2019/07/04 08:49:40","新北市新莊區瓊林路13-3號","121.448828333333","25.0309483333333","6500500","新莊區"
"242033","348-TH","2019/07/04 08:49:44","新北市新莊區建中街90巷7弄17號","121.445681666667","25.0374766666667","6500500","新莊區"
"242006","349-TH","2019/07/04 08:49:28","新北市新莊區中原路55號","121.457971666667","25.0545983333333","6500500","新莊區"
"242030","350-TH","2019/07/04 08:49:32","新北市新莊區新泰路225巷22弄1號","121.445203333333","25.0393066666667","6500500","新莊區"
"242016","351-TH","2019/07/04 08:49:38","新北市新莊區中港一街50號","121.45044","25.0454783333333","6500500","新莊區"
"233003","KEA-2870","2019/07/04 08:49:42","新北市烏來區屯鹿92-1號","121.503456666667","24.8004516666667","6502900","烏來區"
"233001","KEC-0709","2019/07/04 08:49:29","新北市烏來區啦卡路70-1號","121.565168333333","24.85606","6502900","烏來區"
"242043","281-VK","2019/07/04 08:49:29","新北市新莊區鳳山街56巷21號","121.41392","25.0263316666667","6500500","新莊區"
