"lineid","car","time","location","longitude","latitude","cityid","cityname"
"244018","402-UM","2019/07/04 10:19:33","新北市林口區粉寮69號","121.4051","25.09083","6501700","林口區"
"244022","483-VK","2019/07/04 10:19:34","新北市林口區文林六街62巷28號","121.371755","25.081835","6501700","林口區"
"222006","289-BY","2019/07/04 10:19:42","新北市深坑區王軍寮7號","121.615461666667","24.9842683333333","6501800","深坑區"
"231069","189-VK","2019/07/04 10:19:34","新北市新店區新潭路三段256號","121.508075","24.9039133333333","6500600","新店區"
"231008","512-UM","2019/07/04 10:19:36","新北市新店區小坑一路22號","121.532505","24.9136583333333","6500600","新店區"
"252007","AAC-283","2019/07/04 10:19:46","新北市三芝區新庄里番社后31號","121.500155","25.2733433333333","6502100","三芝區"
"237014","760-BX","2019/07/04 10:08:15","新北市三峽區中山路459巷135號","121.348881666667","24.9330366666667","6500900","三峽區"
"233001","KEC-0709","2019/07/04 10:19:29","新北市鶯歌區鶯桃路38號","121.341936666667","24.9527666666667","6502900","烏來區"
