"lineid","car","time","location","longitude","latitude","cityid","cityname"
"244022","483-VK","2019/07/04 10:39:34","新北市林口區仁愛路二段315號","121.371918333333","25.0788233333333","6501700","林口區"
"222006","289-BY","2019/07/04 10:39:42","新北市深坑區阿柔洋35-1號","121.613283333333","24.9975916666667","6501800","深坑區"
"231069","189-VK","2019/07/04 10:39:34","新北市新店區新潭路三段86號","121.503803333333","24.9098083333333","6500600","新店區"
"231008","512-UM","2019/07/04 10:39:36","新北市新店區成功路126號","121.53362","24.894615","6500600","新店區"
"233001","KEC-0709","2019/07/04 10:39:29","新北市樹林區柑園街二段203巷7弄18號","121.379685","24.9510183333333","6502900","烏來區"
