"lineid","car","time","location","longitude","latitude","cityid","cityname"
"234044","148-BY","2019/07/04 12:39:10","新北市永和區永元路95巷1號","121.52247","25.0018516666667","6500400","永和區"
"234078","298-R6","2019/07/04 12:39:19","新北市永和區林森路81號","121.523968333333","25.0038383333333","6500400","永和區"
"234036","336-UY","2019/07/04 12:39:12","新北市永和區福和路1號","121.526558333333","25.0102316666667","6500400","永和區"
"234062","337-UY","2019/07/04 12:39:12","新北市永和區福和路1號","121.526531666667","25.0101633333333","6500400","永和區"
"234084","338-UY","2019/07/04 12:39:20","新北市永和區中正路6號","121.51249","24.9937533333333","6500400","永和區"
"234068","552-UM","2019/07/04 12:39:03","新北市永和區豫溪街217巷1號","121.525218333333","25.0095916666667","6500400","永和區"
"234015","745-BX","2019/07/04 12:39:06","新北市永和區福和路1號","121.526383333333","25.0095","6500400","永和區"
"234028","746-BX","2019/07/04 12:39:12","新北市永和區得和路423號","121.526208333333","24.9991183333333","6500400","永和區"
"234012","KEA-2591","2019/07/04 12:39:09","新北市永和區保福路二段88巷29號","121.512008333333","25.013855","6500400","永和區"
"234040","862-TW","2019/07/04 12:39:12","新北市永和區福和路159號","121.520306666667","25.0077","6500400","永和區"
"234048","863-TW","2019/07/04 12:39:13","新北市永和區福和路1號","121.526353333333","25.010115","6500400","永和區"
"234025","9371-KE","2019/07/04 12:39:05","新北市永和區福和路1號","121.526426666667","25.0098683333333","6500400","永和區"
"234010","9373-KE","2019/07/04 12:39:05","新北市永和區福和路1號","121.52559","25.0093833333333","6500400","永和區"
"234022","9380-KE","2019/07/04 12:39:22","新北市永和區福和路1號","121.526365","25.0097766666667","6500400","永和區"
"234076","969-R7","2019/07/04 12:38:55","新北市永和區中正路264號","121.516738333333","24.9986216666667","6500400","永和區"
"234001","AAC-295","2019/07/04 12:39:21","新北市永和區福和路1號","121.526575","25.009945","6500400","永和區"
"231029","106-UY","2019/07/04 12:39:13","新北市新店區安華路28-1號","121.51955","24.9607916666667","6500600","新店區"
"231003","268-BY","2019/07/04 12:39:20","新北市新店區安一路一段1-1號","121.519641666667","24.9611283333333","6500600","新店區"
"231021","513-UM","2019/07/04 12:39:11","新北市新店區安一路一段1-1號","121.519628333333","24.96121","6500600","新店區"
"231011","KED-0819","2019/07/04 12:39:13","新北市新店區安一路一段1-1號","121.519741666667","24.9616866666667","6500600","新店區"
"231010","719-UM","2019/07/04 12:39:07","新北市新店區安一路一段1-1號","121.51949","24.96125","6500600","新店區"
"231026","720-UM","2019/07/04 12:39:17","新北市新店區安一路一段1-1號","121.519403333333","24.9612233333333","6500600","新店區"
"231028","897-TW","2019/07/04 12:39:12","新北市新店區安華路28-1號","121.51975","24.9607066666667","6500600","新店區"
"235029","098-UM","2019/07/04 12:39:05","新北市中和區員山路36巷16-3號","121.484936666667","24.9912433333333","6500300","中和區"
"235026","800-TS","2019/07/04 12:39:04","新北市中和區員山路36巷16-3號","121.48491","24.9912133333333","6500300","中和區"
"228005","097-TW","2019/07/04 12:39:04","新北市貢寮區福連里蓬萊街14號","121.995338333333","25.0032216666667","6502600","貢寮區"
"228004","212-TW","2019/07/04 12:39:21","新北市貢寮區吉林里枋腳街6-2號","121.887688333333","25.006065","6502600","貢寮區"
"207002","749-BX","2019/07/04 12:39:09","新北市萬里區雙興里太和路18-2號","121.655615","25.1750666666667","6502800","萬里區"
"207001","662-BX","2019/07/04 12:39:14","新北市萬里區萬里里獅頭路15-1號","121.697326666667","25.1800266666667","6502800","萬里區"
"235025","KEA-2875","2019/07/04 12:29:15","新北市中和區和城路一段271巷1號","121.485538333333","24.991755","6500300","中和區"
