"lineid","car","time","location","longitude","latitude","cityid","cityname"
"234044","148-BY","2019/07/04 14:18:37","新北市永和區得和路275號","121.52241","24.9996","6500400","永和區"
"234078","298-R6","2019/07/04 14:18:39","新北市永和區國中路104巷10號","121.524683333333","25.0070583333333","6500400","永和區"
"234036","336-UY","2019/07/04 14:18:46","新北市永和區成功路一段93巷23弄1號","121.528608333333","25.0026883333333","6500400","永和區"
"234062","337-UY","2019/07/04 14:18:52","新北市永和區得和路131號","121.519141666667","25.0001716666667","6500400","永和區"
"234084","338-UY","2019/07/04 14:18:46","新北市永和區中正路553號","121.516871666667","25.0082","6500400","永和區"
"234068","552-UM","2019/07/04 14:18:43","新北市永和區永安街7巷5號","121.51849","25.0061233333333","6500400","永和區"
"234028","746-BX","2019/07/04 14:18:52","新北市永和區民權路49巷37號","121.522013333333","24.9975983333333","6500400","永和區"
"234052","KEA-2590","2019/07/04 14:18:34","新北市永和區光復街2巷13號","121.517046666667","25.0165366666667","6500400","永和區"
"234005","KED-0605","2019/07/04 14:18:40","新北市中和區光華街61號","121.506433333333","25.0031166666667","6500400","永和區"
"234012","KEA-2591","2019/07/04 14:18:49","新北市永和區保生路25-1號","121.506006666667","25.0076016666667","6500400","永和區"
"234060","AAD-866","2019/07/04 14:18:39","新北市永和區得和路55號","121.517016666667","25.000125","6500400","永和區"
"234040","862-TW","2019/07/04 14:18:52","新北市中和區中安街168號","121.510853333333","24.9998383333333","6500400","永和區"
"234048","863-TW","2019/07/04 14:18:33","新北市永和區保安路22號","121.510608333333","25.0171283333333","6500400","永和區"
"234025","9371-KE","2019/07/04 14:18:45","新北市永和區安樂路272巷9弄7號","121.515095","25.004615","6500400","永和區"
"248015","026-BX","2019/07/04 14:18:52","新北市五股區凌雲路一段41號","121.451828333333","25.1007116666667","6501500","五股區"
"248008","KED-0815","2019/07/04 14:18:42","新北市五股區中興路二段83巷26-6號","121.460173333333","25.075265","6501500","五股區"
"248017","KED-0813","2019/07/04 14:17:13","新北市五股區壟路16-1號","121.414461666667","25.08523","6501500","五股區"
"248011","247-BX","2019/07/04 14:18:41","新北市五股區中興路四段49號","121.438116666667","25.0829366666667","6501500","五股區"
"248013","261-SL","2019/07/04 14:18:31","新北市五股區民義路一段163-2號","121.432076666667","25.0878116666667","6501500","五股區"
"248003","677-BX","2019/07/04 14:18:50","新北市五股區五福路49號","121.433128333333","25.0897433333333","6501500","五股區"
"248001","678-BX","2019/07/04 14:18:38","新北市五股區成泰路3段651-1號","121.452913333333","25.1051783333333","6501500","五股區"
"234076","969-R7","2019/07/04 14:18:35","新北市永和區民族街81巷58號","121.52006","24.9964866666667","6500400","永和區"
"234072","AAC-211","2019/07/04 14:18:31","新北市永和區竹林路119巷30弄7號","121.52242","25.0116316666667","6500400","永和區"
"234066","AAC-212","2019/07/04 14:18:33","新北市永和區中山路一段281巷2弄3號","121.507246666667","25.00651","6500400","永和區"
"234001","AAC-295","2019/07/04 14:18:47","新北市永和區自強街32巷9號","121.51626","25.0075866666667","6500400","永和區"
"244003","248-BX","2019/07/04 14:18:32","新北市林口區瑞平里33-1號","121.348625","25.128605","6501700","林口區"
"243004","AAD-798","2019/07/04 14:18:47","新北市泰山區同義街49號","121.431706666667","25.056055","6501600","泰山區"
"243002","297-R6","2019/07/04 14:18:34","新北市泰山區明志路一段488號","121.430495","25.0545416666667","6501600","泰山區"
"243006","KEA-2801","2019/07/04 14:18:51","新北市泰山區泰林路二段256號","121.431861666667","25.062235","6501600","泰山區"
"243008","421-VK","2019/07/04 14:18:38","新北市泰山區工專路20號","121.42368","25.0396733333333","6501600","泰山區"
"243001","KEA-2215","2019/07/04 14:18:35","新北市泰山區和平街13巷36號","121.4345","25.06543","6501600","泰山區"
"243003","KEA-2216","2019/07/04 14:18:51","新北市泰山區中央路11巷8號","121.426503333333","25.0426116666667","6501600","泰山區"
"243005","646-TV","2019/07/04 14:18:49","新北市泰山區明志路三段145巷11弄1號","121.425668333333","25.0397816666667","6501600","泰山區"
"243007","680-BX","2019/07/04 14:18:32","新北市泰山區公園路29號","121.428713333333","25.0543383333333","6501600","泰山區"
"231030","002-UM","2019/07/04 14:18:40","新北市新店區安民街115巷28號","121.515193333333","24.9675883333333","6500600","新店區"
"231027","0293-UT","2019/07/04 14:18:36","新北市新店區檳榔路36巷14號","121.541138333333","24.9633","6500600","新店區"
"231005","046-UY","2019/07/04 14:18:31","新北市新店區中興路三段219-1號","121.543496666667","24.9823533333333","6500600","新店區"
"231029","106-UY","2019/07/04 14:18:52","新北市新店區安康路二段161號","121.510255","24.9593316666667","6500600","新店區"
"231018","107-UY","2019/07/04 14:18:45","新北市新店區中央四街102號","121.525341666667","24.9764133333333","6500600","新店區"
"231013","108-UY","2019/07/04 14:18:37","新北市新店區大豐路43號","121.540283333333","24.9798633333333","6500600","新店區"
"231036","110-UY","2019/07/04 14:18:46","新北市新店區安祥路109巷1弄39號","121.47693","24.9603583333333","6500600","新店區"
"231023","260-TV","2019/07/04 14:18:40","新北市新店區中興路一段24-2號","121.538531666667","24.9582383333333","6500600","新店區"
"231003","268-BY","2019/07/04 14:18:40","新北市新店區中興路一段202號","121.54372","24.9653666666667","6500600","新店區"
"231035","278-BY","2019/07/04 14:18:34","新北市新店區安和路二段113巷3弄5號","121.517951666667","24.969945","6500600","新店區"
"231017","AAD-862","2019/07/04 14:18:45","新北市新店區中生路66號","121.564681666667","24.9523733333333","6500600","新店區"
"231006","355-BY","2019/07/04 14:18:42","新北市新店區北宜路二段150-1號","121.557745","24.953925","6500600","新店區"
"231038","3712-VJ","2019/07/04 14:18:33","新北市新店區溪洲路6巷88號","121.533135","24.9639666666667","6500600","新店區"
"231024","4716-K9","2019/07/04 14:18:44","新北市新店區安康路二段320巷15弄18號","121.502338333333","24.9591333333333","6500600","新店區"
"231021","513-UM","2019/07/04 14:18:50","新北市新店區屈尺路83-2號","121.544715","24.9220416666667","6500600","新店區"
"231002","619-UM","2019/07/04 14:18:39","新北市新店區中正路500號","121.53406","24.9820583333333","6500600","新店區"
"231034","641-BX","2019/07/04 14:18:52","新北市新店區車子路11號","121.502918333333","24.9516516666667","6500600","新店區"
"231011","KED-0819","2019/07/04 14:18:53","新北市新店區五峰路63巷30號","121.546616666667","24.9694816666667","6500600","新店區"
"231031","718-UY","2019/07/04 14:18:36","新北市新店區永業路51巷2號","121.531968333333","24.954685","6500600","新店區"
"231028","897-TW","2019/07/04 14:18:32","新北市新店區安業街16號","121.516445","24.9781533333333","6500600","新店區"
"231001","898-TW","2019/07/04 14:18:50","新北市新店區中華路1號","121.541098333333","24.9673183333333","6500600","新店區"
"231004","899-TW","2019/07/04 14:18:34","新北市新店區北新路二段16號","121.54292","24.9712466666667","6500600","新店區"
"231037","AKT-0513","2019/07/04 14:18:40","新北市新店區安康路二段341巷38號","121.49658","24.9543316666667","6500600","新店區"
"235030","003-UY","2019/07/04 14:18:49","新北市中和區中和路143號","121.502191666667","24.9997533333333","6500300","中和區"
"235028","005-UY","2019/07/04 14:18:35","新北市中和區連城路2號","121.49932","25.002395","6500300","中和區"
"235027","006-UY","2019/07/04 14:18:47","新北市中和區連勝街161號","121.494311666667","24.9966433333333","6500300","中和區"
"235020","096-UM","2019/07/04 14:18:39","新北市中和區員山路494號","121.479773333333","25.0070766666667","6500300","中和區"
"235003","097-UM","2019/07/04 14:18:45","新北市中和區秀峰街127巷14號","121.519005","24.9906683333333","6500300","中和區"
"235029","098-UM","2019/07/04 14:18:45","新北市中和區中山路二段64巷16弄16號","121.503805","25.00617","6500300","中和區"
"235004","150-BY","2019/07/04 14:18:32","新北市中和區安樂路51巷34號","121.510863333333","24.9945","6500300","中和區"
"235022","151-BY","2019/07/04 14:18:45","新北市中和區中正路637巷52弄3號","121.485218333333","24.9937283333333","6500300","中和區"
"235019","183-VK","2019/07/04 14:18:39","新北市中和區中山路三段181巷18弄11號","121.47269","25.0048616666667","6500300","中和區"
"235002","185-VK","2019/07/04 14:18:50","新北市中和區大仁街108號","121.520573333333","24.992855","6500300","中和區"
"235031","255-BX","2019/07/04 14:18:46","新北市中和區新生街220巷5號","121.48325","24.9984883333333","6500300","中和區"
"235008","293-VK","2019/07/04 14:18:44","新北市中和區復興路306號","121.501275","24.9903633333333","6500300","中和區"
"235036","301-VK","2019/07/04 14:18:45","新北市中和區景平路720號","121.496758333333","25.0029316666667","6500300","中和區"
"235007","352-BY","2019/07/04 14:18:46","新北市中和區景平路296號","121.513048333333","24.99261","6500300","中和區"
"235006","KEA-2878","2019/07/04 14:18:43","新北市中和區安樂路217巷40弄2號","121.513375","24.998005","6500300","中和區"
"247013","KEA-2869","2019/07/04 14:18:38","新北市蘆洲區中山一路182號","121.474068333333","25.0811066666667","6501400","蘆洲區"
"247007","KED-0682","2019/07/04 14:18:46","新北市蘆洲區中山一路196號","121.473678333333","25.080935","6501400","蘆洲區"
"235033","4980-A6","2019/07/04 14:18:38","新北市中和區福祥路68號","121.499256666667","25.0052033333333","6500300","中和區"
"235034","558-UM","2019/07/04 14:18:35","新北市中和區中山路二段223號","121.498535","25.002525","6500300","中和區"
"235009","565-BX","2019/07/04 14:18:34","新北市中和區景新街399巷8號","121.513011666667","24.9898266666667","6500300","中和區"
"235024","KED-0823","2019/07/04 14:18:48","新北市中和區新生街114巷37弄12號","121.482238333333","25.00185","6500300","中和區"
"235011","732-UM","2019/07/04 14:18:38","新北市中和區和平街38巷27號","121.509493333333","24.991185","6500300","中和區"
"235010","733-UM","2019/07/04 14:18:41","新北市中和區忠孝街2巷12號","121.510591666667","24.9817733333333","6500300","中和區"
"235035","783-BX","2019/07/04 14:18:49","新北市中和區中正路772-1號","121.485496666667","25.000005","6500300","中和區"
"235026","800-TS","2019/07/04 14:18:44","新北市中和區中山路二段349號","121.491476666667","25.0029333333333","6500300","中和區"
"235021","801-TS","2019/07/04 14:18:50","新北市中和區員山路473號","121.4803","25.0048933333333","6500300","中和區"
"235005","802-TS","2019/07/04 14:18:45","新北市中和區安平路116號","121.511713333333","24.9976433333333","6500300","中和區"
"235016","805-TS","2019/07/04 14:18:40","新北市中和區興南路二段142巷19弄38號","121.502656666667","24.9835283333333","6500300","中和區"
"235012","896-TW","2019/07/04 14:18:45","新北市中和區華新街109巷24號","121.508428333333","24.9803783333333","6500300","中和區"
"235017","900-TW","2019/07/04 14:18:49","新北市中和區華安街17巷16號","121.467298333333","24.9982566666667","6500300","中和區"
"235018","911-UM","2019/07/04 14:18:40","新北市中和區國光街112巷18弄20號","121.470596666667","25.0018316666667","6500300","中和區"
"235015","157-BY","2019/07/04 14:18:39","新北市中和區和平街7-2號","121.50924","24.9902316666667","6500300","中和區"
"235001","AAC-213","2019/07/04 14:18:48","新北市中和區秀朗路三段10巷14弄19號","121.524618333333","24.996485","6500300","中和區"
"235023","AAC-215","2019/07/04 14:18:47","新北市中和區圓通路286巷2號","121.49148","24.9909866666667","6500300","中和區"
"220013","072-UY","2019/07/04 14:18:47","新北市板橋區海山路5-1號","121.469313333333","25.0095583333333","6500100","板橋區"
"220034","073-UY","2019/07/04 14:18:32","新北市板橋區中正路236巷73號","121.458956666667","25.0196133333333","6500100","板橋區"
"220105","075-UY","2019/07/04 14:18:47","新北市板橋區江寧路三段87巷2弄38號","121.473135","25.0332866666667","6500100","板橋區"
"220017","AAD-861","2019/07/04 14:18:41","新北市板橋區貴興路41號","121.45752","25.0036716666667","6500100","板橋區"
"247003","893-R6","2019/07/04 14:18:44","新北市蘆洲區長安街172巷16號","121.459955","25.0835933333333","6501400","蘆洲區"
"247017","546-UM","2019/07/04 14:18:34","新北市蘆洲區民權路73號","121.473453333333","25.0884816666667","6501400","蘆洲區"
"247001","500-BY","2019/07/04 14:18:38","新北市蘆洲區永樂街57號","121.456691666667","25.08855","6501400","蘆洲區"
"247023","337-TH","2019/07/04 14:18:47","新北市蘆洲區長榮路665號","121.460155","25.091505","6501400","蘆洲區"
"247021","057-VK","2019/07/04 14:18:49","新北市蘆洲區民族路504號","121.469495","25.0902966666667","6501400","蘆洲區"
"247011","056-VK","2019/07/04 14:18:43","新北市蘆洲區民權路38巷14號","121.47676","25.08673","6501400","蘆洲區"
"247015","053-VK","2019/07/04 14:18:48","新北市蘆洲區光華路70巷2號","121.467968333333","25.0829983333333","6501400","蘆洲區"
"247019","007-UY","2019/07/04 14:18:40","新北市蘆洲區民族路426巷6號","121.473746666667","25.0919966666667","6501400","蘆洲區"
"247005","002-UY","2019/07/04 14:18:53","新北市蘆洲區九芎街71巷16號","121.466326666667","25.078145","6501400","蘆洲區"
"228005","097-TW","2019/07/04 14:18:43","新北市貢寮區美豐里土地公嶺55號","121.894775","25.06517","6502600","貢寮區"
"228004","212-TW","2019/07/04 14:18:41","新北市貢寮區雙玉里田寮洋街42號","121.925501666667","25.0122733333333","6502600","貢寮區"
"253003","4710-YM","2019/07/04 14:18:40","新北市石門區內石門67-3號","121.57601","25.2562266666667","6502200","石門區"
"253004","6251-TK","2019/07/04 14:18:31","新北市石門區坪林48號","121.589435","25.2676516666667","6502200","石門區"
"253002","637-UY","2019/07/04 14:18:30","新北市石門區大溪墘3號","121.551826666667","25.281985","6502200","石門區"
"253001","KEC-0718","2019/07/04 14:18:44","新北市石門區八甲16-1號","121.524706666667","25.2808233333333","6502200","石門區"
"207002","749-BX","2019/07/04 14:18:49","新北市萬里區溪底里瑞泉路13-1號","121.60491","25.144995","6502800","萬里區"
"252005","073-UM","2019/07/04 14:18:44","新北市三芝區橫山里橫山33號","121.542876666667","25.2587583333333","6502100","三芝區"
"207001","662-BX","2019/07/04 14:18:34","新北市萬里區磺潭里清水18號","121.637851666667","25.1976266666667","6502800","萬里區"
"236040","KED-0685","2019/07/04 14:18:46","新北市土城區裕生路21巷1弄2號","121.448633333333","24.9871933333333","6501300","土城區"
"236029","253-BX","2019/07/04 14:18:36","新北市土城區順風路28號","121.440308333333","24.9769733333333","6501300","土城區"
"236024","269-VK","2019/07/04 14:18:48","新北市土城區承天路20號","121.439503333333","24.9633316666667","6501300","土城區"
"236012","270-VK","2019/07/04 14:18:49","新北市土城區青雲路39巷7號","121.460321666667","24.9875516666667","6501300","土城區"
"236032","271-VK","2019/07/04 14:18:34","新北市土城區青雲路483巷9號","121.45935","24.9736133333333","6501300","土城區"
"247009","KED-0683","2019/07/04 14:18:37","新北市蘆洲區三民路26巷32號","121.477933333333","25.0830366666667","6501400","蘆洲區"
"236068","KEA-2877","2019/07/04 14:18:46","新北市土城區明德路一段128巷11號","121.4632","24.97891","6501300","土城區"
"236017","401-BY","2019/07/04 14:18:33","新北市土城區金城路二段260號","121.457805","24.983775","6501300","土城區"
"236057","912-UM","2019/07/04 14:18:36","新北市土城區中央路四段390號","121.412576666667","24.9541366666667","6501300","土城區"
"236045","913-UM","2019/07/04 14:18:42","新北市土城區明德路一段375-1號","121.45491","24.9781283333333","6501300","土城區"
"236060","915-UM","2019/07/04 14:18:39","新北市土城區金城路三段202-3號","121.469441666667","24.9885633333333","6501300","土城區"
"236054","AAC-216","2019/07/04 14:18:47","新北市土城區中華路二段90號","121.43836","24.9748","6501300","土城區"
"220027","145-BY","2019/07/04 14:18:39","新北市板橋區民權路202巷7弄15號","121.459403333333","25.014885","6500100","板橋區"
"220028","200-UY","2019/07/04 14:18:49","新北市板橋區大觀路二段1巷6號","121.448566666667","25.0037466666667","6500100","板橋區"
"220030","610-BX","2019/07/04 14:18:45","新北市板橋區溪崑二街111巷1號","121.42673","24.9887666666667","6500100","板橋區"
"220050","245-BX","2019/07/04 14:18:31","新北市板橋區縣民大道三段127巷24號","121.476855","25.0236933333333","6500100","板橋區"
"220004","276-BY","2019/07/04 14:18:52","新北市板橋區信義路182號","121.459441666667","24.9914366666667","6500100","板橋區"
"220020","277-BY","2019/07/04 14:18:50","新北市板橋區金門街372巷33號","121.427343333333","24.984925","6500100","板橋區"
"220043","283-UM","2019/07/04 14:18:44","新北市板橋區吳鳳路38號","121.468576666667","25.0303716666667","6500100","板橋區"
"220019","283-VK","2019/07/04 14:18:42","新北市板橋區忠孝路154巷42號","121.464215","25.0015016666667","6500100","板橋區"
"220001","285-VK","2019/07/04 14:18:40","新北市板橋區縣民大道三段270巷17號","121.47865","25.022895","6500100","板橋區"
"220031","286-VK","2019/07/04 14:18:46","新北市板橋區龍興街99巷43號","121.443081666667","25.0033983333333","6500100","板橋區"
"220029","287-VK","2019/07/04 14:18:44","新北市板橋區南雅西路一段182號","121.452965","25.008065","6500100","板橋區"
"220039","288-VK","2019/07/04 14:18:32","新北市板橋區裕民街89號","121.460386666667","25.0280216666667","6500100","板橋區"
"220009","295-UM","2019/07/04 14:18:49","新北市板橋區中山路二段157號","121.475593333333","25.0167383333333","6500100","板橋區"
"220032","296-UM","2019/07/04 14:18:44","新北市板橋區溪北路73巷5號","121.428308333333","24.98984","6500100","板橋區"
"220023","303-R5","2019/07/04 14:18:35","新北市板橋區館前西路177號","121.455681666667","25.00825","6500100","板橋區"
"220010","305-R5","2019/07/04 14:18:44","新北市板橋區三民路二段居仁巷2弄23號","121.47993","25.013005","6500100","板橋區"
"220041","307-R5","2019/07/04 14:18:32","新北市板橋區光武街4巷1號","121.468188333333","25.02532","6500100","板橋區"
"220047","317-R6","2019/07/04 14:18:47","新北市板橋區自由路60-3號","121.465763333333","25.0236983333333","6500100","板橋區"
"220038","487-VK","2019/07/04 14:18:39","新北市板橋區英士路199號","121.45868","25.0233283333333","6500100","板橋區"
"220037","491-VK","2019/07/04 14:18:49","新北市板橋區文化路二段182巷3弄63號","121.472655","25.0288866666667","6500100","板橋區"
"220104","560-BX","2019/07/04 14:18:43","新北市板橋區中正路377-3號","121.45414","25.0215033333333","6500100","板橋區"
"220052","561-BX","2019/07/04 14:18:45","新北市板橋區文化路一段280-3號","121.467345","25.021425","6500100","板橋區"
"220011","609-BX","2019/07/04 14:18:44","新北市板橋區三民路二段241號","121.479005","25.0126383333333","6500100","板橋區"
"220040","637-BX","2019/07/04 14:18:49","新北市板橋區縣民大道三段247巷16號","121.481816666667","25.026315","6500100","板橋區"
"220005","686-BX","2019/07/04 14:18:38","新北市板橋區和平路143巷7號","121.463143333333","24.9957433333333","6500100","板橋區"
"220025","687-BX","2019/07/04 14:18:41","新北市板橋區龍興街55號","121.443216666667","25.001045","6500100","板橋區"
"220042","689-BX","2019/07/04 14:18:48","新北市板橋區雨農路32號","121.461211666667","25.0243566666667","6500100","板橋區"
"220002","741-BX","2019/07/04 14:18:51","新北市板橋區四川路一段205號","121.460065","25.0036383333333","6500100","板橋區"
"220051","KEA-2699","2019/07/04 14:18:46","新北市板橋區雙十路二段130巷2弄2號","121.4742","25.02917","6500100","板橋區"
"220003","827-TW","2019/07/04 14:18:49","新北市板橋區新民街6巷20號","121.46524","25.0101116666667","6500100","板橋區"
"220014","829-TW","2019/07/04 14:18:36","新北市板橋區長安街222-2號","121.47504","25.012305","6500100","板橋區"
"220016","831-TW","2019/07/04 14:18:45","新北市板橋區林森街1巷34號","121.48288","25.0243433333333","6500100","板橋區"
"220022","895-R6","2019/07/04 14:18:52","新北市板橋區西門街9號","121.455711666667","25.0111633333333","6500100","板橋區"
"220021","985-R7","2019/07/04 14:18:46","新北市板橋區民權路243號","121.457195","25.0157516666667","6500100","板橋區"
"220046","AAC-210","2019/07/04 14:18:53","新北市板橋區新海路69號","121.461716666667","25.021725","6500100","板橋區"
"220012","AAC-253","2019/07/04 14:18:49","新北市板橋區中山路一段85號","121.461468333333","25.009995","6500100","板橋區"
"235032","KEA-2873","2019/07/04 14:18:26","新北市中和區枋寮街55號","121.501346666667","25.0009783333333","6500300","中和區"
"235025","KEA-2875","2019/07/04 14:18:44","新北市中和區民利街9巷2弄10號","121.480295","24.9988116666667","6500300","中和區"
