"lineid","car","time","location","longitude","latitude","cityid","cityname"
"234025","9371-KE","2019/07/04 14:49:45","新北市永和區雙和街9號","121.509608333333","25.001675","6500400","永和區"
"248015","026-BX","2019/07/04 14:49:52","新北市五股區成泰路三段577巷80弄78號","121.448471666667","25.1046433333333","6501500","五股區"
"248008","KED-0815","2019/07/04 14:49:48","新北市五股區四維路155巷1號","121.467368333333","25.0744666666667","6501500","五股區"
"248017","KED-0813","2019/07/04 14:49:33","新北市五股區外寮路13-1號","121.424826666667","25.08123","6501500","五股區"
"248011","247-BX","2019/07/04 14:49:41","新北市五股區六合街70號","121.431833333333","25.0900583333333","6501500","五股區"
"248013","261-SL","2019/07/04 14:49:31","新北市五股區五福路14巷29號","121.435423333333","25.0889766666667","6501500","五股區"
"248009","272-BY","2019/07/04 14:49:49","新北市五股區登林路75號","121.428331666667","25.069915","6501500","五股區"
"248003","677-BX","2019/07/04 14:49:33","新北市五股區成泰路一段106-1號","121.435675","25.0717266666667","6501500","五股區"
"248001","678-BX","2019/07/04 14:49:38","新北市五股區成泰路三段173號","121.445321666667","25.0919833333333","6501500","五股區"
"244003","248-BX","2019/07/04 14:49:32","新北市林口區瑞平里33-1號","121.34863","25.1285083333333","6501700","林口區"
"243004","AAD-798","2019/07/04 14:49:47","新北市泰山區楓江路46巷1號","121.43521","25.0621816666667","6501600","泰山區"
"243002","297-R6","2019/07/04 14:49:33","新北市泰山區明志路二段254巷16弄7號","121.426121666667","25.0482516666667","6501600","泰山區"
"243006","KEA-2801","2019/07/04 14:49:31","新北市泰山區明志路一段34號","121.433563333333","25.0653883333333","6501600","泰山區"
"243008","421-VK","2019/07/04 14:49:38","新北市泰山區明志路三段277號","121.422923333333","25.0366766666667","6501600","泰山區"
"243001","KEA-2215","2019/07/04 14:49:42","新北市泰山區泰林路二段118號","121.434648333333","25.0593116666667","6501600","泰山區"
"243003","KEA-2216","2019/07/04 14:49:46","新北市泰山區明志路三段442號","121.420995","25.032765","6501600","泰山區"
"243007","680-BX","2019/07/04 14:49:32","新北市泰山區明志路二段194號","121.427471666667","25.04967","6501600","泰山區"
"231030","002-UM","2019/07/04 14:49:40","新北市新店區安民街193號","121.517086666667","24.971605","6500600","新店區"
"231027","0293-UT","2019/07/04 14:49:36","新北市新店區寶橋路69-1號","121.545433333333","24.9750883333333","6500600","新店區"
"231005","046-UY","2019/07/04 14:49:51","新北市新店區復興路107號","121.534508333333","24.98798","6500600","新店區"
"231029","106-UY","2019/07/04 14:49:53","新北市新店區安康路三段578-1號","121.481041666667","24.948685","6500600","新店區"
"231018","107-UY","2019/07/04 14:49:45","新北市新店區中央一街39號","121.527435","24.9736966666667","6500600","新店區"
"231013","108-UY","2019/07/04 14:49:37","新北市新店區北新路二段97巷10弄1-1號","121.542108333333","24.974475","6500600","新店區"
"231036","110-UY","2019/07/04 14:49:46","新北市新店區安祥路106巷282號","121.472818333333","24.9583966666667","6500600","新店區"
"231039","187-VK","2019/07/04 14:49:49","新北市新店區安華路28-1號","121.519803333333","24.96105","6500600","新店區"
"231023","260-TV","2019/07/04 14:49:40","新北市新店區檳榔路117號","121.544606666667","24.96139","6500600","新店區"
"231003","268-BY","2019/07/04 14:49:40","新北市新店區中興路二段55號","121.546443333333","24.9701916666667","6500600","新店區"
"231035","278-BY","2019/07/04 14:49:34","新北市新店區安和路二段220號","121.51888","24.976395","6500600","新店區"
"231017","AAD-862","2019/07/04 14:49:45","新北市新店區北宜路三段221號","121.592363333333","24.9531916666667","6500600","新店區"
"231006","355-BY","2019/07/04 14:49:41","新北市新店區北宜路二段11號","121.547803333333","24.9519266666667","6500600","新店區"
"231038","3712-VJ","2019/07/04 14:49:33","新北市新店區安華路28-1號","121.51958","24.96087","6500600","新店區"
"231025","4715-K9","2019/07/04 14:49:45","新北市新店區建國路133號","121.539418333333","24.978275","6500600","新店區"
"231021","513-UM","2019/07/04 14:49:50","新北市新店區桂山路71巷2號","121.566743333333","24.9002233333333","6500600","新店區"
"231002","619-UM","2019/07/04 14:49:39","新北市新店區民權路104號","121.535778333333","24.9829033333333","6500600","新店區"
"231034","641-BX","2019/07/04 14:49:52","新北市新店區安康路二段330號","121.504141666667","24.9579366666667","6500600","新店區"
"231011","KED-0819","2019/07/04 14:49:33","新北市新店區寶橋路75號","121.545703333333","24.97513","6500600","新店區"
"231031","718-UY","2019/07/04 14:49:36","新北市新店區薏仁坑路自強巷1號","121.497433333333","24.9577883333333","6500600","新店區"
"231028","897-TW","2019/07/04 14:49:52","新北市新店區安德街53號","121.511015","24.962205","6500600","新店區"
"231001","898-TW","2019/07/04 14:49:30","新北市新店區北新路一段150號","121.542736666667","24.97073","6500600","新店區"
"231004","899-TW","2019/07/04 14:49:34","新北市新店區民族路66號","121.539451666667","24.97837","6500600","新店區"
"231037","AKT-0513","2019/07/04 14:49:39","新北市新店區柴埕路60巷1號","121.509661666667","24.9642983333333","6500600","新店區"
"235030","003-UY","2019/07/04 14:49:49","新北市中和區南工路22巷1號","121.505588333333","25.000785","6500300","中和區"
"235020","096-UM","2019/07/04 14:49:36","新北市中和區中山路三段116號","121.476106666667","25.00627","6500300","中和區"
"235003","097-UM","2019/07/04 14:49:45","新北市永和區中正路3號","121.513786666667","24.9955766666667","6500300","中和區"
"235029","098-UM","2019/07/04 14:49:45","新北市中和區福美路230號","121.499048333333","25.0052533333333","6500300","中和區"
"235004","150-BY","2019/07/04 14:49:50","新北市中和區景安路79巷21號","121.506966666667","24.99672","6500300","中和區"
"235022","151-BY","2019/07/04 14:49:45","新北市中和區員山路150巷2弄61號","121.481668333333","24.99733","6500300","中和區"
"235019","183-VK","2019/07/04 14:49:39","新北市中和區中山路三段209號","121.471886666667","25.0062716666667","6500300","中和區"
"235002","185-VK","2019/07/04 14:49:50","新北市永和區民族街81巷62號","121.520296666667","24.996395","6500300","中和區"
"235031","255-BX","2019/07/04 14:49:46","新北市板橋區民生路一段52號","121.474091666667","25.0147416666667","6500300","中和區"
"235008","293-VK","2019/07/04 14:49:44","新北市中和區南山路128號","121.503706666667","24.992985","6500300","中和區"
"235036","301-VK","2019/07/04 14:49:36","新北市中和區保平路340巷18號","121.506005","25.0044816666667","6500300","中和區"
"235007","352-BY","2019/07/04 14:49:45","新北市中和區安樂路33號","121.511676666667","24.992385","6500300","中和區"
"247013","KEA-2869","2019/07/04 14:49:38","新北市蘆洲區得勝街64號","121.47267","25.0835683333333","6501400","蘆洲區"
"247007","KED-0682","2019/07/04 14:49:46","新北市蘆洲區中山一路169號","121.475033333333","25.0815766666667","6501400","蘆洲區"
"235014","4979-A6","2019/07/04 14:49:44","新北市中和區景平路241巷84弄57號","121.50605","24.9922883333333","6500300","中和區"
"235034","558-UM","2019/07/04 14:49:35","新北市中和區連勝街39號","121.498181666667","24.9977166666667","6500300","中和區"
"235009","565-BX","2019/07/04 14:49:34","新北市新店區安康路二段320巷15弄2號","121.504651666667","24.9598683333333","6500300","中和區"
"235011","732-UM","2019/07/04 14:49:38","新北市中和區和平街6號","121.51018","24.990025","6500300","中和區"
"235010","733-UM","2019/07/04 14:49:41","新北市中和區仁愛街2號","121.510425","24.9893266666667","6500300","中和區"
"235035","783-BX","2019/07/04 14:49:49","新北市中和區建六路64號","121.486251666667","25.0020883333333","6500300","中和區"
"235026","800-TS","2019/07/04 14:49:44","新北市中和區中山路二段346號","121.493265","25.00227","6500300","中和區"
"235016","805-TS","2019/07/04 14:49:40","新北市中和區興南路二段79-2號","121.506738333333","24.9846","6500300","中和區"
"235012","896-TW","2019/07/04 14:49:45","新北市中和區信義街115號","121.512165","24.986855","6500300","中和區"
"235017","900-TW","2019/07/04 14:49:49","新北市中和區國光街173號","121.468028333333","25.0014833333333","6500300","中和區"
"235018","911-UM","2019/07/04 14:49:40","新北市中和區莒光路11號","121.471826666667","25.0057433333333","6500300","中和區"
"235015","157-BY","2019/07/04 14:49:39","新北市中和區中興街202巷16號","121.498826666667","24.9898166666667","6500300","中和區"
"235001","AAC-213","2019/07/04 14:49:48","新北市中和區立人街3號","121.521818333333","24.993955","6500300","中和區"
"235023","AAC-215","2019/07/04 14:49:47","新北市中和區圓通路305巷25弄2號","121.494933333333","24.9891716666667","6500300","中和區"
"220013","072-UY","2019/07/04 14:49:47","新北市板橋區國泰街38巷3弄7號","121.468193333333","25.00672","6500100","板橋區"
"220034","073-UY","2019/07/04 14:49:32","新北市板橋區國光路189-3號","121.461193333333","25.0185316666667","6500100","板橋區"
"220105","075-UY","2019/07/04 14:49:47","新北市板橋區民治街71巷15號","121.480258333333","25.0328366666667","6500100","板橋區"
"220017","AAD-861","2019/07/04 14:49:41","新北市板橋區貴興路119巷2號","121.455538333333","25.0021966666667","6500100","板橋區"
"247001","500-BY","2019/07/04 14:49:38","新北市蘆洲區永康街2巷29號","121.458968333333","25.086435","6501400","蘆洲區"
"247021","057-VK","2019/07/04 14:49:49","新北市蘆洲區中正路384號","121.46329","25.0931383333333","6501400","蘆洲區"
"247015","053-VK","2019/07/04 14:49:48","新北市蘆洲區和平路183號","121.466328333333","25.081275","6501400","蘆洲區"
"247019","007-UY","2019/07/04 14:49:40","新北市蘆洲區民義街68巷5號","121.473485","25.0895816666667","6501400","蘆洲區"
"247005","002-UY","2019/07/04 14:49:33","新北市蘆洲區中華街33號","121.463193333333","25.0814033333333","6501400","蘆洲區"
"228005","097-TW","2019/07/04 14:49:48","新北市貢寮區美豐里丹裡街65號","121.909041666667","25.0588816666667","6502600","貢寮區"
"228004","212-TW","2019/07/04 14:49:41","新北市貢寮區福隆里裕隆街2號","121.946601666667","25.015175","6502600","貢寮區"
"253003","4710-YM","2019/07/04 14:49:40","新北市石門區尖子鹿101-1號","121.580113333333","25.292425","6502200","石門區"
"253004","6251-TK","2019/07/04 14:49:51","新北市石門區內阿里磅25號","121.591148333333","25.2425833333333","6502200","石門區"
"253002","637-UY","2019/07/04 14:49:50","新北市石門區楓林62-1號","121.542283333333","25.273185","6502200","石門區"
"253001","KEC-0718","2019/07/04 14:49:44","新北市石門區崁子腳53號","121.537116666667","25.2831866666667","6502200","石門區"
"207002","749-BX","2019/07/04 14:47:29","新北市萬里區溪底里福德坑路2號","121.625288333333","25.1561383333333","6502800","萬里區"
"252005","073-UM","2019/07/04 14:49:04","新北市三芝區埔坪里埔頭坑147號","121.510321666667","25.2499533333333","6502100","三芝區"
"207001","662-BX","2019/07/04 14:48:54","新北市萬里區雙興里豐稟路39號","121.642408333333","25.1820416666667","6502800","萬里區"
"236040","KED-0685","2019/07/04 14:49:46","新北市土城區裕民路136巷4弄1號","121.451026666667","24.98562","6501300","土城區"
"236029","253-BX","2019/07/04 14:49:36","新北市土城區忠義路26巷10號","121.439781666667","24.9699033333333","6501300","土城區"
"236024","269-VK","2019/07/04 14:49:50","新北市土城區中央路二段225號","121.44044","24.9726616666667","6501300","土城區"
"236012","270-VK","2019/07/04 14:49:49","新北市土城區清水路235巷1弄2號","121.461041666667","24.9830583333333","6501300","土城區"
"236032","271-VK","2019/07/04 14:49:41","新北市土城區仁愛路42號","121.461786666667","24.9792516666667","6501300","土城區"
"236068","KEA-2877","2019/07/04 14:49:46","新北市土城區明德路一段280號","121.457853333333","24.9773916666667","6501300","土城區"
"236017","401-BY","2019/07/04 14:49:33","新北市土城區延吉街253巷3號","121.467701666667","24.9846716666667","6501300","土城區"
"236057","912-UM","2019/07/04 14:49:36","新北市土城區金城路一段43號","121.44035","24.9692633333333","6501300","土城區"
"236045","913-UM","2019/07/04 14:49:42","新北市板橋區信義路170巷10號","121.459938333333","24.9905866666667","6501300","土城區"
"236060","915-UM","2019/07/04 14:49:39","新北市土城區延和路246-1號","121.46975","24.989855","6501300","土城區"
"236054","AAC-216","2019/07/04 14:49:38","新北市土城區裕民路177號","121.453376666667","24.9847816666667","6501300","土城區"
"238012","303-VK","2019/07/04 14:49:51","新北市樹林區育德街78號","121.387483333333","24.96846","6500700","樹林區"
"220027","145-BY","2019/07/04 14:49:39","新北市板橋區民權路202巷38號","121.460755","25.01759","6500100","板橋區"
"220028","200-UY","2019/07/04 14:49:49","新北市板橋區大觀路二段37巷58號","121.449308333333","25.0025033333333","6500100","板橋區"
"220030","610-BX","2019/07/04 14:49:38","新北市板橋區大觀路三段133巷9號","121.43314","24.994025","6500100","板橋區"
"220050","245-BX","2019/07/04 14:49:31","新北市板橋區萬板路172號","121.475705","25.0228833333333","6500100","板橋區"
"220004","276-BY","2019/07/04 14:49:52","新北市板橋區信義路1巷26弄28號","121.458261666667","24.9964983333333","6500100","板橋區"
"220020","277-BY","2019/07/04 14:49:50","新北市板橋區金門街215巷109號","121.433426666667","24.9880066666667","6500100","板橋區"
"220043","283-UM","2019/07/04 14:49:45","新北市板橋區文德路44號","121.462","25.0240766666667","6500100","板橋區"
"220019","283-VK","2019/07/04 14:49:42","新北市板橋區國慶路8號","121.458365","24.9943866666667","6500100","板橋區"
"220001","285-VK","2019/07/04 14:49:40","新北市板橋區中山路二段60巷11號","121.47423","25.0151933333333","6500100","板橋區"
"220031","286-VK","2019/07/04 14:49:38","新北市板橋區僑中二街126巷2號","121.445378333333","25.0052416666667","6500100","板橋區"
"220029","287-VK","2019/07/04 14:49:44","新北市板橋區大觀路一段29巷33號","121.450246666667","25.00755","6500100","板橋區"
"220039","288-VK","2019/07/04 14:49:41","新北市板橋區雨農路27巷6號","121.461401666667","25.023805","6500100","板橋區"
"220009","295-UM","2019/07/04 14:49:33","新北市板橋區民生路二段107號","121.471176666667","25.017895","6500100","板橋區"
"220032","296-UM","2019/07/04 14:49:44","新北市板橋區溪崑二街145號","121.426203333333","24.9882116666667","6500100","板橋區"
"220023","303-R5","2019/07/04 14:49:35","新北市板橋區大勇街10巷21號","121.4534","25.0174366666667","6500100","板橋區"
"220010","305-R5","2019/07/04 14:49:44","新北市板橋區三民路二段29巷31弄15號","121.482038333333","25.0179","6500100","板橋區"
"220041","307-R5","2019/07/04 14:49:32","新北市板橋區新海路109巷1弄2號","121.460755","25.0224066666667","6500100","板橋區"
"220047","317-R6","2019/07/04 14:49:47","新北市板橋區裕民街108號","121.459776666667","25.027825","6500100","板橋區"
"220038","487-VK","2019/07/04 14:49:39","新北市板橋區英士路192-1號","121.458365","25.02358","6500100","板橋區"
"220037","491-VK","2019/07/04 14:49:50","新北市板橋區文化路二段556號","121.47624","25.034275","6500100","板橋區"
"220104","560-BX","2019/07/04 14:49:43","新北市板橋區中正路415號","121.454238333333","25.0226933333333","6500100","板橋區"
"220052","561-BX","2019/07/04 14:49:45","新北市板橋區英士路58巷16號","121.460691666667","25.0255","6500100","板橋區"
"220011","609-BX","2019/07/04 14:49:44","新北市板橋區萬安街53巷2號","121.483685","25.0238766666667","6500100","板橋區"
"220040","637-BX","2019/07/04 14:49:49","新北市板橋區懷德街127巷13號","121.479276666667","25.0310933333333","6500100","板橋區"
"220005","686-BX","2019/07/04 14:49:38","新北市板橋區廣和街79號","121.462616666667","24.99214","6500100","板橋區"
"220025","687-BX","2019/07/04 14:49:41","新北市板橋區僑中二街102巷1號","121.446018333333","25.0080766666667","6500100","板橋區"
"220042","689-BX","2019/07/04 14:49:48","新北市板橋區長江路二段271號","121.46979","25.0329583333333","6500100","板橋區"
"220002","741-BX","2019/07/04 14:49:32","新北市板橋區光明街97號","121.464503333333","25.0028583333333","6500100","板橋區"
"220051","KEA-2699","2019/07/04 14:49:46","新北市板橋區文聖街42號","121.476368333333","25.0313333333333","6500100","板橋區"
"220003","827-TW","2019/07/04 14:49:44","新北市板橋區國慶路149巷13弄2號","121.46097","24.9971816666667","6500100","板橋區"
"220014","829-TW","2019/07/04 14:49:35","新北市板橋區長安街251巷32號","121.472025","25.0110333333333","6500100","板橋區"
"220016","831-TW","2019/07/04 14:49:45","新北市板橋區中山路二段光榮巷30弄25號","121.484103333333","25.0200633333333","6500100","板橋區"
"220022","895-R6","2019/07/04 14:49:51","新北市板橋區府中路29-2號","121.458431666667","25.0080533333333","6500100","板橋區"
"220021","985-R7","2019/07/04 14:49:42","新北市板橋區中正路290號","121.455013333333","25.02031","6500100","板橋區"
"220046","AAC-210","2019/07/04 14:49:53","新北市板橋區光正街45巷2弄3號","121.46175","25.0172283333333","6500100","板橋區"
"220012","AAC-253","2019/07/04 14:49:49","新北市板橋區館前東路98-2號","121.462525","25.0075266666667","6500100","板橋區"
"235032","KEA-2873","2019/07/04 14:49:26","新北市中和區勝利路35巷1弄16號","121.499561666667","25.0076033333333","6500300","中和區"
"235025","KEA-2875","2019/07/04 14:49:13","新北市中和區興南路2段261巷6-17號","121.50266","24.9782983333333","6500300","中和區"
