"lineid","car","time","location","longitude","latitude","cityid","cityname"
"249005","172-UM","2019/07/04 17:29:10","新北市八里區荖阡坑路71號","121.40687","25.1262766666667","6502300","八里區"
"249001","173-UM","2019/07/04 17:29:22","新北市八里區中華路一段1-5號","121.423303333333","25.1586183333333","6502300","八里區"
"249004","303-UY","2019/07/04 17:29:17","新北市八里區埤頭一街6號","121.415683333333","25.15616","6502300","八里區"
"249002","305-UY","2019/07/04 17:29:04","新北市八里區龍米路二段65巷15弄1號","121.447235","25.1406216666667","6502300","八里區"
"249003","593-UM","2019/07/04 17:29:07","新北市八里區中山路二段315號","121.400651666667","25.1478133333333","6502300","八里區"
"232011","375-UM","2019/07/04 17:29:19","新北市坪林區北宜路八段503號","121.706991666667","24.9195233333333","6502000","坪林區"
"244007","080-UY","2019/07/04 17:29:12","新北市林口區菁埔1-10號","121.382666666667","25.0952833333333","6501700","林口區"
"244019","402-UM","2019/07/04 17:29:12","新北市林口區公園路163號","121.370981666667","25.0714366666667","6501700","林口區"
"244023","483-VK","2019/07/04 17:29:11","新北市林口區興林一街109巷16號","121.392058333333","25.07275","6501700","林口區"
"244017","485-VK","2019/07/04 17:29:19","新北市林口區文化一路一段133號","121.374035","25.0718266666667","6501700","林口區"
"244009","656-BX","2019/07/04 17:29:16","新北市林口區文化一路二段329號","121.386121666667","25.0864166666667","6501700","林口區"
"244011","701-TV","2019/07/04 17:29:03","新北市林口區佳林路154號","121.384186666667","25.07712","6501700","林口區"
"244025","837-TS","2019/07/04 17:29:11","新北市林口區文化二路一段241巷26號","121.366238333333","25.0717183333333","6501700","林口區"
"244021","838-TS","2019/07/04 17:29:07","新北市林口區粉寮路二段457號","121.404153333333","25.0987683333333","6501700","林口區"
"231046","719-UM","2019/07/04 17:13:40","新北市新店區直潭十街27號","121.534601666667","24.938335","6500600","新店區"
"241015","062-VK","2019/07/04 17:29:20","新北市三重區長元街63號","121.502703333333","25.0664666666667","6500200","三重區"
"241017","063-VK","2019/07/04 17:29:10","新北市三重區中正北路25巷9號","121.492703333333","25.0621516666667","6500200","三重區"
"241024","065-VK","2019/07/04 17:29:21","新北市三重區中正北路193巷21弄6號","121.476316666667","25.0704966666667","6500200","三重區"
"241003","091-VK","2019/07/04 17:29:10","新北市三重區五華街141巷58號","121.49355","25.086745","6500200","三重區"
"241030","742-BX","2019/07/04 17:29:06","新北市三重區新興路46號","121.491375","25.0535916666667","6500200","三重區"
"241005","262-UM","2019/07/04 17:29:13","新北市三重區永安北路二段25巷50號","121.483293333333","25.0820433333333","6500200","三重區"
"241016","266-UM","2019/07/04 17:29:19","新北市三重區信義西街41號","121.495276666667","25.06405","6500200","三重區"
"241009","267-UM","2019/07/04 17:29:15","新北市三重區車路頭街140號","121.484113333333","25.0756616666667","6500200","三重區"
"241018","268-UM","2019/07/04 17:29:23","新北市三重區大智街51號","121.492746666667","25.06761","6500200","三重區"
"241032","269-UM","2019/07/04 17:29:13","新北市三重區名源街31號","121.4818","25.06045","6500200","三重區"
"241007","398-BY","2019/07/04 17:29:08","新北市三重區三和路四段145巷112號","121.487203333333","25.0791883333333","6500200","三重區"
"241024","462-BY","2019/07/04 17:29:15","新北市三重區國道路一段58巷15號","121.481355","25.0720166666667","6500200","三重區"
"241020","478-VK","2019/07/04 17:29:04","新北市三重區忠孝路二段86號","121.483663333333","25.0694966666667","6500200","三重區"
"241014","543-UM","2019/07/04 17:29:17","新北市三重區安和路15號","121.50121","25.06845","6500200","三重區"
"241019","KEA-2593","2019/07/04 17:29:13","新北市三重區自強路二段27號","121.48968","25.0693483333333","6500200","三重區"
"241025","887-TS","2019/07/04 17:29:16","新北市三重區中正北路181號","121.477726666667","25.0695183333333","6500200","三重區"
"241012","941-UM","2019/07/04 17:29:14","新北市三重區公園街51號","121.49867","25.0749316666667","6500200","三重區"
"241033","AAC-255","2019/07/04 17:29:08","新北市三重區中興北街153-17號","121.469068333333","25.0548116666667","6500200","三重區"
"235064","005-UY","2019/07/04 17:29:20","新北市中和區員山路36巷16-3號","121.484995","24.991305","6500300","中和區"
"247014","KEA-2869","2019/07/04 17:29:06","新北市蘆洲區三民路105號","121.472641666667","25.085505","6501400","蘆洲區"
"247008","KED-0682","2019/07/04 17:29:16","新北市蘆洲區民生街53號","121.474781666667","25.0788266666667","6501400","蘆洲區"
"235062","800-TS","2019/07/04 17:29:16","新北市中和區員山路36巷16-3號","121.484981666667","24.9911966666667","6500300","中和區"
"247004","893-R6","2019/07/04 17:29:07","新北市蘆洲區長安街229號","121.459431666667","25.0827316666667","6501400","蘆洲區"
"247018","546-UM","2019/07/04 17:29:12","新北市蘆洲區民權路113號","121.472355","25.0894016666667","6501400","蘆洲區"
"247002","500-BY","2019/07/04 17:29:19","新北市蘆洲區永樂街38巷57弄5號","121.458065","25.0902033333333","6501400","蘆洲區"
"247024","337-TH","2019/07/04 17:29:10","新北市蘆洲區長興路413號","121.46167","25.0925733333333","6501400","蘆洲區"
"247022","057-VK","2019/07/04 17:29:24","新北市蘆洲區三民路301號","121.465423333333","25.0907883333333","6501400","蘆洲區"
"247012","056-VK","2019/07/04 17:29:10","新北市蘆洲區民族路39號","121.478246666667","25.0852116666667","6501400","蘆洲區"
"247016","053-VK","2019/07/04 17:29:21","新北市蘆洲區光華路22巷57號","121.468015","25.0851016666667","6501400","蘆洲區"
"247020","007-UY","2019/07/04 17:29:08","新北市蘆洲區水湳街102號","121.469513333333","25.0929233333333","6501400","蘆洲區"
"247006","002-UY","2019/07/04 17:29:14","新北市蘆洲區長安街48號","121.463373333333","25.0796633333333","6501400","蘆洲區"
"228003","097-TW","2019/07/04 17:29:22","新北市貢寮區仁理村仁和路2-2號","121.923335","25.0484266666667","6502600","貢寮區"
"228001","212-TW","2019/07/04 17:29:23","新北市貢寮區仁理村仁愛路39號","121.924995","25.0533266666667","6502600","貢寮區"
"228002","663-BX","2019/07/04 17:29:16","新北市貢寮區福隆里福隆街18號","121.944931666667","25.016515","6502600","貢寮區"
"224010","AGQ-8101","2019/07/04 17:29:15","新北市瑞芳區逢甲路41號","121.808385","25.1089","6501200","瑞芳區"
"224006","676-BX","2019/07/04 17:29:08","新北市瑞芳區傑魚坑路238號","121.790481666667","25.10987","6501200","瑞芳區"
"224009","275-VK","2019/07/04 17:29:11","新北市瑞芳區汽車路9-12號","121.845785","25.1109683333333","6501200","瑞芳區"
"224008","273-VK","2019/07/04 17:29:05","新北市瑞芳區侯硐路204號","121.830441666667","25.0882283333333","6501200","瑞芳區"
"224005","271-BY","2019/07/04 17:29:10","新北市瑞芳區洞頂路101巷80號","121.857673333333","25.1238716666667","6501200","瑞芳區"
"227001","642-TC","2019/07/04 17:24:25","新北市雙溪區三貂里定福路1-2號","121.850681666667","25.0634283333333","6502500","雙溪區"
"251004","009-UM","2019/07/04 17:09:15","新北市淡水區中正東路二段88巷15號","121.45907","25.1505016666667","6501000","淡水區"
"251005","010-UM","2019/07/04 17:29:04","新北市淡水區鄧公路31巷1號","121.451326666667","25.1709166666667","6501000","淡水區"
"251015","KEA-2871","2019/07/04 17:29:14","新北市淡水區三空泉17-2號","121.473721666667","25.1655133333333","6501000","淡水區"
"251016","179-VK","2019/07/04 17:29:14","新北市淡水區埤島75-1號","121.454088333333","25.1945683333333","6501000","淡水區"
"251008","181-VK","2019/07/04 17:29:21","新北市淡水區大同路79號","121.461961666667","25.1399733333333","6501000","淡水區"
"251013","182-VK","2019/07/04 17:29:18","新北市淡水區大竹圍5號","121.466576666667","25.1952083333333","6501000","淡水區"
"251010","413-VK","2019/07/04 17:29:23","新北市淡水區中正路二段211號","121.426203333333","25.189135","6501000","淡水區"
"251012","441-VK","2019/07/04 17:29:19","新北市淡水區北新路118號","121.447928333333","25.17832","6501000","淡水區"
"251007","442-VK","2019/07/04 17:29:03","新北市淡水區民生路47-4號","121.462045","25.1380483333333","6501000","淡水區"
"251006","561-UM","2019/07/04 17:29:21","新北市淡水區大仁街13號","121.442326666667","25.17502","6501000","淡水區"
"251009","575-R6","2019/07/04 17:29:08","新北市淡水區建設街1巷1號","121.438918333333","25.17278","6501000","淡水區"
"251014","577-R6","2019/07/04 17:29:02","新北市淡水區公埔子20-3號","121.469408333333","25.2284966666667","6501000","淡水區"
"251011","650-BX","2019/07/04 17:29:16","新北市淡水區三空泉7-1號","121.475953333333","25.1612466666667","6501000","淡水區"
"251002","672-BX","2019/07/04 17:29:05","新北市淡水區中正路二段31號","121.419638333333","25.182125","6501000","淡水區"
"251003","673-BX","2019/07/04 17:29:17","新北市淡水區中山路158號","121.440786666667","25.17284","6501000","淡水區"
"207003","550-UM","2019/07/04 17:29:09","新北市萬里區龜吼里翡翠路17號","121.683445","25.1868033333333","6502800","萬里區"
"207004","225-TW","2019/07/04 17:29:14","新北市萬里區萬里里景美路18號","121.6862","25.17312","6502800","萬里區"
"252002","178-VK","2019/07/04 17:29:05","新北市三芝區忠孝街1-14號","121.505513333333","25.2539266666667","6502100","三芝區"
"233002","762-BX","2019/07/04 17:29:07","新北市烏來區環山路47號","121.54948","24.8630433333333","6502900","烏來區"
"247010","KED-0683","2019/07/04 17:29:02","新北市蘆洲區中山一路120巷4號","121.477296666667","25.0816466666667","6501400","蘆洲區"
"252001","KED-0821","2019/07/04 17:29:18","新北市三芝區長安街119號","121.498021666667","25.259645","6502100","三芝區"
"242039","AAC-296","2019/07/04 17:29:02","新北市新莊區民安路278號","121.427726666667","25.0215416666667","6500500","新莊區"
"242061","986-R7","2019/07/04 17:29:15","新北市新莊區瓊林路176-1號","121.44065","25.022575","6500500","新莊區"
"242002","751-BX","2019/07/04 17:29:19","新北市新莊區碧江街11號","121.455868333333","25.0349816666667","6500500","新莊區"
"242029","615-BX","2019/07/04 17:29:15","新北市新莊區復興路二段179號","121.458896666667","25.0444616666667","6500500","新莊區"
"242027","613-BX","2019/07/04 17:29:11","新北市新莊區思源路28號","121.460286666667","25.0403366666667","6500500","新莊區"
"242058","612-BX","2019/07/04 17:29:06","新北市新莊區中正路384號","121.441941666667","25.034825","6500500","新莊區"
"242046","566-BX","2019/07/04 17:29:21","新北市新莊區新樹路65-5號","121.439443333333","25.0308466666667","6500500","新莊區"
"242051","497-BY","2019/07/04 17:29:13","新北市新莊區新樹路447號","121.432778333333","25.0134833333333","6500500","新莊區"
"242004","440-UM","2019/07/04 17:29:12","新北市新莊區中港路276號","121.453011666667","25.0439883333333","6500500","新莊區"
"242042","415-TV","2019/07/04 17:29:19","新北市新莊區新樹路113巷33號","121.439523333333","25.0264166666667","6500500","新莊區"
"242011","413-TV","2019/07/04 17:29:14","新北市新莊區中港路469號","121.452356666667","25.0490366666667","6500500","新莊區"
"242048","400-BY","2019/07/04 17:29:06","新北市新莊區龍安路255號","121.419736666667","25.0200866666667","6500500","新莊區"
"242025","362-BY","2019/07/04 17:29:10","新北市新莊區中港路281號","121.453193333333","25.043815","6500500","新莊區"
"242023","353-BY","2019/07/04 17:29:11","新北市新莊區公園路150號","121.453178333333","25.040115","6500500","新莊區"
"242013","132-UY","2019/07/04 17:29:16","新北市新莊區中誠街19號","121.451606666667","25.0479666666667","6500500","新莊區"
"242036","135-UY","2019/07/04 17:29:17","新北市新莊區後港一路201號","121.434366666667","25.0283333333333","6500500","新莊區"
"242053","172-VK","2019/07/04 17:29:17","新北市新莊區環河路658-8號","121.436221666667","25.0076566666667","6500500","新莊區"
"242015","173-VK","2019/07/04 17:29:21","新北市新莊區新泰路161號","121.447718333333","25.03699","6500500","新莊區"
"242021","175-VK","2019/07/04 17:29:15","新北市新莊區中正路98號","121.454905","25.0368066666667","6500500","新莊區"
"242009","176-VK","2019/07/04 17:29:07","新北市新莊區中原路185號","121.453066666667","25.054365","6500500","新莊區"
"242019","KED-0687","2019/07/04 17:29:06","新北市新莊區中港路63號","121.455371666667","25.0385333333333","6500500","新莊區"
"242056","346-TH","2019/07/04 17:29:13","新北市新莊區新泰路53號","121.449398333333","25.0339033333333","6500500","新莊區"
"242034","348-TH","2019/07/04 17:29:08","新北市新莊區環漢路二段8號","121.44992","25.03219","6500500","新莊區"
"242007","349-TH","2019/07/04 17:29:10","新北市新莊區自強街30號","121.454753333333","25.046205","6500500","新莊區"
"242031","350-TH","2019/07/04 17:29:10","新北市新莊區新泰路466號","121.443286666667","25.0449766666667","6500500","新莊區"
"242017","351-TH","2019/07/04 17:29:13","新北市新莊區中華路一段103號","121.452701666667","25.043895","6500500","新莊區"
"238015","755-BX","2019/07/04 17:29:14","新北市樹林區復興路13號","121.422521666667","24.9944633333333","6500700","樹林區"
"238023","601-UM","2019/07/04 17:29:09","新北市樹林區三福街114號","121.406448333333","25.0163666666667","6500700","樹林區"
"238019","599-UM","2019/07/04 17:29:19","新北市樹林區八德街102號","121.420978333333","24.980035","6500700","樹林區"
"238024","5061-A6","2019/07/04 17:29:23","新北市樹林區鎮前街77-21號","121.42463","24.9903833333333","6500700","樹林區"
"238018","KEA-2217","2019/07/04 17:29:05","新北市樹林區博愛街196號","121.424666666667","24.9896733333333","6500700","樹林區"
"238022","KEA-2213","2019/07/04 17:29:08","新北市樹林區仁愛街35號","121.421928333333","24.9819133333333","6500700","樹林區"
"238021","KEA-2539","2019/07/04 17:29:05","新北市樹林區西圳街一段203巷23-1號","121.39454","24.9583916666667","6500700","樹林區"
"238025","303-VK","2019/07/04 17:29:11","新北市樹林區保安街二段22-1號","121.415425","25.0016766666667","6500700","樹林區"
"238017","283-BY","2019/07/04 17:29:05","新北市樹林區中正路240號","121.418063333333","25.0071483333333","6500700","樹林區"
"238014","282-BY","2019/07/04 17:29:22","新北市樹林區保安街一段294巷8號","121.419721666667","24.9979583333333","6500700","樹林區"
"238020","268-VK","2019/07/04 17:29:06","新北市樹林區中正路22-1號","121.427828333333","24.9993583333333","6500700","樹林區"
"238026","172-UY","2019/07/04 17:29:06","新北市樹林區味王街30號","121.404071666667","24.9749116666667","6500700","樹林區"
"238016","169-UY","2019/07/04 17:29:10","新北市樹林區中山路一段182巷18號","121.42146","24.9889366666667","6500700","樹林區"
"239007","AAC-297","2019/07/04 17:29:08","新北市鶯歌區忠孝街22號","121.355001666667","24.956045","6500800","鶯歌區"
"239006","891-R6","2019/07/04 17:29:11","新北市鶯歌區鳳鳴路55號","121.333896666667","24.9654183333333","6500800","鶯歌區"
"239008","527-UM","2019/07/04 17:29:09","新北市鶯歌區大湖路351號","121.338205","24.9717733333333","6500800","鶯歌區"
"239005","526-UM","2019/07/04 17:29:00","桃園市八德區桃鶯路106號","121.328015","24.9701133333333","6500800","鶯歌區"
"239001","417-VK","2019/07/04 17:29:17","新北市鶯歌區高職西街19號","121.337645","24.942495","6500800","鶯歌區"
"239003","360-BY","2019/07/04 17:29:16","新北市鶯歌區德昌街27號","121.333328333333","24.9598183333333","6500800","鶯歌區"
"239002","359-BY","2019/07/04 17:29:17","新北市鶯歌區建國路278號","121.34693","24.9534666666667","6500800","鶯歌區"
"239004","193-VK","2019/07/04 17:29:09","新北市三峽區復興路553號","121.356568333333","24.9404216666667","6500800","鶯歌區"
"233001","KEA-2870","2019/07/04 17:29:05","新北市烏來區信福路2巷2號","121.536015","24.840135","6502900","烏來區"
"242044","281-VK","2019/07/04 17:29:17","新北市新莊區民安路98巷29號","121.42332","25.0249933333333","6500500","新莊區"
"235061","KEA-2875","2019/07/04 17:08:34","新北市中和區員山路36巷16-2號","121.485293333333","24.9916416666667","6500300","中和區"
