"lineid","car","time","location","longitude","latitude","cityid","cityname"
"234046","148-BY","2019/07/04 19:18:50","新北市永和區得和路297號","121.522848333333","24.9996466666667","6500400","永和區"
"234081","298-R6","2019/07/04 19:18:42","新北市永和區福和路55-1號","121.523051666667","25.007935","6500400","永和區"
"234038","336-UY","2019/07/04 19:18:49","新北市永和區民樂街59巷1-1號","121.527603333333","24.998325","6500400","永和區"
"234064","337-UY","2019/07/04 19:18:46","新北市永和區永元路50號","121.522316666667","25.0010516666667","6500400","永和區"
"234086","338-UY","2019/07/04 19:18:30","新北市永和區永利路30號","121.518376666667","25.00579","6500400","永和區"
"234070","552-UM","2019/07/04 19:18:39","新北市永和區豫溪街74巷7弄9號","121.51769","25.009895","6500400","永和區"
"234017","745-BX","2019/07/04 19:18:43","新北市永和區文化路144巷31弄8號","121.512388333333","25.0167666666667","6500400","永和區"
"234030","746-BX","2019/07/04 19:18:42","新北市永和區厚德街101號","121.523298333333","24.9989366666667","6500400","永和區"
"234054","KEA-2590","2019/07/04 19:18:49","新北市永和區中興街37號","121.51628","25.011895","6500400","永和區"
"234007","KED-0605","2019/07/04 19:18:42","新北市永和區中山路一段240號","121.507555","25.0077966666667","6500400","永和區"
"234013","KEA-2591","2019/07/04 19:18:43","新北市永和區仁愛路110號","121.51189","25.013135","6500400","永和區"
"234061","AAD-866","2019/07/04 19:18:36","新北市永和區秀朗路一段167號","121.516821666667","25.00406","6500400","永和區"
"234042","862-TW","2019/07/04 19:18:48","新北市永和區保平路177巷5弄1號","121.509863333333","25.0048966666667","6500400","永和區"
"234050","863-TW","2019/07/04 19:18:51","新北市永和區保福路二段88巷19號","121.51158","25.0138266666667","6500400","永和區"
"234026","9371-KE","2019/07/04 19:18:37","新北市永和區安樂路144巷19號","121.514673333333","25.0000733333333","6500400","永和區"
"234011","9373-KE","2019/07/04 19:18:47","新北市永和區永平路218巷23號","121.510058333333","25.01113","6500400","永和區"
"249005","172-UM","2019/07/04 19:18:50","新北市八里區中華路三段73號","121.39451","25.1408633333333","6502300","八里區"
"249001","173-UM","2019/07/04 19:18:42","新北市八里區中華路一段252號","121.416498333333","25.1555266666667","6502300","八里區"
"249003","593-UM","2019/07/04 19:18:41","新北市八里區中山路二段452號","121.399285","25.1477316666667","6502300","八里區"
"248008","KED-0815","2019/07/04 19:18:49","新北市五股區中興路二段63巷17號","121.46032","25.0752866666667","6501500","五股區"
"248020","KED-0813","2019/07/04 19:18:37","新北市五股區凌雲路三段57號","121.425281666667","25.1250183333333","6501500","五股區"
"248012","247-BX","2019/07/04 19:18:33","新北市五股區中興路四段48巷16號","121.438595","25.08344","6501500","五股區"
"248014","261-SL","2019/07/04 19:18:53","新北市五股區民義路一段185-11號","121.432035","25.0878033333333","6501500","五股區"
"248010","272-BY","2019/07/04 19:18:46","新北市五股區自強路90巷72號","121.430738333333","25.0712166666667","6501500","五股區"
"248004","677-BX","2019/07/04 19:18:49","新北市五股區五福路53號","121.43307","25.0898283333333","6501500","五股區"
"248002","678-BX","2019/07/04 19:18:33","新北市五股區凌雲路一段158巷6號","121.4478","25.1029683333333","6501500","五股區"
"234023","9380-KE","2019/07/04 19:18:46","新北市永和區竹林路124巷8號","121.519431666667","25.0112866666667","6500400","永和區"
"234077","969-R7","2019/07/04 19:18:41","新北市永和區民族街42號","121.518498333333","24.9987766666667","6500400","永和區"
"234074","AAC-211","2019/07/04 19:18:38","新北市永和區竹林路82號","121.519333333333","25.0126766666667","6500400","永和區"
"234067","AAC-212","2019/07/04 19:18:33","新北市永和區保平路30巷3號","121.511705","25.00754","6500400","永和區"
"234003","AAC-295","2019/07/04 19:18:37","新北市永和區永平路157巷2弄2號","121.510876666667","25.008805","6500400","永和區"
"244023","483-VK","2019/07/04 19:18:50","新北市林口區文林六街18號","121.3708","25.0802033333333","6501700","林口區"
"244025","837-TS","2019/07/04 19:18:47","新北市林口區文化北路一段540號","121.368251666667","25.0795583333333","6501700","林口區"
"243012","AAD-798","2019/07/04 19:18:34","新北市泰山區同義街15號","121.431455","25.05677","6501600","泰山區"
"243010","297-R6","2019/07/04 19:18:46","新北市泰山區明志路一段488號","121.430391666667","25.0545783333333","6501600","泰山區"
"243014","KEA-2801","2019/07/04 19:18:43","新北市泰山區泰林路二段222號","121.432581666667","25.0619183333333","6501600","泰山區"
"243016","421-VK","2019/07/04 19:18:35","新北市泰山區工專路9號","121.423691666667","25.0396416666667","6501600","泰山區"
"243009","KEA-2215","2019/07/04 19:18:33","新北市泰山區文化街1巷1號","121.433745","25.06401","6501600","泰山區"
"243011","KEA-2216","2019/07/04 19:18:52","新北市泰山區中央路9巷2號","121.426355","25.0430516666667","6501600","泰山區"
"243013","646-TV","2019/07/04 19:18:45","新北市泰山區明志路三段145巷2弄16號","121.424916666667","25.0394016666667","6501600","泰山區"
"243015","680-BX","2019/07/04 19:18:45","新北市泰山區公園路71號","121.42634","25.055365","6501600","泰山區"
"222003","436-BY","2019/07/04 19:18:44","新北市深坑區深南路204號","121.626628333333","25.0159966666667","6501800","深坑區"
"222002","659-BX","2019/07/04 19:18:44","新北市深坑區紅葉街22號","121.632718333333","25.0134083333333","6501800","深坑區"
"231061","002-UM","2019/07/04 19:18:45","新北市新店區秀山路72號","121.531465","24.96093","6500600","新店區"
"231058","0293-UT","2019/07/04 19:18:37","新北市新店區光明街224巷14號","121.54075","24.9626","6500600","新店區"
"231044","046-UY","2019/07/04 19:18:42","新北市新店區中興路三段253號","121.54257","24.9841966666667","6500600","新店區"
"231060","106-UY","2019/07/04 19:18:42","新北市新店區安康路二段125-1號","121.512346666667","24.9609383333333","6500600","新店區"
"231051","107-UY","2019/07/04 19:18:34","新北市新店區中央路97號","121.531275","24.9752716666667","6500600","新店區"
"231049","108-UY","2019/07/04 19:18:42","新北市新店區明德路107號","121.541555","24.979225","6500600","新店區"
"231065","110-UY","2019/07/04 19:18:13","新北市新店區安祥路110巷8號","121.474396666667","24.956945","6500600","新店區"
"231054","260-TV","2019/07/04 19:18:35","新北市新店區國校路55號","121.53824","24.9543916666667","6500600","新店區"
"231042","268-BY","2019/07/04 19:18:43","新北市新店區光明街36號","121.538635","24.95893","6500600","新店區"
"231064","278-BY","2019/07/04 19:18:44","新北市新店區安忠路57巷5-6號","121.513165","24.95871","6500600","新店區"
"231050","AAD-862","2019/07/04 19:18:48","新北市新店區竹林路30巷1號","121.552276666667","24.95131","6500600","新店區"
"231045","355-BY","2019/07/04 19:18:42","新北市新店區北宜路一段260號","121.54568","24.9527516666667","6500600","新店區"
"231055","4716-K9","2019/07/04 19:18:48","新北市新店區安德街60巷9-3號","121.509098333333","24.96212","6500600","新店區"
"231056","4715-K9","2019/07/04 19:18:43","新北市新店區安康路二段414巷2號","121.495876666667","24.9577666666667","6500600","新店區"
"231067","4772-VM","2019/07/04 19:18:47","新北市新店區安康路一段195巷2號","121.526353333333","24.9626566666667","6500600","新店區"
"231052","513-UM","2019/07/04 19:18:34","新北市新店區自強路122號","121.545961666667","24.9218716666667","6500600","新店區"
"231041","619-UM","2019/07/04 19:18:49","新北市新店區溪園路389-6號","121.523941666667","24.979045","6500600","新店區"
"231063","641-BX","2019/07/04 19:18:40","新北市新店區達觀路10號","121.503431666667","24.9438066666667","6500600","新店區"
"231047","KED-0819","2019/07/04 19:18:47","新北市新店區德正街27巷29弄13號","121.545166666667","24.97186","6500600","新店區"
"231062","718-UY","2019/07/04 19:18:42","新北市新店區莒光路30號","121.523506666667","24.95912","6500600","新店區"
"231046","719-UM","2019/07/04 19:18:39","新北市新店區華城路12-1號","121.529266666667","24.957855","6500600","新店區"
"231057","720-UM","2019/07/04 19:18:42","新北市新店區百齡一路12號","121.553045","24.93246","6500600","新店區"
"231059","897-TW","2019/07/04 19:18:47","新北市新店區安和路二段175號","121.518508333333","24.9746983333333","6500600","新店區"
"231040","898-TW","2019/07/04 19:18:43","新北市新店區三民路98-3號","121.533931666667","24.97341","6500600","新店區"
"231043","899-TW","2019/07/04 19:18:35","新北市新店區寶橋路31號","121.544515","24.97426","6500600","新店區"
"231066","AKT-0513","2019/07/04 19:18:46","新北市新店區安祥路35-2號","121.490778333333","24.9567566666667","6500600","新店區"
"241011","013-R5","2019/07/04 19:18:38","新北市三重區河邊北街110巷11號","121.503526666667","25.0708833333333","6500200","三重區"
"241029","060-VK","2019/07/04 19:18:45","新北市三重區重安街46號","121.49079","25.0576933333333","6500200","三重區"
"241031","061-VK","2019/07/04 19:18:50","新北市三重區重新路四段242號","121.485791666667","25.0538183333333","6500200","三重區"
"241017","063-VK","2019/07/04 19:18:49","新北市三重區大同北路213號","121.491826666667","25.0656483333333","6500200","三重區"
"241030","742-BX","2019/07/04 19:18:46","新北市三重區集美街212號","121.490261666667","25.0546616666667","6500200","三重區"
"241009","267-UM","2019/07/04 19:18:35","新北市三重區溪尾街230巷46號","121.485991666667","25.0810766666667","6500200","三重區"
"241032","269-UM","2019/07/04 19:18:46","新北市三重區新生街90-3號","121.483658333333","25.0591916666667","6500200","三重區"
"241013","270-UM","2019/07/04 19:18:48","新北市三重區仁愛街99號","121.495803333333","25.07386","6500200","三重區"
"241007","398-BY","2019/07/04 19:18:48","新北市三重區慈愛街63號","121.486661666667","25.0792133333333","6500200","三重區"
"241035","KEA-2210","2019/07/04 19:18:51","新北市三重區信義西街138號","121.495495","25.0641983333333","6500200","三重區"
"241020","478-VK","2019/07/04 19:18:46","新北市三重區大智街179巷2號","121.489721666667","25.0727483333333","6500200","三重區"
"241026","480-VK","2019/07/04 19:18:41","新北市三重區中正南路201號","121.493371666667","25.054255","6500200","三重區"
"241006","AAD-863","2019/07/04 19:18:38","新北市三重區車路頭街149-2號","121.483748333333","25.0768083333333","6500200","三重區"
"241022","KED-0820","2019/07/04 19:18:44","新北市三重區重陽路二段72號","121.487381666667","25.0640333333333","6500200","三重區"
"241025","887-TS","2019/07/04 19:18:36","新北市三重區中正北路335號","121.473338333333","25.0715","6500200","三重區"
"235066","003-UY","2019/07/04 19:18:49","新北市中和區中和路104號","121.50281","24.9997816666667","6500300","中和區"
"235064","005-UY","2019/07/04 19:18:40","新北市中和區南山路81巷50號","121.503625","24.998355","6500300","中和區"
"235063","006-UY","2019/07/04 19:18:47","新北市中和區連勝街117號","121.494986666667","24.995295","6500300","中和區"
"235056","096-UM","2019/07/04 19:18:42","新北市中和區員山路502號","121.47975","25.0073866666667","6500300","中和區"
"235039","097-UM","2019/07/04 19:18:35","新北市中和區秀峰街103巷2弄4號","121.519953333333","24.9905016666667","6500300","中和區"
"235065","098-UM","2019/07/04 19:18:44","新北市中和區中山路二段64巷8號","121.503661666667","25.005085","6500300","中和區"
"235040","150-BY","2019/07/04 19:18:37","新北市中和區保健路50巷68號","121.509115","24.9951533333333","6500300","中和區"
"235058","151-BY","2019/07/04 19:18:36","新北市中和區連城路477巷6弄28號","121.482295","24.9950316666667","6500300","中和區"
"235055","183-VK","2019/07/04 19:18:43","新北市中和區中山路三段213-15號","121.472105","25.0026883333333","6500300","中和區"
"235038","185-VK","2019/07/04 19:18:48","新北市中和區大仁街20巷50號","121.520068333333","24.9933833333333","6500300","中和區"
"235067","255-BX","2019/07/04 19:18:42","新北市中和區連城路280號","121.484385","24.9962733333333","6500300","中和區"
"235044","293-VK","2019/07/04 19:18:41","新北市中和區復興路284號","121.502048333333","24.990275","6500300","中和區"
"235072","301-VK","2019/07/04 19:18:32","新北市中和區連城路196號","121.491946666667","24.996635","6500300","中和區"
"235043","352-BY","2019/07/04 19:18:35","新北市中和區景平路448-3號","121.506283333333","24.9935766666667","6500300","中和區"
"235042","KEA-2878","2019/07/04 19:18:35","新北市中和區安樂路217巷35弄12號","121.514086666667","24.997725","6500300","中和區"
"235050","4979-A6","2019/07/04 19:18:53","新北市中和區景安路208巷44號","121.502278333333","24.9920883333333","6500300","中和區"
"235069","4980-A6","2019/07/04 19:18:38","新北市中和區莊敬路31巷36-1號","121.4999","25.00582","6500300","中和區"
"235070","558-UM","2019/07/04 19:18:42","新北市中和區連城路2號","121.499161666667","25.0026116666667","6500300","中和區"
"235045","565-BX","2019/07/04 19:18:33","新北市中和區景新街423巷33弄2號","121.513921666667","24.989825","6500300","中和區"
"235060","KED-0823","2019/07/04 19:18:49","新北市中和區員山路437號","121.480816666667","25.003905","6500300","中和區"
"235047","732-UM","2019/07/04 19:18:37","新北市中和區和平街42號","121.508961666667","24.9905366666667","6500300","中和區"
"235046","733-UM","2019/07/04 19:18:46","新北市中和區忠孝街2巷14弄1號","121.510591666667","24.98122","6500300","中和區"
"235071","783-BX","2019/07/04 19:18:49","新北市中和區中正路637巷48號","121.485458333333","24.9941516666667","6500300","中和區"
"235057","801-TS","2019/07/04 19:18:41","新北市中和區員山路362號","121.480918333333","25.0037233333333","6500300","中和區"
"235041","802-TS","2019/07/04 19:18:32","新北市中和區中和路322號","121.509868333333","25.0007833333333","6500300","中和區"
"235052","805-TS","2019/07/04 19:18:35","新北市中和區華新街143巷11弄6號","121.50676","24.9811466666667","6500300","中和區"
"235048","896-TW","2019/07/04 19:18:40","新北市中和區忠孝街75號","121.512118333333","24.985095","6500300","中和區"
"235053","900-TW","2019/07/04 19:18:47","新北市中和區民德路206號","121.468125","24.9984416666667","6500300","中和區"
"235054","911-UM","2019/07/04 19:18:41","新北市中和區國光街112巷22弄20號","121.470471666667","25.0023833333333","6500300","中和區"
"235051","157-BY","2019/07/04 19:18:43","新北市中和區興南路一段56巷9號","121.510355","24.9911733333333","6500300","中和區"
"235037","AAC-213","2019/07/04 19:18:51","新北市中和區秀朗路三段10巷14弄52號","121.524225","24.996475","6500300","中和區"
"235059","AAC-215","2019/07/04 19:18:43","新北市中和區錦和路193號","121.490783333333","24.990705","6500300","中和區"
"220065","072-UY","2019/07/04 19:18:50","新北市板橋區民族路129巷12弄5號","121.468071666667","25.0084066666667","6500100","板橋區"
"220086","073-UY","2019/07/04 19:18:37","新北市板橋區幸福路70巷1號","121.460618333333","25.0200166666667","6500100","板橋區"
"220106","075-UY","2019/07/04 19:18:41","新北市板橋區長江路三段68號","121.473821666667","25.0340033333333","6500100","板橋區"
"220069","AAD-861","2019/07/04 19:18:48","新北市板橋區稚暉街35號","121.457075","25.004125","6500100","板橋區"
"226004","312-R5","2019/07/04 19:18:35","新北市平溪區南山里南山坪20號","121.771925","25.0369466666667","6502400","平溪區"
"228003","097-TW","2019/07/04 19:18:47","新北市貢寮區和美里和美街19-2號","121.91276","25.08262","6502600","貢寮區"
"228001","212-TW","2019/07/04 19:18:33","新北市貢寮區真理里新港街10號","121.925531666667","25.05439","6502600","貢寮區"
"228002","663-BX","2019/07/04 19:18:45","新北市貢寮區雙玉里田寮洋街22號","121.929741666667","25.0211883333333","6502600","貢寮區"
"224008","273-VK","2019/07/04 19:18:48","新北市瑞芳區明燈路三段289號","121.798331666667","25.1122833333333","6501200","瑞芳區"
"227001","642-TC","2019/07/04 19:18:51","新北市雙溪區新基里新基南街1號","121.867173333333","25.0369533333333","6502500","雙溪區"
"227002","400-TW","2019/07/04 19:18:49","新北市雙溪區平林里梅竹蹊66-1號","121.860156666667","25.0358133333333","6502500","雙溪區"
"253006","032-BX","2019/07/04 19:18:33","新北市石門區楓林19號","121.536395","25.2908683333333","6502200","石門區"
"253005","741-TV","2019/07/04 19:18:36","新北市石門區阿里荖4-7號","121.612545","25.2790916666667","6502200","石門區"
"222001","KEA-2212","2019/07/04 19:18:45","新北市深坑區北深路二段82號","121.617563333333","25.0034933333333","6501800","深坑區"
"208002","KEA-2872","2019/07/04 19:18:45","新北市金山區環金路376巷1號","121.631943333333","25.2222183333333","6502700","金山區"
"208003","665-BX","2019/07/04 19:18:50","新北市金山區中山路165號","121.638753333333","25.2205666666667","6502700","金山區"
"251005","010-UM","2019/07/04 19:18:44","新北市淡水區水源街一段26號","121.443118333333","25.1722383333333","6501000","淡水區"
"251015","KEA-2871","2019/07/04 19:18:34","新北市淡水區南勢埔32巷2號","121.484313333333","25.18015","6501000","淡水區"
"251016","179-VK","2019/07/04 19:18:33","新北市淡水區淡金路三段350巷18號","121.45076","25.2083216666667","6501000","淡水區"
"251013","182-VK","2019/07/04 19:18:38","新北市淡水區安子內12-1號","121.481501666667","25.21909","6501000","淡水區"
"251010","413-VK","2019/07/04 19:18:43","新北市淡水區沙崙路28號","121.421428333333","25.1814083333333","6501000","淡水區"
"251007","442-VK","2019/07/04 19:18:44","新北市淡水區民生路145巷8號","121.46593","25.1385066666667","6501000","淡水區"
"251001","559-UM","2019/07/04 19:18:36","新北市淡水區民權路92巷35-1號","121.462101666667","25.1267683333333","6501000","淡水區"
"251009","575-R6","2019/07/04 19:14:28","新北市淡水區清水街220號","121.440281666667","25.1713883333333","6501000","淡水區"
"251014","577-R6","2019/07/04 19:18:42","新北市淡水區小中寮19-7號","121.484766666667","25.2295766666667","6501000","淡水區"
"251002","672-BX","2019/07/04 19:18:46","新北市淡水區文化路18號","121.439695","25.172575","6501000","淡水區"
"251003","673-BX","2019/07/04 19:18:37","新北市淡水區中山路151號","121.440521666667","25.1723583333333","6501000","淡水區"
"207003","550-UM","2019/07/04 19:18:49","新北市萬里區大鵬里萬里加投79-1號","121.647261666667","25.21231","6502800","萬里區"
"207004","225-TW","2019/07/04 19:18:33","新北市萬里區萬里里瑪鋉路18號","121.689615","25.1754433333333","6502800","萬里區"
"252002","178-VK","2019/07/04 19:18:45","新北市三芝區淡金路二段18-1號","121.502625","25.2595383333333","6502100","三芝區"
"208001","170-UY","2019/07/04 19:18:44","新北市金山區慈護街7號","121.639896666667","25.2204333333333","6502700","金山區"
"237004","KEA-2597","2019/07/04 19:18:40","新北市三峽區有木205-1號","121.439045","24.851555","6500900","三峽區"
"237007","153-BY","2019/07/04 19:18:44","新北市三峽區二鬮路154號","121.359741666667","24.90732","6500900","三峽區"
"237009","210-TH","2019/07/04 19:18:34","新北市三峽區民生街199號","121.371696666667","24.9348533333333","6500900","三峽區"
"237013","252-BX","2019/07/04 19:18:39","新北市三峽區光明路69巷24號","121.376591666667","24.929115","6500900","三峽區"
"237012","275-BY","2019/07/04 19:18:42","新北市三峽區三樹路222巷192-9號","121.388358333333","24.94193","6500900","三峽區"
"237008","302-VK","2019/07/04 19:18:45","新北市三峽區光明路106巷3號","121.376513333333","24.9273916666667","6500900","三峽區"
"237014","433-BY","2019/07/04 19:18:35","新北市三峽區中山路257巷3號","121.3624","24.9370816666667","6500900","三峽區"
"237006","5529-G3","2019/07/04 19:18:53","新北市三峽區溪東路53號","121.400755","24.9348116666667","6500900","三峽區"
"237011","KEA-2596","2019/07/04 19:18:43","新北市三峽區介壽路三段235巷7號","121.406846666667","24.9486983333333","6500900","三峽區"
"237015","649-BX","2019/07/04 19:18:41","新北市三峽區安坑49-6號","121.461036666667","24.9320966666667","6500900","三峽區"
"237010","706-TV","2019/07/04 19:18:40","新北市三峽區國光街55號","121.374543333333","24.9379983333333","6500900","三峽區"
"237005","AKY-6261","2019/07/04 19:18:42","新北市三峽區中山路459巷42號","121.357066666667","24.9374416666667","6500900","三峽區"
"220089","KED-0812","2019/07/04 19:18:40","新北市板橋區國光路200號","121.461825","25.018475","6500100","板橋區"
"236026","269-VK","2019/07/04 19:18:50","新北市土城區中正路67巷14號","121.444463333333","24.9761483333333","6501300","土城區"
"236070","KEA-2877","2019/07/04 19:18:47","新北市土城區裕民路10號","121.447435","24.9888066666667","6501300","土城區"
"252001","KED-0821","2019/07/04 19:18:38","新北市三芝區長勤街9巷11弄1號","121.50172","25.2548833333333","6502100","三芝區"
"236021","401-BY","2019/07/04 19:18:36","新北市土城區峰廷街3號","121.469085","24.98738","6501300","土城區"
"236014","752-BX","2019/07/04 19:18:38","新北市土城區學府路一段28號","121.45825","24.988575","6501300","土城區"
"236059","912-UM","2019/07/04 19:18:51","新北市土城區中央路二段190號","121.441983333333","24.97609","6501300","土城區"
"242048","400-BY","2019/07/04 19:18:46","新北市新莊區裕民街85巷17號","121.419603333333","25.0235566666667","6500500","新莊區"
"238015","755-BX","2019/07/04 19:18:50","新北市樹林區備內街1巷31號","121.412663333333","24.98641","6500700","樹林區"
"238023","601-UM","2019/07/04 19:18:49","桃園市龜山區萬壽路一段215號","121.405636666667","25.0179083333333","6500700","樹林區"
"238019","599-UM","2019/07/04 19:18:39","新北市樹林區東榮街91巷2弄2號","121.415973333333","24.9824183333333","6500700","樹林區"
"238024","5061-A6","2019/07/04 19:18:42","新北市樹林區福德街26號","121.40089","24.9755883333333","6500700","樹林區"
"238018","KEA-2217","2019/07/04 19:18:38","新北市樹林區太元街2巷9號","121.4171","24.9808916666667","6500700","樹林區"
"238022","KEA-2213","2019/07/04 19:18:48","新北市樹林區中山路二段133號","121.406903333333","24.9792266666667","6500700","樹林區"
"238021","KEA-2539","2019/07/04 19:18:43","新北市樹林區柑園街二段247巷18號","121.375523333333","24.9505883333333","6500700","樹林區"
"238025","303-VK","2019/07/04 19:18:50","新北市樹林區中山路二段161號","121.406078333333","24.9787283333333","6500700","樹林區"
"238017","283-BY","2019/07/04 19:18:44","新北市樹林區光興街8-3號","121.412815","25.0029133333333","6500700","樹林區"
"238014","282-BY","2019/07/04 19:18:50","新北市樹林區保安二街65號","121.424635","24.9947","6500700","樹林區"
"238020","268-VK","2019/07/04 19:18:46","新北市樹林區俊英街125巷1號","121.424355","25.0108833333333","6500700","樹林區"
"238026","172-UY","2019/07/04 19:18:46","新北市樹林區佳園路一段41巷18號","121.393881666667","24.9710483333333","6500700","樹林區"
"238016","169-UY","2019/07/04 19:18:46","新北市樹林區中山路二段10號","121.417613333333","24.9852083333333","6500700","樹林區"
"239007","AAC-297","2019/07/04 19:18:48","新北市鶯歌區中山路138巷1號","121.349758333333","24.9571183333333","6500800","鶯歌區"
"239006","891-R6","2019/07/04 19:18:31","新北市鶯歌區鶯桃路296巷94弄28號","121.33756","24.9615266666667","6500800","鶯歌區"
"239008","527-UM","2019/07/04 19:18:49","新北市鶯歌區國際二路12巷23號","121.338295","24.9747416666667","6500800","鶯歌區"
"239001","417-VK","2019/07/04 19:18:38","新北市鶯歌區永智街110號","121.33693","24.9530666666667","6500800","鶯歌區"
"239003","360-BY","2019/07/04 19:18:36","新北市鶯歌區鶯桃路350號","121.333906666667","24.962585","6500800","鶯歌區"
"239002","359-BY","2019/07/04 19:18:37","新北市鶯歌區中正一路269號","121.354975","24.9570333333333","6500800","鶯歌區"
"221008","489-VK","2019/07/04 19:18:50","新北市汐止區康寧街310號","121.626696666667","25.0672016666667","6501100","汐止區"
"221036","130-UY","2019/07/04 19:18:50","新北市汐止區忠孝東路314巷23號","121.66464","25.06826","6501100","汐止區"
"221031","353-TW","2019/07/04 19:18:46","新北市汐止區康寧街777-1號","121.645205","25.0758566666667","6501100","汐止區"
"221035","622-UM","2019/07/04 19:18:41","新北市汐止區汐萬路一段261號","121.650753333333","25.0741283333333","6501100","汐止區"
"221002","707-TV","2019/07/04 19:18:50","新北市汐止區中興路4號","121.637471666667","25.0590266666667","6501100","汐止區"
"220079","145-BY","2019/07/04 19:18:37","新北市板橋區民權路202巷8弄4號","121.460216666667","25.0145483333333","6500100","板橋區"
"220080","200-UY","2019/07/04 19:18:48","新北市板橋區大觀路二段5號","121.446971666667","25.0038166666667","6500100","板橋區"
"220082","610-BX","2019/07/04 19:18:46","新北市板橋區滿平街84巷98號","121.426578333333","24.9867566666667","6500100","板橋區"
"220101","245-BX","2019/07/04 19:18:46","新北市板橋區縣民大道三段133巷9號","121.47741","25.02356","6500100","板橋區"
"220056","276-BY","2019/07/04 19:18:47","新北市板橋區信義路182號","121.459368333333","24.9914666666667","6500100","板橋區"
"220072","277-BY","2019/07/04 19:18:41","新北市板橋區篤行路二段161巷24號","121.43016","24.9872216666667","6500100","板橋區"
"220094","283-UM","2019/07/04 19:18:31","新北市板橋區吳鳳路42號","121.468388333333","25.03038","6500100","板橋區"
"220071","283-VK","2019/07/04 19:18:46","新北市板橋區重慶路327巷19弄3-2號","121.46476","24.998885","6500100","板橋區"
"220053","285-VK","2019/07/04 19:18:48","新北市板橋區富山街66號","121.477146666667","25.0219283333333","6500100","板橋區"
"220083","286-VK","2019/07/04 19:18:41","新北市板橋區龍興街99巷37號","121.443136666667","25.0035333333333","6500100","板橋區"
"220081","287-VK","2019/07/04 19:18:40","新北市板橋區南雅西路二段156巷2號","121.45174","25.0133733333333","6500100","板橋區"
"220090","288-VK","2019/07/04 19:18:39","新北市板橋區長江路一段106巷20弄12號","121.46012","25.028295","6500100","板橋區"
"220061","295-UM","2019/07/04 19:18:49","新北市板橋區中山路二段253號","121.477513333333","25.0175066666667","6500100","板橋區"
"220084","296-UM","2019/07/04 19:18:44","新北市板橋區溪崑二街66巷16號","121.427458333333","24.9906716666667","6500100","板橋區"
"220075","303-R5","2019/07/04 19:18:40","新北市板橋區南雅西路一段10巷11號","121.454493333333","25.0048616666667","6500100","板橋區"
"220062","305-R5","2019/07/04 19:18:35","新北市板橋區三民路二段153巷36弄2號","121.481136666667","25.0141366666667","6500100","板橋區"
"220092","307-R5","2019/07/04 19:18:52","新北市板橋區光武街2巷17號","121.468465","25.0252616666667","6500100","板橋區"
"220098","317-R6","2019/07/04 19:18:43","新北市板橋區自由路51巷14弄6號","121.464693333333","25.0237416666667","6500100","板橋區"
"220088","491-VK","2019/07/04 19:18:41","新北市板橋區雙十路二段149號","121.474603333333","25.0280766666667","6500100","板橋區"
"220035","560-BX","2019/07/04 19:18:38","新北市板橋區瑞安街53號","121.455396666667","25.02222","6500100","板橋區"
"220103","561-BX","2019/07/04 19:18:44","新北市板橋區文化路一段339號","121.46648","25.020565","6500100","板橋區"
"220063","609-BX","2019/07/04 19:18:50","新北市板橋區三民路一段1巷39號","121.480305","25.0247733333333","6500100","板橋區"
"220091","637-BX","2019/07/04 19:18:49","新北市板橋區文聖街207號","121.479781666667","25.0262583333333","6500100","板橋區"
"220057","686-BX","2019/07/04 19:18:49","新北市板橋區廣權路117號","121.465135","24.9930416666667","6500100","板橋區"
"220077","687-BX","2019/07/04 19:18:34","新北市板橋區大觀路二段125號","121.445881666667","25.0013466666667","6500100","板橋區"
"220093","689-BX","2019/07/04 19:18:42","新北市板橋區新海路135巷1號","121.460735","25.0234166666667","6500100","板橋區"
"220054","741-BX","2019/07/04 19:18:45","新北市板橋區校前街36號","121.460838333333","25.00311","6500100","板橋區"
"220102","KEA-2699","2019/07/04 19:18:44","新北市板橋區松柏街22巷36號","121.475055","25.0289583333333","6500100","板橋區"
"220055","827-TW","2019/07/04 19:18:35","新北市板橋區新民街6巷20號","121.465221666667","25.0100716666667","6500100","板橋區"
"220067","829-TW","2019/07/04 19:18:43","新北市板橋區長安街138巷1弄56號","121.474036666667","25.0101683333333","6500100","板橋區"
"220068","831-TW","2019/07/04 19:18:39","新北市板橋區三民路一段1巷58號","121.480801666667","25.02474","6500100","板橋區"
"220074","895-R6","2019/07/04 19:18:52","新北市板橋區中正路自強新村91-1號","121.454813333333","25.0132866666667","6500100","板橋區"
"220073","985-R7","2019/07/04 19:18:48","新北市板橋區新生街92號","121.458233333333","25.0218283333333","6500100","板橋區"
"220097","AAC-210","2019/07/04 19:18:38","新北市板橋區幸福路32巷6號","121.461548333333","25.0206266666667","6500100","板橋區"
"220064","AAC-253","2019/07/04 19:18:50","新北市板橋區中山路一段107號","121.461858333333","25.0102016666667","6500100","板橋區"
"235068","KEA-2873","2019/07/04 19:18:29","新北市中和區連勝街6號","121.498966666667","24.9987116666667","6500300","中和區"
"235061","KEA-2875","2019/07/04 19:18:32","新北市中和區連城路456巷11號","121.478523333333","24.9952733333333","6500300","中和區"
"235049","KEA-2876","2019/07/04 19:18:32","新北市中和區景新街228號","121.50811","24.9944433333333","6500300","中和區"
