"lineid","car","time","location","longitude","latitude","cityid","cityname"
"234046","148-BY","2019/07/04 19:49:26","新北市永和區永利路125號","121.524111666667","25.0028666666667","6500400","永和區"
"234081","298-R6","2019/07/04 19:49:37","新北市永和區林森路46巷1號","121.525028333333","25.0047883333333","6500400","永和區"
"234038","336-UY","2019/07/04 19:49:35","新北市永和區民樂街59巷2號","121.527431666667","24.9982566666667","6500400","永和區"
"234064","337-UY","2019/07/04 19:49:34","新北市永和區中正路412巷4弄9號","121.518233333333","25.0016366666667","6500400","永和區"
"234086","338-UY","2019/07/04 19:49:32","新北市永和區永利路12號","121.517676666667","25.00596","6500400","永和區"
"234070","552-UM","2019/07/04 19:49:39","新北市永和區竹林路88號","121.519446666667","25.0125416666667","6500400","永和區"
"234017","745-BX","2019/07/04 19:49:23","新北市永和區永和路二段297號","121.51601","25.016025","6500400","永和區"
"234030","746-BX","2019/07/04 19:49:22","新北市永和區民生路67巷31號","121.52445","24.997385","6500400","永和區"
"234054","KEA-2590","2019/07/04 19:49:30","新北市永和區竹林路72巷2號","121.518913333333","25.0131166666667","6500400","永和區"
"234007","KED-0605","2019/07/04 19:49:35","新北市中和區光華街37號","121.505215","25.0038366666667","6500400","永和區"
"234013","KEA-2591","2019/07/04 19:49:43","新北市永和區永平路286-1號","121.507555","25.0119016666667","6500400","永和區"
"234061","AAD-866","2019/07/04 19:49:36","新北市永和區中正路252號","121.516666666667","24.9984583333333","6500400","永和區"
"234042","862-TW","2019/07/04 19:49:36","新北市永和區中和路305巷18弄2號","121.507465","25.0015733333333","6500400","永和區"
"234050","863-TW","2019/07/04 19:49:31","新北市永和區環河西路一段103號","121.511133333333","25.017635","6500400","永和區"
"234026","9371-KE","2019/07/04 19:49:37","新北市永和區雙和街20巷1號","121.509168333333","25.00223","6500400","永和區"
"234011","9373-KE","2019/07/04 19:49:27","新北市永和區仁愛路352巷94號","121.501148333333","25.007955","6500400","永和區"
"249005","172-UM","2019/07/04 19:49:30","新北市八里區中華路三段186號","121.390318333333","25.127535","6502300","八里區"
"249001","173-UM","2019/07/04 19:49:39","新北市八里區中華路二段250號","121.405421666667","25.14975","6502300","八里區"
"249004","303-UY","2019/07/04 19:49:25","新北市八里區忠孝路462號","121.414743333333","25.1614366666667","6502300","八里區"
"249002","305-UY","2019/07/04 19:49:24","新北市八里區頂寮三街16號","121.451568333333","25.1259466666667","6502300","八里區"
"249003","593-UM","2019/07/04 19:49:21","新北市八里區中華路二段560巷3號","121.39852","25.145185","6502300","八里區"
"248016","026-BX","2019/07/04 19:49:44","新北市五股區成泰路四段22巷19號","121.454675","25.107505","6501500","五股區"
"248008","KED-0815","2019/07/04 19:49:29","新北市五股區國道路三段7-1號","121.469428333333","25.0751433333333","6501500","五股區"
"248020","KED-0813","2019/07/04 19:49:37","新北市五股區中直路51號","121.419598333333","25.11637","6501500","五股區"
"248012","247-BX","2019/07/04 19:49:33","新北市五股區蓬萊路8號","121.435475","25.079415","6501500","五股區"
"248014","261-SL","2019/07/04 19:49:33","新北市五股區五福路14巷2號","121.434546666667","25.0886283333333","6501500","五股區"
"248010","272-BY","2019/07/04 19:49:26","新北市五股區登林路貿商巷3弄15號","121.42971","25.0699033333333","6501500","五股區"
"248004","677-BX","2019/07/04 19:49:29","新北市五股區成泰路一段142-1號","121.435088333333","25.07619","6501500","五股區"
"248002","678-BX","2019/07/04 19:49:33","新北市五股區成泰路3段651-1號","121.452891666667","25.1050966666667","6501500","五股區"
"234023","9380-KE","2019/07/04 19:49:35","新北市永和區保生路55-1號","121.504466666667","25.01095","6500400","永和區"
"234077","969-R7","2019/07/04 19:49:40","新北市永和區智光街53號","121.51717","24.99795","6500400","永和區"
"234074","AAC-211","2019/07/04 19:49:37","新北市永和區豫溪街136巷5號","121.521208333333","25.010055","6500400","永和區"
"234067","AAC-212","2019/07/04 19:49:33","新北市永和區永貞路361巷2號","121.508863333333","25.0078733333333","6500400","永和區"
"234003","AAC-295","2019/07/04 19:49:37","新北市永和區自由街2號","121.514805","25.00727","6500400","永和區"
"243012","AAD-798","2019/07/04 19:49:34","新北市泰山區仁愛路100巷31號","121.433703333333","25.054955","6501600","泰山區"
"243016","421-VK","2019/07/04 19:49:36","新北市泰山區新北大道六段468號","121.42197","25.032715","6501600","泰山區"
"243009","KEA-2215","2019/07/04 19:49:33","新北市泰山區美寧街60號","121.430893333333","25.0646966666667","6501600","泰山區"
"243011","KEA-2216","2019/07/04 19:49:32","新北市泰山區明志路三段196巷21弄22號","121.422671666667","25.038595","6501600","泰山區"
"243015","680-BX","2019/07/04 19:49:25","新北市泰山區明志路二段214巷11號","121.426591666667","25.0487733333333","6501600","泰山區"
"222003","436-BY","2019/07/04 19:49:24","新北市深坑區深南路49號","121.621183333333","25.0097116666667","6501800","深坑區"
"222002","659-BX","2019/07/04 19:49:24","新北市深坑區北深路一段300號","121.624848333333","25.006285","6501800","深坑區"
"231061","002-UM","2019/07/04 19:49:25","新北市新店區安民街189-1號","121.516888333333","24.9710016666667","6500600","新店區"
"231058","0293-UT","2019/07/04 19:49:37","新北市新店區中正路102巷7號","121.54331","24.971115","6500600","新店區"
"231044","046-UY","2019/07/04 19:49:42","新北市新店區順安街69號","121.54076","24.98661","6500600","新店區"
"231060","106-UY","2019/07/04 19:49:22","新北市新店區安康路二段163號","121.510078333333","24.9592416666667","6500600","新店區"
"231051","107-UY","2019/07/04 19:49:34","新北市新店區環河路168號","121.525786666667","24.97564","6500600","新店區"
"231049","108-UY","2019/07/04 19:49:23","新北市新店區民權路100-1號","121.536265","24.9833583333333","6500600","新店區"
"231065","110-UY","2019/07/04 19:49:33","新北市新店區安祥路109巷120號","121.476438333333","24.9582566666667","6500600","新店區"
"231054","260-TV","2019/07/04 19:49:35","新北市新店區光明街17號","121.53839","24.9594083333333","6500600","新店區"
"231042","268-BY","2019/07/04 19:49:43","新北市新店區中興路一段277號","121.544925","24.9683933333333","6500600","新店區"
"231064","278-BY","2019/07/04 19:49:32","新北市新店區光華街8巷2號","121.517936666667","24.9691466666667","6500600","新店區"
"231050","AAD-862","2019/07/04 19:49:28","新北市新店區北宜路二段417號","121.560063333333","24.9544533333333","6500600","新店區"
"231045","355-BY","2019/07/04 19:49:42","新北市新店區北宜路二段451號","121.561496666667","24.9540616666667","6500600","新店區"
"231055","4716-K9","2019/07/04 19:49:28","新北市新店區力行路96號","121.53803","24.9669583333333","6500600","新店區"
"231056","4715-K9","2019/07/04 19:49:23","新北市新店區民權路72號","121.538116666667","24.9831666666667","6500600","新店區"
"231067","4772-VM","2019/07/04 19:49:34","新北市新店區精忠路10-1號","121.532523333333","24.9591283333333","6500600","新店區"
"231052","513-UM","2019/07/04 19:49:34","新北市新店區新烏路三段268巷17號","121.550101666667","24.8996133333333","6500600","新店區"
"231041","619-UM","2019/07/04 19:49:29","新北市新店區中央路97號","121.53139","24.9753366666667","6500600","新店區"
"231063","641-BX","2019/07/04 19:49:40","新北市新店區車子路11號","121.503008333333","24.95202","6500600","新店區"
"231047","KED-0819","2019/07/04 19:49:28","新北市新店區五峰路61巷13號","121.549436666667","24.9695083333333","6500600","新店區"
"231062","718-UY","2019/07/04 19:49:41","新北市新店區永業路31巷1號","121.532905","24.9555216666667","6500600","新店區"
"231046","719-UM","2019/07/04 19:48:19","新北市新店區福園街9號","121.533303333333","24.9729583333333","6500600","新店區"
"231057","720-UM","2019/07/04 19:49:29","新北市新店區梅崗三路1號","121.558143333333","24.9312266666667","6500600","新店區"
"231059","897-TW","2019/07/04 19:49:27","新北市新店區安和路二段227號","121.517296666667","24.9760483333333","6500600","新店區"
"231040","898-TW","2019/07/04 19:49:22","新北市新店區中正路75巷71號","121.543083333333","24.9688466666667","6500600","新店區"
"231043","899-TW","2019/07/04 19:49:36","新北市新店區中正路263-1號","121.538555","24.9736916666667","6500600","新店區"
"231066","AKT-0513","2019/07/04 19:49:27","新北市新店區安康路三段165巷2弄8號","121.489238333333","24.9513583333333","6500600","新店區"
"241011","013-R5","2019/07/04 19:49:38","新北市三重區三和路三段1號","121.497143333333","25.070385","6500200","三重區"
"241028","022-UY","2019/07/04 19:49:37","新北市三重區中正南路117號","121.49407","25.0573516666667","6500200","三重區"
"241008","059-VK","2019/07/04 19:49:36","新北市三重區永福街92號","121.478771666667","25.0760733333333","6500200","三重區"
"241029","060-VK","2019/07/04 19:49:38","新北市三重區光明路55號","121.491676666667","25.0579516666667","6500200","三重區"
"241031","061-VK","2019/07/04 19:49:30","新北市三重區重新路四段101-1號","121.485843333333","25.0542933333333","6500200","三重區"
"241015","062-VK","2019/07/04 19:49:25","新北市三重區三和路一段2號","121.50387","25.0642783333333","6500200","三重區"
"241017","063-VK","2019/07/04 19:49:36","新北市三重區重陽路三段15號","121.489566666667","25.06675","6500200","三重區"
"241024","065-VK","2019/07/04 19:49:21","新北市三重區大勇街82巷15弄30號","121.481216666667","25.0719383333333","6500200","三重區"
"241001","066-VK","2019/07/04 19:49:38","新北市三重區仁愛街329號","121.4923","25.07956","6500200","三重區"
"241003","091-VK","2019/07/04 19:49:21","新北市三重區五華街93巷64號","121.49399","25.0851116666667","6500200","三重區"
"241030","742-BX","2019/07/04 19:49:26","新北市三重區新興路53號","121.491453333333","25.05378","6500200","三重區"
"241016","266-UM","2019/07/04 19:49:39","新北市三重區正德街33號","121.495953333333","25.0625766666667","6500200","三重區"
"241009","267-UM","2019/07/04 19:49:34","新北市三重區三和路四段396巷19號","121.480661666667","25.079065","6500200","三重區"
"241018","268-UM","2019/07/04 19:49:31","新北市三重區雙園街57巷25號","121.49455","25.0683716666667","6500200","三重區"
"241032","269-UM","2019/07/04 19:49:26","新北市三重區重陽路一段68號","121.486456666667","25.0587516666667","6500200","三重區"
"241013","270-UM","2019/07/04 19:49:28","新北市三重區仁愛街112巷14號","121.49472","25.07393","6500200","三重區"
"241007","398-BY","2019/07/04 19:49:28","新北市三重區三和路四段133-1號","121.484746666667","25.078","6500200","三重區"
"241035","KEA-2210","2019/07/04 19:49:30","新北市三重區文化北路25號","121.499553333333","25.0637416666667","6500200","三重區"
"241004","475-VK","2019/07/04 19:49:37","新北市三重區五華街74號","121.493391666667","25.0819983333333","6500200","三重區"
"241020","478-VK","2019/07/04 19:49:43","新北市三重區三和路四段12號","121.491506666667","25.0738983333333","6500200","三重區"
"241026","480-VK","2019/07/04 19:49:41","新北市三重區文化南路46號","121.500413333333","25.0600383333333","6500200","三重區"
"241014","543-UM","2019/07/04 19:49:37","新北市三重區長安街77號","121.501645","25.0674233333333","6500200","三重區"
"241019","KEA-2593","2019/07/04 19:49:40","新北市三重區三張街106號","121.487801666667","25.0698133333333","6500200","三重區"
"241006","AAD-863","2019/07/04 19:49:38","新北市三重區永福街218號","121.48303","25.074495","6500200","三重區"
"241022","KED-0820","2019/07/04 19:49:24","新北市三重區新北大道一段11號","121.488581666667","25.060635","6500200","三重區"
"241025","887-TS","2019/07/04 19:49:36","新北市三重區忠孝路三段52號","121.480566666667","25.0657883333333","6500200","三重區"
"241012","941-UM","2019/07/04 19:49:34","新北市三重區仁興街41號","121.499033333333","25.075785","6500200","三重區"
"241033","AAC-255","2019/07/04 19:49:24","新北市三重區中興南街66號","121.470676666667","25.04394","6500200","三重區"
"235066","003-UY","2019/07/04 19:49:38","新北市中和區中和路267號","121.505368333333","24.9999433333333","6500300","中和區"
"235056","096-UM","2019/07/04 19:49:42","新北市中和區中山路三段136巷2號","121.473951666667","25.0064216666667","6500300","中和區"
"235039","097-UM","2019/07/04 19:49:35","新北市中和區大勇街27巷25號","121.51641","24.9938016666667","6500300","中和區"
"235065","098-UM","2019/07/04 19:49:25","新北市中和區福祥路90巷7弄13號","121.499466666667","25.0064416666667","6500300","中和區"
"235040","150-BY","2019/07/04 19:49:37","新北市中和區安平路59號","121.509641666667","24.994935","6500300","中和區"
"235058","151-BY","2019/07/04 19:49:36","新北市中和區員山路207號","121.48124","24.997575","6500300","中和區"
"235055","183-VK","2019/07/04 19:49:22","新北市中和區德光路27巷11號","121.471013333333","25.00354","6500300","中和區"
"235038","185-VK","2019/07/04 19:49:28","新北市永和區民生路46巷56號","121.520663333333","24.9962833333333","6500300","中和區"
"235067","255-BX","2019/07/04 19:49:21","新北市中和區連城路340巷14弄19號","121.482901666667","24.9971483333333","6500300","中和區"
"235044","293-VK","2019/07/04 19:49:21","新北市中和區南山路231號","121.503555","24.99321","6500300","中和區"
"235043","352-BY","2019/07/04 19:49:35","新北市中和區興南路二段159巷25號","121.505376666667","24.9829583333333","6500300","中和區"
"235042","KEA-2878","2019/07/04 19:49:34","新北市中和區宜安路174號","121.508821666667","24.999265","6500300","中和區"
"247014","KEA-2869","2019/07/04 19:49:35","新北市蘆洲區中央路155號","121.472435","25.0846616666667","6501400","蘆洲區"
"247008","KED-0682","2019/07/04 19:49:36","新北市蘆洲區中山一路1號","121.478528333333","25.0799516666667","6501400","蘆洲區"
"235050","4979-A6","2019/07/04 19:49:33","新北市中和區景平路241巷84弄54號","121.506096666667","24.9923316666667","6500300","中和區"
"235070","558-UM","2019/07/04 19:49:42","新北市中和區圓通路111號","121.49937","24.9965133333333","6500300","中和區"
"235060","KED-0823","2019/07/04 19:49:29","新北市中和區新生街30巷6號","121.48295","25.00387","6500300","中和區"
"235047","732-UM","2019/07/04 19:49:37","新北市中和區和平街3號","121.509811666667","24.989975","6500300","中和區"
"235046","733-UM","2019/07/04 19:49:25","新北市中和區仁愛街10號","121.510621666667","24.989115","6500300","中和區"
"235071","783-BX","2019/07/04 19:49:29","新北市中和區環中路122號","121.481898333333","25.0125283333333","6500300","中和區"
"235057","801-TS","2019/07/04 19:49:41","新北市板橋區民生路三段224號","121.464753333333","25.02975","6500300","中和區"
"235041","802-TS","2019/07/04 19:49:32","新北市中和區中安街54號","121.512931666667","25.0023033333333","6500300","中和區"
"235052","805-TS","2019/07/04 19:49:35","新北市中和區華新街30巷15號","121.507176666667","24.9842733333333","6500300","中和區"
"235048","896-TW","2019/07/04 19:49:40","新北市中和區興南路一段129號","121.50884","24.9879016666667","6500300","中和區"
"235053","900-TW","2019/07/04 19:49:27","新北市中和區民德路132號","121.468781666667","25.0007983333333","6500300","中和區"
"235054","911-UM","2019/07/04 19:49:41","新北市中和區民享街90巷1號","121.474765","25.0003466666667","6500300","中和區"
"235051","157-BY","2019/07/04 19:49:23","新北市中和區中興街180巷52弄3號","121.498453333333","24.9883033333333","6500300","中和區"
"235037","AAC-213","2019/07/04 19:49:31","新北市中和區自立路147號","121.522558333333","24.9931216666667","6500300","中和區"
"235059","AAC-215","2019/07/04 19:49:43","新北市中和區圓通路305巷13弄2號","121.494136666667","24.9897316666667","6500300","中和區"
"220065","072-UY","2019/07/04 19:49:30","新北市板橋區國泰街17號","121.469328333333","25.0067266666667","6500100","板橋區"
"220086","073-UY","2019/07/04 19:49:40","新北市板橋區中正路216巷33號","121.456873333333","25.0188983333333","6500100","板橋區"
"220106","075-UY","2019/07/04 19:49:21","新北市板橋區民治街96巷22號","121.47859","25.0321333333333","6500100","板橋區"
"220069","AAD-861","2019/07/04 19:49:28","新北市板橋區大明街13號","121.458888333333","25.00252","6500100","板橋區"
"247004","893-R6","2019/07/04 19:49:39","新北市蘆洲區中原路45號","121.459301666667","25.0823183333333","6501400","蘆洲區"
"247002","336-TH","2019/07/04 19:49:24","新北市蘆洲區永樂街38巷69號","121.458711666667","25.0904216666667","6501400","蘆洲區"
"226004","312-R5","2019/07/04 19:49:35","新北市平溪區靜安路三段392巷3號","121.784426666667","25.04957","6502400","平溪區"
"228003","097-TW","2019/07/04 19:49:27","新北市貢寮區真理里美艷山街5-1號","121.926646666667","25.0596966666667","6502600","貢寮區"
"228001","212-TW","2019/07/04 19:49:33","新北市貢寮區真理里新港街78號","121.927205","25.055865","6502600","貢寮區"
"227001","642-TC","2019/07/04 19:49:31","新北市雙溪區新基里中華路45號","121.865858333333","25.0376316666667","6502500","雙溪區"
"227002","400-TW","2019/07/04 19:49:29","新北市雙溪區雙溪里內挖路36號","121.86319","25.036795","6502500","雙溪區"
"222001","KEA-2212","2019/07/04 19:49:40","新北市深坑區北深路三段83號","121.60655","25.0016066666667","6501800","深坑區"
"208002","KEA-2872","2019/07/04 19:49:25","新北市金山區中華路265號","121.633216666667","25.2245916666667","6502700","金山區"
"208003","665-BX","2019/07/04 19:49:24","新北市金山區海興路112-1號","121.631111666667","25.2386416666667","6502700","金山區"
"251004","009-UM","2019/07/04 19:49:41","新北市淡水區民權路185巷22號","121.460371666667","25.1336883333333","6501000","淡水區"
"251005","010-UM","2019/07/04 19:49:24","新北市淡水區中正東路6號","121.446963333333","25.1672166666667","6501000","淡水區"
"251015","KEA-2871","2019/07/04 19:49:34","新北市淡水區山子頂24-1號","121.491373333333","25.187125","6501000","淡水區"
"251016","179-VK","2019/07/04 19:49:33","新北市淡水區下圭柔山121-12號","121.454653333333","25.2095316666667","6501000","淡水區"
"251008","181-VK","2019/07/04 19:49:41","新北市淡水區中正路二段24巷2-1號","121.426796666667","25.17698","6501000","淡水區"
"251013","182-VK","2019/07/04 19:49:38","新北市淡水區頂田寮路109號","121.458951666667","25.2160166666667","6501000","淡水區"
"251012","441-VK","2019/07/04 19:49:39","新北市淡水區淡金路三段66號","121.448225","25.19989","6501000","淡水區"
"251007","442-VK","2019/07/04 19:49:23","新北市淡水區竿蓁一街101號","121.454461666667","25.1662816666667","6501000","淡水區"
"251001","559-UM","2019/07/04 19:49:36","新北市淡水區中正東路二段37號","121.459221666667","25.1561883333333","6501000","淡水區"
"251006","561-UM","2019/07/04 19:49:32","新北市淡水區中山北路一段205號","121.44429","25.1788233333333","6501000","淡水區"
"251014","577-R6","2019/07/04 19:49:22","新北市淡水區番社前2-7號","121.470708333333","25.237155","6501000","淡水區"
"251011","650-BX","2019/07/04 19:49:24","新北市淡水區紅樹林路151號","121.460705","25.1578883333333","6501000","淡水區"
"251002","672-BX","2019/07/04 19:49:24","新北市淡水區下圭柔山90-8號","121.43139","25.21036","6501000","淡水區"
"207003","550-UM","2019/07/04 19:49:32","新北市萬里區磺潭里公館崙5號","121.642028333333","25.21441","6502800","萬里區"
"207004","225-TW","2019/07/04 19:49:33","新北市萬里區萬里里瑪鋉路197號","121.690518333333","25.1790766666667","6502800","萬里區"
"252002","178-VK","2019/07/04 19:49:25","新北市三芝區三民街20號","121.504533333333","25.2586316666667","6502100","三芝區"
"208001","170-UY","2019/07/04 19:49:24","新北市金山區重和里六股林口55號","121.601976666667","25.219825","6502700","金山區"
"237004","KEA-2597","2019/07/04 19:49:40","新北市三峽區圳頭90-1號","121.38083","24.8791566666667","6500900","三峽區"
"237007","153-BY","2019/07/04 19:49:24","新北市三峽區二鬮路136巷20弄59號","121.357605","24.9099383333333","6500900","三峽區"
"237009","210-TH","2019/07/04 19:49:34","新北市三峽區中園街13-1號","121.368638333333","24.9271283333333","6500900","三峽區"
"237013","252-BX","2019/07/04 19:49:39","新北市三峽區介壽路一段496-1號","121.385203333333","24.931765","6500900","三峽區"
"237012","275-BY","2019/07/04 19:49:22","新北市三峽區光明路2號","121.372998333333","24.9311333333333","6500900","三峽區"
"237008","302-VK","2019/07/04 19:49:25","新北市三峽區永安街183號","121.373155","24.9269333333333","6500900","三峽區"
"237014","433-BY","2019/07/04 19:49:35","新北市三峽區添福14-39號","121.371991666667","24.9003216666667","6500900","三峽區"
"237006","5529-G3","2019/07/04 19:49:33","新北市三峽區中正路一段336巷15弄2號","121.369946666667","24.9249733333333","6500900","三峽區"
"237011","KEA-2596","2019/07/04 19:49:23","新北市三峽區中正路一段112-1號","121.374043333333","24.9295","6500900","三峽區"
"237015","649-BX","2019/07/04 19:49:41","新北市三峽區成福路84號","121.42063","24.9299333333333","6500900","三峽區"
"237005","AKY-6261","2019/07/04 19:49:36","新北市三峽區長泰街18巷1號","121.379075","24.9317016666667","6500900","三峽區"
"236042","KED-0685","2019/07/04 19:49:29","新北市土城區金城路二段229號","121.455556666667","24.98237","6501300","土城區"
"220089","KED-0812","2019/07/04 19:49:40","新北市板橋區新海路403巷2號","121.458356666667","25.0266983333333","6500100","板橋區"
"236030","253-BX","2019/07/04 19:49:37","新北市土城區中央路一段318巷4弄12號","121.443225","24.9824233333333","6501300","土城區"
"236026","269-VK","2019/07/04 19:49:33","新北市土城區中央路二段61巷30號","121.443505","24.97867","6501300","土城區"
"236038","271-VK","2019/07/04 19:49:32","新北市土城區國際路158巷24弄6號","121.468481666667","24.97597","6501300","土城區"
"236070","KEA-2877","2019/07/04 19:49:27","新北市土城區中央路二段224號","121.441965","24.9753716666667","6501300","土城區"
"252001","KED-0821","2019/07/04 19:49:38","新北市三芝區公正街9號","121.49977","25.25755","6502100","三芝區"
"236021","401-BY","2019/07/04 19:49:36","新北市土城區延吉街165巷9號","121.470318333333","24.98525","6501300","土城區"
"236059","912-UM","2019/07/04 19:49:31","新北市土城區中央路一段139號","121.446753333333","24.9881116666667","6501300","土城區"
"236049","913-UM","2019/07/04 19:49:32","新北市土城區清水路144號","121.458926666667","24.9813933333333","6501300","土城區"
"236063","915-UM","2019/07/04 19:49:39","新北市土城區延和路105巷6弄2號","121.467381666667","24.9910016666667","6501300","土城區"
"236055","AAC-216","2019/07/04 19:49:36","新北市土城區延和路119號","121.468086666667","24.9904933333333","6501300","土城區"
"242039","AAC-296","2019/07/04 19:49:34","新北市新莊區民安路299巷49號","121.429588333333","25.0234716666667","6500500","新莊區"
"242002","751-BX","2019/07/04 19:49:39","新北市新莊區新泰路2-11號","121.45013","25.0325383333333","6500500","新莊區"
"242029","615-BX","2019/07/04 19:49:33","新北市新莊區中平路288號","121.44489","25.0510533333333","6500500","新莊區"
"242004","440-UM","2019/07/04 19:49:35","新北市新莊區化成路63巷24弄15號","121.462681666667","25.0460166666667","6500500","新莊區"
"242048","400-BY","2019/07/04 19:49:38","新北市新莊區民安路37巷9號","121.424011666667","25.0270283333333","6500500","新莊區"
"242025","362-BY","2019/07/04 19:49:30","新北市新莊區五權一路12巷21弄5號","121.457795","25.064575","6500500","新莊區"
"242023","353-BY","2019/07/04 19:49:34","新北市新莊區化成路172號","121.465523333333","25.045565","6500500","新莊區"
"242013","132-UY","2019/07/04 19:49:38","新北市新莊區中泰街73號","121.449695","25.0466416666667","6500500","新莊區"
"242036","135-UY","2019/07/04 19:49:34","新北市新莊區建安街85號","121.427293333333","25.02461","6500500","新莊區"
"242015","173-VK","2019/07/04 19:49:23","新北市新莊區新泰路502巷47號","121.444106666667","25.0464333333333","6500500","新莊區"
"242034","348-TH","2019/07/04 19:49:39","新北市新莊區公園一路110號","121.444431666667","25.0373983333333","6500500","新莊區"
"242031","350-TH","2019/07/04 19:49:31","新北市新莊區公園一路97號","121.444463333333","25.037895","6500500","新莊區"
"238015","755-BX","2019/07/04 19:49:30","新北市樹林區大安路593號","121.411651666667","24.9830666666667","6500700","樹林區"
"238023","601-UM","2019/07/04 19:49:31","新北市樹林區中正路163號","121.42413","25.0021766666667","6500700","樹林區"
"238019","599-UM","2019/07/04 19:49:39","新北市樹林區中華路190-16號","121.411828333333","24.980565","6500700","樹林區"
"238024","5061-A6","2019/07/04 19:49:22","新北市樹林區中山路三段210-2號","121.380796666667","24.9669466666667","6500700","樹林區"
"238022","KEA-2213","2019/07/04 19:49:30","新北市樹林區國凱街45號","121.420681666667","24.97908","6500700","樹林區"
"238021","KEA-2539","2019/07/04 19:49:43","新北市樹林區佳園路三段181巷81號","121.390695","24.9484333333333","6500700","樹林區"
"238025","303-VK","2019/07/04 19:49:31","新北市樹林區中山路二段133號","121.406463333333","24.9790933333333","6500700","樹林區"
"238017","283-BY","2019/07/04 19:49:25","新北市樹林區保安街二段167巷13號","121.414531666667","25.002815","6500700","樹林區"
"238020","268-VK","2019/07/04 19:49:26","新北市板橋區大觀路三段59巷57號","121.435128333333","24.99426","6500700","樹林區"
"238026","172-UY","2019/07/04 19:49:26","新北市樹林區佳園路二段138號","121.38946","24.9561333333333","6500700","樹林區"
"239006","891-R6","2019/07/04 19:49:31","新北市鶯歌區永昌街37號","121.342536666667","24.9497566666667","6500800","鶯歌區"
"239001","417-VK","2019/07/04 19:49:38","新北市鶯歌區中正一路阿南巷501號","121.380943333333","24.9649433333333","6500800","鶯歌區"
"239002","359-BY","2019/07/04 19:49:37","新北市鶯歌區大湖路273號","121.345376666667","24.9731733333333","6500800","鶯歌區"
"221008","489-VK","2019/07/04 19:49:30","新北市汐止區康寧街61巷22弄5號","121.619596666667","25.0670283333333","6501100","汐止區"
"221036","130-UY","2019/07/04 19:49:30","新北市汐止區康寧街901號","121.650966666667","25.0751883333333","6501100","汐止區"
"221010","269-BY","2019/07/04 19:49:34","新北市汐止區汐萬路一段411號","121.649245","25.0793783333333","6501100","汐止區"
"221012","278-VK","2019/07/04 19:49:32","新北市汐止區大同路三段483號","121.679863333333","25.0711016666667","6501100","汐止區"
"221023","279-VK","2019/07/04 19:49:29","新北市汐止區中興路284號","121.628301666667","25.0693733333333","6501100","汐止區"
"221021","299-VK","2019/07/04 19:49:36","新北市汐止區復興路58巷11弄10號","121.656248333333","25.0615833333333","6501100","汐止區"
"221031","353-TW","2019/07/04 19:49:26","新北市汐止區汐萬路一段312號","121.650591666667","25.0754116666667","6501100","汐止區"
"221025","623-UM","2019/07/04 19:49:28","新北市汐止區秀峰路81巷21號","121.661001666667","25.0647016666667","6501100","汐止區"
"221038","646-BX","2019/07/04 19:49:37","新北市汐止區忠孝東路335號","121.665201666667","25.0698566666667","6501100","汐止區"
"220079","145-BY","2019/07/04 19:49:37","新北市板橋區民權路202巷17-1號","121.460765","25.0165966666667","6500100","板橋區"
"220080","200-UY","2019/07/04 19:49:37","新北市板橋區大觀路二段153巷46弄10號","121.44896","24.9995633333333","6500100","板橋區"
"220082","610-BX","2019/07/04 19:49:40","新北市板橋區溪崑一街92號","121.42903","24.9894566666667","6500100","板橋區"
"220101","245-BX","2019/07/04 19:49:38","新北市板橋區縣民大道三段35號","121.473895","25.0207616666667","6500100","板橋區"
"220056","276-BY","2019/07/04 19:49:37","新北市板橋區信義路1巷4號","121.457231666667","24.9969916666667","6500100","板橋區"
"220072","277-BY","2019/07/04 19:49:31","新北市板橋區篤行路二段77巷9弄1號","121.432238333333","24.991845","6500100","板橋區"
"220094","283-UM","2019/07/04 19:49:31","新北市板橋區雨農路17巷1號","121.462048333333","25.02449","6500100","板橋區"
"220071","283-VK","2019/07/04 19:49:41","新北市板橋區和平路174巷30號","121.464726666667","24.9943733333333","6500100","板橋區"
"220053","285-VK","2019/07/04 19:49:28","新北市板橋區永豐街21號","121.474671666667","25.0170266666667","6500100","板橋區"
"220083","286-VK","2019/07/04 19:49:28","新北市板橋區龍興街65巷82號","121.441855","25.00216","6500100","板橋區"
"220081","287-VK","2019/07/04 19:49:40","新北市板橋區大觀路一段29巷155號","121.449375","25.0054883333333","6500100","板橋區"
"220090","288-VK","2019/07/04 19:49:39","新北市板橋區英士路199號","121.458881666667","25.0236","6500100","板橋區"
"220061","295-UM","2019/07/04 19:49:29","新北市板橋區觀光街33巷2-1號","121.471116666667","25.0159916666667","6500100","板橋區"
"220084","296-UM","2019/07/04 19:49:24","新北市板橋區滿平二街1號","121.425431666667","24.9862333333333","6500100","板橋區"
"220075","303-R5","2019/07/04 19:49:40","新北市板橋區大勇街71號","121.453063333333","25.0166383333333","6500100","板橋區"
"220062","305-R5","2019/07/04 19:49:35","新北市板橋區光復街20號","121.48152","25.0188833333333","6500100","板橋區"
"220092","307-R5","2019/07/04 19:49:32","新北市板橋區幸福路32巷38號","121.460678333333","25.0217416666667","6500100","板橋區"
"220098","317-R6","2019/07/04 19:49:23","新北市板橋區四維路269巷45號","121.4613","25.027405","6500100","板橋區"
"220088","491-VK","2019/07/04 19:49:21","新北市板橋區懷德街181巷5號","121.479495","25.0299183333333","6500100","板橋區"
"220035","560-BX","2019/07/04 19:49:38","新北市板橋區新生街89巷8號","121.457963333333","25.022215","6500100","板橋區"
"220103","561-BX","2019/07/04 19:49:24","新北市板橋區陽明街279巷18-4號","121.461296666667","25.02583","6500100","板橋區"
"220063","609-BX","2019/07/04 19:49:35","新北市板橋區三民路一段3巷1號","121.478873333333","25.0235966666667","6500100","板橋區"
"220091","637-BX","2019/07/04 19:49:41","新北市板橋區民治街79號","121.479745","25.0323533333333","6500100","板橋區"
"220057","686-BX","2019/07/04 19:49:29","新北市板橋區信義路243號","121.460153333333","24.9909666666667","6500100","板橋區"
"220077","687-BX","2019/07/04 19:49:40","新北市板橋區僑中二街108巷1號","121.44585","25.0070966666667","6500100","板橋區"
"220093","689-BX","2019/07/04 19:49:42","新北市板橋區民治街57巷32-1號","121.481211666667","25.0356283333333","6500100","板橋區"
"220054","741-BX","2019/07/04 19:49:40","新北市板橋區實踐路61號","121.463781666667","25.0065016666667","6500100","板橋區"
"220102","KEA-2699","2019/07/04 19:49:24","新北市板橋區松柏街14號","121.4743","25.0296533333333","6500100","板橋區"
"220055","827-TW","2019/07/04 19:49:34","新北市板橋區國慶路149巷31號","121.460961666667","24.9977433333333","6500100","板橋區"
"220067","829-TW","2019/07/04 19:49:23","新北市板橋區長安街150號","121.473098333333","25.0103866666667","6500100","板橋區"
"220068","831-TW","2019/07/04 19:49:39","新北市板橋區光復街111號","121.484543333333","25.0193816666667","6500100","板橋區"
"220074","895-R6","2019/07/04 19:49:32","新北市板橋區文化路一段1號","121.457681666667","25.0096983333333","6500100","板橋區"
"220073","985-R7","2019/07/04 19:49:28","新北市板橋區國光路49巷2號","121.458033333333","25.0180683333333","6500100","板橋區"
"220097","AAC-210","2019/07/04 19:49:38","新北市板橋區光正街16巷9號","121.463095","25.0175366666667","6500100","板橋區"
"220064","AAC-253","2019/07/04 19:49:29","新北市板橋區民族路61號","121.46481","25.00861","6500100","板橋區"
"235068","KEA-2873","2019/07/04 19:49:28","新北市中和區福美路272號","121.497963333333","25.0050866666667","6500300","中和區"
"235049","KEA-2876","2019/07/04 19:49:32","新北市中和區景平路385巷57號","121.50147","24.9943366666667","6500300","中和區"
