"lineid","car","time","location","longitude","latitude","cityid","cityname"
"234081","298-R6","2019/07/04 20:19:37","新北市永和區國中路104巷2弄1號","121.524433333333","25.00671","6500400","永和區"
"234038","336-UY","2019/07/04 20:19:35","新北市永和區成功路一段93巷21弄2號","121.52832","25.0026933333333","6500400","永和區"
"234064","337-UY","2019/07/04 20:19:34","新北市永和區得和路120號","121.518638333333","25.0000933333333","6500400","永和區"
"234086","338-UY","2019/07/04 20:19:34","新北市永和區永和路二段61號","121.514715","25.0110716666667","6500400","永和區"
"234070","552-UM","2019/07/04 20:19:39","新北市永和區福和路263巷7弄1號","121.517921666667","25.0069616666667","6500400","永和區"
"234017","745-BX","2019/07/04 20:19:43","新北市永和區仁愛路60-1號","121.513611666667","25.0133333333333","6500400","永和區"
"234030","746-BX","2019/07/04 20:19:42","新北市永和區民有街69號","121.517878333333","24.9957683333333","6500400","永和區"
"234054","KEA-2590","2019/07/04 20:19:29","新北市永和區光復街2巷26弄1號","121.51762","25.0165933333333","6500400","永和區"
"234013","KEA-2591","2019/07/04 20:19:23","新北市永和區保生路40巷1號","121.505928333333","25.0081933333333","6500400","永和區"
"234061","AAD-866","2019/07/04 20:19:36","新北市永和區安樂路100巷33號","121.51528","24.998865","6500400","永和區"
"234042","862-TW","2019/07/04 20:19:28","新北市中和區中安街172號","121.510908333333","24.999765","6500400","永和區"
"234050","863-TW","2019/07/04 20:19:31","新北市永和區新生路28巷16號","121.508341666667","25.0164116666667","6500400","永和區"
"249005","172-UM","2019/07/04 20:19:30","新北市八里區下罟子2-13號","121.388391666667","25.14129","6502300","八里區"
"249001","173-UM","2019/07/04 20:19:39","新北市八里區中華路二段536-2號","121.399265","25.145175","6502300","八里區"
"249004","303-UY","2019/07/04 20:19:25","新北市八里區中山路一段330號","121.412741666667","25.1590716666667","6502300","八里區"
"249002","305-UY","2019/07/04 20:19:24","新北市八里區龍米路一段77號","121.455333333333","25.12268","6502300","八里區"
"249003","593-UM","2019/07/04 20:19:41","新北市八里區訊塘路27號","121.397798333333","25.1453166666667","6502300","八里區"
"248016","026-BX","2019/07/04 20:19:23","新北市五股區凌雲路一段158巷39弄12號","121.446488333333","25.1041016666667","6501500","五股區"
"248012","247-BX","2019/07/04 20:19:33","新北市五股區民義路一段25號","121.43672","25.0841183333333","6501500","五股區"
"248010","272-BY","2019/07/04 20:19:26","新北市五股區成泰路一段8巷6號","121.435466666667","25.0667233333333","6501500","五股區"
"248004","677-BX","2019/07/04 20:19:29","新北市五股區中興路四段25號","121.438716666667","25.0827533333333","6501500","五股區"
"248002","678-BX","2019/07/04 20:19:33","新北市五股區成泰路三段191號","121.445603333333","25.0923416666667","6501500","五股區"
"234023","9380-KE","2019/07/04 20:19:38","新北市永和區復興街39號","121.516416666667","25.0132083333333","6500400","永和區"
"234077","969-R7","2019/07/04 20:19:21","新北市永和區民享街11號","121.515301666667","24.9953216666667","6500400","永和區"
"234074","AAC-211","2019/07/04 20:19:37","新北市永和區豫溪街160巷2號","121.523195","25.00963","6500400","永和區"
"234067","AAC-212","2019/07/04 20:19:33","新北市永和區保平路236巷1弄16號","121.508471666667","25.0054733333333","6500400","永和區"
"234003","AAC-295","2019/07/04 20:19:40","新北市永和區福和路376號","121.514253333333","25.0078133333333","6500400","永和區"
"243012","AAD-798","2019/07/04 20:19:34","新北市泰山區楓江路162號","121.440801666667","25.065705","6501600","泰山區"
"243010","297-R6","2019/07/04 20:19:17","新北市泰山區明志路二段214巷16弄33號","121.42663","25.050095","6501600","泰山區"
"243014","KEA-2801","2019/07/04 20:19:43","新北市泰山區泰林路二段262號","121.431646666667","25.0623583333333","6501600","泰山區"
"243016","421-VK","2019/07/04 20:19:35","新北市泰山區明志路二段385號","121.42501","25.0436883333333","6501600","泰山區"
"243009","KEA-2215","2019/07/04 20:19:33","新北市泰山區福泰街22號","121.433186666667","25.0599016666667","6501600","泰山區"
"243011","KEA-2216","2019/07/04 20:19:32","新北市新莊區壽山路160巷21號","121.417495","25.031905","6501600","泰山區"
"243013","646-TV","2019/07/04 20:19:28","新北市泰山區民國街56號","121.425995","25.0438466666667","6501600","泰山區"
"243015","680-BX","2019/07/04 20:19:25","新北市泰山區明志路一段304號","121.431706666667","25.0596583333333","6501600","泰山區"
"222003","436-BY","2019/07/04 20:19:24","新北市深坑區文化街43號","121.61755","25.0018533333333","6501800","深坑區"
"222002","659-BX","2019/07/04 20:19:24","新北市深坑區埔新街125號","121.618476666667","25.0020566666667","6501800","深坑區"
"231061","002-UM","2019/07/04 20:19:25","新北市新店區安興路33-1號","121.515821666667","24.9704033333333","6500600","新店區"
"231058","0293-UT","2019/07/04 20:19:36","新北市新店區薏仁坑路自強巷1號","121.497621666667","24.957865","6500600","新店區"
"231044","046-UY","2019/07/04 20:19:42","新北市新店區北新路三段139號","121.541315","24.9831583333333","6500600","新店區"
"231060","106-UY","2019/07/04 20:19:42","新北市新店區安康路三段578-1號","121.481075","24.9487366666667","6500600","新店區"
"231051","107-UY","2019/07/04 20:19:34","新北市新店區中央六街56號","121.527978333333","24.9757566666667","6500600","新店區"
"231049","108-UY","2019/07/04 20:19:42","新北市新店區北新路二段61號","121.542606666667","24.9732966666667","6500600","新店區"
"231065","110-UY","2019/07/04 20:19:36","新北市新店區安祥路104巷6弄8號","121.481653333333","24.962615","6500600","新店區"
"231068","187-VK","2019/07/04 20:19:33","新北市新店區寶安街33號","121.541965","24.9824016666667","6500600","新店區"
"231054","260-TV","2019/07/04 20:19:35","新北市新店區檳榔路111號","121.544555","24.96152","6500600","新店區"
"231042","268-BY","2019/07/04 20:19:23","新北市新店區中興路二段223號","121.547823333333","24.974525","6500600","新店區"
"231064","278-BY","2019/07/04 20:19:24","新北市新店區安業街33號","121.518008333333","24.9768316666667","6500600","新店區"
"231050","AAD-862","2019/07/04 20:19:28","新北市新店區中正路142號","121.541826666667","24.9714883333333","6500600","新店區"
"231045","355-BY","2019/07/04 20:19:22","新北市新店區中興路一段112號","121.54091","24.961635","6500600","新店區"
"231055","4716-K9","2019/07/04 20:19:28","新北市新店區北新路一段303號","121.541165","24.9676416666667","6500600","新店區"
"231056","4715-K9","2019/07/04 20:19:24","新北市新店區中正路312巷19號","121.53805","24.9752716666667","6500600","新店區"
"231067","4772-VM","2019/07/04 20:19:34","新北市新店區安康路一段50-1號","121.529661666667","24.9613233333333","6500600","新店區"
"231052","513-UM","2019/07/04 20:19:34","新北市新店區新烏路二段395號","121.551128333333","24.9096916666667","6500600","新店區"
"231041","619-UM","2019/07/04 20:19:29","新北市新店區民權路72號","121.538101666667","24.983135","6500600","新店區"
"231063","641-BX","2019/07/04 20:19:40","新北市新店區車子路10號","121.504676666667","24.9550666666667","6500600","新店區"
"231047","KED-0819","2019/07/04 20:19:28","新北市新店區寶橋路85巷70號","121.544685","24.9768816666667","6500600","新店區"
"231062","718-UY","2019/07/04 20:19:41","新北市新店區安康路二段452-1號","121.495215","24.9547483333333","6500600","新店區"
"231057","720-UM","2019/07/04 20:19:42","新北市新店區花園十路二段7號","121.554365","24.9345533333333","6500600","新店區"
"231059","897-TW","2019/07/04 20:19:27","新北市新店區安德街60巷26號","121.511238333333","24.96371","6500600","新店區"
"231040","898-TW","2019/07/04 20:19:42","新北市新店區中正路110號","121.543045","24.9707033333333","6500600","新店區"
"231043","899-TW","2019/07/04 20:19:35","新北市新店區建國路135號","121.539276666667","24.9783583333333","6500600","新店區"
"231066","AKT-0513","2019/07/04 20:19:26","新北市新店區柴埕路57號","121.513673333333","24.9652183333333","6500600","新店區"
"241011","013-R5","2019/07/04 20:19:38","新北市三重區龍濱路283巷8號","121.501171666667","25.0736466666667","6500200","三重區"
"241028","022-UY","2019/07/04 20:19:37","新北市三重區大同南路142號","121.496456666667","25.0579466666667","6500200","三重區"
"241008","059-VK","2019/07/04 20:19:36","新北市三重區永福街211巷1-1號","121.479885","25.0743383333333","6500200","三重區"
"241029","060-VK","2019/07/04 20:19:38","新北市三重區光明路112號","121.49268","25.0562166666667","6500200","三重區"
"241031","061-VK","2019/07/04 20:19:30","新北市三重區三寧街15號","121.489471666667","25.0597866666667","6500200","三重區"
"241015","062-VK","2019/07/04 20:19:25","新北市三重區重新路一段120號","121.50044","25.06299","6500200","三重區"
"241017","063-VK","2019/07/04 20:19:28","新北市三重區長壽西街129號","121.493476666667","25.0665566666667","6500200","三重區"
"241024","065-VK","2019/07/04 20:19:40","新北市三重區中正北路278號","121.480833333333","25.0685166666667","6500200","三重區"
"241001","066-VK","2019/07/04 20:19:38","新北市三重區溪尾街40號","121.490613333333","25.07684","6500200","三重區"
"241002","090-VK","2019/07/04 20:19:42","新北市三重區五華街19-3號","121.494856666667","25.0805733333333","6500200","三重區"
"241003","091-VK","2019/07/04 20:19:41","新北市三重區富華街28號","121.489745","25.0826616666667","6500200","三重區"
"241030","742-BX","2019/07/04 20:16:46","新北市三重區集美街60號","121.489291666667","25.054915","6500200","三重區"
"241005","262-UM","2019/07/04 20:19:33","新北市三重區分子尾街70號","121.489106666667","25.08189","6500200","三重區"
"241016","266-UM","2019/07/04 20:19:39","新北市三重區大同北路97-3號","121.49432","25.0636533333333","6500200","三重區"
"241009","267-UM","2019/07/04 20:19:34","新北市三重區三和路四段382巷37號","121.481435","25.0786583333333","6500200","三重區"
"241018","268-UM","2019/07/04 20:19:31","新北市三重區自強路一段236號","121.4933","25.0670233333333","6500200","三重區"
"241032","269-UM","2019/07/04 20:19:26","新北市三重區捷運路19巷8弄13號","121.484395","25.0572533333333","6500200","三重區"
"241013","270-UM","2019/07/04 20:19:28","新北市三重區三和路三段163號","121.491933333333","25.0740466666667","6500200","三重區"
"241023","271-UM","2019/07/04 20:19:40","新北市三重區忠孝路三段84巷5號","121.480303333333","25.0642083333333","6500200","三重區"
"241007","398-BY","2019/07/04 20:19:28","新北市三重區三和路四段117巷26號","121.486326666667","25.078005","6500200","三重區"
"241035","KEA-2210","2019/07/04 20:19:30","新北市三重區大榮街52號","121.499073333333","25.06363","6500200","三重區"
"241004","475-VK","2019/07/04 20:19:37","新北市三重區仁政街198號","121.490623333333","25.0803633333333","6500200","三重區"
"241020","478-VK","2019/07/04 20:19:23","新北市三重區三和路三段170巷14號","121.492205","25.0729483333333","6500200","三重區"
"241026","480-VK","2019/07/04 20:19:21","新北市三重區福德南路7號","121.502693333333","25.0634033333333","6500200","三重區"
"241014","543-UM","2019/07/04 20:19:37","新北市三重區河邊北街96-1號","121.504056666667","25.0700266666667","6500200","三重區"
"241019","KEA-2593","2019/07/04 20:19:40","新北市三重區大智街188號","121.489616666667","25.070535","6500200","三重區"
"241006","AAD-863","2019/07/04 20:19:38","新北市三重區車路頭街139巷12號","121.48426","25.0762683333333","6500200","三重區"
"241022","KED-0820","2019/07/04 20:19:24","新北市三重區新北大道一段36號","121.488225","25.0613816666667","6500200","三重區"
"241025","887-TS","2019/07/04 20:19:36","新北市三重區三民街272巷14號","121.47878","25.06767","6500200","三重區"
"241012","941-UM","2019/07/04 20:19:34","新北市三重區河邊北街379-1號","121.501725","25.076465","6500200","三重區"
"241033","AAC-255","2019/07/04 20:19:24","新北市三重區五谷王北街42巷10號","121.475348333333","25.0491983333333","6500200","三重區"
"235066","003-UY","2019/07/04 20:19:29","新北市中和區水源路97號","121.507133333333","25.0035016666667","6500300","中和區"
"235039","097-UM","2019/07/04 20:19:35","新北市中和區大勇街29巷10號","121.515975","24.9944733333333","6500300","中和區"
"235065","098-UM","2019/07/04 20:19:24","新北市中和區永和路128巷47號","121.497691666667","25.0069","6500300","中和區"
"235055","183-VK","2019/07/04 20:19:42","新北市五股區中直路17-4號","121.422861666667","25.111265","6500300","中和區"
"235067","255-BX","2019/07/04 20:19:21","新北市八里區商港路105巷15號","121.38887","25.14736","6500300","中和區"
"247014","KEA-2869","2019/07/04 20:19:35","新北市蘆洲區中山二路192號","121.470401666667","25.0804183333333","6501400","蘆洲區"
"247008","KED-0682","2019/07/04 20:19:36","新北市蘆洲區集賢路240號","121.481958333333","25.085645","6501400","蘆洲區"
"235050","4979-A6","2019/07/04 20:19:33","新北市中和區景安路177巷10號","121.5058","24.99404","6500300","中和區"
"235069","4980-A6","2019/07/04 20:19:42","新北市中和區圓通路118號","121.499153333333","24.9961916666667","6500300","中和區"
"235059","AAC-215","2019/07/04 20:19:23","新北市中和區圓通路391-6號","121.489771666667","24.9890133333333","6500300","中和區"
"247004","893-R6","2019/07/04 20:19:39","新北市蘆洲區永康街1巷23號","121.459801666667","25.0853516666667","6501400","蘆洲區"
"247018","546-UM","2019/07/04 20:19:43","新北市蘆洲區民族路406號","121.474623333333","25.0914666666667","6501400","蘆洲區"
"247002","336-TH","2019/07/04 20:19:24","新北市蘆洲區長安街331巷30號","121.456098333333","25.08667","6501400","蘆洲區"
"247022","057-VK","2019/07/04 20:19:40","新北市蘆洲區三民路263號","121.468318333333","25.0894766666667","6501400","蘆洲區"
"247012","056-VK","2019/07/04 20:19:43","新北市蘆洲區中興街23號","121.480766666667","25.0869533333333","6501400","蘆洲區"
"247016","053-VK","2019/07/04 20:19:24","新北市蘆洲區中正路185巷45弄1號","121.465903333333","25.0837416666667","6501400","蘆洲區"
"247006","002-UY","2019/07/04 20:19:44","新北市蘆洲區九芎街153巷14號","121.465646666667","25.0786733333333","6501400","蘆洲區"
"222001","KEA-2212","2019/07/04 20:19:20","新北市深坑區北深路三段262號","121.599323333333","25.0044966666667","6501800","深坑區"
"251015","KEA-2871","2019/07/04 20:19:34","新北市淡水區商工路30號","121.447188333333","25.1882733333333","6501000","淡水區"
"251016","179-VK","2019/07/04 20:19:33","新北市淡水區番子田116號","121.462058333333","25.2280816666667","6501000","淡水區"
"251008","181-VK","2019/07/04 20:19:41","新北市淡水區淡海路150巷17號","121.422195","25.184265","6501000","淡水區"
"251013","182-VK","2019/07/04 20:19:38","新北市淡水區相公山1-3號","121.474106666667","25.2067033333333","6501000","淡水區"
"251010","413-VK","2019/07/04 20:19:27","新北市淡水區中正路二段301號","121.426183333333","25.1903316666667","6501000","淡水區"
"251012","441-VK","2019/07/04 20:19:39","新北市淡水區下圭柔山431-1號","121.449828333333","25.2102016666667","6501000","淡水區"
"251001","559-UM","2019/07/04 20:19:36","新北市淡水區淡金路二段15號","121.44645","25.1891816666667","6501000","淡水區"
"251006","561-UM","2019/07/04 20:19:32","新北市淡水區北新路169巷69弄30號","121.447868333333","25.1800866666667","6501000","淡水區"
"251014","577-R6","2019/07/04 20:19:22","新北市淡水區石頭厝2-1號","121.458151666667","25.2357066666667","6501000","淡水區"
"251002","672-BX","2019/07/04 20:19:24","新北市淡水區中正路177號","121.438656666667","25.1712416666667","6501000","淡水區"
"251003","673-BX","2019/07/04 20:19:37","新北市淡水區中山北路一段229號","121.444425","25.17947","6501000","淡水區"
"207003","550-UM","2019/07/04 20:19:28","新北市萬里區野柳里八斗60號","121.669396666667","25.202765","6502800","萬里區"
"207004","225-TW","2019/07/04 20:19:41","新北市萬里區北基里仁四街2號","121.682018333333","25.1753783333333","6502800","萬里區"
"252002","178-VK","2019/07/04 20:19:25","新北市三芝區中正路一段29號","121.503031666667","25.2584833333333","6502100","三芝區"
"237006","5529-G3","2019/07/04 20:19:33","新北市三峽區中正路二段41號","121.366735","24.9188066666667","6500900","三峽區"
"236042","KED-0685","2019/07/04 20:19:29","新北市土城區中華路二段2號","121.43968","24.97966","6501300","土城區"
"236030","253-BX","2019/07/04 20:19:37","新北市土城區學成路128巷11號","121.449436666667","24.990015","6501300","土城區"
"236026","269-VK","2019/07/04 20:19:35","新北市土城區裕生路67巷2弄2號","121.447395","24.9845316666667","6501300","土城區"
"247010","KED-0683","2019/07/04 20:19:31","新北市蘆洲區信義路188巷25弄1號","121.480363333333","25.0845866666667","6501400","蘆洲區"
"236070","KEA-2877","2019/07/04 20:19:27","新北市土城區中山路99號","121.432998333333","24.9709666666667","6501300","土城區"
"252001","KED-0821","2019/07/04 20:19:38","新北市三芝區中山路一段14號","121.500646666667","25.2580383333333","6502100","三芝區"
"236014","752-BX","2019/07/04 20:18:57","新北市板橋區信義路54巷17弄43號","121.456135","24.9948133333333","6501300","土城區"
"242039","AAC-296","2019/07/04 20:19:34","新北市新莊區成功街62號","121.42441","25.0194733333333","6500500","新莊區"
"242061","986-R7","2019/07/04 20:19:35","新北市新莊區瓊林路206-6號","121.435508333333","25.022165","6500500","新莊區"
"242002","751-BX","2019/07/04 20:19:39","新北市新莊區化成路2號","121.464615","25.0421416666667","6500500","新莊區"
"242029","615-BX","2019/07/04 20:19:33","新北市新莊區中華路二段159號","121.452883333333","25.0516683333333","6500500","新莊區"
"242027","613-BX","2019/07/04 20:19:27","新北市新莊區幸福路712號","121.449681666667","25.049255","6500500","新莊區"
"242058","612-BX","2019/07/04 20:19:25","新北市新莊區龍安路264號","121.421636666667","25.0192666666667","6500500","新莊區"
"242046","566-BX","2019/07/04 20:19:26","新北市新莊區中正路新生巷55號","121.41742","25.0228283333333","6500500","新莊區"
"242051","497-BY","2019/07/04 20:19:33","新北市新莊區民安西路212巷2弄1號","121.425508333333","25.0149116666667","6500500","新莊區"
"242004","440-UM","2019/07/04 20:19:35","新北市新莊區頭前路2巷6號","121.468545","25.052915","6500500","新莊區"
"242042","415-TV","2019/07/04 20:19:27","新北市新莊區壽山路73號","121.40951","25.0327883333333","6500500","新莊區"
"242011","413-TV","2019/07/04 20:19:34","新北市新莊區幸福路670巷14弄1號","121.451001666667","25.05041","6500500","新莊區"
"242048","400-BY","2019/07/04 20:19:26","新北市新莊區四維路152巷30號","121.421996666667","25.0225133333333","6500500","新莊區"
"242025","362-BY","2019/07/04 20:19:33","新北市新莊區五工三路68號","121.45936","25.0646733333333","6500500","新莊區"
"242023","353-BY","2019/07/04 20:19:34","新北市新莊區化成路694號","121.465893333333","25.05644","6500500","新莊區"
"242013","132-UY","2019/07/04 20:19:38","新北市新莊區幸福路678巷3弄2號","121.450515","25.0496683333333","6500500","新莊區"
"242036","135-UY","2019/07/04 20:19:34","新北市新莊區建安街76巷1弄2號","121.426336666667","25.0245983333333","6500500","新莊區"
"242053","172-VK","2019/07/04 20:19:36","新北市新莊區民安西路263號","121.426298333333","25.013025","6500500","新莊區"
"242015","173-VK","2019/07/04 20:19:23","新北市新莊區永樂街235巷8號","121.446703333333","25.0440833333333","6500500","新莊區"
"242021","175-VK","2019/07/04 20:19:26","新北市新莊區新泰路260號","121.446128333333","25.03992","6500500","新莊區"
"242009","176-VK","2019/07/04 20:19:27","新北市新莊區昌平街9號","121.454855","25.0517266666667","6500500","新莊區"
"242019","KED-0687","2019/07/04 20:19:32","新北市新莊區博愛路9巷1號","121.456058333333","25.0440383333333","6500500","新莊區"
"242056","346-TH","2019/07/04 20:19:33","新北市新莊區豐年街28巷18號","121.445528333333","25.03236","6500500","新莊區"
"242034","348-TH","2019/07/04 20:19:28","新北市新莊區仁愛街54巷1號","121.444711666667","25.0371416666667","6500500","新莊區"
"242007","349-TH","2019/07/04 20:19:30","新北市新莊區福壽街124巷41弄10號","121.459285","25.0516133333333","6500500","新莊區"
"242031","350-TH","2019/07/04 20:19:31","新北市新莊區中正路455-3號","121.442488333333","25.0339783333333","6500500","新莊區"
"242017","351-TH","2019/07/04 20:19:37","新北市新莊區中港一街78號","121.449665","25.0453716666667","6500500","新莊區"
"221008","489-VK","2019/07/04 20:19:30","新北市汐止區忠三街9巷32號","121.624533333333","25.0802","6501100","汐止區"
"221036","130-UY","2019/07/04 20:19:30","新北市汐止區福安街59巷4號","121.664213333333","25.0635916666667","6501100","汐止區"
"221015","131-UY","2019/07/04 20:19:22","新北市汐止區建成路160巷16號","121.661815","25.0739666666667","6501100","汐止區"
"221010","269-BY","2019/07/04 20:19:34","新北市汐止區八連路一段198巷2號","121.642823333333","25.0825433333333","6501100","汐止區"
"221012","278-VK","2019/07/04 20:19:32","新北市汐止區汐平路一段51號","121.682145","25.0706183333333","6501100","汐止區"
"221023","279-VK","2019/07/04 20:19:29","新北市汐止區明峰街298巷7弄2號","121.624953333333","25.0689066666667","6501100","汐止區"
"221032","280-BY","2019/07/04 20:19:34","新北市汐止區弘道街53巷2號","121.61866","25.04839","6501100","汐止區"
"221033","297-VK","2019/07/04 20:19:27","新北市汐止區東勢街201巷98號","121.633795","25.0430716666667","6501100","汐止區"
"221029","298-VK","2019/07/04 20:19:28","新北市汐止區樟樹一路99巷7弄5號","121.64124","25.0634366666667","6501100","汐止區"
"221021","299-VK","2019/07/04 20:19:36","新北市汐止區水源路一段286號","121.654185","25.0581783333333","6501100","汐止區"
"221031","353-TW","2019/07/04 20:19:26","新北市汐止區福德二路106號","121.632175","25.0660866666667","6501100","汐止區"
"221035","622-UM","2019/07/04 20:19:30","新北市汐止區長江街57巷13號","121.656016666667","25.0719816666667","6501100","汐止區"
"221025","623-UM","2019/07/04 20:19:28","新北市汐止區水源路二段34號","121.65487","25.0572666666667","6501100","汐止區"
"221038","646-BX","2019/07/04 20:19:37","新北市汐止區忠孝東路478號","121.666348333333","25.0736366666667","6501100","汐止區"
"221002","707-TV","2019/07/04 20:19:29","新北市汐止區福德一路86巷9號","121.637695","25.0688016666667","6501100","汐止區"
"221018","753-BX","2019/07/04 20:19:36","新北市汐止區茄安路21號","121.673068333333","25.067925","6501100","汐止區"
"220079","145-BY","2019/07/04 20:19:37","新北市板橋區南雅西路二段293號","121.451955","25.01556","6500100","板橋區"
"224002","257-TC","2019/07/04 20:19:38","新北市瑞芳區蛇子形路3-5號","121.824185","25.1033133333333","6501200","瑞芳區"
"220083","286-VK","2019/07/04 20:19:41","新北市板橋區僑中二街90巷20號","121.445353333333","25.0094033333333","6500100","板橋區"
"220081","287-VK","2019/07/04 20:19:20","新北市板橋區僑中一街124巷18弄21號","121.447011666667","25.0136516666667","6500100","板橋區"
"242044","281-VK","2019/07/04 20:19:37","新北市新莊區中正路895-14號","121.412931666667","25.0210816666667","6500500","新莊區"
"220075","303-R5","2019/07/04 20:19:40","新北市板橋區金華街10巷37號","121.457133333333","25.0203133333333","6500100","板橋區"
"220035","560-BX","2019/07/04 20:19:38","新北市板橋區新生街50號","121.456796666667","25.021065","6500100","板橋區"
"220077","687-BX","2019/07/04 20:19:34","新北市板橋區僑中一街124巷70-5號","121.448628333333","25.0164766666667","6500100","板橋區"
"220054","741-BX","2019/07/04 20:19:40","新北市板橋區成都街69號","121.462208333333","25.005115","6500100","板橋區"
"220055","827-TW","2019/07/04 20:19:34","新北市板橋區忠孝路48巷11弄17-2號","121.46205","24.9999283333333","6500100","板橋區"
"220074","895-R6","2019/07/04 20:19:32","新北市板橋區南雅南路一段7巷22弄7號","121.455886666667","25.0047416666667","6500100","板橋區"
"235068","KEA-2873","2019/07/04 20:19:28","新北市中和區福美路252號","121.49836","25.0051383333333","6500300","中和區"
