"lineid","car","time","location","longitude","latitude","cityid","cityname"
"234030","746-BX","2019/07/04 20:49:22","新北市新店區安德街148巷31號","121.506736666667","24.9610366666667","6500400","永和區"
"234042","862-TW","2019/07/04 20:49:28","新北市新店區中正路700巷29號","121.533945","24.9929083333333","6500400","永和區"
"249004","303-UY","2019/07/04 20:49:25","新北市八里區中山路一段63號","121.418385","25.15936","6502300","八里區"
"234074","AAC-211","2019/07/04 20:49:37","新北市永和區環河東路二段20號","121.522311666667","25.0130933333333","6500400","永和區"
"243010","297-R6","2019/07/04 20:49:26","新北市泰山區泰林路三段643號","121.404981666667","25.0728933333333","6501600","泰山區"
"222003","436-BY","2019/07/04 20:49:24","新北市深坑區文山路三段48-1號","121.609953333333","24.9984883333333","6501800","深坑區"
"222002","659-BX","2019/07/04 20:49:36","新北市深坑區萬福路69號","121.601683333333","25.0080933333333","6501800","深坑區"
"231061","002-UM","2019/07/04 20:49:25","新北市新店區新和街97號","121.521098333333","24.9866316666667","6500600","新店區"
"231058","0293-UT","2019/07/04 20:49:36","新北市新店區中正路307巷16號","121.536343333333","24.9743416666667","6500600","新店區"
"231044","046-UY","2019/07/04 20:49:21","新北市新店區建國路120號","121.539273333333","24.9786683333333","6500600","新店區"
"231060","106-UY","2019/07/04 20:49:22","新北市新店區安康路三段740號","121.473826666667","24.9419733333333","6500600","新店區"
"231051","107-UY","2019/07/04 20:49:34","新北市新店區民生路156巷117號","121.52684","24.9824733333333","6500600","新店區"
"231049","108-UY","2019/07/04 20:49:22","新北市新店區永業路81巷1弄7號","121.529946666667","24.949875","6500600","新店區"
"231065","110-UY","2019/07/04 20:49:33","新北市新店區安祥路104巷6弄30號","121.482831666667","24.962755","6500600","新店區"
"231068","187-VK","2019/07/04 20:49:33","新北市新店區寶元路一段84巷2號","121.544335","24.98387","6500600","新店區"
"231054","260-TV","2019/07/04 20:49:35","新北市新店區五峰路24號","121.543661666667","24.9691183333333","6500600","新店區"
"231042","268-BY","2019/07/04 20:49:23","新北市新店區寶高路102巷9號","121.554668333333","24.9740416666667","6500600","新店區"
"231064","278-BY","2019/07/04 20:49:24","新北市新店區安民街365巷5號","121.516218333333","24.9756166666667","6500600","新店區"
"231050","AAD-862","2019/07/04 20:49:28","新北市新店區三民路57號","121.536758333333","24.9711183333333","6500600","新店區"
"231056","4715-K9","2019/07/04 20:49:43","新北市新店區安康路二段320巷6號","121.504881666667","24.9599666666667","6500600","新店區"
"231067","4772-VM","2019/07/04 20:49:34","新北市新店區安德街148巷12弄1號","121.50778","24.9601616666667","6500600","新店區"
"231052","513-UM","2019/07/04 20:49:34","新北市新店區屈尺路6號","121.549496666667","24.9228383333333","6500600","新店區"
"231041","619-UM","2019/07/04 20:49:29","新北市新店區中正路707號","121.53384","24.991145","6500600","新店區"
"231063","641-BX","2019/07/04 20:49:40","新北市新店區富貴街11巷34號","121.494933333333","24.9484","6500600","新店區"
"231047","KED-0819","2019/07/04 20:49:28","新北市新店區文化路88號","121.544895","24.982485","6500600","新店區"
"231062","718-UY","2019/07/04 20:49:41","新北市新店區和成街18巷18號","121.487593333333","24.9462866666667","6500600","新店區"
"231057","720-UM","2019/07/04 20:49:42","新北市新店區新烏路一段193號","121.547798333333","24.93161","6500600","新店區"
"231059","897-TW","2019/07/04 20:49:27","新北市新店區僑愛七路10號","121.500981666667","24.94438","6500600","新店區"
"231040","898-TW","2019/07/04 20:49:22","新北市新店區中正路274號","121.538948333333","24.9737166666667","6500600","新店區"
"231043","899-TW","2019/07/04 20:49:35","新北市新店區建國路31號","121.540256666667","24.9741316666667","6500600","新店區"
"231066","AKT-0513","2019/07/04 20:49:26","新北市新店區安民街341-1號","121.516746666667","24.9748816666667","6500600","新店區"
"241011","013-R5","2019/07/04 20:49:38","新北市三重區河邊北街140號","121.503428333333","25.072165","6500200","三重區"
"241028","022-UY","2019/07/04 20:49:37","新北市三重區中正南路41巷1號","121.493756666667","25.0599833333333","6500200","三重區"
"241008","059-VK","2019/07/04 20:49:36","新北市三重區永福街72巷11號","121.479466666667","25.0767616666667","6500200","三重區"
"241029","060-VK","2019/07/04 20:49:38","新北市三重區重安街22號","121.4904","25.0580666666667","6500200","三重區"
"241031","061-VK","2019/07/04 20:49:30","新北市三重區重陽路一段113巷2弄2號","121.487543333333","25.0598666666667","6500200","三重區"
"241015","062-VK","2019/07/04 20:49:25","新北市三重區三和路二段172號","121.498946666667","25.0685433333333","6500200","三重區"
"241017","063-VK","2019/07/04 20:49:44","新北市三重區自強路一段272號","121.492216666667","25.0677683333333","6500200","三重區"
"241024","065-VK","2019/07/04 20:49:40","新北市三重區忠孝路三段52號","121.480715","25.0657266666667","6500200","三重區"
"241001","066-VK","2019/07/04 20:49:38","新北市三重區自強路三段97號","121.487651666667","25.0751416666667","6500200","三重區"
"241002","090-VK","2019/07/04 20:49:24","新北市三重區仁義街167巷40號","121.498796666667","25.082575","6500200","三重區"
"241003","091-VK","2019/07/04 20:49:41","新北市三重區五華街141巷58號","121.493578333333","25.0867816666667","6500200","三重區"
"241030","742-BX","2019/07/04 20:49:26","新北市三重區環河南路221巷7號","121.49192","25.0524616666667","6500200","三重區"
"241005","262-UM","2019/07/04 20:49:33","新北市三重區五華街141巷39號","121.492656666667","25.0858566666667","6500200","三重區"
"241016","266-UM","2019/07/04 20:49:39","新北市三重區長壽西街130號","121.495065","25.0669183333333","6500200","三重區"
"241009","267-UM","2019/07/04 20:49:34","新北市三重區三和路四段197號","121.482121666667","25.0791833333333","6500200","三重區"
"241018","268-UM","2019/07/04 20:49:37","新北市三重區正義北路275-1號","121.495171666667","25.07019","6500200","三重區"
"241032","269-UM","2019/07/04 20:49:26","新北市三重區重陽路一段120巷46號","121.485086666667","25.060045","6500200","三重區"
"241013","270-UM","2019/07/04 20:49:33","新北市三重區仁愛街118號","121.49522","25.0745783333333","6500200","三重區"
"241023","271-UM","2019/07/04 20:49:40","新北市三重區忠孝路三段84巷1號","121.48035","25.064595","6500200","三重區"
"241007","398-BY","2019/07/04 20:49:28","新北市三重區三和路四段111號","121.486091666667","25.0770833333333","6500200","三重區"
"241035","KEA-2210","2019/07/04 20:49:30","新北市三重區正義北路250號","121.496028333333","25.0683283333333","6500200","三重區"
"241004","475-VK","2019/07/04 20:49:37","新北市三重區仁愛街403號","121.491015","25.080935","6500200","三重區"
"241020","478-VK","2019/07/04 20:49:43","新北市三重區忠孝路一段101號","121.48949","25.07214","6500200","三重區"
"241026","480-VK","2019/07/04 20:49:41","新北市三重區和平街3號","121.500211666667","25.0622283333333","6500200","三重區"
"241014","543-UM","2019/07/04 20:49:37","新北市三重區萬全街76號","121.501461666667","25.070165","6500200","三重區"
"241019","KEA-2593","2019/07/04 20:49:40","新北市三重區自強路二段85號","121.488548333333","25.0702516666667","6500200","三重區"
"241006","AAD-863","2019/07/04 20:49:37","新北市三重區車路頭街139巷14號","121.484305","25.0761616666667","6500200","三重區"
"241022","KED-0820","2019/07/04 20:49:24","新北市三重區新北大道一段3-1號","121.489966666667","25.06134","6500200","三重區"
"241025","887-TS","2019/07/04 20:49:36","新北市三重區新北大道一段148號","121.484266666667","25.0618083333333","6500200","三重區"
"241012","941-UM","2019/07/04 20:49:34","新北市三重區仁信街27號","121.501256666667","25.0755833333333","6500200","三重區"
"241033","AAC-255","2019/07/04 20:49:24","新北市三重區光復路二段1號","121.472333333333","25.0533216666667","6500200","三重區"
"235055","183-VK","2019/07/04 20:49:43","新北市五股區成泰路三段320號","121.450496666667","25.096985","6500300","中和區"
"235067","255-BX","2019/07/04 20:49:22","新北市板橋區民生路三段161號","121.465861666667","25.0269583333333","6500300","中和區"
"247014","KEA-2869","2019/07/04 20:49:35","新北市蘆洲區成功路105號","121.472735","25.0816083333333","6501400","蘆洲區"
"247008","KED-0682","2019/07/04 20:49:36","新北市三重區三和路四段237號","121.48104","25.080385","6501400","蘆洲區"
"235069","4980-A6","2019/07/04 20:49:22","新北市中和區員山路381巷1弄2號","121.48093","25.00232","6500300","中和區"
"235018","911-UM","2019/07/04 20:37:04","新北市中和區員山路36巷16-2號","121.485318333333","24.991775","6500300","中和區"
"247004","893-R6","2019/07/04 20:49:39","新北市蘆洲區長安街100號","121.461638333333","25.08095","6501400","蘆洲區"
"247018","546-UM","2019/07/04 20:49:23","新北市蘆洲區民權路70號","121.474973333333","25.0872833333333","6501400","蘆洲區"
"247024","337-TH","2019/07/04 20:49:30","新北市蘆洲區長樂路136號","121.46219","25.0900966666667","6501400","蘆洲區"
"247002","336-TH","2019/07/04 20:49:24","新北市蘆洲區長安街242號","121.457556666667","25.0860416666667","6501400","蘆洲區"
"247022","057-VK","2019/07/04 20:49:40","新北市蘆洲區水湳街52號","121.471173333333","25.089895","6501400","蘆洲區"
"247012","056-VK","2019/07/04 20:49:43","新北市蘆洲區民族路236巷83號","121.48277","25.0897666666667","6501400","蘆洲區"
"247016","053-VK","2019/07/04 20:49:24","新北市蘆洲區中正路69號","121.470315","25.0827883333333","6501400","蘆洲區"
"247020","007-UY","2019/07/04 20:49:37","新北市蘆洲區仁愛街73號","121.471536666667","25.0937566666667","6501400","蘆洲區"
"247006","002-UY","2019/07/04 20:49:42","新北市蘆洲區永安南路二段44-2號","121.466323333333","25.07748","6501400","蘆洲區"
"222001","KEA-2212","2019/07/04 20:49:40","新北市深坑區北深路三段133號","121.603961666667","25.0024316666667","6501800","深坑區"
"251015","KEA-2871","2019/07/04 20:49:34","新北市淡水區淡金路三段446號","121.450815","25.2144016666667","6501000","淡水區"
"251016","179-VK","2019/07/04 20:49:33","新北市淡水區興仁路165號","121.451513333333","25.2200233333333","6501000","淡水區"
"251013","182-VK","2019/07/04 20:49:38","新北市淡水區行忠路167號","121.457105","25.20124","6501000","淡水區"
"251010","413-VK","2019/07/04 20:49:43","新北市淡水區沙崙路145號","121.423376666667","25.1830433333333","6501000","淡水區"
"251012","441-VK","2019/07/04 20:49:39","新北市淡水區淡金路四段518號","121.452016666667","25.2259933333333","6501000","淡水區"
"251007","442-VK","2019/07/04 20:49:23","新北市淡水區鄧公路29巷22號","121.452523333333","25.17012","6501000","淡水區"
"251001","559-UM","2019/07/04 20:49:36","新北市淡水區淡金路65號","121.456275","25.1614683333333","6501000","淡水區"
"251006","561-UM","2019/07/04 20:49:32","新北市淡水區新市一路一段12號","121.429861666667","25.187005","6501000","淡水區"
"251014","577-R6","2019/07/04 20:49:22","新北市淡水區公埔子32-8號","121.461645","25.2323466666667","6501000","淡水區"
"251011","650-BX","2019/07/04 20:49:24","新北市淡水區新民街一段13號","121.43308","25.184775","6501000","淡水區"
"251002","672-BX","2019/07/04 20:49:24","新北市淡水區鼻頭街18-5號","121.44678","25.1666866666667","6501000","淡水區"
"251003","673-BX","2019/07/04 20:49:36","新北市淡水區中山北路一段247巷96號","121.442195","25.179455","6501000","淡水區"
"247010","KED-0683","2019/07/04 20:49:31","新北市蘆洲區鷺江街91號","121.47692","25.08377","6501400","蘆洲區"
"242039","AAC-296","2019/07/04 20:49:34","新北市新莊區瓊林路59-38號","121.441255","25.023565","6500500","新莊區"
"242002","751-BX","2019/07/04 20:49:41","新北市新莊區中港路五守新村12號","121.454853333333","25.038595","6500500","新莊區"
"242058","612-BX","2019/07/04 20:49:25","新北市新莊區民安路138號","121.424178333333","25.02537","6500500","新莊區"
"242051","497-BY","2019/07/04 20:49:28","新北市新莊區民安西路52號","121.427418333333","25.0206183333333","6500500","新莊區"
"242004","440-UM","2019/07/04 20:49:35","新北市三重區新北大道二段69號","121.468608333333","25.0613583333333","6500500","新莊區"
"242042","415-TV","2019/07/04 20:49:27","新北市新莊區天祥街52號","121.416606666667","25.0290566666667","6500500","新莊區"
"242011","413-TV","2019/07/04 20:49:34","新北市新莊區新北大道四段209號","121.444616666667","25.0561283333333","6500500","新莊區"
"242048","400-BY","2019/07/04 20:49:26","新北市新莊區中正路700-16號","121.418308333333","25.0274483333333","6500500","新莊區"
"242025","362-BY","2019/07/04 20:49:30","新北市三重區光復路二段192號","121.470661666667","25.0626116666667","6500500","新莊區"
"242023","353-BY","2019/07/04 20:49:34","新北市新莊區化成路416號","121.465931666667","25.0509416666667","6500500","新莊區"
"242013","132-UY","2019/07/04 20:49:38","新北市新莊區中和街191巷1-1號","121.447918333333","25.0511416666667","6500500","新莊區"
"242053","172-VK","2019/07/04 20:49:36","新北市新莊區西盛街324巷33號","121.426836666667","25.0147183333333","6500500","新莊區"
"242021","175-VK","2019/07/04 20:49:34","新北市新莊區中正路219號","121.450998333333","25.0358383333333","6500500","新莊區"
"242009","176-VK","2019/07/04 20:49:27","新北市新莊區幸福路553號","121.454616666667","25.049305","6500500","新莊區"
"242056","346-TH","2019/07/04 20:49:33","新北市新莊區瓊泰路98號","121.443111666667","25.0294866666667","6500500","新莊區"
"242034","348-TH","2019/07/04 20:49:28","新北市新莊區中正路307號","121.448178333333","25.0352416666667","6500500","新莊區"
"242007","349-TH","2019/07/04 20:49:30","新北市新莊區思源路57號","121.460035","25.040275","6500500","新莊區"
"242031","350-TH","2019/07/04 20:49:31","新北市新莊區三泰路48號","121.437601666667","25.0354266666667","6500500","新莊區"
"242017","351-TH","2019/07/04 20:49:33","新北市泰山區楓江路119號","121.43877","25.0646","6500500","新莊區"
"221036","130-UY","2019/07/04 20:49:29","新北市汐止區忠孝東路287號","121.663921666667","25.0687483333333","6501100","汐止區"
"221015","131-UY","2019/07/04 20:49:42","新北市汐止區大同路二段613號","121.664213333333","25.0708783333333","6501100","汐止區"
"221012","278-VK","2019/07/04 20:49:32","新北市汐止區保新街23號","121.684251666667","25.0731116666667","6501100","汐止區"
"221023","279-VK","2019/07/04 20:49:29","新北市汐止區民族二街30巷1號","121.63499","25.0718366666667","6501100","汐止區"
"221027","281-BY","2019/07/04 20:49:24","新北市汐止區大同路二段377號","121.657478333333","25.0672916666667","6501100","汐止區"
"221033","297-VK","2019/07/04 20:49:25","台北市南港區合順街8巷7弄38號","121.620275","25.0417983333333","6501100","汐止區"
"221021","299-VK","2019/07/04 20:49:36","新北市汐止區莊敬街115號","121.655311666667","25.0610366666667","6501100","汐止區"
"221035","622-UM","2019/07/04 20:49:30","新北市汐止區長江街101-5號","121.658561666667","25.0732916666667","6501100","汐止區"
"221038","646-BX","2019/07/04 20:49:36","新北市汐止區汐萬路一段247-1號","121.651308333333","25.0732916666667","6501100","汐止區"
"220083","286-VK","2019/07/04 20:49:21","新北市板橋區僑中二街108巷1號","121.44577","25.007245","6500100","板橋區"
"220081","287-VK","2019/07/04 20:49:40","新北市板橋區僑中一街124巷61-61號","121.446868333333","25.0193416666667","6500100","板橋區"
"242044","281-VK","2019/07/04 20:49:37","新北市新莊區龍安路74號","121.41716","25.020945","6500500","新莊區"
