"lineid","car","time","location","longitude","latitude","cityid","cityname"
"222002","659-BX","2019/07/04 21:19:34","新北市深坑區北深路三段286巷20號","121.597178333333","25.00583","6501800","深坑區"
"231051","107-UY","2019/07/04 21:19:34","新北市新店區中正路700巷322-10號","121.533548333333","24.993035","6500600","新店區"
"231050","AAD-862","2019/07/04 21:19:28","新北市新店區中正路189巷16弄7號","121.540005","24.9717933333333","6500600","新店區"
"231063","641-BX","2019/07/04 21:19:40","新北市新店區吉祥街13巷3號","121.497895","24.9461966666667","6500600","新店區"
"231059","897-TW","2019/07/04 21:19:27","新北市新店區僑義路34號","121.500736666667","24.9496533333333","6500600","新店區"
"241028","022-UY","2019/07/04 21:19:41","新北市三重區中正南路157號","121.493775","25.056175","6500200","三重區"
"241008","059-VK","2019/07/04 21:19:36","新北市三重區長壽西街143-3號","121.494388333333","25.0665783333333","6500200","三重區"
"241031","061-VK","2019/07/04 21:19:30","新北市三重區重新路五段408巷19號","121.47578","25.0455483333333","6500200","三重區"
"241015","062-VK","2019/07/04 21:19:25","新北市三重區龍濱路15號","121.503075","25.0675783333333","6500200","三重區"
"241017","063-VK","2019/07/04 21:19:28","新北市三重區中正北路25巷2號","121.493206666667","25.0626833333333","6500200","三重區"
"241024","065-VK","2019/07/04 21:19:40","新北市三重區中正北路145巷8弄2號","121.484021666667","25.0677716666667","6500200","三重區"
"241001","066-VK","2019/07/04 21:19:38","新北市三重區仁愛街353號","121.491936666667","25.079895","6500200","三重區"
"241002","090-VK","2019/07/04 21:19:24","新北市三重區五華街58號","121.494126666667","25.0812133333333","6500200","三重區"
"241003","091-VK","2019/07/04 21:19:41","新北市三重區仁義街220巷1號","121.49532","25.08417","6500200","三重區"
"241030","742-BX","2019/07/04 21:19:26","新北市三重區光復路二段141號","121.472595","25.0595966666667","6500200","三重區"
"241005","262-UM","2019/07/04 21:19:33","新北市三重區三信路53號","121.487653333333","25.0856116666667","6500200","三重區"
"241016","266-UM","2019/07/04 21:19:39","新北市三重區自強路一段158號","121.495853333333","25.0660916666667","6500200","三重區"
"241009","267-UM","2019/07/04 21:19:34","新北市五股區中興路三段163號","121.448853333333","25.0808","6500200","三重區"
"241018","268-UM","2019/07/04 21:19:31","新北市三重區忠孝路三段1號","121.48193","25.0677366666667","6500200","三重區"
"241032","269-UM","2019/07/04 21:19:26","新北市三重區光復路二段170號","121.472113333333","25.0612133333333","6500200","三重區"
"241013","270-UM","2019/07/04 21:19:28","新北市三重區仁愛街81-1號","121.495885","25.07315","6500200","三重區"
"241023","271-UM","2019/07/04 21:19:40","新北市三重區重陽路二段52巷74弄7號","121.48294","25.0660116666667","6500200","三重區"
"241007","398-BY","2019/07/04 21:19:28","新北市三重區正義北路268號","121.495873333333","25.0689383333333","6500200","三重區"
"241035","462-BY","2019/07/04 21:19:23","新北市三重區正義北路198號","121.496365","25.0671516666667","6500200","三重區"
"241004","475-VK","2019/07/04 21:19:37","新北市三重區碧華街383號","121.492815","25.0855166666667","6500200","三重區"
"241026","480-VK","2019/07/04 21:19:41","新北市三重區大同南路210號","121.49667","25.0563933333333","6500200","三重區"
"241014","543-UM","2019/07/04 21:19:37","新北市三重區萬全街9號","121.499368333333","25.06967","6500200","三重區"
"241006","AAD-863","2019/07/04 21:19:37","新北市三重區新北大道一段206巷1號","121.482386666667","25.0616766666667","6500200","三重區"
"241025","887-TS","2019/07/04 21:19:36","新北市三重區中正北路208巷8號","121.482315","25.066955","6500200","三重區"
"241012","941-UM","2019/07/04 21:19:34","新北市三重區河邊北街15號","121.504336666667","25.0647783333333","6500200","三重區"
"241033","AAC-255","2019/07/04 21:19:24","新北市三重區中興北街225號","121.469156666667","25.0585716666667","6500200","三重區"
"235055","183-VK","2019/07/04 21:19:23","新北市中和區員山路36巷13號","121.484255","24.99066","6500300","中和區"
"235067","255-BX","2019/07/04 21:15:42","新北市中和區員山路36巷16號","121.484391666667","24.9914066666667","6500300","中和區"
"247014","KEA-2869","2019/07/04 21:19:35","新北市蘆洲區中正路185巷68弄1號","121.466576666667","25.08455","6501400","蘆洲區"
"247008","KED-0682","2019/07/04 21:19:36","新北市蘆洲區信義路73巷17號","121.475916666667","25.0808366666667","6501400","蘆洲區"
"247004","893-R6","2019/07/04 21:19:39","新北市蘆洲區環堤大道92號","121.45538","25.085075","6501400","蘆洲區"
"247002","336-TH","2019/07/04 21:19:24","新北市蘆洲區永樂街57號","121.456746666667","25.088525","6501400","蘆洲區"
"247022","057-VK","2019/07/04 21:19:40","新北市蘆洲區三民路128巷57號","121.469368333333","25.0906433333333","6501400","蘆洲區"
"247012","056-VK","2019/07/04 21:19:23","新北市蘆洲區中興街113號","121.48211","25.0888383333333","6501400","蘆洲區"
"247020","007-UY","2019/07/04 21:19:36","新北市蘆洲區民族路422巷35-1號","121.473546666667","25.09376","6501400","蘆洲區"
"247006","002-UY","2019/07/04 21:19:25","新北市蘆洲區長安街87號","121.46229","25.08023","6501400","蘆洲區"
"251004","009-UM","2019/07/04 21:19:41","新北市淡水區民族路33號","121.462238333333","25.1358283333333","6501000","淡水區"
"251005","010-UM","2019/07/04 21:19:24","新北市淡水區水源街一段122巷40號","121.44698","25.1704616666667","6501000","淡水區"
"251015","KEA-2871","2019/07/04 21:19:34","新北市淡水區淡金路四段530號","121.451813333333","25.2265716666667","6501000","淡水區"
"251016","179-VK","2019/07/04 21:19:33","新北市淡水區前洲子11號","121.441313333333","25.2191183333333","6501000","淡水區"
"251008","181-VK","2019/07/04 21:19:41","新北市淡水區水源街二段346巷1弄1號","121.464121666667","25.1755216666667","6501000","淡水區"
"251013","182-VK","2019/07/04 21:19:38","新北市淡水區行忠路330號","121.460536666667","25.19977","6501000","淡水區"
"251010","413-VK","2019/07/04 21:19:23","新北市淡水區中正路一段156巷12號","121.421813333333","25.18084","6501000","淡水區"
"251012","441-VK","2019/07/04 21:19:39","新北市淡水區淡金路五段35巷46號","121.452493333333","25.2347333333333","6501000","淡水區"
"251001","559-UM","2019/07/04 21:19:36","新北市淡水區中山北路三段57-3號","121.442761666667","25.19144","6501000","淡水區"
"251009","575-R6","2019/07/04 21:19:25","新北市淡水區民族路112巷9號","121.462233333333","25.13504","6501000","淡水區"
"251014","577-R6","2019/07/04 21:18:42","新北市淡水區六塊厝2-1號","121.45011","25.2404933333333","6501000","淡水區"
"251011","650-BX","2019/07/04 21:19:24","新北市淡水區新民街120巷29號","121.438803333333","25.1788033333333","6501000","淡水區"
"251002","672-BX","2019/07/04 21:19:24","新北市淡水區學府路172巷21號","121.448308333333","25.1748566666667","6501000","淡水區"
"251003","673-BX","2019/07/04 21:19:36","新北市淡水區新春街85巷17號","121.438465","25.1832083333333","6501000","淡水區"
"247010","KED-0683","2019/07/04 21:19:30","新北市蘆洲區三民路26巷1弄1號","121.476028333333","25.0826866666667","6501400","蘆洲區"
