"lineid","car","time","location","longitude","latitude","cityid","cityname"
"234044","148-BY","2019/10/15 12:49:18","新北市永和區秀朗路二段149號","121.524831666667","25.0016033333333","6500400","永和區"
"234078","298-R6","2019/10/15 12:49:10","新北市永和區永利路108號","121.521298333333","25.0033566666667","6500400","永和區"
"234036","336-UY","2019/10/15 12:49:12","新北市永和區成功路二段54號","121.52675","24.9998716666667","6500400","永和區"
"234084","338-UY","2019/10/15 12:49:28","新北市中和區安樂路101-2號","121.513298333333","24.9950716666667","6500400","永和區"
"234068","552-UM","2019/10/15 12:49:13","新北市永和區福和路1號","121.525988333333","25.00911","6500400","永和區"
"234062","553-UM","2019/10/15 12:49:30","新北市永和區福和路1號","121.526348333333","25.0097683333333","6500400","永和區"
"234015","745-BX","2019/10/15 12:49:15","新北市永和區永和路二段299號","121.515943333333","25.01619","6500400","永和區"
"234028","746-BX","2019/10/15 12:49:15","新北市永和區得和路313號","121.523188333333","24.9997766666667","6500400","永和區"
"234052","KEA-2590","2019/10/15 12:49:33","新北市永和區豫溪街183號","121.522385","25.0104216666667","6500400","永和區"
"234005","KED-0605","2019/10/15 12:49:28","新北市永和區保安路40號","121.510396666667","25.0169583333333","6500400","永和區"
"234012","KEA-2591","2019/10/15 12:49:19","新北市永和區保福路二段133巷2號","121.509491666667","25.0138466666667","6500400","永和區"
"234060","AAD-866","2019/10/15 12:49:26","新北市永和區中正路509巷4號","121.516505","25.00708","6500400","永和區"
"234040","862-TW","2019/10/15 12:49:14","新北市永和區永貞路306號","121.511873333333","25.0048616666667","6500400","永和區"
"234048","863-TW","2019/10/15 12:49:17","新北市永和區福和路1號","121.526003333333","25.0096616666667","6500400","永和區"
"234025","9371-KE","2019/10/15 12:49:28","新北市永和區中正路657號","121.514895","25.010235","6500400","永和區"
"234010","9373-KE","2019/10/15 12:49:24","新北市永和區保福路二段158巷1號","121.509088333333","25.0151133333333","6500400","永和區"
"234022","9380-KE","2019/10/15 12:49:29","新北市永和區竹林路119巷28-3號","121.521856666667","25.0118033333333","6500400","永和區"
"234076","969-R7","2019/10/15 12:49:18","新北市中和區安樂路91號","121.513188333333","24.99475","6500400","永和區"
"234066","AAC-212","2019/10/15 12:49:26","新北市永和區中和路625號","121.512883333333","25.0049583333333","6500400","永和區"
"234001","AAC-295","2019/10/15 12:49:14","新北市永和區中正路746號","121.514876666667","25.0104066666667","6500400","永和區"
"231029","106-UY","2019/10/15 12:49:16","新北市新店區安華路28-1號","121.519973333333","24.9607366666667","6500600","新店區"
"231036","110-UY","2019/10/15 12:49:15","新北市新店區安一路一段1-1號","121.51928","24.9612783333333","6500600","新店區"
"231023","260-TV","2019/10/15 12:49:16","新北市新店區安華路2號","121.520186666667","24.9628016666667","6500600","新店區"
"231003","268-BY","2019/10/15 12:49:30","新北市新店區安一路一段1-1號","121.51961","24.961075","6500600","新店區"
"231035","278-BY","2019/10/15 12:49:29","新北市新店區安一路一段1-1號","121.519878333333","24.9611833333333","6500600","新店區"
"231010","719-UM","2019/10/15 12:49:29","新北市新店區安華路28-1號","121.519251666667","24.9609416666667","6500600","新店區"
"231026","720-UM","2019/10/15 12:49:18","新北市新店區安一路一段1-1號","121.519066666667","24.961825","6500600","新店區"
"235027","006-UY","2019/10/15 12:49:23","新北市中和區員山路36巷16-3號","121.48512","24.99127","6500300","中和區"
"235029","098-UM","2019/10/15 12:49:17","新北市中和區建八路116號","121.488065","24.9985033333333","6500300","中和區"
"235022","151-BY","2019/10/15 12:49:30","新北市中和區員山路36巷16-2號","121.4852","24.9917116666667","6500300","中和區"
"235002","185-VK","2019/10/15 12:49:12","新北市中和區員山路36巷16-3號","121.484618333333","24.9911333333333","6500300","中和區"
"235031","255-BX","2019/10/15 12:49:31","新北市中和區新生街2號","121.48315","25.0047183333333","6500300","中和區"
"235009","565-BX","2019/10/15 12:49:25","新北市中和區員山路36巷13號","121.484111666667","24.9911466666667","6500300","中和區"
"235028","911-UM","2019/10/15 12:49:16","新北市中和區中正路545巷1號","121.487451666667","24.9936316666667","6500300","中和區"
"235001","AAC-213","2019/10/15 12:49:11","新北市中和區中正路527號","121.487701666667","24.9935583333333","6500300","中和區"
"228004","212-TW","2019/10/15 12:49:32","新北市貢寮區吉林里內寮街10-2號","121.889406666667","24.9960333333333","6502600","貢寮區"
"228005","828-UM","2019/10/15 12:49:28","新北市貢寮區福連里福連街34-1號","121.988685","25.0112183333333","6502600","貢寮區"
"207002","681-TV","2019/10/15 12:49:19","新北市萬里區雙興里二坪路28-1號","121.644505","25.168795","6502800","萬里區"
"207001","662-BX","2019/10/15 12:49:20","新北市萬里區萬里里瑪鋉路160號","121.690078333333","25.1796466666667","6502800","萬里區"
"235025","KEA-2875","2019/10/15 12:49:27","新北市中和區員山路36巷16-4號","121.485273333333","24.99188","6500300","中和區"
"235026","KEA-2876","2019/10/15 12:49:07","新北市中和區中正路637巷60弄61號","121.4855","24.9932733333333","6500300","中和區"
