"lineid","car","time","location","longitude","latitude","cityid","cityname"
"234044","148-BY","2019/10/15 13:39:18","新北市永和區永元路108號","121.52271","25.0022116666667","6500400","永和區"
"234078","298-R6","2019/10/15 13:39:30","新北市永和區林森路20巷12號","121.525965","25.0056966666667","6500400","永和區"
"234036","336-UY","2019/10/15 13:39:32","新北市永和區民樂街31巷10弄1號","121.52813","25.0008616666667","6500400","永和區"
"234084","338-UY","2019/10/15 13:39:28","新北市永和區永亨路131號","121.524763333333","25.003985","6500400","永和區"
"234068","552-UM","2019/10/15 13:39:13","新北市永和區永和路二段237-2號","121.515641666667","25.01453","6500400","永和區"
"234062","553-UM","2019/10/15 13:39:30","新北市永和區秀朗路一段192巷6弄12號","121.519046666667","25.002375","6500400","永和區"
"234015","745-BX","2019/10/15 13:39:15","新北市永和區環河西路一段5號","121.515091666667","25.0179233333333","6500400","永和區"
"234028","746-BX","2019/10/15 13:39:15","新北市永和區四維街103巷16號","121.523771666667","24.9971616666667","6500400","永和區"
"234052","KEA-2590","2019/10/15 13:39:13","新北市永和區竹林路39巷21號","121.518965","25.01482","6500400","永和區"
"234005","KED-0605","2019/10/15 13:39:28","新北市永和區永和路二段8號","121.514571666667","25.01026","6500400","永和區"
"234012","KEA-2591","2019/10/15 13:39:19","新北市永和區仁愛路188號","121.509806666667","25.0125983333333","6500400","永和區"
"234060","AAD-866","2019/10/15 13:39:26","新北市永和區中正路446號","121.5175","25.0027733333333","6500400","永和區"
"234040","862-TW","2019/10/15 13:39:34","新北市永和區中和路375號","121.508185","24.99989","6500400","永和區"
"234048","863-TW","2019/10/15 13:39:17","新北市永和區保安路2號","121.510915","25.017525","6500400","永和區"
"234025","9371-KE","2019/10/15 13:39:28","新北市永和區自由街58號","121.513838333333","25.0059833333333","6500400","永和區"
"234010","9373-KE","2019/10/15 13:39:24","新北市永和區保福路二段49號","121.510981666667","25.0118283333333","6500400","永和區"
"248017","KED-0813","2019/10/15 13:39:23","新北市五股區民義路二段54-3號","121.407545","25.1064566666667","6501500","五股區"
"234022","9380-KE","2019/10/15 13:39:21","新北市永和區中正路702巷19號","121.516435","25.0106366666667","6500400","永和區"
"234076","969-R7","2019/10/15 13:39:18","新北市永和區民權路3號","121.520155","24.9983683333333","6500400","永和區"
"234072","AAC-211","2019/10/15 13:39:22","新北市永和區竹林路219號","121.520985","25.0086966666667","6500400","永和區"
"234066","AAC-212","2019/10/15 13:39:26","新北市永和區中山路一段191巷4號","121.509446666667","25.00847","6500400","永和區"
"234001","AAC-295","2019/10/15 13:39:14","新北市永和區秀朗路一段15號","121.51396","25.0073533333333","6500400","永和區"
"244002","248-BX","2019/10/15 13:39:32","新北市林口區南勢里59-8號","121.359763333333","25.081735","6501700","林口區"
"244002","658-BX","2019/10/15 13:39:16","新北市八里區中山路三段390號","121.368315","25.1352883333333","6501700","林口區"
"231030","002-UM","2019/10/15 13:39:20","新北市新店區安康路一段300-2號","121.518808333333","24.9639783333333","6500600","新店區"
"231027","0293-UT","2019/10/15 13:39:19","新北市新店區新店後街20-3號","121.538411666667","24.9532816666667","6500600","新店區"
"231005","046-UY","2019/10/15 13:39:24","新北市新店區寶中路47-3號","121.545698333333","24.9794316666667","6500600","新店區"
"231029","106-UY","2019/10/15 13:39:16","新北市新店區安康路二段330號","121.50419","24.9578733333333","6500600","新店區"
"231018","107-UY","2019/10/15 13:39:26","新北市新店區百忍街12號","121.53475","24.9756033333333","6500600","新店區"
"231013","108-UY","2019/10/15 13:39:21","新北市新店區中正路454-5號","121.534471666667","24.97913","6500600","新店區"
"231036","110-UY","2019/10/15 13:39:15","新北市新店區安祥路145巷2號","121.47479","24.9554333333333","6500600","新店區"
"231032","256-BX","2019/10/15 13:39:26","新北市新店區莒光路36號","121.523361666667","24.95892","6500600","新店區"
"231023","260-TV","2019/10/15 13:39:17","新北市新店區新店路182號","121.537153333333","24.956005","6500600","新店區"
"231003","268-BY","2019/10/15 13:39:30","新北市新店區中興路一段282號","121.54568","24.96844","6500600","新店區"
"231035","278-BY","2019/10/15 13:39:29","新北市新店區安忠路102巷2號","121.510825","24.95646","6500600","新店區"
"231015","AAD-862","2019/10/15 13:39:20","新北市新店區竹林路2巷29弄7號","121.55033","24.9502866666667","6500600","新店區"
"231006","355-BY","2019/10/15 13:39:30","新北市新店區北新路一段37號","121.537976666667","24.9591883333333","6500600","新店區"
"231038","3712-VJ","2019/10/15 13:39:29","新北市新店區安華路30巷1號","121.519591666667","24.9592633333333","6500600","新店區"
"231024","4716-K9","2019/10/15 13:39:16","新北市新店區華興街40號","121.536956666667","24.9690766666667","6500600","新店區"
"231025","4715-K9","2019/10/15 13:39:21","新北市新店區中央五街38號","121.528533333333","24.9749883333333","6500600","新店區"
"231020","513-UM","2019/10/15 13:39:25","新北市新店區永興路88-1號","121.54401","24.933835","6500600","新店區"
"231001","617-UM","2019/10/15 13:39:15","新北市新店區中央路57號","121.532766666667","24.9773516666667","6500600","新店區"
"231002","619-UM","2019/10/15 13:39:18","新北市新店區中央三街127號","121.523946666667","24.9768516666667","6500600","新店區"
"231034","641-BX","2019/10/15 13:39:26","新北市新店區車子路134號","121.50523","24.95002","6500600","新店區"
"231012","KED-0819","2019/10/15 13:39:25","新北市新店區德正街23巷17號","121.544713333333","24.9723416666667","6500600","新店區"
"231010","719-UM","2019/10/15 13:39:29","新北市新店區平等街16號","121.53679","24.97399","6500600","新店區"
"231026","720-UM","2019/10/15 13:39:19","新北市新店區北宜路一段168號","121.540303333333","24.95298","6500600","新店區"
"231028","897-TW","2019/10/15 13:39:26","新北市新店區安和路一段2-3號","121.517258333333","24.9643116666667","6500600","新店區"
"231004","899-TW","2019/10/15 13:39:18","新北市新店區北新路二段15號","121.542733333333","24.9714433333333","6500600","新店區"
"231037","AKT-0513","2019/10/15 13:39:22","新北市新店區安康路二段416號","121.496555","24.9552583333333","6500600","新店區"
"235030","003-UY","2019/10/15 13:39:20","新北市中和區光華街56號","121.505303333333","25.003555","6500300","中和區"
"235027","006-UY","2019/10/15 13:39:23","新北市中和區建一路196號","121.487676666667","24.996455","6500300","中和區"
"235020","096-UM","2019/10/15 13:39:11","新北市中和區員山路466巷21弄42號","121.480976666667","25.007295","6500300","中和區"
"235003","097-UM","2019/10/15 13:39:27","新北市中和區景平路278巷16弄26號","121.514436666667","24.9938316666667","6500300","中和區"
"235029","098-UM","2019/10/15 13:39:18","新北市中和區莊敬路33巷17號","121.500328333333","25.0069666666667","6500300","中和區"
"235004","150-BY","2019/10/15 13:39:21","新北市中和區保健路50巷66號","121.50913","24.995255","6500300","中和區"
"235022","151-BY","2019/10/15 13:39:30","新北市中和區員山路49號","121.48126","24.9927533333333","6500300","中和區"
"235019","183-VK","2019/10/15 13:39:15","新北市中和區德光路75號","121.46942","25.0036933333333","6500300","中和區"
"235002","185-VK","2019/10/15 13:39:12","新北市永和區民有街71號","121.518046666667","24.995735","6500300","中和區"
"235031","255-BX","2019/10/15 13:39:11","新北市中和區新生街220巷15弄6號","121.482911666667","24.998045","6500300","中和區"
"235008","293-VK","2019/10/15 13:39:27","新北市中和區復興路280號","121.502223333333","24.9906233333333","6500300","中和區"
"235036","301-VK","2019/10/15 13:39:15","新北市中和區連城路87號","121.496896666667","25.00039","6500300","中和區"
"235007","352-BY","2019/10/15 13:39:13","新北市中和區景平路71號","121.51974","24.99131","6500300","中和區"
"235006","KEA-2878","2019/10/15 13:39:13","新北市中和區成功路41巷1號","121.526346666667","24.9932466666667","6500300","中和區"
"235014","4979-A6","2019/10/15 13:39:23","新北市中和區忠孝街124巷10號","121.51278","24.98601","6500300","中和區"
"235033","4980-A6","2019/10/15 13:39:30","新北市中和區連城路65巷2號","121.497641666667","25.0011483333333","6500300","中和區"
"235034","558-UM","2019/10/15 13:39:16","新北市中和區南山路51-1號","121.5022","24.998455","6500300","中和區"
"235009","565-BX","2019/10/15 13:39:25","新北市中和區捷運路155號","121.50647","24.9911316666667","6500300","中和區"
"235024","KED-0823","2019/10/15 13:39:20","新北市中和區中山路三段152號","121.473498333333","25.0063983333333","6500300","中和區"
"235018","640-BX","2019/10/15 13:39:30","新北市中和區自治街18號","121.474563333333","25.003085","6500300","中和區"
"235011","732-UM","2019/10/15 13:39:21","新北市中和區興南路二段3巷1號","121.50809","24.9864383333333","6500300","中和區"
"235010","733-UM","2019/10/15 13:39:24","新北市中和區忠孝街101巷3號","121.51171","24.9860716666667","6500300","中和區"
"235035","783-BX","2019/10/15 13:39:18","新北市中和區永和路356巷67-1號","121.487001666667","25.0150816666667","6500300","中和區"
"235021","801-TS","2019/10/15 13:39:27","新北市中和區民安街6號","121.480758333333","25.0008816666667","6500300","中和區"
"235005","802-TS","2019/10/15 13:39:20","新北市中和區中安街78號","121.512125","25.0019333333333","6500300","中和區"
"235016","805-TS","2019/10/15 13:39:15","新北市中和區興南路三段52巷6-2號","121.493636666667","24.9762916666667","6500300","中和區"
"235012","896-TW","2019/10/15 13:39:16","新北市中和區中正路83號","121.500663333333","24.9935116666667","6500300","中和區"
"235017","900-TW","2019/10/15 13:39:17","新北市中和區民德路266號","121.468038333333","24.9966183333333","6500300","中和區"
"235028","911-UM","2019/10/15 13:39:16","新北市中和區泰和街34號","121.499418333333","25.000235","6500300","中和區"
"235015","157-BY","2019/10/15 13:39:30","新北市中和區華新街113巷4弄16號","121.506986666667","24.9812583333333","6500300","中和區"
"235001","AAC-213","2019/10/15 13:39:31","新北市中和區秀朗路三段128巷12弄1號","121.524585","24.99288","6500300","中和區"
"235023","AAC-215","2019/10/15 13:39:28","新北市中和區錦和路354巷15號","121.490103333333","24.9915683333333","6500300","中和區"
"220013","072-UY","2019/10/15 13:39:13","新北市板橋區實踐路105號","121.463986666667","25.005345","6500100","板橋區"
"220034","073-UY","2019/10/15 13:39:28","新北市板橋區華東街1-8號","121.447816666667","24.9948433333333","6500100","板橋區"
"220105","075-UY","2019/10/15 13:39:22","新北市板橋區民生路二段161巷7號","121.470296666667","25.019715","6500100","板橋區"
"220017","AAD-861","2019/10/15 13:39:22","新北市板橋區南雅南路二段116號","121.452545","25.000525","6500100","板橋區"
"220016","120-SR","2019/10/15 13:39:21","新北市板橋區民生路二段120號","121.47035","25.019875","6500100","板橋區"
"247003","500-BY","2019/10/15 13:39:29","新北市蘆洲區中原路32號","121.46003","25.08277","6501400","蘆洲區"
"247013","056-VK","2019/10/15 13:39:20","新北市五股區成泰路三段358號","121.450973333333","25.0976283333333","6501400","蘆洲區"
"235013","251-BX","2019/10/15 13:39:31","新北市中和區明義街11巷10弄1號","121.503756666667","24.9947933333333","6500300","中和區"
"228004","212-TW","2019/10/15 13:38:52","新北市貢寮區龍崗里石壁坑街24號","121.912318333333","24.9976533333333","6502600","貢寮區"
"228005","828-UM","2019/10/15 13:39:28","新北市貢寮區美豐里文秀坑8號","121.902565","25.0504366666667","6502600","貢寮區"
"207002","681-TV","2019/10/15 13:39:18","新北市萬里區崁腳里崁腳路166號","121.645081666667","25.1559066666667","6502800","萬里區"
"207001","662-BX","2019/10/15 13:39:20","新北市萬里區大鵬里萬里加投51-1號","121.642046666667","25.2116783333333","6502800","萬里區"
"252005","AAC-283","2019/10/15 13:39:24","新北市三芝區圓山里二坪頂77號","121.538165","25.2365383333333","6502100","三芝區"
"236040","KED-0685","2019/10/15 13:39:13","新北市土城區城林路6巷80號","121.438523333333","24.9797383333333","6501300","土城區"
"236013","270-VK","2019/10/15 13:39:27","新北市土城區城林路6巷80號","121.438435","24.979755","6501300","土城區"
"236032","271-VK","2019/10/15 13:39:29","新北市土城區城林路6巷80號","121.43856","24.979735","6501300","土城區"
"236017","401-BY","2019/10/15 13:39:13","新北市土城區城林路6巷80號","121.438491666667","24.979865","6501300","土城區"
"236045","913-UM","2019/10/15 13:39:14","新北市土城區城林路6巷80號","121.438456666667","24.9797383333333","6501300","土城區"
"221018","753-BX","2019/10/15 13:39:20","新北市汐止區福德一路392巷41弄2號","121.62616","25.062635","6501100","汐止區"
"220027","145-BY","2019/10/15 13:39:19","新北市板橋區大觀路二段77號","121.446411666667","25.0022083333333","6500100","板橋區"
"220030","610-BX","2019/10/15 13:39:27","新北市板橋區大觀路三段59巷17弄6-1號","121.437796666667","24.9953333333333","6500100","板橋區"
"220004","276-BY","2019/10/15 13:39:28","新北市板橋區華東街260號","121.45265","25.0015983333333","6500100","板橋區"
"220020","277-BY","2019/10/15 13:39:30","新北市板橋區大觀路三段59巷17弄6-1號","121.43805","24.9953233333333","6500100","板橋區"
"220043","283-UM","2019/10/15 13:39:23","新北市板橋區民生路二段161巷1號","121.470058333333","25.0198183333333","6500100","板橋區"
"220019","283-VK","2019/10/15 13:39:11","新北市土城區四川路2號","121.45578","24.996205","6500100","板橋區"
"220050","285-UM","2019/10/15 13:39:13","新北市板橋區民生路二段161巷3號","121.470185","25.0197533333333","6500100","板橋區"
"220107","286-VK","2019/10/15 13:39:25","新北市板橋區板城路421號","121.44817","24.9961483333333","6500100","板橋區"
"220029","287-VK","2019/10/15 13:39:20","新北市板橋區大觀路二段179巷33號","121.446531666667","24.9995366666667","6500100","板橋區"
"220039","288-VK","2019/10/15 13:39:14","新北市板橋區民生路二段161巷7號","121.470296666667","25.0197233333333","6500100","板橋區"
"220009","293-UM","2019/10/15 13:39:12","新北市板橋區民生路二段161巷3號","121.470165","25.0198133333333","6500100","板橋區"
"220032","296-UM","2019/10/15 13:39:13","新北市板橋區大觀路二段150巷3號","121.441678333333","24.9989733333333","6500100","板橋區"
"220023","303-R5","2019/10/15 13:39:18","新北市板橋區板城路407號","121.447391666667","24.99518","6500100","板橋區"
"220010","305-R5","2019/10/15 13:39:20","新北市板橋區民生路二段161巷9號","121.470243333333","25.0196666666667","6500100","板橋區"
"220041","307-R5","2019/10/15 13:39:16","新北市板橋區民生路二段89-6號","121.470708333333","25.0189483333333","6500100","板橋區"
"220038","487-VK","2019/10/15 13:39:27","新北市板橋區民生路二段175號","121.46996","25.0202516666667","6500100","板橋區"
"220037","491-VK","2019/10/15 13:39:20","新北市板橋區民生路二段188號","121.47006","25.0203283333333","6500100","板橋區"
"220104","560-BX","2019/10/15 13:39:14","新北市板橋區南雅西路二段145巷10號","121.451615","25.0119166666667","6500100","板橋區"
"220052","561-BX","2019/10/15 13:39:14","新北市板橋區民生路二段120號","121.470441666667","25.019725","6500100","板橋區"
"220028","568-UM","2019/10/15 13:39:11","新北市板橋區大觀路二段431-1號","121.441415","24.9951166666667","6500100","板橋區"
"220011","609-BX","2019/10/15 13:39:23","新北市板橋區民生路二段171號","121.469768333333","25.02014","6500100","板橋區"
"220040","637-BX","2019/10/15 13:39:19","新北市板橋區民生路二段171號","121.469755","25.0200516666667","6500100","板橋區"
"220005","686-BX","2019/10/15 13:39:31","新北市板橋區館前西路46巷5號","121.458968333333","25.007175","6500100","板橋區"
"220025","687-BX","2019/10/15 13:39:17","新北市板橋區存德街1號","121.429763333333","24.9919166666667","6500100","板橋區"
"220042","689-BX","2019/10/15 13:39:31","新北市板橋區民生路二段161巷1號","121.469778333333","25.0200033333333","6500100","板橋區"
"220002","741-BX","2019/10/15 13:39:27","新北市板橋區華東街1-8號","121.44764","24.9949216666667","6500100","板橋區"
"220051","KEA-2699","2019/10/15 13:39:18","新北市板橋區民生路二段188號","121.470026666667","25.020535","6500100","板橋區"
"220003","827-TW","2019/10/15 13:39:29","新北市板橋區忠孝路21號","121.460403333333","25.0019666666667","6500100","板橋區"
"220022","895-R6","2019/10/15 13:39:30","新北市板橋區南雅南路一段8號","121.455853333333","25.0062616666667","6500100","板橋區"
"220021","985-R7","2019/10/15 13:39:20","新北市板橋區南雅南路二段116號","121.454358333333","25.0000816666667","6500100","板橋區"
"220046","AAC-210","2019/10/15 13:39:22","新北市板橋區民生路二段161巷3號","121.470138333333","25.0197566666667","6500100","板橋區"
"220012","AAC-253","2019/10/15 13:39:16","新北市板橋區縣民大道二段82號","121.465106666667","25.01425","6500100","板橋區"
"235032","KEA-2873","2019/10/15 13:39:24","新北市中和區圓通路265巷30號","121.495788333333","24.992515","6500300","中和區"
"235025","KEA-2875","2019/10/15 13:39:27","新北市中和區民享街40-2號","121.473828333333","25.0028033333333","6500300","中和區"
"235026","KEA-2876","2019/10/15 13:39:07","新北市中和區景平路703巷4號","121.496048333333","25.0035183333333","6500300","中和區"
