"lineid","car","time","location","longitude","latitude","cityid","cityname"
"234025","9371-KE","2019/10/15 14:39:27","新北市永和區中和路503號","121.510613333333","25.002435","6500400","永和區"
"248017","KED-0813","2019/10/15 14:34:35","新北市五股區外寮路13-1號","121.424901666667","25.0812366666667","6501500","五股區"
"234072","AAC-211","2019/10/15 14:39:22","新北市永和區環河東路二段46號","121.523058333333","25.01199","6500400","永和區"
"244002","248-BX","2019/10/15 14:39:32","新北市林口區南勢里34-8號","121.352341666667","25.0703033333333","6501700","林口區"
"244002","658-BX","2019/10/15 14:39:16","新北市林口區仁愛路二段190號","121.380361666667","25.0735516666667","6501700","林口區"
"231030","002-UM","2019/10/15 14:39:20","新北市新店區安民街125號","121.516335","24.9687766666667","6500600","新店區"
"231027","0293-UT","2019/10/15 14:39:10","新北市新店區北新路二段42號","121.542908333333","24.97176","6500600","新店區"
"231005","046-UY","2019/10/15 14:39:24","新北市新店區復興路107號","121.534378333333","24.98803","6500600","新店區"
"231029","106-UY","2019/10/15 14:39:16","新北市新店區安康路三段228號","121.488143333333","24.9518033333333","6500600","新店區"
"231018","107-UY","2019/10/15 14:39:26","新北市新店區中央五街14號","121.529616666667","24.9742183333333","6500600","新店區"
"231013","108-UY","2019/10/15 14:39:25","新北市新店區明德路69巷1號","121.541461666667","24.9774933333333","6500600","新店區"
"231036","110-UY","2019/10/15 14:39:15","新北市新店區安祥路106巷161號","121.473628333333","24.9592016666667","6500600","新店區"
"231032","256-BX","2019/10/15 14:39:26","新北市新店區安業街33號","121.517463333333","24.9771433333333","6500600","新店區"
"231023","260-TV","2019/10/15 14:39:17","新北市新店區檳榔路109號","121.544458333333","24.96158","6500600","新店區"
"231003","268-BY","2019/10/15 14:39:30","新北市新店區中正路2號","121.545863333333","24.9693383333333","6500600","新店區"
"231035","278-BY","2019/10/15 14:39:29","新北市新店區安康路二段118-5號","121.512325","24.9632083333333","6500600","新店區"
"231015","AAD-862","2019/10/15 14:39:20","新北市新店區北宜路三段144號","121.585155","24.9503983333333","6500600","新店區"
"231006","355-BY","2019/10/15 14:39:18","新北市新店區北宜路二段271號","121.554785","24.95359","6500600","新店區"
"231020","513-UM","2019/10/15 14:39:05","新北市新店區桂山路73-1號","121.566281666667","24.9008833333333","6500600","新店區"
"231001","617-UM","2019/10/15 14:39:15","新北市新店區中正路47號","121.544753333333","24.9698833333333","6500600","新店區"
"231002","619-UM","2019/10/15 14:39:18","新北市新店區中正路468號","121.533985","24.9793933333333","6500600","新店區"
"231034","641-BX","2019/10/15 14:39:26","新北市新店區黎明路51巷8號","121.502191666667","24.948835","6500600","新店區"
"231012","KED-0819","2019/10/15 14:39:25","新北市新店區寶橋路75號","121.545711666667","24.9752466666667","6500600","新店區"
"231028","897-TW","2019/10/15 14:39:26","新北市新店區安德街84號","121.510028333333","24.9614233333333","6500600","新店區"
"231004","899-TW","2019/10/15 14:39:18","新北市新店區中正路263-5號","121.538061666667","24.9738216666667","6500600","新店區"
"231037","AKT-0513","2019/10/15 14:39:22","新北市新店區安興路20號","121.515063333333","24.9660066666667","6500600","新店區"
"235030","003-UY","2019/10/15 14:39:20","新北市中和區景新街135號","121.505833333333","24.9970883333333","6500300","中和區"
"235027","006-UY","2019/10/15 14:39:23","新北市中和區連城路188巷2-3號","121.49289","24.9970916666667","6500300","中和區"
"235020","096-UM","2019/10/15 14:39:31","新北市中和區員山路581巷31弄13-2號","121.476896666667","25.0103233333333","6500300","中和區"
"235003","097-UM","2019/10/15 14:39:27","新北市中和區安平路208號","121.513643333333","24.9996716666667","6500300","中和區"
"235029","098-UM","2019/10/15 14:39:17","新北市中和區永和路90巷2弄17號","121.498065","25.0055516666667","6500300","中和區"
"235004","150-BY","2019/10/15 14:39:21","新北市中和區宜安路54號","121.511865","24.9967783333333","6500300","中和區"
"235022","151-BY","2019/10/15 14:39:30","新北市中和區員山路150-31號","121.481336666667","24.9983083333333","6500300","中和區"
"235019","183-VK","2019/10/15 14:39:15","新北市中和區民生街85巷1弄2號","121.468983333333","25.004545","6500300","中和區"
"235002","185-VK","2019/10/15 14:39:32","新北市中和區自強路27巷18號","121.521418333333","24.99318","6500300","中和區"
"235031","255-BX","2019/10/15 14:39:11","新北市中和區中正路751巷3弄5號","121.48438","24.9994833333333","6500300","中和區"
"235008","293-VK","2019/10/15 14:39:27","新北市中和區南山路252號","121.507945","24.9887566666667","6500300","中和區"
"235036","301-VK","2019/10/15 14:39:15","新北市中和區保平路362巷13號","121.505738333333","25.0039083333333","6500300","中和區"
"235007","352-BY","2019/10/15 14:39:12","新北市中和區景安路85號","121.506286666667","24.99695","6500300","中和區"
"235006","KEA-2878","2019/10/15 14:39:13","新北市中和區保健路2巷22號","121.507225","24.9976683333333","6500300","中和區"
"247015","KEA-2869","2019/10/15 14:39:26","新北市蘆洲區正和街47號","121.469245","25.0814016666667","6501400","蘆洲區"
"247009","KED-0682","2019/10/15 14:39:11","新北市蘆洲區集賢路406號","121.480076666667","25.081835","6501400","蘆洲區"
"235034","558-UM","2019/10/15 14:39:15","新北市中和區連勝街45號","121.498105","24.9976066666667","6500300","中和區"
"235009","565-BX","2019/10/15 14:39:25","新北市中和區建康路120號","121.488611666667","25.0001966666667","6500300","中和區"
"235018","640-BX","2019/10/15 14:39:30","新北市中和區莒光路213號","121.46896","24.9946716666667","6500300","中和區"
"235011","732-UM","2019/10/15 14:39:21","新北市中和區興南路一段86號","121.509931666667","24.98931","6500300","中和區"
"235010","733-UM","2019/10/15 14:39:20","新北市中和區景新街498號","121.51369","24.9869733333333","6500300","中和區"
"235035","783-BX","2019/10/15 14:39:18","新北市中和區連城路469巷3號","121.483616666667","24.99583","6500300","中和區"
"235005","802-TS","2019/10/15 14:39:20","新北市中和區宜安路146號","121.50954","24.99855","6500300","中和區"
"235016","805-TS","2019/10/15 14:39:15","新北市中和區華新街192巷34號","121.506176666667","24.9834416666667","6500300","中和區"
"235012","896-TW","2019/10/15 14:39:16","新北市中和區景新街508號","121.514153333333","24.9868666666667","6500300","中和區"
"235017","900-TW","2019/10/15 14:39:17","新北市中和區國光街142巷46號","121.467641666667","25.0021866666667","6500300","中和區"
"235015","157-BY","2019/10/15 14:39:30","新北市中和區復興路348號","121.500006666667","24.9903916666667","6500300","中和區"
"235001","AAC-213","2019/10/15 14:39:32","新北市中和區自立路191號","121.524111666667","24.9913216666667","6500300","中和區"
"235023","AAC-215","2019/10/15 14:39:28","新北市中和區圓通路305巷10號","121.494141666667","24.9896416666667","6500300","中和區"
"220013","072-UY","2019/10/15 14:39:33","新北市板橋區國泰街111巷15號","121.466201666667","25.0059983333333","6500100","板橋區"
"220034","073-UY","2019/10/15 14:39:28","新北市板橋區中正路216巷150弄1號","121.460653333333","25.01956","6500100","板橋區"
"220105","075-UY","2019/10/15 14:39:22","新北市板橋區民治街61巷24號","121.48057","25.0333983333333","6500100","板橋區"
"220017","AAD-861","2019/10/15 14:39:22","新北市板橋區南雅南路二段18號","121.45446","25.0035466666667","6500100","板橋區"
"220016","120-SR","2019/10/15 14:39:21","新北市板橋區光復街133巷31號","121.484228333333","25.01966","6500100","板橋區"
"247005","893-R6","2019/10/15 14:39:18","新北市蘆洲區長安街91號","121.461978333333","25.0803866666667","6501400","蘆洲區"
"247023","057-VK","2019/10/15 14:39:27","新北市蘆洲區中山二路222巷20號","121.469311666667","25.0805683333333","6501400","蘆洲區"
"247013","056-VK","2019/10/15 14:39:20","新北市蘆洲區成功路131巷8-1號","121.471538333333","25.0818983333333","6501400","蘆洲區"
"247007","002-UY","2019/10/15 14:39:16","新北市蘆洲區成功路27-1號","121.473183333333","25.0795933333333","6501400","蘆洲區"
"247001","001-UY","2019/10/15 14:39:22","新北市蘆洲區長安街268號","121.45737","25.0868216666667","6501400","蘆洲區"
"235013","251-BX","2019/10/15 14:39:11","新北市中和區中正路2號","121.503188333333","24.9937933333333","6500300","中和區"
"228004","212-TW","2019/10/15 14:39:12","新北市貢寮區福隆里龜壽谷街31-3號","121.946351666667","25.0146633333333","6502600","貢寮區"
"228005","828-UM","2019/10/15 14:39:28","新北市貢寮區美豐里雞母嶺街6-6號","121.90209","25.0642016666667","6502600","貢寮區"
"207002","681-TV","2019/10/15 14:39:18","新北市萬里區崁腳里崁腳路92號","121.647048333333","25.15958","6502800","萬里區"
"207001","662-BX","2019/10/15 14:37:42","新北市萬里區磺潭里員潭路59號","121.64313","25.1902366666667","6502800","萬里區"
"252005","AAC-283","2019/10/15 14:39:24","新北市三芝區埔坪里埔頭坑86-1號","121.507438333333","25.254555","6502100","三芝區"
"236040","KED-0685","2019/10/15 14:39:13","新北市土城區裕民路55巷16號","121.449466666667","24.98857","6501300","土城區"
"236074","166-UM","2019/10/15 14:39:20","新北市土城區頂埔街36號","121.417146666667","24.9591266666667","6501300","土城區"
"236029","253-BX","2019/10/15 14:39:14","新北市土城區中華路二段183號","121.438491666667","24.974765","6501300","土城區"
"236024","269-VK","2019/10/15 14:39:30","新北市土城區忠義路47號","121.440561666667","24.9693816666667","6501300","土城區"
"236013","270-VK","2019/10/15 14:39:27","新北市土城區清水路211號","121.460531666667","24.9819466666667","6501300","土城區"
"236032","271-VK","2019/10/15 14:39:29","新北市土城區明德路一段235巷38號","121.463166666667","24.9774333333333","6501300","土城區"
"236065","KEA-2877","2019/10/15 14:39:18","新北市土城區永豐路324號","121.47273","24.9775633333333","6501300","土城區"
"236017","401-BY","2019/10/15 14:39:13","新北市土城區延吉街257號","121.467338333333","24.9848083333333","6501300","土城區"
"236060","752-BX","2019/10/15 14:39:16","新北市土城區延和路177巷23號","121.470245","24.9911133333333","6501300","土城區"
"236057","912-UM","2019/10/15 14:39:25","新北市土城區中央路三段173號","121.431566666667","24.9652883333333","6501300","土城區"
"236045","913-UM","2019/10/15 14:39:14","新北市土城區金城路二段271號","121.464055","24.9859283333333","6501300","土城區"
"236054","AAC-216","2019/10/15 14:39:14","新北市土城區裕民路22號","121.44759","24.9886816666667","6501300","土城區"
"220027","145-BY","2019/10/15 14:39:19","新北市板橋區民權路202巷26號","121.460618333333","25.0172716666667","6500100","板橋區"
"220030","610-BX","2019/10/15 14:39:28","新北市板橋區大觀路三段133巷12號","121.433305","24.9939083333333","6500100","板橋區"
"220004","276-BY","2019/10/15 14:39:28","新北市板橋區干城路156號","121.460251666667","24.9924166666667","6500100","板橋區"
"220020","277-BY","2019/10/15 14:39:29","新北市板橋區金門街253巷10弄19-1號","121.433396666667","24.988085","6500100","板橋區"
"220043","283-UM","2019/10/15 14:39:24","新北市板橋區吳鳳路91-1號","121.466643333333","25.0319683333333","6500100","板橋區"
"220019","283-VK","2019/10/15 14:39:11","新北市板橋區信義路54巷2號","121.457086666667","24.9941066666667","6500100","板橋區"
"220050","285-UM","2019/10/15 14:39:33","新北市板橋區萬板路172號","121.475706666667","25.02285","6500100","板橋區"
"220107","286-VK","2019/10/15 14:39:25","新北市板橋區龍興街63巷32號","121.442363333333","25.00166","6500100","板橋區"
"220029","287-VK","2019/10/15 14:39:19","新北市板橋區大觀路一段29巷153號","121.449448333333","25.0054233333333","6500100","板橋區"
"220039","288-VK","2019/10/15 14:39:14","新北市板橋區龍泉街90巷3號","121.456125","25.0249416666667","6500100","板橋區"
"220009","293-UM","2019/10/15 14:39:12","新北市板橋區板新路136號","121.470733333333","25.0155466666667","6500100","板橋區"
"220001","295-UM","2019/10/15 14:39:15","新北市板橋區民享街89號","121.476953333333","25.0159433333333","6500100","板橋區"
"220032","296-UM","2019/10/15 14:39:30","新北市板橋區滿平二街10巷2號","121.425473333333","24.9866116666667","6500100","板橋區"
"220023","303-R5","2019/10/15 14:39:28","新北市板橋區中正路305巷28弄1號","121.45428","25.018495","6500100","板橋區"
"220010","305-R5","2019/10/15 14:39:20","新北市板橋區三民路二段29巷31弄13號","121.481845","25.0177933333333","6500100","板橋區"
"220041","307-R5","2019/10/15 14:39:16","新北市板橋區新海路382巷11號","121.459731666667","25.0265333333333","6500100","板橋區"
"220047","317-R6","2019/10/15 14:39:21","新北市板橋區民生路三段281巷2弄12號","121.463386666667","25.030415","6500100","板橋區"
"220038","487-VK","2019/10/15 14:39:27","新北市板橋區龍泉街133號","121.457603333333","25.023905","6500100","板橋區"
"220037","491-VK","2019/10/15 14:39:20","新北市板橋區民治街25號","121.478096666667","25.03425","6500100","板橋區"
"220104","560-BX","2019/10/15 14:39:14","新北市板橋區中正路360巷61號","121.456741666667","25.0228366666667","6500100","板橋區"
"220052","561-BX","2019/10/15 14:39:14","新北市板橋區自由路42號","121.465636666667","25.02325","6500100","板橋區"
"220028","568-UM","2019/10/15 14:39:10","新北市板橋區大觀路二段153巷46弄10號","121.448976666667","24.9995966666667","6500100","板橋區"
"220011","609-BX","2019/10/15 14:38:23","新北市板橋區三民路一段31巷87弄1號","121.481568333333","25.02335","6500100","板橋區"
"220040","637-BX","2019/10/15 14:39:19","新北市板橋區懷德街181巷22號","121.48027","25.0302733333333","6500100","板橋區"
"220005","686-BX","2019/10/15 14:39:30","新北市板橋區廣和街83號","121.462723333333","24.9919283333333","6500100","板橋區"
"220025","687-BX","2019/10/15 14:39:17","新北市板橋區僑中二街52號","121.446626666667","25.0101666666667","6500100","板橋區"
"220042","689-BX","2019/10/15 14:39:32","新北市板橋區長江路二段85號","121.465318333333","25.031585","6500100","板橋區"
"220002","741-BX","2019/10/15 14:39:27","新北市板橋區忠孝路239巷36號","121.46738","25.0035583333333","6500100","板橋區"
"220051","KEA-2699","2019/10/15 14:39:19","新北市板橋區文化路二段410巷1弄1號","121.474311666667","25.0311883333333","6500100","板橋區"
"220003","827-TW","2019/10/15 14:39:29","新北市板橋區重慶路290巷38號","121.46179","24.99861","6500100","板橋區"
"220014","831-TW","2019/10/15 14:39:28","新北市板橋區漢生東路193巷59號","121.471911666667","25.0117283333333","6500100","板橋區"
"220022","895-R6","2019/10/15 14:39:30","新北市板橋區館前西路146號","121.456025","25.0081333333333","6500100","板橋區"
"220021","985-R7","2019/10/15 14:39:20","新北市板橋區中正路232號","121.455778333333","25.0186733333333","6500100","板橋區"
"220046","AAC-210","2019/10/15 14:39:22","新北市板橋區文化路一段33號","121.460236666667","25.012955","6500100","板橋區"
"220012","AAC-253","2019/10/15 14:39:16","新北市板橋區館前東路98號","121.462528333333","25.0074883333333","6500100","板橋區"
"235032","KEA-2873","2019/10/15 14:39:29","新北市中和區福祥路87號","121.499023333333","25.0058233333333","6500300","中和區"
"235026","KEA-2876","2019/10/15 14:39:07","新北市中和區中山路二段478號","121.487853333333","25.00476","6500300","中和區"
