"lineid","car","time","location","longitude","latitude","cityid","cityname"
"234007","KED-0605","2019/10/15 18:19:20","新北市永和區仁愛路352巷112弄26號","121.50202","25.0087866666667","6500400","永和區"
"234026","9371-KE","2019/10/15 18:19:32","新北市永和區豫溪街42巷6號","121.515403333333","25.0094583333333","6500400","永和區"
"234011","9373-KE","2019/10/15 18:19:21","新北市永和區環河東路二段20號","121.522453333333","25.0130433333333","6500400","永和區"
"249005","172-UM","2019/10/15 18:19:15","新北市八里區荖阡坑路15-3號","121.400835","25.1402016666667","6502300","八里區"
"249001","173-UM","2019/10/15 18:19:23","新北市八里區龍米路一段135號","121.452111666667","25.1269533333333","6502300","八里區"
"249004","303-UY","2019/10/15 18:19:21","新北市八里區龍米路二段232巷1弄13號","121.430736666667","25.16002","6502300","八里區"
"249002","305-UY","2019/10/15 18:19:15","新北市八里區龍形二街20號","121.450523333333","25.13284","6502300","八里區"
"249003","593-UM","2019/10/15 18:18:21","新北市八里區博物館路10-1號","121.415093333333","25.16397","6502300","八里區"
"248014","025-BX","2019/10/15 18:19:20","新北市五股區自強路45號","121.43334","25.0737566666667","6501500","五股區"
"248016","026-BX","2019/10/15 18:19:30","新北市五股區成泰路三段477巷18號","121.449871666667","25.0988966666667","6501500","五股區"
"248006","077-UY","2019/10/15 18:19:20","新北市五股區中興路一段70號","121.466911666667","25.072985","6501500","五股區"
"248008","KED-0815","2019/10/15 18:19:13","新北市五股區更洲路32巷8弄14號","121.459228333333","25.0796333333333","6501500","五股區"
"248020","KED-0813","2019/10/15 18:19:11","新北市五股區孝義路47巷1號","121.453986666667","25.1104033333333","6501500","五股區"
"248012","247-BX","2019/10/15 18:19:32","新北市五股區御史路1巷101弄2號","121.440958333333","25.0911833333333","6501500","五股區"
"248004","677-BX","2019/10/15 18:19:22","新北市五股區成泰路二段149號","121.439083333333","25.0855333333333","6501500","五股區"
"248002","678-BX","2019/10/15 18:19:22","新北市五股區西雲路42號","121.443485","25.0908466666667","6501500","五股區"
"248010","682-TV","2019/10/15 18:19:20","新北市五股區成泰路一段187號","121.434931666667","25.07652","6501500","五股區"
"232011","375-UM","2019/10/15 18:19:27","新北市坪林區坪雙路一段41號","121.711701666667","24.94246","6502000","坪林區"
"244007","080-UY","2019/10/15 18:19:26","新北市林口區後湖4-3號","121.38959","25.097795","6501700","林口區"
"244013","KEA-2802","2019/10/15 18:19:16","新北市林口區信義路58-1號","121.38291","25.07853","6501700","林口區"
"244023","483-VK","2019/10/15 18:19:14","新北市林口區東湖路153巷2號","121.38276","25.0728183333333","6501700","林口區"
"244017","485-VK","2019/10/15 18:19:26","新北市林口區八德路20巷1號","121.368011666667","25.0669483333333","6501700","林口區"
"244009","656-BX","2019/10/15 18:19:30","新北市林口區文林一街103號","121.378333333333","25.0873333333333","6501700","林口區"
"244011","701-TV","2019/10/15 18:19:25","新北市林口區中正路99號","121.394295","25.0772916666667","6501700","林口區"
"244025","837-TS","2019/10/15 18:19:11","新北市林口區南勢六街18號","121.35701","25.070655","6501700","林口區"
"244021","838-TS","2019/10/15 18:19:31","新北市林口區自強三街7號","121.397468333333","25.0779383333333","6501700","林口區"
"243015","680-BX","2019/10/15 18:19:25","新北市泰山區黎明路33號","121.421811666667","25.06044","6501600","泰山區"
"222003","436-BY","2019/10/15 18:19:11","新北市深坑區旺耽路67號","121.626228333333","25.00299","6501800","深坑區"
"222002","659-BX","2019/10/15 18:19:13","新北市深坑區雲鄉路54號","121.621991666667","24.9995166666667","6501800","深坑區"
"231058","0293-UT","2019/10/15 18:19:25","新北市新店區安康路一段81號","121.529681666667","24.96129","6500600","新店區"
"231044","046-UY","2019/10/15 18:19:15","新北市新店區安華路28-1號","121.519265","24.960625","6500600","新店區"
"231060","106-UY","2019/10/15 18:19:17","新北市新店區安華路28-1號","121.519748333333","24.9607883333333","6500600","新店區"
"231051","107-UY","2019/10/15 18:19:29","新北市新店區安一路一段1-1號","121.519408333333","24.96124","6500600","新店區"
"231054","260-TV","2019/10/15 18:19:23","新北市新店區安一路一段1-1號","121.519248333333","24.9612116666667","6500600","新店區"
"231042","268-BY","2019/10/15 18:19:19","新北市新店區安一路一段1-1號","121.519641666667","24.9614383333333","6500600","新店區"
"231064","278-BY","2019/10/15 18:19:21","新北市新店區安一路一段1-1號","121.520101666667","24.9612283333333","6500600","新店區"
"231050","AAD-862","2019/10/15 18:19:14","新北市新店區安一路一段1-1號","121.519868333333","24.9613483333333","6500600","新店區"
"231045","355-BY","2019/10/15 18:19:17","新北市新店區安華路28-1號","121.519153333333","24.9608433333333","6500600","新店區"
"231055","4716-K9","2019/10/15 18:19:28","新北市新店區安康路一段240-1號","121.521743333333","24.9637983333333","6500600","新店區"
"231056","4715-K9","2019/10/15 18:19:33","新北市新店區中央路226號","121.52952","24.972795","6500600","新店區"
"231053","513-UM","2019/10/15 18:19:27","新北市新店區安康路一段24巷2號","121.532905","24.960315","6500600","新店區"
"231063","616-UM","2019/10/15 18:19:29","新北市新店區安華路1-1號","121.519468333333","24.960515","6500600","新店區"
"231040","617-UM","2019/10/15 18:19:15","新北市新店區安一路一段1-1號","121.519313333333","24.9610033333333","6500600","新店區"
"231041","619-UM","2019/10/15 17:59:43","新北市新店區安華路28-1號","121.519465","24.9606383333333","6500600","新店區"
"231048","KED-0819","2019/10/15 18:19:28","新北市新店區安華路28-1號","121.519705","24.9610033333333","6500600","新店區"
"231057","720-UM","2019/10/15 18:19:20","新北市新店區安一路一段1-1號","121.519243333333","24.961175","6500600","新店區"
"231066","AKT-0513","2019/10/15 18:19:27","新北市新店區安華路1-1號","121.519418333333","24.9604266666667","6500600","新店區"
"235066","003-UY","2019/10/15 18:19:15","新北市中和區中山路二段118號","121.502556666667","25.003945","6500300","中和區"
"235063","006-UY","2019/10/15 18:19:23","新北市中和區連城路347巷18弄2號","121.488556666667","24.994755","6500300","中和區"
"235056","096-UM","2019/10/15 18:19:19","新北市中和區員山路570號","121.478731666667","25.011025","6500300","中和區"
"235039","097-UM","2019/10/15 18:19:14","新北市中和區景平路279-5號","121.507638333333","24.9931083333333","6500300","中和區"
"235065","098-UM","2019/10/15 18:19:17","新北市中和區莊敬路49巷27號","121.501585","25.00615","6500300","中和區"
"235040","150-BY","2019/10/15 18:19:14","新北市中和區安平路59號","121.509478333333","24.9951133333333","6500300","中和區"
"235058","151-BY","2019/10/15 18:19:28","新北市中和區圓通路435巷3-7號","121.488776666667","24.9871316666667","6500300","中和區"
"235055","183-VK","2019/10/15 18:19:13","新北市中和區中山路三段162號","121.473068333333","25.0063383333333","6500300","中和區"
"235038","185-VK","2019/10/15 18:19:21","新北市中和區大智街42巷13號","121.522765","24.99214","6500300","中和區"
"235072","301-VK","2019/10/15 18:19:30","新北市中和區連城路241號","121.493741666667","24.9972383333333","6500300","中和區"
"235043","352-BY","2019/10/15 18:19:22","新北市中和區景平路381號","121.50381","24.9934183333333","6500300","中和區"
"235042","KEA-2878","2019/10/15 18:19:14","新北市中和區大仁街20巷25弄34號","121.51975","24.9936683333333","6500300","中和區"
"235050","4979-A6","2019/10/15 18:19:15","新北市中和區南山路325號","121.505113333333","24.9912533333333","6500300","中和區"
"235069","4980-A6","2019/10/15 18:19:27","新北市中和區連城路169號","121.495486666667","24.9983083333333","6500300","中和區"
"235070","558-UM","2019/10/15 18:19:14","新北市中和區景平路572號","121.501753333333","24.995345","6500300","中和區"
"235045","565-BX","2019/10/15 18:19:26","新北市中和區南山路236巷22弄12號","121.505358333333","24.9892083333333","6500300","中和區"
"235060","KED-0823","2019/10/15 18:19:13","新北市中和區員山路389號","121.481253333333","25.0027083333333","6500300","中和區"
"235054","640-BX","2019/10/15 18:19:14","新北市中和區民享街111號","121.474791666667","24.9994583333333","6500300","中和區"
"235047","732-UM","2019/10/15 18:19:21","新北市中和區南山路479號","121.507873333333","24.9883083333333","6500300","中和區"
"235046","733-UM","2019/10/15 18:19:15","新北市中和區錦和路350-1號","121.490505","24.9935883333333","6500300","中和區"
"235057","801-TS","2019/10/15 18:19:24","新北市中和區民安街69號","121.47834","24.9996933333333","6500300","中和區"
"235041","802-TS","2019/10/15 18:19:19","新北市中和區中正路273號","121.495576666667","24.993695","6500300","中和區"
"235052","805-TS","2019/10/15 18:19:27","新北市中和區興南路一段129號","121.508956666667","24.987635","6500300","中和區"
"235053","900-TW","2019/10/15 18:19:30","新北市中和區連城路469巷70弄16號","121.482913333333","24.9936616666667","6500300","中和區"
"235064","911-UM","2019/10/15 18:19:23","新北市中和區連城路139巷66號","121.496991666667","24.9969466666667","6500300","中和區"
"235051","157-BY","2019/10/15 18:19:09","新北市中和區忠孝街99-3號","121.511981666667","24.9861633333333","6500300","中和區"
"235037","AAC-213","2019/10/15 18:19:16","新北市中和區景德街95-1號","121.515536666667","24.99126","6500300","中和區"
"235059","AAC-215","2019/10/15 18:19:30","新北市中和區員山路36巷16-3號","121.48504","24.9914716666667","6500300","中和區"
"226004","312-R5","2019/10/15 18:19:28","新北市平溪區薯榔里雙菁路92號","121.714248333333","25.0212216666667","6502400","平溪區"
"235049","251-BX","2019/10/15 18:19:10","新北市中和區錦和路350-1號","121.490285","24.99358","6500300","中和區"
"228001","212-TW","2019/10/15 18:19:28","新北市貢寮區真理里新港街26巷55弄2-1號","121.927368333333","25.05285","6502600","貢寮區"
"228002","663-BX","2019/10/15 18:19:16","新北市貢寮區福連里福興街39-3號","121.994021666667","25.0136816666667","6502600","貢寮區"
"228003","828-UM","2019/10/15 18:19:23","新北市貢寮區真理里美艷山街63-1號","121.920561666667","25.0721616666667","6502600","貢寮區"
"224006","676-BX","2019/10/15 18:19:28","新北市瑞芳區三爪子坑路32巷126號","121.809143333333","25.106065","6501200","瑞芳區"
"224007","285-BY","2019/10/15 18:19:17","新北市瑞芳區大埔路67巷5-1號","121.7643","25.1015133333333","6501200","瑞芳區"
"224009","275-VK","2019/10/15 18:19:17","新北市瑞芳區祈堂路184號","121.857453333333","25.1095483333333","6501200","瑞芳區"
"224008","273-VK","2019/10/15 18:19:12","新北市瑞芳區逢甲路38號","121.811371666667","25.1083833333333","6501200","瑞芳區"
"224005","271-BY","2019/10/15 18:19:10","新北市瑞芳區建基新村5-1號","121.812045","25.1311066666667","6501200","瑞芳區"
"227002","642-TC","2019/10/15 18:19:11","新北市雙溪區共和里中山路2號","121.863786666667","25.03377","6502500","雙溪區"
"227001","400-TW","2019/10/15 18:19:15","新北市雙溪區牡丹里牡丹73號","121.851686666667","25.0593616666667","6502500","雙溪區"
"253005","032-BX","2019/10/15 18:19:33","新北市石門區中央路2號","121.563366666667","25.2909833333333","6502200","石門區"
"253006","295-VK","2019/10/15 18:19:30","新北市石門區老梅路67號","121.54594","25.289235","6502200","石門區"
"222001","KEA-2212","2019/10/15 18:19:27","新北市深坑區北深路二段42號","121.619523333333","25.0043433333333","6501800","深坑區"
"208002","KEA-2872","2019/10/15 18:19:23","新北市金山區磺清路135號","121.639366666667","25.227355","6502700","金山區"
"208003","665-BX","2019/10/15 18:19:26","新北市金山區中山路69號","121.64173","25.2185916666667","6502700","金山區"
"251005","010-UM","2019/10/15 18:19:19","新北市淡水區水源街一段122巷40號","121.44696","25.1705983333333","6501000","淡水區"
"251001","011-UM","2019/10/15 18:19:29","新北市淡水區自強路108-19號","121.461615","25.131385","6501000","淡水區"
"251002","012-UM","2019/10/15 18:19:22","新北市淡水區中正東路一段125號","121.455161666667","25.15943","6501000","淡水區"
"251015","KEA-2871","2019/10/15 18:19:27","新北市淡水區興福寮88巷85號","121.484528333333","25.1656416666667","6501000","淡水區"
"251016","179-VK","2019/10/15 18:19:25","新北市淡水區淡金路三段228巷5號","121.449436666667","25.2049666666667","6501000","淡水區"
"251004","180-VK","2019/10/15 18:19:23","新北市淡水區民族路144號","121.462833333333","25.1341866666667","6501000","淡水區"
"251008","181-VK","2019/10/15 18:19:08","新北市淡水區水源街二段225號","121.460358333333","25.1764733333333","6501000","淡水區"
"251013","182-VK","2019/10/15 18:19:20","新北市淡水區行忠路590號","121.468243333333","25.199335","6501000","淡水區"
"251010","413-VK","2019/10/15 18:19:27","新北市淡水區淡海路217號","121.420256666667","25.1853066666667","6501000","淡水區"
"251007","442-VK","2019/10/15 18:19:20","新北市淡水區中正東路二段88巷41號","121.459638333333","25.1424316666667","6501000","淡水區"
"251012","443-VK","2019/10/15 18:19:13","新北市淡水區北新路二段77-5號","121.48057","25.185545","6501000","淡水區"
"251014","577-R6","2019/10/15 18:19:28","新北市淡水區崙頂13號","121.4921","25.2205433333333","6501000","淡水區"
"251011","650-BX","2019/10/15 18:19:27","新北市淡水區三空泉9號","121.4751","25.162745","6501000","淡水區"
"251003","673-BX","2019/10/15 18:19:26","新北市淡水區北新路135號","121.449368333333","25.1788333333333","6501000","淡水區"
"251006","757-BX","2019/10/15 18:19:24","新北市淡水區中山北路一段45巷8號","121.441291666667","25.1756916666667","6501000","淡水區"
"207003","550-UM","2019/10/15 18:19:20","新北市萬里區野柳里港西路68-3號","121.685215","25.2044383333333","6502800","萬里區"
"207004","291-VK","2019/10/15 18:19:24","新北市萬里區中幅里中福路177號","121.674353333333","25.1653316666667","6502800","萬里區"
"252002","178-VK","2019/10/15 18:19:28","新北市三芝區中山路二段37號","121.502881666667","25.2551483333333","6502100","三芝區"
"252003","249-BX","2019/10/15 18:19:27","新北市三芝區錫板里南勢崗5-3號","121.47994","25.2625766666667","6502100","三芝區"
"208001","170-UY","2019/10/15 18:19:11","新北市金山區中山路16號","121.64164","25.2178733333333","6502700","金山區"
"237007","153-BY","2019/10/15 18:19:18","新北市三峽區中正路二段514號","121.360853333333","24.9065583333333","6500900","三峽區"
"237009","210-TH","2019/10/15 18:19:19","新北市三峽區中山路154號","121.364985","24.9364533333333","6500900","三峽區"
"237013","252-BX","2019/10/15 18:19:16","新北市三峽區永安街9巷40號","121.376473333333","24.92982","6500900","三峽區"
"237012","275-BY","2019/10/15 18:19:21","新北市三峽區民生街1巷1-6號","121.377085","24.9370216666667","6500900","三峽區"
"237008","302-VK","2019/10/15 18:19:21","新北市三峽區白雞68-243號","121.390418333333","24.9080433333333","6500900","三峽區"
"237014","433-BY","2019/10/15 18:19:22","新北市三峽區復興路78號","121.3731","24.9373","6500900","三峽區"
"237006","5529-G3","2019/10/15 18:19:12","新北市三峽區溪東路235號","121.40664","24.932625","6500900","三峽區"
"237011","KEA-2596","2019/10/15 18:19:24","新北市三峽區溪東路37號","121.400343333333","24.9349183333333","6500900","三峽區"
"237015","649-BX","2019/10/15 18:19:21","新北市三峽區竹崙路10號","121.426698333333","24.922775","6500900","三峽區"
"237010","706-TV","2019/10/15 18:19:25","新北市三峽區民權街147號","121.368863333333","24.93167","6500900","三峽區"
"237005","AKY-6261","2019/10/15 18:19:27","新北市三峽區長福街13-1號","121.370441666667","24.9337883333333","6500900","三峽區"
"236042","KED-0685","2019/10/15 18:19:32","新北市土城區樂利街3巷1號","121.448326666667","24.98606","6501300","土城區"
"236079","166-UM","2019/10/15 18:19:24","新北市土城區中央路三段281巷15弄1號","121.426245","24.9626983333333","6501300","土城區"
"236030","253-BX","2019/10/15 18:19:17","新北市土城區順風路30號","121.440076666667","24.9771","6501300","土城區"
"236026","269-VK","2019/10/15 18:19:21","新北市土城區承天路18號","121.439333333333","24.9637433333333","6501300","土城區"
"236014","270-VK","2019/10/15 18:19:18","新北市土城區青雲路39巷7號","121.460256666667","24.987435","6501300","土城區"
"236038","271-VK","2019/10/15 18:19:29","新北市土城區青雲路483巷9號","121.459373333333","24.973625","6501300","土城區"
"236070","KEA-2877","2019/10/15 18:19:26","新北市土城區永豐路149-2號","121.467186666667","24.982635","6501300","土城區"
"252001","KED-0821","2019/10/15 18:19:16","新北市三芝區中興街二段2號","121.49831","25.25662","6502100","三芝區"
"236021","401-BY","2019/10/15 18:19:25","新北市土城區明德路一段375-2號","121.454591666667","24.9783216666667","6501300","土城區"
"236063","752-BX","2019/10/15 18:18:56","新北市土城區金城路三段198號","121.468546666667","24.9880866666667","6501300","土城區"
"236059","912-UM","2019/10/15 18:19:26","新北市土城區中央路四段390號","121.412565","24.9541333333333","6501300","土城區"
"236049","913-UM","2019/10/15 18:19:25","新北市土城區明德路一段355-1號","121.457251666667","24.9774633333333","6501300","土城區"
"236055","AAC-216","2019/10/15 18:19:27","新北市土城區中華路二段178號","121.437393333333","24.97184","6501300","土城區"
"242042","AAC-296","2019/10/15 18:19:22","新北市新莊區雙鳳路116巷13弄1號","121.4134","25.0287433333333","6500500","新莊區"
"242061","986-R7","2019/10/15 18:19:24","新北市新莊區新樹路255號","121.434806666667","25.0219533333333","6500500","新莊區"
"242005","751-BX","2019/10/15 18:19:28","新北市泰山區泰林路一段4號","121.4421","25.04812","6500500","新莊區"
"242027","613-BX","2019/10/15 18:19:12","新北市新莊區幸福路757號","121.448201666667","25.0490133333333","6500500","新莊區"
"242058","612-BX","2019/10/15 18:19:26","新北市新莊區新北大道七段736號","121.412705","25.02571","6500500","新莊區"
"242054","497-BY","2019/10/15 18:19:29","新北市新莊區民安西路410巷12弄4號","121.42781","25.0091166666667","6500500","新莊區"
"242002","441-UM","2019/10/15 18:19:30","新北市新莊區利濟街10號","121.453335","25.0336133333333","6500500","新莊區"
"242007","440-UM","2019/10/15 18:19:31","新北市新莊區自信街37號","121.454078333333","25.0483233333333","6500500","新莊區"
"242044","415-TV","2019/10/15 18:19:29","新北市新莊區天泉二街10號","121.415211666667","25.0247416666667","6500500","新莊區"
"242051","400-BY","2019/10/15 18:19:33","新北市新莊區民安西路44號","121.427495","25.0208883333333","6500500","新莊區"
"242025","362-BY","2019/10/15 18:19:17","新北市新莊區五權一路12巷12號","121.45731","25.0645433333333","6500500","新莊區"
"242015","132-UY","2019/10/15 18:19:22","新北市新莊區中和街83號","121.447435","25.0476916666667","6500500","新莊區"
"242056","172-VK","2019/10/15 18:19:24","新北市新莊區瓊林路48號","121.446438333333","25.02891","6500500","新莊區"
"242032","175-VK","2019/10/15 18:19:24","新北市新莊區新泰路255巷25號","121.445078333333","25.03963","6500500","新莊區"
"242037","348-TH","2019/10/15 18:19:27","新北市新莊區後港一路49巷3弄1號","121.425695","25.0268583333333","6500500","新莊區"
"242009","349-TH","2019/10/15 18:19:12","新北市新莊區中華路二段152-1號","121.453326666667","25.05044","6500500","新莊區"
"242034","350-TH","2019/10/15 18:18:59","新北市新莊區瓊林路13-2號","121.449143333333","25.031285","6500500","新莊區"
"242019","351-TH","2019/10/15 18:19:13","新北市新莊區新泰路321巷37號","121.442961666667","25.0410783333333","6500500","新莊區"
"238015","755-BX","2019/10/15 18:19:18","新北市樹林區文化街112巷15號","121.416878333333","24.9901683333333","6500700","樹林區"
"238023","601-UM","2019/10/15 18:19:16","新北市樹林區中正路815號","121.409365","25.017095","6500700","樹林區"
"238019","599-UM","2019/10/15 18:19:28","新北市樹林區國凱街162號","121.424486666667","24.9807083333333","6500700","樹林區"
"238024","5061-A6","2019/10/15 18:19:22","新北市樹林區文化街91巷6號","121.415905","24.9896116666667","6500700","樹林區"
"238018","KEA-2217","2019/10/15 18:19:14","新北市樹林區保安街一段18-3號","121.427435","24.9933333333333","6500700","樹林區"
"238025","303-VK","2019/10/15 18:19:24","新北市樹林區保安街一段234號","121.420275","24.9964966666667","6500700","樹林區"
"238017","283-BY","2019/10/15 18:19:28","新北市樹林區保安街二段333巷16號","121.4112","25.007565","6500700","樹林區"
"238014","282-BY","2019/10/15 18:19:19","新北市樹林區大安路111巷25號","121.423166666667","24.9975366666667","6500700","樹林區"
"238020","268-VK","2019/10/15 18:19:28","新北市樹林區俊興街277號","121.418301666667","25.01822","6500700","樹林區"
"238026","172-UY","2019/10/15 18:19:28","新北市樹林區佳園路一段80巷2號","121.39327","24.969765","6500700","樹林區"
"238016","169-UY","2019/10/15 18:19:15","新北市樹林區復興路381號","121.416708333333","24.9868466666667","6500700","樹林區"
"239007","AAC-297","2019/10/15 18:19:22","新北市鶯歌區重慶街63-1號","121.349646666667","24.9517016666667","6500800","鶯歌區"
"239006","891-R6","2019/10/15 18:19:14","新北市鶯歌區鶯桃路365巷122號","121.330188333333","24.9623033333333","6500800","鶯歌區"
"239008","527-UM","2019/10/15 18:19:26","新北市鶯歌區朝陽街4號","121.336233333333","24.976605","6500800","鶯歌區"
"239005","526-UM","2019/10/15 18:19:27","新北市鶯歌區鶯桃路668巷73號","121.329938333333","24.9718166666667","6500800","鶯歌區"
"239001","417-VK","2019/10/15 18:19:24","新北市鶯歌區中正三路福德巷10號","121.340653333333","24.94111","6500800","鶯歌區"
"239003","360-BY","2019/10/15 18:19:16","新北市鶯歌區福安街58號","121.335551666667","24.9652366666667","6500800","鶯歌區"
"239002","359-BY","2019/10/15 18:19:26","新北市鶯歌區中正一路478號","121.366441666667","24.9568283333333","6500800","鶯歌區"
"239004","193-VK","2019/10/15 18:19:18","新北市鶯歌區尖山路137巷5弄2衖9號","121.34764","24.94821","6500800","鶯歌區"
"221036","130-UY","2019/10/15 18:19:29","新北市汐止區大同路三段241號","121.672916666667","25.07649","6501100","汐止區"
"221015","131-UY","2019/10/15 18:19:19","新北市汐止區長江街367-1號","121.668188333333","25.0825583333333","6501100","汐止區"
"244019","KED-0667","2019/10/15 18:19:20","新北市林口區麗園路21號","121.37491","25.06896","6501700","林口區"
"221010","269-BY","2019/10/15 18:19:16","新北市汐止區祥雲街18巷11號","121.64682","25.0895666666667","6501100","汐止區"
"221012","278-VK","2019/10/15 18:19:24","新北市汐止區保一街35巷8號","121.674686666667","25.080605","6501100","汐止區"
"221023","279-VK","2019/10/15 18:19:30","新北市汐止區中興路250號","121.629051666667","25.0686216666667","6501100","汐止區"
"221032","280-BY","2019/10/15 18:19:18","新北市汐止區力行街14號","121.617028333333","25.050925","6501100","汐止區"
"221021","299-VK","2019/10/15 18:19:22","新北市汐止區連興街32號","121.65491","25.0632883333333","6501100","汐止區"
"221031","353-TW","2019/10/15 18:19:14","新北市汐止區中興路208號","121.631225","25.066085","6501100","汐止區"
"221035","622-UM","2019/10/15 18:19:17","新北市汐止區中正路311號","121.655943333333","25.06769","6501100","汐止區"
"221025","623-UM","2019/10/15 18:19:17","新北市汐止區勤進路12巷37號","121.659116666667","25.0626316666667","6501100","汐止區"
"221038","646-BX","2019/10/15 18:19:30","新北市汐止區仁愛路215號","121.665158333333","25.0667333333333","6501100","汐止區"
"221033","647-BX","2019/10/15 18:19:29","新北市汐止區宜興街50巷2號","121.62243","25.0423666666667","6501100","汐止區"
"221002","707-TV","2019/10/15 18:19:30","新北市汐止區福德一路201巷25號","121.635945","25.0647716666667","6501100","汐止區"
"221018","753-BX","2019/10/15 18:19:13","新北市汐止區茄苳路72巷9號","121.666593333333","25.0702483333333","6501100","汐止區"
"224002","257-TC","2019/10/15 18:19:23","新北市瑞芳區三爪子坑路91巷6號","121.811601666667","25.1071633333333","6501200","瑞芳區"
"242046","281-VK","2019/10/15 18:19:13","新北市新莊區福營路334號","121.421718333333","25.026825","6500500","新莊區"
"242011","280-VK","2019/10/15 18:19:23","新北市新莊區中港路591巷13號","121.450456666667","25.05237","6500500","新莊區"
"220080","568-UM","2019/10/15 18:19:29","新北市板橋區華東街1-9號","121.448156666667","24.9949266666667","6500100","板橋區"
"235068","KEA-2873","2019/10/15 18:19:28","新北市中和區中正路637巷52弄1號","121.48551","24.9934133333333","6500300","中和區"
"235061","KEA-2875","2019/10/15 18:19:07","新北市中和區民享街97巷18號","121.475095","24.99989","6500300","中和區"
"235062","KEA-2876","2019/10/15 18:19:23","新北市中和區景平路999巷2號","121.495335","25.0061633333333","6500300","中和區"
