"lineid","car","time","location","longitude","latitude","cityid","cityname"
"234046","148-BY","2019/10/15 20:09:23","新北市永和區得和路396號","121.525421666667","24.9991983333333","6500400","永和區"
"234081","298-R6","2019/10/15 20:09:30","新北市永和區國中路24號","121.52455","25.005255","6500400","永和區"
"234038","336-UY","2019/10/15 20:09:25","新北市永和區成功路一段47巷8號","121.527518333333","25.0040566666667","6500400","永和區"
"234086","338-UY","2019/10/15 20:09:29","新北市永和區福和路135號","121.521323333333","25.0077216666667","6500400","永和區"
"234070","552-UM","2019/10/15 20:09:29","新北市永和區永貞路10巷7號","121.520135","25.0071966666667","6500400","永和區"
"234064","553-UM","2019/10/15 20:09:15","新北市永和區永利路156號","121.522593333333","25.0027116666667","6500400","永和區"
"234017","745-BX","2019/10/15 20:09:27","新北市永和區文化路85號","121.51357","25.0152","6500400","永和區"
"234030","746-BX","2019/10/15 20:09:20","新北市永和區民有街75巷10弄1號","121.518333333333","24.99635","6500400","永和區"
"234054","KEA-2590","2019/10/15 20:09:27","新北市永和區博愛街20巷2號","121.517775","25.0157716666667","6500400","永和區"
"234013","KEA-2591","2019/10/15 20:09:18","新北市永和區仁愛路263號","121.50639","25.010155","6500400","永和區"
"234061","AAD-866","2019/10/15 20:09:13","新北市永和區中正路151巷1-1號","121.516396666667","24.9982766666667","6500400","永和區"
"234067","748-BX","2019/10/15 20:09:19","新北市永和區永貞路313號","121.509983333333","25.0065766666667","6500400","永和區"
"234042","862-TW","2019/10/15 20:09:33","新北市永和區雙和街64巷22弄1號","121.509691666667","25.0032433333333","6500400","永和區"
"234050","863-TW","2019/10/15 20:09:25","新北市永和區環河西路二段103號","121.506418333333","25.0147366666667","6500400","永和區"
"234026","9371-KE","2019/10/15 20:09:32","新北市永和區仁愛路295號","121.505013333333","25.00911","6500400","永和區"
"234011","9373-KE","2019/10/15 20:09:21","新北市永和區保順路8號","121.503806666667","25.011","6500400","永和區"
"249005","172-UM","2019/10/15 20:09:20","新北市八里區下罟子58-9號","121.387648333333","25.13764","6502300","八里區"
"249001","173-UM","2019/10/15 20:09:16","新北市八里區中華路二段316號","121.403595","25.14816","6502300","八里區"
"249004","303-UY","2019/10/15 20:09:29","新北市八里區中山路一段217巷6號","121.411388333333","25.1576483333333","6502300","八里區"
"249002","305-UY","2019/10/15 20:09:15","新北市五股區成泰路四段45-1號","121.456811666667","25.1118116666667","6502300","八里區"
"249003","593-UM","2019/10/15 20:09:26","新北市八里區中山路二段540巷9弄19號","121.39652","25.1466283333333","6502300","八里區"
"248016","026-BX","2019/10/15 20:09:30","新北市五股區成泰路三段577巷80弄72號","121.448946666667","25.10473","6501500","五股區"
"248008","KED-0815","2019/10/15 20:09:33","新北市五股區中興路一段1巷12弄11號","121.469371666667","25.07104","6501500","五股區"
"248020","KED-0813","2019/10/15 20:09:13","新北市五股區凌雲路二段28-1號","121.443236666667","25.10227","6501500","五股區"
"248012","247-BX","2019/10/15 20:09:12","新北市五股區六合街70號","121.431835","25.09004","6501500","五股區"
"248004","677-BX","2019/10/15 20:09:22","新北市五股區成泰路一段130-1號","121.435126666667","25.0750766666667","6501500","五股區"
"248002","678-BX","2019/10/15 20:09:24","新北市五股區成泰路三段309號","121.44771","25.094715","6501500","五股區"
"248010","682-TV","2019/10/15 20:09:20","新北市五股區成泰路一段7巷66號","121.432566666667","25.0678333333333","6501500","五股區"
"234023","9380-KE","2019/10/15 20:09:20","新北市永和區中正路654巷36號","121.517911666667","25.0085533333333","6500400","永和區"
"234077","969-R7","2019/10/15 20:09:34","新北市永和區民有街24巷13號","121.516456666667","24.9957533333333","6500400","永和區"
"234074","AAC-211","2019/10/15 20:09:17","新北市永和區豫溪街161-1號","121.521515","25.0104416666667","6500400","永和區"
"234003","AAC-295","2019/10/15 20:09:16","新北市永和區中正路616巷1號","121.517245","25.0077066666667","6500400","永和區"
"243012","AAD-798","2019/10/15 20:09:18","新北市泰山區楓江路22號","121.434051666667","25.0624116666667","6501600","泰山區"
"243010","297-R6","2019/10/15 20:05:32","新北市泰山區中華街18巷1號","121.427356666667","25.0518666666667","6501600","泰山區"
"243014","KEA-2801","2019/10/15 20:09:30","新北市泰山區明志路一段42號","121.433425","25.0651933333333","6501600","泰山區"
"243016","421-VK","2019/10/15 20:09:22","新北市泰山區明志路三段409號","121.421211666667","25.0339866666667","6501600","泰山區"
"243009","KEA-2215","2019/10/15 20:09:15","新北市泰山區泰林路二段129號","121.434236666667","25.0598233333333","6501600","泰山區"
"243011","KEA-2216","2019/10/15 20:09:16","新北市泰山區明志路三段531巷2號","121.421398333333","25.0297166666667","6501600","泰山區"
"243015","680-BX","2019/10/15 20:09:25","新北市泰山區明志路二段68號","121.428831666667","25.0525266666667","6501600","泰山區"
"222003","436-BY","2019/10/15 20:09:31","新北市深坑區埔新街66號","121.619908333333","25.0024583333333","6501800","深坑區"
"222002","659-BX","2019/10/15 20:09:33","新北市深坑區北深路三段160號","121.602746666667","25.003335","6501800","深坑區"
"231061","002-UM","2019/10/15 20:09:31","新北市新店區安民街383號","121.516231666667","24.9765283333333","6500600","新店區"
"231044","046-UY","2019/10/15 20:09:15","新北市新店區寶慶街58巷2號","121.54204","24.986815","6500600","新店區"
"231060","106-UY","2019/10/15 20:09:16","新北市新店區安康路三段206號","121.48878","24.951795","6500600","新店區"
"231051","107-UY","2019/10/15 20:09:29","新北市新店區中央路192號","121.53086","24.9746483333333","6500600","新店區"
"231049","108-UY","2019/10/15 20:09:22","新北市新店區北新路二段121巷7號","121.542121666667","24.97488","6500600","新店區"
"231065","110-UY","2019/10/15 20:09:14","新北市新店區安祥路106巷171號","121.473818333333","24.9594983333333","6500600","新店區"
"231068","187-VK","2019/10/15 20:09:18","新北市新店區中興路二段186-1號","121.547853333333","24.972245","6500600","新店區"
"231062","256-BX","2019/10/15 20:09:22","新北市新店區安康路一段42號","121.53089","24.9610916666667","6500600","新店區"
"231054","260-TV","2019/10/15 20:09:22","新北市新店區檳榔路38號","121.541511666667","24.9637566666667","6500600","新店區"
"231042","268-BY","2019/10/15 20:09:18","新北市新店區中興路二段89號","121.547026666667","24.97139","6500600","新店區"
"231064","278-BY","2019/10/15 20:09:21","新北市新店區安德街20號","121.51231","24.96316","6500600","新店區"
"231050","AAD-862","2019/10/15 20:09:14","新北市新店區北新路一段303號","121.541555","24.9676016666667","6500600","新店區"
"231045","355-BY","2019/10/15 20:09:17","新北市新店區北宜路二段69號","121.549556666667","24.9515283333333","6500600","新店區"
"231055","4716-K9","2019/10/15 20:09:28","新北市新店區中華路48巷10號","121.540173333333","24.9687383333333","6500600","新店區"
"231056","4715-K9","2019/10/15 20:09:13","新北市新店區中正路275巷33號","121.536806666667","24.97293","6500600","新店區"
"231067","4772-VM","2019/10/15 20:09:23","新北市新店區溪洲路6巷124-1號","121.533305","24.963485","6500600","新店區"
"231053","513-UM","2019/10/15 20:09:27","新北市新店區新烏路三段286號","121.549863333333","24.8982816666667","6500600","新店區"
"231063","616-UM","2019/10/15 20:09:29","新北市新店區黎明路54巷2號","121.502338333333","24.94822","6500600","新店區"
"231040","617-UM","2019/10/15 20:09:15","新北市新店區中正路12號","121.54545","24.9695383333333","6500600","新店區"
"231041","619-UM","2019/10/15 20:09:23","新北市新店區中正路460號","121.533955","24.979325","6500600","新店區"
"231048","KED-0819","2019/10/15 20:09:28","新北市新店區寶橋路158-1號","121.54885","24.9772283333333","6500600","新店區"
"231057","720-UM","2019/10/15 20:09:20","新北市新店區百齡一路12號","121.553085","24.9324716666667","6500600","新店區"
"231059","897-TW","2019/10/15 20:09:21","新北市新店區安成街39號","121.50969","24.9612616666667","6500600","新店區"
"231043","899-TW","2019/10/15 20:09:28","新北市新店區中正路309號","121.53664","24.9749783333333","6500600","新店區"
"231066","AKT-0513","2019/10/15 20:09:27","新北市新店區安德街60巷35號","121.51103","24.9637716666667","6500600","新店區"
"241011","013-R5","2019/10/15 20:09:28","新北市三重區秀江街247號","121.496103333333","25.0716433333333","6500200","三重區"
"241028","022-UY","2019/10/15 20:09:26","新北市三重區大同南路151-2號","121.496621666667","25.0571483333333","6500200","三重區"
"241008","059-VK","2019/10/15 20:09:31","新北市三重區永福街132號","121.479558333333","25.0747616666667","6500200","三重區"
"241002","060-VK","2019/10/15 20:09:22","新北市三重區仁義街225巷2號","121.49665","25.0824266666667","6500200","三重區"
"241031","061-VK","2019/10/15 20:09:13","新北市三重區三寧街18號","121.489363333333","25.05979","6500200","三重區"
"241017","063-VK","2019/10/15 20:09:21","新北市三重區大智街116號","121.49302","25.0671566666667","6500200","三重區"
"241024","065-VK","2019/10/15 20:09:14","新北市三重區中正北路169號","121.478725","25.0692966666667","6500200","三重區"
"241007","066-VK","2019/10/15 20:09:21","新北市三重區三和路四段111-28號","121.487031666667","25.0776616666667","6500200","三重區"
"241003","091-VK","2019/10/15 20:09:28","新北市三重區仁愛街443號","121.490156666667","25.0821533333333","6500200","三重區"
"241015","742-BX","2019/10/15 20:09:19","新北市三重區福德北路47號","121.50227","25.06502","6500200","三重區"
"241006","262-UM","2019/10/15 20:09:31","新北市三重區車路頭街139巷2號","121.483875","25.076265","6500200","三重區"
"241016","266-UM","2019/10/15 20:09:27","新北市三重區正義北路28巷17號","121.496753333333","25.0632833333333","6500200","三重區"
"241009","267-UM","2019/10/15 20:09:26","新北市三重區三和路四段382巷96弄6號","121.478911666667","25.0780833333333","6500200","三重區"
"241018","268-UM","2019/10/15 20:09:28","新北市三重區正義北路256巷96號","121.493988333333","25.06793","6500200","三重區"
"241032","269-UM","2019/10/15 20:09:14","新北市三重區捷運路65號","121.483478333333","25.055565","6500200","三重區"
"241013","270-UM","2019/10/15 20:09:15","新北市三重區三和路三段151巷29號","121.493301666667","25.074145","6500200","三重區"
"241025","271-UM","2019/10/15 20:09:21","新北市三重區中正北路237號","121.475716666667","25.0708266666667","6500200","三重區"
"241030","KED-0822","2019/10/15 20:09:27","新北市三重區成功路145巷33號","121.487723333333","25.053195","6500200","三重區"
"241035","462-BY","2019/10/15 20:09:20","新北市三重區大榮街51號","121.499013333333","25.0635066666667","6500200","三重區"
"241004","475-VK","2019/10/15 20:09:28","新北市三重區自強路四段112號","121.491608333333","25.0801366666667","6500200","三重區"
"241020","478-VK","2019/10/15 20:09:28","新北市三重區三和路三段186-1號","121.492033333333","25.0734316666667","6500200","三重區"
"241026","480-VK","2019/10/15 20:09:18","新北市三重區中央南路109號","121.501408333333","25.0602033333333","6500200","三重區"
"241014","543-UM","2019/10/15 20:09:32","新北市三重區長樂街90號","121.501381666667","25.06944","6500200","三重區"
"241001","547-UM","2019/10/15 20:09:20","新北市三重區三和路四段89巷6號","121.489365","25.075715","6500200","三重區"
"241019","KEA-2593","2019/10/15 20:09:27","新北市三重區自強路二段33巷57號","121.490945","25.06991","6500200","三重區"
"241005","AAD-863","2019/10/15 20:09:12","新北市三重區仁愛街502號","121.488138333333","25.0820833333333","6500200","三重區"
"241022","KED-0820","2019/10/15 20:09:30","新北市三重區重陽路二段11號","121.486866666667","25.0621016666667","6500200","三重區"
"241023","887-TS","2019/10/15 20:09:21","新北市三重區頂崁街232號","121.476785","25.0685883333333","6500200","三重區"
"241029","942-UM","2019/10/15 20:09:13","新北市三重區光明路29號","121.491313333333","25.0584716666667","6500200","三重區"
"241033","AAC-255","2019/10/15 20:09:34","新北市三重區光復路一段61巷27號","121.47356","25.04919","6500200","三重區"
"235066","003-UY","2019/10/15 20:09:15","新北市中和區水源路127巷2-1號","121.508075","25.003855","6500300","中和區"
"235039","097-UM","2019/10/15 20:09:14","新北市中和區立人街46號","121.517806666667","24.9940683333333","6500300","中和區"
"235065","098-UM","2019/10/15 20:09:17","新北市中和區永和路128巷47號","121.497668333333","25.0068983333333","6500300","中和區"
"235040","150-BY","2019/10/15 20:09:14","新北市中和區保健路10巷21弄31號","121.508556666667","24.9977783333333","6500300","中和區"
"235058","151-BY","2019/10/15 20:09:28","新北市中和區員山路148巷32號","121.482195","24.9971133333333","6500300","中和區"
"235055","183-VK","2019/10/15 20:09:12","新北市三重區光復路二段171號","121.473096666667","25.0614416666667","6500300","中和區"
"247016","KEA-2869","2019/10/15 20:09:16","新北市蘆洲區光華路160號","121.465598333333","25.0821583333333","6501400","蘆洲區"
"247010","KED-0682","2019/10/15 20:09:19","新北市蘆洲區信義路154號","121.479346666667","25.08349","6501400","蘆洲區"
"235050","4979-A6","2019/10/15 20:09:14","新北市中和區景平路177號","121.511826666667","24.9926533333333","6500300","中和區"
"235069","4980-A6","2019/10/15 20:09:27","新北市中和區南山路127巷27弄9號","121.503276666667","24.9977933333333","6500300","中和區"
"235070","558-UM","2019/10/15 20:09:14","新北市中和區永和路356巷71號","121.486775","25.0172733333333","6500300","中和區"
"235051","157-BY","2019/10/15 20:09:29","新北市中和區復興路280巷5號","121.502201666667","24.9909883333333","6500300","中和區"
"235059","AAC-215","2019/10/15 20:09:30","新北市中和區圓通路335巷37弄6號","121.493813333333","24.9891283333333","6500300","中和區"
"220065","072-UY","2019/10/15 20:09:24","新北市板橋區縣民大道二段68-1號","121.463628333333","25.0127716666667","6500100","板橋區"
"247006","893-R6","2019/10/15 20:09:21","新北市蘆洲區中山二路266號","121.469035","25.07854","6501400","蘆洲區"
"247004","500-BY","2019/10/15 20:09:22","新北市蘆洲區永安南路二段328巷17弄1號","121.456571666667","25.0839366666667","6501400","蘆洲區"
"247020","341-TH","2019/10/15 20:09:16","新北市蘆洲區民權路106巷5弄5號","121.474278333333","25.0890516666667","6501400","蘆洲區"
"247012","337-TH","2019/10/15 20:09:23","新北市蘆洲區民族路250巷10號","121.479618333333","25.0888866666667","6501400","蘆洲區"
"247024","057-VK","2019/10/15 20:09:17","新北市蘆洲區光復路77巷19-1號","121.463776666667","25.086085","6501400","蘆洲區"
"247014","056-VK","2019/10/15 20:09:20","新北市蘆洲區中山二路247號","121.470295","25.0795833333333","6501400","蘆洲區"
"247018","053-VK","2019/10/15 20:09:27","新北市蘆洲區民族路251號","121.476955","25.09033","6501400","蘆洲區"
"247022","007-UY","2019/10/15 20:09:22","新北市蘆洲區三民路171巷25號","121.470448333333","25.0867833333333","6501400","蘆洲區"
"247008","002-UY","2019/10/15 20:09:15","新北市蘆洲區中山一路97巷32弄2號","121.475425","25.0810283333333","6501400","蘆洲區"
"247002","001-UY","2019/10/15 20:09:25","新北市蘆洲區永康街2巷6號","121.459303333333","25.0861416666667","6501400","蘆洲區"
"226004","312-R5","2019/10/15 20:09:28","新北市平溪區石底里公園街18-3號","121.733246666667","25.0258283333333","6502400","平溪區"
"222001","KEA-2212","2019/10/15 20:09:26","新北市深坑區北深路三段193號","121.601115","25.0036233333333","6501800","深坑區"
"251001","011-UM","2019/10/15 20:09:29","新北市淡水區淡金路二段15號","121.446368333333","25.1891566666667","6501000","淡水區"
"251002","012-UM","2019/10/15 20:09:22","新北市淡水區中正路332-1號","121.435876666667","25.17316","6501000","淡水區"
"251015","KEA-2871","2019/10/15 20:09:26","新北市淡水區泉洲厝8號","121.48553","25.1887433333333","6501000","淡水區"
"251016","179-VK","2019/10/15 20:09:25","新北市淡水區番子田25-7號","121.456026666667","25.23083","6501000","淡水區"
"251004","180-VK","2019/10/15 20:09:23","新北市淡水區民族路29巷24-1號","121.46178","25.136755","6501000","淡水區"
"251008","181-VK","2019/10/15 20:09:28","新北市淡水區淡海路72巷30弄16號","121.425036666667","25.1825066666667","6501000","淡水區"
"251013","182-VK","2019/10/15 20:09:21","新北市淡水區奎柔山路576號","121.468351666667","25.205075","6501000","淡水區"
"251010","413-VK","2019/10/15 20:09:27","新北市淡水區新市二路二段8號","121.42485","25.1965083333333","6501000","淡水區"
"251007","442-VK","2019/10/15 20:09:29","新北市淡水區淡金路一段8號","121.461013333333","25.1694333333333","6501000","淡水區"
"251012","443-VK","2019/10/15 20:09:13","新北市淡水區淡金路三段224號","121.448943333333","25.2048233333333","6501000","淡水區"
"251009","575-R6","2019/10/15 20:09:11","新北市淡水區英專路28巷5號","121.446041666667","25.169945","6501000","淡水區"
"251014","577-R6","2019/10/15 20:09:27","新北市淡水區石頭厝2-1號","121.458148333333","25.2357633333333","6501000","淡水區"
"251011","650-BX","2019/10/15 20:09:24","新北市淡水區崁頂57-7號","121.442635","25.1973216666667","6501000","淡水區"
"251003","673-BX","2019/10/15 20:09:26","新北市淡水區新市一路二段257號","121.444003333333","25.1829933333333","6501000","淡水區"
"251006","757-BX","2019/10/15 20:09:24","新北市淡水區北新路141巷2弄1號","121.449393333333","25.1792966666667","6501000","淡水區"
"207003","550-UM","2019/10/15 20:09:19","新北市萬里區大鵬里萬里加投180號","121.642935","25.215735","6502800","萬里區"
"207004","291-VK","2019/10/15 20:09:24","新北市萬里區北基里仁一街30號","121.68243","25.1766933333333","6502800","萬里區"
"252002","178-VK","2019/10/15 20:09:28","新北市三芝區中正路一段72號","121.503956666667","25.25767","6502100","三芝區"
"237012","275-BY","2019/10/15 20:09:21","新北市三峽區中華路74-5號","121.37152","24.9291466666667","6500900","三峽區"
"237006","5529-G3","2019/10/15 20:09:12","新北市三峽區嘉添74-2號","121.368655","24.9102033333333","6500900","三峽區"
"237015","649-BX","2019/10/15 20:09:21","新北市三峽區介壽路二段138巷16號","121.395935","24.9342283333333","6500900","三峽區"
"236042","KED-0685","2019/10/15 20:09:12","新北市土城區學享街72號","121.45254","24.9861016666667","6501300","土城區"
"236079","166-UM","2019/10/15 20:09:24","新北市土城區德安街12號","121.421783333333","24.9645783333333","6501300","土城區"
"236030","253-BX","2019/10/15 20:09:17","新北市土城區中央路一段116號","121.446498333333","24.9880616666667","6501300","土城區"
"236026","269-VK","2019/10/15 20:09:21","新北市土城區明德路二段291號","121.444676666667","24.984285","6501300","土城區"
"236014","270-VK","2019/10/15 20:09:18","新北市土城區廣興街35號","121.455183333333","24.9916283333333","6501300","土城區"
"236038","271-VK","2019/10/15 20:09:26","新北市土城區延吉街296巷1弄1號","121.464431666667","24.9843233333333","6501300","土城區"
"236070","KEA-2877","2019/10/15 20:09:21","新北市土城區中央路三段147巷2弄15號","121.43193","24.9648116666667","6501300","土城區"
"252001","KED-0821","2019/10/15 20:09:16","新北市三芝區公正街66號","121.499831666667","25.2574683333333","6502100","三芝區"
"236021","401-BY","2019/10/15 20:09:25","新北市土城區延吉街27號","121.472421666667","24.9882666666667","6501300","土城區"
"236059","912-UM","2019/10/15 20:09:30","新北市土城區中央路三段63號","121.438775","24.9694716666667","6501300","土城區"
"236049","913-UM","2019/10/15 20:09:25","新北市土城區清水路148號","121.459306666667","24.9814733333333","6501300","土城區"
"242042","AAC-296","2019/10/15 20:09:23","新北市新莊區青山路一段226-1號","121.398888333333","25.0311233333333","6500500","新莊區"
"242061","986-R7","2019/10/15 20:09:13","新北市新莊區瓊林路瓊英巷8弄8號","121.443193333333","25.0279366666667","6500500","新莊區"
"242005","751-BX","2019/10/15 20:09:28","新北市新莊區頭興街1-5號","121.464016666667","25.0535033333333","6500500","新莊區"
"242029","615-BX","2019/10/15 20:09:24","新北市新莊區中原路319-1號","121.44659","25.0544033333333","6500500","新莊區"
"242027","613-BX","2019/10/15 20:09:24","新北市新莊區立信一街75號","121.442995","25.04998","6500500","新莊區"
"242058","612-BX","2019/10/15 20:09:32","新北市新莊區八德街151號","121.423541666667","25.0196583333333","6500500","新莊區"
"242048","566-BX","2019/10/15 20:09:27","新北市新莊區後港二路29號","121.422315","25.0231883333333","6500500","新莊區"
"242054","497-BY","2019/10/15 20:09:29","新北市新莊區西盛街392號","121.427733333333","25.0127633333333","6500500","新莊區"
"242002","441-UM","2019/10/15 20:09:30","新北市新莊區中正路55-4號","121.461851666667","25.0396666666667","6500500","新莊區"
"242007","440-UM","2019/10/15 20:09:11","新北市新莊區思源路453巷1號","121.459281666667","25.053315","6500500","新莊區"
"242044","415-TV","2019/10/15 20:09:31","新北市新莊區中正路929巷27號","121.411265","25.01999","6500500","新莊區"
"242013","413-TV","2019/10/15 20:09:22","新北市新莊區中港路483巷6號","121.451775","25.04985","6500500","新莊區"
"242051","400-BY","2019/10/15 20:09:16","新北市新莊區民安西路150巷23號","121.425203333333","25.0164916666667","6500500","新莊區"
"242025","362-BY","2019/10/15 20:09:17","新北市新莊區五權一路12巷25弄19號","121.458538333333","25.0646766666667","6500500","新莊區"
"242023","353-BY","2019/10/15 20:09:26","新北市新莊區化成路568號","121.466228333333","25.0541266666667","6500500","新莊區"
"242015","132-UY","2019/10/15 20:09:19","新北市新莊區中平路26巷13號","121.445441666667","25.043275","6500500","新莊區"
"242039","135-UY","2019/10/15 20:09:29","新北市新莊區龍安路499號","121.425993333333","25.01801","6500500","新莊區"
"242056","172-VK","2019/10/15 20:09:24","新北市新莊區豐年街28巷1弄11號","121.446153333333","25.0318783333333","6500500","新莊區"
"242017","173-VK","2019/10/15 20:09:27","新北市新莊區中安街17號","121.452965","25.046015","6500500","新莊區"
"242032","175-VK","2019/10/15 20:09:24","新北市新莊區忠孝街29巷8號","121.443633333333","25.03587","6500500","新莊區"
"242021","KED-0687","2019/10/15 20:09:23","新北市新莊區中興街43號","121.449058333333","25.0369","6500500","新莊區"
"242037","348-TH","2019/10/15 20:09:30","新北市新莊區建安街9巷7號","121.429183333333","25.0266716666667","6500500","新莊區"
"242009","349-TH","2019/10/15 20:09:32","新北市新莊區昌盛街35巷3弄1號","121.454046666667","25.0505266666667","6500500","新莊區"
"242034","350-TH","2019/10/15 20:09:18","新北市新莊區建中街95號","121.44676","25.0360633333333","6500500","新莊區"
"242019","351-TH","2019/10/15 20:09:11","新北市新莊區民樂街66號","121.457996666667","25.04214","6500500","新莊區"
"238021","KEA-2539","2019/10/15 20:09:18","新北市樹林區中山路三段214號","121.379918333333","24.967665","6500700","樹林區"
"221008","489-VK","2019/10/15 20:09:14","新北市汐止區忠一街9巷7號","121.620526666667","25.0731983333333","6501100","汐止區"
"221036","130-UY","2019/10/15 20:09:09","新北市汐止區新台五路二段41巷1號","121.66307","25.0666683333333","6501100","汐止區"
"221015","131-UY","2019/10/15 20:09:19","新北市汐止區建成路11號","121.66458","25.0725116666667","6501100","汐止區"
"221010","269-BY","2019/10/15 20:09:16","新北市汐止區連峰街270號","121.64423","25.0814416666667","6501100","汐止區"
"221012","278-VK","2019/10/15 20:09:24","新北市汐止區大同路三段457號","121.679066666667","25.0712583333333","6501100","汐止區"
"221023","279-VK","2019/10/15 20:09:19","新北市汐止區明峰街201號","121.627903333333","25.0694716666667","6501100","汐止區"
"221032","280-BY","2019/10/15 20:09:18","新北市汐止區力行街59巷9弄2號","121.61732","25.049675","6501100","汐止區"
"221027","281-BY","2019/10/15 20:09:22","新北市汐止區民生街1-1號","121.660135","25.068715","6501100","汐止區"
"221029","298-VK","2019/10/15 20:09:16","新北市汐止區樟樹一路119巷10弄1號","121.64124","25.06454","6501100","汐止區"
"221021","299-VK","2019/10/15 20:09:21","新北市汐止區連興街122號","121.653683333333","25.0620533333333","6501100","汐止區"
"221031","353-TW","2019/10/15 20:09:21","新北市汐止區福德一路260號","121.633106666667","25.0643583333333","6501100","汐止區"
"221035","622-UM","2019/10/15 20:09:17","新北市汐止區長江街39巷21號","121.655311666667","25.072045","6501100","汐止區"
"221025","623-UM","2019/10/15 20:09:17","新北市汐止區秀峰路66號","121.65975","25.0645283333333","6501100","汐止區"
"221038","646-BX","2019/10/15 20:09:25","新北市汐止區忠孝東路462巷60號","121.666561666667","25.0745283333333","6501100","汐止區"
"221033","647-BX","2019/10/15 20:09:28","新北市汐止區東勢街201巷129弄2號","121.633458333333","25.0428616666667","6501100","汐止區"
"221018","753-BX","2019/10/15 20:09:23","新北市汐止區茄苳路326號","121.67376","25.0663066666667","6501100","汐止區"
"220082","610-BX","2019/10/15 20:09:24","新北市板橋區篤行路二段120-3號","121.431256666667","24.990825","6500100","板橋區"
"224002","257-TC","2019/10/15 20:09:22","新北市瑞芳區員山子路3-1號","121.819113333333","25.1046633333333","6501200","瑞芳區"
"220101","285-UM","2019/10/15 20:09:31","新北市板橋區莊敬路40號","121.473051666667","25.0269316666667","6500100","板橋區"
"220083","286-VK","2019/10/15 20:09:16","新北市板橋區僑中二街90巷33號","121.444625","25.0092883333333","6500100","板橋區"
"220081","287-VK","2019/10/15 20:09:30","新北市板橋區僑中一街80巷5弄1-1號","121.447751666667","25.0122883333333","6500100","板橋區"
"220061","293-UM","2019/10/15 20:09:12","新北市板橋區四川路一段316號","121.458458333333","25.000215","6500100","板橋區"
"242046","281-VK","2019/10/15 20:09:13","新北市新莊區福營路591-1號","121.41959","25.022945","6500500","新莊區"
"220075","303-R5","2019/10/15 20:09:22","新北市板橋區金華街10巷60號","121.457308333333","25.02024","6500100","板橋區"
"220062","305-R5","2019/10/15 20:09:26","新北市板橋區中山路二段613號","121.485438333333","25.022445","6500100","板橋區"
"242011","280-VK","2019/10/15 20:09:23","新北市新莊區中信街67巷7號","121.448641666667","25.0506866666667","6500500","新莊區"
"220035","560-BX","2019/10/15 20:09:22","新北市板橋區新生街53巷3弄9號","121.457011666667","25.021715","6500100","板橋區"
"220103","561-BX","2019/10/15 20:09:19","新北市板橋區漢生東路23巷8-1號","121.465405","25.0174133333333","6500100","板橋區"
"220080","568-UM","2019/10/15 20:09:29","新北市板橋區大觀路二段153巷44弄53號","121.44601","24.9989516666667","6500100","板橋區"
"220054","741-BX","2019/10/15 20:09:31","新北市板橋區忠孝路201巷30號","121.465021666667","25.0034216666667","6500100","板橋區"
"220055","827-TW","2019/10/15 20:09:32","新北市板橋區仁愛路86巷13弄1號","121.461055","24.99893","6500100","板橋區"
"220067","829-TW","2019/10/15 20:09:29","新北市板橋區中山路一段206巷7號","121.470023333333","25.0134683333333","6500100","板橋區"
"220074","895-R6","2019/10/15 20:09:16","新北市板橋區縣民大道一段287號","121.460701666667","25.010205","6500100","板橋區"
"220073","985-R7","2019/10/15 20:09:24","新北市板橋區南雅西路二段1號","121.453075","25.008905","6500100","板橋區"
"220097","AAC-210","2019/10/15 20:09:14","新北市板橋區民權路182號","121.459548333333","25.0136216666667","6500100","板橋區"
"235068","KEA-2873","2019/10/15 20:09:27","新北市中和區福祥路85巷2弄1號","121.498671666667","25.0058366666667","6500300","中和區"
