"lineid","car","time","location","longitude","latitude","cityid","cityname"
"234081","298-R6","2019/10/15 20:29:23","新北市永和區永貞路41號","121.521015","25.0064183333333","6500400","永和區"
"234070","552-UM","2019/10/15 20:29:29","新北市永和區永亨路6-1號","121.519238333333","25.0055566666667","6500400","永和區"
"234064","553-UM","2019/10/15 20:29:15","新北市永和區秀朗路一段135巷20號","121.516976666667","25.0051333333333","6500400","永和區"
"234054","KEA-2590","2019/10/15 20:29:27","新北市永和區環河東路一段42號","121.518793333333","25.016985","6500400","永和區"
"234013","KEA-2591","2019/10/15 20:29:18","新北市永和區仁愛路303號","121.503738333333","25.0080583333333","6500400","永和區"
"234061","AAD-866","2019/10/15 20:29:13","新北市永和區安樂路194巷39弄6號","121.51637","25.0014233333333","6500400","永和區"
"234067","748-BX","2019/10/15 20:29:19","新北市永和區保平路236巷7弄16號","121.508168333333","25.0057466666667","6500400","永和區"
"234042","862-TW","2019/10/15 20:29:13","新北市永和區安樂路250號","121.514673333333","25.0036583333333","6500400","永和區"
"234050","863-TW","2019/10/15 20:29:21","新北市永和區新生路138巷3弄2號","121.506411666667","25.0145266666667","6500400","永和區"
"249001","173-UM","2019/10/15 20:29:18","新北市八里區下罟子1-16號","121.389718333333","25.1422033333333","6502300","八里區"
"249004","303-UY","2019/10/15 20:29:28","新北市八里區中山路一段129巷45號","121.41396","25.1585183333333","6502300","八里區"
"249002","305-UY","2019/10/15 20:29:15","新北市八里區龍米路二段32巷23號","121.448728333333","25.141185","6502300","八里區"
"249003","593-UM","2019/10/15 20:29:32","新北市八里區舊城路21號","121.399753333333","25.1467983333333","6502300","八里區"
"248002","678-BX","2019/10/15 20:29:22","新北市五股區新五路二段331號","121.443733333333","25.0873166666667","6501500","五股區"
"234023","9380-KE","2019/10/15 20:29:20","新北市永和區博愛街32巷17-1號","121.518878333333","25.0153066666667","6500400","永和區"
"234074","AAC-211","2019/10/15 20:29:33","新北市永和區豫溪街191巷7弄20號","121.523291666667","25.0109933333333","6500400","永和區"
"234003","AAC-295","2019/10/15 20:29:17","新北市永和區中正路618號","121.517036666667","25.0076783333333","6500400","永和區"
"243012","AAD-798","2019/10/15 20:29:21","新北市泰山區文化街29號","121.43509","25.0635533333333","6501600","泰山區"
"243010","297-R6","2019/10/15 20:19:52","新北市泰山區明志路二段254巷7號","121.426095","25.0477466666667","6501600","泰山區"
"243014","KEA-2801","2019/10/15 20:29:11","新北市泰山區泰林路二段469號","121.425416666667","25.063925","6501600","泰山區"
"243016","421-VK","2019/10/15 20:29:22","新北市泰山區文程路15號","121.42798","25.0494983333333","6501600","泰山區"
"243009","KEA-2215","2019/10/15 20:29:15","新北市泰山區憲訓路36號","121.42898","25.06469","6501600","泰山區"
"243011","KEA-2216","2019/10/15 20:29:12","新北市泰山區明志路三段118號","121.42492","25.040545","6501600","泰山區"
"243013","646-TV","2019/10/15 20:29:32","新北市泰山區中央路5巷1號","121.426621666667","25.043675","6501600","泰山區"
"243015","680-BX","2019/10/15 20:29:25","新北市泰山區仁德路80號","121.43303","25.0563483333333","6501600","泰山區"
"222003","436-BY","2019/10/15 20:29:31","新北市深坑區深坑街42號","121.614911666667","25.0016866666667","6501800","深坑區"
"222002","659-BX","2019/10/15 20:29:16","新北市深坑區萬福路51號","121.599863333333","25.0069416666667","6501800","深坑區"
"231061","002-UM","2019/10/15 20:29:31","新北市新店區安興路32號","121.515776666667","24.9703966666667","6500600","新店區"
"231058","0293-UT","2019/10/15 20:29:25","新北市新店區中央一街2號","121.528691666667","24.97224","6500600","新店區"
"231044","046-UY","2019/10/15 20:29:15","新北市新店區建國路155號","121.538698333333","24.9788","6500600","新店區"
"231060","106-UY","2019/10/15 20:29:16","新北市新店區錦秀路11巷94弄1號","121.480115","24.942235","6500600","新店區"
"231051","107-UY","2019/10/15 20:29:29","新北市新店區中央七街22號","121.529731666667","24.97513","6500600","新店區"
"231049","108-UY","2019/10/15 20:29:22","新北市新店區永業路81巷7弄2號","121.53057","24.9486483333333","6500600","新店區"
"231065","110-UY","2019/10/15 20:29:14","新北市新店區安祥路102巷46弄44號","121.486278333333","24.9635333333333","6500600","新店區"
"231068","187-VK","2019/10/15 20:29:18","新北市新店區中興路三段221號","121.543213333333","24.9828433333333","6500600","新店區"
"231062","256-BX","2019/10/15 20:29:13","新北市新店區安泰路60巷55弄131號","121.484265","24.9468266666667","6500600","新店區"
"231054","260-TV","2019/10/15 20:29:23","新北市新店區檳榔路113號","121.5446","24.961465","6500600","新店區"
"231042","268-BY","2019/10/15 20:29:18","新北市新店區寶橋路230號","121.551471666667","24.9788783333333","6500600","新店區"
"231064","278-BY","2019/10/15 20:29:32","新北市新店區永安街56巷17號","121.51881","24.985875","6500600","新店區"
"231050","AAD-862","2019/10/15 20:29:14","新北市新店區建興街9巷1號","121.539906666667","24.9762966666667","6500600","新店區"
"231045","355-BY","2019/10/15 20:29:17","新北市新店區新坡一街85號","121.548931666667","24.9645233333333","6500600","新店區"
"231055","4716-K9","2019/10/15 20:29:27","新北市新店區光明街151號","121.53932","24.9623783333333","6500600","新店區"
"231056","4715-K9","2019/10/15 20:29:33","新北市新店區中央六街46號","121.528441666667","24.9755266666667","6500600","新店區"
"231067","4772-VM","2019/10/15 20:29:22","新北市新店區安華路28-1號","121.519873333333","24.9609566666667","6500600","新店區"
"231053","513-UM","2019/10/15 20:29:27","新北市新店區松林路36號","121.546216666667","24.9102466666667","6500600","新店區"
"231063","616-UM","2019/10/15 20:29:29","新北市新店區安康路二段382號","121.500435","24.9570416666667","6500600","新店區"
"231040","617-UM","2019/10/15 20:29:22","新北市新店區三民路121號","121.534846666667","24.9723233333333","6500600","新店區"
"231041","619-UM","2019/10/15 20:29:23","新北市新店區民權路149號","121.534545","24.9826083333333","6500600","新店區"
"231048","KED-0819","2019/10/15 20:29:28","新北市新店區寶元路一段65號","121.54217","24.985815","6500600","新店區"
"231057","720-UM","2019/10/15 20:29:20","新北市新店區花園六路二段7號","121.555415","24.93345","6500600","新店區"
"231059","897-TW","2019/10/15 20:29:21","新北市新店區安德街151號","121.508333333333","24.9597916666667","6500600","新店區"
"231043","899-TW","2019/10/15 20:29:28","新北市新店區民族路20號","121.541015","24.9787716666667","6500600","新店區"
"231066","AKT-0513","2019/10/15 20:29:27","新北市新店區安興路81號","121.515388333333","24.9753966666667","6500600","新店區"
"241011","013-R5","2019/10/15 20:29:28","新北市三重區龍門路42號","121.496078333333","25.0723716666667","6500200","三重區"
"241028","022-UY","2019/10/15 20:29:26","新北市三重區光興街91號","121.497413333333","25.0599266666667","6500200","三重區"
"241008","059-VK","2019/10/15 20:29:31","新北市三重區下竹圍街42-1號","121.481058333333","25.0748933333333","6500200","三重區"
"241002","060-VK","2019/10/15 20:29:14","新北市三重區仁義街211巷55號","121.498356666667","25.082755","6500200","三重區"
"241031","061-VK","2019/10/15 20:29:13","新北市三重區三寧街15號","121.489363333333","25.0597283333333","6500200","三重區"
"241017","063-VK","2019/10/15 20:29:21","新北市三重區自強路一段201號","121.491591666667","25.068325","6500200","三重區"
"241024","065-VK","2019/10/15 20:29:14","新北市三重區三民街247號","121.479648333333","25.067705","6500200","三重區"
"241007","066-VK","2019/10/15 20:29:21","新北市三重區福隆路2號","121.489378333333","25.07741","6500200","三重區"
"241003","091-VK","2019/10/15 20:29:28","新北市三重區富華街135-1號","121.492803333333","25.0846533333333","6500200","三重區"
"241015","742-BX","2019/10/15 20:29:19","新北市三重區文化北路61-4號","121.498575","25.0663066666667","6500200","三重區"
"241006","262-UM","2019/10/15 20:29:18","新北市三重區車路頭街137號","121.484206666667","25.076205","6500200","三重區"
"241016","266-UM","2019/10/15 20:29:27","新北市三重區大智街35號","121.49395","25.066085","6500200","三重區"
"241009","267-UM","2019/10/15 20:29:26","新北市三重區三和路四段390巷59號","121.479511666667","25.0786733333333","6500200","三重區"
"241018","268-UM","2019/10/15 20:29:28","新北市三重區正義北路216巷14號","121.49575","25.0673583333333","6500200","三重區"
"241032","269-UM","2019/10/15 20:29:34","新北市三重區重陽路一段120巷46號","121.485108333333","25.0601333333333","6500200","三重區"
"241013","270-UM","2019/10/15 20:29:18","新北市三重區溪尾街2號","121.491628333333","25.0742266666667","6500200","三重區"
"241025","271-UM","2019/10/15 20:29:21","新北市三重區頂崁街210巷23弄1號","121.47582","25.06813","6500200","三重區"
"241030","KED-0822","2019/10/15 20:29:27","新北市三重區成功路62號","121.488588333333","25.0509383333333","6500200","三重區"
"241035","462-BY","2019/10/15 20:29:20","新北市三重區正義北路154號","121.496528333333","25.0663833333333","6500200","三重區"
"241004","475-VK","2019/10/15 20:29:17","新北市三重區溪尾街229號","121.488275","25.0811883333333","6500200","三重區"
"241020","478-VK","2019/10/15 20:29:28","新北市三重區忠孝路一段21號","121.492021666667","25.0719416666667","6500200","三重區"
"241026","480-VK","2019/10/15 20:29:18","新北市三重區中央南路17號","121.501023333333","25.0625","6500200","三重區"
"241014","543-UM","2019/10/15 20:29:32","新北市三重區長興街105號","121.501895","25.0692166666667","6500200","三重區"
"241001","547-UM","2019/10/15 20:29:20","新北市三重區三和路四段160巷66號","121.48611","25.0749966666667","6500200","三重區"
"241019","KEA-2593","2019/10/15 20:29:27","新北市三重區重陽路四段56號","121.491706666667","25.0701866666667","6500200","三重區"
"241005","AAD-863","2019/10/15 20:29:32","新北市三重區五華街141巷58號","121.493401666667","25.086595","6500200","三重區"
"241022","KED-0820","2019/10/15 20:29:30","新北市三重區中正北路20巷12號","121.488008333333","25.0624666666667","6500200","三重區"
"241023","887-TS","2019/10/15 20:29:21","新北市三重區自由街17巷2號","121.479798333333","25.0666583333333","6500200","三重區"
"241029","942-UM","2019/10/15 20:29:33","新北市三重區集美街225號","121.491981666667","25.0551266666667","6500200","三重區"
"241033","AAC-255","2019/10/15 20:29:13","新北市三重區五谷王北街80巷3號","121.475901666667","25.053255","6500200","三重區"
"235066","003-UY","2019/10/15 20:29:15","新北市中和區水源路102號","121.506045","25.003415","6500300","中和區"
"235055","183-VK","2019/10/15 20:29:12","新北市林口區太平里180號","121.36822","25.1346966666667","6500300","中和區"
"247016","KEA-2869","2019/10/15 20:29:32","新北市蘆洲區光華路92號","121.467658333333","25.0826616666667","6501400","蘆洲區"
"247010","KED-0682","2019/10/15 20:29:19","新北市蘆洲區信義路224號","121.478943333333","25.0852116666667","6501400","蘆洲區"
"235050","4979-A6","2019/10/15 20:29:14","新北市中和區景新街162號","121.505765","24.9972183333333","6500300","中和區"
"235069","4980-A6","2019/10/15 20:29:28","新北市中和區中正路548號","121.487213333333","24.9946966666667","6500300","中和區"
"235059","AAC-215","2019/10/15 20:29:30","新北市中和區員山路36巷9號","121.483086666667","24.9908616666667","6500300","中和區"
"247006","893-R6","2019/10/15 20:29:24","新北市蘆洲區九芎街136號","121.465088333333","25.0790666666667","6501400","蘆洲區"
"247004","500-BY","2019/10/15 20:29:22","新北市蘆洲區長安街297號","121.458146666667","25.0848516666667","6501400","蘆洲區"
"247020","341-TH","2019/10/15 20:29:16","新北市蘆洲區仁愛街161巷33-1號","121.468496666667","25.0941683333333","6501400","蘆洲區"
"247012","337-TH","2019/10/15 20:29:23","新北市蘆洲區復興路292號","121.480953333333","25.089895","6501400","蘆洲區"
"247024","057-VK","2019/10/15 20:29:17","新北市蘆洲區長興路50巷16號","121.464908333333","25.084705","6501400","蘆洲區"
"247014","056-VK","2019/10/15 20:29:20","新北市蘆洲區中山二路77號","121.473211666667","25.081935","6501400","蘆洲區"
"247018","053-VK","2019/10/15 20:29:24","新北市蘆洲區民族路336巷40號","121.47822","25.09137","6501400","蘆洲區"
"247022","007-UY","2019/10/15 20:29:22","新北市蘆洲區中正路217號","121.468218333333","25.0862733333333","6501400","蘆洲區"
"247008","002-UY","2019/10/15 20:29:27","新北市蘆洲區永安北路二段76巷22號","121.482863333333","25.0852183333333","6501400","蘆洲區"
"247002","001-UY","2019/10/15 20:29:25","新北市蘆洲區長安街361巷14號","121.45644","25.0874916666667","6501400","蘆洲區"
"222001","KEA-2212","2019/10/15 20:29:27","新北市深坑區北深路三段272號","121.598276666667","25.0047083333333","6501800","深坑區"
"251001","011-UM","2019/10/15 20:29:29","新北市淡水區新市一路三段16號","121.445151666667","25.182835","6501000","淡水區"
"251002","012-UM","2019/10/15 20:29:22","新北市淡水區中正路23號","121.44259","25.1695733333333","6501000","淡水區"
"251015","KEA-2871","2019/10/15 20:29:26","新北市淡水區埤島3-20號","121.446986666667","25.1916083333333","6501000","淡水區"
"251016","179-VK","2019/10/15 20:29:25","新北市淡水區新埔子11-7號","121.447475","25.228495","6501000","淡水區"
"251008","181-VK","2019/10/15 20:29:28","新北市淡水區淡海路189巷9號","121.419613333333","25.1842166666667","6501000","淡水區"
"251013","182-VK","2019/10/15 20:29:20","新北市淡水區後坑子7號","121.463951666667","25.20571","6501000","淡水區"
"251010","413-VK","2019/10/15 20:29:27","新北市淡水區沙崙路181巷15號","121.423926666667","25.1843316666667","6501000","淡水區"
"251007","442-VK","2019/10/15 20:18:00","新北市淡水區淡金路一段69號","121.458056666667","25.173545","6501000","淡水區"
"251012","443-VK","2019/10/15 20:29:13","新北市淡水區興仁路46巷3號","121.45387","25.216675","6501000","淡水區"
"251014","577-R6","2019/10/15 20:29:27","新北市淡水區石頭厝8-6號","121.45899","25.2371033333333","6501000","淡水區"
"251003","673-BX","2019/10/15 20:29:26","新北市淡水區新生街92號","121.439576666667","25.174775","6501000","淡水區"
"251006","757-BX","2019/10/15 20:29:24","新北市淡水區商工路361號","121.469375","25.1856133333333","6501000","淡水區"
"207004","291-VK","2019/10/15 20:29:24","新北市萬里區北基里忠三街16號","121.684745","25.1756233333333","6502800","萬里區"
"252002","178-VK","2019/10/15 20:29:28","新北市三芝區淡金路二段47-2號","121.50367","25.260555","6502100","三芝區"
"252001","KED-0821","2019/10/15 20:29:16","新北市三芝區中山路一段31號","121.500526666667","25.2579816666667","6502100","三芝區"
"242042","AAC-296","2019/10/15 20:29:23","新北市新莊區新北大道七段370號","121.41296","25.031095","6500500","新莊區"
"242061","986-R7","2019/10/15 20:29:28","新北市新莊區民安東路152號","121.431618333333","25.02058","6500500","新莊區"
"242005","751-BX","2019/10/15 20:29:28","新北市新莊區化成路746巷37號","121.466918333333","25.0580733333333","6500500","新莊區"
"242029","615-BX","2019/10/15 20:29:24","新北市新莊區昌平街19號","121.454358333333","25.0514033333333","6500500","新莊區"
"242027","613-BX","2019/10/15 20:29:24","新北市新莊區幸福路615號","121.451935","25.0491733333333","6500500","新莊區"
"242058","612-BX","2019/10/15 20:29:26","新北市新莊區四維路177號","121.422236666667","25.02131","6500500","新莊區"
"242048","566-BX","2019/10/15 20:29:27","新北市樹林區三俊街199巷20弄11號","121.42156","25.017655","6500500","新莊區"
"242054","497-BY","2019/10/15 20:29:27","新北市新莊區西盛街344巷9號","121.427501666667","25.0141","6500500","新莊區"
"242002","441-UM","2019/10/15 20:29:30","新北市新莊區中正路育農巷1號","121.45698","25.03792","6500500","新莊區"
"242007","440-UM","2019/10/15 20:29:11","新北市新莊區思源路337號","121.459826666667","25.04992","6500500","新莊區"
"242044","415-TV","2019/10/15 20:29:31","新北市新莊區龍安路66-16號","121.414703333333","25.0213333333333","6500500","新莊區"
"242013","413-TV","2019/10/15 20:29:22","新北市新莊區中榮街99號","121.444965","25.0527583333333","6500500","新莊區"
"242051","400-BY","2019/10/15 20:29:16","新北市新莊區民安西路263號","121.426171666667","25.0130216666667","6500500","新莊區"
"242025","362-BY","2019/10/15 20:29:27","新北市新莊區五工三路50巷21號","121.460563333333","25.0649066666667","6500500","新莊區"
"242023","353-BY","2019/10/15 20:29:26","新北市新莊區化成路1002號","121.465108333333","25.0647","6500500","新莊區"
"242015","132-UY","2019/10/15 20:29:19","新北市新莊區中平路46巷29號","121.44605","25.043845","6500500","新莊區"
"242039","135-UY","2019/10/15 20:29:29","新北市新莊區民安路361號","121.431393333333","25.023","6500500","新莊區"
"242056","172-VK","2019/10/15 20:29:26","新北市新莊區新莊路751巷85號","121.442965","25.030765","6500500","新莊區"
"242017","173-VK","2019/10/15 20:29:06","新北市新莊區中港二街95號","121.449355","25.0457216666667","6500500","新莊區"
"242032","175-VK","2019/10/15 20:29:24","新北市泰山區新生路177-2號","121.435181666667","25.0397266666667","6500500","新莊區"
"242021","KED-0687","2019/10/15 20:29:23","新北市新莊區公園路22號","121.448411666667","25.039045","6500500","新莊區"
"242037","348-TH","2019/10/15 20:29:30","新北市新莊區後港一路46巷4號","121.426115","25.0259466666667","6500500","新莊區"
"242009","349-TH","2019/10/15 20:29:12","新北市新莊區昌隆街58巷1弄12號","121.45538","25.0505916666667","6500500","新莊區"
"242034","350-TH","2019/10/15 20:29:15","新北市新莊區新泰路199巷6號","121.446713333333","25.0380866666667","6500500","新莊區"
"242019","351-TH","2019/10/15 20:29:10","新北市新莊區民樂街79號","121.457933333333","25.0429583333333","6500500","新莊區"
"221008","489-VK","2019/10/15 20:29:14","新北市汐止區康寧街75號","121.619361666667","25.0664466666667","6501100","汐止區"
"221036","130-UY","2019/10/15 20:29:10","新北市汐止區福安街37巷1號","121.662926666667","25.0649166666667","6501100","汐止區"
"221015","131-UY","2019/10/15 20:29:19","新北市汐止區建成路160巷16號","121.66192","25.0739616666667","6501100","汐止區"
"221010","269-BY","2019/10/15 20:29:16","新北市汐止區八連路二段161號","121.634666666667","25.0949383333333","6501100","汐止區"
"221012","278-VK","2019/10/15 20:29:24","新北市汐止區汐平路二段70號","121.698905","25.060885","6501100","汐止區"
"221023","279-VK","2019/10/15 20:29:19","新北市汐止區明峰街179-1號","121.628661666667","25.07","6501100","汐止區"
"221032","280-BY","2019/10/15 20:29:18","新北市汐止區弘道街53巷10號","121.618676666667","25.048835","6501100","汐止區"
"221027","281-BY","2019/10/15 20:29:22","新北市汐止區中正路214號","121.658366666667","25.0688966666667","6501100","汐止區"
"221029","298-VK","2019/10/15 20:29:16","新北市汐止區樟樹一路129巷31號","121.640535","25.0650466666667","6501100","汐止區"
"221021","299-VK","2019/10/15 20:29:21","新北市汐止區水源路一段286號","121.65428","25.0581566666667","6501100","汐止區"
"221031","353-TW","2019/10/15 20:29:21","新北市汐止區中興路150巷13號","121.632953333333","25.0649183333333","6501100","汐止區"
"221035","622-UM","2019/10/15 20:29:17","新北市汐止區長江街101-5號","121.658783333333","25.0730416666667","6501100","汐止區"
"221025","623-UM","2019/10/15 20:29:17","新北市汐止區水源路二段88巷1弄2號","121.65631","25.0558483333333","6501100","汐止區"
"221038","646-BX","2019/10/15 20:29:25","新北市汐止區水源路一段56-1號","121.657135","25.065385","6501100","汐止區"
"221033","647-BX","2019/10/15 20:29:28","新北市汐止區林森街73巷5號","121.62355","25.0409333333333","6501100","汐止區"
"221002","707-TV","2019/10/15 20:29:30","新北市汐止區福德二路50號","121.634263333333","25.0673083333333","6501100","汐止區"
"221018","753-BX","2019/10/15 20:25:52","新北市汐止區茄苳路225巷9弄1號","121.671373333333","25.0692166666667","6501100","汐止區"
"220083","286-VK","2019/10/15 20:29:21","新北市板橋區僑中二街104巷39號","121.444546666667","25.0080883333333","6500100","板橋區"
"220081","287-VK","2019/10/15 20:29:28","新北市板橋區僑中一街80巷1弄17號","121.446728333333","25.0119966666667","6500100","板橋區"
"242046","281-VK","2019/10/15 20:29:33","新北市新莊區裕民街72巷5號","121.418286666667","25.0241816666667","6500500","新莊區"
"242011","280-VK","2019/10/15 20:29:23","新北市新莊區中義街37號","121.449931666667","25.0511133333333","6500500","新莊區"
"220055","827-TW","2019/10/15 20:29:12","新北市板橋區仁愛路30號","121.45893","24.9993866666667","6500100","板橋區"
