"lineid","car","time","location","longitude","latitude","cityid","cityname"
"234061","AAD-866","2019/10/15 20:39:13","新北市永和區中正路381號","121.51713","25.0036966666667","6500400","永和區"
"234067","748-BX","2019/10/15 20:39:19","新北市永和區保平路292巷4號","121.507846666667","25.00481","6500400","永和區"
"234042","862-TW","2019/10/15 20:39:13","新北市永和區安樂路348號","121.514441666667","25.00644","6500400","永和區"
"249001","173-UM","2019/10/15 20:39:32","新北市八里區中山路三段335號","121.377353333333","25.13878","6502300","八里區"
"249004","303-UY","2019/10/15 20:39:28","新北市八里區中山路一段336號","121.412636666667","25.159","6502300","八里區"
"234074","AAC-211","2019/10/15 20:39:31","新北市永和區竹林路119巷4弄2號","121.520448333333","25.0113766666667","6500400","永和區"
"243009","KEA-2215","2019/10/15 20:39:15","新北市泰山區泰林路二段542巷1弄1號","121.423376666667","25.0640933333333","6501600","泰山區"
"222003","436-BY","2019/10/15 20:39:31","新北市深坑區文山路二段30巷31號","121.615618333333","24.9987416666667","6501800","深坑區"
"222002","659-BX","2019/10/15 20:39:33","新北市深坑區萬福路37號","121.599083333333","25.0066866666667","6501800","深坑區"
"231061","002-UM","2019/10/15 20:39:31","新北市新店區新和街34號","121.519111666667","24.9847583333333","6500600","新店區"
"231058","0293-UT","2019/10/15 20:39:25","新北市新店區自由街55號","121.534351666667","24.9734616666667","6500600","新店區"
"231044","046-UY","2019/10/15 20:39:15","新北市新店區建國路291巷2號","121.536575","24.9860983333333","6500600","新店區"
"231060","106-UY","2019/10/15 20:39:16","新北市新店區錦秀路48號","121.479046666667","24.9434283333333","6500600","新店區"
"231051","107-UY","2019/10/15 20:39:29","新北市新店區中央七街99號","121.526213333333","24.9773833333333","6500600","新店區"
"231049","108-UY","2019/10/15 20:39:22","新北市新店區永業路81巷5弄25號","121.53084","24.949675","6500600","新店區"
"231065","110-UY","2019/10/15 20:39:14","新北市新店區安祥路102巷22號","121.483616666667","24.9639166666667","6500600","新店區"
"231068","187-VK","2019/10/15 20:39:23","新北市新店區寶慶街35巷1弄2號","121.543178333333","24.9863483333333","6500600","新店區"
"231062","256-BX","2019/10/15 20:39:33","新北市新店區安泰路60巷55弄117號","121.484535","24.9463783333333","6500600","新店區"
"231054","260-TV","2019/10/15 20:39:22","新北市新店區北新路一段64巷35號","121.542266666667","24.9657383333333","6500600","新店區"
"231042","268-BY","2019/10/15 20:39:18","新北市新店區寶高路116號","121.554548333333","24.9760583333333","6500600","新店區"
"231064","278-BY","2019/10/15 20:39:21","新北市新店區永平街16巷22號","121.517188333333","24.9842816666667","6500600","新店區"
"231050","AAD-862","2019/10/15 20:39:14","新北市新店區中正路265號","121.538013333333","24.9739183333333","6500600","新店區"
"231045","355-BY","2019/10/15 20:39:17","新北市新店區長春路159號","121.557953333333","24.9616716666667","6500600","新店區"
"231055","4716-K9","2019/10/15 20:39:27","新北市新店區薏仁坑路2-1號","121.50061","24.9581166666667","6500600","新店區"
"231056","4715-K9","2019/10/15 20:39:13","新北市新店區中央三街85號","121.525786666667","24.97565","6500600","新店區"
"231067","4772-VM","2019/10/15 20:39:22","新北市新店區安華路28-1號","121.519756666667","24.96097","6500600","新店區"
"231053","513-UM","2019/10/15 20:39:27","新北市新店區松林路53號","121.544438333333","24.9113333333333","6500600","新店區"
"231063","616-UM","2019/10/15 20:39:29","新北市新店區玫瑰路4-1號","121.493625","24.9513716666667","6500600","新店區"
"231040","617-UM","2019/10/15 20:39:15","新北市新店區中正路265巷32號","121.53768","24.9730166666667","6500600","新店區"
"231041","619-UM","2019/10/15 20:39:23","新北市新店區中正路543-3號","121.533581666667","24.9873883333333","6500600","新店區"
"231048","KED-0819","2019/10/15 20:39:28","新北市新店區寶慶街47號","121.542598333333","24.9865883333333","6500600","新店區"
"231057","720-UM","2019/10/15 20:39:20","新北市新店區花園二路一段9-6號","121.556316666667","24.93279","6500600","新店區"
"231059","897-TW","2019/10/15 20:39:21","新北市新店區安豐路46號","121.500096666667","24.95495","6500600","新店區"
"231043","899-TW","2019/10/15 20:39:28","新北市新店區建國路21號","121.540031666667","24.9737766666667","6500600","新店區"
"231066","AKT-0513","2019/10/15 20:39:27","新北市新店區安興路83號","121.515326666667","24.9753933333333","6500600","新店區"
"241011","013-R5","2019/10/15 20:39:28","新北市三重區龍濱路285號","121.501083333333","25.073345","6500200","三重區"
"241028","022-UY","2019/10/15 20:39:26","新北市三重區中正南路58號","121.494003333333","25.0597483333333","6500200","三重區"
"241008","059-VK","2019/10/15 20:39:11","新北市三重區下竹圍街42-1號","121.480991666667","25.0749266666667","6500200","三重區"
"241002","060-VK","2019/10/15 20:39:34","新北市三重區仁義街167巷1號","121.497246666667","25.0815833333333","6500200","三重區"
"241031","061-VK","2019/10/15 20:39:13","新北市三重區重陽路一段43巷30號","121.488206666667","25.058605","6500200","三重區"
"241017","063-VK","2019/10/15 20:39:21","新北市三重區大同北路273號","121.490826666667","25.0673966666667","6500200","三重區"
"241024","065-VK","2019/10/15 20:39:14","新北市三重區忠孝路三段65巷6號","121.480305","25.0663333333333","6500200","三重區"
"241007","066-VK","2019/10/15 20:39:21","新北市三重區自強路四段32-2號","121.488866666667","25.0770366666667","6500200","三重區"
"241003","091-VK","2019/10/15 20:39:28","新北市三重區五華街141巷58號","121.493523333333","25.0867316666667","6500200","三重區"
"241015","742-BX","2019/10/15 20:39:19","新北市三重區文化北路105號","121.497873333333","25.06845","6500200","三重區"
"241006","262-UM","2019/10/15 20:39:18","新北市三重區車路頭街135-1號","121.484213333333","25.0761733333333","6500200","三重區"
"241016","266-UM","2019/10/15 20:39:26","新北市三重區自強路一段133號","121.494955","25.066455","6500200","三重區"
"241009","267-UM","2019/10/15 20:39:25","新北市三重區碧華街59號","121.484813333333","25.0813416666667","6500200","三重區"
"241018","268-UM","2019/10/15 20:39:28","新北市三重區重陽路四段99號","121.492856666667","25.07147","6500200","三重區"
"241032","269-UM","2019/10/15 20:39:14","新北市三重區重陽路一段120巷46號","121.485091666667","25.060135","6500200","三重區"
"241013","270-UM","2019/10/15 20:39:15","新北市三重區三和路四段12號","121.49155","25.0738833333333","6500200","三重區"
"241025","271-UM","2019/10/15 20:39:21","新北市三重區大有街1-41號","121.47649","25.0654183333333","6500200","三重區"
"241030","KED-0822","2019/10/15 20:39:27","新北市三重區成功路73巷12號","121.489385","25.0519283333333","6500200","三重區"
"241035","462-BY","2019/10/15 20:39:20","新北市三重區正義北路388號","121.493293333333","25.0715883333333","6500200","三重區"
"241004","475-VK","2019/10/15 20:39:17","新北市三重區仁愛街409號","121.49079","25.08122","6500200","三重區"
"241020","478-VK","2019/10/15 20:39:30","新北市三重區忠孝路一段87號","121.4898","25.0720816666667","6500200","三重區"
"241026","480-VK","2019/10/15 20:39:18","新北市三重區文化南路8號","121.5001","25.0624266666667","6500200","三重區"
"241014","543-UM","2019/10/15 20:39:32","新北市三重區萬壽街14號","121.499311666667","25.069355","6500200","三重區"
"241001","547-UM","2019/10/15 20:39:20","新北市三重區自強路三段110巷27號","121.48591","25.0745033333333","6500200","三重區"
"241019","KEA-2593","2019/10/15 20:39:27","新北市三重區忠孝路一段10巷14號","121.491713333333","25.0714683333333","6500200","三重區"
"241005","AAD-863","2019/10/15 20:39:31","新北市三重區五華街167號","121.490238333333","25.0850733333333","6500200","三重區"
"241022","KED-0820","2019/10/15 20:39:30","新北市三重區新北大道一段17號","121.487998333333","25.06105","6500200","三重區"
"241023","887-TS","2019/10/15 20:39:21","新北市三重區自由街18巷21號","121.478883333333","25.066485","6500200","三重區"
"241029","942-UM","2019/10/15 20:39:13","新北市三重區集美街126巷25號","121.490011666667","25.0538483333333","6500200","三重區"
"241033","AAC-255","2019/10/15 20:39:13","新北市三重區光復路二段49號","121.472286666667","25.055985","6500200","三重區"
"235055","183-VK","2019/10/15 20:39:12","新北市八里區中華路三段62號","121.394211666667","25.1408166666667","6500300","中和區"
"247016","KEA-2869","2019/10/15 20:39:32","新北市蘆洲區中山二路273號","121.469468333333","25.079325","6501400","蘆洲區"
"247010","KED-0682","2019/10/15 20:39:19","新北市蘆洲區中山一路138號","121.476236666667","25.08171","6501400","蘆洲區"
"235069","4980-A6","2019/10/15 20:39:07","新北市中和區新生街136號","121.483521666667","25.001025","6500300","中和區"
"247006","893-R6","2019/10/15 20:39:21","新北市蘆洲區和平路172號","121.466498333333","25.0813116666667","6501400","蘆洲區"
"247004","500-BY","2019/10/15 20:39:22","新北市蘆洲區長安街295號","121.458101666667","25.08475","6501400","蘆洲區"
"247020","341-TH","2019/10/15 20:39:19","新北市蘆洲區民族路424號","121.473836666667","25.0918016666667","6501400","蘆洲區"
"247012","337-TH","2019/10/15 20:39:30","新北市蘆洲區集賢路224巷46弄30-2號","121.481591666667","25.0875816666667","6501400","蘆洲區"
"247024","057-VK","2019/10/15 20:39:17","新北市蘆洲區長樂路53號","121.463128333333","25.0861","6501400","蘆洲區"
"247014","056-VK","2019/10/15 20:39:20","新北市蘆洲區成功路74號","121.47312","25.0811633333333","6501400","蘆洲區"
"247022","007-UY","2019/10/15 20:39:22","新北市蘆洲區中正路185巷46弄36號","121.466681666667","25.0860933333333","6501400","蘆洲區"
"247008","002-UY","2019/10/15 20:39:32","新北市蘆洲區集賢路281號","121.481246666667","25.08292","6501400","蘆洲區"
"247002","001-UY","2019/10/15 20:39:25","新北市蘆洲區長榮路394號","121.459608333333","25.087485","6501400","蘆洲區"
"222001","KEA-2212","2019/10/15 20:39:26","新北市深坑區北深路三段234號","121.600643333333","25.0039833333333","6501800","深坑區"
"251001","011-UM","2019/10/15 20:39:29","新北市淡水區淡金路一段156號","121.45502","25.1782733333333","6501000","淡水區"
"251002","012-UM","2019/10/15 20:39:22","新北市淡水區中正路36號","121.443806666667","25.1692383333333","6501000","淡水區"
"251015","KEA-2871","2019/10/15 20:39:27","新北市淡水區淡金路三段446號","121.450798333333","25.2144166666667","6501000","淡水區"
"251016","179-VK","2019/10/15 20:39:25","新北市淡水區後洲子8-2號","121.449536666667","25.2240216666667","6501000","淡水區"
"251013","182-VK","2019/10/15 20:39:20","新北市淡水區下圭柔山28巷10號","121.457483333333","25.204065","6501000","淡水區"
"251010","413-VK","2019/10/15 20:39:27","新北市淡水區沙崙路181巷15號","121.423981666667","25.18434","6501000","淡水區"
"251007","442-VK","2019/10/15 20:39:28","新北市淡水區忠愛街4-1號","121.458615","25.171375","6501000","淡水區"
"251012","443-VK","2019/10/15 20:39:33","新北市淡水區興仁路108號","121.4517","25.2181416666667","6501000","淡水區"
"251014","577-R6","2019/10/15 20:39:27","新北市淡水區公埔子38號","121.464675","25.23275","6501000","淡水區"
"251003","673-BX","2019/10/15 20:39:26","新北市淡水區新民街120巷17號","121.43826","25.1780283333333","6501000","淡水區"
"251006","757-BX","2019/10/15 20:39:24","新北市淡水區商工路196巷8號","121.451286666667","25.18665","6501000","淡水區"
"252002","178-VK","2019/10/15 20:39:28","新北市三芝區淡金路二段91號","121.504096666667","25.260865","6502100","三芝區"
"252001","KED-0821","2019/10/15 20:39:16","新北市三芝區中山路一段87號","121.501188333333","25.2566233333333","6502100","三芝區"
"242042","AAC-296","2019/10/15 20:39:23","新北市新莊區中正路694巷77號","121.417123333333","25.0296183333333","6500500","新莊區"
"242061","986-R7","2019/10/15 20:39:33","新北市新莊區新樹路248-1號","121.432261666667","25.0182733333333","6500500","新莊區"
"242005","751-BX","2019/10/15 20:39:28","新北市新莊區化成路371巷30弄2號","121.463213333333","25.057065","6500500","新莊區"
"242029","615-BX","2019/10/15 20:39:24","新北市新莊區中華路二段65號","121.45293","25.04736","6500500","新莊區"
"242027","613-BX","2019/10/15 20:39:24","新北市新莊區幸福路19號","121.45912","25.0494516666667","6500500","新莊區"
"242058","612-BX","2019/10/15 20:39:26","新北市新莊區四維路148號","121.423051666667","25.023245","6500500","新莊區"
"242048","566-BX","2019/10/15 20:39:27","新北市新莊區中正路863-2號","121.418783333333","25.0276483333333","6500500","新莊區"
"242054","497-BY","2019/10/15 20:39:29","新北市新莊區民安西路230號","121.425953333333","25.0143866666667","6500500","新莊區"
"242002","441-UM","2019/10/15 20:39:33","新北市新莊區中港路11號","121.454973333333","25.0371916666667","6500500","新莊區"
"242007","440-UM","2019/10/15 20:39:31","新北市新莊區思源路287巷2弄13號","121.459205","25.04882","6500500","新莊區"
"242044","415-TV","2019/10/15 20:39:31","新北市新莊區龍安路74號","121.416981666667","25.0210716666667","6500500","新莊區"
"242013","413-TV","2019/10/15 20:39:22","新北市新莊區中和街175巷10號","121.447396666667","25.0506783333333","6500500","新莊區"
"242051","400-BY","2019/10/15 20:39:16","新北市新莊區民安西路173巷5號","121.426681666667","25.0159483333333","6500500","新莊區"
"242025","362-BY","2019/10/15 20:39:17","新北市三重區重光街97號","121.466725","25.0646616666667","6500500","新莊區"
"242023","353-BY","2019/10/15 20:39:26","新北市新莊區化成路205號","121.465886666667","25.0509766666667","6500500","新莊區"
"242015","132-UY","2019/10/15 20:39:19","新北市新莊區中和街21號","121.44821","25.0437616666667","6500500","新莊區"
"242039","135-UY","2019/10/15 20:39:29","新北市新莊區瓊林北路17號","121.439123333333","25.02198","6500500","新莊區"
"242056","172-VK","2019/10/15 20:39:24","新北市新莊區瓊泰路94巷34號","121.444336666667","25.0294083333333","6500500","新莊區"
"242017","173-VK","2019/10/15 20:39:26","新北市新莊區中港三街101號","121.449023333333","25.0461183333333","6500500","新莊區"
"242032","175-VK","2019/10/15 20:39:24","新北市新莊區中正路508巷5號","121.435785","25.0333166666667","6500500","新莊區"
"242021","KED-0687","2019/10/15 20:39:23","新北市新莊區中華路一段108號","121.452406666667","25.0401616666667","6500500","新莊區"
"242037","348-TH","2019/10/15 20:39:30","新北市新莊區建安街16巷3號","121.428471666667","25.0263583333333","6500500","新莊區"
"242009","349-TH","2019/10/15 20:39:32","新北市新莊區昌隆街73號","121.457146666667","25.051055","6500500","新莊區"
"242034","350-TH","2019/10/15 20:39:15","新北市新莊區中正路334巷9號","121.445581666667","25.035275","6500500","新莊區"
"242019","351-TH","2019/10/15 20:39:31","新北市新莊區銘德街139號","121.454726666667","25.042835","6500500","新莊區"
"221008","489-VK","2019/10/15 20:39:14","新北市汐止區康寧街504號","121.63298","25.06852","6501100","汐止區"
"221036","130-UY","2019/10/15 20:39:29","新北市汐止區新昌路7號","121.662073333333","25.0672233333333","6501100","汐止區"
"221015","131-UY","2019/10/15 20:39:19","新北市汐止區建成路37巷1號","121.663686666667","25.0727766666667","6501100","汐止區"
"221010","269-BY","2019/10/15 20:39:16","新北市汐止區八連路二段616號","121.625286666667","25.10976","6501100","汐止區"
"221012","278-VK","2019/10/15 20:39:24","新北市汐止區保新街133-1號","121.687966666667","25.070455","6501100","汐止區"
"221023","279-VK","2019/10/15 20:39:19","新北市汐止區湖東街21號","121.635658333333","25.072545","6501100","汐止區"
"221032","280-BY","2019/10/15 20:39:18","新北市汐止區弘道街53巷30弄6號","121.61918","25.0499933333333","6501100","汐止區"
"221029","298-VK","2019/10/15 20:39:16","新北市汐止區大同路一段505號","121.645036666667","25.06247","6501100","汐止區"
"221021","299-VK","2019/10/15 20:39:21","新北市汐止區水源路一段295號","121.654333333333","25.0581433333333","6501100","汐止區"
"221031","353-TW","2019/10/15 20:39:21","新北市汐止區福德一路237號","121.634255","25.0647116666667","6501100","汐止區"
"221035","622-UM","2019/10/15 20:39:17","新北市汐止區長江街101-5號","121.658756666667","25.0731483333333","6501100","汐止區"
"221025","623-UM","2019/10/15 20:39:17","新北市汐止區水源路二段189號","121.657793333333","25.0533283333333","6501100","汐止區"
"221038","646-BX","2019/10/15 20:39:25","新北市汐止區大同路二段200號","121.653618333333","25.0645766666667","6501100","汐止區"
"221033","647-BX","2019/10/15 20:39:28","新北市汐止區合順街18巷8弄5號","121.620333333333","25.041925","6501100","汐止區"
"221002","707-TV","2019/10/15 20:39:29","新北市汐止區福德二路169號","121.630845","25.065165","6501100","汐止區"
"221018","753-BX","2019/10/15 20:39:32","新北市汐止區茄苳路70號","121.666755","25.0706433333333","6501100","汐止區"
"220083","286-VK","2019/10/15 20:39:24","新北市板橋區僑中二街116巷9-3號","121.445256666667","25.0064583333333","6500100","板橋區"
"242046","281-VK","2019/10/15 20:39:13","新北市新莊區中正路879-17號","121.418303333333","25.0257616666667","6500500","新莊區"
"242011","280-VK","2019/10/15 20:39:23","新北市新莊區中榮街122巷2號","121.446661666667","25.0531133333333","6500500","新莊區"
