"lineid","car","time","location","longitude","latitude","cityid","cityname"
"231061","002-UM","2019/10/15 21:09:31","新北市新店區永平街33號","121.516476666667","24.9836","6500600","新店區"
"231060","106-UY","2019/10/15 21:09:16","新北市新店區安康路三段165巷2-1號","121.489465","24.9517483333333","6500600","新店區"
"231051","107-UY","2019/10/15 21:09:29","新北市新店區中正路700巷72號","121.536115","24.9925466666667","6500600","新店區"
"231065","110-UY","2019/10/15 21:09:34","新北市新店區安祥路41號","121.48509","24.9602666666667","6500600","新店區"
"231068","187-VK","2019/10/15 21:09:18","新北市新店區安康路一段355-4號","121.517358333333","24.9639616666667","6500600","新店區"
"231062","256-BX","2019/10/15 21:09:13","新北市新店區安康路二段337-1號","121.498526666667","24.9560516666667","6500600","新店區"
"231054","260-TV","2019/10/15 21:09:22","新北市新店區檳榔路4號","121.540983333333","24.964805","6500600","新店區"
"231042","268-BY","2019/10/15 21:08:58","新北市新店區吉安街37-1號","121.515685","24.9661466666667","6500600","新店區"
"231064","278-BY","2019/10/15 21:09:21","新北市新店區薏仁坑路自強巷6號","121.496403333333","24.95843","6500600","新店區"
"231050","AAD-862","2019/10/15 21:09:14","新北市新店區中華路83巷4弄11號","121.538395","24.9684583333333","6500600","新店區"
"231063","616-UM","2019/10/15 21:09:29","新北市新店區玫瑰路66巷1號","121.495955","24.9452366666667","6500600","新店區"
"231040","617-UM","2019/10/15 21:09:15","新北市新店區光明街211號","121.540045","24.9638566666667","6500600","新店區"
"231059","897-TW","2019/10/15 21:09:21","新北市新店區僑信路60號","121.49934","24.9495783333333","6500600","新店區"
"241011","013-R5","2019/10/15 21:09:28","新北市三重區龍濱路241號","121.501598333333","25.07239","6500200","三重區"
"241028","022-UY","2019/10/15 21:09:26","新北市三重區正義南路137號","121.498893333333","25.0577","6500200","三重區"
"241008","059-VK","2019/10/15 21:09:30","新北市三重區自強路一段62號","121.497251666667","25.066675","6500200","三重區"
"241002","060-VK","2019/10/15 21:09:34","新北市三重區五華街11號","121.494995","25.0803083333333","6500200","三重區"
"241031","061-VK","2019/10/15 21:09:13","新北市三重區後埔街82-1號","121.477553333333","25.0466266666667","6500200","三重區"
"241017","063-VK","2019/10/15 21:09:21","新北市三重區國隆路30號","121.492281666667","25.0643316666667","6500200","三重區"
"241024","065-VK","2019/10/15 21:09:14","新北市三重區大勇街82巷15弄30號","121.481235","25.0719516666667","6500200","三重區"
"241007","066-VK","2019/10/15 21:09:21","新北市三重區仁美街67號","121.486485","25.078575","6500200","三重區"
"241003","091-VK","2019/10/15 21:09:28","新北市三重區仁義街232號","121.494633333333","25.0851066666667","6500200","三重區"
"241015","742-BX","2019/10/15 21:09:31","新北市三重區長元街59號","121.502621666667","25.0664233333333","6500200","三重區"
"241006","262-UM","2019/10/15 21:09:18","新北市三重區中正北路2號","121.489288333333","25.0630683333333","6500200","三重區"
"241016","266-UM","2019/10/15 21:09:26","新北市三重區大智街12號","121.495233333333","25.0644883333333","6500200","三重區"
"241009","267-UM","2019/10/15 21:09:25","新北市三重區忠孝路二段122號","121.48305","25.068815","6500200","三重區"
"241018","268-UM","2019/10/15 21:09:28","新北市三重區正義北路330號","121.494486666667","25.0704566666667","6500200","三重區"
"241032","269-UM","2019/10/15 21:09:34","新北市三重區中山路279號","121.471301666667","25.0615583333333","6500200","三重區"
"241013","270-UM","2019/10/15 21:09:15","新北市三重區仁愛街83號","121.49586","25.073165","6500200","三重區"
"241025","271-UM","2019/10/15 21:09:21","新北市三重區忠孝路三段40巷16弄10號","121.482318333333","25.0669066666667","6500200","三重區"
"241030","KED-0822","2019/10/15 21:09:27","新北市三重區五谷王北街20巷15弄1號","121.47506","25.04845","6500200","三重區"
"241004","475-VK","2019/10/15 21:09:17","新北市三重區仁愛街420號","121.490371666667","25.0814033333333","6500200","三重區"
"241026","480-VK","2019/10/15 21:09:18","新北市三重區大同南路153-2號","121.49663","25.056525","6500200","三重區"
"241014","543-UM","2019/10/15 21:09:12","新北市三重區長安街82-1號","121.501383333333","25.0676783333333","6500200","三重區"
"241001","547-UM","2019/10/15 21:09:21","新北市三重區福隆路50號","121.492446666667","25.0784166666667","6500200","三重區"
"241019","KEA-2593","2019/10/15 21:09:27","新北市三重區三張街104號","121.487918333333","25.06991","6500200","三重區"
"241005","AAD-863","2019/10/15 21:09:12","新北市三重區仁華街85號","121.48569","25.0829683333333","6500200","三重區"
"241022","KED-0820","2019/10/15 21:09:30","新北市三重區中正北路64巷24號","121.486013333333","25.0637083333333","6500200","三重區"
"241023","887-TS","2019/10/15 21:09:24","新北市三重區洛陽街45巷27號","121.482588333333","25.0639566666667","6500200","三重區"
"241029","942-UM","2019/10/15 21:09:33","新北市三重區正義南路111號","121.49824","25.0585316666667","6500200","三重區"
"241033","AAC-255","2019/10/15 21:09:13","新北市三重區重化街3號","121.468133333333","25.064095","6500200","三重區"
"235055","183-VK","2019/10/15 21:09:32","新北市中和區員山路36巷12號","121.483976666667","24.990855","6500300","中和區"
"247016","KEA-2869","2019/10/15 21:09:12","新北市蘆洲區中正路185巷78弄1號","121.466075","25.0842566666667","6501400","蘆洲區"
"247010","KED-0682","2019/10/15 21:09:19","新北市蘆洲區三民路26巷35號","121.47725","25.08298","6501400","蘆洲區"
"235018","640-BX","2019/10/15 20:56:05","新北市中和區員山路36巷16-2號","121.485365","24.9915833333333","6500300","中和區"
"247006","893-R6","2019/10/15 21:09:26","新北市蘆洲區長安街22巷35號","121.464786666667","25.0800816666667","6501400","蘆洲區"
"247004","500-BY","2019/10/15 21:09:22","新北市蘆洲區永安南路二段322號","121.456991666667","25.0827433333333","6501400","蘆洲區"
"247020","341-TH","2019/10/15 21:09:19","新北市蘆洲區民族路351號","121.472251666667","25.091855","6501400","蘆洲區"
"247012","337-TH","2019/10/15 21:09:23","新北市蘆洲區民族路22號","121.476101666667","25.0841616666667","6501400","蘆洲區"
"247024","057-VK","2019/10/15 21:09:17","新北市蘆洲區長興路50巷1號","121.463736666667","25.0837683333333","6501400","蘆洲區"
"247014","056-VK","2019/10/15 21:09:20","新北市蘆洲區中央路155號","121.472583333333","25.0847116666667","6501400","蘆洲區"
"247022","007-UY","2019/10/15 21:09:22","新北市蘆洲區三民路229號","121.469533333333","25.0885283333333","6501400","蘆洲區"
"247008","002-UY","2019/10/15 21:09:32","新北市蘆洲區信義路30巷15號","121.474456666667","25.078725","6501400","蘆洲區"
"247002","001-UY","2019/10/15 21:09:25","新北市蘆洲區永樂街38巷40號","121.45863","25.09003","6501400","蘆洲區"
"251005","010-UM","2019/10/15 21:09:19","新北市淡水區博愛街45號","121.44652","25.1692733333333","6501000","淡水區"
"251001","011-UM","2019/10/15 21:09:29","新北市淡水區中山北路一段382號","121.444781666667","25.1828133333333","6501000","淡水區"
"251002","012-UM","2019/10/15 21:09:22","新北市淡水區水源街一段148號","121.44814","25.1715733333333","6501000","淡水區"
"251015","KEA-2871","2019/10/15 21:09:27","新北市淡水區淡金路四段542巷91號","121.45424","25.2251","6501000","淡水區"
"251016","179-VK","2019/10/15 21:09:25","新北市淡水區前洲子5-1號","121.44365","25.21845","6501000","淡水區"
"251004","180-VK","2019/10/15 21:09:16","新北市淡水區民族路33號","121.4623","25.1358216666667","6501000","淡水區"
"251008","181-VK","2019/10/15 21:09:28","新北市淡水區淡金路二段81號","121.45163","25.1814483333333","6501000","淡水區"
"251013","182-VK","2019/10/15 21:09:20","新北市淡水區水汴頭12號","121.469705","25.2032016666667","6501000","淡水區"
"251010","413-VK","2019/10/15 21:09:27","新北市淡水區中正路一段63巷7弄2號","121.423083333333","25.177315","6501000","淡水區"
"251007","442-VK","2019/10/15 21:09:28","新北市淡水區學府路104號","121.44981","25.171735","6501000","淡水區"
"251012","443-VK","2019/10/15 21:09:33","新北市淡水區淡金路五段156號","121.456763333333","25.2388066666667","6501000","淡水區"
"251009","575-R6","2019/10/15 21:09:19","新北市淡水區民權路187巷74弄5號","121.4618","25.1344283333333","6501000","淡水區"
"251014","577-R6","2019/10/15 21:09:27","新北市淡水區六塊厝3號","121.451075","25.240415","6501000","淡水區"
"251011","650-BX","2019/10/15 21:09:24","新北市淡水區新民街180巷7弄12號","121.437236666667","25.1797483333333","6501000","淡水區"
"251003","673-BX","2019/10/15 21:09:26","新北市淡水區新春街103-10號","121.440568333333","25.181835","6501000","淡水區"
"242025","362-BY","2019/10/15 21:09:17","新北市林口區太平里180號","121.366645","25.1343733333333","6500500","新莊區"
"242046","281-VK","2019/10/15 21:09:33","新北市五股區孝義路9-10號","121.450078333333","25.1068933333333","6500500","新莊區"
