"lineid","car","time","location","longitude","latitude","cityid","cityname"
"231051","107-UY","2019/10/15 21:19:29","新北市新店區安和路三段1-1號","121.517263333333","24.979615","6500600","新店區"
"231068","187-VK","2019/10/15 21:19:18","新北市新店區薏仁坑路自強巷1號","121.496781666667","24.9580133333333","6500600","新店區"
"231054","260-TV","2019/10/15 21:19:22","新北市新店區安光路10-1號","121.513583333333","24.9642833333333","6500600","新店區"
"231050","AAD-862","2019/10/15 21:19:14","新北市新店區中正路191號","121.540573333333","24.9722983333333","6500600","新店區"
"231063","616-UM","2019/10/15 21:19:08","新北市新店區吉祥街15巷1號","121.497733333333","24.9456016666667","6500600","新店區"
"231059","897-TW","2019/10/15 21:19:21","新北市新店區僑信路2巷2號","121.499781666667","24.95357","6500600","新店區"
"241011","013-R5","2019/10/15 21:19:28","新北市三重區龍濱路197號","121.501966666667","25.071345","6500200","三重區"
"241028","022-UY","2019/10/15 21:19:26","新北市三重區重安街28號","121.490608333333","25.0579433333333","6500200","三重區"
"241008","059-VK","2019/10/15 21:19:11","新北市三重區自強路一段125號","121.49522","25.066375","6500200","三重區"
"241002","060-VK","2019/10/15 21:19:14","新北市三重區五華街60號","121.4942","25.081315","6500200","三重區"
"241031","061-VK","2019/10/15 21:19:13","新北市三重區五谷王南街46巷37號","121.475741666667","25.0455033333333","6500200","三重區"
"241017","063-VK","2019/10/15 21:19:21","新北市三重區中正北路25巷25弄1號","121.493178333333","25.0625816666667","6500200","三重區"
"241024","065-VK","2019/10/15 21:19:14","新北市三重區中正北路145巷14號","121.484145","25.0677366666667","6500200","三重區"
"241007","066-VK","2019/10/15 21:19:21","新北市三重區正義北路239號","121.495703333333","25.0693616666667","6500200","三重區"
"241003","091-VK","2019/10/15 21:19:28","新北市三重區仁義街220巷2號","121.495335","25.0841316666667","6500200","三重區"
"241015","742-BX","2019/10/15 21:19:19","新北市三重區重新路二段24號","121.49928","25.062665","6500200","三重區"
"241006","262-UM","2019/10/15 21:19:18","新北市新莊區五權二路26-3號","121.459408333333","25.0689266666667","6500200","三重區"
"241016","266-UM","2019/10/15 21:19:26","新北市三重區自強路一段99號","121.495735","25.0662883333333","6500200","三重區"
"241009","267-UM","2019/10/15 21:19:25","新北市五股區成泰路一段98巷102號","121.450416666667","25.077735","6500200","三重區"
"241018","268-UM","2019/10/15 21:19:28","新北市三重區忠孝路二段25號","121.486426666667","25.071325","6500200","三重區"
"241032","269-UM","2019/10/15 21:19:14","新北市五股區五工二路136號","121.455028333333","25.07242","6500200","三重區"
"241013","270-UM","2019/10/15 21:19:15","新北市三重區仁愛街83號","121.495901666667","25.07321","6500200","三重區"
"241025","271-UM","2019/10/15 21:19:21","新北市三重區忠孝路三段40巷16弄10號","121.482313333333","25.06689","6500200","三重區"
"241030","KED-0822","2019/10/15 21:19:27","新北市三重區五谷王北街181-1號","121.477256666667","25.0549966666667","6500200","三重區"
"241004","475-VK","2019/10/15 21:19:17","新北市三重區碧華街213號","121.488646666667","25.0827066666667","6500200","三重區"
"241026","480-VK","2019/10/15 21:19:18","新北市三重區同安街113號","121.494291666667","25.0563683333333","6500200","三重區"
"241014","543-UM","2019/10/15 21:19:12","新北市三重區萬全街9號","121.499368333333","25.0696983333333","6500200","三重區"
"241001","547-UM","2019/10/15 21:19:20","新北市三重區仁愛街355號","121.491905","25.0799833333333","6500200","三重區"
"241005","AAD-863","2019/10/15 21:19:12","新北市三重區碧華街1號","121.483496666667","25.0812183333333","6500200","三重區"
"241023","887-TS","2019/10/15 21:19:21","新北市三重區忠孝路三段40巷2號","121.481473333333","25.0667","6500200","三重區"
"241033","AAC-255","2019/10/15 21:19:13","新北市三重區光復路二段126巷25號","121.470881666667","25.0588033333333","6500200","三重區"
"235018","640-BX","2019/10/15 20:56:05","新北市中和區員山路36巷16-2號","121.485365","24.9915833333333","6500300","中和區"
"247006","893-R6","2019/10/15 21:19:21","新北市蘆洲區長安街91號","121.462038333333","25.0802966666667","6501400","蘆洲區"
"247012","337-TH","2019/10/15 21:19:27","新北市蘆洲區中興街124號","121.482328333333","25.0891283333333","6501400","蘆洲區"
"247022","007-UY","2019/10/15 21:19:22","新北市蘆洲區仁愛街226號","121.46742","25.09375","6501400","蘆洲區"
"247008","002-UY","2019/10/15 21:19:25","新北市蘆洲區中山一路103巷20號","121.475808333333","25.0811066666667","6501400","蘆洲區"
"247002","001-UY","2019/10/15 21:19:25","新北市蘆洲區永樂街57號","121.456661666667","25.08858","6501400","蘆洲區"
"251005","010-UM","2019/10/15 21:19:19","新北市淡水區水源街一段122巷40號","121.446843333333","25.17053","6501000","淡水區"
"251001","011-UM","2019/10/15 21:19:29","新北市淡水區濱海路一段308號","121.4407","25.189395","6501000","淡水區"
"251002","012-UM","2019/10/15 21:19:22","新北市淡水區學府路172巷21號","121.448375","25.1748683333333","6501000","淡水區"
"251015","KEA-2871","2019/10/15 21:19:06","新北市淡水區淡金路四段518號","121.451841666667","25.2261983333333","6501000","淡水區"
"251016","179-VK","2019/10/15 21:19:25","新北市淡水區前洲子28號","121.441055","25.2192233333333","6501000","淡水區"
"251004","180-VK","2019/10/15 21:19:16","新北市淡水區民族路33號","121.462303333333","25.1358316666667","6501000","淡水區"
"251008","181-VK","2019/10/15 21:19:28","新北市淡水區水源街二段222號","121.459875","25.1764916666667","6501000","淡水區"
"251013","182-VK","2019/10/15 21:19:00","新北市淡水區行忠路330號","121.460695","25.199895","6501000","淡水區"
"251010","413-VK","2019/10/15 21:19:27","新北市淡水區中正路一段156巷12號","121.421815","25.18086","6501000","淡水區"
"251012","443-VK","2019/10/15 21:19:13","新北市淡水區淡金路五段35巷46號","121.452503333333","25.2347483333333","6501000","淡水區"
"251009","575-R6","2019/10/15 21:19:19","新北市淡水區民族路33巷16-14號","121.46315","25.1357433333333","6501000","淡水區"
"251014","577-R6","2019/10/15 21:19:27","新北市淡水區六塊厝2-1號","121.450151666667","25.24043","6501000","淡水區"
"251011","650-BX","2019/10/15 21:19:24","新北市淡水區新民街120巷29號","121.438888333333","25.1787933333333","6501000","淡水區"
"251003","673-BX","2019/10/15 21:19:26","新北市淡水區崁頂18號","121.439301666667","25.1853116666667","6501000","淡水區"
"251006","757-BX","2019/10/15 21:19:23","新北市淡水區中正路一段85號","121.422321666667","25.1789233333333","6501000","淡水區"
