"lineid","car","time","location","longitude","latitude","cityid","cityname"
"234044","148-BY","2019/09/10 13:09:31","新北市永和區永元路18巷38弄1號","121.524036666667","25.00024","6500400","永和區"
"234078","298-R6","2019/09/10 13:09:36","新北市永和區永亨路83號","121.521981666667","25.0057","6500400","永和區"
"234036","336-UY","2019/09/10 13:09:43","新北市永和區民樂街69巷15號","121.52793","24.9977966666667","6500400","永和區"
"234062","337-UY","2019/09/10 13:09:30","新北市永和區秀朗路二段57號","121.52185","25.0021383333333","6500400","永和區"
"234084","338-UY","2019/09/10 13:09:34","新北市永和區永貞路152號","121.517845","25.0044633333333","6500400","永和區"
"234068","552-UM","2019/09/10 13:09:39","新北市永和區豫溪街137巷1弄18號","121.518711666667","25.0104283333333","6500400","永和區"
"234015","745-BX","2019/09/10 13:09:40","新北市永和區文化路90巷19號","121.513623333333","25.0162716666667","6500400","永和區"
"234028","746-BX","2019/09/10 13:09:26","新北市永和區民生路23號","121.522875","24.9987566666667","6500400","永和區"
"234052","KEA-2590","2019/09/10 13:09:44","新北市永和區中興街133巷8號","121.518738333333","25.0127716666667","6500400","永和區"
"234005","KED-0605","2019/09/10 13:09:31","新北市永和區中山路一段193號","121.509236666667","25.00891","6500400","永和區"
"234012","KEA-2591","2019/09/10 13:09:33","新北市永和區保福路二段85號","121.510648333333","25.0126133333333","6500400","永和區"
"234060","AAD-866","2019/09/10 13:09:34","新北市永和區安樂路338號","121.514413333333","25.006105","6500400","永和區"
"234040","862-TW","2019/09/10 13:09:43","新北市永和區永貞路328-1號","121.511351666667","25.0055966666667","6500400","永和區"
"234048","863-TW","2019/09/10 13:09:29","新北市永和區文化路135巷26弄1號","121.510651666667","25.0143683333333","6500400","永和區"
"234025","9371-KE","2019/09/10 13:09:32","新北市永和區自由街47號","121.51399","25.0060133333333","6500400","永和區"
"234010","9373-KE","2019/09/10 13:09:25","新北市永和區仁愛路9號","121.514773333333","25.0134883333333","6500400","永和區"
"248017","KED-0813","2019/09/10 13:09:22","新北市五股區成泰路三段67號","121.443425","25.0896383333333","6501500","五股區"
"234022","9380-KE","2019/09/10 13:09:39","新北市永和區竹林路124巷40號","121.517848333333","25.0111633333333","6500400","永和區"
"234076","969-R7","2019/09/10 13:09:23","新北市永和區中正路164號","121.515015","24.9966083333333","6500400","永和區"
"234072","AAC-211","2019/09/10 13:09:39","新北市永和區竹林路241號","121.520855","25.00807","6500400","永和區"
"234066","AAC-212","2019/09/10 13:09:26","新北市永和區保平路23號","121.512606666667","25.0073833333333","6500400","永和區"
"234001","AAC-295","2019/09/10 13:09:33","新北市永和區中山路一段9號","121.514011666667","25.0103466666667","6500400","永和區"
"244002","248-BX","2019/09/10 13:09:36","新北市林口區中山路564-1號","121.378181666667","25.0836166666667","6501700","林口區"
"231030","002-UM","2019/09/10 13:09:44","新北市新店區安華路28-1號","121.51958","24.9608316666667","6500600","新店區"
"231024","0291-UT","2019/09/10 13:09:43","新北市新店區安華路28-1號","121.51967","24.9606666666667","6500600","新店區"
"231005","046-UY","2019/09/10 13:09:34","新北市新店區安華路28-1號","121.519425","24.9607566666667","6500600","新店區"
"231029","047-UY","2019/09/10 13:09:37","新北市新店區安華路28-1號","121.519506666667","24.96088","6500600","新店區"
"231036","KEA-2219","2019/09/10 13:09:28","新北市新店區安康路三段135號","121.489753333333","24.9517816666667","6500600","新店區"
"231023","260-TV","2019/09/10 13:09:27","新北市新店區安一路一段1-1號","121.51934","24.9613133333333","6500600","新店區"
"231003","268-BY","2019/09/10 13:09:26","新北市新店區安康路一段319號","121.522138333333","24.96363","6500600","新店區"
"231035","278-BY","2019/09/10 13:09:37","新北市新店區安一路一段1-1號","121.51964","24.9611266666667","6500600","新店區"
"231015","AAD-862","2019/09/10 13:09:38","新北市新店區安一路一段1-1號","121.519645","24.9611083333333","6500600","新店區"
"231006","355-BY","2019/09/10 13:09:35","新北市新店區安華路28-1號","121.519348333333","24.96096","6500600","新店區"
"231025","4715-K9","2019/09/10 13:09:32","新北市新店區安華路1-1號","121.519335","24.960435","6500600","新店區"
"231020","515-UM","2019/09/10 13:09:39","新北市新店區安一路一段1-1號","121.519295","24.9611666666667","6500600","新店區"
"231012","KED-0819","2019/09/10 13:09:26","新北市新店區安一路一段1-1號","121.519625","24.9612633333333","6500600","新店區"
"231018","718-UY","2019/09/10 13:09:38","新北市新店區安一路一段1-1號","121.519463333333","24.9610566666667","6500600","新店區"
"231010","719-UM","2019/09/10 13:09:35","新北市新店區安一路一段1-1號","121.51952","24.961165","6500600","新店區"
"231026","720-UM","2019/09/10 13:09:26","新北市新店區安一路一段1-1號","121.519355","24.9613283333333","6500600","新店區"
"231001","898-TW","2019/09/10 13:09:23","新北市新店區安華路28-1號","121.519443333333","24.96084","6500600","新店區"
"231004","899-TW","2019/09/10 13:09:44","新北市新店區安華路28-1號","121.51927","24.9608733333333","6500600","新店區"
"231037","AKT-0513","2019/09/10 13:05:12","新北市新店區安康路二段362號","121.501903333333","24.957445","6500600","新店區"
"235027","006-UY","2019/09/10 13:09:38","新北市中和區員山路36巷16-3號","121.485108333333","24.99123","6500300","中和區"
"235003","097-UM","2019/09/10 13:09:33","新北市中和區錦和路350-1號","121.490236666667","24.993595","6500300","中和區"
"235029","098-UM","2019/09/10 13:09:26","新北市中和區莊敬路49巷20弄22號","121.502736666667","25.0058483333333","6500300","中和區"
"235004","150-BY","2019/09/10 13:09:35","新北市中和區中正路637巷52弄1號","121.4855","24.9935166666667","6500300","中和區"
"235022","151-BY","2019/09/10 13:09:40","新北市中和區圓通路367巷62-8號","121.493096666667","24.983165","6500300","中和區"
"235019","183-VK","2019/09/10 13:09:39","新北市中和區員山路36巷16-3號","121.485065","24.9912916666667","6500300","中和區"
"235002","185-VK","2019/09/10 13:09:27","新北市中和區景平路154號","121.517726666667","24.9921383333333","6500300","中和區"
"235031","255-BX","2019/09/10 13:09:36","新北市中和區民樂路62號","121.483965","25.0012333333333","6500300","中和區"
"235036","301-VK","2019/09/10 13:09:44","新北市中和區中正路563號","121.486896666667","24.9942833333333","6500300","中和區"
"235007","352-BY","2019/09/10 13:09:39","新北市中和區中正路637巷52弄1號","121.485533333333","24.9935066666667","6500300","中和區"
"235006","KEA-2878","2019/09/10 13:09:35","新北市中和區中正路273號","121.495613333333","24.9937633333333","6500300","中和區"
"235033","4980-A6","2019/09/10 13:09:34","新北市中和區員山路36巷16-2號","121.485338333333","24.991805","6500300","中和區"
"235034","558-UM","2019/09/10 13:09:38","新北市中和區圓通路164號","121.497401666667","24.994885","6500300","中和區"
"235009","565-BX","2019/09/10 13:09:45","新北市中和區中正路166號","121.498391666667","24.9939116666667","6500300","中和區"
"235024","KED-0823","2019/09/10 13:09:26","新北市中和區連城路378號","121.480978333333","24.9951033333333","6500300","中和區"
"235018","640-BX","2019/09/10 13:09:45","新北市中和區民德路105號","121.468991666667","25.00079","6500300","中和區"
"235011","732-UM","2019/09/10 13:09:38","新北市中和區中正路637巷60弄61號","121.485398333333","24.9927633333333","6500300","中和區"
"235035","783-BX","2019/09/10 13:09:36","新北市中和區板南路492-5號","121.48574","25.0073683333333","6500300","中和區"
"235021","801-TS","2019/09/10 13:09:30","新北市中和區民安街111巷4弄3號","121.476251666667","24.99904","6500300","中和區"
"235005","802-TS","2019/09/10 13:09:30","新北市中和區中正路637巷60弄61號","121.485508333333","24.9930133333333","6500300","中和區"
"235016","805-TS","2019/09/10 13:09:40","新北市中和區中正路275號","121.49545","24.993895","6500300","中和區"
"235012","896-TW","2019/09/10 13:09:25","新北市中和區員山路36巷16-2號","121.485335","24.9916783333333","6500300","中和區"
"235017","900-TW","2019/09/10 13:09:40","新北市中和區員山路36巷16-2號","121.485271666667","24.9914766666667","6500300","中和區"
"235028","911-UM","2019/09/10 13:09:38","新北市中和區中正路216-1號","121.496671666667","24.99383","6500300","中和區"
"235015","157-BY","2019/09/10 13:09:31","新北市中和區板南路106號","121.503508333333","24.9924933333333","6500300","中和區"
"235001","AAC-213","2019/09/10 13:09:42","新北市中和區景德街78號","121.51658","24.99148","6500300","中和區"
"235023","AAC-215","2019/09/10 13:09:39","新北市中和區員山路36巷16-3號","121.485033333333","24.9912433333333","6500300","中和區"
"228005","097-TW","2019/09/10 13:09:31","新北市貢寮區仁理村尖山腳街20號","121.924368333333","25.0475116666667","6502600","貢寮區"
"228004","212-TW","2019/09/10 13:09:27","新北市貢寮區吉林里內寮街71號","121.891365","24.973025","6502600","貢寮區"
"207002","749-BX","2019/09/10 13:09:35","新北市萬里區崁腳里崁腳路166號","121.645068333333","25.1558616666667","6502800","萬里區"
"207001","662-BX","2019/09/10 13:09:38","新北市萬里區萬里里瑪鋉路70號","121.689896666667","25.1781166666667","6502800","萬里區"
"252005","AAC-283","2019/09/10 13:09:25","新北市三芝區埔坪里埔頭坑164-1號","121.507766666667","25.2482866666667","6502100","三芝區"
"220021","985-R7","2019/09/10 13:09:37","新北市板橋區華東街1-10號","121.448226666667","24.9950133333333","6500100","板橋區"
"235032","KEA-2873","2019/09/10 13:09:38","新北市中和區員山路36巷16-3號","121.485001666667","24.991255","6500300","中和區"
"235025","KEA-2875","2019/09/10 13:09:24","新北市土城區延壽路118-6號","121.469083333333","24.9945966666667","6500300","中和區"
"235026","KEA-2876","2019/09/10 13:09:19","新北市中和區中山路二段380-2號","121.490808333333","25.0035133333333","6500300","中和區"
