"lineid","car","time","location","longitude","latitude","cityid","cityname"
"234044","148-BY","2019/09/10 14:09:31","新北市永和區得和路408號","121.525698333333","24.999185","6500400","永和區"
"234078","298-R6","2019/09/10 14:09:36","新北市永和區國中路53號","121.524571666667","25.0061133333333","6500400","永和區"
"234036","336-UY","2019/09/10 14:09:34","新北市永和區成功路一段93巷23弄13號","121.528476666667","25.0034016666667","6500400","永和區"
"234062","337-UY","2019/09/10 14:09:24","新北市永和區永利路152號","121.522441666667","25.0028083333333","6500400","永和區"
"234084","338-UY","2019/09/10 14:09:34","新北市永和區福和路175號","121.519975","25.0076566666667","6500400","永和區"
"234068","552-UM","2019/09/10 14:09:40","新北市永和區永貞路10巷12號","121.52027","25.007305","6500400","永和區"
"234015","745-BX","2019/09/10 14:09:40","新北市永和區仁愛路85號","121.513148333333","25.013195","6500400","永和區"
"234028","746-BX","2019/09/10 14:09:26","新北市永和區民權路55號","121.52001","24.9969","6500400","永和區"
"234052","KEA-2590","2019/09/10 14:09:30","新北市永和區博愛街20巷2號","121.517796666667","25.01582","6500400","永和區"
"234005","KED-0605","2019/09/10 14:09:31","新北市中和區中和路265號","121.505435","24.999795","6500400","永和區"
"234012","KEA-2591","2019/09/10 14:09:33","新北市永和區永貞路387號","121.507986666667","25.0087516666667","6500400","永和區"
"234060","AAD-866","2019/09/10 14:09:34","新北市永和區得和路11號","121.515241666667","25.0006183333333","6500400","永和區"
"234040","862-TW","2019/09/10 14:09:43","新北市永和區雙和街41號","121.50876","25.002535","6500400","永和區"
"234048","863-TW","2019/09/10 14:09:29","新北市永和區新生路40巷20號","121.507671666667","25.015915","6500400","永和區"
"234025","9371-KE","2019/09/10 14:09:32","新北市永和區安樂路421號","121.514423333333","25.00404","6500400","永和區"
"248017","KED-0813","2019/09/10 14:09:42","新北市五股區民義路一段255-6號","121.426071666667","25.0914216666667","6501500","五股區"
"234022","9380-KE","2019/09/10 14:09:39","新北市永和區竹林路38號","121.517521666667","25.0144233333333","6500400","永和區"
"234076","969-R7","2019/09/10 14:09:44","新北市永和區民有街75巷10弄20號","121.519136666667","24.9960233333333","6500400","永和區"
"234072","AAC-211","2019/09/10 14:09:39","新北市永和區竹林路201巷22弄1號","121.522025","25.0093","6500400","永和區"
"234066","AAC-212","2019/09/10 14:09:26","新北市永和區保平路232號","121.509323333333","25.00561","6500400","永和區"
"234001","AAC-295","2019/09/10 14:09:36","新北市永和區中正路672號","121.516886666667","25.0091516666667","6500400","永和區"
"244002","248-BX","2019/09/10 14:09:36","新北市林口區南勢里34-8號","121.352365","25.070295","6501700","林口區"
"231030","002-UM","2019/09/10 14:09:24","新北市新店區安興路7-1號","121.514998333333","24.968545","6500600","新店區"
"231024","0291-UT","2019/09/10 14:09:23","新北市新店區安和路三段4巷3號","121.520048333333","24.980905","6500600","新店區"
"231027","0293-UT","2019/09/10 14:09:42","新北市新店區北宜路一段3號","121.538165","24.9584716666667","6500600","新店區"
"231005","046-UY","2019/09/10 14:09:34","新北市新店區中興路三段258號","121.542695","24.9843216666667","6500600","新店區"
"231029","047-UY","2019/09/10 14:09:37","新北市新店區安康路二段159巷6號","121.510143333333","24.9592583333333","6500600","新店區"
"231013","108-UY","2019/09/10 14:09:43","新北市新店區北新路三段65巷34弄12號","121.540143333333","24.9814216666667","6500600","新店區"
"231036","KEA-2219","2019/09/10 14:09:44","新北市新店區安祥路109巷45號","121.476778333333","24.9596666666667","6500600","新店區"
"231032","256-BX","2019/09/10 14:09:38","新北市新店區青山路399巷1號","121.523661666667","24.95308","6500600","新店區"
"231023","260-TV","2019/09/10 14:09:27","新北市新店區文中路51號","121.539786666667","24.9566883333333","6500600","新店區"
"231003","268-BY","2019/09/10 14:09:25","新北市新店區中興路一段51號","121.53968","24.9603133333333","6500600","新店區"
"231035","278-BY","2019/09/10 14:09:37","新北市新店區安和路二段115號","121.518708333333","24.970425","6500600","新店區"
"231015","AAD-862","2019/09/10 14:09:38","新北市新店區北宜路二段341號","121.557663333333","24.9539716666667","6500600","新店區"
"231006","355-BY","2019/09/10 14:09:36","新北市新店區北宜路二段207號","121.553105","24.953305","6500600","新店區"
"231038","3712-VJ","2019/09/10 14:09:43","新北市新店區溪洲路32-1號","121.53329","24.9610083333333","6500600","新店區"
"231025","4715-K9","2019/09/10 14:09:32","新北市新店區自立街23號","121.537623333333","24.9794916666667","6500600","新店區"
"231020","515-UM","2019/09/10 14:09:39","新北市新店區頂石厝路20號","121.53705","24.91849","6500600","新店區"
"231034","616-UM","2019/09/10 14:09:24","新北市新店區車子路109號","121.505315","24.9522233333333","6500600","新店區"
"231002","618-UM","2019/09/10 14:09:23","新北市新店區中正路487號","121.533936666667","24.98209","6500600","新店區"
"231012","KED-0819","2019/09/10 14:09:26","新北市新店區中興路一段280號","121.545536666667","24.96839","6500600","新店區"
"231018","718-UY","2019/09/10 14:09:38","新北市新店區中央五街22號","121.529318333333","24.9745333333333","6500600","新店區"
"231026","720-UM","2019/09/10 14:09:26","新北市新店區安康路一段258號","121.520268333333","24.9639616666667","6500600","新店區"
"231028","897-TW","2019/09/10 14:09:37","新北市新店區安和路三段109號","121.517848333333","24.9846716666667","6500600","新店區"
"231001","898-TW","2019/09/10 14:09:44","新北市新店區中華路68號","121.539138333333","24.96909","6500600","新店區"
"231004","899-TW","2019/09/10 14:09:24","新北市新店區北新路二段226號","121.54289","24.9772633333333","6500600","新店區"
"231037","AKT-0513","2019/09/10 14:09:33","新北市新店區安康路三段165巷2弄10號","121.489165","24.9513566666667","6500600","新店區"
"235030","003-UY","2019/09/10 14:09:39","新北市中和區廣福路70號","121.503323333333","25.0015333333333","6500300","中和區"
"235027","006-UY","2019/09/10 14:09:41","新北市中和區連勝街121巷16號","121.494988333333","24.9944183333333","6500300","中和區"
"235020","096-UM","2019/09/10 14:09:39","新北市中和區中正路1191號","121.480671666667","25.009835","6500300","中和區"
"235003","097-UM","2019/09/10 14:09:33","新北市中和區秀峰街119巷6弄8號","121.51932","24.9901283333333","6500300","中和區"
"235029","098-UM","2019/09/10 14:09:26","新北市中和區中山路二段64巷16弄11號","121.50368","25.0061833333333","6500300","中和區"
"235004","150-BY","2019/09/10 14:09:35","新北市中和區宜安路117號","121.510086666667","24.997855","6500300","中和區"
"235022","151-BY","2019/09/10 14:09:40","新北市中和區員山路36巷16-2號","121.485215","24.9916816666667","6500300","中和區"
"235019","183-VK","2019/09/10 14:09:39","新北市中和區莒光路37巷2號","121.47202","25.005145","6500300","中和區"
"235002","185-VK","2019/09/10 14:09:27","新北市中和區大仁街10巷27弄4號","121.519211666667","24.9927216666667","6500300","中和區"
"235013","186-VK","2019/09/10 14:09:41","新北市中和區景新街235號","121.50811","24.994565","6500300","中和區"
"235031","255-BX","2019/09/10 14:09:36","新北市中和區連城路282號","121.484336666667","24.996275","6500300","中和區"
"235008","293-VK","2019/09/10 14:09:38","新北市中和區復興路327巷4號","121.500653333333","24.9898616666667","6500300","中和區"
"235036","301-VK","2019/09/10 14:09:44","新北市中和區中山路二段264號","121.497266666667","25.0024166666667","6500300","中和區"
"235007","352-BY","2019/09/10 14:09:39","新北市中和區景平路268號","121.514423333333","24.9926983333333","6500300","中和區"
"235006","KEA-2878","2019/09/10 14:09:35","新北市中和區自強路13巷3號","121.520673333333","24.9935433333333","6500300","中和區"
"247015","KEA-2869","2019/09/10 14:09:35","新北市蘆洲區光華路46巷25號","121.468065","25.0837883333333","6501400","蘆洲區"
"247009","KED-0682","2019/09/10 14:09:31","新北市蘆洲區民族路64號","121.477286666667","25.08474","6501400","蘆洲區"
"235014","4979-A6","2019/09/10 14:09:30","新北市中和區復興路81號","121.503638333333","24.9898133333333","6500300","中和區"
"235033","4980-A6","2019/09/10 14:09:34","新北市中和區中和路159號","121.502755","24.99985","6500300","中和區"
"235034","558-UM","2019/09/10 14:09:37","新北市中和區連城路19號","121.498971666667","25.0020466666667","6500300","中和區"
"235009","565-BX","2019/09/10 14:09:25","新北市中和區景新街423巷34號","121.514683333333","24.9897533333333","6500300","中和區"
"235024","KED-0823","2019/09/10 14:09:26","新北市中和區員山路314巷7弄8號","121.481998333333","25.0032","6500300","中和區"
"235018","640-BX","2019/09/10 14:09:24","新北市中和區國光街112巷14弄8號","121.470556666667","25.0012666666667","6500300","中和區"
"235011","732-UM","2019/09/10 14:09:38","新北市中和區興南路一段80號","121.51034","24.9898066666667","6500300","中和區"
"235010","733-UM","2019/09/10 14:09:38","新北市中和區華新街134號","121.508126666667","24.9825783333333","6500300","中和區"
"235035","783-BX","2019/09/10 14:09:36","新北市中和區板南路472號","121.489021666667","25.0059183333333","6500300","中和區"
"235021","801-TS","2019/09/10 14:09:30","新北市中和區員山路423巷2弄2號","121.480665","25.0033533333333","6500300","中和區"
"235005","802-TS","2019/09/10 14:09:30","新北市中和區中安街216號","121.511851666667","24.9988783333333","6500300","中和區"
"235016","805-TS","2019/09/10 14:09:40","新北市中和區興南路二段142巷31弄81號","121.50155","24.9835583333333","6500300","中和區"
"235012","896-TW","2019/09/10 14:09:25","新北市中和區工專路165-3號","121.50876","24.9791233333333","6500300","中和區"
"235017","900-TW","2019/09/10 14:09:40","新北市中和區華安街21巷2號","121.467413333333","24.9975333333333","6500300","中和區"
"235028","911-UM","2019/09/10 14:09:38","新北市中和區連城路4號","121.499208333333","25.00235","6500300","中和區"
"235015","157-BY","2019/09/10 14:09:31","新北市中和區和平街24巷4號","121.51007","24.99045","6500300","中和區"
"235001","AAC-213","2019/09/10 14:09:36","新北市中和區秀朗路三段10巷37弄14號","121.523478333333","24.9959216666667","6500300","中和區"
"235023","AAC-215","2019/09/10 14:09:39","新北市中和區圓通路417號","121.488828333333","24.9891616666667","6500300","中和區"
"220013","072-UY","2019/09/10 14:09:43","新北市板橋區民族路219巷12號","121.469506666667","25.0078766666667","6500100","板橋區"
"220034","073-UY","2019/09/10 14:09:31","新北市板橋區中正路236巷56號","121.457608333333","25.0192683333333","6500100","板橋區"
"220105","075-UY","2019/09/10 14:09:30","新北市板橋區雙十路三段70巷2號","121.470275","25.03238","6500100","板橋區"
"220017","AAD-861","2019/09/10 14:09:35","新北市板橋區華興街54號","121.458061666667","25.00472","6500100","板橋區"
"220016","120-SR","2019/09/10 14:09:23","新北市板橋區翠華街6巷22號","121.481205","25.02428","6500100","板橋區"
"247005","893-R6","2019/09/10 14:09:31","新北市蘆洲區九芎街62號","121.46681","25.0790716666667","6501400","蘆洲區"
"247017","500-BY","2019/09/10 14:09:36","新北市蘆洲區民族路201巷30號","121.476978333333","25.0889783333333","6501400","蘆洲區"
"247011","337-TH","2019/09/10 14:09:42","新北市蘆洲區信義路270號","121.478016666667","25.0869516666667","6501400","蘆洲區"
"247003","336-TH","2019/09/10 14:09:41","新北市蘆洲區長安街239號","121.459206666667","25.0829816666667","6501400","蘆洲區"
"247023","057-VK","2019/09/10 14:09:35","新北市蘆洲區光榮路118-2號","121.464845","25.089265","6501400","蘆洲區"
"247013","056-VK","2019/09/10 14:09:43","新北市蘆洲區忠孝路70號","121.471566666667","25.0853966666667","6501400","蘆洲區"
"247021","007-UY","2019/09/10 14:09:37","新北市蘆洲區三民路157-2號","121.470838333333","25.0866316666667","6501400","蘆洲區"
"247007","002-UY","2019/09/10 14:09:31","新北市蘆洲區中山一路333號","121.470543333333","25.0781216666667","6501400","蘆洲區"
"247001","001-UY","2019/09/10 14:09:35","新北市蘆洲區永平街63號","121.457443333333","25.0914733333333","6501400","蘆洲區"
"228005","097-TW","2019/09/10 14:09:31","新北市雙溪區三港里雙澳路91號","121.888896666667","25.057755","6502600","貢寮區"
"228004","212-TW","2019/09/10 14:09:27","新北市貢寮區雙玉里德心街12號","121.918858333333","25.0154966666667","6502600","貢寮區"
"207002","749-BX","2019/09/10 14:09:35","新北市萬里區溪底里瑞泉路21號","121.604518333333","25.1483183333333","6502800","萬里區"
"207001","662-BX","2019/09/10 14:09:31","新北市萬里區磺潭里清水18號","121.637851666667","25.19773","6502800","萬里區"
"252005","AAC-283","2019/09/10 14:09:25","新北市三芝區橫山里橫山8-1號","121.535633333333","25.2621066666667","6502100","三芝區"
"236040","KED-0685","2019/09/10 14:09:36","新北市土城區城林路6巷80號","121.43849","24.9795816666667","6501300","土城區"
"236029","253-BX","2019/09/10 14:09:38","新北市土城區城林路6巷80號","121.438236666667","24.9795083333333","6501300","土城區"
"236024","269-VK","2019/09/10 14:09:28","新北市土城區承天路65號","121.439705","24.9639816666667","6501300","土城區"
"236013","270-VK","2019/09/10 14:09:40","新北市土城區青雲路39巷7號","121.460321666667","24.9875416666667","6501300","土城區"
"236032","271-VK","2019/09/10 14:09:42","新北市土城區明德路一段355-1號","121.457596666667","24.9773966666667","6501300","土城區"
"236065","KEA-2877","2019/09/10 14:09:37","新北市土城區金城路一段135號","121.445161666667","24.973925","6501300","土城區"
"236017","401-BY","2019/09/10 14:09:34","新北市土城區中正路5號","121.442491666667","24.9750533333333","6501300","土城區"
"236057","912-UM","2019/09/10 14:09:39","新北市土城區中央路四段121號","121.416313333333","24.9575316666667","6501300","土城區"
"236045","913-UM","2019/09/10 14:09:28","新北市土城區明德路一段365-1號","121.453553333333","24.9790183333333","6501300","土城區"
"236060","915-UM","2019/09/10 14:09:36","新北市土城區金城路二段58號","121.452193333333","24.9797033333333","6501300","土城區"
"236054","AAC-216","2019/09/10 14:09:23","新北市土城區中華路二段92號","121.438241666667","24.974755","6501300","土城區"
"220027","145-BY","2019/09/10 14:09:39","新北市板橋區中正路48號","121.456415","25.01412","6500100","板橋區"
"220028","200-UY","2019/09/10 14:09:36","新北市板橋區大觀路二段7巷108號","121.450363333333","25.0029183333333","6500100","板橋區"
"220030","610-BX","2019/09/10 14:09:38","新北市板橋區溪崑二街41號","121.42837","24.9910033333333","6500100","板橋區"
"220050","245-BX","2019/09/10 14:09:40","新北市板橋區莊敬路25巷1號","121.474195","25.0277633333333","6500100","板橋區"
"220004","276-BY","2019/09/10 14:09:43","新北市板橋區信義路110巷3號","121.458113333333","24.9920533333333","6500100","板橋區"
"220020","277-BY","2019/09/10 14:09:37","新北市板橋區金門街369巷57弄2號","121.429005","24.9841783333333","6500100","板橋區"
"220043","283-UM","2019/09/10 14:09:24","新北市板橋區吳鳳路19巷27號","121.466435","25.0304383333333","6500100","板橋區"
"220019","283-VK","2019/09/10 14:09:37","新北市板橋區重慶路327巷24弄11號","121.465135","24.99822","6500100","板橋區"
"220001","285-VK","2019/09/10 14:09:40","新北市板橋區懷仁街35巷4弄2號","121.477066666667","25.019775","6500100","板橋區"
"220029","287-VK","2019/09/10 14:09:27","新北市板橋區南雅西路二段156巷7號","121.452255","25.0133783333333","6500100","板橋區"
"220009","293-UM","2019/09/10 14:09:34","新北市板橋區中山路二段326號","121.480971666667","25.0197083333333","6500100","板橋區"
"220010","295-UM","2019/09/10 14:09:38","新北市板橋區三民路二段居仁巷28號","121.480061666667","25.013135","6500100","板橋區"
"220032","296-UM","2019/09/10 14:09:41","新北市板橋區溪崑二街22巷30號","121.428126666667","24.9919833333333","6500100","板橋區"
"220067","299-UM","2019/09/10 14:09:31","新北市板橋區民享街116巷2弄11號","121.477455","25.015455","6500100","板橋區"
"220023","303-R5","2019/09/10 14:09:27","新北市板橋區大智街25巷22號","121.454548333333","25.0148333333333","6500100","板橋區"
"220041","307-R5","2019/09/10 14:09:35","新北市板橋區松江街72巷16號","121.46926","25.0278583333333","6500100","板橋區"
"220047","317-R6","2019/09/10 14:09:35","新北市板橋區民有街39-3號","121.465751666667","25.0257166666667","6500100","板橋區"
"220038","487-VK","2019/09/10 14:09:39","新北市板橋區文化路一段309-1號","121.466113333333","25.0200266666667","6500100","板橋區"
"220037","491-VK","2019/09/10 14:09:37","新北市板橋區文化路二段182巷3弄66號","121.472576666667","25.028685","6500100","板橋區"
"220104","560-BX","2019/09/10 14:09:39","新北市板橋區中正路379巷7號","121.4534","25.02189","6500100","板橋區"
"220052","561-BX","2019/09/10 14:09:40","新北市板橋區文化路一段270巷2號","121.46741","25.020555","6500100","板橋區"
"220011","609-BX","2019/09/10 14:09:36","新北市板橋區三民路二段241號","121.479035","25.01264","6500100","板橋區"
"220040","637-BX","2019/09/10 14:09:39","新北市板橋區縣民大道三段223號","121.480558333333","25.02538","6500100","板橋區"
"220005","686-BX","2019/09/10 14:09:38","新北市板橋區五權街67號","121.4649","24.99328","6500100","板橋區"
"220025","687-BX","2019/09/10 14:09:23","新北市板橋區龍興街99巷2號","121.444253333333","25.0029383333333","6500100","板橋區"
"220002","741-BX","2019/09/10 14:09:32","新北市板橋區實踐路29號","121.463645","25.0071516666667","6500100","板橋區"
"220051","KEA-2699","2019/09/10 14:09:28","新北市板橋區文聖街180號","121.479355","25.0269133333333","6500100","板橋區"
"220003","827-TW","2019/09/10 14:09:42","新北市板橋區民族路57號","121.464838333333","25.0090933333333","6500100","板橋區"
"220039","831-TW","2019/09/10 14:09:34","新北市板橋區長江路一段106巷12弄1號","121.460008333333","25.0290133333333","6500100","板橋區"
"220021","833-TW","2019/09/10 13:52:26","新北市板橋區華東街1-10號","121.448595","24.9947833333333","6500100","板橋區"
"220022","895-R6","2019/09/10 14:09:41","新北市板橋區林園街28-2號","121.453785","25.009985","6500100","板橋區"
"220021","985-R7","2019/09/10 14:09:37","新北市板橋區民權路216-1號","121.458763333333","25.0141333333333","6500100","板橋區"
"220046","AAC-210","2019/09/10 14:09:39","新北市板橋區幸福路60巷6號","121.460638333333","25.0209916666667","6500100","板橋區"
"220012","AAC-253","2019/09/10 14:09:44","新北市板橋區漢生東路83巷2號","121.466986666667","25.0157533333333","6500100","板橋區"
"235032","KEA-2873","2019/09/10 14:09:37","新北市中和區南山路24號","121.502076666667","24.998305","6500300","中和區"
"235025","KEA-2875","2019/09/10 14:09:23","新北市中和區員山路259號","121.4812","24.9989766666667","6500300","中和區"
"235026","KEA-2876","2019/09/10 14:09:19","新北市中和區中山路二段352號","121.492693333333","25.0027033333333","6500300","中和區"
