"lineid","car","time","location","longitude","latitude","cityid","cityname"
"234078","298-R6","2019/09/10 14:19:36","新北市永和區福和路19巷1弄5號","121.524318333333","25.0078616666667","6500400","永和區"
"234036","336-UY","2019/09/10 14:19:34","新北市永和區成功路一段14號","121.527071666667","25.0052416666667","6500400","永和區"
"234062","337-UY","2019/09/10 14:19:44","新北市永和區得和路106號","121.518086666667","25.00018","6500400","永和區"
"234084","338-UY","2019/09/10 14:19:34","新北市永和區中正路657號","121.514963333333","25.0101983333333","6500400","永和區"
"234068","552-UM","2019/09/10 14:19:31","新北市永和區福和路263巷7弄1號","121.517946666667","25.0070583333333","6500400","永和區"
"234028","746-BX","2019/09/10 14:19:26","新北市永和區民權路84號","121.519938333333","24.9969433333333","6500400","永和區"
"234052","KEA-2590","2019/09/10 14:19:30","新北市永和區光復街2巷26弄1號","121.517601666667","25.0166316666667","6500400","永和區"
"234005","KED-0605","2019/09/10 14:19:31","新北市永和區中正路653號","121.515041666667","25.0101366666667","6500400","永和區"
"234012","KEA-2591","2019/09/10 14:19:33","新北市永和區保生路55-1號","121.5047","25.0114833333333","6500400","永和區"
"234060","AAD-866","2019/09/10 14:19:34","新北市永和區安樂路194巷14號","121.516301666667","25.0008533333333","6500400","永和區"
"234040","862-TW","2019/09/10 14:19:43","新北市中和區安平路210號","121.513665","24.99979","6500400","永和區"
"234048","863-TW","2019/09/10 14:19:29","新北市永和區新生路30-1號","121.508436666667","25.015935","6500400","永和區"
"234025","9371-KE","2019/09/10 14:19:32","新北市永和區安樂路144巷26號","121.515298333333","24.9996116666667","6500400","永和區"
"248017","KED-0813","2019/09/10 14:18:42","新北市五股區壟路16-1號","121.414848333333","25.0853866666667","6501500","五股區"
"234022","9380-KE","2019/09/10 14:19:39","新北市永和區保安路151號","121.506885","25.0129733333333","6500400","永和區"
"234076","969-R7","2019/09/10 14:19:44","新北市永和區民權路55號","121.520148333333","24.9966383333333","6500400","永和區"
"234072","AAC-211","2019/09/10 14:19:39","新北市永和區竹林路119巷30弄2號","121.522023333333","25.0116016666667","6500400","永和區"
"234066","AAC-212","2019/09/10 14:19:26","新北市永和區保平路292巷38號","121.507735","25.0048583333333","6500400","永和區"
"234001","AAC-295","2019/09/10 14:19:33","新北市永和區中正路620號","121.517018333333","25.0078216666667","6500400","永和區"
"244002","248-BX","2019/09/10 14:19:36","新北市林口區南勢里34-8號","121.352426666667","25.0702466666667","6501700","林口區"
"231030","002-UM","2019/09/10 14:19:44","新北市新店區安民街65巷11號","121.515261666667","24.9665083333333","6500600","新店區"
"231024","0291-UT","2019/09/10 14:19:43","新北市新店區薏仁坑路自強巷1號","121.497873333333","24.9576783333333","6500600","新店區"
"231027","0293-UT","2019/09/10 14:19:42","新北市新店區光明街286巷8號","121.540783333333","24.9636016666667","6500600","新店區"
"231005","046-UY","2019/09/10 14:19:37","新北市新店區中興路三段170號","121.544213333333","24.9809233333333","6500600","新店區"
"231029","047-UY","2019/09/10 14:19:37","新北市新店區安康路二段161號","121.510118333333","24.9592866666667","6500600","新店區"
"231013","108-UY","2019/09/10 14:19:43","新北市新店區建國路166號","121.53838","24.9795366666667","6500600","新店區"
"231036","KEA-2219","2019/09/10 14:19:28","新北市新店區安祥路109巷151弄8號","121.47836","24.958905","6500600","新店區"
"231032","256-BX","2019/09/10 14:19:38","新北市新店區太平路44號","121.533048333333","24.95922","6500600","新店區"
"231023","260-TV","2019/09/10 14:19:27","新北市新店區北新路一段2-19號","121.538626666667","24.960085","6500600","新店區"
"231003","268-BY","2019/09/10 14:19:45","新北市新店區中興路一段201號","121.543493333333","24.9653816666667","6500600","新店區"
"231035","278-BY","2019/09/10 14:19:37","新北市新店區光華街5巷5號","121.517751666667","24.9686116666667","6500600","新店區"
"231015","AAD-862","2019/09/10 14:19:38","新北市新店區中生路66號","121.564591666667","24.9525433333333","6500600","新店區"
"231006","355-BY","2019/09/10 14:19:36","新北市新店區北宜路二段270號","121.560786666667","24.9542283333333","6500600","新店區"
"231038","3712-VJ","2019/09/10 14:19:42","新北市新店區溪洲路8巷101號","121.532856666667","24.9631883333333","6500600","新店區"
"231020","515-UM","2019/09/10 14:18:57","新北市新店區新烏路二段212-1號","121.547508333333","24.9162983333333","6500600","新店區"
"231034","616-UM","2019/09/10 14:19:24","新北市新店區車子路11號","121.503078333333","24.9520533333333","6500600","新店區"
"231002","618-UM","2019/09/10 14:19:43","新北市新店區中央路155號","121.529755","24.9726633333333","6500600","新店區"
"231012","KED-0819","2019/09/10 14:19:26","新北市新店區五峰路61巷2-2號","121.547456666667","24.970015","6500600","新店區"
"231018","718-UY","2019/09/10 14:19:38","新北市新店區中央四街43號","121.52806","24.9748366666667","6500600","新店區"
"231028","897-TW","2019/09/10 14:19:37","新北市新店區安和路二段221號","121.517436666667","24.9758133333333","6500600","新店區"
"231001","898-TW","2019/09/10 14:19:43","新北市新店區北新路一段38號","121.540903333333","24.966015","6500600","新店區"
"231004","899-TW","2019/09/10 14:19:24","新北市新店區中正路151號","121.541395","24.97175","6500600","新店區"
"231037","AKT-0513","2019/09/10 14:19:33","新北市新店區安康路二段341巷14號","121.496338333333","24.9548133333333","6500600","新店區"
"235030","003-UY","2019/09/10 14:19:39","新北市中和區中和路102號","121.502696666667","24.9997316666667","6500300","中和區"
"235027","006-UY","2019/09/10 14:19:38","新北市中和區連城路219巷9號","121.494855","24.9967566666667","6500300","中和區"
"235020","096-UM","2019/09/10 14:19:41","新北市中和區員山路466號","121.479916666667","25.0064483333333","6500300","中和區"
"235003","097-UM","2019/09/10 14:19:33","新北市中和區秀峰街103巷7弄4號","121.519503333333","24.9888733333333","6500300","中和區"
"235029","098-UM","2019/09/10 14:19:26","新北市中和區中山路二段178巷15號","121.500831666667","25.0031283333333","6500300","中和區"
"235004","150-BY","2019/09/10 14:19:35","新北市中和區保健路98號","121.512316666667","24.9959","6500300","中和區"
"235022","151-BY","2019/09/10 14:19:40","新北市中和區員山路124巷9號","121.48179","24.9960383333333","6500300","中和區"
"235019","183-VK","2019/09/10 14:19:39","新北市中和區中山路三段181巷18弄37號","121.472643333333","25.0049816666667","6500300","中和區"
"235002","185-VK","2019/09/10 14:19:27","新北市中和區大智街23巷2弄1號","121.52","24.9923883333333","6500300","中和區"
"235013","186-VK","2019/09/10 14:19:41","新北市中和區景新街279號","121.50941","24.993515","6500300","中和區"
"235031","255-BX","2019/09/10 14:19:36","新北市中和區新生街186巷5弄21號","121.48294","24.998935","6500300","中和區"
"235008","293-VK","2019/09/10 14:19:37","新北市中和區復興路288號","121.501886666667","24.99031","6500300","中和區"
"235036","301-VK","2019/09/10 14:19:24","新北市中和區永和路1-2號","121.499775","25.0030266666667","6500300","中和區"
"235007","352-BY","2019/09/10 14:19:39","新北市中和區景平路288號","121.51335","24.9927066666667","6500300","中和區"
"235006","KEA-2878","2019/09/10 14:19:35","新北市中和區安樂路217巷35弄12號","121.514028333333","24.9977216666667","6500300","中和區"
"247015","KEA-2869","2019/09/10 14:19:35","新北市蘆洲區中正路185巷25弄25號","121.467361666667","25.0837633333333","6501400","蘆洲區"
"247009","KED-0682","2019/09/10 14:19:31","新北市蘆洲區鷺江街69號","121.477238333333","25.082935","6501400","蘆洲區"
"235033","4980-A6","2019/09/10 14:19:34","新北市中和區景平路736巷1弄8號","121.497325","25.0040016666667","6500300","中和區"
"235034","558-UM","2019/09/10 14:19:37","新北市中和區中和路59號","121.50051","25.001135","6500300","中和區"
"235009","565-BX","2019/09/10 14:19:25","新北市中和區景新街383巷12弄10號","121.51314","24.9899433333333","6500300","中和區"
"235024","KED-0823","2019/09/10 14:19:26","新北市中和區新生街16巷38號","121.481785","25.0045183333333","6500300","中和區"
"235018","640-BX","2019/09/10 14:19:24","新北市中和區莒光路222-8號","121.469086666667","24.9948533333333","6500300","中和區"
"235011","732-UM","2019/09/10 14:19:38","新北市中和區景平路239巷73號","121.508141666667","24.9920766666667","6500300","中和區"
"235010","733-UM","2019/09/10 14:19:40","新北市中和區忠孝街2巷9弄20號","121.510716666667","24.982455","6500300","中和區"
"235035","783-BX","2019/09/10 14:19:36","新北市中和區建三路66號","121.486068333333","25.000675","6500300","中和區"
"235021","801-TS","2019/09/10 14:19:30","新北市中和區員山路390號","121.480553333333","25.0044566666667","6500300","中和區"
"235005","802-TS","2019/09/10 14:19:30","新北市中和區宜安路157號","121.508905","24.9987816666667","6500300","中和區"
"235016","805-TS","2019/09/10 14:19:40","新北市中和區華新街143巷55弄2號","121.506303333333","24.9800833333333","6500300","中和區"
"235012","896-TW","2019/09/10 14:19:45","新北市中和區忠孝街2號","121.508606666667","24.9827833333333","6500300","中和區"
"235017","900-TW","2019/09/10 14:19:40","新北市中和區民德路197號","121.468925","24.9985566666667","6500300","中和區"
"235028","911-UM","2019/09/10 14:19:38","新北市中和區南山路62號","121.502076666667","24.9967133333333","6500300","中和區"
"235015","157-BY","2019/09/10 14:19:31","新北市中和區捷運路129號","121.5072","24.9907466666667","6500300","中和區"
"235001","AAC-213","2019/09/10 14:19:36","新北市中和區秀朗路三段10巷14弄2號","121.525365","24.9964916666667","6500300","中和區"
"235023","AAC-215","2019/09/10 14:19:39","新北市中和區圓通路252巷16號","121.492371666667","24.9921983333333","6500300","中和區"
"220013","072-UY","2019/09/10 14:19:23","新北市板橋區民族路125號","121.467393333333","25.0080633333333","6500100","板橋區"
"220034","073-UY","2019/09/10 14:19:31","新北市板橋區中正路216巷32號","121.456996666667","25.0187183333333","6500100","板橋區"
"220105","075-UY","2019/09/10 14:19:31","新北市板橋區文化路二段417巷8號","121.474263333333","25.032965","6500100","板橋區"
"220017","AAD-861","2019/09/10 14:19:41","新北市板橋區縣民大道一段64巷2號","121.4552","25.0040433333333","6500100","板橋區"
"220016","120-SR","2019/09/10 14:19:43","新北市板橋區林森街1巷1號","121.48207","25.0241016666667","6500100","板橋區"
"247005","893-R6","2019/09/10 14:19:31","新北市蘆洲區長安街22巷37號","121.464933333333","25.080295","6501400","蘆洲區"
"247019","546-UM","2019/09/10 14:19:39","新北市蘆洲區仁愛街57號","121.471895","25.09331","6501400","蘆洲區"
"247017","500-BY","2019/09/10 14:19:36","新北市蘆洲區民權路92號","121.474141666667","25.08787","6501400","蘆洲區"
"247011","337-TH","2019/09/10 14:19:42","新北市蘆洲區民權路3巷14弄23號","121.475088333333","25.08563","6501400","蘆洲區"
"247003","336-TH","2019/09/10 14:19:41","新北市蘆洲區長安街186號","121.458801666667","25.08369","6501400","蘆洲區"
"247023","057-VK","2019/09/10 14:19:31","新北市蘆洲區三民路503號","121.463425","25.0915","6501400","蘆洲區"
"247013","056-VK","2019/09/10 14:19:23","新北市蘆洲區中山一路229號","121.473741666667","25.0807366666667","6501400","蘆洲區"
"247021","007-UY","2019/09/10 14:19:37","新北市蘆洲區仁愛街212巷28-1號","121.464085","25.094695","6501400","蘆洲區"
"247007","002-UY","2019/09/10 14:19:41","新北市蘆洲區信義路75巷2號","121.47631","25.0798683333333","6501400","蘆洲區"
"247001","001-UY","2019/09/10 14:19:35","新北市蘆洲區永樂街108號","121.45565","25.0889466666667","6501400","蘆洲區"
"228005","097-TW","2019/09/10 14:19:31","新北市貢寮區美豐里雞母嶺街60號","121.896833333333","25.064055","6502600","貢寮區"
"228004","212-TW","2019/09/10 14:19:27","新北市貢寮區雙玉里田寮洋街43號","121.925983333333","25.0127366666667","6502600","貢寮區"
"207002","749-BX","2019/09/10 14:19:35","新北市萬里區溪底里富士坪路6號","121.622965","25.1555633333333","6502800","萬里區"
"207001","662-BX","2019/09/10 14:19:31","新北市萬里區磺潭里清水18號","121.637796666667","25.19775","6502800","萬里區"
"252005","AAC-283","2019/09/10 14:19:25","新北市三芝區橫山里大坑94-1號","121.526156666667","25.259485","6502100","三芝區"
"236040","KED-0685","2019/09/10 14:19:39","新北市土城區樂利街3巷16號","121.448525","24.9863816666667","6501300","土城區"
"236029","253-BX","2019/09/10 14:19:42","新北市土城區順風路63號","121.440205","24.9772916666667","6501300","土城區"
"236024","269-VK","2019/09/10 14:19:28","新北市土城區承天路24號","121.43941","24.9632366666667","6501300","土城區"
"236013","270-VK","2019/09/10 14:19:40","新北市土城區青雲路39巷7號","121.460328333333","24.9875366666667","6501300","土城區"
"236032","271-VK","2019/09/10 14:19:42","新北市土城區青雲路451巷8弄19號","121.459465","24.9740283333333","6501300","土城區"
"236065","KEA-2877","2019/09/10 14:19:37","新北市土城區明德路一段128巷9號","121.46323","24.9789666666667","6501300","土城區"
"236017","401-BY","2019/09/10 14:19:34","新北市土城區永豐路202巷7號","121.46629","24.9832683333333","6501300","土城區"
"236057","912-UM","2019/09/10 14:19:39","新北市土城區中央路四段464號","121.40992","24.9505366666667","6501300","土城區"
"236045","913-UM","2019/09/10 14:19:36","新北市土城區明德路一段361-3號","121.456058333333","24.9777583333333","6501300","土城區"
"236060","915-UM","2019/09/10 14:19:36","新北市土城區金城路三段202-3號","121.469375","24.988545","6501300","土城區"
"236054","AAC-216","2019/09/10 14:19:23","新北市土城區中華路二段122號","121.437793333333","24.9738316666667","6501300","土城區"
"220027","145-BY","2019/09/10 14:19:39","新北市板橋區民權路202巷7弄21號","121.459213333333","25.01489","6500100","板橋區"
"220028","200-UY","2019/09/10 14:19:27","新北市板橋區大觀路二段19巷113號","121.450386666667","25.0027116666667","6500100","板橋區"
"220030","610-BX","2019/09/10 14:19:38","新北市板橋區篤行路三段77號","121.427136666667","24.9853133333333","6500100","板橋區"
"220050","245-BX","2019/09/10 14:19:40","新北市板橋區縣民大道三段33巷6弄22號","121.474663333333","25.0214433333333","6500100","板橋區"
"220004","276-BY","2019/09/10 14:19:42","新北市板橋區廣權路69號","121.463283333333","24.9919583333333","6500100","板橋區"
"220020","277-BY","2019/09/10 14:19:37","新北市板橋區篤行路三段玉平巷31弄3號","121.429473333333","24.9869333333333","6500100","板橋區"
"220043","283-UM","2019/09/10 14:19:44","新北市板橋區吳鳳路50巷77號","121.469985","25.030365","6500100","板橋區"
"220019","283-VK","2019/09/10 14:19:37","新北市板橋區忠孝路48巷7弄1-3號","121.461018333333","25.00045","6500100","板橋區"
"220001","285-VK","2019/09/10 14:19:39","新北市板橋區富山街18巷28號","121.47845","25.0228266666667","6500100","板橋區"
"220031","286-VK","2019/09/10 14:19:42","新北市板橋區大觀路二段174巷166弄2號","121.441883333333","25.0032666666667","6500100","板橋區"
"220029","287-VK","2019/09/10 14:19:35","新北市板橋區南雅西路一段82號","121.453391666667","25.0056916666667","6500100","板橋區"
"220009","293-UM","2019/09/10 14:19:34","新北市板橋區中山路一段265巷1-1號","121.46837","25.01416","6500100","板橋區"
"220010","295-UM","2019/09/10 14:19:38","新北市板橋區三民路二段181巷1號","121.479603333333","25.0144533333333","6500100","板橋區"
"220032","296-UM","2019/09/10 14:19:41","新北市板橋區滿平街136巷8弄11號","121.427361666667","24.98755","6500100","板橋區"
"220067","299-UM","2019/09/10 14:19:28","新北市板橋區長安街138巷3弄37號","121.47395","25.00972","6500100","板橋區"
"220023","303-R5","2019/09/10 14:19:27","新北市板橋區南雅南路一段1巷40號","121.457351666667","25.0065933333333","6500100","板橋區"
"220041","307-R5","2019/09/10 14:19:35","新北市板橋區文化路二段1號","121.468366666667","25.0238233333333","6500100","板橋區"
"220047","317-R6","2019/09/10 14:19:35","新北市板橋區四維路100號","121.465795","25.0244166666667","6500100","板橋區"
"220038","487-VK","2019/09/10 14:19:41","新北市板橋區英士路76號","121.46019","25.024195","6500100","板橋區"
"220037","491-VK","2019/09/10 14:19:37","新北市板橋區雙十路一段3號","121.478136666667","25.0240183333333","6500100","板橋區"
"220104","560-BX","2019/09/10 14:19:32","新北市板橋區中正路362號","121.454536666667","25.0239833333333","6500100","板橋區"
"220052","561-BX","2019/09/10 14:19:40","新北市板橋區陽明街27巷12號","121.465416666667","25.021225","6500100","板橋區"
"220040","637-BX","2019/09/10 14:19:39","新北市板橋區大同街52號","121.478766666667","25.0274833333333","6500100","板橋區"
"220005","686-BX","2019/09/10 14:19:38","新北市板橋區和平路69號","121.461228333333","24.99461","6500100","板橋區"
"220025","687-BX","2019/09/10 14:19:42","新北市板橋區大觀路二段297號","121.442176666667","24.998695","6500100","板橋區"
"220002","741-BX","2019/09/10 14:19:32","新北市板橋區校前街58號","121.461658333333","25.0032983333333","6500100","板橋區"
"220051","KEA-2699","2019/09/10 14:19:28","新北市板橋區文化路二段410巷48號","121.474605","25.0301916666667","6500100","板橋區"
"220003","827-TW","2019/09/10 14:19:27","新北市板橋區新民街1號","121.463821666667","25.0093783333333","6500100","板橋區"
"220039","831-TW","2019/09/10 14:19:35","新北市板橋區溪頭街78號","121.458638333333","25.0296666666667","6500100","板橋區"
"220021","833-TW","2019/09/10 14:17:45","新北市板橋區華東街1-10號","121.448598333333","24.9948683333333","6500100","板橋區"
"220022","895-R6","2019/09/10 14:19:41","新北市板橋區北門街55號","121.456081666667","25.0116583333333","6500100","板橋區"
"220021","985-R7","2019/09/10 14:19:37","新北市板橋區中正路251號","121.455745","25.0182916666667","6500100","板橋區"
"220046","AAC-210","2019/09/10 14:19:39","新北市板橋區漢生西路89巷2弄26號","121.461671666667","25.0198833333333","6500100","板橋區"
"220012","AAC-253","2019/09/10 14:19:44","新北市板橋區館前西路17巷11號","121.459186666667","25.00686","6500100","板橋區"
"235032","KEA-2873","2019/09/10 14:19:37","新北市中和區莊敬路16巷15弄9號","121.500521666667","25.0039133333333","6500300","中和區"
"235025","KEA-2875","2019/09/10 14:19:26","新北市中和區員山路143巷40弄3號","121.478923333333","24.99556","6500300","中和區"
"235026","KEA-2876","2019/09/10 14:19:19","新北市中和區中山路二段421號","121.485651666667","25.0047983333333","6500300","中和區"
