"lineid","car","time","location","longitude","latitude","cityid","cityname"
"234078","298-R6","2019/09/10 14:39:36","新北市永和區永貞路82號","121.52016","25.0050383333333","6500400","永和區"
"234062","337-UY","2019/09/10 14:39:44","新北市永和區光復街33巷7號","121.515946666667","25.0181183333333","6500400","永和區"
"234068","552-UM","2019/09/10 14:39:31","新北市中和區環河西路三段123號","121.490265","25.0094283333333","6500400","永和區"
"234028","746-BX","2019/09/10 14:39:26","新北市板橋區民生路三段106號","121.46646","25.0261183333333","6500400","永和區"
"234040","862-TW","2019/09/10 14:39:23","新北市永和區光復街27號","121.516531666667","25.0175733333333","6500400","永和區"
"234025","9371-KE","2019/09/10 14:39:32","新北市中和區中和路382號","121.510721666667","25.0022566666667","6500400","永和區"
"248017","KED-0813","2019/09/10 14:39:42","新北市五股區外寮路13-1號","121.42495","25.08126","6501500","五股區"
"234072","AAC-211","2019/09/10 14:39:39","新北市永和區環河東路二段48號","121.523108333333","25.011875","6500400","永和區"
"244002","248-BX","2019/09/10 14:39:36","新北市林口區南勢里34-8號","121.352566666667","25.0703633333333","6501700","林口區"
"231030","002-UM","2019/09/10 14:39:38","新北市新店區安民街172號","121.516893333333","24.9706683333333","6500600","新店區"
"231027","0293-UT","2019/09/10 14:39:42","新北市新店區寶橋路65號","121.54536","24.9749883333333","6500600","新店區"
"231005","046-UY","2019/09/10 14:39:34","新北市新店區復興路94號","121.532491666667","24.9886","6500600","新店區"
"231029","047-UY","2019/09/10 14:39:37","新北市新店區安康路三段244號","121.487746666667","24.9517766666667","6500600","新店區"
"231013","108-UY","2019/09/10 14:39:43","新北市新店區建國路116號","121.539313333333","24.9785883333333","6500600","新店區"
"231036","KEA-2219","2019/09/10 14:39:28","新北市新店區安祥路106巷2號","121.478973333333","24.9622683333333","6500600","新店區"
"231032","256-BX","2019/09/10 14:39:38","新北市新店區安業街67巷22號","121.519228333333","24.97605","6500600","新店區"
"231023","260-TV","2019/09/10 14:39:27","新北市新店區檳榔路109號","121.544475","24.96161","6500600","新店區"
"231003","268-BY","2019/09/10 14:39:26","新北市新店區中興路二段89號","121.547288333333","24.971405","6500600","新店區"
"231035","278-BY","2019/09/10 14:39:37","新北市新店區安康路二段142巷20號","121.51151","24.9625683333333","6500600","新店區"
"231015","AAD-862","2019/09/10 14:39:38","新北市新店區北宜路三段144號","121.585081666667","24.950425","6500600","新店區"
"231006","355-BY","2019/09/10 14:39:36","新北市新店區北宜路二段197號","121.552866666667","24.95332","6500600","新店區"
"231038","3712-VJ","2019/09/10 14:39:41","新北市新店區安華路28-1號","121.519708333333","24.9609033333333","6500600","新店區"
"231020","515-UM","2019/09/10 14:39:33","新北市新店區桂山路61巷2號","121.565888333333","24.900945","6500600","新店區"
"231034","616-UM","2019/09/10 14:39:44","新北市新店區黎明路54巷2號","121.502345","24.9483766666667","6500600","新店區"
"231002","618-UM","2019/09/10 14:39:43","新北市新店區中正路468號","121.53398","24.979385","6500600","新店區"
"231012","KED-0819","2019/09/10 14:39:26","新北市新店區寶橋路97號","121.547156666667","24.9761833333333","6500600","新店區"
"231018","718-UY","2019/09/10 14:39:38","新北市新店區中央路226號","121.529438333333","24.9729416666667","6500600","新店區"
"231028","897-TW","2019/09/10 14:39:37","新北市新店區安德街76號","121.510291666667","24.96163","6500600","新店區"
"231001","898-TW","2019/09/10 14:39:43","新北市新店區中正路49號","121.54469","24.9698166666667","6500600","新店區"
"231004","899-TW","2019/09/10 14:39:24","新北市新店區中正路281號","121.53754","24.974405","6500600","新店區"
"231037","AKT-0513","2019/09/10 14:39:33","新北市新店區安德街60巷35號","121.510993333333","24.9637583333333","6500600","新店區"
"235030","003-UY","2019/09/10 14:39:39","新北市中和區景安路85號","121.506028333333","24.99681","6500300","中和區"
"235027","006-UY","2019/09/10 14:39:38","新北市中和區連城路184號","121.49287","24.996885","6500300","中和區"
"235020","096-UM","2019/09/10 14:39:35","新北市中和區員山路581巷2弄20-6號","121.477723333333","25.0097433333333","6500300","中和區"
"235003","097-UM","2019/09/10 14:39:33","新北市中和區安平路186號","121.513001666667","24.9990183333333","6500300","中和區"
"235029","098-UM","2019/09/10 14:39:46","新北市中和區永和路90巷5號","121.497385","25.006045","6500300","中和區"
"235004","150-BY","2019/09/10 14:39:35","新北市中和區安平路59號","121.509593333333","24.9949483333333","6500300","中和區"
"235022","151-BY","2019/09/10 14:39:40","新北市中和區員山路122號","121.481128333333","24.995955","6500300","中和區"
"235019","183-VK","2019/09/10 14:39:39","新北市中和區民生街85巷3弄2號","121.469148333333","25.004275","6500300","中和區"
"235002","185-VK","2019/09/10 14:39:27","新北市中和區自強路27巷20號","121.521523333333","24.9931833333333","6500300","中和區"
"235013","186-VK","2019/09/10 14:39:41","新北市中和區中正路2-1號","121.50319","24.99368","6500300","中和區"
"235031","255-BX","2019/09/10 14:39:36","新北市中和區新生街229號","121.483856666667","24.99925","6500300","中和區"
"235008","293-VK","2019/09/10 14:39:37","新北市中和區南山路250巷2號","121.50771","24.98909","6500300","中和區"
"235036","301-VK","2019/09/10 14:39:24","新北市中和區中和路103號","121.501603333333","25.0006616666667","6500300","中和區"
"235007","352-BY","2019/09/10 14:39:39","新北市中和區南華路87號","121.505586666667","24.9972966666667","6500300","中和區"
"235006","KEA-2878","2019/09/10 14:39:35","新北市中和區宜安路171號","121.508401666667","24.9991183333333","6500300","中和區"
"247015","KEA-2869","2019/09/10 14:39:35","新北市蘆洲區正和街65號","121.46871","25.0811266666667","6501400","蘆洲區"
"235034","558-UM","2019/09/10 14:39:36","新北市中和區連城路171巷41弄1號","121.496016666667","24.9966166666667","6500300","中和區"
"235018","640-BX","2019/09/10 14:39:45","新北市中和區民享街35巷8弄15號","121.474585","25.0035116666667","6500300","中和區"
"235011","732-UM","2019/09/10 14:39:38","新北市中和區和平街5-1號","121.509496666667","24.9901016666667","6500300","中和區"
"235010","733-UM","2019/09/10 14:39:38","新北市中和區景新街496巷11號","121.51346","24.9867533333333","6500300","中和區"
"235035","783-BX","2019/09/10 14:39:41","新北市中和區連城路469巷21弄22號","121.484125","24.99504","6500300","中和區"
"235005","802-TS","2019/09/10 14:39:30","新北市中和區中安街32-1號","121.513186666667","25.0028566666667","6500300","中和區"
"235016","805-TS","2019/09/10 14:39:40","新北市中和區華新街192巷38號","121.506101666667","24.9835466666667","6500300","中和區"
"235012","896-TW","2019/09/10 14:39:25","新北市中和區景新街493號","121.513793333333","24.9872116666667","6500300","中和區"
"235017","900-TW","2019/09/10 14:39:40","新北市中和區國光街215巷4弄1號","121.46637","25.0018083333333","6500300","中和區"
"235015","157-BY","2019/09/10 14:39:31","新北市中和區中興街180巷33號","121.498213333333","24.98912","6500300","中和區"
"235001","AAC-213","2019/09/10 14:39:36","新北市中和區秀朗路三段173-2號","121.524395","24.991515","6500300","中和區"
"235023","AAC-215","2019/09/10 14:39:39","新北市中和區圓通路305巷13弄2號","121.494151666667","24.9896783333333","6500300","中和區"
"220013","072-UY","2019/09/10 14:39:43","新北市板橋區國泰街111巷15號","121.46606","25.006005","6500100","板橋區"
"220034","073-UY","2019/09/10 14:39:31","新北市板橋區國光路175號","121.460516666667","25.0185333333333","6500100","板橋區"
"220105","075-UY","2019/09/10 14:39:30","新北市板橋區文化路608巷50-1號","121.479311666667","25.03454","6500100","板橋區"
"220017","AAD-861","2019/09/10 14:39:35","新北市板橋區貴興路54號","121.456851666667","25.0031583333333","6500100","板橋區"
"220016","120-SR","2019/09/10 14:39:43","新北市板橋區中山路二段416巷36-1號","121.483143333333","25.0198316666667","6500100","板橋區"
"247005","893-R6","2019/09/10 14:39:31","新北市蘆洲區長安街89號","121.462223333333","25.080285","6501400","蘆洲區"
"247023","057-VK","2019/09/10 14:39:31","新北市蘆洲區正和街63巷18號","121.469153333333","25.0806766666667","6501400","蘆洲區"
"247013","056-VK","2019/09/10 14:39:43","新北市蘆洲區得勝街171號","121.471191666667","25.0828833333333","6501400","蘆洲區"
"247007","002-UY","2019/09/10 14:39:31","新北市蘆洲區信義路44號","121.474995","25.0794766666667","6501400","蘆洲區"
"247001","001-UY","2019/09/10 14:39:35","新北市蘆洲區長安街276號","121.457268333333","25.087085","6501400","蘆洲區"
"228005","097-TW","2019/09/10 14:39:31","新北市貢寮區美豐里雞母嶺街6-6號","121.902026666667","25.0641883333333","6502600","貢寮區"
"228004","212-TW","2019/09/10 14:39:27","新北市貢寮區福隆里虎子山街28號","121.94584","25.015","6502600","貢寮區"
"207002","749-BX","2019/09/10 14:39:34","新北市萬里區崁腳里崁腳路73號","121.647591666667","25.1595416666667","6502800","萬里區"
"207001","662-BX","2019/09/10 14:39:31","新北市萬里區雙興里豐稟路27-2號","121.641145","25.18831","6502800","萬里區"
"252005","AAC-283","2019/09/10 14:39:25","新北市三芝區埔坪里埔頭坑107-1號","121.514375","25.2470233333333","6502100","三芝區"
"236040","KED-0685","2019/09/10 14:39:42","新北市土城區裕民路56號","121.448861666667","24.9878783333333","6501300","土城區"
"236029","253-BX","2019/09/10 14:39:38","新北市土城區中華路二段92號","121.438228333333","24.9745616666667","6501300","土城區"
"236024","269-VK","2019/09/10 14:39:28","新北市土城區和平路4-4號","121.442685","24.9744266666667","6501300","土城區"
"236013","270-VK","2019/09/10 14:39:39","新北市土城區清水路221號","121.460738333333","24.9821766666667","6501300","土城區"
"236032","271-VK","2019/09/10 14:39:42","新北市土城區明德路一段210號","121.461273333333","24.97762","6501300","土城區"
"236065","KEA-2877","2019/09/10 14:39:41","新北市土城區永豐路203-1號","121.473361666667","24.9774833333333","6501300","土城區"
"236017","401-BY","2019/09/10 14:39:34","新北市土城區永豐路10號","121.465583333333","24.9846483333333","6501300","土城區"
"236057","912-UM","2019/09/10 14:39:39","新北市土城區中央路三段149號","121.432275","24.9653783333333","6501300","土城區"
"236045","913-UM","2019/09/10 14:39:42","新北市土城區明德路一段64號","121.465508333333","24.9833583333333","6501300","土城區"
"236060","915-UM","2019/09/10 14:39:36","新北市土城區金城路三段207巷6弄23號","121.47037","24.99052","6501300","土城區"
"236054","AAC-216","2019/09/10 14:39:43","新北市土城區裕民路29號","121.44806","24.98841","6501300","土城區"
"220027","145-BY","2019/09/10 14:39:39","新北市板橋區民權路284號","121.457438333333","25.0157183333333","6500100","板橋區"
"220028","200-UY","2019/09/10 14:39:27","新北市板橋區大觀路二段37巷268號","121.44983","25.0014516666667","6500100","板橋區"
"220030","610-BX","2019/09/10 14:39:38","新北市板橋區金門街131號","121.432955","24.9913266666667","6500100","板橋區"
"220050","245-BX","2019/09/10 14:39:40","新北市板橋區縣民大道三段79巷13號","121.475163333333","25.0220516666667","6500100","板橋區"
"220004","276-BY","2019/09/10 14:39:22","新北市板橋區干城路162號","121.460693333333","24.9919866666667","6500100","板橋區"
"220020","277-BY","2019/09/10 14:39:37","新北市板橋區金門街253巷17弄27號","121.433516666667","24.9891416666667","6500100","板橋區"
"220043","283-UM","2019/09/10 14:39:44","新北市板橋區長江路二段136號","121.466028333333","25.0316783333333","6500100","板橋區"
"220019","283-VK","2019/09/10 14:39:37","新北市板橋區信義路71號","121.457093333333","24.9953216666667","6500100","板橋區"
"220001","285-VK","2019/09/10 14:39:39","新北市板橋區中山路二段253號","121.477378333333","25.01745","6500100","板橋區"
"220031","286-VK","2019/09/10 14:39:41","新北市板橋區大觀路二段174巷139號","121.441356666667","25.00238","6500100","板橋區"
"220029","287-VK","2019/09/10 14:39:40","新北市板橋區大觀路一段29巷131弄31號","121.450523333333","25.004335","6500100","板橋區"
"220009","293-UM","2019/09/10 14:39:38","新北市板橋區觀光街57巷15弄27號","121.471015","25.0157983333333","6500100","板橋區"
"220010","295-UM","2019/09/10 14:39:38","新北市板橋區三民路二段29巷16號","121.481988333333","25.018005","6500100","板橋區"
"220032","296-UM","2019/09/10 14:39:41","新北市板橋區滿平二街2巷1弄2號","121.425118333333","24.9861666666667","6500100","板橋區"
"220067","299-UM","2019/09/10 14:39:28","新北市板橋區長安街251巷28-3號","121.472118333333","25.010995","6500100","板橋區"
"220023","303-R5","2019/09/10 14:39:27","新北市板橋區中正路275巷93號","121.450765","25.0180983333333","6500100","板橋區"
"220041","307-R5","2019/09/10 14:39:35","新北市板橋區四維路259巷77號","121.460353333333","25.0265483333333","6500100","板橋區"
"220047","317-R6","2019/09/10 14:39:35","新北市板橋區民生路三段299巷22號","121.462593333333","25.0300716666667","6500100","板橋區"
"220038","487-VK","2019/09/10 14:39:28","新北市板橋區龍泉街142號","121.456838333333","25.0237816666667","6500100","板橋區"
"220037","491-VK","2019/09/10 14:39:37","新北市板橋區民治街21號","121.477975","25.0343016666667","6500100","板橋區"
"220104","560-BX","2019/09/10 14:39:32","新北市板橋區金華街85巷42號","121.459168333333","25.0213666666667","6500100","板橋區"
"220052","561-BX","2019/09/10 14:39:40","新北市板橋區英士路58巷8號","121.460725","25.0251366666667","6500100","板橋區"
"220011","609-BX","2019/09/10 14:39:36","新北市板橋區萬安街53巷50-1號","121.482315","25.02357","6500100","板橋區"
"220040","637-BX","2019/09/10 14:39:39","新北市板橋區懷德街181巷28號","121.480515","25.0300316666667","6500100","板橋區"
"220005","686-BX","2019/09/10 14:39:37","新北市板橋區廣和街85號","121.462715","24.9918316666667","6500100","板橋區"
"220025","687-BX","2019/09/10 14:39:42","新北市板橋區僑中二街52號","121.446623333333","25.0102483333333","6500100","板橋區"
"220002","741-BX","2019/09/10 14:39:32","新北市板橋區忠孝路239巷25號","121.466701666667","25.0033866666667","6500100","板橋區"
"220051","KEA-2699","2019/09/10 14:39:28","新北市板橋區仁化街53號","121.475156666667","25.031715","6500100","板橋區"
"220003","827-TW","2019/09/10 14:39:43","新北市板橋區國慶路167巷39-4號","121.46162","24.99837","6500100","板橋區"
"220039","831-TW","2019/09/10 14:39:29","新北市板橋區綠堤街41-2號","121.45483","25.0266483333333","6500100","板橋區"
"220021","833-TW","2019/09/10 14:17:45","新北市板橋區華東街1-10號","121.448598333333","24.9948683333333","6500100","板橋區"
"220022","895-R6","2019/09/10 14:39:41","新北市板橋區福德街2巷16號","121.455658333333","25.0091483333333","6500100","板橋區"
"220021","985-R7","2019/09/10 14:39:37","新北市板橋區瑞安街45號","121.455321666667","25.0224783333333","6500100","板橋區"
"220046","AAC-210","2019/09/10 14:39:39","新北市板橋區光正街45巷29號","121.461631666667","25.0161166666667","6500100","板橋區"
"220012","AAC-253","2019/09/10 14:39:44","新北市板橋區公園街34巷2號","121.462421666667","25.00837","6500100","板橋區"
"235032","KEA-2873","2019/09/10 14:39:37","新北市中和區勝利路35巷3弄2號","121.499126666667","25.00713","6500300","中和區"
"235025","KEA-2875","2019/09/10 14:39:23","新北市中和區員山路174巷1號","121.481693333333","24.9999066666667","6500300","中和區"
"235026","KEA-2876","2019/09/10 14:39:21","新北市中和區中山路二段342號","121.493545","25.0021916666667","6500300","中和區"
