"lineid","car","time","location","longitude","latitude","cityid","cityname"
"244002","248-BX","2019/09/10 15:29:36","新北市林口區粉寮路一段90號","121.39872","25.0807566666667","6501700","林口區"
"231030","002-UM","2019/09/10 15:29:44","新北市新店區安和路三段68號","121.518016666667","24.9830716666667","6500600","新店區"
"231024","0291-UT","2019/09/10 15:29:43","新北市新店區安光路30號","121.51378","24.9646466666667","6500600","新店區"
"231005","046-UY","2019/09/10 15:29:34","新北市新店區建國路257號","121.537425","24.9832716666667","6500600","新店區"
"231029","047-UY","2019/09/10 15:29:37","新北市新店區安康路三段525巷39號","121.481611666667","24.9445366666667","6500600","新店區"
"231013","108-UY","2019/09/10 15:29:43","新北市新店區永業路81巷7弄2號","121.530593333333","24.9487683333333","6500600","新店區"
"231039","187-VK","2019/09/10 15:29:30","新北市新店區寶元路一段52號","121.543863333333","24.9846916666667","6500600","新店區"
"231036","KEA-2219","2019/09/10 15:29:28","新北市新店區安祥路69巷54弄49號","121.483206666667","24.9585083333333","6500600","新店區"
"231032","256-BX","2019/09/10 15:29:37","新北市新店區裕合街143號","121.489113333333","24.9491483333333","6500600","新店區"
"231023","260-TV","2019/09/10 15:29:27","新北市新店區北新路一段126巷26號","121.54358","24.96921","6500600","新店區"
"231003","268-BY","2019/09/10 15:29:25","新北市新店區寶高路120巷1號","121.55464","24.97611","6500600","新店區"
"231035","278-BY","2019/09/10 15:29:37","新北市新店區安民街365巷10弄3號","121.515606666667","24.9755733333333","6500600","新店區"
"231015","AAD-862","2019/09/10 15:29:38","新北市新店區明山路65號","121.565426666667","24.9573166666667","6500600","新店區"
"231038","3712-VJ","2019/09/10 15:29:41","新北市新店區安康路二段16巷46號","121.516718333333","24.9654666666667","6500600","新店區"
"231020","515-UM","2019/09/10 15:29:32","新北市新店區湖興路128-15號","121.566865","24.93172","6500600","新店區"
"231034","616-UM","2019/09/10 15:29:24","新北市新店區玫瑰路16號","121.494673333333","24.9502083333333","6500600","新店區"
"231002","618-UM","2019/09/10 15:29:23","新北市新店區環河路116號","121.536898333333","24.9668766666667","6500600","新店區"
"231012","KED-0819","2019/09/10 15:29:46","新北市新店區寶元路一段109號","121.545868333333","24.9830283333333","6500600","新店區"
"231018","718-UY","2019/09/10 15:29:38","新北市新店區民生路130號","121.529738333333","24.9822183333333","6500600","新店區"
"231026","720-UM","2019/09/10 15:29:33","新北市新店區三民路117巷2弄2號","121.534691666667","24.97202","6500600","新店區"
"231028","897-TW","2019/09/10 15:29:37","新北市新店區僑信路94號","121.49989","24.9477316666667","6500600","新店區"
"231001","898-TW","2019/09/10 15:29:43","新北市新店區光明街207號","121.539968333333","24.96373","6500600","新店區"
"231004","899-TW","2019/09/10 15:29:44","新北市新店區民族路108號","121.53819","24.9773766666667","6500600","新店區"
"231037","AKT-0513","2019/09/10 15:29:32","新北市新店區安興路83-8號","121.515175","24.9756333333333","6500600","新店區"
"241018","268-UM","2019/09/10 15:29:41","新北市三重區重新路四段121號","121.485126666667","25.05211","6500200","三重區"
"241022","462-BY","2019/09/10 15:29:39","新北市三重區重新路四段121號","121.48487","25.0520433333333","6500200","三重區"
"241020","478-VK","2019/09/10 15:29:40","新北市三重區重新路四段121號","121.484536666667","25.0522633333333","6500200","三重區"
"241012","941-UM","2019/09/10 15:29:40","新北市三重區成功路1號","121.490696666667","25.0498966666667","6500200","三重區"
"241029","942-UM","2019/09/10 15:29:33","新北市三重區成功路106-1號","121.487548333333","25.0516483333333","6500200","三重區"
"241033","AAC-255","2019/09/10 15:29:31","新北市三重區成功路110-2號","121.48704","25.05185","6500200","三重區"
"235036","301-VK","2019/09/10 15:29:44","新北市中和區連城路188巷2-1號","121.49277","24.9975616666667","6500300","中和區"
"235014","4979-A6","2019/09/10 15:29:29","新北市中和區景平路385巷11號","121.502383333333","24.9942383333333","6500300","中和區"
"235033","4980-A6","2019/09/10 15:29:33","新北市中和區民樂路25號","121.482931666667","25.0013333333333","6500300","中和區"
"235046","733-UM","2019/09/10 15:22:17","","121.484245","24.99066","6500300","中和區"
"235023","AAC-215","2019/09/10 15:29:39","新北市中和區員山路20號","121.483555","24.9840516666667","6500300","中和區"
"220034","073-UY","2019/09/10 15:29:31","新北市樹林區中山路三段210-2號","121.380683333333","24.9671616666667","6500100","板橋區"
"207001","662-BX","2019/09/10 15:29:31","新北市萬里區野柳里八斗60號","121.668916666667","25.2030733333333","6502800","萬里區"
"236040","KED-0685","2019/09/10 15:29:44","新北市土城區裕民路147號","121.452246666667","24.9864683333333","6501300","土城區"
"236029","253-BX","2019/09/10 15:29:38","新北市土城區中央路一段240號","121.444613333333","24.9849033333333","6501300","土城區"
"236024","269-VK","2019/09/10 15:29:35","新北市土城區中央路一段289號","121.444371666667","24.9843616666667","6501300","土城區"
"236013","270-VK","2019/09/10 15:29:39","新北市土城區廣興街19號","121.455923333333","24.9916366666667","6501300","土城區"
"236032","271-VK","2019/09/10 15:29:42","新北市土城區延吉街353巷8號","121.464506666667","24.983535","6501300","土城區"
"236065","KEA-2877","2019/09/10 15:29:37","新北市土城區水源街30號","121.440913333333","24.975635","6501300","土城區"
"236017","401-BY","2019/09/10 15:29:34","新北市土城區延吉街137巷11號","121.470961666667","24.985765","6501300","土城區"
"236057","912-UM","2019/09/10 15:29:39","新北市土城區中央路一段226號","121.444841666667","24.9852466666667","6501300","土城區"
"236045","913-UM","2019/09/10 15:29:38","新北市土城區金城路二段316號","121.459121666667","24.9843933333333","6501300","土城區"
"236054","AAC-216","2019/09/10 15:29:23","新北市土城區立德路12號","121.462503333333","24.9878583333333","6501300","土城區"
"220030","610-BX","2019/09/10 15:29:38","新北市樹林區八德街262-1號","121.417645","24.9721766666667","6500100","板橋區"
"220031","286-VK","2019/09/10 15:29:41","新北市板橋區僑中二街108巷17號","121.44504","25.0074183333333","6500100","板橋區"
"220032","296-UM","2019/09/10 15:29:41","新北市樹林區中山路三段214號","121.380271666667","24.9679566666667","6500100","板橋區"
"220021","833-TW","2019/09/10 15:10:31","新北市板橋區華東街1-10號","121.448546666667","24.9948633333333","6500100","板橋區"
