"lineid","car","time","location","longitude","latitude","cityid","cityname"
"234026","9371-KE","2019/09/10 17:49:43","新北市永和區和平街109巷6號","121.510818333333","25.0096433333333","6500400","永和區"
"249005","172-UM","2019/09/10 17:49:38","新北市八里區荖阡坑路41-6號","121.402288333333","25.132575","6502300","八里區"
"249001","173-UM","2019/09/10 17:49:37","新北市八里區龍米路二段147-1號","121.443068333333","25.1501833333333","6502300","八里區"
"249004","303-UY","2019/09/10 17:49:43","新北市八里區中華路一段309巷19-4號","121.416681666667","25.15385","6502300","八里區"
"249002","305-UY","2019/09/10 17:49:36","新北市八里區龍形五街37巷3-1號","121.448735","25.1325733333333","6502300","八里區"
"249003","593-UM","2019/09/10 17:49:29","新北市八里區中山路二段56巷1號","121.407066666667","25.1540733333333","6502300","八里區"
"248008","KED-0815","2019/09/10 17:49:36","新北市五股區中興路二段63巷17號","121.460293333333","25.0753833333333","6501500","五股區"
"232011","375-UM","2019/09/10 17:49:27","新北市坪林區北宜路八段168號","121.707485","24.9344666666667","6502000","坪林區"
"244007","080-UY","2019/09/10 17:49:31","新北市林口區竹林路77-1號","121.388361666667","25.0793733333333","6501700","林口區"
"244019","402-UM","2019/09/10 17:49:37","新北市林口區文化一路一段90號","121.3728","25.0707433333333","6501700","林口區"
"244013","KEA-2802","2019/09/10 17:49:29","新北市林口區中山路125號","121.388883333333","25.0788966666667","6501700","林口區"
"244023","483-VK","2019/09/10 17:49:15","新北市林口區東明二街38號","121.38951","25.0687483333333","6501700","林口區"
"244017","485-VK","2019/09/10 17:49:38","新北市林口區文化二路一段260巷1-1號","121.371216666667","25.0733816666667","6501700","林口區"
"244009","656-BX","2019/09/10 17:49:32","新北市林口區竹林路582巷11號","121.386026666667","25.0832533333333","6501700","林口區"
"244011","701-TV","2019/09/10 17:49:44","新北市林口區中正路273號","121.390015","25.0776516666667","6501700","林口區"
"244025","837-TS","2019/09/10 17:49:40","新北市林口區三民路185號","121.360946666667","25.0712033333333","6501700","林口區"
"244021","838-TS","2019/09/10 17:49:37","新北市林口區新寮29-1號","121.399565","25.0662683333333","6501700","林口區"
"222003","436-BY","2019/09/10 17:49:33","新北市深坑區阿柔洋60-1號","121.608611666667","24.9985116666667","6501800","深坑區"
"222002","659-BX","2019/09/10 17:49:34","新北市深坑區平埔街22巷8號","121.614945","25.00087","6501800","深坑區"
"241024","065-VK","2019/09/10 17:49:41","新北市三重區力行路二段9巷10號","121.482931666667","25.0722366666667","6500200","三重區"
"241025","271-UM","2019/09/10 17:49:46","新北市八里區商港路105巷15號","121.391305","25.14916","6500200","三重區"
"241016","887-TS","2019/09/10 17:48:49","新北市三重區新北大道一段7號","121.489571666667","25.0612433333333","6500200","三重區"
"241012","941-UM","2019/09/10 17:49:40","新北市三重區龍濱路190號","121.501131666667","25.073245","6500200","三重區"
"241033","AAC-255","2019/09/10 17:49:30","新北市三重區重新路五段552號","121.470255","25.045815","6500200","三重區"
"235063","006-UY","2019/09/10 17:49:38","新北市中和區員山路36巷16-3號","121.485063333333","24.9912733333333","6500300","中和區"
"235065","098-UM","2019/09/10 17:49:38","新北市中和區中正路637巷52弄1號","121.485488333333","24.9935216666667","6500300","中和區"
"247016","KEA-2869","2019/09/10 17:49:24","新北市蘆洲區中正路185巷23弄11號","121.467285","25.0843516666667","6501400","蘆洲區"
"247010","KED-0682","2019/09/10 17:49:43","新北市蘆洲區信義路283號","121.47866","25.0853233333333","6501400","蘆洲區"
"235057","801-TS","2019/09/10 17:49:26","新北市中和區員山路36巷16-2號","121.48517","24.9915816666667","6500300","中和區"
"235064","911-UM","2019/09/10 17:49:36","新北市中和區員山路36巷16-3號","121.485045","24.99142","6500300","中和區"
"235037","AAC-213","2019/09/10 17:49:44","新北市中和區中正路589巷15號","121.485728333333","24.9935216666667","6500300","中和區"
"247006","893-R6","2019/09/10 17:49:29","新北市蘆洲區長安街13號","121.46403","25.0789733333333","6501400","蘆洲區"
"247020","546-UM","2019/09/10 17:49:37","新北市蘆洲區民義街71巷31號","121.472103333333","25.0911533333333","6501400","蘆洲區"
"247018","500-BY","2019/09/10 17:49:35","新北市蘆洲區復興路227巷2弄18號","121.48086","25.0903033333333","6501400","蘆洲區"
"247012","337-TH","2019/09/10 17:49:29","新北市蘆洲區復興路124號","121.476495","25.087365","6501400","蘆洲區"
"247004","336-TH","2019/09/10 17:49:42","新北市蘆洲區長安街194巷17號","121.459833333333","25.0845033333333","6501400","蘆洲區"
"247024","057-VK","2019/09/10 17:49:28","新北市蘆洲區光榮路65號","121.461235","25.0887133333333","6501400","蘆洲區"
"247014","056-VK","2019/09/10 17:49:38","新北市蘆洲區保和街50-9號","121.47027","25.086435","6501400","蘆洲區"
"247022","007-UY","2019/09/10 17:49:44","新北市蘆洲區中正路418號","121.462946666667","25.09388","6501400","蘆洲區"
"247008","002-UY","2019/09/10 17:49:39","新北市蘆洲區中山一路200號","121.473613333333","25.0808533333333","6501400","蘆洲區"
"247002","001-UY","2019/09/10 17:49:42","新北市蘆洲區永平街32巷33弄13號","121.458861666667","25.0922216666667","6501400","蘆洲區"
"228003","097-TW","2019/09/10 17:49:44","新北市貢寮區真理里美艷山街6-2號","121.928825","25.0607516666667","6502600","貢寮區"
"228001","212-TW","2019/09/10 17:49:37","新北市貢寮區仁理村仁愛路95-1號","121.927573333333","25.0553633333333","6502600","貢寮區"
"228002","663-BX","2019/09/10 17:49:36","新北市貢寮區福隆里龜壽谷街11-1號","121.954245","25.0070133333333","6502600","貢寮區"
"224006","676-BX","2019/09/10 17:49:34","新北市瑞芳區傑魚坑路183號","121.788445","25.1082533333333","6501200","瑞芳區"
"224009","275-VK","2019/09/10 17:49:26","新北市瑞芳區山尖路86號","121.85367","25.115135","6501200","瑞芳區"
"224008","273-VK","2019/09/10 17:49:39","新北市瑞芳區明燈路一段45巷2-3號","121.821236666667","25.1069783333333","6501200","瑞芳區"
"224005","271-BY","2019/09/10 17:49:29","新北市瑞芳區瑞濱路32-10號","121.822356666667","25.1209866666667","6501200","瑞芳區"
"227001","642-TC","2019/09/10 17:22:39","新北市雙溪區三貂里定福路1-2號","121.850741666667","25.0634083333333","6502500","雙溪區"
"227002","400-TW","2019/09/10 17:49:30","新北市雙溪區共和里東榮街52號","121.86632","25.0336483333333","6502500","雙溪區"
"253006","295-VK","2019/09/10 17:49:30","新北市石門區老崩山11-13號","121.55177","25.2906533333333","6502200","石門區"
"208002","KEA-2872","2019/09/10 17:49:44","新北市金山區磺清路135號","121.639441666667","25.2276016666667","6502700","金山區"
"251004","009-UM","2019/09/10 17:49:36","新北市淡水區民權一街28號","121.458665","25.1365366666667","6501000","淡水區"
"251002","012-UM","2019/09/10 17:49:33","新北市淡水區中山路93-2號","121.442225","25.1705466666667","6501000","淡水區"
"251015","KEA-2871","2019/09/10 17:49:12","新北市淡水區興福寮1-15號","121.490841666667","25.16523","6501000","淡水區"
"251016","179-VK","2019/09/10 17:49:43","新北市淡水區埤島39-15號","121.452736666667","25.1958433333333","6501000","淡水區"
"251008","181-VK","2019/09/10 17:49:39","新北市淡水區八勢路一段156號","121.468116666667","25.156365","6501000","淡水區"
"251013","182-VK","2019/09/10 17:49:40","新北市淡水區泉洲厝31號","121.47957","25.1909966666667","6501000","淡水區"
"251010","413-VK","2019/09/10 17:49:26","新北市淡水區淡海路252號","121.420093333333","25.1871783333333","6501000","淡水區"
"251012","441-VK","2019/09/10 17:49:45","新北市淡水區北新路一段601號","121.470618333333","25.18402","6501000","淡水區"
"251007","442-VK","2019/09/10 17:49:30","新北市淡水區民生路12號","121.460905","25.1376816666667","6501000","淡水區"
"251005","443-VK","2019/09/10 17:49:30","新北市淡水區學府路102巷2號","121.450431666667","25.171935","6501000","淡水區"
"251006","561-UM","2019/09/10 17:49:37","新北市淡水區大信街1號","121.441381666667","25.1764016666667","6501000","淡水區"
"251009","575-R6","2019/09/10 17:49:44","新北市淡水區長興街16-3號","121.443963333333","25.170845","6501000","淡水區"
"251014","577-R6","2019/09/10 17:49:44","新北市淡水區公埔子16-6號","121.480993333333","25.2245333333333","6501000","淡水區"
"251011","650-BX","2019/09/10 17:49:44","新北市淡水區小坪頂13-3號","121.48662","25.1562166666667","6501000","淡水區"
"251003","673-BX","2019/09/10 17:49:31","新北市淡水區大忠街5巷1號","121.443155","25.1764883333333","6501000","淡水區"
"207003","550-UM","2019/09/10 17:49:39","新北市萬里區野柳里東澳路66號","121.692645","25.20087","6502800","萬里區"
"207004","291-VK","2019/09/10 17:49:36","新北市萬里區萬里里瑪鋉路77號","121.688326666667","25.1765183333333","6502800","萬里區"
"252001","292-VK","2019/09/10 17:49:30","新北市三芝區中興街一段30號","121.497676666667","25.2577933333333","6502100","三芝區"
"237004","KEA-2597","2019/09/10 17:49:37","新北市三峽區中山路114號","121.365743333333","24.9358283333333","6500900","三峽區"
"237009","210-TH","2019/09/10 17:49:29","新北市三峽區大勇路68號","121.367151666667","24.9364233333333","6500900","三峽區"
"237013","252-BX","2019/09/10 17:49:39","新北市三峽區介壽路一段30號","121.375603333333","24.932705","6500900","三峽區"
"237012","275-BY","2019/09/10 17:49:43","新北市三峽區文化路117號","121.370195","24.9361033333333","6500900","三峽區"
"237014","433-BY","2019/09/10 17:49:37","新北市三峽區文化路120巷5號","121.370976666667","24.9366266666667","6500900","三峽區"
"237006","5529-G3","2019/09/10 17:49:25","新北市三峽區介壽路二段38巷10-3號","121.391583333333","24.9350233333333","6500900","三峽區"
"237011","KEA-2596","2019/09/10 17:49:38","新北市三峽區民權街132號","121.368566666667","24.9319216666667","6500900","三峽區"
"237015","649-BX","2019/09/10 17:49:39","新北市三峽區白雞149-2號","121.399883333333","24.9050483333333","6500900","三峽區"
"237010","706-TV","2019/09/10 17:49:38","新北市三峽區復興路239-2號","121.368203333333","24.938465","6500900","三峽區"
"237005","AKY-6261","2019/09/10 17:49:32","新北市三峽區中山路301號","121.361375","24.9377766666667","6500900","三峽區"
"236042","KED-0685","2019/09/10 17:49:28","新北市土城區城林路6巷80號","121.438523333333","24.97962","6501300","土城區"
"236014","270-VK","2019/09/10 17:49:38","新北市土城區城林路6巷80號","121.438548333333","24.97978","6501300","土城區"
"236038","271-VK","2019/09/10 17:49:35","新北市土城區城林路6巷80號","121.438461666667","24.9797366666667","6501300","土城區"
"236070","KEA-2877","2019/09/10 17:49:35","新北市土城區青雲路322巷28號","121.4575","24.9750733333333","6501300","土城區"
"252002","KED-0821","2019/09/10 17:49:41","新北市三芝區中山路一段88巷15號","121.502835","25.2567416666667","6502100","三芝區"
"236059","912-UM","2019/09/10 17:49:33","新北市土城區中華路二段182號","121.437435","24.9716216666667","6501300","土城區"
"236063","915-UM","2019/09/10 17:49:35","新北市土城區城林路6巷80號","121.438655","24.9796966666667","6501300","土城區"
"236055","AAC-216","2019/09/10 17:49:35","新北市土城區城林路6巷80號","121.438521666667","24.9795966666667","6501300","土城區"
"242042","AAC-296","2019/09/10 17:49:45","新北市泰山區新北大道六段462號","121.422183333333","25.0328483333333","6500500","新莊區"
"242061","986-R7","2019/09/10 17:49:41","新北市新莊區新樹路551巷12號","121.434133333333","25.0067116666667","6500500","新莊區"
"242005","751-BX","2019/09/10 17:49:39","新北市新莊區自立街249號","121.458766666667","25.045635","6500500","新莊區"
"242029","615-BX","2019/09/10 17:49:43","新北市新莊區復興路一段25號","121.446245","25.0416516666667","6500500","新莊區"
"242027","613-BX","2019/09/10 17:49:33","新北市新莊區福壽街139號","121.458035","25.0526916666667","6500500","新莊區"
"242058","612-BX","2019/09/10 17:49:33","新北市新莊區中正路700-21號","121.417936666667","25.0270333333333","6500500","新莊區"
"242048","566-BX","2019/09/10 17:49:39","新北市新莊區萬安街66號","121.420871666667","25.0234","6500500","新莊區"
"242054","442-UM","2019/09/10 17:49:45","新北市新莊區民安西路468-1號","121.431631666667","25.0078083333333","6500500","新莊區"
"242002","441-UM","2019/09/10 17:49:39","新北市新莊區景德路174號","121.45014","25.0341083333333","6500500","新莊區"
"242007","440-UM","2019/09/10 17:49:30","新北市新莊區福樂街59號","121.457378333333","25.0475566666667","6500500","新莊區"
"242044","415-TV","2019/09/10 17:49:45","新北市新莊區中正路855巷28號","121.420041666667","25.0269466666667","6500500","新莊區"
"242013","413-TV","2019/09/10 17:49:31","新北市新莊區中泰街104巷5弄11號","121.448263333333","25.0468366666667","6500500","新莊區"
"242051","400-BY","2019/09/10 17:49:45","新北市新莊區西盛街231巷13號","121.428675","25.01635","6500500","新莊區"
"242025","362-BY","2019/09/10 17:49:30","新北市新莊區新北大道二段143號","121.465845","25.0613116666667","6500500","新莊區"
"242023","353-BY","2019/09/10 17:49:45","新北市新莊區福樂街46號","121.457826666667","25.0457666666667","6500500","新莊區"
"242015","132-UY","2019/09/10 17:49:44","新北市新莊區新泰路462號","121.443353333333","25.044815","6500500","新莊區"
"242039","135-UY","2019/09/10 17:49:26","新北市新莊區民安路176號","121.425136666667","25.023885","6500500","新莊區"
"242056","172-VK","2019/09/10 17:49:37","新北市新莊區瓊林路40巷11號","121.447376666667","25.0301183333333","6500500","新莊區"
"242017","175-VK","2019/09/10 17:49:36","新北市新莊區永安街97號","121.45048","25.0445733333333","6500500","新莊區"
"242021","176-VK","2019/09/10 17:49:38","新北市新莊區中港路134號","121.45516","25.0407533333333","6500500","新莊區"
"242046","346-TH","2019/09/10 17:49:44","新北市新莊區建國一路31巷11號","121.43471","25.0316583333333","6500500","新莊區"
"242032","347-TH","2019/09/10 17:49:35","新北市新莊區新泰路321巷13號","121.444035","25.041165","6500500","新莊區"
"242037","348-TH","2019/09/10 17:49:39","新北市新莊區後港一路73號","121.426985","25.0266516666667","6500500","新莊區"
"242009","349-TH","2019/09/10 17:49:42","新北市新莊區昌明街42號","121.456318333333","25.0523983333333","6500500","新莊區"
"242034","350-TH","2019/09/10 17:49:41","新北市新莊區新樹路13號","121.440833333333","25.0328433333333","6500500","新莊區"
"242019","351-TH","2019/09/10 17:49:27","新北市新莊區長青街30號","121.456678333333","25.04224","6500500","新莊區"
"238015","755-BX","2019/09/10 17:49:34","新北市樹林區復興路141號","121.421376666667","24.992665","6500700","樹林區"
"238023","601-UM","2019/09/10 17:49:38","桃園市龜山區龍興街12巷7號","121.402125","25.01618","6500700","樹林區"
"238019","599-UM","2019/09/10 17:49:37","新北市樹林區太平路127巷6弄1號","121.4198","24.9805533333333","6500700","樹林區"
"238018","KEA-2217","2019/09/10 17:49:32","新北市樹林區博愛街121巷14-6號","121.426215","24.9910566666667","6500700","樹林區"
"238022","KEA-2213","2019/09/10 17:49:45","新北市樹林區太順街62巷3弄9號","121.417318333333","24.97949","6500700","樹林區"
"238021","KEA-2539","2019/09/10 17:49:46","新北市樹林區柑園街一段36-8號","121.4057","24.9617533333333","6500700","樹林區"
"238025","303-VK","2019/09/10 17:49:37","新北市樹林區俊興街225號","121.417631666667","25.0147883333333","6500700","樹林區"
"238017","283-BY","2019/09/10 17:49:28","新北市樹林區俊德街51號","121.415688333333","25.0133383333333","6500700","樹林區"
"238014","282-BY","2019/09/10 17:49:26","新北市樹林區大安路125巷17號","121.423006666667","24.9969866666667","6500700","樹林區"
"238020","268-VK","2019/09/10 17:49:44","新北市樹林區俊英街210號","121.425208333333","25.0094283333333","6500700","樹林區"
"238026","172-UY","2019/09/10 17:49:26","新北市樹林區新興街19巷34弄13號","121.402188333333","24.9729766666667","6500700","樹林區"
"238016","169-UY","2019/09/10 17:49:40","新北市樹林區復興路337號","121.41786","24.9878433333333","6500700","樹林區"
"239007","AAC-297","2019/09/10 17:49:39","新北市鶯歌區永利街18號","121.338975","24.9547483333333","6500800","鶯歌區"
"239006","891-R6","2019/09/10 17:49:30","新北市鶯歌區永和街34巷10弄8號","121.333276666667","24.96724","6500800","鶯歌區"
"239008","527-UM","2019/09/10 17:49:44","新北市鶯歌區大湖路718號","121.332916666667","24.976455","6500800","鶯歌區"
"239005","526-UM","2019/09/10 17:49:33","新北市鶯歌區鳳吉四街9號","121.326318333333","24.972635","6500800","鶯歌區"
"239001","417-VK","2019/09/10 17:49:41","新北市鶯歌區中正三路270號","121.329228333333","24.9361966666667","6500800","鶯歌區"
"239003","360-BY","2019/09/10 17:49:32","新北市鶯歌區鶯桃路285巷37號","121.333953333333","24.9585133333333","6500800","鶯歌區"
"239002","359-BY","2019/09/10 17:49:40","新北市鶯歌區育智路6號","121.344991666667","24.9556366666667","6500800","鶯歌區"
"239004","193-VK","2019/09/10 17:49:30","新北市鶯歌區文化路136巷38號","121.351295","24.9507666666667","6500800","鶯歌區"
"221010","269-BY","2019/09/10 17:49:29","新北市汐止區汐萬路一段401號","121.649401666667","25.0789833333333","6501100","汐止區"
"221029","298-VK","2019/09/10 17:49:25","新北市汐止區汐萬路一段278巷5號","121.651441666667","25.07469","6501100","汐止區"
"221031","353-TW","2019/09/10 17:49:45","新北市汐止區連峰街1巷1號","121.646756666667","25.07605","6501100","汐止區"
"233001","KEA-2870","2019/09/10 17:49:35","新北市烏來區環山路181-1號","121.549286666667","24.8529083333333","6502900","烏來區"
"242011","280-VK","2019/09/10 17:49:37","新北市新莊區中港路746號","121.450328333333","25.0583666666667","6500500","新莊區"
"220021","833-TW","2019/09/10 17:36:18","新北市板橋區華東街1-10號","121.448546666667","24.99471","6500100","板橋區"
"235068","KEA-2873","2019/09/10 17:49:17","新北市中和區員山路36巷16-3號","121.485153333333","24.991155","6500300","中和區"
"235062","KEA-2876","2019/09/10 17:49:46","新北市中和區員山路36巷16-2號","121.485168333333","24.9914483333333","6500300","中和區"
