"lineid","car","time","location","longitude","latitude","cityid","cityname"
"234046","148-BY","2019/09/10 18:29:37","新北市永和區福和路1號","121.525651666667","25.00943","6500400","永和區"
"234038","336-UY","2019/09/10 18:29:28","新北市永和區福和路1號","121.52669","25.0100916666667","6500400","永和區"
"234017","745-BX","2019/09/10 18:29:31","新北市永和區福和路1號","121.526298333333","25.0095416666667","6500400","永和區"
"234007","KED-0605","2019/09/10 18:29:27","新北市永和區保順路8號","121.503516666667","25.0121766666667","6500400","永和區"
"234013","KEA-2591","2019/09/10 18:29:35","新北市永和區福和路1號","121.526278333333","25.00942","6500400","永和區"
"234026","9371-KE","2019/09/10 18:29:43","新北市永和區永貞路395號","121.507855","25.0089633333333","6500400","永和區"
"234011","9373-KE","2019/09/10 18:29:34","新北市永和區保安路69號","121.509033333333","25.0153166666667","6500400","永和區"
"249005","172-UM","2019/09/10 18:29:38","新北市八里區中華路三段134號","121.392141666667","25.134245","6502300","八里區"
"249001","173-UM","2019/09/10 18:29:37","新北市八里區龍米路一段158號","121.452803333333","25.1259633333333","6502300","八里區"
"249004","303-UY","2019/09/10 18:29:43","新北市八里區忠孝路90號","121.425961666667","25.1604833333333","6502300","八里區"
"249002","305-UY","2019/09/10 18:29:36","新北市八里區龍形三街6巷5號","121.449976666667","25.1323733333333","6502300","八里區"
"249003","593-UM","2019/09/10 18:21:36","新北市八里區博物館路10-1號","121.41509","25.16397","6502300","八里區"
"248014","025-BX","2019/09/10 18:29:32","新北市五股區自強路93號","121.432331666667","25.07142","6501500","五股區"
"248016","026-BX","2019/09/10 18:29:36","新北市五股區凌雲路一段83巷1-4號","121.45046","25.1008116666667","6501500","五股區"
"248008","KED-0815","2019/09/10 18:29:36","新北市五股區中興路二段78-5號","121.4617","25.0785083333333","6501500","五股區"
"248020","KED-0813","2019/09/10 18:29:30","新北市五股區孝義路55巷5號","121.451391666667","25.1120133333333","6501500","五股區"
"248012","247-BX","2019/09/10 18:29:23","新北市五股區御史路22號","121.441988333333","25.0913066666667","6501500","五股區"
"248004","677-BX","2019/09/10 18:29:29","新北市五股區民義路一段155號","121.432863333333","25.0876933333333","6501500","五股區"
"248002","678-BX","2019/09/10 18:29:37","新北市五股區西雲路116-6號","121.444753333333","25.09353","6501500","五股區"
"248010","682-TV","2019/09/10 18:29:34","新北市五股區水碓路3-1號","121.433766666667","25.0722033333333","6501500","五股區"
"234077","969-R7","2019/09/10 18:29:24","新北市永和區福和路1號","121.526491666667","25.0098916666667","6500400","永和區"
"232011","375-UM","2019/09/10 18:16:34","新北市坪林區坪雙路一段41號","121.711726666667","24.9424316666667","6502000","坪林區"
"244007","080-UY","2019/09/10 18:29:31","新北市林口區後湖40-2號","121.386598333333","25.0998333333333","6501700","林口區"
"244019","402-UM","2019/09/10 18:29:37","新北市林口區麗園二街33巷2號","121.380326666667","25.0693783333333","6501700","林口區"
"244013","KEA-2802","2019/09/10 18:29:47","新北市林口區中正路510號","121.381971666667","25.0771266666667","6501700","林口區"
"244023","483-VK","2019/09/10 18:29:35","新北市林口區仁愛路二段100號","121.383666666667","25.0750166666667","6501700","林口區"
"244017","485-VK","2019/09/10 18:29:38","新北市林口區文化二路一段62-6號","121.365488333333","25.0685316666667","6501700","林口區"
"244009","656-BX","2019/09/10 18:29:32","新北市林口區寶林路95號","121.383966666667","25.085015","6501700","林口區"
"244011","701-TV","2019/09/10 18:29:44","新北市林口區興林路17巷5弄2號","121.39056","25.0769933333333","6501700","林口區"
"244025","837-TS","2019/09/10 18:29:40","新北市林口區南勢六街55號","121.355746666667","25.0714333333333","6501700","林口區"
"244021","838-TS","2019/09/10 18:29:37","新北市林口區自強二街49號","121.39907","25.07725","6501700","林口區"
"222003","436-BY","2019/09/10 18:29:33","新北市深坑區北深路一段288號","121.628158333333","25.0076233333333","6501800","深坑區"
"222002","659-BX","2019/09/10 18:29:34","新北市深坑區雲鄉路133號","121.622726666667","24.9980616666667","6501800","深坑區"
"231055","0291-UT","2019/09/10 18:29:45","新北市新店區中正路124號","121.542196666667","24.97123","6500600","新店區"
"231058","0293-UT","2019/09/10 18:29:27","新北市新店區北新路一段43號","121.538061666667","24.95941","6500600","新店區"
"231044","046-UY","2019/09/10 18:29:38","新北市新店區安華路1-1號","121.519198333333","24.9605283333333","6500600","新店區"
"231060","047-UY","2019/09/10 18:29:38","新北市新店區安華路28-1號","121.51955","24.9607883333333","6500600","新店區"
"231065","KEA-2219","2019/09/10 18:29:30","新北市新店區安一路一段1-1號","121.519763333333","24.9612933333333","6500600","新店區"
"231062","256-BX","2019/09/10 18:29:34","新北市新店區安一路一段1-1號","121.51956","24.961125","6500600","新店區"
"231054","260-TV","2019/09/10 18:29:28","新北市新店區安一路一段1-1號","121.51923","24.9610466666667","6500600","新店區"
"231042","268-BY","2019/09/10 18:29:28","新北市新店區北新路一段148號","121.542948333333","24.9702066666667","6500600","新店區"
"231064","278-BY","2019/09/10 18:29:33","新北市新店區安一路一段1-1號","121.519656666667","24.9610733333333","6500600","新店區"
"231050","AAD-862","2019/09/10 18:29:37","新北市新店區安華路28-1號","121.519878333333","24.9609633333333","6500600","新店區"
"231045","355-BY","2019/09/10 18:29:43","新北市新店區安華路28-1號","121.519276666667","24.960875","6500600","新店區"
"231056","4715-K9","2019/09/10 18:29:39","新北市新店區二十張路129巷1弄1號","121.536008333333","24.9791216666667","6500600","新店區"
"231053","515-UM","2019/09/10 18:29:38","新北市新店區北宜路一段256號","121.545503333333","24.9528","6500600","新店區"
"231063","616-UM","2019/09/10 18:29:40","新北市新店區安華路1-1號","121.519381666667","24.9604683333333","6500600","新店區"
"231048","KED-0819","2019/09/10 18:29:36","新北市新店區安一路一段1-1號","121.519866666667","24.9611716666667","6500600","新店區"
"231051","718-UY","2019/09/10 18:29:41","新北市新店區安一路一段1-1號","121.519385","24.961095","6500600","新店區"
"231057","720-UM","2019/09/10 18:29:25","新北市新店區安一路一段1-1號","121.519313333333","24.9612383333333","6500600","新店區"
"231059","897-TW","2019/09/10 18:29:28","新北市新店區安華路28-1號","121.519633333333","24.96074","6500600","新店區"
"231040","898-TW","2019/09/10 18:29:29","新北市新店區安華路28-1號","121.519346666667","24.96077","6500600","新店區"
"231043","899-TW","2019/09/10 18:29:35","新北市新店區安華路28-1號","121.51929","24.9608333333333","6500600","新店區"
"231066","AKT-0513","2019/09/10 18:29:39","新北市新店區安華路1-1號","121.519453333333","24.9602283333333","6500600","新店區"
"241012","941-UM","2019/09/10 18:29:31","新北市三重區龍濱路190號","121.50112","25.0732466666667","6500200","三重區"
"235066","003-UY","2019/09/10 18:29:39","新北市中和區中山路二段120號","121.50273","25.0038733333333","6500300","中和區"
"235063","006-UY","2019/09/10 18:29:38","新北市中和區連城路403巷2弄2號","121.486155","24.9958966666667","6500300","中和區"
"235056","096-UM","2019/09/10 18:29:46","新北市中和區員山路611巷1號","121.477835","25.011305","6500300","中和區"
"235039","097-UM","2019/09/10 18:29:45","新北市中和區安樂路243巷9-3號","121.513905","24.99961","6500300","中和區"
"235065","098-UM","2019/09/10 18:29:38","新北市中和區莊敬路49巷20弄22號","121.50275","25.005815","6500300","中和區"
"235040","150-BY","2019/09/10 18:29:38","新北市中和區安平路59號","121.509553333333","24.9950783333333","6500300","中和區"
"235058","151-BY","2019/09/10 18:29:32","新北市中和區圓通路369巷30弄46號","121.48876","24.9844366666667","6500300","中和區"
"235055","183-VK","2019/09/10 18:29:47","新北市中和區民生街93-2號","121.46855","25.0047516666667","6500300","中和區"
"235038","185-VK","2019/09/10 18:29:41","新北市中和區秀朗路三段128巷17弄29號","121.52301","24.9933883333333","6500300","中和區"
"235049","186-VK","2019/09/10 18:29:28","新北市中和區景安路102號","121.505506666667","24.9955216666667","6500300","中和區"
"235067","255-BX","2019/09/10 18:29:43","新北市中和區新生街26號","121.483145","25.003975","6500300","中和區"
"235044","293-VK","2019/09/10 18:29:39","新北市中和區復興路301巷2弄1號","121.501495","24.9898916666667","6500300","中和區"
"235072","301-VK","2019/09/10 18:29:28","新北市中和區安邦街8號","121.49555","24.9981583333333","6500300","中和區"
"235043","352-BY","2019/09/10 18:29:29","新北市中和區景平路261號","121.508423333333","24.9928766666667","6500300","中和區"
"235042","KEA-2878","2019/09/10 18:29:30","新北市中和區秀朗路三段150巷21號","121.523488333333","24.9909783333333","6500300","中和區"
"235050","4979-A6","2019/09/10 18:29:35","新北市中和區景新街410巷18弄24號","121.51191","24.9900933333333","6500300","中和區"
"235069","4980-A6","2019/09/10 18:29:42","新北市中和區連城路133-1號","121.495886666667","24.998985","6500300","中和區"
"235070","558-UM","2019/09/10 18:29:32","新北市中和區景新街160巷6號","121.505376666667","24.9972533333333","6500300","中和區"
"235045","565-BX","2019/09/10 18:29:18","新北市中和區南山路236巷36弄5號","121.504126666667","24.98835","6500300","中和區"
"235060","KED-0823","2019/09/10 18:29:40","新北市中和區中山路二段580號","121.482708333333","25.0051216666667","6500300","中和區"
"235054","640-BX","2019/09/10 18:29:43","新北市中和區莒光路80號","121.472333333333","25.002885","6500300","中和區"
"235047","732-UM","2019/09/10 18:29:43","新北市中和區南山路501號","121.508001666667","24.9876916666667","6500300","中和區"
"235046","733-UM","2019/09/10 18:29:31","新北市中和區興南路一段71號","121.510165","24.98938","6500300","中和區"
"235057","801-TS","2019/09/10 18:29:26","新北市中和區員山路327巷46號","121.48044","25.0017033333333","6500300","中和區"
"235041","802-TS","2019/09/10 18:29:30","新北市中和區宜安路166號","121.508988333333","24.9989733333333","6500300","中和區"
"235052","805-TS","2019/09/10 18:29:29","新北市中和區興南路二段96號","121.504996666667","24.9840933333333","6500300","中和區"
"235048","896-TW","2019/09/10 18:29:39","新北市中和區中正路75號","121.500948333333","24.9934666666667","6500300","中和區"
"235053","900-TW","2019/09/10 18:29:46","新北市中和區連城路631-2號","121.47564","24.9914083333333","6500300","中和區"
"235064","911-UM","2019/09/10 18:29:35","新北市中和區連城路126號","121.495966666667","24.9992216666667","6500300","中和區"
"235051","157-BY","2019/09/10 18:29:30","新北市中和區興南路二段142巷20弄4號","121.502471666667","24.9845966666667","6500300","中和區"
"235037","AAC-213","2019/09/10 18:29:44","新北市中和區景德街53號","121.517705","24.9914416666667","6500300","中和區"
"235059","AAC-215","2019/09/10 18:29:37","新北市中和區員山路36巷16-3號","121.48511","24.9912183333333","6500300","中和區"
"220065","072-UY","2019/09/10 18:29:28","新北市板橋區南雅南路二段11-5號","121.454163333333","25.0023383333333","6500100","板橋區"
"220106","120-SR","2019/09/10 18:29:35","新北市板橋區民生路二段120號","121.470533333333","25.0196883333333","6500100","板橋區"
"226004","312-R5","2019/09/10 18:29:40","新北市平溪區靜安路二段292號","121.72959","25.02265","6502400","平溪區"
"228003","097-TW","2019/09/10 18:29:44","新北市貢寮區和美里和美街39號","121.912361666667","25.08941","6502600","貢寮區"
"228001","212-TW","2019/09/10 18:29:36","新北市貢寮區仁理村仁和路134號","121.923065","25.0514233333333","6502600","貢寮區"
"228002","663-BX","2019/09/10 18:29:37","新北市貢寮區福連里福連街1號","121.988358333333","25.016485","6502600","貢寮區"
"224010","AGQ-8101","2019/09/10 18:29:46","新北市瑞芳區烏勢巷107號","121.846143333333","25.108555","6501200","瑞芳區"
"224006","676-BX","2019/09/10 18:29:34","新北市瑞芳區明燈路二段38號","121.810105","25.10767","6501200","瑞芳區"
"224002","639-TC","2019/09/10 18:29:40","新北市瑞芳區三爪子坑路29巷35號","121.8138","25.1065516666667","6501200","瑞芳區"
"224007","285-BY","2019/09/10 18:29:33","新北市瑞芳區大埔路有勝二村10號","121.764075","25.1002333333333","6501200","瑞芳區"
"224009","275-VK","2019/09/10 18:29:46","新北市瑞芳區五號路308號","121.856926666667","25.11138","6501200","瑞芳區"
"224008","273-VK","2019/09/10 18:29:42","新北市瑞芳區岳王路1巷28號","121.806381666667","25.11053","6501200","瑞芳區"
"224005","271-BY","2019/09/10 18:29:29","新北市瑞芳區瑞濱路103號","121.820383333333","25.120405","6501200","瑞芳區"
"227001","642-TC","2019/09/10 18:29:34","新北市雙溪區牡丹里牡丹39號","121.852501666667","25.0583966666667","6502500","雙溪區"
"227002","400-TW","2019/09/10 18:29:30","新北市雙溪區魚行里坤溪21號","121.870345","25.0287783333333","6502500","雙溪區"
"253005","032-BX","2019/09/10 18:29:36","新北市石門區老崩山11-3號","121.552328333333","25.290855","6502200","石門區"
"253006","295-VK","2019/09/10 18:29:30","新北市石門區公地20號","121.545785","25.2902116666667","6502200","石門區"
"222001","KEA-2212","2019/09/10 18:29:33","新北市深坑區北深路一段185號","121.632098333333","25.01058","6501800","深坑區"
"208002","KEA-2872","2019/09/10 18:29:44","新北市金山區忠孝一路4號","121.639326666667","25.219105","6502700","金山區"
"208003","665-BX","2019/09/10 18:29:41","新北市金山區中山路250號","121.635696666667","25.22383","6502700","金山區"
"251004","009-UM","2019/09/10 18:29:36","新北市淡水區民族路31巷29號","121.462373333333","25.1364433333333","6501000","淡水區"
"251001","011-UM","2019/09/10 18:29:46","新北市淡水區自強路373號","121.464575","25.1334","6501000","淡水區"
"251002","012-UM","2019/09/10 18:29:33","新北市淡水區竿蓁二街52-1號","121.454596666667","25.1631966666667","6501000","淡水區"
"251015","KEA-2871","2019/09/10 18:29:32","新北市淡水區興福寮88巷216號","121.48596","25.16663","6501000","淡水區"
"251016","179-VK","2019/09/10 18:29:43","新北市淡水區下圭柔山114-1號","121.445521666667","25.210905","6501000","淡水區"
"251008","181-VK","2019/09/10 18:29:39","新北市淡水區北投子93號","121.46638","25.1768","6501000","淡水區"
"251013","182-VK","2019/09/10 18:29:40","新北市淡水區椿子林19-5號","121.481138333333","25.2030283333333","6501000","淡水區"
"251010","413-VK","2019/09/10 18:29:26","新北市淡水區沙崙路181巷1號","121.424175","25.1841833333333","6501000","淡水區"
"251012","441-VK","2019/09/10 18:29:45","新北市淡水區北新路一段175號","121.45933","25.1822333333333","6501000","淡水區"
"251005","443-VK","2019/09/10 18:29:30","新北市淡水區中正東路35巷6號","121.446291666667","25.1684666666667","6501000","淡水區"
"251006","561-UM","2019/09/10 18:29:37","新北市淡水區大信街6號","121.441683333333","25.176315","6501000","淡水區"
"251014","577-R6","2019/09/10 18:29:44","新北市淡水區南平26-1號","121.49371","25.2146483333333","6501000","淡水區"
"251011","650-BX","2019/09/10 18:29:26","新北市淡水區坪頂路57號","121.458811666667","25.16271","6501000","淡水區"
"251003","673-BX","2019/09/10 18:29:31","新北市淡水區北新路169巷16號","121.4498","25.1801266666667","6501000","淡水區"
"207003","550-UM","2019/09/10 18:29:39","新北市萬里區野柳里港東路6號","121.686453333333","25.2031333333333","6502800","萬里區"
"207004","291-VK","2019/09/10 18:29:43","新北市萬里區萬里里瑪鋉路12-4號","121.687801666667","25.1756683333333","6502800","萬里區"
"252003","249-BX","2019/09/10 18:29:46","新北市三芝區後厝里北勢子42-1號","121.47143","25.2522033333333","6502100","三芝區"
"252001","292-VK","2019/09/10 18:29:30","新北市三芝區中興街二段6號","121.498416666667","25.2565566666667","6502100","三芝區"
"208001","170-UY","2019/09/10 18:29:40","新北市金山區文化二路4號","121.636861666667","25.22457","6502700","金山區"
"237004","KEA-2597","2019/09/10 18:29:37","新北市三峽區五寮30-1號","121.373833333333","24.8701666666667","6500900","三峽區"
"237007","153-BY","2019/09/10 18:29:39","新北市三峽區中正路三段160號","121.352873333333","24.9036116666667","6500900","三峽區"
"237009","210-TH","2019/09/10 18:29:29","新北市三峽區大同路275號","121.36621","24.9255166666667","6500900","三峽區"
"237013","252-BX","2019/09/10 18:29:27","新北市三峽區光明路69巷25號","121.376625","24.9291416666667","6500900","三峽區"
"237012","275-BY","2019/09/10 18:29:43","新北市三峽區三樹路166號","121.379006666667","24.9406366666667","6500900","三峽區"
"237008","302-VK","2019/09/10 18:29:40","新北市三峽區白雞129-1號","121.397988333333","24.9058933333333","6500900","三峽區"
"237014","433-BY","2019/09/10 18:29:37","新北市三峽區文化路77號","121.371618333333","24.9360566666667","6500900","三峽區"
"237006","5529-G3","2019/09/10 18:29:45","新北市三峽區溪東路352-1號","121.41307","24.9281216666667","6500900","三峽區"
"237011","KEA-2596","2019/09/10 18:29:38","新北市三峽區溪東路218巷2-1號","121.407496666667","24.931945","6500900","三峽區"
"237015","649-BX","2019/09/10 18:29:39","新北市三峽區竹崙路127號","121.433788333333","24.90973","6500900","三峽區"
"237010","706-TV","2019/09/10 18:29:38","新北市三峽區中山路237號","121.36272","24.937205","6500900","三峽區"
"237005","AKY-6261","2019/09/10 18:29:32","新北市三峽區秀川街59號","121.370545","24.93344","6500900","三峽區"
"236042","KED-0685","2019/09/10 18:29:44","新北市土城區裕民路67巷4弄2號","121.449803333333","24.9878966666667","6501300","土城區"
"236030","253-BX","2019/09/10 18:29:38","新北市土城區福仁街30巷10號","121.439428333333","24.975925","6501300","土城區"
"236026","269-VK","2019/09/10 18:29:38","新北市土城區南天母路93號","121.447743333333","24.9559616666667","6501300","土城區"
"236014","270-VK","2019/09/10 18:29:38","新北市土城區青雲路39巷7號","121.460373333333","24.98741","6501300","土城區"
"236038","271-VK","2019/09/10 18:29:35","新北市土城區青雲路409號","121.458955","24.9753666666667","6501300","土城區"
"236070","KEA-2877","2019/09/10 18:29:35","新北市土城區永豐路255巷27弄39號","121.476735","24.97366","6501300","土城區"
"236021","401-BY","2019/09/10 18:29:36","新北市土城區永豐路202巷14號","121.466233333333","24.9834783333333","6501300","土城區"
"236059","912-UM","2019/09/10 18:29:33","新北市土城區中央路四段156號","121.4171","24.95822","6501300","土城區"
"236049","913-UM","2019/09/10 18:29:45","新北市土城區青雲路370-1號","121.458715","24.97359","6501300","土城區"
"236063","915-UM","2019/09/10 18:29:35","新北市土城區延壽路77巷6弄4號","121.468511666667","24.9927366666667","6501300","土城區"
"236055","AAC-216","2019/09/10 18:29:34","新北市土城區福祥街101巷1號","121.440986666667","24.9817116666667","6501300","土城區"
"242042","AAC-296","2019/09/10 18:29:45","新北市新莊區天祥街71巷13號","121.415693333333","25.02869","6500500","新莊區"
"242061","986-R7","2019/09/10 18:29:31","新北市新莊區民安路393號","121.432321666667","25.0229416666667","6500500","新莊區"
"242058","612-BX","2019/09/10 18:29:35","新北市新莊區中正路895-50號","121.41197","25.0218166666667","6500500","新莊區"
"242054","442-UM","2019/09/10 18:29:25","新北市樹林區大安路1-83號","121.429351666667","25.0041083333333","6500500","新莊區"
"242002","441-UM","2019/09/10 18:29:39","新北市新莊區瓊林路96-4號","121.444051666667","25.0272083333333","6500500","新莊區"
"242044","415-TV","2019/09/10 18:29:45","新北市新莊區新北大道七段842號","121.413733333333","25.0237466666667","6500500","新莊區"
"242013","413-TV","2019/09/10 18:29:31","新北市板橋區大觀路三段2巷31號","121.435213333333","24.9967383333333","6500500","新莊區"
"242025","362-BY","2019/09/10 18:29:30","新北市新莊區五工路95-1號","121.457351666667","25.0638916666667","6500500","新莊區"
"242015","132-UY","2019/09/10 18:29:44","新北市新莊區新泰路368號","121.444463333333","25.0426116666667","6500500","新莊區"
"242017","173-VK","2019/09/10 18:25:07","新北市新莊區三和路12-21號","121.441895","25.0388283333333","6500500","新莊區"
"242046","346-TH","2019/09/10 18:29:44","新北市新莊區中正路803巷35號","121.422078333333","25.0279233333333","6500500","新莊區"
"242032","347-TH","2019/09/10 18:29:35","新北市新莊區新泰路357巷1弄15號","121.442906666667","25.04071","6500500","新莊區"
"242009","349-TH","2019/09/10 18:29:42","新北市新莊區中港路76號","121.455538333333","25.0390683333333","6500500","新莊區"
"238015","755-BX","2019/09/10 18:29:34","新北市樹林區復興路390巷21號","121.414851666667","24.9855683333333","6500700","樹林區"
"238023","601-UM","2019/09/10 18:29:38","新北市樹林區三福街114號","121.406455","25.01634","6500700","樹林區"
"238019","599-UM","2019/09/10 18:29:37","新北市樹林區國凱街136巷24號","121.42365","24.9796316666667","6500700","樹林區"
"238024","5061-A6","2019/09/10 18:29:43","新北市樹林區育英街2巷56號","121.423725","24.99072","6500700","樹林區"
"238018","KEA-2217","2019/09/10 18:29:32","新北市樹林區樹新路95號","121.428116666667","24.9953233333333","6500700","樹林區"
"238025","303-VK","2019/09/10 18:29:43","新北市樹林區保安街一段120號","121.423458333333","24.9949616666667","6500700","樹林區"
"238017","283-BY","2019/09/10 18:29:28","新北市樹林區保安街二段335號","121.412373333333","25.0078933333333","6500700","樹林區"
"238014","282-BY","2019/09/10 18:29:26","新北市樹林區大安路111巷10號","121.423225","24.9974483333333","6500700","樹林區"
"238020","268-VK","2019/09/10 18:29:44","新北市樹林區三龍街26號","121.411583333333","25.0177583333333","6500700","樹林區"
"238026","172-UY","2019/09/10 18:29:46","新北市樹林區佳園路一段41巷28弄14號","121.39473","24.9704016666667","6500700","樹林區"
"238016","169-UY","2019/09/10 18:29:40","新北市樹林區中山路一段412號","121.417415","24.9851583333333","6500700","樹林區"
"239007","AAC-297","2019/09/10 18:29:39","新北市鶯歌區重慶街101號","121.347681666667","24.952275","6500800","鶯歌區"
"239006","891-R6","2019/09/10 18:29:30","新北市鶯歌區德昌街140巷71號","121.332485","24.9621533333333","6500800","鶯歌區"
"239008","527-UM","2019/09/10 18:29:44","新北市鶯歌區朝陽街4號","121.336265","24.97659","6500800","鶯歌區"
"239005","526-UM","2019/09/10 18:29:33","桃園市八德區桃鶯路139號","121.32873","24.9695266666667","6500800","鶯歌區"
"239001","417-VK","2019/09/10 18:29:41","新北市鶯歌區國中街181號","121.338843333333","24.9395316666667","6500800","鶯歌區"
"239003","360-BY","2019/09/10 18:29:32","新北市鶯歌區鶯桃路399號","121.33331","24.964135","6500800","鶯歌區"
"239002","359-BY","2019/09/10 18:29:40","新北市鶯歌區中正一路127巷8號","121.352161666667","24.9555566666667","6500800","鶯歌區"
"239004","193-VK","2019/09/10 18:29:30","新北市鶯歌區尖山路240巷30號","121.342345","24.9474316666667","6500800","鶯歌區"
"221036","130-UY","2019/09/10 18:29:46","新北市汐止區大同路三段143號","121.669303333333","25.0777183333333","6501100","汐止區"
"221015","131-UY","2019/09/10 18:29:40","新北市汐止區鄉長路二段23巷5號","121.667363333333","25.0825416666667","6501100","汐止區"
"221010","269-BY","2019/09/10 18:29:29","新北市汐止區汐萬路35號","121.64425","25.09124","6501100","汐止區"
"221012","278-VK","2019/09/10 18:29:35","新北市汐止區保長路35巷12號","121.672988333333","25.0797766666667","6501100","汐止區"
"221023","279-VK","2019/09/10 18:29:40","新北市汐止區康寧街432號","121.630828333333","25.0681516666667","6501100","汐止區"
"221032","280-BY","2019/09/10 18:29:25","新北市汐止區民權街二段109巷32號","121.620061666667","25.0463783333333","6501100","汐止區"
"221027","281-BY","2019/09/10 18:29:29","新北市汐止區和平街67號","121.661506666667","25.0707183333333","6501100","汐止區"
"221021","299-VK","2019/09/10 18:29:30","新北市汐止區大同路二段184巷6號","121.653146666667","25.0637333333333","6501100","汐止區"
"221031","353-TW","2019/09/10 18:29:44","新北市汐止區新台五路一段35號","121.6368","25.0559366666667","6501100","汐止區"
"221035","622-UM","2019/09/10 18:29:45","新北市汐止區大同路二段187巷4弄2號","121.652238333333","25.06505","6501100","汐止區"
"221025","623-UM","2019/09/10 18:29:44","新北市汐止區仁愛路120號","121.66292","25.063725","6501100","汐止區"
"221038","646-BX","2019/09/10 18:29:40","新北市汐止區忠孝東路292號","121.663985","25.0685","6501100","汐止區"
"221033","647-BX","2019/09/10 18:29:35","新北市汐止區宜興街26號","121.621616666667","25.0417616666667","6501100","汐止區"
"221002","707-TV","2019/09/10 18:29:45","新北市汐止區福德一路221號","121.634468333333","25.0651383333333","6501100","汐止區"
"221018","753-BX","2019/09/10 18:29:36","新北市汐止區茄苳路144號","121.669038333333","25.0698583333333","6501100","汐止區"
"220079","145-BY","2019/09/10 18:29:29","新北市板橋區華東街1-10號","121.448381666667","24.9950016666667","6500100","板橋區"
"220082","610-BX","2019/09/10 18:29:29","新北市板橋區華東街1-10號","121.448236666667","24.9949583333333","6500100","板橋區"
"220056","276-BY","2019/09/10 18:29:40","新北市板橋區四川路二段130巷27號","121.449336666667","24.9942666666667","6500100","板橋區"
"220071","283-VK","2019/09/10 18:29:39","新北市板橋區華東街1-8號","121.448096666667","24.9947266666667","6500100","板橋區"
"220081","287-VK","2019/09/10 18:29:33","新北市板橋區華東街1-10號","121.448236666667","24.9950016666667","6500100","板橋區"
"220084","296-UM","2019/09/10 18:29:41","新北市板橋區華東街1-9號","121.448168333333","24.994945","6500100","板橋區"
"242011","280-VK","2019/09/10 18:29:37","新北市新莊區中榮街101號","121.444931666667","25.052755","6500500","新莊區"
"220035","560-BX","2019/09/10 18:29:07","新北市板橋區南雅南路二段11-5號","121.454075","25.0023783333333","6500100","板橋區"
"220057","686-BX","2019/09/10 18:29:30","新北市板橋區四川路二段130巷25弄9-1號","121.449225","24.9943566666667","6500100","板橋區"
"220077","687-BX","2019/09/10 18:29:45","新北市板橋區華東街1-10號","121.448363333333","24.994925","6500100","板橋區"
"220054","741-BX","2019/09/10 18:29:29","新北市板橋區華東街1-9號","121.44811","24.9948716666667","6500100","板橋區"
"220055","827-TW","2019/09/10 18:29:31","新北市板橋區四川路二段140巷18號","121.449331666667","24.993305","6500100","板橋區"
"220074","895-R6","2019/09/10 18:29:44","新北市板橋區華東街1-9號","121.44822","24.9949716666667","6500100","板橋區"
"220073","985-R7","2019/09/10 18:29:26","新北市板橋區四川路二段140巷20號","121.449246666667","24.993395","6500100","板橋區"
"220064","AAC-253","2019/09/10 18:29:46","新北市板橋區華東街262號","121.452656666667","25.0012316666667","6500100","板橋區"
"235068","KEA-2873","2019/09/10 18:29:17","新北市中和區圓通路222號","121.49549","24.9931483333333","6500300","中和區"
"235061","KEA-2875","2019/09/10 18:29:41","新北市中和區民享街88巷1號","121.474621666667","25.00064","6500300","中和區"
"235062","KEA-2876","2019/09/10 18:29:46","新北市中和區中山路二段312巷3弄2號","121.49558","25.0030416666667","6500300","中和區"
