"lineid","car","time","location","longitude","latitude","cityid","cityname"
"234046","148-BY","2019/09/10 18:39:37","新北市永和區永元路68號","121.522611666667","25.00155","6500400","永和區"
"234081","298-R6","2019/09/10 18:39:36","新北市永和區林森路42號","121.525248333333","25.0049316666667","6500400","永和區"
"234038","336-UY","2019/09/10 18:39:28","新北市永和區福和路1號","121.526678333333","25.0101366666667","6500400","永和區"
"234017","745-BX","2019/09/10 18:39:31","新北市永和區福和路1號","121.526001666667","25.00963","6500400","永和區"
"234030","746-BX","2019/09/10 18:39:42","新北市永和區成功路二段77號","121.526765","24.9994733333333","6500400","永和區"
"234007","KED-0605","2019/09/10 18:39:27","新北市永和區文化路166號","121.512123333333","25.01539","6500400","永和區"
"234013","KEA-2591","2019/09/10 18:39:35","新北市永和區文化路210號","121.510188333333","25.0166266666667","6500400","永和區"
"234061","AAD-866","2019/09/10 18:39:39","新北市永和區福和路5-1號","121.52499","25.008825","6500400","永和區"
"234026","9371-KE","2019/09/10 18:39:42","新北市永和區永貞路364-1號","121.510075","25.0067066666667","6500400","永和區"
"234011","9373-KE","2019/09/10 18:39:31","新北市永和區文化路9巷20號","121.515176666667","25.0145783333333","6500400","永和區"
"249005","172-UM","2019/09/10 18:39:38","新北市八里區中華路三段196號","121.388106666667","25.1255766666667","6502300","八里區"
"249001","173-UM","2019/09/10 18:39:37","新北市八里區龍米路一段398號","121.451395","25.13291","6502300","八里區"
"249004","303-UY","2019/09/10 18:39:43","新北市八里區龍米路三段60號","121.423648333333","25.1589566666667","6502300","八里區"
"249002","305-UY","2019/09/10 18:39:36","新北市八里區龍形一街31號","121.44966","25.13043","6502300","八里區"
"249003","593-UM","2019/09/10 18:21:36","新北市八里區博物館路10-1號","121.41509","25.16397","6502300","八里區"
"248014","025-BX","2019/09/10 18:39:32","新北市五股區成泰路一段194-1號","121.435498333333","25.07778","6501500","五股區"
"248016","026-BX","2019/09/10 18:39:29","新北市五股區凌雲路一段149巷7號","121.448906666667","25.10166","6501500","五股區"
"248008","KED-0815","2019/09/10 18:39:36","新北市五股區中興路一段150巷5號","121.464626666667","25.074195","6501500","五股區"
"248020","KED-0813","2019/09/10 18:39:30","新北市五股區孝義路118號","121.441003333333","25.1213816666667","6501500","五股區"
"248012","247-BX","2019/09/10 18:39:26","新北市五股區成泰路三段2巷1-20號","121.441021666667","25.0865083333333","6501500","五股區"
"248004","677-BX","2019/09/10 18:39:38","新北市五股區民義路一段282號","121.425488333333","25.09297","6501500","五股區"
"248002","678-BX","2019/09/10 18:39:37","新北市五股區西雲路205號","121.448513333333","25.0965383333333","6501500","五股區"
"248010","682-TV","2019/09/10 18:39:34","新北市五股區明德路14號","121.433275","25.071415","6501500","五股區"
"234023","9380-KE","2019/09/10 18:39:37","新北市永和區福和路88號","121.522581666667","25.0081983333333","6500400","永和區"
"234077","969-R7","2019/09/10 18:39:43","新北市永和區中正路199號","121.517428333333","24.9995266666667","6500400","永和區"
"234067","AAC-212","2019/09/10 18:39:47","新北市永和區福和路38號","121.523855","25.0082833333333","6500400","永和區"
"234003","AAC-295","2019/09/10 18:39:35","新北市永和區福和路1號","121.526493333333","25.00995","6500400","永和區"
"232011","375-UM","2019/09/10 18:16:34","新北市坪林區坪雙路一段41號","121.711726666667","24.9424316666667","6502000","坪林區"
"244007","080-UY","2019/09/10 18:39:31","新北市林口區太平嶺1鄰3號","121.37964","25.1117116666667","6501700","林口區"
"244019","402-UM","2019/09/10 18:39:38","新北市林口區麗園二街42巷25號","121.382471666667","25.066555","6501700","林口區"
"244013","KEA-2802","2019/09/10 18:39:29","新北市林口區文化一路一段100巷10弄16-1號","121.374953333333","25.071235","6501700","林口區"
"244023","483-VK","2019/09/10 18:39:35","新北市林口區仁愛路二段62巷43號","121.383671666667","25.0760966666667","6501700","林口區"
"244017","485-VK","2019/09/10 18:39:38","新北市林口區文化二路一段70號","121.365846666667","25.0691166666667","6501700","林口區"
"244009","656-BX","2019/09/10 18:39:32","新北市林口區竹林路326巷84號","121.392756666667","25.0826133333333","6501700","林口區"
"244011","701-TV","2019/09/10 18:39:24","新北市林口區仁愛路一段276號","121.393343333333","25.0760283333333","6501700","林口區"
"244025","837-TS","2019/09/10 18:39:40","新北市林口區南勢三街1巷33號","121.357651666667","25.0776316666667","6501700","林口區"
"244021","838-TS","2019/09/10 18:39:37","新北市林口區工六路14號","121.398051666667","25.07909","6501700","林口區"
"243010","297-R6","2019/09/10 18:39:46","新北市泰山區明志路一段493-1號","121.430628333333","25.0550766666667","6501600","泰山區"
"243016","421-VK","2019/09/10 18:39:42","新北市泰山區泰林路二段599巷1-1號","121.4213","25.063425","6501600","泰山區"
"243015","680-BX","2019/09/10 18:39:31","新北市泰山區泰林路二段533號","121.423476666667","25.0636883333333","6501600","泰山區"
"222003","436-BY","2019/09/10 18:39:33","新北市深坑區翠谷街17巷7號","121.626331666667","25.0086083333333","6501800","深坑區"
"222002","659-BX","2019/09/10 18:39:34","新北市深坑區文山路一段62巷10號","121.621923333333","25.0009633333333","6501800","深坑區"
"231061","002-UM","2019/09/10 18:39:38","新北市新店區安華路28-1號","121.519908333333","24.9608283333333","6500600","新店區"
"231055","0291-UT","2019/09/10 18:39:26","新北市新店區中華路143號","121.538201666667","24.97009","6500600","新店區"
"231058","0293-UT","2019/09/10 18:39:47","新北市新店區新店後街24號","121.537968333333","24.9532616666667","6500600","新店區"
"231044","046-UY","2019/09/10 18:39:38","新北市新店區安一路一段1-1號","121.519641666667","24.9613766666667","6500600","新店區"
"231060","047-UY","2019/09/10 18:39:38","新北市新店區安華路28-1號","121.51955","24.9608016666667","6500600","新店區"
"231065","KEA-2219","2019/09/10 18:39:30","新北市新店區安華路30巷1號","121.519436666667","24.95973","6500600","新店區"
"231062","256-BX","2019/09/10 18:39:34","新北市新店區安一路一段1-1號","121.519556666667","24.9611533333333","6500600","新店區"
"231054","260-TV","2019/09/10 18:39:28","新北市新店區安一路一段1-1號","121.519183333333","24.9611933333333","6500600","新店區"
"231042","268-BY","2019/09/10 18:39:28","新北市新店區北新路一段126巷25號","121.543316666667","24.97009","6500600","新店區"
"231064","278-BY","2019/09/10 18:39:33","新北市新店區安一路一段1-1號","121.519695","24.96113","6500600","新店區"
"231050","AAD-862","2019/09/10 18:39:37","新北市新店區安華路28-1號","121.519876666667","24.9610133333333","6500600","新店區"
"231045","355-BY","2019/09/10 18:39:43","新北市新店區安華路28-1號","121.519225","24.9608133333333","6500600","新店區"
"231056","4715-K9","2019/09/10 18:39:39","新北市新店區建國路196號","121.537751666667","24.9804716666667","6500600","新店區"
"231053","515-UM","2019/09/10 18:39:38","新北市新店區永興路32號","121.5437","24.938925","6500600","新店區"
"231063","616-UM","2019/09/10 18:39:40","新北市新店區安華路1-1號","121.519463333333","24.9604466666667","6500600","新店區"
"231048","KED-0819","2019/09/10 18:39:36","新北市新店區安一路一段1-1號","121.519808333333","24.96113","6500600","新店區"
"231051","718-UY","2019/09/10 18:39:41","新北市新店區中央路163-3號","121.532758333333","24.9706866666667","6500600","新店區"
"231046","719-UM","2019/09/10 18:39:32","新北市新店區直潭二街1號","121.535413333333","24.9431466666667","6500600","新店區"
"231057","720-UM","2019/09/10 18:39:25","新北市新店區北宜路一段108號","121.539116666667","24.9552583333333","6500600","新店區"
"231059","897-TW","2019/09/10 18:39:28","新北市新店區安華路28-1號","121.51971","24.9607716666667","6500600","新店區"
"231040","898-TW","2019/09/10 18:39:28","新北市新店區安華路28-1號","121.519385","24.9607133333333","6500600","新店區"
"231043","899-TW","2019/09/10 18:39:35","新北市新店區安華路28-1號","121.519315","24.96084","6500600","新店區"
"231066","AKT-0513","2019/09/10 18:39:40","新北市新店區安華路1-1號","121.519456666667","24.9603716666667","6500600","新店區"
"241012","941-UM","2019/09/10 18:39:31","新北市三重區龍濱路190號","121.501115","25.0732633333333","6500200","三重區"
"235066","003-UY","2019/09/10 18:39:39","新北市中和區水源路34巷2號","121.504683333333","25.0035383333333","6500300","中和區"
"235063","006-UY","2019/09/10 18:39:38","新北市中和區連城路347巷4弄23號","121.48732","24.995555","6500300","中和區"
"235056","096-UM","2019/09/10 18:39:26","新北市中和區員山路611巷1號","121.47785","25.0112866666667","6500300","中和區"
"235039","097-UM","2019/09/10 18:39:44","新北市中和區宜安路18巷13號","121.513986666667","24.9963666666667","6500300","中和區"
"235065","098-UM","2019/09/10 18:39:38","新北市中和區莊敬路33巷38弄1號","121.500456666667","25.0065466666667","6500300","中和區"
"235040","150-BY","2019/09/10 18:39:38","新北市中和區安平路99號","121.51118","24.996875","6500300","中和區"
"235058","151-BY","2019/09/10 18:39:32","新北市中和區員山路143巷11-4號","121.480311666667","24.995925","6500300","中和區"
"235055","183-VK","2019/09/10 18:39:47","新北市中和區民生街37號","121.470233333333","25.0053716666667","6500300","中和區"
"235038","185-VK","2019/09/10 18:39:41","新北市中和區立人街14巷3號","121.519263333333","24.994665","6500300","中和區"
"235049","186-VK","2019/09/10 18:39:45","新北市中和區景平路510-2號","121.50368","24.9940516666667","6500300","中和區"
"235067","255-BX","2019/09/10 18:39:43","新北市中和區新生街13巷2號","121.483458333333","25.0042816666667","6500300","中和區"
"235044","293-VK","2019/09/10 18:39:39","新北市中和區復興路280巷15號","121.502243333333","24.9913366666667","6500300","中和區"
"235072","301-VK","2019/09/10 18:39:28","新北市中和區景平路597號","121.496995","25.0005216666667","6500300","中和區"
"235043","352-BY","2019/09/10 18:39:29","新北市中和區景平路71-7號","121.51831","24.9917583333333","6500300","中和區"
"235042","KEA-2878","2019/09/10 18:39:30","新北市中和區成功路97巷18弄5號","121.526756666667","24.991505","6500300","中和區"
"235050","4979-A6","2019/09/10 18:39:31","新北市中和區忠孝街122-2號","121.512293333333","24.9859666666667","6500300","中和區"
"235069","4980-A6","2019/09/10 18:39:42","新北市中和區連城路115號","121.496223333333","24.999405","6500300","中和區"
"235070","558-UM","2019/09/10 18:39:32","新北市中和區景平路612號","121.500775","24.9969083333333","6500300","中和區"
"235045","565-BX","2019/09/10 18:39:38","新北市中和區南山路236巷23弄2號","121.50551","24.98844","6500300","中和區"
"235060","KED-0823","2019/09/10 18:39:40","新北市中和區中山路三段111號","121.474841666667","25.0061733333333","6500300","中和區"
"235054","640-BX","2019/09/10 18:39:40","新北市中和區民享街68巷14號","121.473448333333","25.0017883333333","6500300","中和區"
"235047","732-UM","2019/09/10 18:39:23","新北市中和區興南路二段30巷2號","121.507426666667","24.9857066666667","6500300","中和區"
"235046","733-UM","2019/09/10 18:39:42","新北市中和區忠孝街101巷3號","121.511703333333","24.9859733333333","6500300","中和區"
"235057","801-TS","2019/09/10 18:39:26","新北市中和區民安街25巷2弄1號","121.480541666667","25.0002433333333","6500300","中和區"
"235041","802-TS","2019/09/10 18:39:30","新北市中和區宜安路118巷14號","121.51073","24.9984633333333","6500300","中和區"
"235052","805-TS","2019/09/10 18:39:29","新北市中和區興南路三段55號","121.494008333333","24.9755116666667","6500300","中和區"
"235048","896-TW","2019/09/10 18:39:28","新北市中和區南山路250巷2號","121.507721666667","24.9889366666667","6500300","中和區"
"235053","900-TW","2019/09/10 18:39:46","新北市中和區華安街21巷2號","121.467441666667","24.997555","6500300","中和區"
"235064","911-UM","2019/09/10 18:39:35","新北市中和區連勝街29-2號","121.498505","24.99801","6500300","中和區"
"235051","157-BY","2019/09/10 18:39:30","新北市中和區華新街143巷106弄39號","121.50703","24.9782416666667","6500300","中和區"
"235037","AAC-213","2019/09/10 18:39:35","新北市中和區秀朗路三段128巷17弄5號","121.524265","24.9934733333333","6500300","中和區"
"235059","AAC-215","2019/09/10 18:39:37","新北市中和區錦和路354巷15號","121.49017","24.9915483333333","6500300","中和區"
"220065","072-UY","2019/09/10 18:39:28","新北市板橋區實踐路81號","121.463945","25.005935","6500100","板橋區"
"220086","073-UY","2019/09/10 18:39:41","新北市板橋區華東街1-10號","121.448255","24.995045","6500100","板橋區"
"220106","075-UY","2019/09/10 18:39:36","新北市板橋區民生路二段161巷9號","121.470228333333","25.0195633333333","6500100","板橋區"
"220068","120-SR","2019/09/10 18:39:35","新北市板橋區民生路二段56-6號","121.470991666667","25.0191066666667","6500100","板橋區"
"226004","312-R5","2019/09/10 18:39:40","新北市平溪區石底里公園街18-3號","121.733583333333","25.0255366666667","6502400","平溪區"
"228003","097-TW","2019/09/10 18:39:44","新北市貢寮區和美里龍洞街40號","121.914583333333","25.11189","6502600","貢寮區"
"228002","663-BX","2019/09/10 18:39:36","新北市貢寮區福隆里東興街6-11號","121.950775","25.02107","6502600","貢寮區"
"224006","676-BX","2019/09/10 18:39:43","新北市瑞芳區一坑路46號","121.803751666667","25.1089883333333","6501200","瑞芳區"
"224002","639-TC","2019/09/10 18:39:40","新北市瑞芳區國中新村18號","121.81732","25.1073166666667","6501200","瑞芳區"
"224007","285-BY","2019/09/10 18:39:33","新北市瑞芳區大埔路115巷26號","121.762966666667","25.10157","6501200","瑞芳區"
"224009","275-VK","2019/09/10 18:39:46","新北市瑞芳區祈堂路53-1號","121.859585","25.11044","6501200","瑞芳區"
"224008","273-VK","2019/09/10 18:39:39","新北市瑞芳區岳王路8號","121.807116666667","25.1106383333333","6501200","瑞芳區"
"224005","271-BY","2019/09/10 18:39:29","新北市瑞芳區瑞濱路87號","121.820691666667","25.1209783333333","6501200","瑞芳區"
"227001","642-TC","2019/09/10 18:39:34","新北市雙溪區牡丹里牡丹136號","121.850615","25.0591833333333","6502500","雙溪區"
"227002","400-TW","2019/09/10 18:39:30","新北市雙溪區魚行里坤溪3-4號","121.876326666667","25.0208016666667","6502500","雙溪區"
"253005","032-BX","2019/09/10 18:39:36","新北市石門區石門街38號","121.566401666667","25.2902683333333","6502200","石門區"
"253006","295-VK","2019/09/10 18:39:30","新北市石門區崁子腳18-4號","121.53548","25.289625","6502200","石門區"
"222001","KEA-2212","2019/09/10 18:39:33","新北市深坑區北深路一段82號","121.63629","25.0107333333333","6501800","深坑區"
"208002","KEA-2872","2019/09/10 18:39:44","新北市金山區忠孝一路22號","121.638466666667","25.21957","6502700","金山區"
"208003","665-BX","2019/09/10 18:39:41","新北市金山區中山路393號","121.633398333333","25.225205","6502700","金山區"
"251001","011-UM","2019/09/10 18:39:45","新北市淡水區自強路166號","121.465568333333","25.1341316666667","6501000","淡水區"
"251002","012-UM","2019/09/10 18:39:33","新北市淡水區中正東路一段3巷14弄3號","121.451023333333","25.16424","6501000","淡水區"
"251015","KEA-2871","2019/09/10 18:39:32","新北市淡水區興福寮66巷343號","121.48399","25.1620483333333","6501000","淡水區"
"251016","179-VK","2019/09/10 18:39:43","新北市淡水區下圭柔山76號","121.443268333333","25.2055016666667","6501000","淡水區"
"251008","181-VK","2019/09/10 18:39:38","新北市淡水區北投子77-1號","121.459138333333","25.17894","6501000","淡水區"
"251013","182-VK","2019/09/10 18:39:40","新北市淡水區奎柔山路1262號","121.482356666667","25.2058733333333","6501000","淡水區"
"251010","413-VK","2019/09/10 18:39:46","新北市淡水區沙崙路124號","121.423468333333","25.1827416666667","6501000","淡水區"
"251012","441-VK","2019/09/10 18:39:45","新北市淡水區北新路121號","121.448958333333","25.1787083333333","6501000","淡水區"
"251006","561-UM","2019/09/10 18:39:37","新北市淡水區崁頂37-6號","121.439628333333","25.195045","6501000","淡水區"
"251014","577-R6","2019/09/10 18:39:24","新北市淡水區崙頂12-8號","121.495586666667","25.2172383333333","6501000","淡水區"
"251011","650-BX","2019/09/10 18:39:44","新北市淡水區學府路19號","121.447605","25.1684883333333","6501000","淡水區"
"251003","673-BX","2019/09/10 18:39:31","新北市淡水區北新路69巷26號","121.4467","25.18008","6501000","淡水區"
"207003","550-UM","2019/09/10 18:39:39","新北市萬里區野柳里港東路66號","121.687851666667","25.204215","6502800","萬里區"
"207004","291-VK","2019/09/10 18:39:36","新北市萬里區萬里里獅頭路7號","121.691975","25.1783266666667","6502800","萬里區"
"252003","249-BX","2019/09/10 18:39:26","新北市三芝區後厝里土地公坑73號","121.46102","25.2476816666667","6502100","三芝區"
"252001","292-VK","2019/09/10 18:39:30","新北市三芝區中興街二段260號","121.501916666667","25.25287","6502100","三芝區"
"208001","170-UY","2019/09/10 18:39:40","新北市金山區文化三路42-2號","121.635238333333","25.2249683333333","6502700","金山區"
"237004","KEA-2597","2019/09/10 18:39:37","新北市三峽區插角82號","121.406168333333","24.8708733333333","6500900","三峽區"
"237007","153-BY","2019/09/10 18:39:33","新北市三峽區中正路三段128號","121.354053333333","24.9035966666667","6500900","三峽區"
"237009","210-TH","2019/09/10 18:39:29","新北市三峽區弘園街67號","121.366216666667","24.9271166666667","6500900","三峽區"
"237013","252-BX","2019/09/10 18:39:27","新北市三峽區光明路69巷25號","121.376576666667","24.92921","6500900","三峽區"
"237012","275-BY","2019/09/10 18:39:43","新北市三峽區三樹路340號","121.383976666667","24.9433383333333","6500900","三峽區"
"237008","302-VK","2019/09/10 18:39:40","新北市三峽區白雞38-6號","121.374731666667","24.9124016666667","6500900","三峽區"
"237014","433-BY","2019/09/10 18:39:37","新北市三峽區復興路465-1號","121.361513333333","24.9386033333333","6500900","三峽區"
"237006","5529-G3","2019/09/10 18:39:45","新北市三峽區溪東路315巷26號","121.411078333333","24.93104","6500900","三峽區"
"237011","KEA-2596","2019/09/10 18:39:38","新北市三峽區成福路91號","121.418906666667","24.92964","6500900","三峽區"
"237015","649-BX","2019/09/10 18:39:39","新北市三峽區成福路297號","121.428871666667","24.9235533333333","6500900","三峽區"
"237010","706-TV","2019/09/10 18:39:38","新北市三峽區復興路487號","121.361301666667","24.938425","6500900","三峽區"
"237005","AKY-6261","2019/09/10 18:39:32","新北市三峽區復興路7號","121.374258333333","24.9360883333333","6500900","三峽區"
"236042","KED-0685","2019/09/10 18:39:28","新北市土城區裕民路55巷15號","121.449448333333","24.98871","6501300","土城區"
"236030","253-BX","2019/09/10 18:39:43","新北市土城區福仁街71號","121.439438333333","24.9744216666667","6501300","土城區"
"236026","269-VK","2019/09/10 18:39:38","新北市土城區金城路一段42號","121.44211","24.9702366666667","6501300","土城區"
"236014","270-VK","2019/09/10 18:39:38","新北市土城區清水路207巷21號","121.459853333333","24.9824583333333","6501300","土城區"
"236038","271-VK","2019/09/10 18:39:39","新北市土城區青雲路411巷11號","121.459638333333","24.975845","6501300","土城區"
"236070","KEA-2877","2019/09/10 18:39:45","新北市土城區永豐路157巷29弄1號","121.468696666667","24.9814616666667","6501300","土城區"
"252002","KED-0821","2019/09/10 18:39:41","新北市三芝區民生街66號","121.50338","25.2555366666667","6502100","三芝區"
"236021","401-BY","2019/09/10 18:39:39","新北市土城區延吉街253巷1號","121.467585","24.9846783333333","6501300","土城區"
"236059","912-UM","2019/09/10 18:39:33","新北市土城區中央路三段199號","121.430063333333","24.96469","6501300","土城區"
"236049","913-UM","2019/09/10 18:39:26","新北市土城區明德路一段26號","121.465055","24.984805","6501300","土城區"
"236063","915-UM","2019/09/10 18:39:35","新北市土城區延壽路55巷9弄6號","121.46964","24.991605","6501300","土城區"
"236055","AAC-216","2019/09/10 18:39:34","新北市土城區裕民路38號","121.448056666667","24.9883616666667","6501300","土城區"
"242042","AAC-296","2019/09/10 18:39:45","新北市新莊區天祥街92巷14號","121.415696666667","25.03005","6500500","新莊區"
"242061","986-R7","2019/09/10 18:39:31","新北市新莊區四維路97巷22號","121.424125","25.0234233333333","6500500","新莊區"
"242058","612-BX","2019/09/10 18:39:32","新北市新莊區中正路881-12號","121.417285","25.0251466666667","6500500","新莊區"
"242054","442-UM","2019/09/10 18:39:30","新北市新莊區樹新路120巷29號","121.430336666667","24.9962983333333","6500500","新莊區"
"242044","415-TV","2019/09/10 18:39:40","新北市新莊區中正路887-36號","121.415575","25.0238033333333","6500500","新莊區"
"242013","413-TV","2019/09/10 18:39:31","新北市樹林區八德街588號","121.397863333333","24.969245","6500500","新莊區"
"242017","173-VK","2019/09/10 18:25:07","新北市新莊區三和路12-21號","121.441895","25.0388283333333","6500500","新莊區"
"242009","349-TH","2019/09/10 18:39:42","新北市新莊區利濟街18號","121.453253333333","25.0334183333333","6500500","新莊區"
"238023","601-UM","2019/09/10 18:39:38","新北市樹林區三福街114號","121.40648","25.01632","6500700","樹林區"
"238019","599-UM","2019/09/10 18:39:37","新北市樹林區中華路190號","121.411878333333","24.9805683333333","6500700","樹林區"
"238024","5061-A6","2019/09/10 18:39:23","新北市樹林區大安路593號","121.411823333333","24.982975","6500700","樹林區"
"238018","KEA-2217","2019/09/10 18:39:32","新北市樹林區鎮前街21號","121.425898333333","24.992525","6500700","樹林區"
"238025","303-VK","2019/09/10 18:39:43","新北市樹林區大安路576號","121.411795","24.98387","6500700","樹林區"
"238017","283-BY","2019/09/10 18:39:48","新北市樹林區光興街77-9號","121.410273333333","25.0027716666667","6500700","樹林區"
"238014","282-BY","2019/09/10 18:39:26","新北市樹林區大安路111巷43號","121.423333333333","24.9974983333333","6500700","樹林區"
"238020","268-VK","2019/09/10 18:39:44","新北市樹林區俊安街64號","121.418648333333","25.0130416666667","6500700","樹林區"
"238026","172-UY","2019/09/10 18:39:26","新北市樹林區八德街630號","121.396905","24.9695083333333","6500700","樹林區"
"238016","169-UY","2019/09/10 18:39:40","新北市樹林區中山路一段412號","121.417416666667","24.985165","6500700","樹林區"
"239007","AAC-297","2019/09/10 18:39:39","新北市鶯歌區中正一路478號","121.36648","24.956805","6500800","鶯歌區"
"239006","891-R6","2019/09/10 18:39:30","新北市鶯歌區鶯桃路242巷2號","121.336411666667","24.9596766666667","6500800","鶯歌區"
"239008","527-UM","2019/09/10 18:39:44","新北市鶯歌區朝陽街4號","121.336268333333","24.9765883333333","6500800","鶯歌區"
"239005","526-UM","2019/09/10 18:39:33","新北市鶯歌區鳳吉二街136號","121.328315","24.9747383333333","6500800","鶯歌區"
"239001","417-VK","2019/09/10 18:39:41","新北市鶯歌區國中街178號","121.338348333333","24.9392316666667","6500800","鶯歌區"
"239003","360-BY","2019/09/10 18:39:32","新北市鶯歌區永和街148號","121.33542","24.96984","6500800","鶯歌區"
"239002","359-BY","2019/09/10 18:39:40","新北市鶯歌區中正一路478號","121.36649","24.9568516666667","6500800","鶯歌區"
"239004","193-VK","2019/09/10 18:39:30","新北市鶯歌區尖山路302巷18號","121.341795","24.943265","6500800","鶯歌區"
"221036","130-UY","2019/09/10 18:39:26","新北市汐止區長興街一段20號","121.669648333333","25.0790666666667","6501100","汐止區"
"221015","131-UY","2019/09/10 18:39:46","新北市汐止區鄉長路二段16號","121.668605","25.0814333333333","6501100","汐止區"
"221010","269-BY","2019/09/10 18:39:29","新北市汐止區瑞松街47巷6號","121.645193333333","25.1064633333333","6501100","汐止區"
"221012","278-VK","2019/09/10 18:39:35","新北市汐止區保長路53號","121.67363","25.0788633333333","6501100","汐止區"
"221023","279-VK","2019/09/10 18:39:40","新北市汐止區湖前街46號","121.632605","25.068955","6501100","汐止區"
"221032","280-BY","2019/09/10 18:39:25","新北市汐止區福山街58巷16號","121.617965","25.0459933333333","6501100","汐止區"
"221021","299-VK","2019/09/10 18:39:30","新北市汐止區新台五路一段123-1號","121.651548333333","25.0615516666667","6501100","汐止區"
"221031","353-TW","2019/09/10 18:39:24","新北市汐止區大同路一段160-7號","121.635551666667","25.05528","6501100","汐止區"
"221035","622-UM","2019/09/10 18:39:25","新北市汐止區大同路二段169巷26號","121.650916666667","25.0651166666667","6501100","汐止區"
"221025","623-UM","2019/09/10 18:39:44","新北市汐止區仁愛路121巷11號","121.662628333333","25.0643083333333","6501100","汐止區"
"221002","707-TV","2019/09/10 18:39:45","新北市汐止區大同路一段267號","121.636366666667","25.0584716666667","6501100","汐止區"
"221018","753-BX","2019/09/10 18:36:16","新北市汐止區茄苳路225巷2號","121.671051666667","25.068765","6501100","汐止區"
"220079","145-BY","2019/09/10 18:39:29","新北市板橋區大觀路一段35巷1號","121.449411666667","25.008495","6500100","板橋區"
"220080","200-UY","2019/09/10 18:39:26","新北市板橋區板城路421號","121.448093333333","24.99639","6500100","板橋區"
"220082","610-BX","2019/09/10 18:39:29","新北市板橋區大觀路二段443-2號","121.440165","24.995085","6500100","板橋區"
"220101","245-BX","2019/09/10 18:39:40","新北市板橋區民生路二段161巷5號","121.470035","25.01962","6500100","板橋區"
"220056","276-BY","2019/09/10 18:39:40","新北市板橋區縣民大道一段72號","121.455371666667","25.0041983333333","6500100","板橋區"
"220072","277-BY","2019/09/10 18:39:36","新北市板橋區板城路421號","121.447738333333","24.9965016666667","6500100","板橋區"
"220071","283-VK","2019/09/10 18:39:39","新北市板橋區四川路二段50號","121.453541666667","24.9952266666667","6500100","板橋區"
"220053","285-VK","2019/09/10 18:39:27","新北市板橋區民生路二段120號","121.47038","25.0197083333333","6500100","板橋區"
"220083","286-VK","2019/09/10 18:39:29","新北市板橋區板城路271號","121.449915","24.9980533333333","6500100","板橋區"
"220081","287-VK","2019/09/10 18:39:33","新北市板橋區板城路421號","121.448041666667","24.9961866666667","6500100","板橋區"
"220084","296-UM","2019/09/10 18:39:41","新北市板橋區大觀路二段243號","121.443505","24.999235","6500100","板橋區"
"220075","303-R5","2019/09/10 18:39:31","新北市板橋區南雅南路二段144巷60號","121.450098333333","24.9972383333333","6500100","板橋區"
"220092","307-R5","2019/09/10 18:39:39","新北市板橋區民生路二段89-4號","121.471396666667","25.0186266666667","6500100","板橋區"
"220088","491-VK","2019/09/10 18:39:45","新北市板橋區民生路二段188號","121.470161666667","25.0202333333333","6500100","板橋區"
"220035","560-BX","2019/09/10 18:39:27","新北市板橋區南雅西路二段145巷6號","121.451603333333","25.0118583333333","6500100","板橋區"
"220063","609-BX","2019/09/10 18:39:39","新北市板橋區民生路二段120號","121.470546666667","25.0194783333333","6500100","板橋區"
"220069","630-UY","2019/09/10 18:39:28","新北市板橋區南雅南路二段9號","121.454248333333","25.0027716666667","6500100","板橋區"
"220091","637-BX","2019/09/10 18:39:31","新北市板橋區民生路二段161巷1號","121.469863333333","25.019835","6500100","板橋區"
"220057","686-BX","2019/09/10 18:39:30","新北市板橋區館前西路4-1號","121.459226666667","25.00716","6500100","板橋區"
"220077","687-BX","2019/09/10 18:39:26","新北市板橋區板城路407號","121.447443333333","24.995085","6500100","板橋區"
"220054","741-BX","2019/09/10 18:39:29","新北市板橋區板城路407號","121.447638333333","24.9953266666667","6500100","板橋區"
"220055","827-TW","2019/09/10 18:39:31","新北市板橋區忠孝路50號","121.46077","25.0019583333333","6500100","板橋區"
"220021","833-TW","2019/09/10 18:39:29","新北市板橋區華東街1-10號","121.448595","24.99479","6500100","板橋區"
"220074","895-R6","2019/09/10 18:39:44","新北市板橋區南雅南路二段134號","121.452026666667","24.9965883333333","6500100","板橋區"
"220073","985-R7","2019/09/10 18:39:46","新北市土城區四川路33號","121.454943333333","24.99581","6500100","板橋區"
"220064","AAC-253","2019/09/10 18:39:26","新北市板橋區縣民大道二段200巷35號","121.470658333333","25.01805","6500100","板橋區"
"235068","KEA-2873","2019/09/10 18:39:17","新北市中和區中正路209號","121.497168333333","24.9936516666667","6500300","中和區"
"235061","KEA-2875","2019/09/10 18:39:41","新北市中和區民享街92號","121.474891666667","24.99987","6500300","中和區"
"235062","KEA-2876","2019/09/10 18:39:46","新北市中和區景平路703巷2弄2號","121.49621","25.0035216666667","6500300","中和區"
