"lineid","car","time","location","longitude","latitude","cityid","cityname"
"234046","148-BY","2019/09/10 18:49:39","新北市永和區秀朗路二段155號","121.525098333333","25.0015933333333","6500400","永和區"
"234081","298-R6","2019/09/10 18:49:36","新北市永和區永利路108號","121.521236666667","25.0034666666667","6500400","永和區"
"234038","336-UY","2019/09/10 18:49:28","新北市永和區成功路二段139號","121.526746666667","24.9979316666667","6500400","永和區"
"234064","337-UY","2019/09/10 18:49:31","新北市永和區豫溪街217巷27號","121.524686666667","25.0103416666667","6500400","永和區"
"234086","338-UY","2019/09/10 18:49:33","新北市永和區中正路78號","121.513686666667","24.9952283333333","6500400","永和區"
"234017","745-BX","2019/09/10 18:49:31","新北市永和區永和路二段301巷1號","121.515763333333","25.016385","6500400","永和區"
"234030","746-BX","2019/09/10 18:49:42","新北市永和區得和路353號","121.524243333333","24.9994466666667","6500400","永和區"
"234007","KED-0605","2019/09/10 18:49:27","新北市永和區文化路123號","121.512263333333","25.0153416666667","6500400","永和區"
"234013","KEA-2591","2019/09/10 18:49:35","新北市永和區仁愛路202巷40號","121.508898333333","25.0132883333333","6500400","永和區"
"234061","AAD-866","2019/09/10 18:49:39","新北市永和區福和路309巷1號","121.51635","25.00706","6500400","永和區"
"234026","9371-KE","2019/09/10 18:49:42","新北市永和區自由街58號","121.513758333333","25.0058666666667","6500400","永和區"
"234011","9373-KE","2019/09/10 18:49:31","新北市永和區文化路124號","121.513043333333","25.0153433333333","6500400","永和區"
"249005","172-UM","2019/09/10 18:49:38","新北市八里區長道坑16-2號","121.395246666667","25.116985","6502300","八里區"
"249001","173-UM","2019/09/10 18:49:37","新北市八里區龍米路二段121-3號","121.447125","25.1434816666667","6502300","八里區"
"249003","593-UM","2019/09/10 18:21:36","新北市八里區博物館路10-1號","121.41509","25.16397","6502300","八里區"
"248014","025-BX","2019/09/10 18:49:32","新北市五股區民義路一段107巷32號","121.432291666667","25.0845266666667","6501500","五股區"
"248016","026-BX","2019/09/10 18:49:29","新北市五股區成泰路三段543巷50號","121.450038333333","25.10284","6501500","五股區"
"248006","077-UY","2019/09/10 18:49:41","新北市五股區四維路38號","121.467275","25.071685","6501500","五股區"
"248008","KED-0815","2019/09/10 18:49:36","新北市五股區中興路一段151巷32號","121.465151666667","25.0727533333333","6501500","五股區"
"248020","KED-0813","2019/09/10 18:49:34","新北市五股區凌雲路三段41-1號","121.430753333333","25.1182316666667","6501500","五股區"
"248012","247-BX","2019/09/10 18:49:44","新北市五股區成泰路二段222-2號","121.439063333333","25.0853833333333","6501500","五股區"
"248004","677-BX","2019/09/10 18:49:29","新北市五股區民義路二段73號","121.409015","25.1056066666667","6501500","五股區"
"248002","678-BX","2019/09/10 18:49:37","新北市五股區成泰路三段454號","121.45141","25.1003766666667","6501500","五股區"
"248010","682-TV","2019/09/10 18:49:41","新北市五股區水碓九路75號","121.43022","25.0733683333333","6501500","五股區"
"234023","9380-KE","2019/09/10 18:49:37","新北市永和區竹林路119巷45號","121.521988333333","25.0117833333333","6500400","永和區"
"234077","969-R7","2019/09/10 18:49:43","新北市永和區中正路2巷29弄13號","121.513711666667","24.994115","6500400","永和區"
"234067","AAC-212","2019/09/10 18:49:27","新北市永和區永和路一段2號","121.512653333333","25.0043983333333","6500400","永和區"
"234003","AAC-295","2019/09/10 18:49:35","新北市永和區中正路549號","121.516793333333","25.0081233333333","6500400","永和區"
"232011","375-UM","2019/09/10 18:49:33","新北市坪林區坪碇路83號","121.711818333333","24.9385133333333","6502000","坪林區"
"244019","402-UM","2019/09/10 18:49:37","新北市林口區麗園二街1巷9-1號","121.378961666667","25.0700716666667","6501700","林口區"
"244013","KEA-2802","2019/09/10 18:49:29","新北市林口區麗園二街1巷6-1號","121.378036666667","25.0703833333333","6501700","林口區"
"244023","483-VK","2019/09/10 18:49:35","新北市林口區信義路108號","121.38079","25.0792083333333","6501700","林口區"
"244017","485-VK","2019/09/10 18:49:38","新北市林口區文化二路一段20巷25弄17號","121.36554","25.067335","6501700","林口區"
"244009","656-BX","2019/09/10 18:49:32","新北市林口區竹林路402號","121.390661666667","25.0842983333333","6501700","林口區"
"244011","701-TV","2019/09/10 18:49:44","新北市林口區仁愛路一段285巷52號","121.395495","25.0745983333333","6501700","林口區"
"244025","837-TS","2019/09/10 18:49:40","新北市林口區南勢街246號","121.358726666667","25.0756","6501700","林口區"
"243010","297-R6","2019/09/10 18:49:26","新北市泰山區辭修路48號","121.428578333333","25.05713","6501600","泰山區"
"243016","421-VK","2019/09/10 18:49:42","新北市泰山區明志路一段519號","121.43032","25.0541016666667","6501600","泰山區"
"243015","680-BX","2019/09/10 18:49:31","新北市泰山區美寧街50號","121.430458333333","25.06448","6501600","泰山區"
"222003","436-BY","2019/09/10 18:49:33","新北市深坑區深南路51-1號","121.621385","25.0101383333333","6501800","深坑區"
"222002","659-BX","2019/09/10 18:49:34","新北市深坑區文山路一段69號","121.627011666667","25.0018616666667","6501800","深坑區"
"231061","002-UM","2019/09/10 18:49:38","新北市新店區安華路28-1號","121.519883333333","24.9608316666667","6500600","新店區"
"231055","0291-UT","2019/09/10 18:49:26","新北市新店區中華路47巷5號","121.539768333333","24.96754","6500600","新店區"
"231058","0293-UT","2019/09/10 18:49:27","新北市新店區能仁街16號","121.540628333333","24.95545","6500600","新店區"
"231044","046-UY","2019/09/10 18:49:38","新北市新店區光明街133號","121.539281666667","24.9620083333333","6500600","新店區"
"231060","047-UY","2019/09/10 18:49:38","新北市新店區安華路28-1號","121.519555","24.9608033333333","6500600","新店區"
"231049","108-UY","2019/09/10 18:49:27","新北市新店區力行路15號","121.537113333333","24.965825","6500600","新店區"
"231065","KEA-2219","2019/09/10 18:49:30","新北市新店區安康路三段246號","121.487713333333","24.95179","6500600","新店區"
"231062","256-BX","2019/09/10 18:49:34","新北市新店區安一路一段1-1號","121.519525","24.9611633333333","6500600","新店區"
"231054","260-TV","2019/09/10 18:49:28","新北市新店區安一路一段1-1號","121.519351666667","24.9610716666667","6500600","新店區"
"231042","268-BY","2019/09/10 18:49:28","新北市新店區中正路98號","121.543383333333","24.9703916666667","6500600","新店區"
"231064","278-BY","2019/09/10 18:49:33","新北市新店區安一路一段1-1號","121.519756666667","24.96111","6500600","新店區"
"231050","AAD-862","2019/09/10 18:49:37","新北市新店區安康路一段355號","121.519786666667","24.96298","6500600","新店區"
"231045","355-BY","2019/09/10 18:49:43","新北市新店區安華路28-1號","121.519191666667","24.9608383333333","6500600","新店區"
"231056","4715-K9","2019/09/10 18:49:39","新北市新店區大同街10號","121.539676666667","24.9799333333333","6500600","新店區"
"231067","4772-VM","2019/09/10 18:49:34","新北市新店區安華路28-1號","121.519311666667","24.9607783333333","6500600","新店區"
"231053","515-UM","2019/09/10 18:49:38","新北市新店區新烏路一段105巷31號","121.546691666667","24.9402566666667","6500600","新店區"
"231063","616-UM","2019/09/10 18:49:40","新北市新店區安華路1-1號","121.519528333333","24.9605133333333","6500600","新店區"
"231048","KED-0819","2019/09/10 18:49:36","新北市新店區北新路一段89號","121.538625","24.9616883333333","6500600","新店區"
"231051","718-UY","2019/09/10 18:49:41","新北市新店區中央路79號","121.532418333333","24.9766083333333","6500600","新店區"
"231046","719-UM","2019/09/10 18:49:32","新北市新店區直潭路71號","121.532401666667","24.9422116666667","6500600","新店區"
"231057","720-UM","2019/09/10 18:49:46","新北市新店區新烏路一段215號","121.549285","24.9313483333333","6500600","新店區"
"231059","897-TW","2019/09/10 18:49:28","新北市新店區安華路28-1號","121.519743333333","24.9607766666667","6500600","新店區"
"231040","898-TW","2019/09/10 18:49:28","新北市新店區安康路一段231號","121.525403333333","24.9631333333333","6500600","新店區"
"231043","899-TW","2019/09/10 18:49:35","新北市新店區安一路一段1-1號","121.51976","24.961835","6500600","新店區"
"231066","AKT-0513","2019/09/10 18:49:40","新北市新店區安華路30巷1號","121.519026666667","24.9591733333333","6500600","新店區"
"241012","941-UM","2019/09/10 18:49:31","新北市三重區龍濱路190號","121.501158333333","25.0733033333333","6500200","三重區"
"235066","003-UY","2019/09/10 18:49:39","新北市中和區水源路18巷3號","121.50404","25.0031916666667","6500300","中和區"
"235063","006-UY","2019/09/10 18:49:38","新北市中和區連城路319巷11弄10號","121.4896","24.99493","6500300","中和區"
"235056","096-UM","2019/09/10 18:49:27","新北市中和區員山路466巷17弄17號","121.480528333333","25.0071566666667","6500300","中和區"
"235039","097-UM","2019/09/10 18:49:44","新北市中和區安樂路217巷45號","121.513265","24.9978","6500300","中和區"
"235065","098-UM","2019/09/10 18:49:38","新北市中和區中山路二段2巷45弄30號","121.501736666667","25.0068333333333","6500300","中和區"
"235040","150-BY","2019/09/10 18:49:38","新北市中和區安平路36巷5號","121.510333333333","24.9948416666667","6500300","中和區"
"235058","151-BY","2019/09/10 18:49:32","新北市中和區連城路532巷3-1號","121.475436666667","24.991855","6500300","中和區"
"235055","183-VK","2019/09/10 18:49:47","新北市中和區民德路19號","121.468813333333","25.002805","6500300","中和區"
"235038","185-VK","2019/09/10 18:49:41","新北市中和區大仁街44號","121.518266666667","24.9939266666667","6500300","中和區"
"235049","186-VK","2019/09/10 18:49:28","新北市中和區景安路177巷5號","121.50566","24.99422","6500300","中和區"
"235067","255-BX","2019/09/10 18:49:43","新北市中和區民樂路76號","121.48432","25.001215","6500300","中和區"
"235044","293-VK","2019/09/10 18:49:39","新北市中和區中興街141號","121.499943333333","24.991265","6500300","中和區"
"235072","301-VK","2019/09/10 18:49:28","新北市中和區中山路二段41號","121.50467","25.005085","6500300","中和區"
"235043","352-BY","2019/09/10 18:49:29","新北市中和區秀朗路三段107號","121.526395","24.9945866666667","6500300","中和區"
"235042","KEA-2878","2019/09/10 18:49:42","新北市中和區秀朗路三段104號","121.525466666667","24.9930666666667","6500300","中和區"
"235050","4979-A6","2019/09/10 18:49:30","新北市中和區忠孝街62巷9弄10號","121.513136666667","24.9839716666667","6500300","中和區"
"235069","4980-A6","2019/09/10 18:49:42","新北市中和區連城路72號","121.497535","25.0014666666667","6500300","中和區"
"235070","558-UM","2019/09/10 18:49:32","新北市中和區中和路200號","121.50543","24.999545","6500300","中和區"
"235045","565-BX","2019/09/10 18:49:38","新北市中和區捷運路125號","121.507323333333","24.9905583333333","6500300","中和區"
"235060","KED-0823","2019/09/10 18:49:40","新北市中和區中山路三段148號","121.473685","25.0063683333333","6500300","中和區"
"235054","640-BX","2019/09/10 18:49:40","新北市中和區中山路三段144號","121.473751666667","25.0062483333333","6500300","中和區"
"235047","732-UM","2019/09/10 18:49:24","新北市中和區興南路二段34巷28弄2號","121.505033333333","24.98647","6500300","中和區"
"235046","733-UM","2019/09/10 18:49:31","新北市中和區興南路一段159號","121.508578333333","24.98717","6500300","中和區"
"235057","801-TS","2019/09/10 18:49:46","新北市中和區民利街58巷3弄1號","121.478831666667","24.9990866666667","6500300","中和區"
"235041","802-TS","2019/09/10 18:49:30","新北市中和區宜安路125號","121.50993","24.998065","6500300","中和區"
"235052","805-TS","2019/09/10 18:49:29","新北市中和區興南路二段399巷98號","121.500265","24.9777366666667","6500300","中和區"
"235048","896-TW","2019/09/10 18:49:28","新北市中和區華新街73號","121.508255","24.9839133333333","6500300","中和區"
"235053","900-TW","2019/09/10 18:49:46","新北市中和區民德路292號","121.467506666667","24.9956266666667","6500300","中和區"
"235064","911-UM","2019/09/10 18:49:35","新北市中和區泰和街12號","121.499958333333","25.001015","6500300","中和區"
"235051","157-BY","2019/09/10 18:49:30","新北市中和區忠孝街106巷52-1號","121.513716666667","24.9842483333333","6500300","中和區"
"235037","AAC-213","2019/09/10 18:49:44","新北市中和區秀朗路三段10巷37弄4號","121.52414","24.9960366666667","6500300","中和區"
"235059","AAC-215","2019/09/10 18:49:37","新北市中和區圓通路393巷38號","121.490553333333","24.9882716666667","6500300","中和區"
"220065","072-UY","2019/09/10 18:49:28","新北市板橋區民族路166號","121.46484","25.0084666666667","6500100","板橋區"
"220086","073-UY","2019/09/10 18:49:41","新北市板橋區南雅西路二段145巷3號","121.45168","25.0115883333333","6500100","板橋區"
"220106","075-UY","2019/09/10 18:49:36","新北市板橋區莒光路52-1號","121.470733333333","25.024335","6500100","板橋區"
"220068","120-SR","2019/09/10 18:49:43","新北市板橋區大同街35巷16號","121.477461666667","25.0278583333333","6500100","板橋區"
"226004","312-R5","2019/09/10 18:49:40","新北市平溪區平溪里三坑路13號","121.736961666667","25.0283466666667","6502400","平溪區"
"228003","097-TW","2019/09/10 18:49:44","新北市貢寮區和美里龍洞街60號","121.914165","25.1160466666667","6502600","貢寮區"
"228002","663-BX","2019/09/10 18:49:36","新北市貢寮區福隆里東興街6-11號","121.95077","25.021105","6502600","貢寮區"
"224006","676-BX","2019/09/10 18:49:34","新北市瑞芳區民權街21-1號","121.807876666667","25.1066316666667","6501200","瑞芳區"
"224002","639-TC","2019/09/10 18:49:40","新北市瑞芳區中山路307-3號","121.793795","25.1096183333333","6501200","瑞芳區"
"224007","285-BY","2019/09/10 18:49:33","新北市瑞芳區大埔路98號","121.761846666667","25.1006333333333","6501200","瑞芳區"
"224009","275-VK","2019/09/10 18:49:46","新北市瑞芳區祈堂路18-1號","121.857998333333","25.1117983333333","6501200","瑞芳區"
"224008","273-VK","2019/09/10 18:49:39","新北市瑞芳區逢甲路338號","121.802991666667","25.1117466666667","6501200","瑞芳區"
"224005","271-BY","2019/09/10 18:49:29","新北市瑞芳區海濱路153號","121.830073333333","25.1220766666667","6501200","瑞芳區"
"227001","642-TC","2019/09/10 18:49:34","新北市雙溪區牡丹里下坑11號","121.851001666667","25.0561933333333","6502500","雙溪區"
"227002","400-TW","2019/09/10 18:49:30","新北市雙溪區共和里中山路57號","121.867336666667","25.0318333333333","6502500","雙溪區"
"253005","032-BX","2019/09/10 18:49:36","新北市石門區中山路28-3號","121.565756666667","25.2898066666667","6502200","石門區"
"253006","295-VK","2019/09/10 18:49:41","新北市石門區下員坑15號","121.511763333333","25.28476","6502200","石門區"
"222001","KEA-2212","2019/09/10 18:49:33","新北市深坑區北深路一段32號","121.638131666667","25.010485","6501800","深坑區"
"208002","KEA-2872","2019/09/10 18:49:44","新北市金山區信義路72號","121.635155","25.21954","6502700","金山區"
"208003","665-BX","2019/09/10 18:49:41","新北市金山區中山路339號","121.635091666667","25.2241783333333","6502700","金山區"
"251001","011-UM","2019/09/10 18:49:41","新北市淡水區自強路277號","121.462388333333","25.1283816666667","6501000","淡水區"
"251002","012-UM","2019/09/10 18:49:33","新北市淡水區學府路77號","121.448548333333","25.1699566666667","6501000","淡水區"
"251015","KEA-2871","2019/09/10 18:49:32","新北市淡水區糞箕湖62號","121.485221666667","25.172265","6501000","淡水區"
"251016","179-VK","2019/09/10 18:49:23","新北市淡水區下圭柔山71-3號","121.447005","25.206245","6501000","淡水區"
"251013","182-VK","2019/09/10 18:49:40","新北市淡水區安子內5號","121.484225","25.215085","6501000","淡水區"
"251010","413-VK","2019/09/10 18:49:46","新北市淡水區沙崙路13號","121.421205","25.1812383333333","6501000","淡水區"
"251012","441-VK","2019/09/10 18:49:45","新北市淡水區中山北路一段160號","121.444115","25.1782683333333","6501000","淡水區"
"251009","575-R6","2019/09/10 18:49:44","新北市淡水區重建街226號","121.44144","25.1749633333333","6501000","淡水區"
"251014","577-R6","2019/09/10 18:49:44","新北市淡水區崙頂3號","121.491091666667","25.2239266666667","6501000","淡水區"
"251011","650-BX","2019/09/10 18:49:24","新北市淡水區學府路32巷87號","121.44807","25.1676683333333","6501000","淡水區"
"251003","673-BX","2019/09/10 18:49:31","新北市淡水區中山北路一段212巷38號","121.446198333333","25.1789783333333","6501000","淡水區"
"207003","550-UM","2019/09/10 18:49:39","新北市萬里區野柳里港西路70-3號","121.685378333333","25.2047","6502800","萬里區"
"207004","291-VK","2019/09/10 18:49:36","新北市萬里區萬里里獅頭路23號","121.693238333333","25.1782916666667","6502800","萬里區"
"252003","249-BX","2019/09/10 18:49:26","新北市三芝區後厝里大片頭81-1號","121.459158333333","25.2446066666667","6502100","三芝區"
"252001","292-VK","2019/09/10 18:49:30","新北市三芝區中正路三段9號","121.502903333333","25.25397","6502100","三芝區"
"208001","170-UY","2019/09/10 18:49:40","新北市金山區文化三路64號","121.634235","25.2255666666667","6502700","金山區"
"237004","KEA-2597","2019/09/10 18:49:37","新北市三峽區有木57號","121.433248333333","24.862655","6500900","三峽區"
"237007","153-BY","2019/09/10 18:49:33","新北市三峽區中正路二段449號","121.362285","24.9066183333333","6500900","三峽區"
"237013","252-BX","2019/09/10 18:49:27","新北市三峽區光明路69巷25號","121.376561666667","24.9292133333333","6500900","三峽區"
"237012","275-BY","2019/09/10 18:49:43","新北市三峽區三樹路340號","121.383953333333","24.9433383333333","6500900","三峽區"
"237008","302-VK","2019/09/10 18:49:40","新北市三峽區正義街35號","121.369466666667","24.9190966666667","6500900","三峽區"
"237014","433-BY","2019/09/10 18:49:37","新北市三峽區隆恩街189號","121.361166666667","24.9424116666667","6500900","三峽區"
"237006","5529-G3","2019/09/10 18:49:45","新北市三峽區溪東路233巷2弄1號","121.406973333333","24.933375","6500900","三峽區"
"237011","KEA-2596","2019/09/10 18:49:38","新北市三峽區溪東路163號","121.403071666667","24.93408","6500900","三峽區"
"237015","649-BX","2019/09/10 18:49:39","新北市三峽區建安107號","121.457088333333","24.9224483333333","6500900","三峽區"
"237010","706-TV","2019/09/10 18:49:38","新北市三峽區復興路453號","121.36235","24.938485","6500900","三峽區"
"237005","AKY-6261","2019/09/10 18:49:32","新北市三峽區中山路107巷70號","121.363853333333","24.935485","6500900","三峽區"
"236042","KED-0685","2019/09/10 18:49:28","新北市土城區裕民路114巷11號","121.450621666667","24.9859716666667","6501300","土城區"
"236030","253-BX","2019/09/10 18:49:38","新北市土城區忠義路26巷10號","121.43988","24.9698866666667","6501300","土城區"
"236026","269-VK","2019/09/10 18:49:38","新北市土城區中央路二段237號","121.440373333333","24.9722416666667","6501300","土城區"
"236014","270-VK","2019/09/10 18:49:18","新北市土城區金城路二段338巷8號","121.460618333333","24.9841233333333","6501300","土城區"
"236038","271-VK","2019/09/10 18:49:35","新北市土城區明德路一段221巷9號","121.463741666667","24.97803","6501300","土城區"
"236070","KEA-2877","2019/09/10 18:49:35","新北市土城區立德路36號","121.463535","24.987515","6501300","土城區"
"252002","KED-0821","2019/09/10 18:49:41","新北市三芝區中正路一段101-1號","121.504778333333","25.256425","6502100","三芝區"
"236021","401-BY","2019/09/10 18:49:36","新北市土城區明峰街35-1號","121.466348333333","24.9860766666667","6501300","土城區"
"236059","912-UM","2019/09/10 18:49:45","新北市土城區金城路一段78號","121.444","24.972635","6501300","土城區"
"236049","913-UM","2019/09/10 18:49:45","新北市土城區青雲路44號","121.459918333333","24.98815","6501300","土城區"
"236063","915-UM","2019/09/10 18:49:35","新北市土城區延和路177巷11弄2號","121.469868333333","24.990705","6501300","土城區"
"236055","AAC-216","2019/09/10 18:49:43","新北市土城區裕民路190號","121.452996666667","24.9850783333333","6501300","土城區"
"242061","986-R7","2019/09/10 18:49:31","新北市新莊區新樹路206巷4號","121.43357","25.02037","6500500","新莊區"
"242013","413-TV","2019/09/10 18:49:31","新北市樹林區中山路三段210-2號","121.381485","24.9655416666667","6500500","新莊區"
"242017","173-VK","2019/09/10 18:25:07","新北市新莊區三和路12-21號","121.441895","25.0388283333333","6500500","新莊區"
"242009","349-TH","2019/09/10 18:49:42","新北市板橋區大觀路三段20巷7-1號","121.435215","24.99613","6500500","新莊區"
"238023","601-UM","2019/09/10 18:49:38","新北市樹林區工興街14巷2號","121.398961666667","25.0136016666667","6500700","樹林區"
"238024","5061-A6","2019/09/10 18:49:23","新北市樹林區太平路148號","121.418551666667","24.97814","6500700","樹林區"
"238022","KEA-2213","2019/09/10 18:49:25","新北市樹林區中華路393號","121.411353333333","24.9804483333333","6500700","樹林區"
"238021","KEA-2539","2019/09/10 18:49:43","新北市樹林區西圳街二段57巷1號","121.387575","24.9603966666667","6500700","樹林區"
"238025","303-VK","2019/09/10 18:49:43","新北市樹林區中山路三段22號","121.395611666667","24.9729266666667","6500700","樹林區"
"238017","283-BY","2019/09/10 18:49:28","新北市樹林區光興街44號","121.409915","25.0027183333333","6500700","樹林區"
"238014","282-BY","2019/09/10 18:49:46","新北市樹林區大安路111巷43號","121.42335","24.9974433333333","6500700","樹林區"
"238020","268-VK","2019/09/10 18:49:44","新北市樹林區俊英街282號","121.423765","25.0133266666667","6500700","樹林區"
"238026","172-UY","2019/09/10 18:49:26","新北市樹林區育德街78-1號","121.388078333333","24.96801","6500700","樹林區"
"238016","169-UY","2019/09/10 18:49:40","新北市樹林區中山路一段412號","121.417405","24.98517","6500700","樹林區"
"239007","AAC-297","2019/09/10 18:49:39","新北市鶯歌區中正一路建德巷38號","121.36447","24.9578016666667","6500800","鶯歌區"
"239006","891-R6","2019/09/10 18:49:30","新北市鶯歌區鶯桃路296巷48-1號","121.335881666667","24.9612616666667","6500800","鶯歌區"
"239008","527-UM","2019/09/10 18:49:44","新北市鶯歌區朝陽街1號","121.336283333333","24.9765866666667","6500800","鶯歌區"
"239005","526-UM","2019/09/10 18:49:33","新北市鶯歌區鳳吉二街26號","121.325898333333","24.973265","6500800","鶯歌區"
"239001","417-VK","2019/09/10 18:49:41","新北市鶯歌區二橋街25號","121.336555","24.9392533333333","6500800","鶯歌區"
"239003","360-BY","2019/09/10 18:49:32","新北市鶯歌區鶯桃路574號","121.33065","24.96785","6500800","鶯歌區"
"239002","359-BY","2019/09/10 18:49:40","新北市鶯歌區中山路284號","121.344221666667","24.9569683333333","6500800","鶯歌區"
"239004","193-VK","2019/09/10 18:49:29","新北市鶯歌區中正三路194巷38-1號","121.330961666667","24.941335","6500800","鶯歌區"
"221036","130-UY","2019/09/10 18:49:46","新北市汐止區信義路1號","121.662633333333","25.06922","6501100","汐止區"
"221015","131-UY","2019/09/10 18:49:20","新北市汐止區吉祥街26號","121.667803333333","25.0809883333333","6501100","汐止區"
"221032","280-BY","2019/09/10 18:49:25","新北市汐止區橫科路40-2號","121.621321666667","25.0505533333333","6501100","汐止區"
"221021","299-VK","2019/09/10 18:49:30","新北市汐止區新興路61-1號","121.657538333333","25.0625116666667","6501100","汐止區"
"221031","353-TW","2019/09/10 18:49:44","新北市汐止區福德一路272巷9號","121.63189","25.0642666666667","6501100","汐止區"
"221035","622-UM","2019/09/10 18:49:45","新北市汐止區大同路二段33-1號","121.647683333333","25.06321","6501100","汐止區"
"221025","623-UM","2019/09/10 18:49:44","新北市汐止區福安街20巷22號","121.661931666667","25.064595","6501100","汐止區"
"221002","707-TV","2019/09/10 18:49:25","新北市汐止區大同路一段5號","121.621836666667","25.0550433333333","6501100","汐止區"
"221018","753-BX","2019/09/10 18:49:46","新北市汐止區茄苳路291號","121.67298","25.0672683333333","6501100","汐止區"
"220079","145-BY","2019/09/10 18:49:23","新北市板橋區大智街71巷42弄15號","121.452241666667","25.0146283333333","6500100","板橋區"
"220080","200-UY","2019/09/10 18:49:26","新北市板橋區合宜一路1-6號","121.442535","24.9967083333333","6500100","板橋區"
"220082","610-BX","2019/09/10 18:49:29","新北市板橋區篤行路三段玉平巷76弄10號","121.427705","24.9858616666667","6500100","板橋區"
"220101","245-BX","2019/09/10 18:49:40","新北市板橋區莊敬路101號","121.472451666667","25.0261133333333","6500100","板橋區"
"220056","276-BY","2019/09/10 18:49:40","新北市板橋區四川路一段262號","121.459076666667","25.00117","6500100","板橋區"
"220072","277-BY","2019/09/10 18:49:36","新北市板橋區金門街19巷1號","121.433773333333","24.9946566666667","6500100","板橋區"
"220094","283-UM","2019/09/10 18:49:39","新北市板橋區文化路二段76號","121.46947","25.0248966666667","6500100","板橋區"
"220071","283-VK","2019/09/10 18:49:39","新北市板橋區四川路一段10巷1號","121.459453333333","25.0066416666667","6500100","板橋區"
"220053","285-VK","2019/09/10 18:49:47","新北市板橋區成功路46號","121.4751","25.0177316666667","6500100","板橋區"
"220083","286-VK","2019/09/10 18:49:29","新北市板橋區僑中三街39號","121.445128333333","25.0048483333333","6500100","板橋區"
"220081","287-VK","2019/09/10 18:49:33","新北市板橋區光華街13巷54號","121.452563333333","25.0112233333333","6500100","板橋區"
"220061","293-UM","2019/09/10 18:49:39","新北市板橋區永豐街121號","121.474468333333","25.01969","6500100","板橋區"
"220062","295-UM","2019/09/10 18:49:34","新北市板橋區中山路二段25號","121.472491666667","25.0152216666667","6500100","板橋區"
"220084","296-UM","2019/09/10 18:49:47","新北市板橋區大觀路二段150巷27號","121.441601666667","24.9996816666667","6500100","板橋區"
"220067","299-UM","2019/09/10 18:49:42","新北市板橋區三民路二段正隆巷41號","121.47704","25.0136733333333","6500100","板橋區"
"220075","303-R5","2019/09/10 18:49:36","新北市板橋區館前西路257號","121.454233333333","25.0087683333333","6500100","板橋區"
"220092","307-R5","2019/09/10 18:49:39","新北市板橋區文化路一段136巷8弄8號","121.46555","25.018185","6500100","板橋區"
"220098","317-R6","2019/09/10 18:49:42","新北市板橋區民生路二段234巷26弄9號","121.470506666667","25.0221516666667","6500100","板橋區"
"220089","487-VK","2019/09/10 18:49:43","新北市板橋區文化路二段419號","121.47457","25.0327633333333","6500100","板橋區"
"220088","491-VK","2019/09/10 18:49:32","新北市板橋區文化路二段22號","121.46894","25.024445","6500100","板橋區"
"220035","560-BX","2019/09/10 18:49:27","新北市板橋區中正路275巷77號","121.452368333333","25.0181466666667","6500100","板橋區"
"220052","561-BX","2019/09/10 18:49:44","新北市板橋區文化路一段188巷11弄16號","121.468995","25.0186883333333","6500100","板橋區"
"220063","609-BX","2019/09/10 18:49:39","新北市板橋區民生路一段72號","121.473801666667","25.0153216666667","6500100","板橋區"
"220091","637-BX","2019/09/10 18:49:31","新北市板橋區雙十路二段47巷31號","121.475215","25.0254616666667","6500100","板橋區"
"220057","686-BX","2019/09/10 18:49:35","新北市板橋區重慶路182號","121.462498333333","25.0034716666667","6500100","板橋區"
"220077","687-BX","2019/09/10 18:49:26","新北市板橋區大觀路二段174巷172號","121.441988333333","25.00345","6500100","板橋區"
"220054","741-BX","2019/09/10 18:49:29","新北市板橋區館前東路24號","121.46033","25.00707","6500100","板橋區"
"220102","KEA-2699","2019/09/10 18:49:40","新北市板橋區萬板路506號","121.48029","25.0261783333333","6500100","板橋區"
"220055","827-TW","2019/09/10 18:49:43","新北市板橋區忠孝路110-1號","121.462331666667","25.0021383333333","6500100","板橋區"
"220090","831-TW","2019/09/10 18:49:27","新北市板橋區四維路177巷4弄2號","121.463766666667","25.026125","6500100","板橋區"
"220021","833-TW","2019/09/10 18:40:30","新北市板橋區華東街1-10號","121.448605","24.99478","6500100","板橋區"
"220074","895-R6","2019/09/10 18:49:27","新北市板橋區南門街39號","121.457335","25.0088166666667","6500100","板橋區"
"220073","985-R7","2019/09/10 18:49:26","新北市板橋區館前西路269號","121.453501666667","25.008715","6500100","板橋區"
"220097","AAC-210","2019/09/10 18:49:42","新北市板橋區四維路137巷17號","121.464376666667","25.0248683333333","6500100","板橋區"
"220064","AAC-253","2019/09/10 18:49:33","新北市板橋區漢生東路121號","121.467548333333","25.0146083333333","6500100","板橋區"
"235068","KEA-2873","2019/09/10 18:49:17","新北市中和區中正路173號","121.497723333333","24.9935833333333","6500300","中和區"
"235061","KEA-2875","2019/09/10 18:49:41","新北市中和區民治街128巷11號","121.474675","25.0028083333333","6500300","中和區"
"235062","KEA-2876","2019/09/10 18:49:45","新北市中和區中山路二段386號","121.490443333333","25.0036066666667","6500300","中和區"
