"lineid","car","time","location","longitude","latitude","cityid","cityname"
"234046","148-BY","2019/09/10 19:09:37","新北市永和區永元路18巷38弄1號","121.524065","25.0002566666667","6500400","永和區"
"234081","298-R6","2019/09/10 19:09:36","新北市永和區永貞路39巷13號","121.522395","25.0064166666667","6500400","永和區"
"234038","336-UY","2019/09/10 19:09:28","新北市永和區民樂街69巷1號","121.527445","24.997775","6500400","永和區"
"234064","337-UY","2019/09/10 19:09:31","新北市永和區秀朗路二段48號","121.521643333333","25.0022083333333","6500400","永和區"
"234086","338-UY","2019/09/10 19:09:33","新北市永和區永貞路69號","121.519006666667","25.0044133333333","6500400","永和區"
"234070","552-UM","2019/09/10 19:09:41","新北市永和區豫溪街95巷4弄1號","121.518286666667","25.0106283333333","6500400","永和區"
"234017","745-BX","2019/09/10 19:09:11","新北市永和區文化路90巷15弄1號","121.513823333333","25.0158633333333","6500400","永和區"
"234030","746-BX","2019/09/10 19:09:42","新北市永和區民生路29號","121.522858333333","24.99844","6500400","永和區"
"234054","KEA-2590","2019/09/10 19:09:43","新北市永和區竹林路72巷8號","121.518826666667","25.0127516666667","6500400","永和區"
"234007","KED-0605","2019/09/10 19:09:27","新北市永和區中山路一段212號","121.508551666667","25.0085166666667","6500400","永和區"
"234013","KEA-2591","2019/09/10 19:09:35","新北市永和區保福路二段14-1號","121.510901666667","25.0113966666667","6500400","永和區"
"234061","AAD-866","2019/09/10 19:09:39","新北市永和區安樂路445號","121.514358333333","25.0048783333333","6500400","永和區"
"234040","862-TW","2019/09/10 19:09:34","新北市永和區保平路210號","121.509965","25.00607","6500400","永和區"
"234050","863-TW","2019/09/10 19:09:34","新北市永和區保福路二段150巷18號","121.510341666667","25.015","6500400","永和區"
"234026","9371-KE","2019/09/10 19:09:43","新北市永和區安樂路270號","121.514533333333","25.0041133333333","6500400","永和區"
"234011","9373-KE","2019/09/10 19:09:31","新北市永和區仁愛路141巷30弄5號","121.511985","25.0115866666667","6500400","永和區"
"249005","172-UM","2019/09/10 19:09:38","新北市八里區中華路三段27號","121.396455","25.1429733333333","6502300","八里區"
"249001","173-UM","2019/09/10 19:09:37","新北市八里區龍米路二段236號","121.431316666667","25.1586183333333","6502300","八里區"
"249003","593-UM","2019/09/10 19:09:40","新北市八里區博物館路29號","121.41436","25.163045","6502300","八里區"
"248016","026-BX","2019/09/10 19:09:29","新北市五股區成泰路三段543巷54號","121.449658333333","25.1030633333333","6501500","五股區"
"248006","077-UY","2019/09/10 19:09:41","新北市五股區四維路112號","121.4677","25.0739","6501500","五股區"
"248008","KED-0815","2019/09/10 19:09:36","新北市五股區中興路一段118巷2號","121.465981666667","25.0737416666667","6501500","五股區"
"248020","KED-0813","2019/09/10 19:09:30","新北市五股區凌雲路三段57號","121.42527","25.1249583333333","6501500","五股區"
"248012","247-BX","2019/09/10 19:09:44","新北市五股區中興路四段48巷16號","121.438613333333","25.0834233333333","6501500","五股區"
"248004","677-BX","2019/09/10 19:09:29","新北市五股區五福路11-6號","121.434221666667","25.0887583333333","6501500","五股區"
"248002","678-BX","2019/09/10 19:09:36","新北市五股區凌雲路一段158巷6號","121.447801666667","25.1029766666667","6501500","五股區"
"234023","9380-KE","2019/09/10 19:09:37","新北市永和區中興街29巷11號","121.516243333333","25.0124933333333","6500400","永和區"
"234077","969-R7","2019/09/10 19:09:43","新北市永和區民族街43巷12號","121.519173333333","24.9983783333333","6500400","永和區"
"234074","AAC-211","2019/09/10 19:09:30","新北市永和區福和路20號","121.52414","25.0084933333333","6500400","永和區"
"234067","AAC-212","2019/09/10 19:09:27","新北市永和區保平路23號","121.512628333333","25.0074233333333","6500400","永和區"
"234003","AAC-295","2019/09/10 19:09:35","新北市永和區和平街58號","121.512313333333","25.0100633333333","6500400","永和區"
"244023","483-VK","2019/09/10 19:09:35","新北市林口區文化三路二段77巷39號","121.37306","25.0802283333333","6501700","林口區"
"244011","701-TV","2019/09/10 19:09:44","新北市林口區中正路264巷13號","121.388838333333","25.07824","6501700","林口區"
"244025","837-TS","2019/09/10 19:09:40","新北市林口區忠孝路1號","121.364228333333","25.076125","6501700","林口區"
"243012","AAD-798","2019/09/10 19:09:36","新北市泰山區辭修路14號","121.429465","25.058095","6501600","泰山區"
"243010","297-R6","2019/09/10 19:09:46","新北市泰山區明志路一段485號","121.430713333333","25.0554316666667","6501600","泰山區"
"243014","KEA-2801","2019/09/10 19:09:25","新北市泰山區泰林路二段462-1號","121.425816666667","25.0641733333333","6501600","泰山區"
"243016","421-VK","2019/09/10 19:09:42","新北市泰山區明志路二段373號","121.425158333333","25.0439216666667","6501600","泰山區"
"243009","KEA-2215","2019/09/10 19:09:40","新北市泰山區福德街34號","121.432383333333","25.0634066666667","6501600","泰山區"
"243011","KEA-2216","2019/09/10 19:09:45","新北市泰山區明志路二段368號","121.425555","25.0448616666667","6501600","泰山區"
"243013","646-TV","2019/09/10 19:09:39","新北市泰山區明志路三段277號","121.423116666667","25.0368166666667","6501600","泰山區"
"243015","680-BX","2019/09/10 19:09:31","新北市泰山區明志路一段371號","121.430821666667","25.0579066666667","6501600","泰山區"
"222003","436-BY","2019/09/10 19:09:33","新北市深坑區深南路162號","121.626073333333","25.0149766666667","6501800","深坑區"
"222002","659-BX","2019/09/10 19:09:34","新北市深坑區北深路一段185號","121.631223333333","25.0099833333333","6501800","深坑區"
"231061","002-UM","2019/09/10 19:09:39","新北市新店區安康路一段249-1號","121.524671666667","24.9633","6500600","新店區"
"231055","0291-UT","2019/09/10 19:09:26","新北市新店區新生街13巷18號","121.539081666667","24.9660466666667","6500600","新店區"
"231058","0293-UT","2019/09/10 19:09:27","新北市新店區中興路一段112號","121.540813333333","24.9617566666667","6500600","新店區"
"231044","046-UY","2019/09/10 19:09:38","新北市新店區中興路三段219-1號","121.543388333333","24.982395","6500600","新店區"
"231060","047-UY","2019/09/10 19:09:38","新北市新店區安康路二段296-3號","121.506235","24.95812","6500600","新店區"
"231049","108-UY","2019/09/10 19:09:47","新北市新店區二十張路19號","121.53929","24.982135","6500600","新店區"
"231065","KEA-2219","2019/09/10 19:09:30","新北市新店區安祥路110巷19號","121.473786666667","24.955975","6500600","新店區"
"231062","256-BX","2019/09/10 19:09:34","新北市新店區安平路20號","121.524028333333","24.9672383333333","6500600","新店區"
"231054","260-TV","2019/09/10 19:09:32","新北市新店區新店路232-2號","121.537263333333","24.956995","6500600","新店區"
"231042","268-BY","2019/09/10 19:09:28","新北市新店區中興路一段203號","121.543628333333","24.9655283333333","6500600","新店區"
"231064","278-BY","2019/09/10 19:09:33","新北市新店區安忠路56巷6號","121.512933333333","24.9594466666667","6500600","新店區"
"231050","AAD-862","2019/09/10 19:09:37","新北市新店區竹林路2巷29弄7號","121.550365","24.9503183333333","6500600","新店區"
"231045","355-BY","2019/09/10 19:09:43","新北市新店區北宜路一段130號","121.539561666667","24.9549116666667","6500600","新店區"
"231056","4715-K9","2019/09/10 19:09:39","新北市新店區溪園路417號","121.524718333333","24.9791416666667","6500600","新店區"
"231067","4772-VM","2019/09/10 19:09:34","新北市新店區安康路一段247巷4弄4號","121.52421","24.9626366666667","6500600","新店區"
"231053","515-UM","2019/09/10 19:09:38","新北市新店區自強路84號","121.546345","24.9244416666667","6500600","新店區"
"231063","616-UM","2019/09/10 19:09:40","新北市新店區車子路117號","121.505415","24.95154","6500600","新店區"
"231041","618-UM","2019/09/10 19:09:34","新北市新店區中央一街33號","121.527536666667","24.97333","6500600","新店區"
"231048","KED-0819","2019/09/10 19:09:36","新北市新店區德正街27巷29弄88號","121.54579","24.9736133333333","6500600","新店區"
"231051","718-UY","2019/09/10 19:09:41","新北市新店區中正路382巷18號","121.535306666667","24.9776833333333","6500600","新店區"
"231046","719-UM","2019/09/10 19:03:12","新北市新店區新潭路一段39巷8號","121.526025","24.943185","6500600","新店區"
"231057","720-UM","2019/09/10 19:09:25","新北市新店區百齡一路12號","121.553071666667","24.9324833333333","6500600","新店區"
"231059","897-TW","2019/09/10 19:09:28","新北市新店區安康路一段351-1號","121.519488333333","24.964035","6500600","新店區"
"231040","898-TW","2019/09/10 19:09:28","新北市新店區三民路189號","121.535355","24.97546","6500600","新店區"
"231043","899-TW","2019/09/10 19:09:35","新北市新店區寶橋路88號","121.54667","24.9758783333333","6500600","新店區"
"231066","AKT-0513","2019/09/10 19:09:40","新北市新店區安康路二段458號","121.494153333333","24.9541566666667","6500600","新店區"
"241035","KEA-2210","2019/09/10 19:09:34","新北市三重區信義西街138號","121.495521666667","25.0642533333333","6500200","三重區"
"241022","462-BY","2019/09/10 19:09:34","新北市三重區三民街153-1號","121.484185","25.0645416666667","6500200","三重區"
"241026","480-VK","2019/09/10 19:09:41","新北市三重區泉州街84巷12號","121.495431666667","25.05456","6500200","三重區"
"241012","941-UM","2019/09/10 19:09:30","新北市三重區龍濱路285號","121.501123333333","25.0733116666667","6500200","三重區"
"241029","942-UM","2019/09/10 19:09:42","新北市三重區集美街263號","121.492451666667","25.0557333333333","6500200","三重區"
"235066","003-UY","2019/09/10 19:09:39","新北市中和區廣福路20號","121.505061666667","25.00262","6500300","中和區"
"235063","006-UY","2019/09/10 19:09:38","新北市中和區連城路249-6號","121.49286","24.996725","6500300","中和區"
"235056","096-UM","2019/09/10 19:09:46","新北市中和區員山路534號","121.478808333333","25.0098716666667","6500300","中和區"
"235039","097-UM","2019/09/10 19:09:44","新北市中和區景平路3號","121.523651666667","24.99024","6500300","中和區"
"235065","098-UM","2019/09/10 19:09:38","新北市中和區中山路二段136巷23號","121.501448333333","25.0041816666667","6500300","中和區"
"235040","150-BY","2019/09/10 19:09:38","新北市中和區宜安路23巷20號","121.512275","24.9951683333333","6500300","中和區"
"235058","151-BY","2019/09/10 19:09:32","新北市中和區中正路637巷60弄61號","121.485438333333","24.9929633333333","6500300","中和區"
"235055","183-VK","2019/09/10 19:09:29","新北市中和區德光路59號","121.469875","25.00387","6500300","中和區"
"235038","185-VK","2019/09/10 19:09:41","新北市中和區大仁街10巷27弄6號","121.519236666667","24.9928033333333","6500300","中和區"
"235049","186-VK","2019/09/10 19:09:28","新北市中和區景新街174號","121.506163333333","24.9964933333333","6500300","中和區"
"235067","255-BX","2019/09/10 19:09:43","新北市中和區民樂路22號","121.48246","25.0011","6500300","中和區"
"235044","293-VK","2019/09/10 19:09:39","新北市中和區中興街222-6號","121.500681666667","24.9896316666667","6500300","中和區"
"235072","301-VK","2019/09/10 19:09:28","新北市中和區永和路52號","121.49916","25.00405","6500300","中和區"
"235043","352-BY","2019/09/10 19:09:29","新北市中和區景平路310號","121.512431666667","24.9928216666667","6500300","中和區"
"235042","KEA-2878","2019/09/10 19:09:30","新北市中和區自強路13巷3號","121.520666666667","24.9935383333333","6500300","中和區"
"235050","4979-A6","2019/09/10 19:09:31","新北市中和區復興路249巷11弄3號","121.503543333333","24.98969","6500300","中和區"
"235069","4980-A6","2019/09/10 19:09:42","新北市中和區景平路477號","121.500248333333","24.9971433333333","6500300","中和區"
"235070","558-UM","2019/09/10 19:09:32","新北市中和區連城路72號","121.497441666667","25.001325","6500300","中和區"
"235045","565-BX","2019/09/10 19:09:38","新北市中和區景新街467巷35弄7號","121.514355","24.9889733333333","6500300","中和區"
"235060","KED-0823","2019/09/10 19:09:40","新北市中和區民有街61號","121.476338333333","25.0035083333333","6500300","中和區"
"235054","640-BX","2019/09/10 19:09:40","新北市中和區國光街109巷27號","121.469475","24.9994066666667","6500300","中和區"
"235047","732-UM","2019/09/10 19:09:43","新北市中和區景平路239巷33弄48號","121.509978333333","24.9914133333333","6500300","中和區"
"235046","733-UM","2019/09/10 19:09:31","新北市中和區華新街152號","121.507686666667","24.9823733333333","6500300","中和區"
"235071","783-BX","2019/09/10 19:09:35","新北市中和區連城路469巷44弄4號","121.483183333333","24.9945783333333","6500300","中和區"
"235057","801-TS","2019/09/10 19:09:26","新北市中和區員山路270號","121.4813","25.0018416666667","6500300","中和區"
"235041","802-TS","2019/09/10 19:09:30","新北市中和區中和路294號","121.508523333333","24.99977","6500300","中和區"
"235052","805-TS","2019/09/10 19:09:29","新北市中和區興南路二段142巷25弄4號","121.503018333333","24.9838433333333","6500300","中和區"
"235048","896-TW","2019/09/10 19:09:28","新北市中和區忠孝街54號","121.51141","24.9836266666667","6500300","中和區"
"235053","900-TW","2019/09/10 19:09:25","新北市中和區民德路266號","121.467821666667","24.9966633333333","6500300","中和區"
"235064","911-UM","2019/09/10 19:09:35","新北市中和區泰和街27號","121.49932","25.0000083333333","6500300","中和區"
"235051","157-BY","2019/09/10 19:09:45","新北市中和區興南路一段83號","121.509925","24.98904","6500300","中和區"
"235037","AAC-213","2019/09/10 19:09:44","新北市中和區秀朗路三段10巷37弄4號","121.524088333333","24.9959","6500300","中和區"
"235059","AAC-215","2019/09/10 19:09:37","新北市中和區圓通路294巷17-5號","121.488603333333","24.9904383333333","6500300","中和區"
"220069","015-TV","2019/09/10 19:09:47","新北市板橋區大華街28號","121.45901","25.0058966666667","6500100","板橋區"
"220065","072-UY","2019/09/10 19:09:40","新北市板橋區民族路247巷3弄20號","121.469925","25.0078283333333","6500100","板橋區"
"220086","073-UY","2019/09/10 19:09:41","新北市板橋區中正路250巷35號","121.457158333333","25.0195766666667","6500100","板橋區"
"220106","075-UY","2019/09/10 19:09:36","新北市板橋區長江路二段280-1號","121.469981666667","25.0328","6500100","板橋區"
"220068","120-SR","2019/09/10 19:09:35","新北市板橋區中山路二段443巷74號","121.48082","25.02214","6500100","板橋區"
"226004","312-R5","2019/09/10 19:09:40","新北市平溪區靜安路二段548號","121.746491666667","25.0256166666667","6502400","平溪區"
"228003","097-TW","2019/09/10 19:09:44","新北市貢寮區和美里和美街37號","121.912286666667","25.0871133333333","6502600","貢寮區"
"228001","212-TW","2019/09/10 19:09:44","新北市貢寮區真理里新港街10號","121.925521666667","25.0543666666667","6502600","貢寮區"
"228002","663-BX","2019/09/10 19:09:36","新北市貢寮區福隆里福隆街26號","121.94505","25.0172","6502600","貢寮區"
"224006","676-BX","2019/09/10 19:09:34","新北市瑞芳區傑魚坑路22號","121.79441","25.110575","6501200","瑞芳區"
"224002","639-TC","2019/09/10 19:09:40","新北市平溪區新寮里五分寮10-2號","121.799945","25.07413","6501200","瑞芳區"
"224009","275-VK","2019/09/10 19:09:45","新北市瑞芳區洞頂路180號","121.861578333333","25.1195483333333","6501200","瑞芳區"
"224008","273-VK","2019/09/10 19:09:39","新北市瑞芳區瑞芳街118號","121.801506666667","25.11086","6501200","瑞芳區"
"227001","642-TC","2019/09/10 19:09:34","新北市雙溪區牡丹里自強路8巷8號","121.865243333333","25.0384983333333","6502500","雙溪區"
"227002","400-TW","2019/09/10 19:09:30","新北市雙溪區平林里外平林9-5號","121.859135","25.038025","6502500","雙溪區"
"253005","032-BX","2019/09/10 19:09:44","新北市石門區阿里荖35-2號","121.606353333333","25.2806716666667","6502200","石門區"
"253006","295-VK","2019/09/10 19:09:30","新北市石門區崁子腳58-3號","121.529881666667","25.28608","6502200","石門區"
"222001","KEA-2212","2019/09/10 19:09:33","新北市深坑區北深路一段300號","121.624253333333","25.005775","6501800","深坑區"
"208002","KEA-2872","2019/09/10 19:09:44","新北市金山區中正路67號","121.633891666667","25.221795","6502700","金山區"
"208003","665-BX","2019/09/10 19:09:41","新北市金山區中正路52號","121.6344","25.221975","6502700","金山區"
"251001","011-UM","2019/09/10 19:09:25","新北市淡水區民權路92巷35-1號","121.46212","25.1267616666667","6501000","淡水區"
"251002","012-UM","2019/09/10 19:09:33","新北市淡水區中山路50號","121.444055","25.1703183333333","6501000","淡水區"
"251015","KEA-2871","2019/09/10 19:09:32","新北市淡水區南勢埔27-2號","121.483228333333","25.1806583333333","6501000","淡水區"
"251016","179-VK","2019/09/10 19:09:43","新北市淡水區淡金路三段212號","121.448913333333","25.2043883333333","6501000","淡水區"
"251013","182-VK","2019/09/10 19:09:40","新北市淡水區安子內12-1號","121.481516666667","25.2190866666667","6501000","淡水區"
"251010","413-VK","2019/09/10 19:09:26","新北市淡水區中正路一段156巷1號","121.421143333333","25.18019","6501000","淡水區"
"251007","442-VK","2019/09/10 19:09:30","新北市淡水區民生路135巷28-1號","121.466525","25.1391783333333","6501000","淡水區"
"251005","443-VK","2019/09/10 19:09:29","新北市淡水區中山路108巷16號","121.442135","25.1711866666667","6501000","淡水區"
"251009","575-R6","2019/09/10 19:09:44","新北市淡水區重建街36號","121.439906666667","25.1712433333333","6501000","淡水區"
"251014","577-R6","2019/09/10 19:09:44","新北市淡水區小中寮19-7號","121.484758333333","25.2296316666667","6501000","淡水區"
"251003","673-BX","2019/09/10 19:09:31","新北市淡水區大義街3號","121.443733333333","25.1781733333333","6501000","淡水區"
"207003","550-UM","2019/09/10 19:09:39","新北市萬里區大鵬里頂社29號","121.65658","25.21075","6502800","萬里區"
"207004","291-VK","2019/09/10 19:09:36","新北市萬里區萬里里瑪鋉下街58-1號","121.69167","25.1795866666667","6502800","萬里區"
"252003","249-BX","2019/09/10 19:09:29","新北市三芝區錫板里南勢崗5-5號","121.480935","25.2629916666667","6502100","三芝區"
"252001","292-VK","2019/09/10 19:09:30","新北市三芝區長勤街80號","121.500293333333","25.2551316666667","6502100","三芝區"
"208001","170-UY","2019/09/10 19:09:40","新北市金山區金包里街68號","121.639006666667","25.221435","6502700","金山區"
"237004","KEA-2597","2019/09/10 19:09:37","新北市三峽區有木206號","121.439076666667","24.8515883333333","6500900","三峽區"
"237007","153-BY","2019/09/10 19:09:33","新北市三峽區中正路二段42巷50號","121.364395","24.9204266666667","6500900","三峽區"
"237013","252-BX","2019/09/10 19:09:27","新北市三峽區光明路69巷25號","121.376556666667","24.9291416666667","6500900","三峽區"
"237012","275-BY","2019/09/10 19:09:43","新北市三峽區三樹路222巷236弄2號","121.390458333333","24.9431983333333","6500900","三峽區"
"237008","302-VK","2019/09/10 19:09:40","新北市三峽區光明路106巷13號","121.376246666667","24.9272616666667","6500900","三峽區"
"237014","433-BY","2019/09/10 19:09:37","新北市三峽區復興路449號","121.36255","24.9385216666667","6500900","三峽區"
"237006","5529-G3","2019/09/10 19:09:25","新北市三峽區橫溪路95號","121.398433333333","24.935425","6500900","三峽區"
"237011","KEA-2596","2019/09/10 19:09:38","新北市三峽區介壽路三段113號","121.396936666667","24.9414333333333","6500900","三峽區"
"237015","649-BX","2019/09/10 19:09:39","新北市三峽區安坑40-2號","121.455125","24.9322416666667","6500900","三峽區"
"237010","706-TV","2019/09/10 19:09:38","新北市三峽區國光街352號","121.371466666667","24.9395933333333","6500900","三峽區"
"237005","AKY-6261","2019/09/10 19:09:32","新北市三峽區中山路459巷90-1號","121.354965","24.936215","6500900","三峽區"
"236026","269-VK","2019/09/10 19:09:38","新北市土城區中央路二段195號","121.442035","24.975175","6501300","土城區"
"236014","270-VK","2019/09/10 19:09:38","新北市土城區學府路一段37巷33號","121.45751","24.9874583333333","6501300","土城區"
"236070","KEA-2877","2019/09/10 19:09:35","新北市土城區裕生路82巷1號","121.447395","24.9856383333333","6501300","土城區"
"252002","KED-0821","2019/09/10 19:09:41","新北市三芝區忠孝街15號","121.506391666667","25.2550666666667","6502100","三芝區"
"236021","401-BY","2019/09/10 19:09:35","新北市土城區明峰街83號","121.468976666667","24.9873183333333","6501300","土城區"
"236059","912-UM","2019/09/10 19:09:42","新北市土城區金城路一段17號","121.439593333333","24.96906","6501300","土城區"
"236055","AAC-216","2019/09/10 19:09:35","新北市土城區學府路一段211號","121.451565","24.984525","6501300","土城區"
"242013","413-TV","2019/09/10 19:09:31","新北市新莊區環河路636-7號","121.437256666667","25.0117916666667","6500500","新莊區"
"238023","601-UM","2019/09/10 19:09:38","新北市樹林區三興路47號","121.395603333333","25.01445","6500700","樹林區"
"238019","599-UM","2019/09/10 19:09:37","新北市樹林區東華街30號","121.414645","24.9821766666667","6500700","樹林區"
"238022","KEA-2213","2019/09/10 19:09:44","新北市樹林區東興街16巷6弄2號","121.409136666667","24.97813","6500700","樹林區"
"238021","KEA-2539","2019/09/10 19:09:43","新北市樹林區柑園街二段451號","121.363461666667","24.9462733333333","6500700","樹林區"
"238025","303-VK","2019/09/10 19:09:23","新北市樹林區民和街77號","121.380548333333","24.9717816666667","6500700","樹林區"
"238017","283-BY","2019/09/10 19:09:28","新北市樹林區光興街50號","121.409841666667","25.0027116666667","6500700","樹林區"
"238014","282-BY","2019/09/10 19:09:26","新北市樹林區千歲街92巷7弄17號","121.427326666667","24.9980166666667","6500700","樹林區"
"238020","268-VK","2019/09/10 19:09:44","新北市樹林區俊英街155巷9弄3號","121.424025","25.01204","6500700","樹林區"
"238026","172-UY","2019/09/10 19:09:46","新北市樹林區吉祥街31號","121.396133333333","24.9739083333333","6500700","樹林區"
"238016","169-UY","2019/09/10 19:09:40","新北市樹林區文化街25巷24號","121.418158333333","24.98672","6500700","樹林區"
"239007","AAC-297","2019/09/10 19:09:39","新北市鶯歌區中正一路225號","121.354093333333","24.957445","6500800","鶯歌區"
"239006","891-R6","2019/09/10 19:09:30","新北市鶯歌區鶯桃路296巷57號","121.335923333333","24.96129","6500800","鶯歌區"
"239008","527-UM","2019/09/10 19:09:44","新北市鶯歌區國際二路20巷2號","121.336823333333","24.9749966666667","6500800","鶯歌區"
"239005","526-UM","2019/09/10 19:09:33","新北市鶯歌區大湖路361巷48弄12號","121.330415","24.977405","6500800","鶯歌區"
"239001","417-VK","2019/09/10 19:08:21","新北市鶯歌區永明街58號","121.340533333333","24.9559466666667","6500800","鶯歌區"
"239003","360-BY","2019/09/10 19:09:32","新北市鶯歌區鶯桃路320號","121.33392","24.9618783333333","6500800","鶯歌區"
"239002","359-BY","2019/09/10 19:09:40","新北市鶯歌區中山路268號","121.3444","24.95693","6500800","鶯歌區"
"239004","193-VK","2019/09/10 19:09:29","新北市鶯歌區中正三路318巷31弄2號","121.327623333333","24.935905","6500800","鶯歌區"
"221008","489-VK","2019/09/10 19:09:43","新北市汐止區康寧街442號","121.631243333333","25.0681633333333","6501100","汐止區"
"221036","130-UY","2019/09/10 19:09:46","新北市汐止區南昌街47號","121.66339","25.0683616666667","6501100","汐止區"
"221032","280-BY","2019/09/10 19:09:45","新北市汐止區橫科路241-1號","121.622023333333","25.0492666666667","6501100","汐止區"
"221031","353-TW","2019/09/10 19:09:24","新北市汐止區中興路181-1號","121.630405","25.0668933333333","6501100","汐止區"
"221035","622-UM","2019/09/10 19:09:45","新北市汐止區汐萬路一段115巷1號","121.654426666667","25.0705916666667","6501100","汐止區"
"221002","707-TV","2019/09/10 19:09:45","新北市汐止區大同路一段122號","121.630533333333","25.0545533333333","6501100","汐止區"
"220079","145-BY","2019/09/10 19:09:29","新北市板橋區公館街18號","121.456858333333","25.0122966666667","6500100","板橋區"
"220080","200-UY","2019/09/10 19:09:26","新北市板橋區大觀路二段265巷3弄11號","121.443288333333","24.9982716666667","6500100","板橋區"
"220082","610-BX","2019/09/10 19:09:31","新北市板橋區溪崑二街35號","121.428465","24.99111","6500100","板橋區"
"220101","245-BX","2019/09/10 19:09:40","新北市板橋區莊敬路25巷30號","121.474343333333","25.02704","6500100","板橋區"
"220056","276-BY","2019/09/10 19:09:43","新北市板橋區信義路74巷4弄2號","121.45705","24.9930966666667","6500100","板橋區"
"220072","277-BY","2019/09/10 19:09:44","新北市板橋區金門街369巷81號","121.4285","24.9826833333333","6500100","板橋區"
"220094","283-UM","2019/09/10 19:09:39","新北市板橋區吳鳳路21巷2號","121.466975","25.0312116666667","6500100","板橋區"
"220071","283-VK","2019/09/10 19:09:39","新北市板橋區忠孝路154巷21號","121.464231666667","25.0015333333333","6500100","板橋區"
"220053","285-VK","2019/09/10 19:09:39","新北市板橋區懷仁街23號","121.47639","25.019765","6500100","板橋區"
"220083","286-VK","2019/09/10 19:09:34","新北市板橋區龍興街99巷7號","121.443941666667","25.002985","6500100","板橋區"
"220081","287-VK","2019/09/10 19:09:43","新北市板橋區南雅西路二段156巷24號","121.452311666667","25.0128533333333","6500100","板橋區"
"220061","293-UM","2019/09/10 19:09:40","新北市板橋區中山路二段318巷25號","121.480493333333","25.018505","6500100","板橋區"
"220062","295-UM","2019/09/10 19:09:34","新北市板橋區三民路二段245巷69弄30-2號","121.48109","25.0134083333333","6500100","板橋區"
"220084","296-UM","2019/09/10 19:09:41","新北市板橋區溪崑一街47巷5號","121.430463333333","24.9909","6500100","板橋區"
"220067","299-UM","2019/09/10 19:09:42","新北市板橋區長安街178巷11號","121.474343333333","25.0109766666667","6500100","板橋區"
"220075","303-R5","2019/09/10 19:09:33","新北市板橋區南雅南路一段3巷60號","121.45648","25.005675","6500100","板橋區"
"220092","307-R5","2019/09/10 19:09:39","新北市板橋區松江街72巷12號","121.46922","25.0278433333333","6500100","板橋區"
"220098","317-R6","2019/09/10 19:09:43","新北市板橋區民有街39-3號","121.465785","25.0257116666667","6500100","板橋區"
"220089","487-VK","2019/09/10 19:09:43","新北市板橋區文化路一段241號","121.464216666667","25.017815","6500100","板橋區"
"220088","491-VK","2019/09/10 19:09:43","新北市板橋區雙十路二段6號","121.476885","25.0259383333333","6500100","板橋區"
"220035","560-BX","2019/09/10 19:09:33","新北市板橋區中正路413巷15號","121.453568333333","25.0224933333333","6500100","板橋區"
"220103","561-BX","2019/09/10 19:09:43","新北市板橋區文化路一段212巷2弄1號","121.466608333333","25.019905","6500100","板橋區"
"220063","609-BX","2019/09/10 19:09:39","新北市板橋區三民路二段165號","121.479106666667","25.0146533333333","6500100","板橋區"
"220091","637-BX","2019/09/10 19:09:37","新北市板橋區縣民大道三段187巷1號","121.479353333333","25.02484","6500100","板橋區"
"220057","686-BX","2019/09/10 19:09:30","新北市板橋區五權街61-4號","121.464791666667","24.9934233333333","6500100","板橋區"
"220077","687-BX","2019/09/10 19:09:45","新北市板橋區大觀路二段175號","121.444978333333","25.0001683333333","6500100","板橋區"
"220054","741-BX","2019/09/10 19:09:29","新北市板橋區實踐路30號","121.463521666667","25.0072083333333","6500100","板橋區"
"220102","KEA-2699","2019/09/10 19:09:40","新北市板橋區田單街33號","121.482328333333","25.0286966666667","6500100","板橋區"
"220055","827-TW","2019/09/10 19:09:31","新北市板橋區新民街13號","121.464043333333","25.0098866666667","6500100","板橋區"
"220090","831-TW","2019/09/10 19:09:27","新北市板橋區長江路一段106巷13弄19號","121.460771666667","25.029465","6500100","板橋區"
"220021","833-TW","2019/09/10 18:40:30","新北市板橋區華東街1-10號","121.448605","24.99478","6500100","板橋區"
"220074","895-R6","2019/09/10 19:09:44","新北市板橋區中正路37號","121.456281666667","25.01329","6500100","板橋區"
"220073","985-R7","2019/09/10 19:09:26","新北市板橋區中正路294號","121.454901666667","25.02032","6500100","板橋區"
"220097","AAC-210","2019/09/10 19:09:46","新北市板橋區幸福路60巷51號","121.460241666667","25.0213383333333","6500100","板橋區"
"220064","AAC-253","2019/09/10 19:09:46","新北市板橋區板新路238號","121.468276666667","25.0160633333333","6500100","板橋區"
"235068","KEA-2873","2019/09/10 19:09:47","新北市中和區圓通路162巷27號","121.496751666667","24.995295","6500300","中和區"
"235061","KEA-2875","2019/09/10 19:09:41","新北市中和區民有街61號","121.47657","25.0033983333333","6500300","中和區"
