"lineid","car","time","location","longitude","latitude","cityid","cityname"
"234046","148-BY","2019/09/10 19:29:37","新北市永和區秀朗路二段200號","121.526365","25.00045","6500400","永和區"
"234081","298-R6","2019/09/10 19:29:36","新北市永和區環河東路三段54號","121.526796666667","25.0062116666667","6500400","永和區"
"234038","336-UY","2019/09/10 19:29:41","新北市永和區民樂街31巷2號","121.527596666667","25.00145","6500400","永和區"
"234064","337-UY","2019/09/10 19:29:31","新北市永和區中正路368巷1弄88號","121.520488333333","25.0007316666667","6500400","永和區"
"234086","338-UY","2019/09/10 19:29:33","新北市永和區林森路62號","121.52404","25.0041766666667","6500400","永和區"
"234070","552-UM","2019/09/10 19:29:36","新北市永和區警光街8號","121.519816666667","25.0095683333333","6500400","永和區"
"234017","745-BX","2019/09/10 19:29:40","新北市永和區環河西路一段79號","121.513106666667","25.0181316666667","6500400","永和區"
"234030","746-BX","2019/09/10 19:29:42","新北市永和區民生路46巷56號","121.520581666667","24.9964","6500400","永和區"
"234054","KEA-2590","2019/09/10 19:29:43","新北市永和區永和路二段181號","121.515418333333","25.0133816666667","6500400","永和區"
"234007","KED-0605","2019/09/10 19:29:36","新北市永和區永和路一段63號","121.513103333333","25.0070233333333","6500400","永和區"
"234013","KEA-2591","2019/09/10 19:29:35","新北市永和區中山路一段141號","121.51035","25.0097316666667","6500400","永和區"
"234061","AAD-866","2019/09/10 19:29:39","新北市永和區中正路399號","121.517158333333","25.00435","6500400","永和區"
"234042","862-TW","2019/09/10 19:29:34","新北市永和區中和路519巷10號","121.510838333333","25.0031266666667","6500400","永和區"
"234050","863-TW","2019/09/10 19:29:34","新北市永和區信義路87號","121.512351666667","25.0137466666667","6500400","永和區"
"234026","9371-KE","2019/09/10 19:29:42","新北市永和區安樂路108號","121.51417","24.9996783333333","6500400","永和區"
"234011","9373-KE","2019/09/10 19:29:31","新北市永和區保安路292號","121.505041666667","25.0117716666667","6500400","永和區"
"249003","593-UM","2019/09/10 19:29:40","新北市八里區商港一路22號","121.397253333333","25.14765","6502300","八里區"
"248014","025-BX","2019/09/10 19:29:39","新北市五股區工商路166號","121.433581666667","25.0880783333333","6501500","五股區"
"248008","KED-0815","2019/09/10 19:29:46","新北市五股區中興路一段93號","121.466663333333","25.0727866666667","6501500","五股區"
"248020","KED-0813","2019/09/10 19:29:30","新北市五股區凌雲路三段94號","121.427758333333","25.1211316666667","6501500","五股區"
"248012","247-BX","2019/09/10 19:29:44","新北市五股區成泰路二段91巷9號","121.437486666667","25.0841983333333","6501500","五股區"
"248004","677-BX","2019/09/10 19:29:29","新北市五股區五福路2號","121.433958333333","25.0874","6501500","五股區"
"248002","678-BX","2019/09/10 19:29:37","新北市五股區凌雲路一段158巷6號","121.447806666667","25.1029716666667","6501500","五股區"
"234023","9380-KE","2019/09/10 19:29:37","新北市永和區竹林路91巷32號","121.520898333333","25.0123416666667","6500400","永和區"
"234077","969-R7","2019/09/10 19:29:44","新北市永和區民族街43巷10號","121.519013333333","24.9984","6500400","永和區"
"234074","AAC-211","2019/09/10 19:29:30","新北市永和區竹林路16號","121.516606666667","25.0148816666667","6500400","永和區"
"234067","AAC-212","2019/09/10 19:29:28","新北市永和區永貞路349號","121.509276666667","25.0074233333333","6500400","永和區"
"234003","AAC-295","2019/09/10 19:29:35","新北市永和區福和路372號","121.514421666667","25.0077383333333","6500400","永和區"
"244023","483-VK","2019/09/10 19:29:35","新北市林口區文化三路一段617巷90號","121.370201666667","25.0780416666667","6501700","林口區"
"243012","AAD-798","2019/09/10 19:29:36","新北市泰山區仁義路220巷8號","121.43296","25.0537366666667","6501600","泰山區"
"243010","297-R6","2019/09/10 19:29:46","新北市泰山區民生路31巷2號","121.43038","25.05232","6501600","泰山區"
"243014","KEA-2801","2019/09/10 19:29:25","新北市泰山區中港西路422號","121.433793333333","25.0538866666667","6501600","泰山區"
"243016","421-VK","2019/09/10 19:29:42","新北市泰山區明志路三段336號","121.422071666667","25.0354483333333","6501600","泰山區"
"243009","KEA-2215","2019/09/10 19:29:28","新北市泰山區半山雅1號","121.431823333333","25.0673533333333","6501600","泰山區"
"243011","KEA-2216","2019/09/10 19:29:26","新北市泰山區貴子路41-1號","121.429418333333","25.0400966666667","6501600","泰山區"
"243013","646-TV","2019/09/10 19:29:39","新北市泰山區貴子路36巷3弄1號","121.425901666667","25.0414416666667","6501600","泰山區"
"243015","680-BX","2019/09/10 19:29:31","新北市泰山區明志路二段129號","121.427876666667","25.0512516666667","6501600","泰山區"
"222003","436-BY","2019/09/10 19:29:33","新北市深坑區深南路51-1號","121.621251666667","25.0098633333333","6501800","深坑區"
"222002","659-BX","2019/09/10 19:29:34","新北市深坑區北深路一段177號","121.632533333333","25.0108266666667","6501800","深坑區"
"231061","002-UM","2019/09/10 19:29:38","新北市新店區安康路一段258號","121.520575","24.9639933333333","6500600","新店區"
"231058","0293-UT","2019/09/10 19:29:27","新北市新店區北新路二段228巷11號","121.543396666667","24.9772066666667","6500600","新店區"
"231044","046-UY","2019/09/10 19:29:38","新北市新店區中興路三段133號","121.544565","24.979635","6500600","新店區"
"231060","047-UY","2019/09/10 19:29:38","新北市新店區安康路二段2號","121.516466666667","24.9637783333333","6500600","新店區"
"231049","108-UY","2019/09/10 19:29:47","新北市新店區二十張路1巷2弄3號","121.540151666667","24.9820033333333","6500600","新店區"
"231065","KEA-2219","2019/09/10 19:29:30","新北市新店區安祥路109巷1弄19號","121.476225","24.9597866666667","6500600","新店區"
"221012","KEA-2785","2019/09/10 19:29:28","新北市汐止區汐萬路一段160號","121.652535","25.0715383333333","6501100","汐止區"
"231062","256-BX","2019/09/10 19:29:34","新北市新店區莒光路28號","121.523568333333","24.9592366666667","6500600","新店區"
"231054","260-TV","2019/09/10 19:29:28","新北市新店區文中路40號","121.53962","24.9565933333333","6500600","新店區"
"231042","268-BY","2019/09/10 19:29:28","新北市新店區中興路一段136號","121.542043333333","24.9633883333333","6500600","新店區"
"231064","278-BY","2019/09/10 19:29:33","新北市新店區安忠路2號","121.514485","24.96351","6500600","新店區"
"231050","AAD-862","2019/09/10 19:29:37","新北市新店區北宜路二段82-40號","121.553468333333","24.95325","6500600","新店區"
"231045","355-BY","2019/09/10 19:29:43","新北市新店區北宜路二段209號","121.553176666667","24.95329","6500600","新店區"
"231056","4715-K9","2019/09/10 19:29:39","新北市新店區柴埕路100-1號","121.503528333333","24.9594516666667","6500600","新店區"
"231053","515-UM","2019/09/10 19:29:38","新北市新店區廣興路60巷30-3號","121.543798333333","24.9147833333333","6500600","新店區"
"231063","616-UM","2019/09/10 19:29:39","新北市新店區達觀路14巷2號","121.503333333333","24.941275","6500600","新店區"
"231041","618-UM","2019/09/10 19:29:14","新北市新店區中正路620號","121.533983333333","24.9887416666667","6500600","新店區"
"231048","KED-0819","2019/09/10 19:29:36","新北市新店區五峰路120號","121.544983333333","24.96652","6500600","新店區"
"231051","718-UY","2019/09/10 19:29:41","新北市新店區中央五街23號","121.529268333333","24.9745833333333","6500600","新店區"
"231046","719-UM","2019/09/10 19:29:32","新北市新店區北新路一段14號","121.540853333333","24.9656216666667","6500600","新店區"
"231057","720-UM","2019/09/10 19:29:32","新北市新店區花園一路二段23號","121.551093333333","24.9327483333333","6500600","新店區"
"231059","897-TW","2019/09/10 19:29:28","新北市新店區安和路三段46號","121.517983333333","24.9817716666667","6500600","新店區"
"231040","898-TW","2019/09/10 19:29:29","新北市新店區中華路70巷1號","121.538905","24.9693433333333","6500600","新店區"
"231043","899-TW","2019/09/10 19:29:35","新北市新店區北新路二段187-1號","121.542725","24.9777783333333","6500600","新店區"
"231066","AKT-0513","2019/09/10 19:29:40","新北市新店區安康路三段359巷10弄2號","121.484286666667","24.9504366666667","6500600","新店區"
"241008","059-VK","2019/09/10 19:29:36","新北市三重區永福街111巷35弄13號","121.477411666667","25.0768866666667","6500200","三重區"
"241013","060-VK","2019/09/10 19:29:31","新北市三重區仁愛街125巷7號","121.496193333333","25.075245","6500200","三重區"
"241031","061-VK","2019/09/10 19:29:38","新北市三重區集美街61號","121.488428333333","25.0543583333333","6500200","三重區"
"241017","063-VK","2019/09/10 19:29:27","新北市三重區大仁街23號","121.491955","25.0645783333333","6500200","三重區"
"241007","066-VK","2019/09/10 19:29:25","新北市三重區慈愛街149號","121.489443333333","25.0794583333333","6500200","三重區"
"241006","262-UM","2019/09/10 19:29:30","新北市三重區三和路四段95-4號","121.48793","25.076145","6500200","三重區"
"241009","267-UM","2019/09/10 19:29:35","新北市三重區仁美街121號","121.485765","25.08132","6500200","三重區"
"241032","269-UM","2019/09/10 19:29:42","新北市三重區三陽路64號","121.483915","25.05864","6500200","三重區"
"241025","271-UM","2019/09/10 19:29:35","新北市三重區頂崁街210巷28弄9號","121.47586","25.067135","6500200","三重區"
"241035","KEA-2210","2019/09/10 19:29:34","新北市三重區信義西街1巷3號","121.498166666667","25.0649116666667","6500200","三重區"
"241030","KED-0822","2019/09/10 19:29:37","新北市三重區成功路41巷4號","121.49018","25.0514733333333","6500200","三重區"
"241022","462-BY","2019/09/10 19:29:34","新北市三重區三民街157巷2號","121.48376","25.0645866666667","6500200","三重區"
"241020","478-VK","2019/09/10 19:29:40","新北市三重區三和路四段20巷24-1號","121.49","25.0736283333333","6500200","三重區"
"241026","480-VK","2019/09/10 19:29:44","新北市三重區文化南路38-2號","121.500346666667","25.060855","6500200","三重區"
"241023","545-UM","2019/09/10 19:29:32","新北市三重區頂崁街183號","121.47805","25.06379","6500200","三重區"
"241012","941-UM","2019/09/10 19:29:30","新北市三重區河邊北街379-1號","121.501673333333","25.076525","6500200","三重區"
"241029","942-UM","2019/09/10 19:29:42","新北市三重區泉州街84巷18號","121.4958","25.054285","6500200","三重區"
"235066","003-UY","2019/09/10 19:29:39","新北市中和區中和路136號","121.503456666667","24.9993733333333","6500300","中和區"
"235063","006-UY","2019/09/10 19:29:38","新北市中和區連勝街95號","121.495066666667","24.99608","6500300","中和區"
"235056","096-UM","2019/09/10 19:29:26","新北市中和區員山路581巷2弄7-2號","121.477811666667","25.0097083333333","6500300","中和區"
"235039","097-UM","2019/09/10 19:29:44","新北市中和區秀峰街66號","121.520533333333","24.9904816666667","6500300","中和區"
"235065","098-UM","2019/09/10 19:29:38","新北市中和區中山路二段2巷13弄24號","121.502646666667","25.00655","6500300","中和區"
"235040","150-BY","2019/09/10 19:29:43","新北市中和區保健路61巷1號","121.509535","24.9972933333333","6500300","中和區"
"235058","151-BY","2019/09/10 19:29:45","新北市中和區連城路336號","121.483081666667","24.9958483333333","6500300","中和區"
"235055","183-VK","2019/09/10 19:29:47","新北市中和區中山路三段179巷15號","121.473305","25.00592","6500300","中和區"
"235038","185-VK","2019/09/10 19:29:41","新北市中和區自立路127號","121.522026666667","24.9940533333333","6500300","中和區"
"235049","186-VK","2019/09/10 19:29:28","新北市中和區安和路31號","121.510126666667","24.99453","6500300","中和區"
"235067","255-BX","2019/09/10 19:29:43","新北市中和區新生街186巷5弄21號","121.482873333333","24.9990066666667","6500300","中和區"
"235044","293-VK","2019/09/10 19:29:39","新北市中和區捷運路155號","121.506431666667","24.9910433333333","6500300","中和區"
"235072","301-VK","2019/09/10 19:29:28","新北市中和區連城路265巷8弄1號","121.491538333333","24.9956283333333","6500300","中和區"
"235043","352-BY","2019/09/10 19:29:42","新北市中和區安和路27號","121.510486666667","24.9943066666667","6500300","中和區"
"235042","KEA-2878","2019/09/10 19:29:30","新北市中和區中和路262巷43弄13號","121.509666666667","24.9997883333333","6500300","中和區"
"235069","4980-A6","2019/09/10 19:29:42","新北市中和區景平路736巷1弄2號","121.497148333333","25.0039","6500300","中和區"
"235070","558-UM","2019/09/10 19:29:32","新北市中和區景平路575-1號","121.4979","25.0001083333333","6500300","中和區"
"235045","565-BX","2019/09/10 19:29:38","新北市中和區景新街399巷8號","121.512996666667","24.98979","6500300","中和區"
"235060","KED-0823","2019/09/10 19:29:40","新北市中和區中山路二段523巷41號","121.482193333333","25.003195","6500300","中和區"
"235054","640-BX","2019/09/10 19:29:40","新北市中和區莒光路14號","121.472133333333","25.0043566666667","6500300","中和區"
"235047","732-UM","2019/09/10 19:29:43","新北市中和區景平路259巷32號","121.507045","24.9927833333333","6500300","中和區"
"235046","733-UM","2019/09/10 19:29:31","新北市中和區忠孝街37巷44號","121.51062","24.98479","6500300","中和區"
"235071","783-BX","2019/09/10 19:29:35","新北市中和區連城路469巷21弄22號","121.48413","24.9950716666667","6500300","中和區"
"235057","801-TS","2019/09/10 19:29:26","新北市中和區員山路194號","121.48138","25.000485","6500300","中和區"
"235041","802-TS","2019/09/10 19:29:30","新北市永和區中和路573號","121.511646666667","25.0034983333333","6500300","中和區"
"235052","805-TS","2019/09/10 19:29:29","新北市中和區華新街143巷67弄2號","121.506981666667","24.97881","6500300","中和區"
"235048","896-TW","2019/09/10 19:29:28","新北市中和區忠孝街106巷2號","121.512121666667","24.9845233333333","6500300","中和區"
"235053","900-TW","2019/09/10 19:29:46","新北市中和區民德路74號","121.46868","25.0015","6500300","中和區"
"235064","911-UM","2019/09/10 19:29:35","新北市中和區南山路127巷18弄38號","121.503411666667","24.9966016666667","6500300","中和區"
"235051","157-BY","2019/09/10 19:29:29","新北市中和區景新街132巷1號","121.505093333333","24.9979133333333","6500300","中和區"
"235037","AAC-213","2019/09/10 19:29:44","新北市中和區秀朗路三段22巷15號","121.525521666667","24.9961183333333","6500300","中和區"
"235059","AAC-215","2019/09/10 19:29:37","新北市中和區圓通路252巷5弄2號","121.493281666667","24.9915216666667","6500300","中和區"
"220069","015-TV","2019/09/10 19:29:29","新北市板橋區大華街73號","121.45933","25.0034833333333","6500100","板橋區"
"220065","072-UY","2019/09/10 19:29:28","新北市板橋區國泰街75巷45號","121.468253333333","25.00482","6500100","板橋區"
"220086","073-UY","2019/09/10 19:29:41","新北市板橋區中正路216巷44號","121.457258333333","25.0188283333333","6500100","板橋區"
"220106","075-UY","2019/09/10 19:29:43","新北市板橋區文化路二段550號","121.476181666667","25.0340666666667","6500100","板橋區"
"220068","120-SR","2019/09/10 19:29:35","新北市板橋區翠華街10巷1號","121.482738333333","25.024925","6500100","板橋區"
"247004","336-TH","2019/09/10 19:29:33","新北市蘆洲區長安街191號","121.46029","25.0819433333333","6501400","蘆洲區"
"226004","312-R5","2019/09/10 19:29:40","新北市平溪區十分里十分街238號","121.77813","25.04411","6502400","平溪區"
"228003","097-TW","2019/09/10 19:29:44","新北市貢寮區和美里和美街22-1號","121.912811666667","25.082615","6502600","貢寮區"
"228001","212-TW","2019/09/10 19:29:43","新北市貢寮區真理里大澳街25號","121.925053333333","25.056195","6502600","貢寮區"
"224010","AGQ-8101","2019/09/10 19:29:46","新北市瑞芳區基山街183號","121.843153333333","25.1078116666667","6501200","瑞芳區"
"224008","273-VK","2019/09/10 19:29:39","新北市瑞芳區一坑路99號","121.802215","25.10788","6501200","瑞芳區"
"227001","642-TC","2019/09/10 19:29:34","新北市雙溪區新基里新基北街43號","121.868213333333","25.039685","6502500","雙溪區"
"227002","400-TW","2019/09/10 19:29:30","新北市雙溪區雙溪里光復街3號","121.865091666667","25.0355083333333","6502500","雙溪區"
"222001","KEA-2212","2019/09/10 19:29:33","新北市深坑區北深路二段134號","121.615753333333","25.0029283333333","6501800","深坑區"
"208002","KEA-2872","2019/09/10 19:29:44","新北市金山區中山路313巷22號","121.635153333333","25.2231083333333","6502700","金山區"
"208003","665-BX","2019/09/10 19:29:41","新北市金山區仁愛路66號","121.635055","25.22114","6502700","金山區"
"251001","011-UM","2019/09/10 19:27:05","新北市淡水區民權路175-3號","121.459886666667","25.135715","6501000","淡水區"
"251002","012-UM","2019/09/10 19:29:33","新北市淡水區沙崙路257號","121.426481666667","25.1854283333333","6501000","淡水區"
"251015","KEA-2871","2019/09/10 19:29:32","新北市淡水區山子頂24-1號","121.491331666667","25.1871333333333","6501000","淡水區"
"251016","179-VK","2019/09/10 19:29:43","新北市淡水區淡金路三段350巷18號","121.450758333333","25.2083283333333","6501000","淡水區"
"251008","181-VK","2019/09/10 19:29:38","新北市淡水區中正路一段66號","121.425281666667","25.176965","6501000","淡水區"
"251013","182-VK","2019/09/10 19:29:40","新北市淡水區大牛稠5號","121.47061","25.219405","6501000","淡水區"
"251010","413-VK","2019/09/10 19:29:26","新北市淡水區中正路二段150-3號","121.423163333333","25.1878416666667","6501000","淡水區"
"251007","442-VK","2019/09/10 19:29:30","新北市淡水區八勢路20號","121.460883333333","25.1535833333333","6501000","淡水區"
"251005","443-VK","2019/09/10 19:29:29","新北市淡水區水源街一段47巷32號","121.44406","25.1733116666667","6501000","淡水區"
"251006","561-UM","2019/09/10 19:29:43","新北市淡水區大義街51號","121.441458333333","25.1782416666667","6501000","淡水區"
"251009","575-R6","2019/09/10 19:29:44","新北市淡水區中山路159-3號","121.4408","25.1731333333333","6501000","淡水區"
"251014","577-R6","2019/09/10 19:29:44","新北市淡水區小中寮15-3號","121.48519","25.23017","6501000","淡水區"
"251003","673-BX","2019/09/10 19:29:31","新北市淡水區中山北路二段3號","121.444426666667","25.183365","6501000","淡水區"
"207003","550-UM","2019/09/10 19:29:39","新北市萬里區大鵬里萬里加投103-1號","121.646055","25.2129216666667","6502800","萬里區"
"207004","291-VK","2019/09/10 19:29:36","新北市萬里區萬里里瑪鋉路79號","121.688366666667","25.1766","6502800","萬里區"
"252001","292-VK","2019/09/10 19:29:30","新北市三芝區長勤街63-1號","121.500131666667","25.2561","6502100","三芝區"
"208001","170-UY","2019/09/10 19:29:40","新北市金山區南勢101號","121.624185","25.21987","6502700","金山區"
"237004","KEA-2597","2019/09/10 19:29:37","新北市三峽區有木206號","121.439116666667","24.8515916666667","6500900","三峽區"
"237007","153-BY","2019/09/10 19:29:33","新北市三峽區二鬮路136巷18弄5號","121.358971666667","24.90794","6500900","三峽區"
"237009","210-TH","2019/09/10 19:29:29","新北市三峽區中山路22號","121.369301666667","24.9343516666667","6500900","三峽區"
"237013","252-BX","2019/09/10 19:29:27","新北市三峽區介壽路一段340號","121.381293333333","24.930225","6500900","三峽區"
"237012","275-BY","2019/09/10 19:29:43","新北市三峽區三樹路98巷119號","121.38266","24.9395066666667","6500900","三峽區"
"237008","302-VK","2019/09/10 19:29:40","新北市三峽區永安街167巷7號","121.373775","24.9273633333333","6500900","三峽區"
"237014","433-BY","2019/09/10 19:29:37","新北市三峽區中山路63巷8號","121.366961666667","24.934325","6500900","三峽區"
"237006","5529-G3","2019/09/10 19:29:25","新北市三峽區中正路一段336巷15弄2號","121.36996","24.9249583333333","6500900","三峽區"
"237011","KEA-2596","2019/09/10 19:29:38","新北市三峽區介壽路一段345號","121.382121666667","24.9305616666667","6500900","三峽區"
"237015","649-BX","2019/09/10 19:29:39","新北市三峽區安坑1-3號","121.43389","24.92421","6500900","三峽區"
"237010","706-TV","2019/09/10 19:29:38","新北市三峽區復興路167號","121.370246666667","24.9384716666667","6500900","三峽區"
"237005","AKY-6261","2019/09/10 19:29:32","新北市三峽區復興路367巷13號","121.363893333333","24.9376383333333","6500900","三峽區"
"236042","KED-0685","2019/09/10 19:29:28","新北市土城區學府路一段239號","121.450415","24.983335","6501300","土城區"
"236026","269-VK","2019/09/10 19:29:38","新北市土城區中央路二段61巷26號","121.443276666667","24.97873","6501300","土城區"
"236070","KEA-2877","2019/09/10 19:29:35","新北市土城區學府路一段163號","121.453113333333","24.9858183333333","6501300","土城區"
"252002","KED-0821","2019/09/10 19:29:41","新北市三芝區淡金路二段20號","121.502711666667","25.2595683333333","6502100","三芝區"
"236021","401-BY","2019/09/10 19:29:35","新北市土城區明峰街83號","121.468875","24.987385","6501300","土城區"
"236049","913-UM","2019/09/10 19:29:45","新北市土城區清水路196號","121.460348333333","24.9818383333333","6501300","土城區"
"236055","AAC-216","2019/09/10 19:29:34","新北市土城區學府路一段276號","121.450223333333","24.9833183333333","6501300","土城區"
"242005","751-BX","2019/09/10 19:29:39","新北市新莊區思源路50號","121.460583333333","25.043975","6500500","新莊區"
"238015","755-BX","2019/09/10 19:29:47","新北市樹林區大安路537巷6號","121.412883333333","24.984545","6500700","樹林區"
"238023","601-UM","2019/09/10 19:29:38","新北市樹林區三福街33號","121.408423333333","25.0165933333333","6500700","樹林區"
"238019","599-UM","2019/09/10 19:29:37","新北市樹林區鎮前街347巷6號","121.41675","24.9835633333333","6500700","樹林區"
"238018","KEA-2217","2019/09/10 19:29:36","新北市樹林區中華路167號","121.420973333333","24.982015","6500700","樹林區"
"238022","KEA-2213","2019/09/10 19:29:45","新北市樹林區中華路213號","121.419593333333","24.9813566666667","6500700","樹林區"
"238021","KEA-2539","2019/09/10 19:29:43","新北市樹林區佳園路三段181巷33號","121.38819","24.9475916666667","6500700","樹林區"
"238025","303-VK","2019/09/10 19:29:43","新北市樹林區中山路一段241號","121.420675","24.9867383333333","6500700","樹林區"
"238017","283-BY","2019/09/10 19:29:28","新北市樹林區光興街276號","121.406728333333","25.0052416666667","6500700","樹林區"
"238014","282-BY","2019/09/10 19:29:28","新北市樹林區千歲街6巷2號","121.425065","24.995475","6500700","樹林區"
"238020","268-VK","2019/09/10 19:29:44","新北市樹林區俊英街105-1號","121.425038333333","25.0096533333333","6500700","樹林區"
"238026","172-UY","2019/09/10 19:29:26","新北市樹林區佳園路二段111-10號","121.39032","24.9586483333333","6500700","樹林區"
"238016","169-UY","2019/09/10 19:29:40","新北市樹林區復興路464巷56號","121.412711666667","24.9836183333333","6500700","樹林區"
"239007","AAC-297","2019/09/10 19:29:39","新北市鶯歌區大湖路余厝巷11號","121.341945","24.9612416666667","6500800","鶯歌區"
"239006","891-R6","2019/09/10 19:29:30","新北市鶯歌區鶯桃路296巷84弄37號","121.337591666667","24.9612133333333","6500800","鶯歌區"
"239008","527-UM","2019/09/10 19:29:24","新北市鶯歌區大湖路548巷1弄2號","121.33718","24.9731766666667","6500800","鶯歌區"
"239005","526-UM","2019/09/10 19:29:33","新北市鶯歌區中湖街269號","121.348453333333","24.9760133333333","6500800","鶯歌區"
"239001","417-VK","2019/09/10 19:29:41","新北市鶯歌區永智街110號","121.33688","24.9530783333333","6500800","鶯歌區"
"239003","360-BY","2019/09/10 19:29:32","新北市鶯歌區建國路121號","121.352158333333","24.9540033333333","6500800","鶯歌區"
"239002","359-BY","2019/09/10 19:29:40","新北市鶯歌區中山路224號","121.344678333333","24.95703","6500800","鶯歌區"
"239004","193-VK","2019/09/10 19:29:29","新北市鶯歌區二甲路2號","121.334838333333","24.9345916666667","6500800","鶯歌區"
"221008","489-VK","2019/09/10 19:29:43","新北市汐止區康寧街235號","121.624058333333","25.066695","6501100","汐止區"
"221027","281-BY","2019/09/10 19:29:29","新北市汐止區忠孝東路9號","121.658265","25.0659116666667","6501100","汐止區"
"221031","353-TW","2019/09/10 19:29:44","新北市汐止區康寧街901號","121.65071","25.07528","6501100","汐止區"
"221033","647-BX","2019/09/10 19:29:35","新北市汐止區南勢街3號","121.627083333333","25.03741","6501100","汐止區"
"221002","707-TV","2019/09/10 19:29:45","新北市汐止區大同路一段337巷16弄3號","121.637825","25.0601316666667","6501100","汐止區"
"220079","145-BY","2019/09/10 19:29:29","新北市板橋區民權路202巷18弄1-2號","121.460818333333","25.01651","6500100","板橋區"
"220080","200-UY","2019/09/10 19:29:26","新北市板橋區大觀路二段19巷85號","121.449326666667","25.0028883333333","6500100","板橋區"
"220082","610-BX","2019/09/10 19:29:36","新北市板橋區金門街316號","121.428705","24.9851366666667","6500100","板橋區"
"220101","245-BX","2019/09/10 19:29:40","新北市板橋區莒光路200巷35號","121.472603333333","25.0221216666667","6500100","板橋區"
"220056","276-BY","2019/09/10 19:29:39","新北市板橋區信義路91-2號","121.457246666667","24.9938883333333","6500100","板橋區"
"220072","277-BY","2019/09/10 19:29:36","新北市板橋區篤行路二段136號","121.429851666667","24.98841","6500100","板橋區"
"220094","283-UM","2019/09/10 19:29:39","新北市板橋區銘傳街41-1號","121.469001666667","25.0314333333333","6500100","板橋區"
"220071","283-VK","2019/09/10 19:29:41","新北市板橋區忠孝路48巷7弄16號","121.461765","25.00036","6500100","板橋區"
"220053","285-VK","2019/09/10 19:29:27","新北市板橋區懷仁街77巷35號","121.47775","25.0193633333333","6500100","板橋區"
"220083","286-VK","2019/09/10 19:29:29","新北市板橋區龍興街73巷23號","121.44288","25.002555","6500100","板橋區"
"220081","287-VK","2019/09/10 19:29:32","新北市板橋區大觀路一段28巷1弄102號","121.451975","25.00638","6500100","板橋區"
"220061","293-UM","2019/09/10 19:29:39","新北市板橋區漢生東路155號","121.468565","25.0136783333333","6500100","板橋區"
"220062","295-UM","2019/09/10 19:29:35","新北市板橋區三民路二段123巷26-3號","121.48041","25.0156133333333","6500100","板橋區"
"220084","296-UM","2019/09/10 19:29:41","新北市板橋區滿平街136巷5弄1號","121.42821","24.9875516666667","6500100","板橋區"
"220067","299-UM","2019/09/10 19:29:42","新北市板橋區漢生東路279巷10弄7號","121.472101666667","25.0088016666667","6500100","板橋區"
"220075","303-R5","2019/09/10 19:29:31","新北市板橋區中正路275巷93號","121.450805","25.018105","6500100","板橋區"
"220092","307-R5","2019/09/10 19:29:39","新北市板橋區陽明街38號","121.465963333333","25.021885","6500100","板橋區"
"220098","317-R6","2019/09/10 19:29:42","新北市板橋區民有街89巷8弄1號","121.46421","25.0273783333333","6500100","板橋區"
"220089","487-VK","2019/09/10 19:29:42","新北市板橋區龍泉街82巷8號","121.455931666667","25.0255766666667","6500100","板橋區"
"220088","491-VK","2019/09/10 19:29:45","新北市板橋區文化路二段568號","121.476545","25.0345816666667","6500100","板橋區"
"220035","560-BX","2019/09/10 19:29:27","新北市板橋區中正路433巷1號","121.454083333333","25.0231483333333","6500100","板橋區"
"220103","561-BX","2019/09/10 19:29:43","新北市板橋區陽明街29巷17號","121.464626666667","25.0220316666667","6500100","板橋區"
"220063","609-BX","2019/09/10 19:29:39","新北市板橋區林森街3巷1弄6號","121.482661666667","25.02361","6500100","板橋區"
"220091","637-BX","2019/09/10 19:29:31","新北市板橋區文聖街135巷25號","121.479023333333","25.0289316666667","6500100","板橋區"
"220057","686-BX","2019/09/10 19:29:30","新北市板橋區和平路安樂巷23號","121.461555","24.9935966666667","6500100","板橋區"
"220077","687-BX","2019/09/10 19:29:26","新北市板橋區大觀路一段28巷28號","121.449953333333","25.00945","6500100","板橋區"
"220054","741-BX","2019/09/10 19:29:41","新北市板橋區重慶路155巷23號","121.463115","25.0041566666667","6500100","板橋區"
"220102","KEA-2699","2019/09/10 19:29:39","新北市板橋區雙十路二段46巷18號","121.476155","25.02806","6500100","板橋區"
"220055","827-TW","2019/09/10 19:29:31","新北市板橋區重慶路278巷1號","121.46278","24.9996833333333","6500100","板橋區"
"220090","831-TW","2019/09/10 19:29:27","新北市板橋區長江路一段48巷4弄1號","121.459093333333","25.028375","6500100","板橋區"
"220021","833-TW","2019/09/10 19:29:18","新北市板橋區華東街1-10號","121.448488333333","24.9947466666667","6500100","板橋區"
"220074","895-R6","2019/09/10 19:29:24","新北市板橋區公館街18號","121.456886666667","25.0123533333333","6500100","板橋區"
"220073","985-R7","2019/09/10 19:29:46","新北市板橋區中正路320-1號","121.454635","25.0210933333333","6500100","板橋區"
"220097","AAC-210","2019/09/10 19:29:41","新北市板橋區文化路一段285巷1號","121.464435","25.0188416666667","6500100","板橋區"
"220064","AAC-253","2019/09/10 19:29:29","新北市板橋區中山路一段94號","121.46213","25.0101266666667","6500100","板橋區"
"235068","KEA-2873","2019/09/10 19:29:16","新北市中和區連勝街57巷14號","121.497941666667","24.9967166666667","6500300","中和區"
"235061","KEA-2875","2019/09/10 19:29:41","新北市中和區員山路143巷40號","121.479196666667","24.9956233333333","6500300","中和區"
