"lineid","car","time","location","longitude","latitude","cityid","cityname"
"234046","148-BY","2019/09/10 20:09:37","新北市永和區得和路423號","121.526163333333","24.999165","6500400","永和區"
"234081","298-R6","2019/09/10 20:09:36","新北市永和區永亨路112號","121.52369","25.004395","6500400","永和區"
"234038","336-UY","2019/09/10 20:09:28","新北市永和區成功路一段47巷28號","121.527713333333","25.003815","6500400","永和區"
"234064","337-UY","2019/09/10 20:09:31","新北市永和區秀朗路二段43號","121.52155","25.00247","6500400","永和區"
"234086","338-UY","2019/09/10 20:09:33","新北市永和區福和路261號","121.51784","25.0073783333333","6500400","永和區"
"234070","552-UM","2019/09/10 20:09:36","新北市永和區福和路183巷1號","121.520073333333","25.00734","6500400","永和區"
"234017","745-BX","2019/09/10 20:09:31","新北市永和區文化路158號","121.512331666667","25.0154033333333","6500400","永和區"
"234030","746-BX","2019/09/10 20:09:42","新北市永和區民權路49巷19號","121.520988333333","24.9973783333333","6500400","永和區"
"234054","KEA-2590","2019/09/10 20:09:43","新北市永和區博愛街27巷2號","121.518115","25.0158333333333","6500400","永和區"
"234007","KED-0605","2019/09/10 20:09:27","新北市永和區環河西路二段229巷1號","121.501371666667","25.00992","6500400","永和區"
"234013","KEA-2591","2019/09/10 20:09:35","新北市永和區永貞路387號","121.508016666667","25.00865","6500400","永和區"
"234061","AAD-866","2019/09/10 20:09:39","新北市永和區中正路151巷5弄2-1號","121.515683333333","24.9986666666667","6500400","永和區"
"234042","862-TW","2019/09/10 20:09:34","新北市永和區雙和街64巷25號","121.509695","25.003275","6500400","永和區"
"234050","863-TW","2019/09/10 20:09:34","新北市永和區環河西路二段85號","121.506705","25.0149833333333","6500400","永和區"
"234026","9371-KE","2019/09/10 20:09:42","新北市永和區保生路55號","121.504571666667","25.010825","6500400","永和區"
"249005","172-UM","2019/09/10 20:09:38","新北市八里區下罟子58-9號","121.38767","25.1375616666667","6502300","八里區"
"249001","173-UM","2019/09/10 20:09:29","新北市八里區中華路二段318號","121.403465","25.1481566666667","6502300","八里區"
"249004","303-UY","2019/09/10 20:09:29","新北市八里區中山路一段189巷18號","121.41223","25.1578366666667","6502300","八里區"
"249002","305-UY","2019/09/10 20:09:45","新北市八里區龍米路一段17號","121.45731","25.11571","6502300","八里區"
"249003","593-UM","2019/09/10 20:09:40","新北市八里區中山路二段540巷9弄22號","121.396501666667","25.1465966666667","6502300","八里區"
"248016","026-BX","2019/09/10 20:09:29","新北市五股區成泰路三段577巷80弄72號","121.448928333333","25.1048183333333","6501500","五股區"
"248008","KED-0815","2019/09/10 20:09:36","新北市五股區中興路一段1巷15號","121.469721666667","25.0712416666667","6501500","五股區"
"248020","KED-0813","2019/09/10 20:09:30","新北市五股區凌雲路二段14號","121.445595","25.1024816666667","6501500","五股區"
"248012","247-BX","2019/09/10 20:09:44","新北市五股區五福路91號","121.431873333333","25.0901516666667","6501500","五股區"
"248004","677-BX","2019/09/10 20:09:29","新北市五股區成泰路一段130-1號","121.43511","25.0751233333333","6501500","五股區"
"248002","678-BX","2019/09/10 20:09:36","新北市五股區成泰路三段311-2號","121.447865","25.0949283333333","6501500","五股區"
"248010","682-TV","2019/09/10 20:09:34","新北市五股區成泰路一段7巷20號","121.433086666667","25.06692","6501500","五股區"
"234023","9380-KE","2019/09/10 20:09:37","新北市永和區中正路662巷27號","121.517746666667","25.008935","6500400","永和區"
"234077","969-R7","2019/09/10 20:09:43","新北市永和區民有街24巷1弄6號","121.516518333333","24.9958733333333","6500400","永和區"
"234074","AAC-211","2019/09/10 20:09:30","新北市永和區豫溪街136巷1號","121.521313333333","25.01039","6500400","永和區"
"234067","AAC-212","2019/09/10 20:09:47","新北市永和區保平路214巷12弄1號","121.508981666667","25.0067883333333","6500400","永和區"
"234003","AAC-295","2019/09/10 20:09:35","新北市永和區中正路618號","121.517008333333","25.0076816666667","6500400","永和區"
"243012","AAD-798","2019/09/10 20:09:36","新北市泰山區楓江路21號","121.43404","25.062425","6501600","泰山區"
"243010","297-R6","2019/09/10 20:09:26","新北市泰山區明志路二段136巷21弄4號","121.425976666667","25.0518866666667","6501600","泰山區"
"243014","KEA-2801","2019/09/10 20:09:35","新北市泰山區明志路一段14號","121.43354","25.06583","6501600","泰山區"
"243016","421-VK","2019/09/10 20:09:42","新北市泰山區明志路三段409號","121.421236666667","25.0340333333333","6501600","泰山區"
"243009","KEA-2215","2019/09/10 20:09:31","新北市泰山區泰林路二段138號","121.434295","25.05985","6501600","泰山區"
"243011","KEA-2216","2019/09/10 20:09:33","新北市新莊區中正路666號","121.421035","25.0288633333333","6501600","泰山區"
"243015","680-BX","2019/09/10 20:09:39","新北市泰山區明志路二段62號","121.429151666667","25.0527866666667","6501600","泰山區"
"222003","436-BY","2019/09/10 20:09:47","新北市深坑區埔新街64號","121.620061666667","25.0024283333333","6501800","深坑區"
"222002","659-BX","2019/09/10 20:09:34","新北市深坑區北深路三段206巷1弄18號","121.601496666667","25.0044966666667","6501800","深坑區"
"231061","002-UM","2019/09/10 20:09:38","新北市新店區安興路35號","121.5162","24.97081","6500600","新店區"
"231044","046-UY","2019/09/10 20:09:38","新北市新店區寶慶街66號","121.54196","24.9868566666667","6500600","新店區"
"231060","047-UY","2019/09/10 20:09:38","新北市新店區安康路三段311號","121.485686666667","24.951495","6500600","新店區"
"231049","108-UY","2019/09/10 20:09:27","新北市新店區北新路二段139巷9-1號","121.542128333333","24.975555","6500600","新店區"
"231068","187-VK","2019/09/10 20:09:35","新北市新店區中興路二段188號","121.548186666667","24.972875","6500600","新店區"
"231065","KEA-2219","2019/09/10 20:09:30","新北市新店區安祥路106巷126號","121.47368","24.9584766666667","6500600","新店區"
"221012","KEA-2785","2019/09/10 20:09:28","新北市汐止區大同路三段324號","121.679215","25.071255","6501100","汐止區"
"231062","256-BX","2019/09/10 20:09:33","新北市新店區安康路一段98號","121.527508333333","24.9622683333333","6500600","新店區"
"231054","260-TV","2019/09/10 20:09:28","新北市新店區檳榔路40號","121.541571666667","24.963705","6500600","新店區"
"231042","268-BY","2019/09/10 20:09:48","新北市新店區中興路二段43號","121.546391666667","24.9701916666667","6500600","新店區"
"231064","278-BY","2019/09/10 20:09:33","新北市新店區安德街2號","121.512351666667","24.96286","6500600","新店區"
"231050","AAD-862","2019/09/10 20:09:37","新北市新店區北新路一段337號","121.541808333333","24.9687066666667","6500600","新店區"
"231045","355-BY","2019/09/10 20:09:43","新北市新店區北宜路二段59號","121.549155","24.9514883333333","6500600","新店區"
"231056","4715-K9","2019/09/10 20:09:39","新北市新店區中正路330號","121.537015","24.9751166666667","6500600","新店區"
"231067","4772-VM","2019/09/10 20:09:34","新北市新店區溪洲路8巷130號","121.53353","24.96316","6500600","新店區"
"231053","515-UM","2019/09/10 20:09:38","新北市新店區新烏路三段寶島巷12號","121.552025","24.8988183333333","6500600","新店區"
"231063","616-UM","2019/09/10 20:09:39","新北市新店區黎明路53巷1號","121.50231","24.9487183333333","6500600","新店區"
"231041","618-UM","2019/09/10 20:09:34","新北市新店區中正路460號","121.533998333333","24.9793666666667","6500600","新店區"
"231048","KED-0819","2019/09/10 20:09:36","新北市新店區寶橋路59-1號","121.54514","24.975045","6500600","新店區"
"231051","718-UY","2019/09/10 20:09:41","新北市新店區中央六街3號","121.530365","24.9744266666667","6500600","新店區"
"231057","720-UM","2019/09/10 20:09:25","新北市新店區百齡一路12號","121.553056666667","24.932465","6500600","新店區"
"231059","897-TW","2019/09/10 20:09:28","新北市新店區安德街80號","121.510093333333","24.96155","6500600","新店區"
"231040","898-TW","2019/09/10 20:09:28","新北市新店區北新路一段146號","121.54315","24.9703933333333","6500600","新店區"
"231043","899-TW","2019/09/10 20:09:35","新北市新店區民族路172號","121.53722","24.9764","6500600","新店區"
"231066","AKT-0513","2019/09/10 20:09:40","新北市新店區安康路二段320巷15弄2號","121.503865","24.9595566666667","6500600","新店區"
"241011","013-R5","2019/09/10 20:09:33","新北市三重區三和路三段47巷15號","121.496106666667","25.0717583333333","6500200","三重區"
"241008","059-VK","2019/09/10 20:09:36","新北市三重區永福街195號","121.479306666667","25.074695","6500200","三重區"
"241013","060-VK","2019/09/10 20:09:31","新北市三重區三和路三段151巷9號","121.492453333333","25.073875","6500200","三重區"
"241031","061-VK","2019/09/10 20:09:38","新北市三重區過圳街9-1號","121.488723333333","25.06008","6500200","三重區"
"241015","062-VK","2019/09/10 20:09:33","新北市三重區長元街82-1號","121.50184","25.066325","6500200","三重區"
"241017","063-VK","2019/09/10 20:09:27","新北市三重區大智街116號","121.493106666667","25.0669716666667","6500200","三重區"
"241024","065-VK","2019/09/10 20:09:41","新北市三重區中正北路330號","121.47874","25.0691866666667","6500200","三重區"
"241007","066-VK","2019/09/10 20:09:25","新北市三重區三和路四段111-33號","121.486408333333","25.0773883333333","6500200","三重區"
"241003","091-VK","2019/09/10 20:09:42","新北市三重區分子尾街45號","121.489296666667","25.0820483333333","6500200","三重區"
"241002","742-BX","2019/09/10 20:09:42","新北市三重區仁忠街31號","121.49588","25.0820683333333","6500200","三重區"
"241006","262-UM","2019/09/10 20:09:30","新北市三重區力行路二段91巷2號","121.483033333333","25.0759416666667","6500200","三重區"
"241009","267-UM","2019/09/10 20:09:35","新北市三重區三和路四段382巷121號","121.479803333333","25.0781866666667","6500200","三重區"
"241032","269-UM","2019/09/10 20:09:43","新北市三重區捷運路65號","121.483443333333","25.0556616666667","6500200","三重區"
"241025","271-UM","2019/09/10 20:09:45","新北市三重區中正北路253號","121.47543","25.070665","6500200","三重區"
"241035","KEA-2210","2019/09/10 20:09:34","新北市三重區平安街39號","121.498125","25.06428","6500200","三重區"
"241030","KED-0822","2019/09/10 20:09:37","新北市三重區集美街75巷25號","121.488096666667","25.05307","6500200","三重區"
"241022","462-BY","2019/09/10 20:09:34","新北市三重區重陽路二段1號","121.48679","25.061715","6500200","三重區"
"241004","475-VK","2019/09/10 20:09:37","新北市三重區自強路四段100號","121.49126","25.0796566666667","6500200","三重區"
"241020","478-VK","2019/09/10 20:09:45","新北市三重區後竹圍街2巷2號","121.491896666667","25.07346","6500200","三重區"
"241026","480-VK","2019/09/10 20:09:43","新北市三重區福德南路65巷2號","121.502461666667","25.060485","6500200","三重區"
"241014","543-UM","2019/09/10 20:09:42","新北市三重區長樂街88號","121.501288333333","25.069525","6500200","三重區"
"241023","545-UM","2019/09/10 20:09:32","新北市三重區頂崁街239號","121.47693","25.0685916666667","6500200","三重區"
"241001","547-UM","2019/09/10 20:09:37","新北市三重區自強路四段5號","121.488608333333","25.0761666666667","6500200","三重區"
"241019","KEA-2593","2019/09/10 20:09:41","新北市三重區大智街180號","121.491128333333","25.0700733333333","6500200","三重區"
"241016","887-TS","2019/09/10 20:09:37","新北市三重區大同北路97-3號","121.494343333333","25.06362","6500200","三重區"
"241012","941-UM","2019/09/10 20:09:30","新北市三重區仁義街22號","121.499505","25.0765583333333","6500200","三重區"
"241029","942-UM","2019/09/10 20:09:43","新北市三重區光明路32巷12弄2-1號","121.491611666667","25.0586466666667","6500200","三重區"
"241033","AAC-255","2019/09/10 20:09:38","新北市三重區光復路一段61巷21號","121.47298","25.04928","6500200","三重區"
"235066","003-UY","2019/09/10 20:09:39","新北市中和區水源路154巷2號","121.508065","25.0032766666667","6500300","中和區"
"235039","097-UM","2019/09/10 20:09:44","新北市中和區大勇街25巷18號","121.51657","24.993465","6500300","中和區"
"235065","098-UM","2019/09/10 20:09:38","新北市中和區永和路98號","121.496746666667","25.0056033333333","6500300","中和區"
"235040","150-BY","2019/09/10 20:09:38","新北市中和區保健路31號","121.50864","24.99773","6500300","中和區"
"235055","183-VK","2019/09/10 20:09:47","新北市三重區大有街25號","121.467796666667","25.0645","6500300","中和區"
"247016","KEA-2869","2019/09/10 20:09:36","新北市蘆洲區光華路169號","121.464913333333","25.0819566666667","6501400","蘆洲區"
"247010","KED-0682","2019/09/10 20:09:40","新北市蘆洲區信義路154號","121.479323333333","25.0834133333333","6501400","蘆洲區"
"235050","4979-A6","2019/09/10 20:09:40","新北市中和區安樂路8-1號","121.511693333333","24.9918366666667","6500300","中和區"
"235070","558-UM","2019/09/10 20:09:32","新北市板橋區民生路三段196號","121.465093333333","25.02915","6500300","中和區"
"235051","157-BY","2019/09/10 20:09:29","新北市中和區景安路220巷20號","121.502738333333","24.991435","6500300","中和區"
"235037","AAC-213","2019/09/10 20:09:44","新北市中和區中正路1224號","121.479528333333","25.0107433333333","6500300","中和區"
"235059","AAC-215","2019/09/10 20:09:37","新北市中和區圓通路335巷37弄2號","121.493856666667","24.989385","6500300","中和區"
"220069","015-TV","2019/09/10 20:09:46","新北市板橋區貴興路49號","121.45727","25.0032383333333","6500100","板橋區"
"220065","072-UY","2019/09/10 20:09:28","新北市板橋區中山路一段154巷3弄2號","121.46543","25.010425","6500100","板橋區"
"247006","893-R6","2019/09/10 20:09:46","新北市蘆洲區中山二路300巷2號","121.468585","25.0771083333333","6501400","蘆洲區"
"247020","546-UM","2019/09/10 20:09:39","新北市蘆洲區民權路106巷5弄7號","121.474253333333","25.0891066666667","6501400","蘆洲區"
"247018","500-BY","2019/09/10 20:09:38","新北市蘆洲區民族路314巷23號","121.47809","25.0908116666667","6501400","蘆洲區"
"247012","337-TH","2019/09/10 20:09:29","新北市蘆洲區民族路250巷6號","121.47948","25.0887566666667","6501400","蘆洲區"
"247004","336-TH","2019/09/10 20:09:32","新北市蘆洲區永安南路二段328巷15弄15號","121.456003333333","25.083565","6501400","蘆洲區"
"247024","057-VK","2019/09/10 20:09:41","新北市蘆洲區光明路88巷19號","121.463301666667","25.0870466666667","6501400","蘆洲區"
"247014","056-VK","2019/09/10 20:09:35","新北市蘆洲區中山二路265巷16號","121.470613333333","25.0795816666667","6501400","蘆洲區"
"247022","007-UY","2019/09/10 20:09:27","新北市蘆洲區三民路171巷12號","121.470545","25.086985","6501400","蘆洲區"
"247002","001-UY","2019/09/10 20:09:42","新北市蘆洲區永康街58號","121.459251666667","25.08607","6501400","蘆洲區"
"226004","312-R5","2019/09/10 20:09:40","新北市平溪區嶺腳里嶺腳寮13號","121.74794","25.0299033333333","6502400","平溪區"
"224002","639-TC","2019/09/10 20:09:40","新北市瑞芳區員山子路3-1號","121.818983333333","25.1046283333333","6501200","瑞芳區"
"222001","KEA-2212","2019/09/10 20:09:32","新北市深坑區北深路三段191號","121.601201666667","25.0036883333333","6501800","深坑區"
"251004","009-UM","2019/09/10 20:09:37","新北市淡水區民族路31-13號","121.461466666667","25.1364566666667","6501000","淡水區"
"251001","011-UM","2019/09/10 20:09:45","新北市淡水區淡金路二段15號","121.446356666667","25.1891966666667","6501000","淡水區"
"251002","012-UM","2019/09/10 20:09:33","新北市淡水區中正路334號","121.435836666667","25.1732283333333","6501000","淡水區"
"251015","KEA-2871","2019/09/10 20:09:33","新北市淡水區北新路三段112號","121.48629","25.1881483333333","6501000","淡水區"
"251016","179-VK","2019/09/10 20:09:43","新北市淡水區番子田25-8號","121.45582","25.2303366666667","6501000","淡水區"
"251008","181-VK","2019/09/10 20:09:38","新北市淡水區淡海路72巷30弄1號","121.424373333333","25.1826783333333","6501000","淡水區"
"251013","182-VK","2019/09/10 20:09:40","新北市淡水區奎柔山路600號","121.470461666667","25.20534","6501000","淡水區"
"251010","413-VK","2019/09/10 20:09:26","新北市淡水區後洲路一段157號","121.427828333333","25.1980433333333","6501000","淡水區"
"251012","441-VK","2019/09/10 20:09:45","新北市淡水區淡金路三段224號","121.448916666667","25.204835","6501000","淡水區"
"251006","561-UM","2019/09/10 20:09:43","新北市淡水區北新路141巷50號","121.448831666667","25.1793483333333","6501000","淡水區"
"251009","575-R6","2019/09/10 20:09:44","新北市淡水區博愛街14號","121.446023333333","25.169915","6501000","淡水區"
"251014","577-R6","2019/09/10 20:09:44","新北市淡水區石頭厝2-1號","121.45808","25.2356916666667","6501000","淡水區"
"251011","650-BX","2019/09/10 20:09:29","新北市淡水區崁頂55-3號","121.442341666667","25.1966366666667","6501000","淡水區"
"207003","550-UM","2019/09/10 20:09:43","新北市萬里區大鵬里萬里加投166號","121.643493333333","25.2155483333333","6502800","萬里區"
"207004","291-VK","2019/09/10 20:09:36","新北市萬里區北基里仁一街30號","121.682413333333","25.1766933333333","6502800","萬里區"
"252001","292-VK","2019/09/10 20:09:30","新北市三芝區公正街9號","121.49976","25.2575566666667","6502100","三芝區"
"237012","275-BY","2019/09/10 20:09:43","新北市三峽區中華路137巷2號","121.371425","24.9275116666667","6500900","三峽區"
"237014","433-BY","2019/09/10 20:09:37","新北市三峽區三樹路128-1號","121.37836","24.939515","6500900","三峽區"
"237006","5529-G3","2019/09/10 20:09:36","新北市三峽區嘉添227-24號","121.370051666667","24.9114883333333","6500900","三峽區"
"237015","649-BX","2019/09/10 20:09:39","新北市三峽區介壽路二段138巷1弄148-1號","121.399533333333","24.9299783333333","6500900","三峽區"
"237005","AKY-6261","2019/09/10 20:09:32","新北市三峽區三樹路98巷35號","121.380676666667","24.9394133333333","6500900","三峽區"
"236042","KED-0685","2019/09/10 20:09:35","新北市土城區學享街44號","121.451958333333","24.986765","6501300","土城區"
"236030","253-BX","2019/09/10 20:09:38","新北市土城區中央路一段118巷1弄24號","121.445511666667","24.9875416666667","6501300","土城區"
"236026","269-VK","2019/09/10 20:09:38","新北市土城區明德路二段102巷25號","121.44558","24.9850083333333","6501300","土城區"
"236014","270-VK","2019/09/10 20:09:38","新北市土城區德興街135號","121.455063333333","24.9916866666667","6501300","土城區"
"236038","271-VK","2019/09/10 20:09:45","新北市土城區延吉街296巷3號","121.464356666667","24.9846283333333","6501300","土城區"
"236070","KEA-2877","2019/09/10 20:09:35","新北市土城區中央路三段183號","121.431243333333","24.9652733333333","6501300","土城區"
"252002","KED-0821","2019/09/10 20:09:41","新北市三芝區中正路一段72號","121.503866666667","25.2575866666667","6502100","三芝區"
"236021","401-BY","2019/09/10 20:09:43","新北市土城區金城路三段233號","121.471135","24.9896583333333","6501300","土城區"
"236059","912-UM","2019/09/10 20:09:33","新北市土城區中央路二段392-1號","121.439628333333","24.9708833333333","6501300","土城區"
"236049","913-UM","2019/09/10 20:09:45","新北市土城區清水路211號","121.460481666667","24.98195","6501300","土城區"
"242042","AAC-296","2019/09/10 20:09:36","新北市新莊區青山路一段71號","121.405973333333","25.0284566666667","6500500","新莊區"
"242061","986-R7","2019/09/10 20:09:29","新北市新莊區瓊林路59-38號","121.441123333333","25.02345","6500500","新莊區"
"242005","751-BX","2019/09/10 20:09:37","新北市新莊區化成路378號","121.465866666667","25.049905","6500500","新莊區"
"242029","615-BX","2019/09/10 20:09:33","新北市新莊區中原路301號","121.447485","25.0544333333333","6500500","新莊區"
"242027","613-BX","2019/09/10 20:09:45","新北市新莊區立信一街53號","121.443008333333","25.0498283333333","6500500","新莊區"
"242058","612-BX","2019/09/10 20:09:30","新北市新莊區八德街145號","121.423601666667","25.0198133333333","6500500","新莊區"
"242048","566-BX","2019/09/10 20:09:39","新北市新莊區四維路152巷16號","121.422158333333","25.0229383333333","6500500","新莊區"
"242054","442-UM","2019/09/10 20:09:41","新北市新莊區西盛街387巷15號","121.42859","25.0131283333333","6500500","新莊區"
"242002","441-UM","2019/09/10 20:09:39","新北市新莊區中正路121-1號","121.459918333333","25.0385766666667","6500500","新莊區"
"242007","440-UM","2019/09/10 20:09:30","新北市新莊區福壽街184巷20號","121.459281666667","25.0530916666667","6500500","新莊區"
"242044","415-TV","2019/09/10 20:09:18","新北市新莊區中正路929巷7弄16號","121.411353333333","25.0202116666667","6500500","新莊區"
"242013","413-TV","2019/09/10 20:09:36","新北市新莊區中港路483巷6號","121.451778333333","25.0497383333333","6500500","新莊區"
"242051","400-BY","2019/09/10 20:09:40","新北市新莊區民安西路150巷8號","121.425693333333","25.0165866666667","6500500","新莊區"
"242025","362-BY","2019/09/10 20:09:30","新北市新莊區五工三路78巷6號","121.459163333333","25.0652566666667","6500500","新莊區"
"242023","353-BY","2019/09/10 20:09:25","新北市新莊區化成路526號","121.466261666667","25.0527733333333","6500500","新莊區"
"242015","132-UY","2019/09/10 20:09:37","新北市新莊區中平路26巷19號","121.445721666667","25.0433683333333","6500500","新莊區"
"242039","135-UY","2019/09/10 20:09:45","新北市新莊區龍安路481號","121.425536666667","25.0181466666667","6500500","新莊區"
"242056","172-VK","2019/09/10 20:09:44","新北市新莊區新莊路649巷13弄19號","121.445656666667","25.0319116666667","6500500","新莊區"
"242017","175-VK","2019/09/10 20:09:39","新北市新莊區中安街23號","121.452875","25.046125","6500500","新莊區"
"242021","176-VK","2019/09/10 20:09:35","新北市新莊區中興街45號","121.449198333333","25.0369633333333","6500500","新莊區"
"242046","346-TH","2019/09/10 20:09:44","新北市新莊區裕民街85巷22弄1號","121.419491666667","25.0230166666667","6500500","新莊區"
"242032","347-TH","2019/09/10 20:09:40","新北市新莊區忠孝街29巷11號","121.443573333333","25.0358483333333","6500500","新莊區"
"242037","348-TH","2019/09/10 20:09:39","新北市新莊區建安街55號","121.42838","25.025365","6500500","新莊區"
"242009","349-TH","2019/09/10 20:09:42","新北市新莊區昌隆街30號","121.454148333333","25.050695","6500500","新莊區"
"242034","350-TH","2019/09/10 20:09:42","新北市新莊區中正路318巷18號","121.446486666667","25.0360083333333","6500500","新莊區"
"242019","351-TH","2019/09/10 20:09:24","新北市新莊區銘德街23號","121.458735","25.0437416666667","6500500","新莊區"
"239006","891-R6","2019/09/10 20:09:30","新北市鶯歌區文化路265號","121.353305","24.9529883333333","6500800","鶯歌區"
"239002","359-BY","2019/09/10 20:09:40","新北市鶯歌區中正一路461-5號","121.363146666667","24.956485","6500800","鶯歌區"
"221008","489-VK","2019/09/10 20:09:43","台北市內湖區康樂街164-1號","121.619493333333","25.0732583333333","6501100","汐止區"
"221036","130-UY","2019/09/10 20:09:26","新北市汐止區新台五路二段39號","121.663125","25.0663216666667","6501100","汐止區"
"221015","131-UY","2019/09/10 20:09:40","新北市汐止區建成路13號","121.66454","25.0725566666667","6501100","汐止區"
"221010","269-BY","2019/09/10 20:09:46","新北市汐止區連峰街268號","121.644531666667","25.0813683333333","6501100","汐止區"
"221023","279-VK","2019/09/10 20:09:25","新北市汐止區明峰街196號","121.627878333333","25.0695566666667","6501100","汐止區"
"221032","280-BY","2019/09/10 20:09:25","新北市汐止區橫科路18巷33弄2號","121.617271666667","25.0495833333333","6501100","汐止區"
"221027","281-BY","2019/09/10 20:09:29","新北市汐止區民生街1-1號","121.660141666667","25.068755","6501100","汐止區"
"221029","298-VK","2019/09/10 20:09:45","新北市汐止區樟樹一路123巷17號","121.641288333333","25.0645783333333","6501100","汐止區"
"221021","299-VK","2019/09/10 20:09:30","新北市汐止區新台五路一段159號","121.654113333333","25.0625383333333","6501100","汐止區"
"221031","353-TW","2019/09/10 20:09:44","新北市汐止區福德一路260號","121.633143333333","25.06444","6501100","汐止區"
"221035","622-UM","2019/09/10 20:09:45","新北市汐止區長江街39巷24號","121.65527","25.07221","6501100","汐止區"
"221025","623-UM","2019/09/10 20:09:43","新北市汐止區秀峰路62號","121.659798333333","25.06471","6501100","汐止區"
"221038","646-BX","2019/09/10 20:09:40","新北市汐止區橋東街41巷7號","121.666648333333","25.0749933333333","6501100","汐止區"
"221033","647-BX","2019/09/10 20:09:35","新北市汐止區東勢街201巷129弄2號","121.633458333333","25.0428433333333","6501100","汐止區"
"221018","753-BX","2019/09/10 20:09:36","新北市汐止區茄苳路322號","121.673618333333","25.0665","6501100","汐止區"
"220079","145-BY","2019/09/10 20:09:34","新北市板橋區建國街117號","121.460531666667","25.0176383333333","6500100","板橋區"
"220080","200-UY","2019/09/10 20:09:46","新北市板橋區大觀路二段163巷1號","121.44573","25.0003983333333","6500100","板橋區"
"220082","610-BX","2019/09/10 20:09:28","新北市板橋區金門街182-3號","121.432675","24.9909766666667","6500100","板橋區"
"220083","286-VK","2019/09/10 20:09:29","新北市板橋區僑中二街50號","121.446676666667","25.01058","6500100","板橋區"
"220081","287-VK","2019/09/10 20:09:33","新北市板橋區僑中一街124巷18弄15號","121.44678","25.013715","6500100","板橋區"
"220061","293-UM","2019/09/10 20:09:39","新北市板橋區四川路一段274巷13號","121.457943333333","25.001465","6500100","板橋區"
"220062","295-UM","2019/09/10 20:09:34","新北市板橋區萬安街85巷1弄11號","121.484446666667","25.0249516666667","6500100","板橋區"
"220084","296-UM","2019/09/10 20:09:41","新北市板橋區溪崑二街112巷35弄1號","121.42539","24.9892433333333","6500100","板橋區"
"220075","303-R5","2019/09/10 20:09:31","新北市板橋區金華街10巷119號","121.45957","25.020585","6500100","板橋區"
"242011","280-VK","2019/09/10 20:09:37","新北市新莊區中信街52號","121.449385","25.0509083333333","6500500","新莊區"
"220035","560-BX","2019/09/10 20:09:27","新北市板橋區新生街53巷3弄12號","121.457051666667","25.0217183333333","6500100","板橋區"
"220103","561-BX","2019/09/10 20:09:44","新北市板橋區漢生東路53巷28號","121.466728333333","25.017365","6500100","板橋區"
"220077","687-BX","2019/09/10 20:09:45","新北市板橋區僑中一街124巷5號","121.445896666667","25.012485","6500100","板橋區"
"220054","741-BX","2019/09/10 20:09:43","新北市板橋區實踐路93巷15號","121.46479","25.0054516666667","6500100","板橋區"
"220055","827-TW","2019/09/10 20:09:31","新北市板橋區仁愛路86巷22-1號","121.460875","24.9986466666667","6500100","板橋區"
"220021","833-TW","2019/09/10 20:05:24","新北市板橋區華東街1-10號","121.448625","24.9948066666667","6500100","板橋區"
"220074","895-R6","2019/09/10 20:09:44","新北市板橋區縣民大道一段287號","121.460781666667","25.0102066666667","6500100","板橋區"
"220073","985-R7","2019/09/10 20:09:26","新北市板橋區南雅西路二段2-2號","121.45313","25.009035","6500100","板橋區"
"220064","AAC-253","2019/09/10 20:09:46","新北市板橋區中山路一段206巷133號","121.47284","25.0131683333333","6500100","板橋區"
"235068","KEA-2873","2019/09/10 20:09:39","新北市中和區福祥路85巷2弄3號","121.498571666667","25.005885","6500300","中和區"
"235026","KEA-2876","2019/09/10 20:02:56","新北市中和區員山路36巷16-3號","121.48505","24.991465","6500300","中和區"
