"lineid","car","time","location","longitude","latitude","cityid","cityname"
"234081","298-R6","2019/09/10 20:29:36","新北市永和區福和路59號","121.523016666667","25.0078983333333","6500400","永和區"
"234038","336-UY","2019/09/10 20:29:28","新北市永和區民樂街39巷23號","121.528931666667","25.000615","6500400","永和區"
"234064","337-UY","2019/09/10 20:29:31","新北市永和區中正路419號","121.517048333333","25.0049883333333","6500400","永和區"
"234086","338-UY","2019/09/10 20:29:33","新北市永和區光復街21號","121.516448333333","25.0173666666667","6500400","永和區"
"234070","552-UM","2019/09/10 20:29:36","新北市永和區永利路74號","121.52043","25.00412","6500400","永和區"
"234030","746-BX","2019/09/10 20:29:42","新北市中和區大仁街120號","121.52088","24.9921416666667","6500400","永和區"
"234054","KEA-2590","2019/09/10 20:29:43","新北市永和區光復街60巷31號","121.51822","25.017245","6500400","永和區"
"234061","AAD-866","2019/09/10 20:29:39","新北市永和區安樂路194巷17弄12號","121.516321666667","25.0014","6500400","永和區"
"234042","862-TW","2019/09/10 20:29:34","新北市永和區安樂路242-20號","121.514705","25.003185","6500400","永和區"
"234050","863-TW","2019/09/10 20:29:14","新北市永和區新生路118巷1弄17號","121.506665","25.01442","6500400","永和區"
"249001","173-UM","2019/09/10 20:29:26","新北市八里區中山路三段106號","121.392031666667","25.142925","6502300","八里區"
"249004","303-UY","2019/09/10 20:29:29","新北市八里區中山路一段129巷45號","121.413905","25.1585366666667","6502300","八里區"
"249002","305-UY","2019/09/10 20:29:36","新北市八里區龍米路二段58-1號","121.448095","25.14103","6502300","八里區"
"249003","593-UM","2019/09/10 20:29:40","新北市八里區華峰一街27號","121.399056666667","25.1465283333333","6502300","八里區"
"248002","678-BX","2019/09/10 20:29:36","新北市五股區新五路二段333號","121.443743333333","25.087355","6501500","五股區"
"234023","9380-KE","2019/09/10 20:29:40","新北市永和區博愛街31巷8號","121.51837","25.0161","6500400","永和區"
"234074","AAC-211","2019/09/10 20:29:30","新北市永和區豫溪街217巷11號","121.52467","25.0097233333333","6500400","永和區"
"234067","AAC-212","2019/09/10 20:29:47","新北市永和區保平路292巷4號","121.507895","25.0047766666667","6500400","永和區"
"234003","AAC-295","2019/09/10 20:29:35","新北市永和區中正路612號","121.517038333333","25.0074816666667","6500400","永和區"
"243012","AAD-798","2019/09/10 20:29:36","新北市泰山區楓江路14號","121.433848333333","25.0623983333333","6501600","泰山區"
"243010","297-R6","2019/09/10 20:29:46","新北市泰山區新生路31巷7號","121.427616666667","25.0459283333333","6501600","泰山區"
"243014","KEA-2801","2019/09/10 20:29:25","新北市泰山區泰林路二段525號","121.423746666667","25.0636916666667","6501600","泰山區"
"243016","421-VK","2019/09/10 20:29:42","新北市泰山區明志路二段220號","121.427246666667","25.0485666666667","6501600","泰山區"
"243009","KEA-2215","2019/09/10 20:29:28","新北市泰山區泰林路二段292巷3號","121.43125","25.0630466666667","6501600","泰山區"
"243011","KEA-2216","2019/09/10 20:29:26","新北市泰山區漢口街9巷2號","121.423663333333","25.03653","6501600","泰山區"
"243013","646-TV","2019/09/10 20:29:38","新北市泰山區中央路14巷4號","121.426516666667","25.04376","6501600","泰山區"
"243015","680-BX","2019/09/10 20:29:31","新北市泰山區仁德路125號","121.432643333333","25.0561","6501600","泰山區"
"222003","436-BY","2019/09/10 20:29:33","新北市深坑區深坑街42號","121.614971666667","25.0017216666667","6501800","深坑區"
"222002","659-BX","2019/09/10 20:29:34","新北市深坑區萬福路43號","121.599395","25.00678","6501800","深坑區"
"231061","002-UM","2019/09/10 20:29:37","新北市新店區安興路32號","121.515781666667","24.9703466666667","6500600","新店區"
"231055","0291-UT","2019/09/10 20:29:45","新北市新店區北新路一段105號","121.539156666667","24.9622666666667","6500600","新店區"
"231058","0293-UT","2019/09/10 20:29:47","新北市新店區安業街2號","121.515301666667","24.978645","6500600","新店區"
"231044","046-UY","2019/09/10 20:29:38","新北市新店區建國路134號","121.539013333333","24.9788916666667","6500600","新店區"
"231060","047-UY","2019/09/10 20:29:38","新北市新店區錦秀路13號","121.47946","24.9447933333333","6500600","新店區"
"231049","108-UY","2019/09/10 20:29:47","新北市新店區永業路81巷3弄1號","121.52984","24.9492083333333","6500600","新店區"
"231068","187-VK","2019/09/10 20:29:35","新北市新店區民權路13號","121.542381666667","24.982875","6500600","新店區"
"231065","KEA-2219","2019/09/10 20:29:30","新北市新店區安祥路102巷46弄36號","121.486056666667","24.9635683333333","6500600","新店區"
"221012","KEA-2785","2019/09/10 20:29:28","新北市汐止區姜子寮路50號","121.697663333333","25.0613483333333","6501100","汐止區"
"231062","256-BX","2019/09/10 20:29:33","新北市新店區安泰路60巷50號","121.483548333333","24.9464833333333","6500600","新店區"
"231054","260-TV","2019/09/10 20:29:48","新北市新店區檳榔路109號","121.544481666667","24.96155","6500600","新店區"
"231042","268-BY","2019/09/10 20:29:28","新北市新店區寶橋路216號","121.55114","24.9785416666667","6500600","新店區"
"231064","278-BY","2019/09/10 20:29:33","新北市新店區新和街59巷17號","121.519271666667","24.9860416666667","6500600","新店區"
"231050","AAD-862","2019/09/10 20:29:37","新北市新店區建興街9巷2號","121.539835","24.9763566666667","6500600","新店區"
"231045","355-BY","2019/09/10 20:29:43","新北市新店區新坡一街17號","121.549568333333","24.9629566666667","6500600","新店區"
"231056","4715-K9","2019/09/10 20:29:39","新北市新店區中央六街22號","121.52962","24.97482","6500600","新店區"
"231067","4772-VM","2019/09/10 20:29:14","新北市新店區德正街27巷29弄94號","121.545738333333","24.97376","6500600","新店區"
"231053","515-UM","2019/09/10 20:29:38","新北市新店區松林路38號","121.546238333333","24.910265","6500600","新店區"
"231063","616-UM","2019/09/10 20:29:39","新北市新店區安康路三段31巷2弄24號","121.492996666667","24.9518166666667","6500600","新店區"
"231041","618-UM","2019/09/10 20:29:34","新北市新店區中正路501-2號","121.5336","24.9836983333333","6500600","新店區"
"231048","KED-0819","2019/09/10 20:29:36","新北市新店區寶慶街58巷12號","121.54205","24.987255","6500600","新店區"
"231051","718-UY","2019/09/10 20:29:41","新北市新店區中央七街12號","121.530208333333","24.9749233333333","6500600","新店區"
"231057","720-UM","2019/09/10 20:29:45","新北市新店區花園六路二段7號","121.555563333333","24.9333516666667","6500600","新店區"
"231059","897-TW","2019/09/10 20:29:28","新北市新店區安康路二段266號","121.508638333333","24.9589616666667","6500600","新店區"
"231040","898-TW","2019/09/10 20:29:28","新北市新店區自由街2-1號","121.535668333333","24.975595","6500600","新店區"
"231043","899-TW","2019/09/10 20:29:35","新北市新店區明德路67巷17號","121.540498333333","24.9770516666667","6500600","新店區"
"231066","AKT-0513","2019/09/10 20:29:40","新北市新店區安民街241號","121.517185","24.9721716666667","6500600","新店區"
"241011","013-R5","2019/09/10 20:29:33","新北市三重區龍門路22號","121.495381666667","25.0718983333333","6500200","三重區"
"241008","059-VK","2019/09/10 20:29:36","新北市三重區下竹圍街91號","121.481095","25.0748383333333","6500200","三重區"
"241013","060-VK","2019/09/10 20:29:31","新北市三重區三和路四段81-1號","121.48933","25.075415","6500200","三重區"
"241031","061-VK","2019/09/10 20:29:38","新北市三重區三寧街15號","121.489433333333","25.059725","6500200","三重區"
"241015","062-VK","2019/09/10 20:29:33","新北市三重區文化北路41-2號","121.498923333333","25.06529","6500200","三重區"
"241017","063-VK","2019/09/10 20:29:27","新北市三重區自強路一段288號","121.491606666667","25.0682783333333","6500200","三重區"
"241024","065-VK","2019/09/10 20:29:41","新北市三重區三民街259號","121.479506666667","25.0678233333333","6500200","三重區"
"241007","066-VK","2019/09/10 20:29:25","新北市三重區自強路四段32-2號","121.48907","25.077055","6500200","三重區"
"241003","091-VK","2019/09/10 20:29:41","新北市三重區富華街145號","121.49299","25.0847883333333","6500200","三重區"
"241002","742-BX","2019/09/10 20:29:42","新北市三重區仁義街211巷51號","121.498123333333","25.08257","6500200","三重區"
"241006","262-UM","2019/09/10 20:29:30","新北市三重區車路頭街139巷12號","121.48424","25.076215","6500200","三重區"
"241009","267-UM","2019/09/10 20:29:35","新北市三重區碧華街57號","121.484785","25.0812966666667","6500200","三重區"
"241032","269-UM","2019/09/10 20:29:42","新北市三重區重陽路一段120巷35號","121.485073333333","25.0601816666667","6500200","三重區"
"241025","271-UM","2019/09/10 20:29:35","新北市三重區頂崁街210巷23弄1號","121.475818333333","25.0681366666667","6500200","三重區"
"241035","KEA-2210","2019/09/10 20:29:34","新北市三重區正義北路30-1號","121.497485","25.0633366666667","6500200","三重區"
"241030","KED-0822","2019/09/10 20:29:37","新北市三重區成功路75號","121.488598333333","25.051125","6500200","三重區"
"241022","462-BY","2019/09/10 20:29:34","新北市三重區過圳街27-5號","121.488023333333","25.0623366666667","6500200","三重區"
"241004","475-VK","2019/09/10 20:29:37","新北市三重區溪尾街199號","121.488596666667","25.080725","6500200","三重區"
"241020","478-VK","2019/09/10 20:29:45","新北市三重區明德街46號","121.492091666667","25.072045","6500200","三重區"
"241026","480-VK","2019/09/10 20:29:43","新北市三重區福德南路24巷15號","121.503431666667","25.063205","6500200","三重區"
"241014","543-UM","2019/09/10 20:29:42","新北市三重區長興街93號","121.501696666667","25.0691133333333","6500200","三重區"
"241023","545-UM","2019/09/10 20:29:32","新北市三重區自由街17巷1號","121.479938333333","25.066675","6500200","三重區"
"241001","547-UM","2019/09/10 20:29:37","新北市三重區聯華街126號","121.484996666667","25.07479","6500200","三重區"
"241019","KEA-2593","2019/09/10 20:29:40","新北市三重區重陽路四段124號","121.492475","25.0710533333333","6500200","三重區"
"241005","AAD-863","2019/09/10 20:29:27","新北市三重區五華街141巷38號","121.492505","25.085845","6500200","三重區"
"241016","887-TS","2019/09/10 20:29:29","新北市三重區自強路一段244號","121.492965","25.0672016666667","6500200","三重區"
"241012","941-UM","2019/09/10 20:29:30","新北市三重區龍濱路269號","121.501343333333","25.0730983333333","6500200","三重區"
"241029","942-UM","2019/09/10 20:29:41","新北市三重區集美街225號","121.491968333333","25.05517","6500200","三重區"
"241033","AAC-255","2019/09/10 20:29:38","新北市三重區五谷王北街80巷59號","121.474603333333","25.0530966666667","6500200","三重區"
"235055","183-VK","2019/09/10 20:29:47","新北市林口區太平里180號","121.367735","25.1338733333333","6500300","中和區"
"247016","KEA-2869","2019/09/10 20:29:36","新北市蘆洲區光華路69號","121.468175","25.0827466666667","6501400","蘆洲區"
"247010","KED-0682","2019/09/10 20:29:40","新北市蘆洲區民族路150號","121.479408333333","25.0860516666667","6501400","蘆洲區"
"235050","4979-A6","2019/09/10 20:29:30","新北市中和區景新街129號","121.505766666667","24.9972933333333","6500300","中和區"
"235069","4980-A6","2019/09/10 20:29:42","新北市中和區中正路446號","121.490948333333","24.994265","6500300","中和區"
"235059","AAC-215","2019/09/10 20:29:40","新北市中和區員山路37-8號","121.482318333333","24.9901983333333","6500300","中和區"
"247006","893-R6","2019/09/10 20:29:26","新北市蘆洲區和平路121巷8弄35號","121.466055","25.080585","6501400","蘆洲區"
"247020","546-UM","2019/09/10 20:29:39","新北市蘆洲區仁愛街169-2號","121.468436666667","25.0941666666667","6501400","蘆洲區"
"247018","500-BY","2019/09/10 20:29:42","新北市蘆洲區民族路315號","121.47455","25.0914583333333","6501400","蘆洲區"
"247012","337-TH","2019/09/10 20:29:29","新北市蘆洲區復興路257號","121.48077","25.0899166666667","6501400","蘆洲區"
"247004","336-TH","2019/09/10 20:29:32","新北市蘆洲區長安街222號","121.458148333333","25.0849016666667","6501400","蘆洲區"
"247024","057-VK","2019/09/10 20:29:41","新北市蘆洲區光復路91號","121.46426","25.0856233333333","6501400","蘆洲區"
"247014","056-VK","2019/09/10 20:29:35","新北市蘆洲區和平路77號","121.469321666667","25.0791266666667","6501400","蘆洲區"
"247022","007-UY","2019/09/10 20:29:27","新北市蘆洲區中正路225號","121.468125","25.0864283333333","6501400","蘆洲區"
"247008","002-UY","2019/09/10 20:29:40","新北市蘆洲區永安北路二段76巷6號","121.483518333333","25.0848316666667","6501400","蘆洲區"
"247002","001-UY","2019/09/10 20:29:41","新北市蘆洲區長安街361巷16號","121.456421666667","25.087585","6501400","蘆洲區"
"222001","KEA-2212","2019/09/10 20:29:32","新北市深坑區北深路三段329號","121.597235","25.0049916666667","6501800","深坑區"
"251001","011-UM","2019/09/10 20:29:42","新北市淡水區新市一路三段105號","121.44669","25.1829816666667","6501000","淡水區"
"251002","012-UM","2019/09/10 20:29:33","新北市淡水區中正路86-1號","121.44249","25.1696483333333","6501000","淡水區"
"251015","KEA-2871","2019/09/10 20:29:32","新北市淡水區埤島15號","121.446896666667","25.191855","6501000","淡水區"
"251016","179-VK","2019/09/10 20:29:43","新北市淡水區新埔子11-11號","121.447038333333","25.228685","6501000","淡水區"
"251008","181-VK","2019/09/10 20:29:38","新北市淡水區淡海路204號","121.420225","25.1855516666667","6501000","淡水區"
"251013","182-VK","2019/09/10 20:29:40","新北市淡水區後坑子6號","121.463476666667","25.206655","6501000","淡水區"
"251010","413-VK","2019/09/10 20:29:43","新北市淡水區沙崙路181巷15號","121.423981666667","25.184365","6501000","淡水區"
"251012","441-VK","2019/09/10 20:29:45","新北市淡水區頂田寮路37號","121.455423333333","25.2163166666667","6501000","淡水區"
"251006","561-UM","2019/09/10 20:29:46","新北市淡水區商工路356號","121.468688333333","25.18537","6501000","淡水區"
"251014","577-R6","2019/09/10 20:29:44","新北市淡水區石頭厝14-31號","121.464621666667","25.2367983333333","6501000","淡水區"
"251003","673-BX","2019/09/10 20:29:31","新北市淡水區新生街29號","121.439436666667","25.17511","6501000","淡水區"
"207004","291-VK","2019/09/10 20:29:36","新北市萬里區北基里忠二街13號","121.68492","25.1754416666667","6502800","萬里區"
"252001","292-VK","2019/09/10 20:29:30","新北市三芝區中山路一段37號","121.500735","25.2579316666667","6502100","三芝區"
"252002","KED-0821","2019/09/10 20:29:41","新北市三芝區淡金路二段47-2號","121.503726666667","25.2605433333333","6502100","三芝區"
"242042","AAC-296","2019/09/10 20:29:35","新北市新莊區壽山路69號","121.410021666667","25.0326983333333","6500500","新莊區"
"242061","986-R7","2019/09/10 20:29:41","新北市新莊區新樹路244巷54號","121.431211666667","25.0194233333333","6500500","新莊區"
"242005","751-BX","2019/09/10 20:29:42","新北市新莊區頭前路15巷2號","121.46786","25.0521833333333","6500500","新莊區"
"242029","615-BX","2019/09/10 20:29:33","新北市新莊區昌平街19號","121.45434","25.0514016666667","6500500","新莊區"
"242027","613-BX","2019/09/10 20:29:25","新北市新莊區幸福路586號","121.45372","25.0493516666667","6500500","新莊區"
"242058","612-BX","2019/09/10 20:29:30","新北市新莊區四維路169號","121.422358333333","25.02157","6500500","新莊區"
"242048","566-BX","2019/09/10 20:29:39","新北市新莊區龍安路252-5號","121.421081666667","25.0191233333333","6500500","新莊區"
"242054","442-UM","2019/09/10 20:29:41","新北市新莊區西盛街344巷14號","121.42749","25.0141716666667","6500500","新莊區"
"242002","441-UM","2019/09/10 20:29:39","新北市新莊區中正路78-1號","121.458495","25.037825","6500500","新莊區"
"242007","440-UM","2019/09/10 20:29:30","新北市新莊區思源路335號","121.459796666667","25.0497666666667","6500500","新莊區"
"242044","415-TV","2019/09/10 20:29:25","新北市新莊區中正路新建巷15弄6號","121.414403333333","25.022315","6500500","新莊區"
"242013","413-TV","2019/09/10 20:29:31","新北市新莊區中平路270巷7弄15號","121.445458333333","25.0509266666667","6500500","新莊區"
"242051","400-BY","2019/09/10 20:29:40","新北市新莊區民安西路262號","121.426065","25.0132616666667","6500500","新莊區"
"242025","362-BY","2019/09/10 20:29:30","新北市新莊區五工三路62巷23號","121.46018","25.0651","6500500","新莊區"
"242023","353-BY","2019/09/10 20:29:25","新北市新莊區化成路896號","121.464616666667","25.061585","6500500","新莊區"
"242015","132-UY","2019/09/10 20:29:47","新北市新莊區中平路46巷32號","121.44599","25.0438316666667","6500500","新莊區"
"242039","135-UY","2019/09/10 20:29:45","新北市新莊區民安路314號","121.428475","25.02201","6500500","新莊區"
"242056","172-VK","2019/09/10 20:29:44","新北市新莊區新莊路751巷49號","121.442761666667","25.03149","6500500","新莊區"
"242017","175-VK","2019/09/10 20:29:48","新北市新莊區中港二街76號","121.449668333333","25.0458566666667","6500500","新莊區"
"242021","176-VK","2019/09/10 20:29:47","新北市新莊區公園路72號","121.449858333333","25.0395216666667","6500500","新莊區"
"242046","346-TH","2019/09/10 20:29:44","新北市新莊區裕民街90巷3號","121.418013333333","25.0236933333333","6500500","新莊區"
"242032","347-TH","2019/09/10 20:29:35","新北市新莊區三和路13-21號","121.440471666667","25.0368416666667","6500500","新莊區"
"242037","348-TH","2019/09/10 20:29:40","新北市新莊區後港一路50號","121.426158333333","25.026335","6500500","新莊區"
"242009","349-TH","2019/09/10 20:29:42","新北市新莊區昌隆街76號","121.455518333333","25.0508866666667","6500500","新莊區"
"242034","350-TH","2019/09/10 20:29:42","新北市新莊區新泰路193號","121.44731","25.037905","6500500","新莊區"
"242019","351-TH","2019/09/10 20:29:24","新北市新莊區民樂街79號","121.457928333333","25.04293","6500500","新莊區"
"221008","489-VK","2019/09/10 20:29:43","新北市汐止區康寧街145號","121.621613333333","25.0664616666667","6501100","汐止區"
"221036","130-UY","2019/09/10 20:29:46","新北市汐止區新台五路二段116巷11號","121.66327","25.0656483333333","6501100","汐止區"
"221015","131-UY","2019/09/10 20:29:40","新北市汐止區建成路160巷16號","121.661903333333","25.0740283333333","6501100","汐止區"
"221010","269-BY","2019/09/10 20:29:29","新北市汐止區八連路二段162號","121.63347","25.0955416666667","6501100","汐止區"
"221023","279-VK","2019/09/10 20:29:45","新北市汐止區明峰街94-1號","121.63101","25.0711416666667","6501100","汐止區"
"221032","280-BY","2019/09/10 20:29:25","新北市汐止區弘道街53巷2號","121.618636666667","25.048525","6501100","汐止區"
"221027","281-BY","2019/09/10 20:29:29","新北市汐止區中正路214號","121.65835","25.0689366666667","6501100","汐止區"
"221029","298-VK","2019/09/10 20:29:45","新北市汐止區樟樹一路129巷34弄13號","121.640451666667","25.0650816666667","6501100","汐止區"
"221021","299-VK","2019/09/10 20:29:30","新北市汐止區水源路一段284號","121.654096666667","25.05828","6501100","汐止區"
"221031","353-TW","2019/09/10 20:29:44","新北市汐止區中興路150巷13號","121.633","25.06504","6501100","汐止區"
"221035","622-UM","2019/09/10 20:29:34","新北市汐止區長江街97號","121.65811","25.0728633333333","6501100","汐止區"
"221025","623-UM","2019/09/10 20:29:43","新北市汐止區水源路二段88巷1弄1號","121.656368333333","25.05587","6501100","汐止區"
"221038","646-BX","2019/09/10 20:29:40","新北市汐止區水源路一段72號","121.656686666667","25.0652066666667","6501100","汐止區"
"221033","647-BX","2019/09/10 20:29:35","新北市汐止區林森街73巷5號","121.623535","25.0409233333333","6501100","汐止區"
"221002","707-TV","2019/09/10 20:29:45","新北市汐止區福德二路114號","121.63202","25.0657483333333","6501100","汐止區"
"221018","753-BX","2019/09/10 20:24:16","新北市汐止區茄苳路229號","121.671095","25.0686816666667","6501100","汐止區"
"220083","286-VK","2019/09/10 20:29:36","新北市板橋區僑中二街102巷8號","121.445746666667","25.0084466666667","6500100","板橋區"
"220081","287-VK","2019/09/10 20:29:32","新北市板橋區大觀路二段121號","121.445853333333","25.0015233333333","6500100","板橋區"
"220084","296-UM","2019/09/10 20:29:41","新北市樹林區中山路三段210-2號","121.38071","24.9669016666667","6500100","板橋區"
"242011","280-VK","2019/09/10 20:29:37","新北市新莊區中義街39號","121.449838333333","25.0511416666667","6500500","新莊區"
"220021","833-TW","2019/09/10 20:05:24","新北市板橋區華東街1-10號","121.448625","24.9948066666667","6500100","板橋區"
"235026","KEA-2876","2019/09/10 20:02:56","新北市中和區員山路36巷16-3號","121.48505","24.991465","6500300","中和區"
