"lineid","car","time","location","longitude","latitude","cityid","cityname"
"251004","009-UM","2019/09/10 22:09:36","新北市淡水區民族路33號","121.462295","25.1358283333333","6501000","淡水區"
"251008","181-VK","2019/09/10 22:09:38","新北市淡水區學府路104號","121.44988","25.1717833333333","6501000","淡水區"
"251010","413-VK","2019/09/10 22:09:46","新北市淡水區沙崙路198號","121.424531666667","25.183775","6501000","淡水區"
"251007","442-VK","2019/09/10 22:09:29","新北市淡水區北新路184巷1號","121.4495","25.178625","6501000","淡水區"
"251005","443-VK","2019/09/10 22:09:29","新北市淡水區鄧公路29巷2-1號","121.451528333333","25.1699633333333","6501000","淡水區"
"251006","561-UM","2019/09/10 21:42:30","新北市淡水區中正路11巷3號","121.437885","25.1707433333333","6501000","淡水區"
"251011","650-BX","2019/09/10 22:09:48","新北市淡水區水碓街7號","121.4432","25.1771","6501000","淡水區"
"242017","173-VK","2019/09/10 21:57:59","新北市新莊區三和路12-21號","121.441811666667","25.0387183333333","6500500","新莊區"
