"lineid","car","time","location","longitude","latitude","cityid","cityname"
"251004","009-UM","2019/09/10 22:29:36","新北市淡水區民族路33號","121.462293333333","25.1357983333333","6501000","淡水區"
"251008","181-VK","2019/09/10 22:29:38","新北市淡水區學府路104號","121.449841666667","25.1717666666667","6501000","淡水區"
"251010","413-VK","2019/09/10 22:29:46","新北市淡水區沙崙路200號","121.424865","25.1840633333333","6501000","淡水區"
"251007","442-VK","2019/09/10 22:29:29","新北市淡水區北新路184巷1號","121.449496666667","25.17863","6501000","淡水區"
"251011","650-BX","2019/09/10 22:29:29","新北市淡水區水碓街7號","121.443213333333","25.1771083333333","6501000","淡水區"
