"lineid","car","time","location","longitude","latitude","cityid","cityname"
"234036","336-UY","2019/10/11 14:49:15","新北市板橋區長江路二段311巷18-1號","121.470125","25.0360233333333","6500400","永和區"
"234040","862-TW","2019/10/11 14:49:18","新北市三重區光復路二段143巷16號","121.473545","25.0610683333333","6500400","永和區"
"234025","9371-KE","2019/10/11 14:49:13","新北市永和區雙和街52巷1號","121.50905","25.0031883333333","6500400","永和區"
"248019","KED-0813","2019/10/11 14:49:33","新北市五股區中直路27號","121.421033333333","25.1140433333333","6501500","五股區"
"244004","248-BX","2019/10/11 14:49:17","新北市林口區南勢里34-8號","121.352285","25.0703066666667","6501700","林口區"
"231030","002-UM","2019/10/11 14:49:18","新北市新店區安民街341號","121.517101666667","24.975065","6500600","新店區"
"231027","0293-UT","2019/10/11 14:49:13","新北市新店區中正路334巷5號","121.536893333333","24.9753533333333","6500600","新店區"
"231005","046-UY","2019/10/11 14:49:19","新北市新店區復興路2號","121.532495","24.9882483333333","6500600","新店區"
"231029","106-UY","2019/10/11 14:49:24","新北市新店區安康路三段578-1號","121.481131666667","24.9487566666667","6500600","新店區"
"231018","107-UY","2019/10/11 14:49:12","新北市新店區中央路192號","121.530893333333","24.974785","6500600","新店區"
"231013","108-UY","2019/10/11 14:49:24","新北市新店區北新路二段61號","121.542705","24.9733216666667","6500600","新店區"
"231036","110-UY","2019/10/11 14:49:18","新北市新店區安祥路102巷32號","121.484163333333","24.963925","6500600","新店區"
"231039","187-VK","2019/10/11 14:49:29","新北市新店區安康路一段355-3號","121.519838333333","24.962675","6500600","新店區"
"231032","256-BX","2019/10/11 14:49:10","新北市新店區安康路三段90號","121.491781666667","24.9519416666667","6500600","新店區"
"231023","260-TV","2019/10/11 14:49:14","新北市新店區檳榔路150號","121.544203333333","24.96165","6500600","新店區"
"231003","268-BY","2019/10/11 14:49:30","新北市新店區中正路2號","121.545943333333","24.9693566666667","6500600","新店區"
"231016","AAD-862","2019/10/11 14:49:29","新北市新店區北宜路三段168號","121.58639","24.9517066666667","6500600","新店區"
"231006","355-BY","2019/10/11 14:49:27","新北市新店區北宜路二段15號","121.547811666667","24.9518833333333","6500600","新店區"
"231025","4715-K9","2019/10/11 14:49:33","新北市新店區建國路190號","121.537973333333","24.98042","6500600","新店區"
"231022","512-UM","2019/10/11 14:31:51","新北市新店區桂山路151號","121.567556666667","24.8873316666667","6500600","新店區"
"231035","515-UM","2019/10/11 14:49:14","新北市新店區安和路二段208號","121.518755","24.9756433333333","6500600","新店區"
"231002","619-UM","2019/10/11 14:49:27","新北市新店區民權路43號","121.54007","24.9827816666667","6500600","新店區"
"231034","641-BX","2019/10/11 14:49:19","新北市新店區安康路二段373號","121.49517","24.954685","6500600","新店區"
"231012","KED-0819","2019/10/11 14:49:20","新北市新店區寶橋路75號","121.545683333333","24.975235","6500600","新店區"
"231026","720-UM","2019/10/11 14:49:27","新北市新店區安康路一段355號","121.519861666667","24.962975","6500600","新店區"
"231028","897-TW","2019/10/11 14:49:26","新北市新店區安德街90號","121.509605","24.96109","6500600","新店區"
"231001","898-TW","2019/10/11 14:49:30","新北市新店區三民路2號","121.539721666667","24.97264","6500600","新店區"
"231004","899-TW","2019/10/11 14:49:33","新北市新店區民族路66號","121.539523333333","24.9782766666667","6500600","新店區"
"231037","AKT-0513","2019/10/11 14:49:12","新北市新店區柴埕路60巷1-1號","121.510111666667","24.96378","6500600","新店區"
"235030","003-UY","2019/10/11 14:49:26","新北市中和區南工路36號","121.505766666667","25.001125","6500300","中和區"
"235020","096-UM","2019/10/11 14:49:18","新北市中和區漢民路401號","121.472236666667","25.0072116666667","6500300","中和區"
"235003","097-UM","2019/10/11 14:49:22","新北市永和區中正路67巷2號","121.51462","24.9967866666667","6500300","中和區"
"235029","098-UM","2019/10/11 14:49:20","新北市中和區橋和路314號","121.497216666667","25.006985","6500300","中和區"
"235004","150-BY","2019/10/11 14:49:20","新北市中和區安和路39號","121.509665","24.9949166666667","6500300","中和區"
"235002","185-VK","2019/10/11 14:45:40","新北市中和區更生街5號","121.521678333333","24.9962216666667","6500300","中和區"
"235008","293-VK","2019/10/11 14:49:30","新北市中和區板南路100號","121.503831666667","24.9924833333333","6500300","中和區"
"235036","301-VK","2019/10/11 14:49:20","新北市中和區保平路340巷18號","121.506053333333","25.0045083333333","6500300","中和區"
"235007","352-BY","2019/10/11 14:49:25","新北市中和區興南路一段63-6號","121.510341666667","24.989585","6500300","中和區"
"235006","KEA-2878","2019/10/11 14:49:25","新北市新店區安民街379巷28號","121.515328333333","24.9761166666667","6500300","中和區"
"247015","KEA-2869","2019/10/11 14:49:30","新北市蘆洲區光華路155號","121.465458333333","25.0820966666667","6501400","蘆洲區"
"235014","4979-A6","2019/10/11 14:49:26","新北市中和區景平路241巷84弄54號","121.506113333333","24.9924166666667","6500300","中和區"
"235033","4980-A6","2019/10/11 14:49:19","新北市中和區景新街34巷2弄7號","121.50291","24.9988566666667","6500300","中和區"
"235034","558-UM","2019/10/11 14:49:27","新北市中和區圓通路123號","121.4992","24.99605","6500300","中和區"
"235045","565-BX","2019/10/11 14:42:24","新北市中和區員山路36巷13號","121.484205","24.9910016666667","6500300","中和區"
"235010","733-UM","2019/10/11 14:49:29","新北市中和區興南路一段63-6號","121.510333333333","24.98956","6500300","中和區"
"235005","802-TS","2019/10/11 14:49:25","新北市中和區宜安路96號","121.51061","24.9977316666667","6500300","中和區"
"235016","805-TS","2019/10/11 14:49:23","新北市中和區華新街144巷9號","121.507508333333","24.9831916666667","6500300","中和區"
"235012","896-TW","2019/10/11 14:49:19","新北市中和區忠孝街37巷4號","121.511261666667","24.9835633333333","6500300","中和區"
"235017","900-TW","2019/10/11 14:49:23","新北市中和區民德路136號","121.468745","25.000645","6500300","中和區"
"235015","157-BY","2019/10/11 14:49:14","新北市中和區復興路275號","121.502546666667","24.9902583333333","6500300","中和區"
"235001","AAC-213","2019/10/11 14:49:31","新北市中和區自立路99巷22弄1號","121.523356666667","24.9944383333333","6500300","中和區"
"235023","AAC-215","2019/10/11 14:49:24","新北市中和區圓通路367巷6號","121.4916","24.98937","6500300","中和區"
"220013","072-UY","2019/10/11 14:49:26","新北市板橋區國泰街39巷5弄2號","121.468553333333","25.0060266666667","6500100","板橋區"
"220105","075-UY","2019/10/11 14:49:20","新北市板橋區仁化街137號","121.477338333333","25.0329183333333","6500100","板橋區"
"220017","AAD-861","2019/10/11 14:49:14","新北市板橋區大明街15巷16號","121.458273333333","25.0022983333333","6500100","板橋區"
"247001","337-TH","2019/10/11 14:49:10","新北市蘆洲區永康街54號","121.459215","25.0861916666667","6501400","蘆洲區"
"235013","251-BX","2019/10/11 14:49:24","新北市中和區中正路2號","121.503235","24.9939433333333","6500300","中和區"
"207002","749-BX","2019/10/11 14:49:30","新北市萬里區崁腳里崁腳路73號","121.647625","25.1595916666667","6502800","萬里區"
"207001","662-BX","2019/10/11 14:49:14","新北市萬里區雙興里二坪路4號","121.648408333333","25.1781666666667","6502800","萬里區"
"237014","760-BX","2019/10/11 14:35:44","新北市三峽區中山路459巷135號","121.348863333333","24.9330883333333","6500900","三峽區"
"236040","KED-0685","2019/10/11 14:49:23","新北市土城區裕民路136巷8弄1號","121.450563333333","24.9852","6501300","土城區"
"236077","166-UM","2019/10/11 14:49:24","新北市土城區中央路四段125巷2弄2號","121.416583333333","24.9572033333333","6501300","土城區"
"236029","253-BX","2019/10/11 14:49:18","新北市土城區忠義路26巷10號","121.439873333333","24.9698966666667","6501300","土城區"
"236024","269-VK","2019/10/11 14:49:25","新北市土城區慶安街37號","121.441335","24.9732716666667","6501300","土城區"
"236013","270-VK","2019/10/11 14:49:11","新北市土城區金城路二段356號","121.460911666667","24.9845183333333","6501300","土城區"
"236032","271-VK","2019/10/11 14:49:12","新北市土城區明德路一段160號","121.463031666667","24.97848","6501300","土城區"
"236067","KEA-2877","2019/10/11 14:49:17","新北市土城區明德路一段371號","121.453158333333","24.9795116666667","6501300","土城區"
"236016","401-BY","2019/10/11 14:49:28","新北市土城區德峰街39號","121.467448333333","24.98559","6501300","土城區"
"236060","752-BX","2019/10/11 14:49:02","新北市土城區金城路三段207巷8弄8號","121.470231666667","24.9903616666667","6501300","土城區"
"236057","912-UM","2019/10/11 14:49:24","新北市土城區金城路二段28-6號","121.450735","24.9784066666667","6501300","土城區"
"236045","913-UM","2019/10/11 14:49:28","新北市板橋區廣權路2號","121.460163333333","24.9906666666667","6501300","土城區"
"236054","AAC-216","2019/10/11 14:49:30","新北市土城區裕民路108號","121.45079","24.986765","6501300","土城區"
"220027","145-BY","2019/10/11 14:49:32","新北市板橋區民權路202巷21弄1號","121.460623333333","25.0171933333333","6500100","板橋區"
"220030","610-BX","2019/10/11 14:49:31","新北市板橋區大觀路三段160巷36號","121.430023333333","24.9940783333333","6500100","板橋區"
"220040","267-BY","2019/10/11 14:49:27","新北市板橋區懷德街127巷9號","121.479091666667","25.0310466666667","6500100","板橋區"
"220004","276-BY","2019/10/11 14:49:33","新北市板橋區四川路二段47巷1弄2號","121.454155","24.9949733333333","6500100","板橋區"
"220020","277-BY","2019/10/11 14:49:31","新北市板橋區金門街151巷1號","121.432886666667","24.9905666666667","6500100","板橋區"
"220050","280-UM","2019/10/11 14:49:19","新北市板橋區萬板路378號","121.47839","25.0253616666667","6500100","板橋區"
"220019","283-VK","2019/10/11 14:49:28","新北市板橋區和平路174巷1弄7號","121.464283333333","24.9953516666667","6500100","板橋區"
"220043","285-UM","2019/10/11 14:49:18","新北市板橋區雨農路17巷1號","121.461978333333","25.024555","6500100","板橋區"
"220107","286-VK","2019/10/11 14:49:15","新北市板橋區僑中二街12巷14號","121.446205","25.0107683333333","6500100","板橋區"
"220029","287-VK","2019/10/11 14:49:19","新北市板橋區大觀路一段28巷113號","121.449833333333","25.01231","6500100","板橋區"
"220039","288-VK","2019/10/11 14:49:20","新北市板橋區新海路72巷34號","121.462333333333","25.0225133333333","6500100","板橋區"
"220009","293-UM","2019/10/11 14:49:15","新北市板橋區觀光街2-2號","121.472308333333","25.0154283333333","6500100","板橋區"
"220010","295-UM","2019/10/11 14:49:22","新北市板橋區光復街185號","121.484671666667","25.0209316666667","6500100","板橋區"
"220032","296-UM","2019/10/11 14:49:27","新北市板橋區溪崑二街111巷17號","121.427048333333","24.9884616666667","6500100","板橋區"
"220001","299-UM","2019/10/11 14:49:20","新北市板橋區中山路二段60巷1弄25號","121.475106666667","25.0157816666667","6500100","板橋區"
"220023","303-R5","2019/10/11 14:49:19","新北市板橋區南雅西路二段301巷50弄10-2號","121.452345","25.0170833333333","6500100","板橋區"
"220041","307-R5","2019/10/11 14:49:18","新北市板橋區裕民街145號","121.458736666667","25.02724","6500100","板橋區"
"220047","317-R6","2019/10/11 14:48:58","新北市板橋區四維路269巷62號","121.460766666667","25.0272883333333","6500100","板橋區"
"220038","487-VK","2019/10/11 14:49:24","新北市板橋區互助街100-2號","121.45998","25.02608","6500100","板橋區"
"220037","491-VK","2019/10/11 14:49:21","新北市板橋區文聖街151號","121.478661666667","25.0279766666667","6500100","板橋區"
"220104","560-BX","2019/10/11 14:49:18","新北市板橋區金華街115號","121.459151666667","25.0209","6500100","板橋區"
"220052","561-BX","2019/10/11 14:49:11","新北市板橋區雨農路10號","121.46223","25.0248216666667","6500100","板橋區"
"220028","568-UM","2019/10/11 14:49:21","新北市板橋區大觀路二段37巷11號","121.447485","25.0028366666667","6500100","板橋區"
"220011","609-BX","2019/10/11 14:49:12","新北市板橋區中山路二段318巷2弄2號","121.480395","25.019235","6500100","板橋區"
"220034","630-UY","2019/10/11 14:49:29","新北市板橋區國光路189號","121.4612","25.018595","6500100","板橋區"
"220005","686-BX","2019/10/11 14:49:20","新北市板橋區信義路51號","121.457046666667","24.99587","6500100","板橋區"
"220025","687-BX","2019/10/11 14:49:33","新北市板橋區僑中二街114巷1號","121.44572","25.006685","6500100","板橋區"
"220042","689-BX","2019/10/11 14:49:28","新北市板橋區長江路三段68號","121.473905","25.0341183333333","6500100","板橋區"
"220002","741-BX","2019/10/11 14:49:26","新北市板橋區國泰街75巷28弄66號","121.467193333333","25.0045033333333","6500100","板橋區"
"220051","KEA-2699","2019/10/11 14:49:18","新北市板橋區雙十路二段142號","121.473675","25.02919","6500100","板橋區"
"220003","827-TW","2019/10/11 14:49:25","新北市板橋區國慶路149巷27-4號","121.461041666667","24.9976566666667","6500100","板橋區"
"220016","830-TW","2019/10/11 14:45:52","新北市板橋區光復街52巷7號","121.482783333333","25.0178216666667","6500100","板橋區"
"220014","831-TW","2019/10/11 14:49:23","新北市板橋區漢生東路193巷73號","121.472496666667","25.0118933333333","6500100","板橋區"
"220022","895-R6","2019/10/11 14:49:21","新北市板橋區府中路29-2號","121.45858","25.0080716666667","6500100","板橋區"
"220021","985-R7","2019/10/11 14:49:31","新北市板橋區大仁街71號","121.453971666667","25.0162316666667","6500100","板橋區"
"220046","AAC-210","2019/10/11 14:49:33","新北市板橋區光正街16巷16號","121.463241666667","25.0174816666667","6500100","板橋區"
"220012","AAC-253","2019/10/11 14:49:20","新北市板橋區實踐路130號","121.464461666667","25.002865","6500100","板橋區"
"235032","KEA-2873","2019/10/11 14:49:28","新北市中和區福祥路5號","121.499393333333","25.00301","6500300","中和區"
"235026","KEA-2876","2019/10/11 14:49:30","新北市中和區中山路二段332巷5號","121.494328333333","25.0025866666667","6500300","中和區"
