"lineid","car","time","location","longitude","latitude","cityid","cityname"
"249005","172-UM","2019/10/11 16:59:19","新北市八里區渡船頭3-19號","121.433976666667","25.15181","6502300","八里區"
"249001","173-UM","2019/10/11 16:59:31","新北市八里區中山路三段106號","121.391066666667","25.142205","6502300","八里區"
"249004","303-UY","2019/10/11 16:59:25","新北市八里區博物館路23號","121.414933333333","25.1633933333333","6502300","八里區"
"249002","305-UY","2019/10/11 16:59:24","新北市八里區牛寮埔22號","121.432568333333","25.1425166666667","6502300","八里區"
"249003","593-UM","2019/10/11 16:59:33","新北市八里區中山路二段301號","121.401045","25.1481166666667","6502300","八里區"
"244007","080-UY","2019/10/11 16:59:28","新北市林口區中湖43-5號","121.38175","25.0923383333333","6501700","林口區"
"244025","837-TS","2019/10/11 16:59:12","新北市林口區粉寮69號","121.405095","25.0908133333333","6501700","林口區"
"244021","838-TS","2019/10/11 16:59:19","新北市林口區粉寮路二段30號","121.403038333333","25.0864516666667","6501700","林口區"
"231046","719-UM","2019/10/11 16:59:12","新北市新店區灣潭路29-3號","121.540173333333","24.9387","6500600","新店區"
"241011","013-R5","2019/10/11 16:59:18","新北市三重區仁愛街55巷96號","121.498323333333","25.072695","6500200","三重區"
"241028","022-UY","2019/10/11 16:59:13","新北市三重區中正南路41巷1號","121.4939","25.0599016666667","6500200","三重區"
"241008","059-VK","2019/10/11 16:59:30","新北市三重區永福街179巷42號","121.477333333333","25.0746966666667","6500200","三重區"
"241002","060-VK","2019/10/11 16:59:28","新北市三重區仁義街225巷40號","121.497751666667","25.0828816666667","6500200","三重區"
"241031","061-VK","2019/10/11 16:59:29","新北市三重區三寧街25號","121.48981","25.0600383333333","6500200","三重區"
"241015","062-VK","2019/10/11 16:59:31","新北市三重區福德北路82號","121.501653333333","25.0663016666667","6500200","三重區"
"241017","063-VK","2019/10/11 16:59:33","新北市三重區大仁街3巷27號","121.492438333333","25.0638183333333","6500200","三重區"
"241024","065-VK","2019/10/11 16:59:27","新北市三重區大勇街82巷15弄30號","121.481213333333","25.0718916666667","6500200","三重區"
"241007","066-VK","2019/10/11 16:59:26","新北市三重區三和路四段145巷147號","121.487446666667","25.0789466666667","6500200","三重區"
"241003","091-VK","2019/10/11 16:59:24","新北市三重區五華街141巷58號","121.493566666667","25.0868033333333","6500200","三重區"
"241006","262-UM","2019/10/11 16:59:19","新北市三重區車路頭街131巷28號","121.485581666667","25.07601","6500200","三重區"
"241016","266-UM","2019/10/11 16:59:27","新北市三重區大同北路126號","121.492958333333","25.0644183333333","6500200","三重區"
"241009","267-UM","2019/10/11 16:59:30","新北市三重區三和路四段215巷33-20號","121.483563333333","25.0802266666667","6500200","三重區"
"241018","268-UM","2019/10/11 16:59:21","新北市三重區民生東街6號","121.492631666667","25.0684783333333","6500200","三重區"
"241032","269-UM","2019/10/11 16:59:27","新北市三重區重陽路一段130巷18號","121.485971666667","25.060345","6500200","三重區"
"241013","270-UM","2019/10/11 16:59:19","新北市三重區仁福街64巷1號","121.498028333333","25.0747633333333","6500200","三重區"
"241025","271-UM","2019/10/11 16:59:19","新北市三重區中正北路510號","121.472608333333","25.0714633333333","6500200","三重區"
"241030","KED-0822","2019/10/11 16:59:14","新北市三重區成功路21號","121.490055","25.050425","6500200","三重區"
"241004","475-VK","2019/10/11 16:59:28","新北市三重區五華街96號","121.492575","25.082305","6500200","三重區"
"241020","478-VK","2019/10/11 16:59:27","新北市三重區國道路一段23號","121.485416666667","25.0732116666667","6500200","三重區"
"241014","543-UM","2019/10/11 16:59:18","新北市三重區三和路二段173巷149號","121.501203333333","25.070745","6500200","三重區"
"241023","545-UM","2019/10/11 16:59:29","新北市三重區忠孝路三段126號","121.48021","25.06372","6500200","三重區"
"241001","547-UM","2019/10/11 16:59:30","新北市三重區仁愛街245巷23號","121.494361666667","25.0784083333333","6500200","三重區"
"241019","KEA-2593","2019/10/11 16:59:29","新北市三重區力行路一段147號","121.485478333333","25.0686083333333","6500200","三重區"
"241005","AAD-863","2019/10/11 16:59:14","新北市三重區永安北路二段25巷27號","121.482766666667","25.0818933333333","6500200","三重區"
"241012","743-BX","2019/10/11 16:59:20","新北市三重區仁和街169號","121.50001","25.0747283333333","6500200","三重區"
"241022","KED-0820","2019/10/11 16:59:26","新北市三重區三民街157巷2號","121.483686666667","25.064545","6500200","三重區"
"241026","887-TS","2019/10/11 16:59:26","新北市三重區正義南路29號","121.498113333333","25.0611066666667","6500200","三重區"
"241029","942-UM","2019/10/11 16:59:31","新北市三重區同安街122-1號","121.493276666667","25.0559283333333","6500200","三重區"
"241033","AAC-255","2019/10/11 16:59:31","新北市三重區中興北街271號","121.469213333333","25.0606983333333","6500200","三重區"
"247016","KEA-2869","2019/10/11 16:59:30","新北市蘆洲區中正路67號","121.470306666667","25.0826733333333","6501400","蘆洲區"
"247020","546-UM","2019/10/11 16:59:24","新北市蘆洲區民族路422巷82弄2號","121.473596666667","25.0936733333333","6501400","蘆洲區"
"247006","341-TH","2019/10/11 16:59:19","新北市蘆洲區長安街99巷22號","121.46098","25.0800983333333","6501400","蘆洲區"
"247002","337-TH","2019/10/11 16:59:34","新北市蘆洲區永平街1號","121.459176666667","25.0905216666667","6501400","蘆洲區"
"247004","336-TH","2019/10/11 16:59:31","新北市蘆洲區長安街110號","121.461045","25.0815333333333","6501400","蘆洲區"
"247024","057-VK","2019/10/11 16:59:24","新北市蘆洲區光明路20號","121.461066666667","25.0865616666667","6501400","蘆洲區"
"247014","056-VK","2019/10/11 16:59:30","新北市蘆洲區中山二路10號","121.475383333333","25.0817583333333","6501400","蘆洲區"
"247018","053-VK","2019/10/11 16:59:28","新北市蘆洲區民族路304號","121.477555","25.0899166666667","6501400","蘆洲區"
"247022","007-UY","2019/10/11 16:59:20","新北市蘆洲區三民路128巷140號","121.468458333333","25.0924333333333","6501400","蘆洲區"
"247008","002-UY","2019/10/11 16:59:12","新北市蘆洲區中山一路197巷26號","121.475005","25.0799116666667","6501400","蘆洲區"
"228002","663-BX","2019/10/11 16:59:33","新北市貢寮區貢寮里朝陽街142號","121.906708333333","25.0227466666667","6502600","貢寮區"
"228003","828-UM","2019/10/11 16:59:20","新北市貢寮區福隆里興隆街15號","121.943843333333","25.0165","6502600","貢寮區"
"224006","676-BX","2019/10/11 16:59:32","新北市瑞芳區傑魚坑路314號","121.786801666667","25.10551","6501200","瑞芳區"
"224007","285-BY","2019/10/11 16:59:30","新北市瑞芳區楓子瀨路76號","121.762718333333","25.098445","6501200","瑞芳區"
"224009","275-VK","2019/10/11 16:59:19","新北市瑞芳區民權街3-1號","121.809456666667","25.1082616666667","6501200","瑞芳區"
"224008","273-VK","2019/10/11 16:59:12","新北市瑞芳區三爪子坑路64-36號","121.809045","25.105965","6501200","瑞芳區"
"224005","271-BY","2019/10/11 16:59:28","新北市瑞芳區洞頂路116號","121.861298333333","25.12305","6501200","瑞芳區"
"227002","642-TC","2019/10/11 16:59:20","新北市雙溪區上林里內平林90號","121.8278","25.0275816666667","6502500","雙溪區"
"227001","400-TW","2019/10/11 16:59:32","新北市雙溪區三貂里定福路31號","121.852091666667","25.0749566666667","6502500","雙溪區"
"251004","009-UM","2019/10/11 16:59:21","新北市淡水區中正路306-1號","121.437271666667","25.17231","6501000","淡水區"
"251005","010-UM","2019/10/11 16:59:13","新北市淡水區文化路1號","121.440176666667","25.17233","6501000","淡水區"
"251008","181-VK","2019/10/11 16:59:20","新北市淡水區樹梅坑9號","121.472801666667","25.142695","6501000","淡水區"
"251007","442-VK","2019/10/11 16:59:27","新北市淡水區中正路197號","121.438098333333","25.1715983333333","6501000","淡水區"
"251012","443-VK","2019/10/11 16:59:21","新北市淡水區中正路二段31號","121.419376666667","25.181675","6501000","淡水區"
"251001","559-UM","2019/10/11 16:59:21","新北市淡水區真理街4號","121.438411666667","25.1729683333333","6501000","淡水區"
"251006","561-UM","2019/10/11 16:59:31","新北市淡水區中正路253號","121.433351666667","25.1744533333333","6501000","淡水區"
"251011","650-BX","2019/10/11 16:59:29","新北市淡水區中山路1-1號","121.444301666667","25.169555","6501000","淡水區"
"252002","178-VK","2019/10/11 16:59:27","新北市三芝區忠孝街177號","121.505156666667","25.2617416666667","6502100","三芝區"
"247012","KED-0683","2019/10/11 16:59:25","新北市蘆洲區信義路296號","121.477666666667","25.08754","6501400","蘆洲區"
"252001","KED-0821","2019/10/11 16:59:13","新北市三芝區淡金路二段89-1號","121.503998333333","25.2608","6502100","三芝區"
"242041","AAC-296","2019/10/11 16:59:32","新北市新莊區新泰路357巷3弄57號","121.442205","25.0394466666667","6500500","新莊區"
"242005","751-BX","2019/10/11 16:59:22","新北市新莊區新泰路255巷83號","121.442268333333","25.038685","6500500","新莊區"
"242029","615-BX","2019/10/11 16:59:17","新北市新莊區新泰路357巷3弄57號","121.44201","25.0392683333333","6500500","新莊區"
"242027","613-BX","2019/10/11 16:59:19","新北市新莊區新泰路255巷83號","121.442226666667","25.0390933333333","6500500","新莊區"
"242002","441-UM","2019/10/11 16:59:19","新北市新莊區三和路12-21號","121.441813333333","25.0383133333333","6500500","新莊區"
"242044","415-TV","2019/10/11 16:59:25","新北市新莊區新泰路255巷83號","121.442155","25.0387916666667","6500500","新莊區"
"242050","400-BY","2019/10/11 16:59:21","新北市新莊區新泰路357巷3弄57號","121.442275","25.0396516666667","6500500","新莊區"
"242025","362-BY","2019/10/11 16:59:19","新北市新莊區新泰路255巷83號","121.442086666667","25.0390066666667","6500500","新莊區"
"242023","353-BY","2019/10/11 16:59:20","新北市新莊區新泰路357巷3弄57號","121.442005","25.0390633333333","6500500","新莊區"
"242017","173-VK","2019/10/11 16:59:25","新北市新莊區三和路12-21號","121.44203","25.0387083333333","6500500","新莊區"
"242021","KED-0687","2019/10/11 16:59:20","新北市新莊區三和路12-21號","121.442238333333","25.0381133333333","6500500","新莊區"
"242009","349-TH","2019/10/11 16:59:14","新北市新莊區三和路12-21號","121.442261666667","25.0385933333333","6500500","新莊區"
"242019","351-TH","2019/10/11 16:59:16","新北市新莊區新泰路357巷3弄57號","121.442043333333","25.0394683333333","6500500","新莊區"
"238023","601-UM","2019/10/11 16:59:14","新北市樹林區佳園路一段75巷14號","121.39794","24.971535","6500700","樹林區"
"238017","283-BY","2019/10/11 16:59:30","新北市樹林區八德街820號","121.394716666667","24.9686916666667","6500700","樹林區"
"239007","AAC-297","2019/10/11 16:59:14","新北市鶯歌區二甲路13-16號","121.345115","24.9351266666667","6500800","鶯歌區"
"239008","527-UM","2019/10/11 16:59:14","新北市鶯歌區二甲路13-16號","121.345115","24.935075","6500800","鶯歌區"
"233001","KEA-2870","2019/10/11 16:59:18","新北市烏來區烏來街79-1號","121.551838333333","24.86449","6502900","烏來區"
"242046","281-VK","2019/10/11 16:59:30","新北市新莊區三和路12-21號","121.442305","25.0382283333333","6500500","新莊區"
"242011","280-VK","2019/10/11 16:59:19","新北市新莊區三和路12-21號","121.441998333333","25.0382883333333","6500500","新莊區"
