"lineid","car","time","location","longitude","latitude","cityid","cityname"
"234026","9371-KE","2019/10/11 17:59:25","新北市永和區水源街2巷5-1號","121.51231","25.005445","6500400","永和區"
"249005","172-UM","2019/10/11 17:59:19","新北市八里區荖阡坑路16號","121.3978","25.138335","6502300","八里區"
"249001","173-UM","2019/10/11 17:59:31","新北市八里區龍米路二段35號","121.448418333333","25.1400583333333","6502300","八里區"
"249004","303-UY","2019/10/11 17:59:25","新北市八里區中山路一段10號","121.423333333333","25.158965","6502300","八里區"
"249002","305-UY","2019/10/11 17:59:24","新北市八里區龍形五街13號","121.45031","25.13358","6502300","八里區"
"249003","593-UM","2019/10/11 17:59:12","新北市八里區中華路二段165巷3號","121.407661666667","25.1508433333333","6502300","八里區"
"248006","077-UY","2019/10/11 17:59:18","新北市五股區中興路二段147-1號","121.458293333333","25.077855","6501500","五股區"
"248008","KED-0815","2019/10/11 17:59:31","新北市五股區中興路二段150號","121.458636666667","25.0785466666667","6501500","五股區"
"248018","KED-0813","2019/10/11 17:59:32","新北市五股區中興路二段63巷17號","121.460251666667","25.0753866666667","6501500","五股區"
"232011","375-UM","2019/10/11 17:59:24","新北市坪林區北宜路八段227號","121.70898","24.9349966666667","6502000","坪林區"
"244007","080-UY","2019/10/11 17:59:28","新北市林口區林口路124巷8號","121.388925","25.0818433333333","6501700","林口區"
"244013","KEA-2802","2019/10/11 17:59:17","新北市林口區中山路130號","121.392221666667","25.0786433333333","6501700","林口區"
"244023","483-VK","2019/10/11 17:59:17","新北市林口區東湖路41巷18號","121.386301666667","25.07317","6501700","林口區"
"244017","485-VK","2019/10/11 17:59:20","新北市林口區忠孝路490號","121.370408333333","25.0703666666667","6501700","林口區"
"244009","656-BX","2019/10/11 17:59:27","新北市林口區福林路52巷32號","121.38009","25.089665","6501700","林口區"
"244011","701-TV","2019/10/11 17:59:19","新北市林口區中山路11號","121.396205","25.0782066666667","6501700","林口區"
"244025","837-TS","2019/10/11 17:59:31","新北市林口區文化三路一段39巷179號","121.359165","25.067625","6501700","林口區"
"244021","838-TS","2019/10/11 17:59:19","新北市林口區粉寮路一段1號","121.396295","25.0757983333333","6501700","林口區"
"243013","646-TV","2019/10/11 17:59:31","新北市泰山區黎明路25號","121.422071666667","25.0606783333333","6501600","泰山區"
"222003","436-BY","2019/10/11 17:59:25","新北市深坑區炮子崙23號","121.607213333333","24.9909533333333","6501800","深坑區"
"222002","659-BX","2019/10/11 17:59:26","新北市深坑區深坑街43號","121.615628333333","25.00149","6501800","深坑區"
"221008","KEA-2785","2019/10/11 17:59:18","新北市汐止區康寧街753巷2弄12號","121.639501666667","25.0740516666667","6501100","汐止區"
"231040","898-TW","2019/10/11 17:59:23","新北市新店區安華路28-1號","121.519466666667","24.96089","6500600","新店區"
"241017","063-VK","2019/10/11 17:59:33","新北市八里區商港路120號","121.39298","25.1499216666667","6500200","三重區"
"241024","065-VK","2019/10/11 17:59:27","新北市三重區中正北路193巷35弄80號","121.478701666667","25.0714816666667","6500200","三重區"
"241033","AAC-255","2019/10/11 17:59:11","新北市三重區中興北街42巷9號","121.469658333333","25.04943","6500200","三重區"
"235063","006-UY","2019/10/11 17:59:25","新北市中和區員山路36巷16-3號","121.485","24.991355","6500300","中和區"
"235056","096-UM","2019/10/11 17:59:20","新北市中和區員山路36巷16-3號","121.484596666667","24.9910266666667","6500300","中和區"
"235065","098-UM","2019/10/11 17:59:20","新北市中和區中山路二段478號","121.487923333333","25.0048266666667","6500300","中和區"
"235058","151-BY","2019/10/11 17:59:28","新北市中和區圓通路367巷33弄22號","121.49417","24.9847916666667","6500300","中和區"
"235038","185-VK","2019/10/11 17:59:21","新北市中和區圓通路141巷48弄15號","121.498091666667","24.9937816666667","6500300","中和區"
"235043","352-BY","2019/10/11 17:59:22","新北市中和區員山路36巷16-3號","121.485115","24.991335","6500300","中和區"
"235042","KEA-2878","2019/10/11 17:59:33","新北市中和區景平路287號","121.50732","24.993145","6500300","中和區"
"247016","KEA-2869","2019/10/11 17:59:30","新北市蘆洲區光華路110巷34號","121.466016666667","25.0841416666667","6501400","蘆洲區"
"235070","558-UM","2019/10/11 17:59:27","新北市中和區錦和路350-1號","121.490058333333","24.993515","6500300","中和區"
"235045","565-BX","2019/10/11 17:59:21","新北市中和區中正路466號","121.490025","24.9940566666667","6500300","中和區"
"235054","640-BX","2019/10/11 17:59:22","新北市中和區連城路607號","121.478553333333","24.993155","6500300","中和區"
"235057","801-TS","2019/10/11 17:59:09","新北市中和區員山路243號","121.481245","24.99837","6500300","中和區"
"235053","900-TW","2019/10/11 17:59:25","新北市中和區員山路36巷16-2號","121.485345","24.99137","6500300","中和區"
"235064","911-UM","2019/10/11 17:59:22","新北市中和區錦和路350-1號","121.490531666667","24.99357","6500300","中和區"
"235051","157-BY","2019/10/11 17:59:25","新北市中和區錦和路350-1號","121.49024","24.99353","6500300","中和區"
"235037","AAC-213","2019/10/11 17:59:27","新北市中和區景平路155號","121.513673333333","24.9922","6500300","中和區"
"247006","341-TH","2019/10/11 17:59:19","新北市蘆洲區中華街24號","121.462863333333","25.081315","6501400","蘆洲區"
"247002","337-TH","2019/10/11 17:59:14","新北市蘆洲區永平街32巷57弄20號","121.458993333333","25.0932433333333","6501400","蘆洲區"
"247014","056-VK","2019/10/11 17:59:30","新北市蘆洲區忠孝路45號","121.47128","25.0861083333333","6501400","蘆洲區"
"247018","053-VK","2019/10/11 17:59:28","新北市蘆洲區復興路216號","121.478938333333","25.0892666666667","6501400","蘆洲區"
"247008","002-UY","2019/10/11 17:59:12","新北市蘆洲區成功路43號","121.47282","25.0798633333333","6501400","蘆洲區"
"226004","312-R5","2019/10/11 17:59:24","新北市平溪區石底里公園街18-3號","121.733395","25.02574","6502400","平溪區"
"228001","212-TW","2019/10/11 17:59:26","新北市貢寮區真理里新港街26巷53號","121.928506666667","25.0536083333333","6502600","貢寮區"
"228002","663-BX","2019/10/11 17:59:20","新北市貢寮區福隆里桂安街3-1號","121.962596666667","25.0207716666667","6502600","貢寮區"
"228003","828-UM","2019/10/11 17:59:20","新北市貢寮區真理里美艷山街6-2號","121.928808333333","25.060755","6502600","貢寮區"
"224006","676-BX","2019/10/11 17:59:32","新北市瑞芳區傑魚坑路181-1號","121.788598333333","25.1082483333333","6501200","瑞芳區"
"224007","285-BY","2019/10/11 17:59:30","新北市瑞芳區大寮路84號","121.780303333333","25.1012833333333","6501200","瑞芳區"
"224009","275-VK","2019/10/11 17:58:19","新北市瑞芳區汽車路95號","121.842715","25.1094116666667","6501200","瑞芳區"
"224008","273-VK","2019/10/11 17:59:32","新北市瑞芳區明燈路一段131號","121.820096666667","25.1070866666667","6501200","瑞芳區"
"224005","271-BY","2019/10/11 17:59:28","新北市瑞芳區南雅路1號","121.893796666667","25.1195316666667","6501200","瑞芳區"
"227001","400-TW","2019/10/11 17:59:32","新北市雙溪區三貂里政光路3-1號","121.85079","25.0634133333333","6502500","雙溪區"
"253005","032-BX","2019/10/11 17:59:17","新北市石門區中山路62-7號","121.56735","25.2902283333333","6502200","石門區"
"253006","295-VK","2019/10/11 17:59:11","新北市石門區大丘田45-2號","121.54981","25.27483","6502200","石門區"
"208002","KEA-2872","2019/10/11 17:59:26","新北市金山區三界壇路71號","121.625651666667","25.228425","6502700","金山區"
"208003","665-BX","2019/10/11 17:59:23","新北市金山區磺港里磺港路202-1號","121.64514","25.2274966666667","6502700","金山區"
"251004","009-UM","2019/10/11 17:59:22","新北市淡水區民權路82號","121.459198333333","25.1336216666667","6501000","淡水區"
"251005","010-UM","2019/10/11 17:59:15","新北市淡水區英專路127-1號","121.446326666667","25.1727566666667","6501000","淡水區"
"251008","181-VK","2019/10/11 17:59:29","新北市淡水區八勢一街32巷1號","121.46185","25.1556766666667","6501000","淡水區"
"251010","413-VK","2019/10/11 17:59:33","新北市淡水區中正路一段87巷13弄1號","121.420791666667","25.17858","6501000","淡水區"
"251012","443-VK","2019/10/11 17:59:21","新北市淡水區北新路三段34號","121.483786666667","25.1867066666667","6501000","淡水區"
"251001","559-UM","2019/10/11 17:59:15","新北市淡水區民權路94巷1號","121.463085","25.1248066666667","6501000","淡水區"
"251006","561-UM","2019/10/11 17:59:31","新北市淡水區新生街19號","121.438868333333","25.1736316666667","6501000","淡水區"
"251009","575-R6","2019/10/11 17:59:30","新北市淡水區原德路20號","121.44231","25.17172","6501000","淡水區"
"251011","650-BX","2019/10/11 17:59:29","新北市淡水區吳(仔)厝25號","121.479448333333","25.1490166666667","6501000","淡水區"
"251002","672-BX","2019/10/11 17:59:12","新北市淡水區原德路5號","121.441975","25.17117","6501000","淡水區"
"251003","766-UM","2019/10/11 17:59:22","新北市淡水區大忠街45號","121.444633333333","25.17639","6501000","淡水區"
"207003","550-UM","2019/10/11 17:59:29","新北市萬里區野柳里東澳路31-4號","121.692026666667","25.2033783333333","6502800","萬里區"
"207004","291-VK","2019/10/11 17:59:19","新北市萬里區萬里里瑪鋉路5號","121.686118333333","25.1749716666667","6502800","萬里區"
"252002","178-VK","2019/10/11 17:59:27","新北市三芝區中山路二段39號","121.502948333333","25.2550916666667","6502100","三芝區"
"252003","249-BX","2019/10/11 17:59:23","新北市三芝區埔坪里埔頭坑41號","121.504591666667","25.2646066666667","6502100","三芝區"
"208001","170-UY","2019/10/11 17:59:21","新北市金山區磺港里磺港路248號","121.64396","25.2251333333333","6502700","金山區"
"237004","KEA-2597","2019/10/11 17:59:14","新北市三峽區中園街147號","121.367311666667","24.9230083333333","6500900","三峽區"
"237007","153-BY","2019/10/11 17:59:31","新北市三峽區中園街171號","121.367133333333","24.9218066666667","6500900","三峽區"
"237009","210-TH","2019/10/11 17:59:21","新北市三峽區文化路195號","121.366616666667","24.9356816666667","6500900","三峽區"
"237013","252-BX","2019/10/11 17:59:32","新北市三峽區介壽路一段69號","121.375676666667","24.9325083333333","6500900","三峽區"
"237012","275-BY","2019/10/11 17:59:20","新北市三峽區民生街27巷30號","121.376051666667","24.936135","6500900","三峽區"
"237008","302-VK","2019/10/11 17:59:23","新北市三峽區正義街153號","121.368258333333","24.91542","6500900","三峽區"
"237014","433-BY","2019/10/11 17:59:23","新北市三峽區復興路101巷1弄79號","121.370951666667","24.937695","6500900","三峽區"
"237006","5529-G3","2019/10/11 17:59:27","新北市三峽區介壽路二段136巷45弄33號","121.394183333333","24.9332583333333","6500900","三峽區"
"237011","KEA-2596","2019/10/11 17:59:29","新北市三峽區大同路41號","121.37642","24.9280716666667","6500900","三峽區"
"237015","649-BX","2019/10/11 17:59:21","新北市三峽區紫微路68-8號","121.412848333333","24.9160983333333","6500900","三峽區"
"237010","706-TV","2019/10/11 17:59:28","新北市三峽區中山路58號","121.368305","24.9345166666667","6500900","三峽區"
"237005","AKY-6261","2019/10/11 17:59:17","新北市三峽區復興路237巷38號","121.368883333333","24.9378316666667","6500900","三峽區"
"236042","KED-0685","2019/10/11 17:59:33","新北市土城區城林路6巷80號","121.43853","24.979625","6501300","土城區"
"236079","166-UM","2019/10/11 17:59:12","新北市土城區永寧路32巷10弄1號","121.428988333333","24.9609283333333","6501300","土城區"
"236030","253-BX","2019/10/11 17:59:23","新北市土城區城林路6巷80號","121.438618333333","24.9796516666667","6501300","土城區"
"236026","269-VK","2019/10/11 17:59:01","新北市土城區中央路三段96-1號","121.435716666667","24.96652","6501300","土城區"
"236014","270-VK","2019/10/11 17:59:30","新北市土城區城林路6巷80號","121.438408333333","24.9796233333333","6501300","土城區"
"236039","271-VK","2019/10/11 17:59:21","新北市土城區中正路75號","121.444888333333","24.9756333333333","6501300","土城區"
"247012","KED-0683","2019/10/11 17:59:25","新北市蘆洲區民族路171號","121.479235","25.0883866666667","6501400","蘆洲區"
"236069","KEA-2877","2019/10/11 17:59:17","新北市土城區員福街54號","121.440316666667","24.979205","6501300","土城區"
"252001","KED-0821","2019/10/11 17:59:33","新北市三芝區中興街二段2號","121.49835","25.2566033333333","6502100","三芝區"
"236020","401-BY","2019/10/11 17:59:17","新北市土城區城林路6巷80號","121.438468333333","24.9797366666667","6501300","土城區"
"236063","752-BX","2019/10/11 17:59:25","新北市土城區城林路6巷80號","121.438795","24.979695","6501300","土城區"
"236059","912-UM","2019/10/11 17:59:26","新北市土城區中央路三段282號","121.426681666667","24.963655","6501300","土城區"
"236048","913-UM","2019/10/11 17:59:27","新北市土城區城林路6巷80號","121.438586666667","24.9797483333333","6501300","土城區"
"236055","AAC-216","2019/10/11 17:59:17","新北市土城區城林路6巷80號","121.438566666667","24.9796316666667","6501300","土城區"
"242041","AAC-296","2019/10/11 17:59:32","新北市新莊區丹鳳街36號","121.421581666667","25.0295766666667","6500500","新莊區"
"242060","986-R7","2019/10/11 17:59:27","新北市新莊區新樹路329號","121.433178333333","25.0188716666667","6500500","新莊區"
"242005","751-BX","2019/10/11 17:59:22","新北市新莊區思源路177巷35號","121.4592","25.0467633333333","6500500","新莊區"
"242029","615-BX","2019/10/11 17:59:17","新北市新莊區中平路110巷34號","121.446365","25.04599","6500500","新莊區"
"242027","613-BX","2019/10/11 17:59:20","新北市新莊區思源路377號","121.459901666667","25.0511916666667","6500500","新莊區"
"242058","612-BX","2019/10/11 17:59:20","新北市新莊區雙鳳路134巷8號","121.412745","25.02811","6500500","新莊區"
"242048","566-BX","2019/10/11 17:59:19","新北市新莊區萬安街114號","121.420486666667","25.0220966666667","6500500","新莊區"
"242054","497-BY","2019/10/11 17:59:17","新北市新莊區民安西路363號","121.428481666667","25.010445","6500500","新莊區"
"242002","441-UM","2019/10/11 17:59:22","新北市新莊區中正路163號","121.455113333333","25.0366233333333","6500500","新莊區"
"242007","440-UM","2019/10/11 17:59:29","新北市新莊區自信街65巷16號","121.455516666667","25.048855","6500500","新莊區"
"242044","415-TV","2019/10/11 17:59:31","新北市新莊區雙鳳路115號","121.413698333333","25.0280433333333","6500500","新莊區"
"242013","413-TV","2019/10/11 17:59:16","新北市新莊區中和街125巷1號","121.447173333333","25.0485483333333","6500500","新莊區"
"242050","400-BY","2019/10/11 17:59:21","新北市新莊區民安西路155巷7弄19號","121.426605","25.017025","6500500","新莊區"
"242025","362-BY","2019/10/11 17:59:19","新北市新莊區五工路86號","121.45727","25.064045","6500500","新莊區"
"242023","353-BY","2019/10/11 17:59:20","新北市新莊區福壽街68號","121.45826","25.0492066666667","6500500","新莊區"
"242015","132-UY","2019/10/11 17:59:26","新北市新莊區中平路119巷16號","121.444093333333","25.0467766666667","6500500","新莊區"
"242039","135-UY","2019/10/11 17:59:21","新北市新莊區民安西路88巷12弄2號","121.425961666667","25.0200316666667","6500500","新莊區"
"242056","172-VK","2019/10/11 17:59:31","新北市新莊區豐年街124巷18號","121.445458333333","25.0298966666667","6500500","新莊區"
"242017","173-VK","2019/10/11 17:59:29","新北市新莊區中和街60巷35號","121.449496666667","25.0449666666667","6500500","新莊區"
"242032","175-VK","2019/10/11 17:59:27","新北市新莊區新泰路305巷4號","121.444896666667","25.0410266666667","6500500","新莊區"
"242021","KED-0687","2019/10/11 17:59:20","新北市新莊區建中街2號","121.449911666667","25.0375616666667","6500500","新莊區"
"242037","347-TH","2019/10/11 17:59:24","新北市新莊區建福路28號","121.426318333333","25.0287","6500500","新莊區"
"242009","349-TH","2019/10/11 17:59:14","新北市新莊區中原路189-1號","121.45248","25.05433","6500500","新莊區"
"242034","350-TH","2019/10/11 17:59:25","新北市新莊區福海街14號","121.445303333333","25.0336983333333","6500500","新莊區"
"242019","351-TH","2019/10/11 17:59:16","新北市新莊區明中街51巷13號","121.456453333333","25.039245","6500500","新莊區"
"238015","755-BX","2019/10/11 17:59:28","新北市樹林區大安路307巷1弄2號","121.418303333333","24.9921116666667","6500700","樹林區"
"238023","601-UM","2019/10/11 17:59:14","新北市樹林區龍興街52號","121.403133333333","25.0154266666667","6500700","樹林區"
"238019","599-UM","2019/10/11 17:59:21","新北市樹林區太平路148號","121.418558333333","24.9780783333333","6500700","樹林區"
"238018","KEA-2217","2019/10/11 17:59:27","新北市樹林區中正路243號","121.430143333333","24.9985516666667","6500700","樹林區"
"238022","KEA-2213","2019/10/11 17:59:14","新北市樹林區太順街68號","121.417705","24.9792","6500700","樹林區"
"238021","KEA-2539","2019/10/11 17:59:31","新北市樹林區柑園街二段9號","121.388066666667","24.9558033333333","6500700","樹林區"
"238025","303-VK","2019/10/11 17:59:20","新北市樹林區三俊街70號","121.4131","25.0157133333333","6500700","樹林區"
"238017","283-BY","2019/10/11 17:59:30","新北市樹林區中正路791號","121.409805","25.0161583333333","6500700","樹林區"
"238014","282-BY","2019/10/11 17:59:16","新北市樹林區中正路45巷10號","121.426523333333","24.9993183333333","6500700","樹林區"
"238020","268-VK","2019/10/11 17:59:18","新北市樹林區三俊街199巷35-3號","121.420886666667","25.0182683333333","6500700","樹林區"
"238026","172-UY","2019/10/11 17:59:31","新北市樹林區中洲街51巷6號","121.396681666667","24.9710016666667","6500700","樹林區"
"238016","169-UY","2019/10/11 17:59:23","新北市樹林區啟智街137巷2號","121.417216666667","24.98826","6500700","樹林區"
"239007","AAC-297","2019/10/11 17:59:34","新北市鶯歌區鶯桃路94巷33-2號","121.341978333333","24.9548333333333","6500800","鶯歌區"
"239006","891-R6","2019/10/11 17:59:21","新北市鶯歌區鶯桃路413巷78弄8-1號","121.329645","24.9632733333333","6500800","鶯歌區"
"239008","527-UM","2019/10/11 17:59:14","新北市鶯歌區香賓街21號","121.337445","24.9796833333333","6500800","鶯歌區"
"239005","526-UM","2019/10/11 17:59:28","新北市鶯歌區鶯桃路668巷74-1號","121.32994","24.97172","6500800","鶯歌區"
"239001","417-VK","2019/10/11 17:59:27","新北市鶯歌區中正三路387號","121.326676666667","24.93448","6500800","鶯歌區"
"239003","360-BY","2019/10/11 17:59:25","新北市鶯歌區鶯桃路334號","121.333958333333","24.962135","6500800","鶯歌區"
"239002","359-BY","2019/10/11 17:59:16","新北市鶯歌區國華路58號","121.342803333333","24.95456","6500800","鶯歌區"
"239004","193-VK","2019/10/11 17:59:21","新北市鶯歌區尖山路88號","121.348621666667","24.9494866666667","6500800","鶯歌區"
"244019","KED-0667","2019/10/11 17:59:29","新北市林口區麗園路62-1號","121.373138333333","25.069415","6501700","林口區"
"221010","269-BY","2019/10/11 17:59:29","新北市汐止區汐萬路二段275巷1弄25號","121.646363333333","25.08819","6501100","汐止區"
"221023","279-VK","2019/10/11 17:59:33","新北市汐止區明峰街72號","121.631588333333","25.0711566666667","6501100","汐止區"
"221029","298-VK","2019/10/11 17:56:19","新北市汐止區樟樹二路341號","121.641945","25.0728133333333","6501100","汐止區"
"221031","353-TW","2019/10/11 17:59:27","新北市汐止區中興路96巷2號","121.635195","25.0624833333333","6501100","汐止區"
"221035","622-UM","2019/10/11 17:59:18","新北市汐止區汐萬路一段211巷15號","121.65134","25.07176","6501100","汐止區"
"221025","623-UM","2019/10/11 17:59:18","新北市汐止區新台五路一段266號","121.65915","25.0638833333333","6501100","汐止區"
"221038","646-BX","2019/10/11 17:59:16","新北市汐止區新台五路一段152號","121.653511666667","25.062175","6501100","汐止區"
"221033","647-BX","2019/10/11 17:59:17","新北市汐止區合順街39巷2號","121.620775","25.0433216666667","6501100","汐止區"
"221018","753-BX","2019/10/11 17:59:15","新北市汐止區忠孝東路339巷10號","121.664143333333","25.07017","6501100","汐止區"
"233001","KEA-2870","2019/10/11 17:59:29","新北市烏來區環山路18號","121.549313333333","24.86842","6502900","烏來區"
"224002","257-TC","2019/10/11 17:59:30","新北市瑞芳區三爪子坑路32巷1號","121.810256666667","25.10606","6501200","瑞芳區"
"242046","281-VK","2019/10/11 17:59:29","新北市新莊區福營路197號","121.431048333333","25.0304316666667","6500500","新莊區"
"242011","280-VK","2019/10/11 17:59:19","新北市新莊區中原路235巷1弄6號","121.449925","25.053955","6500500","新莊區"
"220073","985-R7","2019/10/11 17:52:57","新北市板橋區華東街1-10號","121.448293333333","24.9949483333333","6500100","板橋區"
"235068","KEA-2873","2019/10/11 17:59:25","新北市中和區員山路36巷16-3號","121.485106666667","24.9911966666667","6500300","中和區"
"235061","KEA-2875","2019/10/11 17:59:14","新北市中和區員山路72號","121.481003333333","24.9935766666667","6500300","中和區"
"235062","KEA-2876","2019/10/11 17:59:21","新北市中和區民樂路67號","121.48403","25.0013083333333","6500300","中和區"
