"lineid","car","time","location","longitude","latitude","cityid","cityname"
"234026","9371-KE","2019/10/11 18:19:15","新北市永和區大新街37巷3號","121.515281666667","25.0088416666667","6500400","永和區"
"234011","9373-KE","2019/10/11 18:19:16","新北市永和區環河東路二段36號","121.522773333333","25.012565","6500400","永和區"
"249005","172-UM","2019/10/11 18:19:19","新北市八里區荖阡坑路15-40號","121.401696666667","25.139915","6502300","八里區"
"249001","173-UM","2019/10/11 18:19:31","新北市八里區龍米路一段222號","121.451848333333","25.1284233333333","6502300","八里區"
"249004","303-UY","2019/10/11 18:19:25","新北市八里區龍米路二段200巷1號","121.433458333333","25.1587133333333","6502300","八里區"
"249002","305-UY","2019/10/11 18:19:24","新北市八里區龍形二街48號","121.450458333333","25.1329516666667","6502300","八里區"
"249003","593-UM","2019/10/11 18:19:12","新北市八里區中華路一段407號","121.410788333333","25.1526783333333","6502300","八里區"
"248014","025-BX","2019/10/11 18:19:29","新北市五股區自強路90巷17號","121.43224","25.0721116666667","6501500","五股區"
"248016","026-BX","2019/10/11 18:19:32","新北市五股區西雲路290號","121.449811666667","25.0990366666667","6501500","五股區"
"248006","077-UY","2019/10/11 18:19:18","新北市五股區中興路一段91號","121.466796666667","25.0729616666667","6501500","五股區"
"248008","KED-0815","2019/10/11 18:19:31","新北市五股區更洲路32巷8弄14號","121.45922","25.0796183333333","6501500","五股區"
"248018","KED-0813","2019/10/11 18:19:32","新北市五股區御史路160號","121.430785","25.10327","6501500","五股區"
"248012","247-BX","2019/10/11 18:19:31","新北市五股區御史路1巷101弄2號","121.440923333333","25.0911983333333","6501500","五股區"
"248010","272-BY","2019/10/11 18:19:16","新北市五股區成泰路一段126號","121.435245","25.074335","6501500","五股區"
"248004","677-BX","2019/10/11 18:19:20","新北市五股區成泰路二段204號","121.438938333333","25.0851316666667","6501500","五股區"
"248002","678-BX","2019/10/11 18:19:17","新北市五股區西雲路46號","121.443466666667","25.090865","6501500","五股區"
"232011","375-UM","2019/10/11 18:19:23","新北市坪林區坪雙路一段41號","121.711703333333","24.942465","6502000","坪林區"
"244007","080-UY","2019/10/11 18:19:28","新北市林口區後湖1-5號","121.388118333333","25.0968116666667","6501700","林口區"
"244013","KEA-2802","2019/10/11 18:19:17","新北市林口區文化一路二段188號","121.382788333333","25.0802783333333","6501700","林口區"
"244023","483-VK","2019/10/11 18:19:17","新北市林口區東湖路214號","121.382856666667","25.073715","6501700","林口區"
"244017","485-VK","2019/10/11 18:19:20","新北市林口區公園路17號","121.366661666667","25.0674683333333","6501700","林口區"
"244009","656-BX","2019/10/11 18:19:27","新北市林口區寶林路40號","121.385655","25.0842416666667","6501700","林口區"
"244011","701-TV","2019/10/11 18:19:19","新北市林口區中正路103號","121.394031666667","25.0772483333333","6501700","林口區"
"244025","837-TS","2019/10/11 18:19:12","新北市林口區南勢六街18號","121.357045","25.0706433333333","6501700","林口區"
"244021","838-TS","2019/10/11 18:19:21","新北市林口區自強三街11號","121.397531666667","25.0778466666667","6501700","林口區"
"243013","646-TV","2019/10/11 18:19:31","新北市泰山區南林路93號","121.415496666667","25.0511566666667","6501600","泰山區"
"222003","436-BY","2019/10/11 18:19:25","新北市深坑區旺耽路67號","121.626166666667","25.0029833333333","6501800","深坑區"
"222002","659-BX","2019/10/11 18:19:27","新北市深坑區雲鄉路41號","121.622036666667","24.9994633333333","6501800","深坑區"
"231061","002-UM","2019/10/11 18:19:14","新北市新店區安華路28-1號","121.519658333333","24.9608833333333","6500600","新店區"
"231055","0291-UT","2019/10/11 18:19:17","新北市新店區安康路一段107-2號","121.528715","24.961655","6500600","新店區"
"231058","0293-UT","2019/10/11 18:19:19","新北市新店區安康路一段35號","121.531806666667","24.9606533333333","6500600","新店區"
"231044","046-UY","2019/10/11 18:19:33","新北市新店區安華路28-1號","121.519453333333","24.9609033333333","6500600","新店區"
"231060","106-UY","2019/10/11 18:19:17","新北市新店區安華路28-1號","121.519643333333","24.9608816666667","6500600","新店區"
"231051","107-UY","2019/10/11 18:19:14","新北市新店區安一路一段1-1號","121.519818333333","24.96116","6500600","新店區"
"231065","110-UY","2019/10/11 18:19:12","新北市新店區安一路一段1-1號","121.519483333333","24.9614166666667","6500600","新店區"
"231062","256-BX","2019/10/11 18:19:29","新北市新店區安一路一段1-1號","121.519726666667","24.9611366666667","6500600","新店區"
"231054","260-TV","2019/10/11 18:19:28","新北市新店區安一路一段1-1號","121.519316666667","24.96126","6500600","新店區"
"231042","268-BY","2019/10/11 18:19:33","新北市新店區安一路一段1-1號","121.519643333333","24.9614216666667","6500600","新店區"
"231045","355-BY","2019/10/11 18:19:23","新北市新店區安華路28-1號","121.519323333333","24.9609533333333","6500600","新店區"
"231056","4715-K9","2019/10/11 18:19:19","新北市新店區中央路45號","121.532886666667","24.9776516666667","6500600","新店區"
"231067","4772-VM","2019/10/11 18:19:29","新北市新店區安華路1-1號","121.519471666667","24.9604883333333","6500600","新店區"
"231053","512-UM","2019/10/11 18:19:13","新北市新店區安康路一段23號","121.532968333333","24.960275","6500600","新店區"
"231064","515-UM","2019/10/11 18:19:23","新北市新店區安一路一段1-1號","121.519835","24.96127","6500600","新店區"
"231063","641-BX","2019/10/11 18:19:25","新北市新店區安華路28-1號","121.519603333333","24.9605633333333","6500600","新店區"
"231057","720-UM","2019/10/11 18:19:24","新北市新店區安一路一段1-1號","121.51943","24.961405","6500600","新店區"
"231040","898-TW","2019/10/11 18:19:23","新北市新店區安華路28-1號","121.519448333333","24.9609983333333","6500600","新店區"
"231043","899-TW","2019/10/11 18:19:27","新北市新店區安華路28-1號","121.519313333333","24.96085","6500600","新店區"
"231066","AKT-0513","2019/10/11 18:19:22","新北市新店區安華路28-1號","121.519351666667","24.9605666666667","6500600","新店區"
"241033","AAC-255","2019/10/11 18:19:31","新北市三重區光復路一段47號","121.472256666667","25.0486083333333","6500200","三重區"
"235066","003-UY","2019/10/11 18:19:30","新北市中和區連城路10號","121.498998333333","25.0023133333333","6500300","中和區"
"235063","006-UY","2019/10/11 18:19:25","新北市中和區中正路508號","121.488623333333","24.9946216666667","6500300","中和區"
"235056","096-UM","2019/10/11 18:19:20","新北市中和區員山路611巷1號","121.477871666667","25.0112916666667","6500300","中和區"
"235039","097-UM","2019/10/11 18:19:15","新北市中和區保健路72號","121.511426666667","24.9964","6500300","中和區"
"235065","098-UM","2019/10/11 18:19:20","新北市中和區莊敬路49巷18號","121.501631666667","25.006075","6500300","中和區"
"235040","150-BY","2019/10/11 18:19:30","新北市中和區安平路59號","121.509546666667","24.9951083333333","6500300","中和區"
"235058","151-BY","2019/10/11 18:19:28","新北市中和區圓通路369巷36-2號","121.490843333333","24.9842833333333","6500300","中和區"
"235055","183-VK","2019/10/11 18:19:12","新北市中和區民享街469號","121.47002","24.99208","6500300","中和區"
"235038","185-VK","2019/10/11 18:19:21","新北市中和區秀朗路三段128巷17弄10號","121.524016666667","24.9933516666667","6500300","中和區"
"235044","293-VK","2019/10/11 18:19:17","新北市中和區中興街129號","121.499965","24.9916316666667","6500300","中和區"
"235072","301-VK","2019/10/11 18:19:23","新北市中和區連城路237-1號","121.493755","24.9973966666667","6500300","中和區"
"235043","352-BY","2019/10/11 18:19:22","新北市中和區景平路381號","121.503771666667","24.99336","6500300","中和區"
"235042","KEA-2878","2019/10/11 18:19:13","新北市中和區大仁街20巷25弄39號","121.519476666667","24.9936833333333","6500300","中和區"
"235050","4979-A6","2019/10/11 18:19:14","新北市中和區捷運路129號","121.507065","24.990795","6500300","中和區"
"235069","4980-A6","2019/10/11 18:19:23","新北市中和區連城路127巷33號","121.497285","24.9973133333333","6500300","中和區"
"235070","558-UM","2019/10/11 18:19:27","新北市中和區南華路26號","121.503016666667","24.995935","6500300","中和區"
"235045","565-BX","2019/10/11 18:19:21","新北市中和區南山路236巷24弄48號","121.504668333333","24.988675","6500300","中和區"
"235060","KED-0823","2019/10/11 18:19:21","新北市中和區中山路二段570號","121.482901666667","25.0050983333333","6500300","中和區"
"235054","640-BX","2019/10/11 18:19:22","新北市中和區民享街91-2號","121.474395","25.001335","6500300","中和區"
"235047","732-UM","2019/10/11 18:19:20","新北市中和區復興路262-1號","121.503406666667","24.9903116666667","6500300","中和區"
"235046","733-UM","2019/10/11 18:19:16","新北市中和區錦和路350-1號","121.490176666667","24.9935416666667","6500300","中和區"
"235057","801-TS","2019/10/11 18:19:29","新北市中和區民安街43號","121.479848333333","25.0002266666667","6500300","中和區"
"235041","802-TS","2019/10/11 18:19:12","新北市中和區中正路166號","121.498326666667","24.9938083333333","6500300","中和區"
"235052","805-TS","2019/10/11 18:19:24","新北市中和區興南路二段96號","121.505183333333","24.9842316666667","6500300","中和區"
"235048","896-TW","2019/10/11 18:19:29","新北市中和區錦和路350-1號","121.490483333333","24.99358","6500300","中和區"
"235053","900-TW","2019/10/11 18:19:25","新北市中和區員山路36巷16-2號","121.485316666667","24.9914316666667","6500300","中和區"
"235064","911-UM","2019/10/11 18:19:22","新北市中和區圓通路146號","121.498116666667","24.9957816666667","6500300","中和區"
"235051","157-BY","2019/10/11 18:19:25","新北市中和區興南路二段142巷35弄1號","121.502496666667","24.984555","6500300","中和區"
"235037","AAC-213","2019/10/11 18:19:24","新北市中和區景德街67號","121.51681","24.9913983333333","6500300","中和區"
"235059","AAC-215","2019/10/11 18:19:13","新北市中和區員山路36巷16-3號","121.485105","24.99126","6500300","中和區"
"220065","072-UY","2019/10/11 18:19:15","新北市板橋區華東街1-10號","121.448446666667","24.994895","6500100","板橋區"
"220069","AAD-861","2019/10/11 18:19:20","新北市板橋區華東街1-10號","121.448345","24.9950933333333","6500100","板橋區"
"226004","312-R5","2019/10/11 18:19:24","新北市平溪區薯榔里薯榔寮32-3號","121.710341666667","25.019465","6502400","平溪區"
"235049","251-BX","2019/10/11 18:19:21","新北市中和區錦和路350-1號","121.490338333333","24.9935933333333","6500300","中和區"
"228001","212-TW","2019/10/11 18:19:26","新北市貢寮區真理里新港街26巷55弄2-1號","121.927378333333","25.0528716666667","6502600","貢寮區"
"228002","663-BX","2019/10/11 18:19:33","新北市貢寮區福連里福興街39-3號","121.994198333333","25.0139383333333","6502600","貢寮區"
"228003","828-UM","2019/10/11 18:19:20","新北市貢寮區和美里和美街63號","121.922181666667","25.0712616666667","6502600","貢寮區"
"224006","676-BX","2019/10/11 18:19:32","新北市瑞芳區三爪子坑路64-32號","121.808935","25.105685","6501200","瑞芳區"
"224007","285-BY","2019/10/11 18:19:30","新北市瑞芳區大埔路台北新城14號","121.764838333333","25.100865","6501200","瑞芳區"
"224009","275-VK","2019/10/11 18:19:19","新北市瑞芳區汽車路5號","121.847496666667","25.1116466666667","6501200","瑞芳區"
"224008","273-VK","2019/10/11 18:19:12","新北市瑞芳區明燈路一段45巷6號","121.821363333333","25.1062866666667","6501200","瑞芳區"
"224005","271-BY","2019/10/11 18:19:28","新北市瑞芳區哩咾路1號","121.874263333333","25.1241683333333","6501200","瑞芳區"
"227002","642-TC","2019/10/11 18:19:20","新北市雙溪區共和里中山路2號","121.863778333333","25.0338216666667","6502500","雙溪區"
"227001","400-TW","2019/10/11 18:19:32","新北市雙溪區牡丹里牡丹73號","121.851715","25.0593566666667","6502500","雙溪區"
"253005","032-BX","2019/10/11 18:19:22","新北市石門區中央路1-1號","121.565616666667","25.2913866666667","6502200","石門區"
"253006","295-VK","2019/10/11 18:19:31","新北市石門區老梅路49號","121.545431666667","25.2892566666667","6502200","石門區"
"222001","KEA-2212","2019/10/11 18:19:28","新北市深坑區北深路二段66號","121.618996666667","25.00416","6501800","深坑區"
"208002","KEA-2872","2019/10/11 18:19:26","新北市金山區清泉里清水路16巷12號","121.633813333333","25.2313516666667","6502700","金山區"
"208003","665-BX","2019/10/11 18:19:23","新北市金山區民生路160號","121.646851666667","25.2229816666667","6502700","金山區"
"251004","009-UM","2019/10/11 18:19:22","新北市淡水區民權路215巷102號","121.462746666667","25.1336033333333","6501000","淡水區"
"251005","010-UM","2019/10/11 18:19:15","新北市淡水區仁愛街18巷4號","121.446925","25.1703683333333","6501000","淡水區"
"251008","181-VK","2019/10/11 18:19:20","新北市淡水區淡金路16巷19號","121.457875","25.1603933333333","6501000","淡水區"
"251010","413-VK","2019/10/11 18:19:13","新北市淡水區淡海路202號","121.420236666667","25.1854883333333","6501000","淡水區"
"251012","443-VK","2019/10/11 18:19:21","新北市淡水區北新路二段85號","121.481493333333","25.1853933333333","6501000","淡水區"
"251001","559-UM","2019/10/11 18:19:15","新北市淡水區自強路307巷1號","121.462043333333","25.1318066666667","6501000","淡水區"
"251006","561-UM","2019/10/11 18:19:11","新北市淡水區新民街76巷36弄1號","121.43938","25.1779533333333","6501000","淡水區"
"251011","650-BX","2019/10/11 18:19:29","新北市淡水區三空泉7-1號","121.476746666667","25.1624333333333","6501000","淡水區"
"251002","672-BX","2019/10/11 18:19:12","新北市淡水區中正東路一段125號","121.455223333333","25.15939","6501000","淡水區"
"251003","766-UM","2019/10/11 18:19:22","新北市淡水區北新路180號","121.449251666667","25.17878","6501000","淡水區"
"207003","550-UM","2019/10/11 18:19:29","新北市萬里區港東路野柳風景區攤販64號","121.691781666667","25.205675","6502800","萬里區"
"207004","291-VK","2019/10/11 18:19:19","新北市萬里區中幅里中福路215號","121.671936666667","25.1652733333333","6502800","萬里區"
"252002","178-VK","2019/10/11 18:19:27","新北市三芝區中山路二段39號","121.502943333333","25.2551066666667","6502100","三芝區"
"252003","249-BX","2019/10/11 18:19:23","新北市三芝區錫板里南勢崗5-1號","121.48035","25.2628316666667","6502100","三芝區"
"208001","170-UY","2019/10/11 18:19:21","新北市金山區民生路206號","121.64117","25.2207516666667","6502700","金山區"
"237004","KEA-2597","2019/10/11 18:19:34","新北市三峽區五寮36-1號","121.372465","24.8682583333333","6500900","三峽區"
"237007","153-BY","2019/10/11 18:19:31","新北市三峽區中正路二段474號","121.363455","24.90709","6500900","三峽區"
"237009","210-TH","2019/10/11 18:19:21","新北市三峽區中山路152巷22號","121.365198333333","24.936935","6500900","三峽區"
"237013","252-BX","2019/10/11 18:19:32","新北市三峽區長泰街41巷14號","121.377383333333","24.9321216666667","6500900","三峽區"
"237012","275-BY","2019/10/11 18:19:20","新北市三峽區民生街19巷7弄15-1號","121.376953333333","24.936015","6500900","三峽區"
"237008","302-VK","2019/10/11 18:19:23","新北市三峽區白雞68-361號","121.392661666667","24.90848","6500900","三峽區"
"237014","433-BY","2019/10/11 18:19:23","新北市三峽區復興路82號","121.373233333333","24.9374583333333","6500900","三峽區"
"237006","5529-G3","2019/10/11 18:19:26","新北市三峽區溪東路235號","121.406653333333","24.9326016666667","6500900","三峽區"
"237011","KEA-2596","2019/10/11 18:19:20","新北市三峽區介壽路二段112號","121.393243333333","24.93567","6500900","三峽區"
"237015","649-BX","2019/10/11 18:19:21","新北市三峽區竹崙路10號","121.426701666667","24.9227866666667","6500900","三峽區"
"237010","706-TV","2019/10/11 18:19:28","新北市三峽區民權街147號","121.368908333333","24.9315666666667","6500900","三峽區"
"237005","AKY-6261","2019/10/11 18:19:17","新北市三峽區忠孝街25-9號","121.371441666667","24.9343266666667","6500900","三峽區"
"236042","KED-0685","2019/10/11 18:19:27","新北市土城區樂利街3巷11號","121.448461666667","24.9863716666667","6501300","土城區"
"236079","166-UM","2019/10/11 18:19:32","新北市土城區中央路三段281巷23弄20號","121.426311666667","24.9614466666667","6501300","土城區"
"236030","253-BX","2019/10/11 18:19:23","新北市土城區順風路41號","121.440693333333","24.97675","6501300","土城區"
"236026","269-VK","2019/10/11 18:19:32","新北市土城區承天路69-1號","121.43988","24.96329","6501300","土城區"
"236014","270-VK","2019/10/11 18:19:30","新北市土城區青雲路39巷7號","121.460315","24.9874666666667","6501300","土城區"
"236039","271-VK","2019/10/11 18:19:21","新北市土城區青雲路451巷4號","121.459415","24.9747","6501300","土城區"
"236069","KEA-2877","2019/10/11 18:19:17","新北市土城區明德路一段169號","121.464286666667","24.97929","6501300","土城區"
"252001","KED-0821","2019/10/11 18:19:33","新北市三芝區中興街二段2號","121.498346666667","25.2566483333333","6502100","三芝區"
"236020","401-BY","2019/10/11 18:19:17","新北市土城區明德路一段301號","121.45987","24.9772216666667","6501300","土城區"
"236063","752-BX","2019/10/11 18:19:05","新北市土城區金城路三段202-3號","121.469466666667","24.9885983333333","6501300","土城區"
"236059","912-UM","2019/10/11 18:19:26","新北市土城區中央路四段464號","121.409945","24.9505716666667","6501300","土城區"
"236048","913-UM","2019/10/11 18:19:27","新北市土城區明德路一段375-1號","121.454906666667","24.9781216666667","6501300","土城區"
"236055","AAC-216","2019/10/11 18:19:20","新北市土城區中華路二段174號","121.437401666667","24.9719233333333","6501300","土城區"
"242041","AAC-296","2019/10/11 18:19:12","新北市新莊區天祥街79號","121.415558333333","25.0293","6500500","新莊區"
"242060","986-R7","2019/10/11 18:19:27","新北市新莊區富國路176巷1號","121.424248333333","25.024405","6500500","新莊區"
"242005","751-BX","2019/10/11 18:19:22","新北市新莊區復興路一段4號","121.445565","25.041405","6500500","新莊區"
"242027","613-BX","2019/10/11 18:19:19","新北市新莊區新泰路528號","121.442066666667","25.0472033333333","6500500","新莊區"
"242058","612-BX","2019/10/11 18:19:28","新北市新莊區中正路895-50號","121.411861666667","25.0219916666667","6500500","新莊區"
"242048","566-BX","2019/10/11 18:19:19","新北市新莊區富國路106號","121.421726666667","25.0251966666667","6500500","新莊區"
"242054","497-BY","2019/10/11 18:19:17","新北市新莊區民安西路392-7號","121.428595","25.0096766666667","6500500","新莊區"
"242002","441-UM","2019/10/11 18:19:19","新北市新莊區大觀街4號","121.454576666667","25.0341533333333","6500500","新莊區"
"242007","440-UM","2019/10/11 18:19:29","新北市新莊區自治街35號","121.454083333333","25.0480016666667","6500500","新莊區"
"242044","415-TV","2019/10/11 18:19:25","新北市新莊區新北大道七段339號","121.412911666667","25.02756","6500500","新莊區"
"242050","400-BY","2019/10/11 18:19:21","新北市新莊區民本街11巷2弄2號","121.427955","25.02007","6500500","新莊區"
"242025","362-BY","2019/10/11 18:19:19","新北市新莊區五工路95-1號","121.457145","25.0638816666667","6500500","新莊區"
"242015","132-UY","2019/10/11 18:19:25","新北市新莊區中平路184巷10弄5號","121.445445","25.0482366666667","6500500","新莊區"
"242056","172-VK","2019/10/11 18:19:30","新北市新莊區瓊林路13-3號","121.4488","25.0309333333333","6500500","新莊區"
"242032","175-VK","2019/10/11 18:19:27","新北市新莊區新泰路255巷83號","121.442796666667","25.0393183333333","6500500","新莊區"
"242021","KED-0687","2019/10/11 18:19:20","新北市新莊區中正路192號","121.4496","25.0354983333333","6500500","新莊區"
"242009","349-TH","2019/10/11 18:19:14","新北市新莊區中華路二段152-1號","121.45324","25.0504366666667","6500500","新莊區"
"242019","351-TH","2019/10/11 18:19:16","新北市新莊區新泰路321巷37號","121.443026666667","25.0411533333333","6500500","新莊區"
"238015","755-BX","2019/10/11 18:19:34","新北市樹林區文化街79巷1號","121.416831666667","24.9891216666667","6500700","樹林區"
"238023","601-UM","2019/10/11 18:19:34","新北市樹林區中正路815號","121.409378333333","25.0170516666667","6500700","樹林區"
"238019","599-UM","2019/10/11 18:19:21","新北市樹林區國凱街162號","121.424476666667","24.980665","6500700","樹林區"
"238018","KEA-2217","2019/10/11 18:19:27","新北市樹林區樹新路28巷8號","121.427398333333","24.9941766666667","6500700","樹林區"
"238025","303-VK","2019/10/11 18:19:21","新北市樹林區保安街一段278號","121.419465","24.9970733333333","6500700","樹林區"
"238017","283-BY","2019/10/11 18:19:29","新北市樹林區保安街二段337巷29號","121.411346666667","25.0078083333333","6500700","樹林區"
"238014","282-BY","2019/10/11 18:19:16","新北市樹林區大安路111巷25號","121.423153333333","24.9974916666667","6500700","樹林區"
"238020","268-VK","2019/10/11 18:19:17","新北市樹林區三俊街63號","121.413545","25.0159633333333","6500700","樹林區"
"238026","172-UY","2019/10/11 18:19:31","新北市樹林區佳園路一段80巷2號","121.393305","24.9697033333333","6500700","樹林區"
"238016","169-UY","2019/10/11 18:19:22","新北市樹林區中山路二段78號","121.415121666667","24.983995","6500700","樹林區"
"239007","AAC-297","2019/10/11 18:19:14","新北市鶯歌區育英街53號","121.347093333333","24.95269","6500800","鶯歌區"
"239006","891-R6","2019/10/11 18:19:21","新北市鶯歌區鶯桃路365巷106號","121.330603333333","24.962105","6500800","鶯歌區"
"239008","527-UM","2019/10/11 18:19:14","新北市鶯歌區國際一路14號","121.336153333333","24.976525","6500800","鶯歌區"
"239005","526-UM","2019/10/11 18:19:28","新北市鶯歌區鶯桃路668巷73號","121.329926666667","24.9717933333333","6500800","鶯歌區"
"239001","417-VK","2019/10/11 18:19:27","新北市鶯歌區中正三路5巷23號","121.340463333333","24.9427733333333","6500800","鶯歌區"
"239003","360-BY","2019/10/11 18:19:24","新北市鶯歌區福安街13巷1號","121.335603333333","24.9652866666667","6500800","鶯歌區"
"239002","359-BY","2019/10/11 18:19:16","新北市鶯歌區中山路10號","121.3529","24.95708","6500800","鶯歌區"
"239004","193-VK","2019/10/11 18:19:21","新北市鶯歌區尖山路168巷1號","121.345226666667","24.9479666666667","6500800","鶯歌區"
"221036","130-UY","2019/10/11 18:19:23","新北市汐止區大同路三段193號","121.671068333333","25.07735","6501100","汐止區"
"221015","131-UY","2019/10/11 18:19:29","新北市汐止區鄉長路二段29-1號","121.668276666667","25.0830183333333","6501100","汐止區"
"244019","KED-0667","2019/10/11 18:19:26","新北市林口區麗園二街12巷4-2號","121.378406666667","25.068475","6501700","林口區"
"221010","269-BY","2019/10/11 18:19:19","新北市汐止區祥雲街18巷12號","121.64675","25.0895683333333","6501100","汐止區"
"221012","278-VK","2019/10/11 18:19:33","新北市汐止區保一街35巷4號","121.674791666667","25.0803866666667","6501100","汐止區"
"221023","279-VK","2019/10/11 18:19:33","新北市汐止區中興路201號","121.629198333333","25.0684383333333","6501100","汐止區"
"221032","280-BY","2019/10/11 18:19:28","新北市汐止區力行街46號","121.616668333333","25.0498916666667","6501100","汐止區"
"221029","298-VK","2019/10/11 17:56:19","新北市汐止區樟樹二路341號","121.641945","25.0728133333333","6501100","汐止區"
"221021","299-VK","2019/10/11 18:19:22","新北市汐止區新台五路一段177號","121.655018333333","25.0632433333333","6501100","汐止區"
"221031","353-TW","2019/10/11 18:19:27","新北市汐止區中興路131號","121.631878333333","25.065405","6501100","汐止區"
"221035","622-UM","2019/10/11 18:19:18","新北市汐止區汐萬路一段141號","121.653553333333","25.0711566666667","6501100","汐止區"
"221025","623-UM","2019/10/11 18:19:18","新北市汐止區勤進路12巷31號","121.659198333333","25.0624666666667","6501100","汐止區"
"221038","646-BX","2019/10/11 18:19:16","新北市汐止區仁愛路320號","121.664788333333","25.067635","6501100","汐止區"
"221033","647-BX","2019/10/11 18:19:17","新北市汐止區宜興街40巷1號","121.622035","25.0420616666667","6501100","汐止區"
"221002","707-TV","2019/10/11 18:19:24","新北市汐止區福德一路213巷33號","121.635693333333","25.064705","6501100","汐止區"
"221018","753-BX","2019/10/11 18:19:15","新北市汐止區茄苳路62號","121.666391666667","25.070755","6501100","汐止區"
"220082","610-BX","2019/10/11 18:19:29","新北市板橋區華東街1-9號","121.448265","24.9949","6500100","板橋區"
"224002","257-TC","2019/10/11 18:19:30","新北市瑞芳區三爪子坑路91巷14號","121.81162","25.1069583333333","6501200","瑞芳區"
"242046","281-VK","2019/10/11 18:19:29","新北市新莊區中正路829巷21號","121.421123333333","25.0275983333333","6500500","新莊區"
"242011","280-VK","2019/10/11 18:19:19","新北市新莊區中港路615巷10號","121.450766666667","25.053365","6500500","新莊區"
"220054","741-BX","2019/10/11 18:19:29","新北市板橋區華東街1-9號","121.448148333333","24.994975","6500100","板橋區"
"220073","985-R7","2019/10/11 17:52:57","新北市板橋區華東街1-10號","121.448293333333","24.9949483333333","6500100","板橋區"
"220064","AAC-253","2019/10/11 18:19:23","新北市板橋區華東街1-10號","121.448375","24.9949216666667","6500100","板橋區"
"235068","KEA-2873","2019/10/11 18:19:25","新北市中和區中正路637巷52弄1號","121.485425","24.9934133333333","6500300","中和區"
"235061","KEA-2875","2019/10/11 18:19:14","新北市中和區民享街97巷22號","121.475221666667","24.999985","6500300","中和區"
"235062","KEA-2876","2019/10/11 18:19:21","新北市中和區景平路701號","121.496556666667","25.0035","6500300","中和區"
