"lineid","car","time","location","longitude","latitude","cityid","cityname"
"234046","148-BY","2019/10/11 18:39:14","新北市永和區永元路116號","121.522688333333","25.0024566666667","6500400","永和區"
"234081","298-R6","2019/10/11 18:39:25","新北市永和區林森路64號","121.523946666667","25.004025","6500400","永和區"
"234086","338-UY","2019/10/11 18:39:15","新北市中和區安樂路69號","121.512415","24.9937733333333","6500400","永和區"
"234017","745-BX","2019/10/11 18:39:26","新北市永和區福和路1號","121.525605","25.0094283333333","6500400","永和區"
"234030","746-BX","2019/10/11 18:39:31","新北市永和區得和路326號","121.523243333333","24.999505","6500400","永和區"
"234007","KED-0605","2019/10/11 18:39:22","新北市永和區文化路168號","121.512111666667","25.0153466666667","6500400","永和區"
"234013","KEA-2591","2019/10/11 18:39:23","新北市永和區環河東路二段90號","121.524435","25.0106716666667","6500400","永和區"
"234042","862-TW","2019/10/11 18:39:12","新北市永和區福和路217號","121.51917","25.007565","6500400","永和區"
"234026","9371-KE","2019/10/11 18:39:15","新北市永和區永和路一段70號","121.513","25.006235","6500400","永和區"
"234011","9373-KE","2019/10/11 18:39:16","新北市永和區永和路二段235-1號","121.515381666667","25.014365","6500400","永和區"
"249005","172-UM","2019/10/11 18:39:19","新北市八里區中華路三段196號","121.388081666667","25.125595","6502300","八里區"
"249001","173-UM","2019/10/11 18:39:11","新北市八里區龍米路一段360號","121.451555","25.1313666666667","6502300","八里區"
"249004","303-UY","2019/10/11 18:39:25","新北市八里區忠四街55號","121.425138333333","25.1618633333333","6502300","八里區"
"249002","305-UY","2019/10/11 18:39:24","新北市八里區龍形一街12巷8號","121.44984","25.1307816666667","6502300","八里區"
"249003","593-UM","2019/10/11 18:30:43","新北市八里區博物館路10-1號","121.415078333333","25.1639533333333","6502300","八里區"
"248014","025-BX","2019/10/11 18:39:29","新北市五股區中興路四段67-2號","121.436958333333","25.0833766666667","6501500","五股區"
"248016","026-BX","2019/10/11 18:39:12","新北市五股區凌雲路一段149巷7號","121.44887","25.1016383333333","6501500","五股區"
"248008","KED-0815","2019/10/11 18:39:11","新北市五股區中興路一段150巷5號","121.464618333333","25.074195","6501500","五股區"
"248018","KED-0813","2019/10/11 18:39:12","新北市五股區民義路二段84號","121.405955","25.109005","6501500","五股區"
"248012","247-BX","2019/10/11 18:39:32","新北市五股區成泰路三段2巷1-20號","121.441221666667","25.0866716666667","6501500","五股區"
"248010","272-BY","2019/10/11 18:39:16","新北市五股區水碓三路120號","121.431755","25.073605","6501500","五股區"
"248004","677-BX","2019/10/11 18:39:20","新北市五股區民義路一段283號","121.425818333333","25.09273","6501500","五股區"
"248002","678-BX","2019/10/11 18:39:17","新北市五股區西雲路205號","121.448531666667","25.09647","6501500","五股區"
"234023","9380-KE","2019/10/11 18:39:32","新北市永和區福和路76巷5弄7號","121.522386666667","25.0082866666667","6500400","永和區"
"234077","969-R7","2019/10/11 18:39:15","新北市永和區中正路161號","121.516535","24.9984166666667","6500400","永和區"
"234067","AAC-212","2019/10/11 18:39:19","新北市永和區永貞路6號","121.52076","25.0073716666667","6500400","永和區"
"234003","AAC-295","2019/10/11 18:39:32","新北市永和區福和路1號","121.525876666667","25.0091333333333","6500400","永和區"
"232011","375-UM","2019/10/11 18:39:24","新北市坪林區坪雙路一段41號","121.711685","24.9424483333333","6502000","坪林區"
"244007","080-UY","2019/10/11 18:39:28","新北市林口區太平里25-5號","121.37687","25.1171383333333","6501700","林口區"
"244013","KEA-2802","2019/10/11 18:39:17","新北市林口區麗園一街6巷7-2號","121.375241666667","25.0707116666667","6501700","林口區"
"244023","483-VK","2019/10/11 18:39:17","新北市林口區文化一路二段2號","121.380121666667","25.0766183333333","6501700","林口區"
"244017","485-VK","2019/10/11 18:39:20","新北市林口區文化二路一段20巷25弄4號","121.366023333333","25.0677433333333","6501700","林口區"
"244009","656-BX","2019/10/11 18:39:27","新北市林口區竹林路448號","121.38821","25.0852783333333","6501700","林口區"
"244011","701-TV","2019/10/11 18:39:19","新北市林口區新寮1-82號","121.392638333333","25.0767933333333","6501700","林口區"
"244025","837-TS","2019/10/11 18:39:31","新北市林口區南勢三街23號","121.35847","25.07763","6501700","林口區"
"244021","838-TS","2019/10/11 18:39:19","新北市林口區工六路74號","121.400238333333","25.07741","6501700","林口區"
"243016","421-VK","2019/10/11 18:39:26","新北市泰山區明志路一段199號","121.43282","25.0615216666667","6501600","泰山區"
"243015","680-BX","2019/10/11 18:39:19","新北市泰山區美寧街50號","121.430523333333","25.064435","6501600","泰山區"
"222003","436-BY","2019/10/11 18:39:25","新北市深坑區翠谷街17巷7號","121.62634","25.0085233333333","6501800","深坑區"
"222002","659-BX","2019/10/11 18:39:26","新北市深坑區文山路一段62巷3號","121.62287","25.00088","6501800","深坑區"
"231061","002-UM","2019/10/11 18:39:14","新北市新店區安華路28-1號","121.519628333333","24.960785","6500600","新店區"
"231055","0291-UT","2019/10/11 18:38:45","新北市新店區華興街38巷7號","121.537013333333","24.9692633333333","6500600","新店區"
"231058","0293-UT","2019/10/11 18:39:19","新北市新店區新店後街44號","121.537888333333","24.95373","6500600","新店區"
"231044","046-UY","2019/10/11 18:39:14","新北市新店區安康路一段279號","121.523678333333","24.9635266666667","6500600","新店區"
"231060","106-UY","2019/10/11 18:39:17","新北市新店區安一路一段1-1號","121.519711666667","24.961065","6500600","新店區"
"231051","107-UY","2019/10/11 18:39:14","新北市新店區環河路118號","121.53674","24.9679616666667","6500600","新店區"
"231065","110-UY","2019/10/11 18:39:12","新北市新店區安華路28-1號","121.519265","24.960955","6500600","新店區"
"231062","256-BX","2019/10/11 18:39:29","新北市新店區安康路一段20號","121.531053333333","24.9609966666667","6500600","新店區"
"231054","260-TV","2019/10/11 18:39:28","新北市新店區安一路一段1-1號","121.519238333333","24.9611316666667","6500600","新店區"
"231042","268-BY","2019/10/11 18:39:14","新北市新店區安一路一段1-1號","121.519646666667","24.9613933333333","6500600","新店區"
"231050","AAD-862","2019/10/11 18:39:30","新北市新店區安華路28-1號","121.519803333333","24.9610533333333","6500600","新店區"
"231045","355-BY","2019/10/11 18:39:23","新北市新店區安華路28-1號","121.519105","24.9607833333333","6500600","新店區"
"231056","4715-K9","2019/10/11 18:39:19","新北市新店區大豐路68巷16號","121.538855","24.98","6500600","新店區"
"231067","4772-VM","2019/10/11 18:38:49","新北市新店區安華路3號","121.518823333333","24.960785","6500600","新店區"
"231053","512-UM","2019/10/11 18:39:13","新北市新店區永興路23號","121.544021666667","24.9391533333333","6500600","新店區"
"231064","515-UM","2019/10/11 18:39:23","新北市新店區安一路一段1-1號","121.519861666667","24.9612166666667","6500600","新店區"
"231063","641-BX","2019/10/11 18:39:25","新北市新店區安華路28-1號","121.519641666667","24.9606016666667","6500600","新店區"
"231048","KED-0819","2019/10/11 18:39:23","新北市新店區安一路一段1-1號","121.519963333333","24.961215","6500600","新店區"
"231046","719-UM","2019/10/11 18:39:12","新北市新店區直潭二街1號","121.535403333333","24.9431533333333","6500600","新店區"
"231057","720-UM","2019/10/11 18:39:24","新北市新店區北宜路一段28號","121.53814","24.957015","6500600","新店區"
"231059","897-TW","2019/10/11 18:39:15","新北市新店區安華路28-1號","121.51938","24.9605566666667","6500600","新店區"
"231040","898-TW","2019/10/11 18:39:23","新北市新店區安華路28-1號","121.519383333333","24.9608816666667","6500600","新店區"
"231043","899-TW","2019/10/11 18:39:27","新北市新店區安華路28-1號","121.519201666667","24.9608216666667","6500600","新店區"
"231066","AKT-0513","2019/10/11 18:39:22","新北市新店區安華路1-1號","121.5195","24.9605133333333","6500600","新店區"
"235066","003-UY","2019/10/11 18:39:30","新北市中和區光華街44號","121.504966666667","25.00362","6500300","中和區"
"235063","006-UY","2019/10/11 18:39:25","新北市中和區錦和路111-1號","121.490208333333","24.995175","6500300","中和區"
"235056","096-UM","2019/10/11 18:39:20","新北市中和區員山路611巷1號","121.47794","25.011295","6500300","中和區"
"235039","097-UM","2019/10/11 18:39:15","新北市中和區安樂路143巷19號","121.5138","24.9969966666667","6500300","中和區"
"235065","098-UM","2019/10/11 18:39:19","新北市中和區莊敬路33巷36弄12號","121.500506666667","25.0064616666667","6500300","中和區"
"235040","150-BY","2019/10/11 18:39:30","新北市中和區安平路59號","121.509585","24.9951333333333","6500300","中和區"
"235058","151-BY","2019/10/11 18:39:28","新北市中和區員山路143巷21號","121.479831666667","24.9956916666667","6500300","中和區"
"235055","183-VK","2019/10/11 18:39:32","新北市中和區民生街45號","121.469915","25.0053033333333","6500300","中和區"
"235038","185-VK","2019/10/11 18:39:21","新北市中和區自強路60號","121.52004","24.9944233333333","6500300","中和區"
"235067","255-BX","2019/10/11 18:39:15","新北市中和區中正路853號","121.484583333333","25.00299","6500300","中和區"
"235044","293-VK","2019/10/11 18:39:17","新北市中和區復興路280巷5號","121.502213333333","24.991","6500300","中和區"
"235072","301-VK","2019/10/11 18:39:23","新北市中和區中山路二段47號","121.504386666667","25.00489","6500300","中和區"
"235043","352-BY","2019/10/11 18:39:22","新北市中和區景平路73-2號","121.518696666667","24.9914733333333","6500300","中和區"
"235042","KEA-2878","2019/10/11 18:39:33","新北市中和區成功路97巷5弄15號","121.526456666667","24.992165","6500300","中和區"
"235050","4979-A6","2019/10/11 18:39:20","新北市中和區景新街496巷28弄47號","121.512566666667","24.9859466666667","6500300","中和區"
"235069","4980-A6","2019/10/11 18:39:19","新北市中和區中和路42號","121.50006","25.0010266666667","6500300","中和區"
"235070","558-UM","2019/10/11 18:39:27","新北市中和區枋寮街4號","121.502393333333","24.9997316666667","6500300","中和區"
"235045","565-BX","2019/10/11 18:39:21","新北市中和區捷運路129號","121.507126666667","24.99079","6500300","中和區"
"235060","KED-0823","2019/10/11 18:39:20","新北市中和區中山路三段105號","121.474941666667","25.0061233333333","6500300","中和區"
"235054","640-BX","2019/10/11 18:39:22","新北市中和區民享街29-1號","121.473926666667","25.0042716666667","6500300","中和區"
"235047","732-UM","2019/10/11 18:39:31","新北市中和區興南路二段40號","121.506815","24.9851983333333","6500300","中和區"
"235046","733-UM","2019/10/11 18:39:16","新北市中和區仁愛街36巷44號","121.511308333333","24.9863083333333","6500300","中和區"
"235071","783-BX","2019/10/11 18:39:16","新北市中和區員山路36巷16-2號","121.485393333333","24.9911233333333","6500300","中和區"
"235057","801-TS","2019/10/11 18:39:29","新北市中和區民安街25巷11號","121.480525","25.0003183333333","6500300","中和區"
"235041","802-TS","2019/10/11 18:39:12","新北市中和區中安街178巷16號","121.510663333333","24.99923","6500300","中和區"
"235052","805-TS","2019/10/11 18:39:24","新北市中和區興南路三段90號","121.490896666667","24.9739283333333","6500300","中和區"
"235048","896-TW","2019/10/11 18:39:29","新北市中和區南山路250巷2號","121.507728333333","24.9889783333333","6500300","中和區"
"235053","900-TW","2019/10/11 18:39:25","新北市中和區民德路266號","121.468018333333","24.9966433333333","6500300","中和區"
"235064","911-UM","2019/10/11 18:39:22","新北市中和區泰和街44巷4號","121.499076666667","25.00001","6500300","中和區"
"235051","157-BY","2019/10/11 18:39:25","新北市中和區工專路131號","121.508253333333","24.979235","6500300","中和區"
"235037","AAC-213","2019/10/11 18:39:33","新北市中和區秀朗路三段128巷19弄1號","121.524095","24.9936883333333","6500300","中和區"
"235059","AAC-215","2019/10/11 18:39:33","新北市中和區錦和路354巷5號","121.490201666667","24.9914716666667","6500300","中和區"
"220065","072-UY","2019/10/11 18:39:16","新北市板橋區實踐路64號","121.46387","25.005845","6500100","板橋區"
"220069","AAD-861","2019/10/11 18:39:20","新北市板橋區南雅南路一段1巷35號","121.457626666667","25.0064116666667","6500100","板橋區"
"226004","312-R5","2019/10/11 18:39:24","新北市平溪區石底里公園街18-3號","121.733865","25.0252633333333","6502400","平溪區"
"235049","251-BX","2019/10/11 18:39:21","新北市中和區明義街24號","121.504373333333","24.9950033333333","6500300","中和區"
"228001","212-TW","2019/10/11 18:39:26","新北市貢寮區仁理村保健街71號","121.92374","25.0516416666667","6502600","貢寮區"
"228002","663-BX","2019/10/11 18:39:33","新北市貢寮區福連里香蘭街28號","121.98539","25.02096","6502600","貢寮區"
"228003","828-UM","2019/10/11 18:39:20","新北市貢寮區和美里龍洞街35-6號","121.920116666667","25.11011","6502600","貢寮區"
"224006","676-BX","2019/10/11 18:39:32","新北市瑞芳區明燈路三段57號","121.806011666667","25.108085","6501200","瑞芳區"
"224007","285-BY","2019/10/11 18:39:30","新北市瑞芳區大埔路74號","121.76246","25.1015433333333","6501200","瑞芳區"
"224009","275-VK","2019/10/11 18:39:19","新北市瑞芳區金光路372號","121.849225","25.111205","6501200","瑞芳區"
"224008","273-VK","2019/10/11 18:39:12","新北市瑞芳區明燈路一段45巷6號","121.8214","25.106355","6501200","瑞芳區"
"224005","271-BY","2019/10/11 18:39:28","新北市瑞芳區籠山路214-1號","121.850568333333","25.1258016666667","6501200","瑞芳區"
"227002","642-TC","2019/10/11 18:39:20","新北市雙溪區魚行里坤溪3-5號","121.876271666667","25.0207716666667","6502500","雙溪區"
"227001","400-TW","2019/10/11 18:39:13","新北市雙溪區牡丹里下坑11號","121.850975","25.056175","6502500","雙溪區"
"253005","032-BX","2019/10/11 18:39:17","新北市石門區中山路27號","121.566581666667","25.2904166666667","6502200","石門區"
"253006","295-VK","2019/10/11 18:39:31","新北市石門區崁子腳41-2號","121.53348","25.28837","6502200","石門區"
"222001","KEA-2212","2019/10/11 18:39:28","新北市深坑區北深路一段84號","121.63627","25.0106833333333","6501800","深坑區"
"208002","KEA-2872","2019/10/11 18:39:26","新北市金山區龜子山路36號","121.639328333333","25.2174266666667","6502700","金山區"
"208003","665-BX","2019/10/11 18:39:25","新北市金山區中山路176號","121.638223333333","25.2211733333333","6502700","金山區"
"251004","009-UM","2019/10/11 18:39:22","新北市淡水區大同路113巷6號","121.463485","25.1414516666667","6501000","淡水區"
"251008","181-VK","2019/10/11 18:39:20","新北市淡水區北新路一段22號","121.454755","25.1811883333333","6501000","淡水區"
"251010","413-VK","2019/10/11 18:39:13","新北市淡水區沙崙路141-1號","121.423371666667","25.1829483333333","6501000","淡水區"
"251012","443-VK","2019/10/11 18:39:21","新北市淡水區北新路一段7號","121.453166666667","25.1808566666667","6501000","淡水區"
"251001","559-UM","2019/10/11 18:39:15","新北市淡水區自強路419號","121.465668333333","25.1341666666667","6501000","淡水區"
"251006","561-UM","2019/10/11 18:39:31","新北市淡水區崁頂37-11號","121.439225","25.194335","6501000","淡水區"
"251011","650-BX","2019/10/11 18:39:29","新北市淡水區中正東路一段27號","121.45195","25.163275","6501000","淡水區"
"251002","672-BX","2019/10/11 18:39:32","新北市淡水區中正東路一段3巷2號","121.450395","25.1650616666667","6501000","淡水區"
"251003","766-UM","2019/10/11 18:39:22","新北市淡水區北新路69巷26號","121.446748333333","25.180135","6501000","淡水區"
"207003","550-UM","2019/10/11 18:39:29","新北市萬里區野柳里港西路92號","121.685715","25.204375","6502800","萬里區"
"207004","291-VK","2019/10/11 18:39:19","新北市萬里區萬里里獅頭路15號","121.693695","25.1795733333333","6502800","萬里區"
"252002","178-VK","2019/10/11 18:39:26","新北市三芝區民生街64巷7號","121.503576666667","25.25522","6502100","三芝區"
"252003","249-BX","2019/10/11 18:39:23","新北市三芝區後厝里土地公坑54-15號","121.466171666667","25.2496466666667","6502100","三芝區"
"208001","170-UY","2019/10/11 18:39:26","新北市金山區文化三路36號","121.63555","25.2247416666667","6502700","金山區"
"237004","KEA-2597","2019/10/11 18:39:14","新北市三峽區插角82號","121.406153333333","24.8708866666667","6500900","三峽區"
"237007","153-BY","2019/10/11 18:39:11","新北市三峽區柑樹路9號","121.362376666667","24.9058383333333","6500900","三峽區"
"237009","210-TH","2019/10/11 18:39:21","新北市三峽區弘園街37號","121.367135","24.927675","6500900","三峽區"
"237013","252-BX","2019/10/11 18:39:32","新北市三峽區光明路69巷25號","121.376601666667","24.9292266666667","6500900","三峽區"
"237012","275-BY","2019/10/11 18:39:20","新北市三峽區三樹路340號","121.383971666667","24.9433283333333","6500900","三峽區"
"237008","302-VK","2019/10/11 18:39:23","新北市三峽區白雞68-317號","121.392385","24.9114383333333","6500900","三峽區"
"237014","433-BY","2019/10/11 18:39:23","新北市三峽區復興路455號","121.362205","24.9384983333333","6500900","三峽區"
"237006","5529-G3","2019/10/11 18:39:26","新北市三峽區溪東路371巷4弄4號","121.412341666667","24.9298516666667","6500900","三峽區"
"237011","KEA-2596","2019/10/11 18:39:20","新北市三峽區溪東路436號","121.415626666667","24.92764","6500900","三峽區"
"237015","649-BX","2019/10/11 18:39:21","新北市三峽區成福路313號","121.429478333333","24.9235933333333","6500900","三峽區"
"237010","706-TV","2019/10/11 18:39:28","新北市三峽區中山路151號","121.364865","24.93635","6500900","三峽區"
"237005","AKY-6261","2019/10/11 18:39:17","新北市三峽區文化路1-1號","121.373548333333","24.9349016666667","6500900","三峽區"
"236042","KED-0685","2019/10/11 18:39:30","新北市土城區裕民路55巷15號","121.449461666667","24.9887433333333","6501300","土城區"
"236079","166-UM","2019/10/11 18:39:12","新北市土城區頂埔街59號","121.417315","24.95935","6501300","土城區"
"236030","253-BX","2019/10/11 18:39:23","新北市土城區慶利街33號","121.438811666667","24.9744633333333","6501300","土城區"
"236026","269-VK","2019/10/11 18:39:21","新北市土城區忠義路51號","121.44041","24.968985","6501300","土城區"
"236014","270-VK","2019/10/11 18:39:30","新北市土城區清水路207巷17號","121.45981","24.9823433333333","6501300","土城區"
"236039","271-VK","2019/10/11 18:39:21","新北市土城區明德路一段188號","121.462016666667","24.9780066666667","6501300","土城區"
"236069","KEA-2877","2019/10/11 18:39:17","新北市土城區永豐路157巷1號","121.46762","24.9817666666667","6501300","土城區"
"252001","KED-0821","2019/10/11 18:39:12","新北市三芝區中興街二段262號","121.501953333333","25.2528433333333","6502100","三芝區"
"236020","401-BY","2019/10/11 18:39:17","新北市土城區延吉街268號","121.465836666667","24.9845716666667","6501300","土城區"
"236063","752-BX","2019/10/11 18:39:05","新北市土城區延壽路39號","121.470893333333","24.9914016666667","6501300","土城區"
"236059","912-UM","2019/10/11 18:39:27","新北市土城區中央路三段161號","121.43189","24.965335","6501300","土城區"
"236048","913-UM","2019/10/11 18:39:27","新北市土城區明德路一段26號","121.46513","24.9848033333333","6501300","土城區"
"236055","AAC-216","2019/10/11 18:39:17","新北市土城區裕民路35號","121.448228333333","24.9883283333333","6501300","土城區"
"242060","986-R7","2019/10/11 18:39:27","新北市新莊區新泰路357巷3弄51號","121.442416666667","25.0399566666667","6500500","新莊區"
"242054","497-BY","2019/10/11 18:39:17","新北市樹林區樹新路120巷13號","121.430538333333","24.9969683333333","6500500","新莊區"
"242009","349-TH","2019/10/11 18:39:14","新北市新莊區利濟街10號","121.453108333333","25.03367","6500500","新莊區"
"238023","601-UM","2019/10/11 18:39:34","新北市樹林區三寶街2號","121.40649","25.0162033333333","6500700","樹林區"
"238024","5061-A6","2019/10/11 18:39:29","新北市樹林區中山路一段176-1號","121.421845","24.9888183333333","6500700","樹林區"
"238018","KEA-2217","2019/10/11 18:39:27","新北市樹林區鎮前街165號","121.42219","24.9871566666667","6500700","樹林區"
"238017","283-BY","2019/10/11 18:39:30","新北市樹林區光興街44號","121.409898333333","25.00276","6500700","樹林區"
"238014","282-BY","2019/10/11 18:39:16","新北市樹林區大安路111巷25號","121.423175","24.9975066666667","6500700","樹林區"
"238020","268-VK","2019/10/11 18:39:17","新北市樹林區俊安街15號","121.419728333333","25.0138266666667","6500700","樹林區"
"238026","172-UY","2019/10/11 18:39:31","新北市樹林區八德街1206號","121.390916666667","24.968815","6500700","樹林區"
"238016","169-UY","2019/10/11 18:39:22","新北市樹林區中山路一段412號","121.417403333333","24.9852033333333","6500700","樹林區"
"239007","AAC-297","2019/10/11 18:39:14","新北市鶯歌區忠孝街21號","121.355693333333","24.9556216666667","6500800","鶯歌區"
"239006","891-R6","2019/10/11 18:39:21","新北市鶯歌區鶯桃路296巷53號","121.335846666667","24.9613333333333","6500800","鶯歌區"
"239008","527-UM","2019/10/11 18:39:34","新北市鶯歌區朝陽街4號","121.336243333333","24.9766116666667","6500800","鶯歌區"
"239005","526-UM","2019/10/11 18:39:28","新北市鶯歌區鳳吉二街29號","121.326056666667","24.9730383333333","6500800","鶯歌區"
"239001","417-VK","2019/10/11 18:39:27","新北市鶯歌區國中街197號","121.33823","24.9391783333333","6500800","鶯歌區"
"239003","360-BY","2019/10/11 18:39:24","新北市鶯歌區永和街69號","121.333093333333","24.96785","6500800","鶯歌區"
"239002","359-BY","2019/10/11 18:39:16","新北市鶯歌區國慶街35號","121.349498333333","24.956045","6500800","鶯歌區"
"239004","193-VK","2019/10/11 18:39:21","新北市鶯歌區尖山路302巷15號","121.341485","24.9432633333333","6500800","鶯歌區"
"221036","130-UY","2019/10/11 18:39:30","新北市汐止區長興街一段19號","121.669606666667","25.0788583333333","6501100","汐止區"
"221015","131-UY","2019/10/11 18:39:28","新北市汐止區鄉友街36號","121.668865","25.0813816666667","6501100","汐止區"
"244019","KED-0667","2019/10/11 18:39:25","新北市林口區麗園二街42巷25號","121.382425","25.06655","6501700","林口區"
"221010","269-BY","2019/10/11 18:39:19","新北市汐止區瑞松街49巷6號","121.6453","25.107","6501100","汐止區"
"221012","278-VK","2019/10/11 18:39:33","新北市汐止區保長路53號","121.673566666667","25.0789016666667","6501100","汐止區"
"221032","280-BY","2019/10/11 18:39:28","新北市汐止區民權街二段95號","121.618985","25.0474216666667","6501100","汐止區"
"221021","299-VK","2019/10/11 18:39:22","新北市汐止區復興路53巷2號","121.656955","25.0626216666667","6501100","汐止區"
"221031","353-TW","2019/10/11 18:39:27","新北市汐止區大同路一段302巷42號","121.636963333333","25.056105","6501100","汐止區"
"221035","622-UM","2019/10/11 18:39:18","新北市汐止區大同路二段185號","121.652151666667","25.0644866666667","6501100","汐止區"
"221025","623-UM","2019/10/11 18:36:58","新北市汐止區福安街43號","121.663043333333","25.0646716666667","6501100","汐止區"
"221002","707-TV","2019/10/11 18:39:35","新北市汐止區大同路一段283號","121.636775","25.058665","6501100","汐止區"
"221018","753-BX","2019/10/11 18:36:15","新北市汐止區茄苳路223號","121.670948333333","25.068715","6501100","汐止區"
"220079","145-BY","2019/10/11 18:39:26","新北市板橋區大觀路一段43號","121.448145","25.00786","6500100","板橋區"
"220082","610-BX","2019/10/11 18:39:29","新北市板橋區大觀路三段50巷49號","121.432351666667","24.995845","6500100","板橋區"
"224002","257-TC","2019/10/11 18:39:30","新北市瑞芳區三爪子坑路1號","121.815926666667","25.10806","6501200","瑞芳區"
"220056","276-BY","2019/10/11 18:39:11","新北市板橋區館前西路49號","121.45784","25.00659","6500100","板橋區"
"220071","283-VK","2019/10/11 18:39:31","新北市板橋區四川路二段87號","121.452896666667","24.99488","6500100","板橋區"
"220094","285-UM","2019/10/11 18:39:28","新北市板橋區民生路二段161巷1號","121.470038333333","25.0198866666667","6500100","板橋區"
"220083","286-VK","2019/10/11 18:39:17","新北市板橋區板城路421號","121.448263333333","24.995875","6500100","板橋區"
"220081","287-VK","2019/10/11 18:39:17","新北市板橋區華東街1-10號","121.448256666667","24.9950083333333","6500100","板橋區"
"220090","288-VK","2019/10/11 18:39:13","新北市板橋區民生路二段89-6號","121.470456666667","25.019405","6500100","板橋區"
"220061","293-UM","2019/10/11 18:39:31","新北市板橋區民生路二段120號","121.47037","25.0195366666667","6500100","板橋區"
"220084","296-UM","2019/10/11 18:39:28","新北市板橋區大觀路二段114號","121.443808333333","24.9993533333333","6500100","板橋區"
"220075","303-R5","2019/10/11 18:39:16","新北市板橋區板城路421號","121.447936666667","24.9955616666667","6500100","板橋區"
"220089","487-VK","2019/10/11 18:39:17","新北市板橋區民生路二段177號","121.469675","25.0202166666667","6500100","板橋區"
"220035","560-BX","2019/10/11 18:39:31","新北市板橋區南雅西路二段145巷10號","121.451571666667","25.0119116666667","6500100","板橋區"
"220103","561-BX","2019/10/11 18:39:27","新北市板橋區民生路二段89-4號","121.470963333333","25.018375","6500100","板橋區"
"220080","568-UM","2019/10/11 18:39:18","新北市板橋區大觀路二段431-1號","121.441496666667","24.9950266666667","6500100","板橋區"
"220063","609-BX","2019/10/11 18:39:30","新北市板橋區民生路二段161巷1號","121.46998","25.02005","6500100","板橋區"
"220084","630-UY","2019/10/11 18:39:24","新北市板橋區華東街1-9號","121.448136666667","24.9948483333333","6500100","板橋區"
"220057","686-BX","2019/10/11 18:39:12","新北市板橋區館前西路4-1號","121.459208333333","25.007075","6500100","板橋區"
"220077","687-BX","2019/10/11 18:39:20","新北市板橋區大觀路二段435-1號","121.44607","24.995305","6500100","板橋區"
"220054","741-BX","2019/10/11 18:39:29","新北市板橋區南雅南路二段118號","121.452476666667","25.0002583333333","6500100","板橋區"
"220055","827-TW","2019/10/11 18:39:17","新北市板橋區忠孝路50號","121.460713333333","25.0019266666667","6500100","板橋區"
"220068","830-TW","2019/10/11 18:39:14","新北市板橋區民生路二段56-6號","121.471186666667","25.019215","6500100","板橋區"
"220074","895-R6","2019/10/11 18:39:16","新北市板橋區南雅南路一段51號","121.455875","25.0061316666667","6500100","板橋區"
"220073","985-R7","2019/10/11 18:39:23","新北市板橋區四川路二段23-3號","121.454736666667","24.995765","6500100","板橋區"
"220097","AAC-210","2019/10/11 18:39:22","新北市板橋區民生路二段120號","121.470345","25.01976","6500100","板橋區"
"220064","AAC-253","2019/10/11 18:39:23","新北市板橋區民生路二段36-1號","121.472105","25.0167783333333","6500100","板橋區"
"235068","KEA-2873","2019/10/11 18:39:25","新北市中和區中正路213號","121.496913333333","24.9937133333333","6500300","中和區"
"235061","KEA-2875","2019/10/11 18:39:25","新北市中和區民享街49巷1號","121.474303333333","25.0028683333333","6500300","中和區"
"235062","KEA-2876","2019/10/11 18:39:21","新北市中和區橋安街1號","121.492691666667","25.00294","6500300","中和區"
