"lineid","car","time","location","longitude","latitude","cityid","cityname"
"234046","148-BY","2019/10/11 18:49:14","新北市永和區秀朗路二段126巷30號","121.524623333333","25.0007716666667","6500400","永和區"
"234081","298-R6","2019/10/11 18:49:25","新北市永和區國中路109巷3弄2號","121.523888333333","25.0055233333333","6500400","永和區"
"234038","336-UY","2019/10/11 18:49:18","新北市永和區成功路一段89號","121.526856666667","25.0028616666667","6500400","永和區"
"234086","338-UY","2019/10/11 18:49:15","新北市永和區中正路49號","121.51458","24.9962333333333","6500400","永和區"
"234070","552-UM","2019/10/11 18:49:18","新北市永和區福和路1號","121.52547","25.0093966666667","6500400","永和區"
"234064","553-UM","2019/10/11 18:49:17","新北市永和區福和路1號","121.526553333333","25.0099216666667","6500400","永和區"
"234017","745-BX","2019/10/11 18:49:26","新北市永和區永和路二段299號","121.51605","25.0161916666667","6500400","永和區"
"234030","746-BX","2019/10/11 18:49:31","新北市永和區得和路328號","121.523341666667","24.99956","6500400","永和區"
"234054","KEA-2590","2019/10/11 18:49:12","新北市永和區豫溪街191巷2號","121.523671666667","25.0104066666667","6500400","永和區"
"234007","KED-0605","2019/10/11 18:49:22","新北市永和區文化路168號","121.512113333333","25.0153483333333","6500400","永和區"
"234013","KEA-2591","2019/10/11 18:49:26","新北市永和區保福路二段109巷36號","121.509131666667","25.0130133333333","6500400","永和區"
"234061","AAD-866","2019/10/11 18:49:15","新北市永和區福和路309巷1號","121.516266666667","25.007005","6500400","永和區"
"234042","862-TW","2019/10/11 18:49:32","新北市永和區永貞路306號","121.511865","25.0048333333333","6500400","永和區"
"234050","863-TW","2019/10/11 18:49:12","新北市永和區環河東路二段60號","121.523685","25.0112666666667","6500400","永和區"
"234026","9371-KE","2019/10/11 18:49:15","新北市永和區自由街49號","121.51391","25.0058633333333","6500400","永和區"
"234011","9373-KE","2019/10/11 18:49:16","新北市永和區文化路90巷27弄5號","121.513191666667","25.0162516666667","6500400","永和區"
"249005","172-UM","2019/10/11 18:49:19","新北市八里區長道坑16-2號","121.39499","25.11706","6502300","八里區"
"249001","173-UM","2019/10/11 18:49:31","新北市八里區龍米路二段58號","121.448178333333","25.1408416666667","6502300","八里區"
"249002","305-UY","2019/10/11 18:49:24","新北市八里區龍形一街33巷6-2號","121.449341666667","25.12949","6502300","八里區"
"249003","593-UM","2019/10/11 18:30:43","新北市八里區博物館路10-1號","121.415078333333","25.1639533333333","6502300","八里區"
"248016","026-BX","2019/10/11 18:49:32","新北市五股區成泰路三段543巷60號","121.4495","25.103165","6501500","五股區"
"248006","077-UY","2019/10/11 18:49:18","新北市五股區中興路一段12號","121.469425","25.0724566666667","6501500","五股區"
"248008","KED-0815","2019/10/11 18:49:31","新北市五股區中興路一段151巷32號","121.464981666667","25.0728916666667","6501500","五股區"
"248018","KED-0813","2019/10/11 18:49:12","新北市五股區民義路二段22巷30-3號","121.424315","25.1001083333333","6501500","五股區"
"248012","247-BX","2019/10/11 18:49:11","新北市五股區成泰路二段147巷34-1號","121.437098333333","25.0884383333333","6501500","五股區"
"248010","272-BY","2019/10/11 18:49:16","新北市五股區水碓七路81號","121.42968","25.072215","6501500","五股區"
"248004","677-BX","2019/10/11 18:49:20","新北市五股區民義路二段61-1號","121.409546666667","25.10511","6501500","五股區"
"248002","678-BX","2019/10/11 18:49:20","新北市五股區成泰路三段454號","121.45131","25.1001716666667","6501500","五股區"
"234023","9380-KE","2019/10/11 18:49:19","新北市永和區竹林路119巷47號","121.522055","25.0118966666667","6500400","永和區"
"234077","969-R7","2019/10/11 18:49:15","新北市永和區中正路42巷6弄2號","121.513201666667","24.994165","6500400","永和區"
"234067","AAC-212","2019/10/11 18:49:19","新北市永和區永和路一段22號","121.513028333333","25.0046816666667","6500400","永和區"
"234003","AAC-295","2019/10/11 18:49:12","新北市永和區中正路657號","121.514868333333","25.0102033333333","6500400","永和區"
"232011","375-UM","2019/10/11 18:49:24","新北市坪林區坪碇路87號","121.711565","24.9391283333333","6502000","坪林區"
"244013","KEA-2802","2019/10/11 18:49:17","新北市林口區麗園一街11巷11號","121.378633333333","25.070605","6501700","林口區"
"244023","483-VK","2019/10/11 18:49:29","新北市林口區文化二路二段102號","121.379015","25.0819283333333","6501700","林口區"
"244017","485-VK","2019/10/11 18:49:20","新北市林口區文化二路一段68巷11號","121.366466666667","25.0688616666667","6501700","林口區"
"244009","656-BX","2019/10/11 18:49:27","新北市林口區竹林路265號","121.389363333333","25.0807583333333","6501700","林口區"
"244011","701-TV","2019/10/11 18:49:19","新北市林口區仁愛路一段246號","121.395625","25.07577","6501700","林口區"
"244025","837-TS","2019/10/11 18:49:31","新北市林口區南勢街242號","121.358785","25.0754983333333","6501700","林口區"
"243010","297-R6","2019/10/11 18:49:23","新北市泰山區辭修路48號","121.428508333333","25.05713","6501600","泰山區"
"243014","KEA-2801","2019/10/11 18:49:13","新北市泰山區犁頭窠3-1號","121.42204","25.0605116666667","6501600","泰山區"
"243016","421-VK","2019/10/11 18:49:26","新北市泰山區明志路二段152-1號","121.427585","25.0507433333333","6501600","泰山區"
"243015","680-BX","2019/10/11 18:49:19","新北市泰山區美寧街50號","121.430536666667","25.0644316666667","6501600","泰山區"
"222003","436-BY","2019/10/11 18:49:25","新北市深坑區深南路51-1號","121.621341666667","25.01012","6501800","深坑區"
"222002","659-BX","2019/10/11 18:49:26","新北市深坑區文山路一段69號","121.626976666667","25.0018833333333","6501800","深坑區"
"231061","002-UM","2019/10/11 18:49:14","新北市新店區安華路28-1號","121.51946","24.96072","6500600","新店區"
"231055","0291-UT","2019/10/11 18:49:17","新北市新店區新生街30號","121.539605","24.9667283333333","6500600","新店區"
"231058","0293-UT","2019/10/11 18:49:19","新北市新店區北宜路一段168號","121.540491666667","24.9529616666667","6500600","新店區"
"231044","046-UY","2019/10/11 18:49:33","新北市新店區中興路三段88號","121.545243333333","24.9788416666667","6500600","新店區"
"231060","106-UY","2019/10/11 18:49:17","新北市新店區安華路28-1號","121.519758333333","24.9607933333333","6500600","新店區"
"231051","107-UY","2019/10/11 18:49:14","新北市新店區中央路87號","121.532115","24.9765583333333","6500600","新店區"
"231049","108-UY","2019/10/11 18:49:21","新北市新店區中央路151號","121.529566666667","24.9719283333333","6500600","新店區"
"231065","110-UY","2019/10/11 18:49:33","新北市新店區安康路二段397巷2-1號","121.494496666667","24.9537383333333","6500600","新店區"
"231062","256-BX","2019/10/11 18:49:29","新北市新店區安康路一段355號","121.519613333333","24.9633083333333","6500600","新店區"
"231054","260-TV","2019/10/11 18:49:28","新北市新店區安一路一段1-1號","121.51944","24.961095","6500600","新店區"
"231042","268-BY","2019/10/11 18:49:14","新北市新店區中華路1號","121.5413","24.96712","6500600","新店區"
"231050","AAD-862","2019/10/11 18:49:30","新北市新店區安康路一段81號","121.529711666667","24.9612366666667","6500600","新店區"
"231045","355-BY","2019/10/11 18:49:23","新北市新店區安華路28-1號","121.519113333333","24.9608116666667","6500600","新店區"
"231056","4715-K9","2019/10/11 18:49:19","新北市新店區建國路218號","121.53789","24.98107","6500600","新店區"
"231067","4772-VM","2019/10/11 18:49:09","新北市新店區安康路一段359-27號","121.517958333333","24.960935","6500600","新店區"
"231053","512-UM","2019/10/11 18:49:13","新北市新店區長興路43號","121.549006666667","24.9382566666667","6500600","新店區"
"231064","515-UM","2019/10/11 18:49:23","新北市新店區安一路一段1-1號","121.520046666667","24.961155","6500600","新店區"
"231041","619-UM","2019/10/11 18:44:11","新北市新店區安華路28-1號","121.519698333333","24.9608416666667","6500600","新店區"
"231063","641-BX","2019/10/11 18:49:25","新北市新店區安華路28-1號","121.519673333333","24.9605216666667","6500600","新店區"
"231048","KED-0819","2019/10/11 18:49:23","新北市新店區北新路一段91號","121.538671666667","24.9618433333333","6500600","新店區"
"231046","719-UM","2019/10/11 18:49:32","新北市新店區直潭路85號","121.531798333333","24.94203","6500600","新店區"
"231057","720-UM","2019/10/11 18:49:04","新北市新店區新烏路一段201號","121.548305","24.9318","6500600","新店區"
"231059","897-TW","2019/10/11 18:49:15","新北市新店區安華路1-1號","121.519055","24.9605983333333","6500600","新店區"
"231040","898-TW","2019/10/11 18:49:23","新北市新店區安康路一段94-3號","121.527635","24.9621733333333","6500600","新店區"
"231043","899-TW","2019/10/11 18:49:27","新北市新店區安華路28-1號","121.519275","24.9607783333333","6500600","新店區"
"231066","AKT-0513","2019/10/11 18:49:22","新北市新店區安華路1-1號","121.519446666667","24.9600733333333","6500600","新店區"
"235066","003-UY","2019/10/11 18:49:30","新北市中和區廣福路56巷5號","121.503486666667","25.00236","6500300","中和區"
"235063","006-UY","2019/10/11 18:49:25","新北市中和區中正路466號","121.490053333333","24.9942766666667","6500300","中和區"
"235056","096-UM","2019/10/11 18:49:20","新北市中和區員山路466巷17弄17號","121.48051","25.007215","6500300","中和區"
"235039","097-UM","2019/10/11 18:49:15","新北市中和區安樂路217巷14號","121.513788333333","24.998715","6500300","中和區"
"235065","098-UM","2019/10/11 18:49:20","新北市中和區中山路二段2巷45弄40號","121.501105","25.0069866666667","6500300","中和區"
"235040","150-BY","2019/10/11 18:49:30","新北市中和區安平路36巷7號","121.510305","24.99478","6500300","中和區"
"235058","151-BY","2019/10/11 18:49:28","新北市中和區連城路631-2號","121.47599","24.9914683333333","6500300","中和區"
"235055","183-VK","2019/10/11 18:49:32","新北市中和區民德路23號","121.468938333333","25.0026666666667","6500300","中和區"
"235038","185-VK","2019/10/11 18:49:21","新北市中和區立人街24-4號","121.518921666667","24.994195","6500300","中和區"
"235067","255-BX","2019/10/11 18:49:15","新北市中和區新生街202號","121.483795","24.9991816666667","6500300","中和區"
"235044","293-VK","2019/10/11 18:49:17","新北市中和區中興街147號","121.499926666667","24.9911733333333","6500300","中和區"
"235072","301-VK","2019/10/11 18:49:23","新北市中和區中山路二段181號","121.500885","25.0028616666667","6500300","中和區"
"235043","352-BY","2019/10/11 18:49:22","新北市中和區秀朗路三段103號","121.52643","24.9947966666667","6500300","中和區"
"235042","KEA-2878","2019/10/11 18:49:33","新北市中和區秀朗路三段78巷1弄28號","121.52532","24.9933066666667","6500300","中和區"
"235050","4979-A6","2019/10/11 18:49:13","新北市中和區忠孝街62巷9弄1號","121.513123333333","24.983925","6500300","中和區"
"235069","4980-A6","2019/10/11 18:49:19","新北市中和區景平路461號","121.500608333333","24.996525","6500300","中和區"
"235070","558-UM","2019/10/11 18:49:27","新北市中和區中和路219號","121.50427","24.9998216666667","6500300","中和區"
"235045","565-BX","2019/10/11 18:49:21","新北市中和區景新街467巷20弄84號","121.514431666667","24.987535","6500300","中和區"
"235060","KED-0823","2019/10/11 18:49:20","新北市中和區民享街91-12號","121.474686666667","25.0007266666667","6500300","中和區"
"235054","640-BX","2019/10/11 18:49:22","新北市中和區國光街8巷1號","121.471573333333","25.0002383333333","6500300","中和區"
"235047","732-UM","2019/10/11 18:49:20","新北市中和區興南路二段34巷26弄1號","121.505265","24.98646","6500300","中和區"
"235046","733-UM","2019/10/11 18:49:16","新北市中和區興南路一段152號","121.508375","24.9869166666667","6500300","中和區"
"235071","783-BX","2019/10/11 18:49:15","新北市中和區員山路36巷16-2號","121.485346666667","24.9911416666667","6500300","中和區"
"235057","801-TS","2019/10/11 18:49:29","新北市中和區民利街56號","121.479093333333","24.998715","6500300","中和區"
"235041","802-TS","2019/10/11 18:49:12","新北市中和區安平路109號","121.511118333333","24.997825","6500300","中和區"
"235052","805-TS","2019/10/11 18:49:24","新北市中和區興南路二段399巷98弄48號","121.49852","24.97676","6500300","中和區"
"235048","896-TW","2019/10/11 18:49:29","新北市中和區華新街73號","121.508205","24.9838333333333","6500300","中和區"
"235053","900-TW","2019/10/11 18:49:25","新北市中和區民德路290巷36號","121.466648333333","24.9959766666667","6500300","中和區"
"235064","911-UM","2019/10/11 18:49:22","新北市中和區泰和街30巷5號","121.499338333333","25.0006083333333","6500300","中和區"
"235051","157-BY","2019/10/11 18:49:25","新北市中和區忠孝街4號","121.510003333333","24.9826866666667","6500300","中和區"
"235037","AAC-213","2019/10/11 18:49:13","新北市中和區秀朗路三段10巷37弄4號","121.52414","24.996015","6500300","中和區"
"235059","AAC-215","2019/10/11 18:49:13","新北市中和區圓通路393巷21號","121.490266666667","24.988525","6500300","中和區"
"220065","072-UY","2019/10/11 18:49:15","新北市板橋區民族路61號","121.464923333333","25.0086516666667","6500100","板橋區"
"220106","075-UY","2019/10/11 18:49:31","新北市板橋區文化路二段124巷28-2號","121.471228333333","25.0256816666667","6500100","板橋區"
"220069","AAD-861","2019/10/11 18:49:20","新北市板橋區華興街81號","121.45686","25.0051583333333","6500100","板橋區"
"226004","312-R5","2019/10/11 18:49:24","新北市平溪區平溪里平溪街49-1號","121.737765","25.0269633333333","6502400","平溪區"
"235049","251-BX","2019/10/11 18:49:21","新北市中和區景安路177巷27號","121.506626666667","24.9944933333333","6500300","中和區"
"228001","212-TW","2019/10/11 18:49:26","新北市貢寮區仁理村研海街12-1號","121.923773333333","25.05164","6502600","貢寮區"
"228002","663-BX","2019/10/11 18:49:13","新北市貢寮區福連里香蘭街2-1號","121.970751666667","25.0242083333333","6502600","貢寮區"
"228003","828-UM","2019/10/11 18:49:20","新北市貢寮區和美里龍洞街26號","121.917035","25.108965","6502600","貢寮區"
"224010","AGQ-8101","2019/10/11 18:49:28","新北市瑞芳區崙頂路39-2號","121.844925","25.1072083333333","6501200","瑞芳區"
"224006","676-BX","2019/10/11 18:49:32","新北市瑞芳區中正路80-2號","121.805488333333","25.1076416666667","6501200","瑞芳區"
"224007","285-BY","2019/10/11 18:49:30","新北市瑞芳區大埔路慶安新村44-1號","121.76282","25.1001833333333","6501200","瑞芳區"
"224009","275-VK","2019/10/11 18:49:19","新北市瑞芳區山尖路172-1號","121.84814","25.1118216666667","6501200","瑞芳區"
"224008","273-VK","2019/10/11 18:49:12","新北市瑞芳區明燈路一段45巷6號","121.8214","25.1062683333333","6501200","瑞芳區"
"224005","271-BY","2019/10/11 18:49:28","新北市瑞芳區海濱路8-6號","121.831718333333","25.1261133333333","6501200","瑞芳區"
"227002","642-TC","2019/10/11 18:49:20","新北市雙溪區魚行里坤溪25號","121.870505","25.02999","6502500","雙溪區"
"227001","400-TW","2019/10/11 18:49:13","新北市雙溪區牡丹里下坑11號","121.85097","25.05619","6502500","雙溪區"
"253005","032-BX","2019/10/11 18:49:17","新北市石門區中山路11號","121.565723333333","25.29045","6502200","石門區"
"253006","295-VK","2019/10/11 18:49:31","新北市石門區下員坑15-7號","121.511491666667","25.2851233333333","6502200","石門區"
"222001","KEA-2212","2019/10/11 18:49:28","新北市深坑區北深路一段32號","121.638136666667","25.0105416666667","6501800","深坑區"
"208002","KEA-2872","2019/10/11 18:49:26","新北市金山區信義路62號","121.635686666667","25.21896","6502700","金山區"
"208003","665-BX","2019/10/11 18:49:34","新北市金山區中山路391號","121.633571666667","25.2251733333333","6502700","金山區"
"251004","009-UM","2019/10/11 18:49:22","新北市淡水區中正東路二段143巷2弄1號","121.46065","25.1472833333333","6501000","淡水區"
"251010","413-VK","2019/10/11 18:49:13","新北市淡水區沙崙路15號","121.421228333333","25.18127","6501000","淡水區"
"243009","549-UM","2019/10/11 18:49:30","新北市泰山區泰林路二段362號","121.428691666667","25.0636316666667","6501600","泰山區"
"251012","443-VK","2019/10/11 18:49:21","新北市淡水區北新路65號","121.446008333333","25.17829","6501000","淡水區"
"251001","559-UM","2019/10/11 18:49:15","新北市淡水區自強路116-12號","121.463151666667","25.1321716666667","6501000","淡水區"
"251009","575-R6","2019/10/11 18:49:30","新北市淡水區重建街210號","121.441211666667","25.1746933333333","6501000","淡水區"
"251011","650-BX","2019/10/11 18:49:29","新北市淡水區學府路17號","121.44763","25.168295","6501000","淡水區"
"251002","672-BX","2019/10/11 18:49:14","新北市淡水區學府路63號","121.448311666667","25.1695316666667","6501000","淡水區"
"251003","766-UM","2019/10/11 18:49:22","新北市淡水區中山北路一段212巷38號","121.446076666667","25.17907","6501000","淡水區"
"207003","550-UM","2019/10/11 18:49:29","新北市萬里區野柳里港東路341號","121.688703333333","25.2038733333333","6502800","萬里區"
"207004","291-VK","2019/10/11 18:49:19","新北市萬里區萬里里獅頭路23號","121.693225","25.178265","6502800","萬里區"
"252002","178-VK","2019/10/11 18:49:26","新北市三芝區智成街70號","121.504798333333","25.25598","6502100","三芝區"
"252003","249-BX","2019/10/11 18:49:23","新北市淡水區淡金路五段172號","121.457378333333","25.24053","6502100","三芝區"
"208001","170-UY","2019/10/11 18:49:21","新北市金山區文化三路66巷1號","121.634188333333","25.2256283333333","6502700","金山區"
"237004","KEA-2597","2019/10/11 18:49:14","新北市三峽區有木31號","121.429956666667","24.8631883333333","6500900","三峽區"
"237007","153-BY","2019/10/11 18:49:11","新北市三峽區中正路二段399號","121.365013333333","24.90756","6500900","三峽區"
"237009","210-TH","2019/10/11 18:49:21","新北市三峽區民權街147號","121.368641666667","24.9317533333333","6500900","三峽區"
"237013","252-BX","2019/10/11 18:49:32","新北市三峽區光明路69巷25號","121.37657","24.92919","6500900","三峽區"
"237012","275-BY","2019/10/11 18:49:20","新北市三峽區三樹路340號","121.383948333333","24.943355","6500900","三峽區"
"237008","302-VK","2019/10/11 18:49:23","新北市三峽區白雞33-54號","121.370586666667","24.912635","6500900","三峽區"
"237014","433-BY","2019/10/11 18:49:23","新北市三峽區隆恩街212號","121.359671666667","24.9418","6500900","三峽區"
"237006","5529-G3","2019/10/11 18:49:26","新北市三峽區溪東路211巷7號","121.405125","24.9336466666667","6500900","三峽區"
"237011","KEA-2596","2019/10/11 18:49:20","新北市三峽區溪東路106號","121.403266666667","24.9339733333333","6500900","三峽區"
"237015","649-BX","2019/10/11 18:49:21","新北市三峽區建安107-5號","121.457018333333","24.9224466666667","6500900","三峽區"
"237010","706-TV","2019/10/11 18:49:28","新北市三峽區中山路257巷1號","121.36244","24.9373416666667","6500900","三峽區"
"237005","AKY-6261","2019/10/11 18:49:17","新北市三峽區文化路185號","121.366866666667","24.93574","6500900","三峽區"
"236042","KED-0685","2019/10/11 18:49:33","新北市土城區裕民路137-3號","121.45158","24.98627","6501300","土城區"
"236079","166-UM","2019/10/11 18:49:12","新北市土城區中央路四段67巷34號","121.41784","24.957145","6501300","土城區"
"236030","253-BX","2019/10/11 18:49:23","新北市土城區忠義路26巷25號","121.439595","24.969605","6501300","土城區"
"236026","269-VK","2019/10/11 18:49:21","新北市土城區興城路76號","121.441095","24.9720033333333","6501300","土城區"
"236014","270-VK","2019/10/11 18:49:30","新北市土城區金城路二段368號","121.462561666667","24.98531","6501300","土城區"
"236039","271-VK","2019/10/11 18:49:25","新北市土城區仁愛路52號","121.462198333333","24.9788216666667","6501300","土城區"
"236069","KEA-2877","2019/10/11 18:49:16","新北市土城區永豐路157巷4號","121.46821","24.98148","6501300","土城區"
"252001","KED-0821","2019/10/11 18:49:33","新北市三芝區中正路三段9號","121.502821666667","25.25391","6502100","三芝區"
"236020","401-BY","2019/10/11 18:49:17","新北市土城區延吉街253巷3號","121.46777","24.9846816666667","6501300","土城區"
"236063","752-BX","2019/10/11 18:49:25","新北市土城區金城路三段207巷6弄6號","121.470415","24.9900733333333","6501300","土城區"
"236059","912-UM","2019/10/11 18:49:26","新北市土城區金城路一段112號","121.446155","24.9747883333333","6501300","土城區"
"236048","913-UM","2019/10/11 18:49:32","新北市土城區青雲路10-2號","121.460128333333","24.9889183333333","6501300","土城區"
"236055","AAC-216","2019/10/11 18:49:31","新北市土城區裕民路110號","121.450815","24.98669","6501300","土城區"
"242009","349-TH","2019/10/11 18:49:14","新北市樹林區環河路10號","121.427613333333","24.97861","6500500","新莊區"
"238023","601-UM","2019/10/11 18:49:13","桃園市龜山區萬壽路一段420號","121.399761666667","25.0165","6500700","樹林區"
"238024","5061-A6","2019/10/11 18:49:29","新北市樹林區太平路120號","121.418511666667","24.97845","6500700","樹林區"
"238018","KEA-2217","2019/10/11 18:46:16","新北市樹林區太平路50號","121.418948333333","24.9824366666667","6500700","樹林區"
"238022","KEA-2213","2019/10/11 18:49:14","新北市樹林區中華路190-8號","121.411335","24.9804966666667","6500700","樹林區"
"238021","KEA-2539","2019/10/11 18:49:14","新北市樹林區西圳街二段80巷1號","121.385791666667","24.95859","6500700","樹林區"
"238017","283-BY","2019/10/11 18:49:30","新北市樹林區光興街44號","121.409915","25.00277","6500700","樹林區"
"238014","282-BY","2019/10/11 18:49:16","新北市樹林區大安路111巷25號","121.423223333333","24.99765","6500700","樹林區"
"238020","268-VK","2019/10/11 18:49:17","新北市樹林區俊英街223巷2號","121.423678333333","25.0133583333333","6500700","樹林區"
"238026","172-UY","2019/10/11 18:49:31","新北市樹林區中山路三段168號","121.388981666667","24.9701","6500700","樹林區"
"238016","169-UY","2019/10/11 18:49:23","新北市樹林區中山路一段412號","121.417396666667","24.9851933333333","6500700","樹林區"
"239007","AAC-297","2019/10/11 18:49:14","新北市鶯歌區中正一路建德巷26號","121.364525","24.95764","6500800","鶯歌區"
"239006","891-R6","2019/10/11 18:49:21","新北市鶯歌區鶯桃路296巷53號","121.335835","24.96137","6500800","鶯歌區"
"239008","527-UM","2019/10/11 18:49:14","新北市鶯歌區朝陽街4號","121.336243333333","24.9766133333333","6500800","鶯歌區"
"239005","526-UM","2019/10/11 18:49:28","新北市鶯歌區鳳吉一街170號","121.328906666667","24.9755616666667","6500800","鶯歌區"
"239001","417-VK","2019/10/11 18:49:27","新北市鶯歌區二橋街7號","121.336805","24.93945","6500800","鶯歌區"
"239003","360-BY","2019/10/11 18:49:24","新北市鶯歌區鶯桃路536號","121.33127","24.967085","6500800","鶯歌區"
"239002","359-BY","2019/10/11 18:49:16","新北市鶯歌區中正一路170號","121.352575","24.9563183333333","6500800","鶯歌區"
"239004","193-VK","2019/10/11 18:49:21","新北市鶯歌區中正三路247巷50弄1號","121.333298333333","24.9373066666667","6500800","鶯歌區"
"221036","130-UY","2019/10/11 18:49:23","新北市汐止區南昌街35號","121.66294","25.069205","6501100","汐止區"
"221015","131-UY","2019/10/11 18:49:28","新北市汐止區鄉友街26號","121.668661666667","25.0811933333333","6501100","汐止區"
"244019","KED-0667","2019/10/11 18:49:25","新北市林口區麗園二街10-6號","121.37829","25.0694233333333","6501700","林口區"
"221032","280-BY","2019/10/11 18:49:28","新北市汐止區橫科路121巷52弄3號","121.622643333333","25.0509283333333","6501100","汐止區"
"221021","299-VK","2019/10/11 18:49:22","新北市汐止區新興路44號","121.657028333333","25.0631533333333","6501100","汐止區"
"221031","353-TW","2019/10/11 18:49:27","新北市汐止區福德一路272巷11號","121.631863333333","25.0643233333333","6501100","汐止區"
"221035","622-UM","2019/10/11 18:49:18","新北市汐止區大同路二段101號","121.649761666667","25.0631966666667","6501100","汐止區"
"221025","623-UM","2019/10/11 18:49:18","新北市汐止區仁愛路113巷22號","121.661851666667","25.0642283333333","6501100","汐止區"
"221002","707-TV","2019/10/11 18:49:24","新北市汐止區大同路一段44號","121.622206666667","25.0549816666667","6501100","汐止區"
"221018","753-BX","2019/10/11 18:49:15","新北市汐止區茄安路2號","121.672665","25.06762","6501100","汐止區"
"220079","145-BY","2019/10/11 18:49:26","新北市板橋區南雅西路二段192巷1弄48號","121.452528333333","25.01529","6500100","板橋區"
"220082","610-BX","2019/10/11 18:49:29","新北市板橋區篤行路三段71號","121.427408333333","24.985535","6500100","板橋區"
"224002","257-TC","2019/10/11 18:49:30","新北市瑞芳區東和路31-8號","121.805441666667","25.1059233333333","6501200","瑞芳區"
"220091","267-BY","2019/10/11 18:49:17","新北市板橋區雙十路二段47巷61號","121.474851666667","25.0251983333333","6500100","板橋區"
"220056","276-BY","2019/10/11 18:49:31","新北市板橋區四川路一段351號","121.458511666667","25.0000783333333","6500100","板橋區"
"220072","277-BY","2019/10/11 18:49:17","新北市板橋區金門街25巷10號","121.433985","24.994385","6500100","板橋區"
"220101","280-UM","2019/10/11 18:49:13","新北市板橋區文化路二段182巷11號","121.47207","25.0267683333333","6500100","板橋區"
"220071","283-VK","2019/10/11 18:49:31","新北市板橋區四川路一段29號","121.459506666667","25.0067266666667","6500100","板橋區"
"220094","285-UM","2019/10/11 18:49:28","新北市板橋區文化路二段76號","121.469413333333","25.0249866666667","6500100","板橋區"
"220083","286-VK","2019/10/11 18:49:17","新北市板橋區大觀路二段22巷38-2號","121.444631666667","25.0037933333333","6500100","板橋區"
"220081","287-VK","2019/10/11 18:49:17","新北市板橋區大觀路二段105號","121.446136666667","25.00175","6500100","板橋區"
"220090","288-VK","2019/10/11 18:49:13","新北市板橋區互助街1巷2號","121.463225","25.0276216666667","6500100","板橋區"
"220061","293-UM","2019/10/11 18:49:31","新北市板橋區永豐街111號","121.474211666667","25.0195166666667","6500100","板橋區"
"220062","295-UM","2019/10/11 18:49:22","新北市板橋區中山路二段40巷7號","121.47332","25.0149066666667","6500100","板橋區"
"220084","296-UM","2019/10/11 18:49:32","新北市板橋區大觀路二段150巷15號","121.441658333333","24.999285","6500100","板橋區"
"220053","299-UM","2019/10/11 18:49:23","新北市板橋區成功路48號","121.475025","25.0177666666667","6500100","板橋區"
"220075","303-R5","2019/10/11 18:49:16","新北市板橋區館前西路263號","121.454008333333","25.0087183333333","6500100","板橋區"
"220092","307-R5","2019/10/11 18:49:32","新北市板橋區文化路一段104巷1弄24號","121.465555","25.01805","6500100","板橋區"
"220098","317-R6","2019/10/11 18:49:29","新北市板橋區民生路二段234巷24弄2號","121.47021","25.0225183333333","6500100","板橋區"
"220089","487-VK","2019/10/11 18:49:17","新北市板橋區長江路三段126號","121.475355","25.0345133333333","6500100","板橋區"
"220088","491-VK","2019/10/11 18:49:16","新北市板橋區莒光路59號","121.470918333333","25.024305","6500100","板橋區"
"220035","560-BX","2019/10/11 18:49:11","新北市板橋區中正路275巷77號","121.452373333333","25.0180816666667","6500100","板橋區"
"220103","561-BX","2019/10/11 18:49:27","新北市板橋區介壽街84巷56號","121.468626666667","25.0183533333333","6500100","板橋區"
"220080","568-UM","2019/10/11 18:49:18","新北市板橋區大觀路二段265巷20弄49號","121.441205","24.9979333333333","6500100","板橋區"
"220063","609-BX","2019/10/11 18:49:32","新北市板橋區民生路一段80號","121.473575","25.0154066666667","6500100","板橋區"
"220084","630-UY","2019/10/11 18:49:24","新北市板橋區南雅西路二段130號","121.451966666667","25.01269","6500100","板橋區"
"220057","686-BX","2019/10/11 18:49:29","新北市板橋區重慶路230號","121.46286","25.00163","6500100","板橋區"
"220077","687-BX","2019/10/11 18:49:19","新北市板橋區大觀路二段174巷182號","121.442123333333","25.0036666666667","6500100","板橋區"
"220093","689-BX","2019/10/11 18:49:34","新北市板橋區民生路三段64號","121.467003333333","25.0255866666667","6500100","板橋區"
"220054","741-BX","2019/10/11 18:49:29","新北市板橋區館前東路17號","121.460115","25.0072","6500100","板橋區"
"220102","KEA-2699","2019/10/11 18:49:15","新北市板橋區萬板路476號","121.48","25.0258783333333","6500100","板橋區"
"220055","827-TW","2019/10/11 18:49:29","新北市板橋區忠孝路41-1號","121.461353333333","25.0020583333333","6500100","板橋區"
"220068","830-TW","2019/10/11 18:49:27","新北市板橋區大同街35巷15號","121.477466666667","25.0277733333333","6500100","板橋區"
"220067","831-TW","2019/10/11 18:49:28","新北市板橋區中山路二段90巷47弄16號","121.47712","25.014885","6500100","板橋區"
"220074","895-R6","2019/10/11 18:49:24","新北市板橋區南門街53號","121.457226666667","25.00835","6500100","板橋區"
"220073","985-R7","2019/10/11 18:49:17","新北市板橋區林園街1號","121.453876666667","25.009175","6500100","板橋區"
"220097","AAC-210","2019/10/11 18:49:22","新北市板橋區陽明街133號","121.46329","25.0239016666667","6500100","板橋區"
"220064","AAC-253","2019/10/11 18:49:23","新北市板橋區漢生東路117號","121.467405","25.0147816666667","6500100","板橋區"
"235068","KEA-2873","2019/10/11 18:49:25","新北市中和區中正路211巷32弄20號","121.496533333333","24.9923333333333","6500300","中和區"
"235061","KEA-2875","2019/10/11 18:49:26","新北市中和區民享街59巷5號","121.474468333333","25.0025666666667","6500300","中和區"
"235062","KEA-2876","2019/10/11 18:49:21","新北市中和區中山路二段512號","121.486473333333","25.004895","6500300","中和區"
