"lineid","car","time","location","longitude","latitude","cityid","cityname"
"234046","148-BY","2019/10/11 19:29:34","新北市永和區秀朗路二段231號","121.526438333333","25.0002133333333","6500400","永和區"
"234081","298-R6","2019/10/11 19:29:25","新北市永和區福和路5號","121.525053333333","25.0088016666667","6500400","永和區"
"234038","336-UY","2019/10/11 19:29:18","新北市永和區民樂街38號","121.527513333333","25.0007166666667","6500400","永和區"
"234086","338-UY","2019/10/11 19:29:15","新北市永和區林森路80號","121.523346666667","25.00374","6500400","永和區"
"234070","552-UM","2019/10/11 19:29:18","新北市永和區警光街5-1號","121.519731666667","25.0095083333333","6500400","永和區"
"234064","553-UM","2019/10/11 19:29:17","新北市永和區中正路368巷1弄86號","121.520415","25.0007583333333","6500400","永和區"
"234017","745-BX","2019/10/11 19:29:26","新北市永和區環河西路一段63號","121.513373333333","25.0181333333333","6500400","永和區"
"234030","746-BX","2019/10/11 19:29:31","新北市永和區民權路47號","121.519946666667","24.9971733333333","6500400","永和區"
"234054","KEA-2590","2019/10/11 19:29:12","新北市永和區復興街18號","121.515865","25.0128883333333","6500400","永和區"
"234007","KED-0605","2019/10/11 19:29:22","新北市永和區永和路一段112-1號","121.51343","25.0073233333333","6500400","永和區"
"234013","KEA-2591","2019/10/11 19:29:23","新北市永和區中山路一段143號","121.51028","25.009715","6500400","永和區"
"234061","AAD-866","2019/10/11 19:29:15","新北市永和區中正路520號","121.517295","25.0048383333333","6500400","永和區"
"234042","862-TW","2019/10/11 19:29:31","新北市永和區水源街34號","121.511108333333","25.0045116666667","6500400","永和區"
"234050","863-TW","2019/10/11 19:29:32","新北市永和區信義路77號","121.512463333333","25.0132316666667","6500400","永和區"
"234026","9371-KE","2019/10/11 19:29:15","新北市中和區安樂路211號","121.514378333333","24.9986883333333","6500400","永和區"
"234011","9373-KE","2019/10/11 19:29:16","新北市永和區保安路244號","121.506671666667","25.01266","6500400","永和區"
"249003","593-UM","2019/10/11 19:29:28","新北市八里區舊城路21號","121.399735","25.147115","6502300","八里區"
"248014","025-BX","2019/10/11 19:29:35","新北市五股區五福路9-1號","121.433685","25.0883666666667","6501500","五股區"
"248008","KED-0815","2019/10/11 19:29:31","新北市五股區中興路一段143號","121.465266666667","25.0735383333333","6501500","五股區"
"248018","KED-0813","2019/10/11 19:29:12","新北市五股區外寮路6號","121.424016666667","25.0777833333333","6501500","五股區"
"248012","247-BX","2019/10/11 19:29:31","新北市五股區成泰路二段91巷11號","121.437505","25.08411","6501500","五股區"
"248004","677-BX","2019/10/11 19:29:20","新北市五股區工商路113號","121.436716666667","25.085665","6501500","五股區"
"248002","678-BX","2019/10/11 19:29:17","新北市五股區凌雲路一段158巷6號","121.447766666667","25.102975","6501500","五股區"
"234023","9380-KE","2019/10/11 19:29:32","新北市永和區環河東路二段20號","121.522483333333","25.0129466666667","6500400","永和區"
"234077","969-R7","2019/10/11 19:29:15","新北市永和區民權路60號","121.519748333333","24.99825","6500400","永和區"
"234074","AAC-211","2019/10/11 19:29:19","新北市永和區環河東路一段122號","121.520565","25.0156383333333","6500400","永和區"
"234067","AAC-212","2019/10/11 19:29:28","新北市永和區永貞路349號","121.509278333333","25.0074","6500400","永和區"
"234003","AAC-295","2019/10/11 19:29:32","新北市永和區福和路385號","121.51425","25.0076766666667","6500400","永和區"
"244023","483-VK","2019/10/11 19:29:17","新北市林口區民富街95號","121.370161666667","25.074995","6501700","林口區"
"244025","837-TS","2019/10/11 19:29:12","新北市林口區文化三路一段555巷50號","121.369833333333","25.076925","6501700","林口區"
"243012","AAD-798","2019/10/11 19:29:26","新北市泰山區仁義路213號","121.43321","25.053645","6501600","泰山區"
"243010","297-R6","2019/10/11 19:19:03","新北市泰山區明志路一段504號","121.430433333333","25.05437","6501600","泰山區"
"243014","KEA-2801","2019/10/11 19:29:28","新北市泰山區中港西路490號","121.432673333333","25.0525216666667","6501600","泰山區"
"243016","421-VK","2019/10/11 19:29:26","新北市泰山區明志路三段324巷2號","121.421788333333","25.036415","6501600","泰山區"
"243011","KEA-2216","2019/10/11 19:29:25","新北市三重區新北大道六段50-1號","121.429121666667","25.0402783333333","6501600","泰山區"
"243013","646-TV","2019/10/11 19:29:28","新北市泰山區貴子路36巷10號","121.425873333333","25.0413916666667","6501600","泰山區"
"243015","680-BX","2019/10/11 19:29:19","新北市泰山區明志路二段136巷8號","121.427146666667","25.0511783333333","6501600","泰山區"
"222003","436-BY","2019/10/11 19:29:25","新北市深坑區深南路51-1號","121.62123","25.0098366666667","6501800","深坑區"
"222002","659-BX","2019/10/11 19:29:26","新北市深坑區北深路一段177號","121.632488333333","25.010845","6501800","深坑區"
"231061","002-UM","2019/10/11 19:29:33","新北市新店區安康路一段266巷4號","121.520058333333","24.9640166666667","6500600","新店區"
"231058","0293-UT","2019/10/11 19:29:19","新北市新店區北新路一段106號","121.542683333333","24.9693883333333","6500600","新店區"
"231044","046-UY","2019/10/11 19:29:13","新北市新店區中興路三段131號","121.544248333333","24.9791433333333","6500600","新店區"
"231060","106-UY","2019/10/11 19:29:26","新北市新店區安康路二段51號","121.514326666667","24.96343","6500600","新店區"
"231051","107-UY","2019/10/11 19:29:14","新北市新店區中央路97號","121.531351666667","24.97497","6500600","新店區"
"231049","108-UY","2019/10/11 19:29:21","新北市新店區北新路三段65巷34弄15號","121.540035","24.981465","6500600","新店區"
"231065","110-UY","2019/10/11 19:29:33","新北市新店區安祥路109巷61號","121.477275","24.9599116666667","6500600","新店區"
"221008","KEA-2785","2019/10/11 19:29:18","新北市汐止區康寧街235號","121.624076666667","25.06681","6501100","汐止區"
"231062","256-BX","2019/10/11 19:29:29","新北市新店區莒光路1號","121.527863333333","24.9618683333333","6500600","新店區"
"231054","260-TV","2019/10/11 19:29:28","新北市新店區文中路40號","121.539706666667","24.9565416666667","6500600","新店區"
"231042","268-BY","2019/10/11 19:29:33","新北市新店區中興路一段146號","121.542465","24.9637583333333","6500600","新店區"
"231050","AAD-862","2019/10/11 19:29:30","新北市新店區竹林路94號","121.553905","24.95018","6500600","新店區"
"231045","355-BY","2019/10/11 19:29:23","新北市新店區北宜路二段207號","121.55311","24.9532733333333","6500600","新店區"
"231056","4715-K9","2019/10/11 19:29:19","新北市新店區安民街121巷12號","121.5154","24.9691683333333","6500600","新店區"
"231053","512-UM","2019/10/11 19:29:13","新北市新店區新烏路二段178號","121.54811","24.9180133333333","6500600","新店區"
"231064","515-UM","2019/10/11 19:29:23","新北市新店區安和路二段77號","121.518425","24.96878","6500600","新店區"
"231041","619-UM","2019/10/11 19:29:31","新北市新店區中正路652號","121.534013333333","24.9893366666667","6500600","新店區"
"231063","641-BX","2019/10/11 19:29:25","新北市新店區達觀路14巷1號","121.503603333333","24.9411733333333","6500600","新店區"
"231048","KED-0819","2019/10/11 19:29:23","新北市新店區五峰路87號","121.54617","24.9673766666667","6500600","新店區"
"231046","719-UM","2019/10/11 19:27:32","新北市新店區光明街284號","121.540395","24.9646616666667","6500600","新店區"
"231057","720-UM","2019/10/11 19:29:24","新北市新店區花園一路三段28號","121.55092","24.9328733333333","6500600","新店區"
"231059","897-TW","2019/10/11 19:29:15","新北市新店區安和路三段47號","121.518076666667","24.9824916666667","6500600","新店區"
"231040","898-TW","2019/10/11 19:29:23","新北市新店區三民路20巷2號","121.537626666667","24.970585","6500600","新店區"
"231043","899-TW","2019/10/11 19:29:27","新北市新店區北新路二段199號","121.542583333333","24.9782266666667","6500600","新店區"
"231066","AKT-0513","2019/10/11 19:29:22","新北市新店區安康路三段359巷16號","121.48461","24.949575","6500600","新店區"
"241028","022-UY","2019/10/11 19:29:23","新北市三重區中寮街31號","121.4926","25.0588866666667","6500200","三重區"
"241008","059-VK","2019/10/11 19:29:30","新北市三重區永福街135巷30號","121.477495","25.0770633333333","6500200","三重區"
"241031","061-VK","2019/10/11 19:29:29","新北市三重區集美街100號","121.488563333333","25.05413","6500200","三重區"
"241007","066-VK","2019/10/11 19:29:26","新北市三重區溪尾街122號","121.489408333333","25.0791833333333","6500200","三重區"
"241006","262-UM","2019/10/11 19:29:19","新北市三重區三和路四段95號","121.487931666667","25.07598","6500200","三重區"
"241009","267-UM","2019/10/11 19:29:30","新北市三重區仁美街128號","121.485495","25.081265","6500200","三重區"
"241032","269-UM","2019/10/11 19:29:18","新北市三重區三陽路64號","121.483783333333","25.0587733333333","6500200","三重區"
"241013","270-UM","2019/10/11 19:29:21","新北市三重區仁愛街123-3號","121.495885","25.0749683333333","6500200","三重區"
"241025","271-UM","2019/10/11 19:29:33","新北市三重區頂崁街210巷28弄9號","121.475793333333","25.06717","6500200","三重區"
"241035","KEA-2210","2019/10/11 19:29:13","新北市三重區信義西街1號","121.498115","25.0648466666667","6500200","三重區"
"241030","KED-0822","2019/10/11 19:29:33","新北市三重區環河南路254巷32號","121.490101666667","25.0511","6500200","三重區"
"241020","478-VK","2019/10/11 19:29:15","新北市三重區三和路四段20巷22-1號","121.490206666667","25.07375","6500200","三重區"
"241023","545-UM","2019/10/11 19:29:29","新北市三重區頂崁街99號","121.477951666667","25.0638416666667","6500200","三重區"
"241019","KEA-2593","2019/10/11 19:29:18","新北市三重區力行路一段89巷9號","121.486773333333","25.0684083333333","6500200","三重區"
"241022","KED-0820","2019/10/11 19:29:31","新北市三重區三民街165巷19號","121.484213333333","25.06542","6500200","三重區"
"241026","887-TS","2019/10/11 19:29:25","新北市三重區光興街43號","121.499308333333","25.0602433333333","6500200","三重區"
"241029","942-UM","2019/10/11 19:29:32","新北市三重區泉州街84巷18號","121.49584","25.0543116666667","6500200","三重區"
"235066","003-UY","2019/10/11 19:29:30","新北市中和區中和路132號","121.503741666667","24.999375","6500300","中和區"
"235063","006-UY","2019/10/11 19:29:25","新北市中和區連城路139巷66號","121.496708333333","24.9967383333333","6500300","中和區"
"235056","096-UM","2019/10/11 19:29:20","新北市中和區員山路581巷31弄33號","121.476533333333","25.0104283333333","6500300","中和區"
"235039","097-UM","2019/10/11 19:29:15","新北市中和區秀峰街127巷2號","121.519663333333","24.9910033333333","6500300","中和區"
"235065","098-UM","2019/10/11 19:29:20","新北市中和區莊敬路18號","121.49988","25.00443","6500300","中和區"
"235040","150-BY","2019/10/11 19:29:30","新北市中和區保健路46巷26弄24號","121.507946666667","24.99561","6500300","中和區"
"235058","151-BY","2019/10/11 19:29:28","新北市中和區員山路144號","121.481251666667","24.99652","6500300","中和區"
"235055","183-VK","2019/10/11 19:29:32","新北市中和區中山路三段179巷6號","121.473258333333","25.0058616666667","6500300","中和區"
"235038","185-VK","2019/10/11 19:29:21","新北市中和區自立路29巷14弄30號","121.522873333333","24.995105","6500300","中和區"
"235067","255-BX","2019/10/11 19:29:14","新北市中和區新生街214號","121.483815","24.9987083333333","6500300","中和區"
"235044","293-VK","2019/10/11 19:29:16","新北市中和區捷運路149-1號","121.50672","24.9910316666667","6500300","中和區"
"235072","301-VK","2019/10/11 19:29:23","新北市中和區連城路265巷10弄2號","121.491615","24.9954833333333","6500300","中和區"
"235043","352-BY","2019/10/11 19:29:29","新北市中和區安和路27號","121.510465","24.9942783333333","6500300","中和區"
"235042","KEA-2878","2019/10/11 19:29:33","新北市中和區中和路262巷43弄4號","121.509743333333","24.999735","6500300","中和區"
"235070","558-UM","2019/10/11 19:29:27","新北市中和區連勝街7號","121.499103333333","24.9983483333333","6500300","中和區"
"235045","565-BX","2019/10/11 19:29:21","新北市中和區景新街378號","121.512333333333","24.9901266666667","6500300","中和區"
"235060","KED-0823","2019/10/11 19:29:20","新北市中和區新生街16巷23號","121.482155","25.0043116666667","6500300","中和區"
"235054","640-BX","2019/10/11 19:29:21","新北市中和區莒光路86號","121.472355","25.0026316666667","6500300","中和區"
"235047","732-UM","2019/10/11 19:29:25","新北市中和區景平路259巷52號","121.506311666667","24.992875","6500300","中和區"
"235046","733-UM","2019/10/11 19:29:16","新北市中和區忠孝街37巷27號","121.51089","24.9839866666667","6500300","中和區"
"235071","783-BX","2019/10/11 19:28:55","新北市中和區連城路469-1號","121.483576666667","24.9957616666667","6500300","中和區"
"235057","801-TS","2019/10/11 19:29:28","新北市中和區員山路146號","121.481278333333","24.9968216666667","6500300","中和區"
"235041","802-TS","2019/10/11 19:29:12","新北市中和區中和路390號","121.511115","25.002625","6500300","中和區"
"235052","805-TS","2019/10/11 19:29:24","新北市中和區華新街143巷102號","121.50678","24.978805","6500300","中和區"
"235048","896-TW","2019/10/11 19:29:29","新北市中和區忠孝街2-6號","121.509111666667","24.9829833333333","6500300","中和區"
"235053","900-TW","2019/10/11 19:29:25","新北市中和區民德路78號","121.468795","25.0014416666667","6500300","中和區"
"235064","911-UM","2019/10/11 19:29:02","新北市中和區圓通路21號","121.501316666667","24.9978566666667","6500300","中和區"
"235051","157-BY","2019/10/11 19:29:24","新北市中和區南山路233號","121.503756666667","24.9931133333333","6500300","中和區"
"235037","AAC-213","2019/10/11 19:29:33","新北市中和區成功路6號","121.526148333333","24.99388","6500300","中和區"
"235059","AAC-215","2019/10/11 19:29:29","新北市中和區圓通路252-3號","121.493626666667","24.9910166666667","6500300","中和區"
"220065","072-UY","2019/10/11 19:29:15","新北市板橋區實踐路93巷56號","121.466111666667","25.0049816666667","6500100","板橋區"
"220106","075-UY","2019/10/11 19:29:31","新北市板橋區文化路二段526號","121.476006666667","25.033835","6500100","板橋區"
"220069","AAD-861","2019/10/11 19:29:20","新北市板橋區南雅南路二段18號","121.454425","25.003515","6500100","板橋區"
"247004","500-BY","2019/10/11 19:29:31","新北市蘆洲區長安街138號","121.460256666667","25.0820916666667","6501400","蘆洲區"
"226004","312-R5","2019/10/11 19:29:23","新北市平溪區靜安路三段369號","121.780668333333","25.0455316666667","6502400","平溪區"
"235049","251-BX","2019/10/11 19:29:21","新北市中和區安平路14號","121.509223333333","24.9941283333333","6500300","中和區"
"228001","212-TW","2019/10/11 19:29:26","新北市貢寮區真理里大澳街23號","121.925018333333","25.0561433333333","6502600","貢寮區"
"228003","828-UM","2019/10/11 19:29:20","新北市貢寮區和美里龍洞街52-1號","121.911756666667","25.113285","6502600","貢寮區"
"224010","AGQ-8101","2019/10/11 19:29:28","新北市瑞芳區基山街73號","121.845063333333","25.10842","6501200","瑞芳區"
"224009","275-VK","2019/10/11 19:29:19","新北市瑞芳區金光路247號","121.851058333333","25.1079666666667","6501200","瑞芳區"
"224008","273-VK","2019/10/11 19:29:32","新北市瑞芳區瑞芳街139號","121.805126666667","25.1098633333333","6501200","瑞芳區"
"224005","271-BY","2019/10/11 19:29:28","新北市瑞芳區深澳路1號","121.81647","25.1285633333333","6501200","瑞芳區"
"227002","642-TC","2019/10/11 19:29:20","新北市雙溪區雙溪里光復街20號","121.86517","25.0354316666667","6502500","雙溪區"
"227001","400-TW","2019/10/11 19:29:13","新北市雙溪區新基里新基北街43號","121.868203333333","25.0397233333333","6502500","雙溪區"
"222001","KEA-2212","2019/10/11 19:29:28","新北市深坑區深坑街10號","121.615851666667","25.0028666666667","6501800","深坑區"
"208002","KEA-2872","2019/10/11 19:29:26","新北市金山區中山路313巷8號","121.635381666667","25.2234183333333","6502700","金山區"
"208003","665-BX","2019/10/11 19:29:23","新北市金山區仁愛路37-13號","121.635793333333","25.22022","6502700","金山區"
"251005","010-UM","2019/10/11 19:29:15","新北市淡水區水源街一段47巷24號","121.443941666667","25.173095","6501000","淡水區"
"251008","181-VK","2019/10/11 19:29:20","新北市淡水區中正路二段22巷3號","121.419938333333","25.1813816666667","6501000","淡水區"
"251010","413-VK","2019/10/11 19:29:33","新北市淡水區中正路二段397號","121.425846666667","25.1909633333333","6501000","淡水區"
"243009","549-UM","2019/10/11 19:29:30","新北市五股區成泰路一段7巷42號","121.432518333333","25.06718","6501600","泰山區"
"251007","442-VK","2019/10/11 19:29:27","新北市淡水區淡金路16巷99號","121.458995","25.1616883333333","6501000","淡水區"
"251001","559-UM","2019/10/11 19:29:14","新北市淡水區民權路139號","121.459998333333","25.1365133333333","6501000","淡水區"
"251006","561-UM","2019/10/11 19:29:31","新北市淡水區大信街52巷7弄1號","121.441361666667","25.1780066666667","6501000","淡水區"
"251009","575-R6","2019/10/11 19:29:30","新北市淡水區中山路31號","121.443935","25.1703283333333","6501000","淡水區"
"251002","672-BX","2019/10/11 19:29:12","新北市淡水區淡海路56號","121.423116666667","25.18056","6501000","淡水區"
"251003","766-UM","2019/10/11 19:29:22","新北市淡水區中山北路三段116號","121.444038333333","25.1940883333333","6501000","淡水區"
"207003","550-UM","2019/10/11 19:29:29","新北市萬里區大鵬里萬里加投21-3號","121.648315","25.2111083333333","6502800","萬里區"
"207004","291-VK","2019/10/11 19:29:26","新北市萬里區萬里里瑪鋉路87-1號","121.688708333333","25.177205","6502800","萬里區"
"252002","178-VK","2019/10/11 19:29:26","新北市三芝區淡金路二段18-1號","121.50268","25.2595266666667","6502100","三芝區"
"208001","170-UY","2019/10/11 19:29:21","新北市金山區金包里街79號","121.638145","25.2219083333333","6502700","金山區"
"237004","KEA-2597","2019/10/11 19:29:14","新北市三峽區有木205-1號","121.439018333333","24.8516183333333","6500900","三峽區"
"237007","153-BY","2019/10/11 19:29:31","新北市三峽區二鬮路136巷18弄12號","121.358938333333","24.908565","6500900","三峽區"
"237009","210-TH","2019/10/11 19:29:21","新北市三峽區民權街21號","121.370171666667","24.9343083333333","6500900","三峽區"
"237013","252-BX","2019/10/11 19:29:32","新北市三峽區介壽路一段342號","121.38147","24.9302733333333","6500900","三峽區"
"237012","275-BY","2019/10/11 19:29:19","新北市三峽區三樹路98巷95號","121.382275","24.9395866666667","6500900","三峽區"
"237008","302-VK","2019/10/11 19:29:23","新北市三峽區永安街144號","121.373998333333","24.928685","6500900","三峽區"
"237014","433-BY","2019/10/11 19:29:23","新北市三峽區中山路117號","121.365615","24.9358883333333","6500900","三峽區"
"237006","5529-G3","2019/10/11 19:29:26","新北市三峽區中正路一段336巷15弄2號","121.369941666667","24.9249516666667","6500900","三峽區"
"237011","KEA-2596","2019/10/11 19:29:20","新北市三峽區介壽路一段227號","121.37907","24.9304066666667","6500900","三峽區"
"237015","649-BX","2019/10/11 19:29:21","新北市三峽區成福路313號","121.429358333333","24.92363","6500900","三峽區"
"237010","706-TV","2019/10/11 19:29:28","新北市三峽區國光街41號","121.374793333333","24.9376733333333","6500900","三峽區"
"237005","AKY-6261","2019/10/11 19:29:17","新北市三峽區中山路184巷2號","121.364071666667","24.9369216666667","6500900","三峽區"
"236079","166-UM","2019/10/11 19:29:32","新北市土城區中州路27巷76號","121.412633333333","24.9564233333333","6501300","土城區"
"236069","KEA-2877","2019/10/11 19:29:17","新北市土城區學府路一段155巷2號","121.453353333333","24.985725","6501300","土城區"
"252001","KED-0821","2019/10/11 19:29:12","新北市三芝區長勤街63-1號","121.500148333333","25.2560616666667","6502100","三芝區"
"236020","401-BY","2019/10/11 19:29:17","新北市土城區峰廷街3號","121.469086666667","24.9873283333333","6501300","土城區"
"236063","752-BX","2019/10/11 19:28:45","新北市土城區金城路三段202-3號","121.469473333333","24.9885883333333","6501300","土城區"
"236059","912-UM","2019/10/11 19:29:26","新北市土城區中央路二段63號","121.442718333333","24.9789233333333","6501300","土城區"
"236048","913-UM","2019/10/11 19:29:27","新北市土城區清水路209號","121.460355","24.98189","6501300","土城區"
"236055","AAC-216","2019/10/11 19:29:17","新北市土城區學府路一段276號","121.450021666667","24.9831866666667","6501300","土城區"
"242005","751-BX","2019/10/11 19:29:22","新北市新莊區思源路52號","121.460545","25.0440733333333","6500500","新莊區"
"238015","755-BX","2019/10/11 19:29:30","新北市樹林區大安路537巷7弄9號","121.413258333333","24.98492","6500700","樹林區"
"238023","601-UM","2019/10/11 19:29:13","新北市樹林區中正路865號","121.408776666667","25.0180666666667","6500700","樹林區"
"238019","599-UM","2019/10/11 19:29:21","新北市樹林區東榮街91巷1弄5號","121.416221666667","24.9826583333333","6500700","樹林區"
"238024","5061-A6","2019/10/11 19:29:29","新北市樹林區福德街47號","121.399488333333","24.9747833333333","6500700","樹林區"
"238018","KEA-2217","2019/10/11 19:29:24","新北市樹林區中華路145號","121.421491666667","24.9821383333333","6500700","樹林區"
"238022","KEA-2213","2019/10/11 19:29:29","新北市樹林區國凱街43號","121.420575","24.9790433333333","6500700","樹林區"
"238021","KEA-2539","2019/10/11 19:29:14","新北市樹林區佳園路三段392號","121.383725","24.94477","6500700","樹林區"
"238025","303-VK","2019/10/11 19:29:29","新北市樹林區中山路一段207號","121.421058333333","24.9873833333333","6500700","樹林區"
"238017","283-BY","2019/10/11 19:29:31","新北市樹林區光興街192號","121.407848333333","25.0046916666667","6500700","樹林區"
"238014","282-BY","2019/10/11 19:29:18","新北市樹林區千歲街6巷18號","121.425516666667","24.9951933333333","6500700","樹林區"
"238020","268-VK","2019/10/11 19:29:17","新北市樹林區俊英街109號","121.425006666667","25.0097016666667","6500700","樹林區"
"238026","172-UY","2019/10/11 19:29:31","新北市樹林區佳園路三段97號","121.387468333333","24.9522916666667","6500700","樹林區"
"238016","169-UY","2019/10/11 19:29:22","新北市樹林區復興路446巷2弄2號","121.413428333333","24.9843133333333","6500700","樹林區"
"239007","AAC-297","2019/10/11 19:29:14","新北市鶯歌區西湖街53巷30-1號","121.341913333333","24.9610616666667","6500800","鶯歌區"
"239006","891-R6","2019/10/11 19:29:21","新北市鶯歌區建國路409號","121.337908333333","24.9511016666667","6500800","鶯歌區"
"239008","527-UM","2019/10/11 19:29:14","新北市鶯歌區大湖路564號","121.336715","24.9730966666667","6500800","鶯歌區"
"239005","526-UM","2019/10/11 19:29:28","新北市鶯歌區東湖路30號","121.355535","24.9719166666667","6500800","鶯歌區"
"239001","417-VK","2019/10/11 19:29:27","新北市鶯歌區鶯桃路95巷47號","121.337833333333","24.95305","6500800","鶯歌區"
"239003","360-BY","2019/10/11 19:29:24","新北市鶯歌區建國路121號","121.352066666667","24.9540016666667","6500800","鶯歌區"
"239002","359-BY","2019/10/11 19:29:16","新北市鶯歌區湖山路64巷3號","121.339856666667","24.976705","6500800","鶯歌區"
"239004","193-VK","2019/10/11 19:29:21","新北市鶯歌區二甲路41號","121.338693333333","24.9352816666667","6500800","鶯歌區"
"244019","KED-0667","2019/10/11 19:29:25","新北市林口區粉寮69號","121.404971666667","25.0908816666667","6501700","林口區"
"221027","281-BY","2019/10/11 19:29:29","新北市汐止區忠孝東路9號","121.658285","25.06591","6501100","汐止區"
"221021","299-VK","2019/10/11 19:29:22","新北市汐止區新江北路30巷15號","121.652576666667","25.068325","6501100","汐止區"
"221031","353-TW","2019/10/11 19:29:27","新北市汐止區康寧街901號","121.650758333333","25.0752933333333","6501100","汐止區"
"221025","623-UM","2019/10/11 19:29:23","新北市汐止區秀峰路57號","121.65974","25.0649733333333","6501100","汐止區"
"221002","707-TV","2019/10/11 19:29:24","新北市汐止區大同路一段344號","121.638061666667","25.0590333333333","6501100","汐止區"
"220079","145-BY","2019/10/11 19:29:26","新北市板橋區公館街84號","121.461161666667","25.0152916666667","6500100","板橋區"
"220082","610-BX","2019/10/11 19:29:29","新北市板橋區金門街265號","121.431606666667","24.9885966666667","6500100","板橋區"
"224002","257-TC","2019/10/11 19:29:30","新北市瑞芳區靜安路四段38號","121.793045","25.100715","6501200","瑞芳區"
"220091","267-BY","2019/10/11 19:29:17","新北市板橋區文聖街135巷23號","121.478926666667","25.0289616666667","6500100","板橋區"
"220056","276-BY","2019/10/11 19:29:30","新北市板橋區干城路158號","121.460438333333","24.992265","6500100","板橋區"
"220072","277-BY","2019/10/11 19:29:16","新北市板橋區金門街230號","121.430748333333","24.9875716666667","6500100","板橋區"
"220101","280-UM","2019/10/11 19:29:13","新北市板橋區莊敬路263巷24號","121.473095","25.021855","6500100","板橋區"
"220071","283-VK","2019/10/11 19:29:31","新北市板橋區忠孝路48巷36號","121.460861666667","25.000485","6500100","板橋區"
"220094","285-UM","2019/10/11 19:29:28","新北市板橋區銘傳街41-1號","121.469041666667","25.0313066666667","6500100","板橋區"
"220083","286-VK","2019/10/11 19:29:17","新北市板橋區龍興街73巷23號","121.442891666667","25.00249","6500100","板橋區"
"220081","287-VK","2019/10/11 19:29:17","新北市板橋區南雅南路一段131號","121.455001666667","25.004415","6500100","板橋區"
"220090","288-VK","2019/10/11 19:29:32","新北市板橋區裕民街135號","121.458991666667","25.0273516666667","6500100","板橋區"
"220061","293-UM","2019/10/11 19:29:31","新北市板橋區中山路一段265巷7-4號","121.468473333333","25.0145133333333","6500100","板橋區"
"220062","295-UM","2019/10/11 19:29:22","新北市板橋區三民路二段123巷29號","121.480513333333","25.015625","6500100","板橋區"
"220084","296-UM","2019/10/11 19:29:28","新北市板橋區篤行路三段玉平巷76弄2號","121.42793","24.9854933333333","6500100","板橋區"
"220053","299-UM","2019/10/11 19:29:23","新北市板橋區中山路二段160號","121.476855","25.01718","6500100","板橋區"
"220075","303-R5","2019/10/11 19:29:16","新北市板橋區中正路275巷93號","121.450768333333","25.0180883333333","6500100","板橋區"
"220092","307-R5","2019/10/11 19:29:13","新北市板橋區陽明街164巷26號","121.464685","25.0246183333333","6500100","板橋區"
"220098","317-R6","2019/10/11 19:29:20","新北市板橋區四維路266巷2弄27號","121.46414","25.0280416666667","6500100","板橋區"
"220089","487-VK","2019/10/11 19:29:17","新北市板橋區英士路192-1號","121.45827","25.0235783333333","6500100","板橋區"
"220088","491-VK","2019/10/11 19:29:23","新北市板橋區文化路二段560號","121.476386666667","25.0342983333333","6500100","板橋區"
"220035","560-BX","2019/10/11 19:29:31","新北市板橋區中正路433巷1號","121.454043333333","25.0232383333333","6500100","板橋區"
"220103","561-BX","2019/10/11 19:29:27","新北市板橋區陽明街29巷13號","121.464793333333","25.02192","6500100","板橋區"
"220080","568-UM","2019/10/11 19:29:18","新北市板橋區大觀路二段37巷128號","121.449431666667","25.0020966666667","6500100","板橋區"
"220063","609-BX","2019/10/11 19:29:32","新北市板橋區中山路二段505巷55號","121.4819","25.02301","6500100","板橋區"
"220086","630-UY","2019/10/11 19:29:24","新北市板橋區中正路216巷22號","121.456653333333","25.01852","6500100","板橋區"
"220057","686-BX","2019/10/11 19:29:24","新北市板橋區和平路安樂巷54號","121.46231","24.9930866666667","6500100","板橋區"
"220077","687-BX","2019/10/11 19:29:32","新北市板橋區大觀路一段28巷62號","121.449766666667","25.0104033333333","6500100","板橋區"
"220093","689-BX","2019/10/11 19:29:33","新北市板橋區長江路一段111號","121.4598","25.029785","6500100","板橋區"
"220054","741-BX","2019/10/11 19:29:29","新北市板橋區重慶路155巷23號","121.463131666667","25.0040966666667","6500100","板橋區"
"220102","KEA-2699","2019/10/11 19:29:15","新北市板橋區雙十路二段130巷2弄76號","121.475568333333","25.02914","6500100","板橋區"
"220055","827-TW","2019/10/11 19:29:17","新北市板橋區重慶路278巷13號","121.462455","24.9995883333333","6500100","板橋區"
"220068","830-TW","2019/10/11 19:29:34","新北市板橋區萬安街106號","121.483746666667","25.02431","6500100","板橋區"
"220067","831-TW","2019/10/11 19:29:28","新北市板橋區長安街138巷18號","121.472928333333","25.00908","6500100","板橋區"
"220074","895-R6","2019/10/11 19:29:16","新北市板橋區北門街7號","121.457611666667","25.0105483333333","6500100","板橋區"
"220073","985-R7","2019/10/11 19:29:17","新北市板橋區中正路330-1號","121.454388333333","25.0218533333333","6500100","板橋區"
"220097","AAC-210","2019/10/11 19:29:29","新北市板橋區文化路一段285巷34號","121.463573333333","25.0195633333333","6500100","板橋區"
"220064","AAC-253","2019/10/11 19:29:23","新北市板橋區民權路33號","121.462173333333","25.0109533333333","6500100","板橋區"
"235068","KEA-2873","2019/10/11 19:29:25","新北市中和區景平路493-5號","121.500083333333","24.9978866666667","6500300","中和區"
"235061","KEA-2875","2019/10/11 19:29:14","新北市中和區民安街11號","121.480676666667","25.0007916666667","6500300","中和區"
