"lineid","car","time","location","longitude","latitude","cityid","cityname"
"234081","298-R6","2019/10/11 20:19:28","新北市永和區國中路132巷6弄1號","121.523731666667","25.0072833333333","6500400","永和區"
"234038","336-UY","2019/10/11 20:19:18","新北市永和區成功路一段93巷12號","121.527658333333","25.0027133333333","6500400","永和區"
"234086","338-UY","2019/10/11 20:19:22","新北市永和區中正路605號","121.51635","25.0096833333333","6500400","永和區"
"234070","552-UM","2019/10/11 20:19:25","新北市永和區永安街7巷3號","121.518606666667","25.0061466666667","6500400","永和區"
"234064","553-UM","2019/10/11 20:19:17","新北市永和區得和路124號","121.51874","25.0001616666667","6500400","永和區"
"234017","745-BX","2019/10/11 20:19:26","新北市永和區仁愛路85號","121.51317","25.01316","6500400","永和區"
"234030","746-BX","2019/10/11 20:19:30","新北市永和區民族街81巷62號","121.520288333333","24.9965166666667","6500400","永和區"
"234054","KEA-2590","2019/10/11 20:19:32","新北市永和區光復街2巷18號","121.51721","25.01664","6500400","永和區"
"234007","KED-0605","2019/10/11 20:19:22","新北市永和區環河西路二段9-1號","121.508538333333","25.0165216666667","6500400","永和區"
"234013","KEA-2591","2019/10/11 20:19:23","新北市永和區仁愛路295號","121.504908333333","25.0091466666667","6500400","永和區"
"234061","AAD-866","2019/10/11 20:19:15","新北市永和區得和路51號","121.516783333333","25.0000883333333","6500400","永和區"
"234042","862-TW","2019/10/11 20:19:31","新北市中和區中安街168號","121.510831666667","24.9999133333333","6500400","永和區"
"234050","863-TW","2019/10/11 20:19:32","新北市永和區文化路212號","121.510178333333","25.0167733333333","6500400","永和區"
"249005","172-UM","2019/10/11 20:19:19","新北市八里區下罟子1-5號","121.388915","25.141925","6502300","八里區"
"249001","173-UM","2019/10/11 20:19:29","新北市八里區中華路二段516號","121.399355","25.1451716666667","6502300","八里區"
"249004","303-UY","2019/10/11 20:19:31","新北市八里區中山路一段330號","121.412708333333","25.1590783333333","6502300","八里區"
"249002","305-UY","2019/10/11 20:19:24","新北市八里區龍米路一段100巷3號","121.453603333333","25.125035","6502300","八里區"
"249003","593-UM","2019/10/11 20:19:14","新北市八里區訊塘路27號","121.397751666667","25.1454566666667","6502300","八里區"
"248016","026-BX","2019/10/11 20:19:12","新北市五股區凌雲路一段158巷39弄12號","121.446501666667","25.1040616666667","6501500","五股區"
"248012","247-BX","2019/10/11 20:19:31","新北市五股區工商路48號","121.43916","25.083975","6501500","五股區"
"248002","678-BX","2019/10/11 20:19:17","新北市五股區成泰路三段169號","121.445266666667","25.091935","6501500","五股區"
"234023","9380-KE","2019/10/11 20:19:12","新北市永和區竹林路42巷7號","121.517181666667","25.014145","6500400","永和區"
"234077","969-R7","2019/10/11 20:19:14","新北市永和區中正路102號","121.514355","24.99588","6500400","永和區"
"234074","AAC-211","2019/10/11 20:19:19","新北市永和區豫溪街160巷4號","121.523305","25.0095433333333","6500400","永和區"
"234067","AAC-212","2019/10/11 20:19:19","新北市永和區保平路268巷19號","121.508136666667","25.0056383333333","6500400","永和區"
"234003","AAC-295","2019/10/11 20:19:32","新北市永和區大新街31號","121.515206666667","25.0084783333333","6500400","永和區"
"243012","AAD-798","2019/10/11 20:19:12","新北市泰山區楓江路162號","121.440748333333","25.0656383333333","6501600","泰山區"
"243014","KEA-2801","2019/10/11 20:19:13","新北市泰山區泰林路二段262號","121.431645","25.0623433333333","6501600","泰山區"
"243016","421-VK","2019/10/11 20:19:26","新北市泰山區明志路二段382號","121.42541","25.0445916666667","6501600","泰山區"
"243011","KEA-2216","2019/10/11 20:19:25","新北市泰山區德安街19號","121.418828333333","25.03156","6501600","泰山區"
"243013","646-TV","2019/10/11 20:19:16","新北市泰山區民國街50號","121.425925","25.04364","6501600","泰山區"
"243015","680-BX","2019/10/11 20:19:19","新北市泰山區泰林路二段171號","121.433733333333","25.060645","6501600","泰山區"
"222003","436-BY","2019/10/11 20:19:25","新北市深坑區深坑街27號","121.61598","25.002345","6501800","深坑區"
"222002","659-BX","2019/10/11 20:19:26","新北市深坑區萬福路75巷33號","121.598831666667","25.0096716666667","6501800","深坑區"
"231061","002-UM","2019/10/11 20:19:33","新北市新店區安興路32號","121.515771666667","24.9703616666667","6500600","新店區"
"231055","0291-UT","2019/10/11 20:00:57","新北市新店區力行路54號","121.538711666667","24.9655916666667","6500600","新店區"
"231058","0293-UT","2019/10/11 20:19:19","新北市新店區薏仁坑路自強巷6號","121.49641","24.9584133333333","6500600","新店區"
"231044","046-UY","2019/10/11 20:19:13","新北市新店區北新路三段98-1號","121.541788333333","24.981035","6500600","新店區"
"231060","106-UY","2019/10/11 20:19:26","新北市新店區安康路三段578-1號","121.48104","24.9487116666667","6500600","新店區"
"231051","107-UY","2019/10/11 20:19:14","新北市新店區溪園路443號","121.524495","24.9777533333333","6500600","新店區"
"231049","108-UY","2019/10/11 20:19:22","新北市新店區北新路一段105號","121.539185","24.962185","6500600","新店區"
"231065","110-UY","2019/10/11 20:19:12","新北市新店區安祥路102巷32號","121.484143333333","24.9638916666667","6500600","新店區"
"231068","187-VK","2019/10/11 20:19:24","新北市新店區寶安街31號","121.541975","24.9823533333333","6500600","新店區"
"221008","KEA-2785","2019/10/11 20:19:18","新北市汐止區忠三街239-1號","121.623896666667","25.0800616666667","6501100","汐止區"
"231062","256-BX","2019/10/11 20:19:29","新北市新店區安泰路7巷16號","121.485688333333","24.9509366666667","6500600","新店區"
"231054","260-TV","2019/10/11 20:19:28","新北市新店區檳榔路150號","121.544358333333","24.9614416666667","6500600","新店區"
"231042","268-BY","2019/10/11 20:19:33","新北市新店區中興路二段228號","121.54783","24.9751166666667","6500600","新店區"
"231050","AAD-862","2019/10/11 20:19:30","新北市新店區博愛街8巷2號","121.541155","24.9733466666667","6500600","新店區"
"231045","355-BY","2019/10/11 20:19:23","新北市新店區北宜路一段32號","121.53829","24.956765","6500600","新店區"
"231056","4715-K9","2019/10/11 20:19:18","新北市新店區民族路192號","121.536183333333","24.9752983333333","6500600","新店區"
"231067","4772-VM","2019/10/11 20:19:29","新北市新店區安康路一段35號","121.531721666667","24.960855","6500600","新店區"
"231053","512-UM","2019/10/11 20:19:13","新北市新店區松林路6-6號","121.546775","24.9111","6500600","新店區"
"231064","515-UM","2019/10/11 20:19:23","新北市新店區安和路二段233號","121.517145","24.9763066666667","6500600","新店區"
"231041","619-UM","2019/10/11 20:19:31","新北市新店區民權路41號","121.540336666667","24.9828716666667","6500600","新店區"
"231063","641-BX","2019/10/11 20:19:24","新北市新店區車子路1-1號","121.504733333333","24.9577916666667","6500600","新店區"
"231048","KED-0819","2019/10/11 20:19:23","新北市新店區寶橋路80號","121.546213333333","24.9755266666667","6500600","新店區"
"231057","720-UM","2019/10/11 20:19:24","新北市新店區花園十二路1號","121.554818333333","24.9347383333333","6500600","新店區"
"231059","897-TW","2019/10/11 20:19:15","新北市新店區安成街35號","121.509811666667","24.9612216666667","6500600","新店區"
"231040","898-TW","2019/10/11 20:19:23","新北市新店區中正路108號","121.543058333333","24.9706366666667","6500600","新店區"
"231043","899-TW","2019/10/11 20:19:27","新北市新店區建國路133號","121.539365","24.9781833333333","6500600","新店區"
"231066","AKT-0513","2019/10/11 20:19:22","新北市新店區安德街60巷26號","121.511151666667","24.9640866666667","6500600","新店區"
"241011","013-R5","2019/10/11 20:19:24","新北市三重區龍門路207號","121.499996666667","25.0734516666667","6500200","三重區"
"241028","022-UY","2019/10/11 20:19:23","新北市三重區大同南路58號","121.496031666667","25.05973","6500200","三重區"
"241008","059-VK","2019/10/11 20:19:30","新北市三重區永福街158號","121.480501666667","25.0744766666667","6500200","三重區"
"241002","060-VK","2019/10/11 20:19:27","新北市三重區仁義街101巷2號","121.497826666667","25.080075","6500200","三重區"
"241031","061-VK","2019/10/11 20:19:29","新北市三重區三寧街18號","121.489425","25.0599183333333","6500200","三重區"
"241015","062-VK","2019/10/11 20:19:18","新北市三重區重新路一段108號","121.500765","25.0632416666667","6500200","三重區"
"241024","065-VK","2019/10/11 20:19:27","新北市三重區中正北路246號","121.481621666667","25.0681283333333","6500200","三重區"
"241007","066-VK","2019/10/11 20:19:26","新北市三重區溪尾街108巷40號","121.487875","25.0782566666667","6500200","三重區"
"241003","091-VK","2019/10/11 20:19:15","新北市三重區富華街45號","121.490841666667","25.083225","6500200","三重區"
"241006","262-UM","2019/10/11 20:19:19","新北市三重區力行路二段164號","121.482988333333","25.076775","6500200","三重區"
"241016","266-UM","2019/10/11 20:19:26","新北市三重區大同北路54巷1號","121.494253333333","25.0635683333333","6500200","三重區"
"241009","267-UM","2019/10/11 20:19:30","新北市三重區永福街28號","121.482481666667","25.0781683333333","6500200","三重區"
"241018","268-UM","2019/10/11 20:19:21","新北市三重區自強路一段236號","121.493361666667","25.0670183333333","6500200","三重區"
"241032","269-UM","2019/10/11 20:19:21","新北市三重區捷運路19巷6弄10號","121.484691666667","25.05686","6500200","三重區"
"241013","270-UM","2019/10/11 20:19:21","新北市三重區三和路三段167巷56號","121.493901666667","25.074815","6500200","三重區"
"241025","271-UM","2019/10/11 20:19:13","新北市三重區頂崁街202號","121.477348333333","25.0668766666667","6500200","三重區"
"241035","KEA-2210","2019/10/11 20:19:33","新北市三重區正義北路33巷55號","121.499173333333","25.0638883333333","6500200","三重區"
"241030","KED-0822","2019/10/11 20:19:13","新北市三重區環河南路254巷63號","121.487683333333","25.0524383333333","6500200","三重區"
"241004","475-VK","2019/10/11 20:19:22","新北市三重區仁愛街390號","121.490891666667","25.0807916666667","6500200","三重區"
"241020","478-VK","2019/10/11 20:19:15","新北市三重區三和路三段170巷22號","121.492001666667","25.07281","6500200","三重區"
"241014","543-UM","2019/10/11 20:19:18","新北市三重區長壽街120巷19弄9號","121.50254","25.069185","6500200","三重區"
"241023","545-UM","2019/10/11 20:19:29","新北市三重區忠孝路三段56-1號","121.480571666667","25.0654166666667","6500200","三重區"
"241001","547-UM","2019/10/11 20:19:15","新北市三重區溪尾街66號","121.490396666667","25.077825","6500200","三重區"
"241019","KEA-2593","2019/10/11 20:19:18","新北市三重區重陽路四段83號","121.492526666667","25.07109","6500200","三重區"
"241005","AAD-863","2019/10/11 20:19:14","新北市三重區碧華街415號","121.493391666667","25.0860433333333","6500200","三重區"
"241012","743-BX","2019/10/11 20:19:19","新北市三重區河邊北街262號","121.501695","25.0764483333333","6500200","三重區"
"241022","KED-0820","2019/10/11 20:19:14","新北市三重區新北大道一段48號","121.487823333333","25.0613816666667","6500200","三重區"
"241026","887-TS","2019/10/11 20:19:25","新北市三重區福德南路7號","121.502625","25.0634533333333","6500200","三重區"
"241029","942-UM","2019/10/11 20:19:12","新北市三重區光明路98號","121.492425","25.056485","6500200","三重區"
"241033","AAC-255","2019/10/11 20:19:13","新北市三重區五谷王北街50巷58號","121.474808333333","25.0513266666667","6500200","三重區"
"235066","003-UY","2019/10/11 20:19:30","新北市中和區光華街31巷22弄4號","121.505431666667","25.0046933333333","6500300","中和區"
"235039","097-UM","2019/10/11 20:19:15","新北市中和區大勇街29巷12號","121.515921666667","24.9945183333333","6500300","中和區"
"235040","150-BY","2019/10/11 20:19:30","新北市中和區景平路278巷16弄2號","121.51396","24.993285","6500300","中和區"
"235055","183-VK","2019/10/11 20:19:32","新北市八里區荖阡坑路16-8號","121.398585","25.138805","6500300","中和區"
"247016","KEA-2869","2019/10/11 20:19:25","新北市蘆洲區光華路132巷39號","121.465871666667","25.083755","6501400","蘆洲區"
"247010","KED-0682","2019/10/11 20:19:32","新北市蘆洲區信義路273號","121.478851666667","25.085055","6501400","蘆洲區"
"235050","4979-A6","2019/10/11 20:19:13","新北市中和區景安路177巷8號","121.50577","24.99396","6500300","中和區"
"235069","4980-A6","2019/10/11 20:19:19","新北市中和區中正路440號","121.491073333333","24.994365","6500300","中和區"
"235009","565-BX","2019/10/11 20:19:32","新北市中和區員山路36巷13號","121.484075","24.99101","6500300","中和區"
"235059","AAC-215","2019/10/11 20:19:13","新北市中和區員山路5號","121.484421666667","24.981675","6500300","中和區"
"220065","072-UY","2019/10/11 20:19:15","新北市五股區五工一路112號","121.45612","25.0712966666667","6500100","板橋區"
"247004","500-BY","2019/10/11 20:19:11","新北市蘆洲區長安街299巷19號","121.457103333333","25.08459","6501400","蘆洲區"
"247006","341-TH","2019/10/11 20:19:28","新北市蘆洲區九芎街139巷22弄7號","121.465983333333","25.0785366666667","6501400","蘆洲區"
"247002","337-TH","2019/10/11 20:19:17","新北市蘆洲區長安街313巷18號","121.456196666667","25.0865116666667","6501400","蘆洲區"
"247024","057-VK","2019/10/11 20:19:27","新北市蘆洲區光榮路120巷8弄39號","121.464598333333","25.0879616666667","6501400","蘆洲區"
"247014","056-VK","2019/10/11 20:19:29","新北市蘆洲區中山二路137巷40號","121.472363333333","25.0808183333333","6501400","蘆洲區"
"247018","053-VK","2019/10/11 20:19:26","新北市蘆洲區民族路344號","121.476588333333","25.0905433333333","6501400","蘆洲區"
"247022","007-UY","2019/10/11 20:19:28","新北市蘆洲區三民路241號","121.46908","25.0888333333333","6501400","蘆洲區"
"224010","AGQ-8101","2019/10/11 20:19:28","新北市瑞芳區基山街31巷21號","121.8461","25.1102466666667","6501200","瑞芳區"
"224009","275-VK","2019/10/11 20:19:19","新北市瑞芳區五號路306-4號","121.857106666667","25.1116516666667","6501200","瑞芳區"
"224005","271-BY","2019/10/11 20:19:28","新北市瑞芳區連福新城25號","121.820303333333","25.1189716666667","6501200","瑞芳區"
"222001","KEA-2212","2019/10/11 20:19:28","新北市深坑區北深路三段275號","121.59864","25.0042733333333","6501800","深坑區"
"251008","181-VK","2019/10/11 20:19:19","新北市淡水區淡海路150巷12號","121.42225","25.1841333333333","6501000","淡水區"
"251010","413-VK","2019/10/11 20:19:33","新北市淡水區新民街一段136號","121.427593333333","25.1890316666667","6501000","淡水區"
"243009","549-UM","2019/10/11 20:19:10","新北市泰山區泰林路二段249號","121.431881666667","25.0622133333333","6501600","泰山區"
"251012","443-VK","2019/10/11 20:19:21","新北市淡水區淡金路三段374號","121.449788333333","25.2099866666667","6501000","淡水區"
"251006","561-UM","2019/10/11 20:19:11","新北市淡水區北新路169巷69弄22號","121.447685","25.1799633333333","6501000","淡水區"
"251009","575-R6","2019/10/11 20:19:29","新北市淡水區中山路143-2號","121.44069","25.1719716666667","6501000","淡水區"
"251002","672-BX","2019/10/11 20:19:12","新北市淡水區中正路157號","121.438878333333","25.1709316666667","6501000","淡水區"
"251003","766-UM","2019/10/11 20:19:22","新北市淡水區中山北路一段196號","121.44453","25.17943","6501000","淡水區"
"207003","550-UM","2019/10/11 20:19:31","新北市萬里區大鵬里萬里加投9號","121.652615","25.2087283333333","6502800","萬里區"
"207004","291-VK","2019/10/11 20:19:19","新北市萬里區北基里大仁路1號","121.681721666667","25.1751316666667","6502800","萬里區"
"252002","178-VK","2019/10/11 20:19:26","新北市三芝區中正路一段59號","121.503486666667","25.2579333333333","6502100","三芝區"
"237006","5529-G3","2019/10/11 20:19:26","新北市三峽區中正路二段41號","121.366695","24.9186816666667","6500900","三峽區"
"237005","AKY-6261","2019/10/11 20:19:16","新北市三峽區三樹路98巷171號","121.384621666667","24.93968","6500900","三峽區"
"236030","253-BX","2019/10/11 20:19:23","新北市土城區學成路108巷13弄11號","121.449586666667","24.9900616666667","6501300","土城區"
"236026","269-VK","2019/10/11 20:19:21","新北市土城區裕生路86巷2號","121.447111666667","24.9851566666667","6501300","土城區"
"236014","270-VK","2019/10/11 20:19:30","新北市板橋區信義路26巷18號","121.45613","24.9950083333333","6501300","土城區"
"247012","KED-0683","2019/10/11 20:19:22","新北市蘆洲區中興街34號","121.481133333333","25.0869766666667","6501400","蘆洲區"
"236069","KEA-2877","2019/10/11 20:19:16","新北市土城區三民路9號","121.420445","24.963245","6501300","土城區"
"252001","KED-0821","2019/10/11 20:19:12","新北市三芝區中山路一段31號","121.500561666667","25.2580283333333","6502100","三芝區"
"236059","912-UM","2019/10/11 20:19:27","新北市土城區大安路101-5號","121.433405","24.9685683333333","6501300","土城區"
"242041","AAC-296","2019/10/11 20:19:12","新北市新莊區壽山路55-3號","121.412326666667","25.0315766666667","6500500","新莊區"
"242060","986-R7","2019/10/11 20:19:24","新北市新莊區新樹路172-13號","121.434578333333","25.0216883333333","6500500","新莊區"
"242005","751-BX","2019/10/11 20:19:22","新北市新莊區頭前路2巷10號","121.468431666667","25.05299","6500500","新莊區"
"242029","615-BX","2019/10/11 20:19:17","新北市新莊區中原路102號","121.450873333333","25.0543","6500500","新莊區"
"242027","613-BX","2019/10/11 20:19:22","新北市新莊區立信五街2號","121.444628333333","25.051515","6500500","新莊區"
"242058","612-BX","2019/10/11 20:19:20","新北市新莊區龍安路266巷30號","121.421561666667","25.018575","6500500","新莊區"
"242048","566-BX","2019/10/11 20:19:21","新北市新莊區四維路189號","121.422043333333","25.0209683333333","6500500","新莊區"
"242054","497-BY","2019/10/11 20:19:16","新北市新莊區民安西路261巷18號","121.426848333333","25.012985","6500500","新莊區"
"242002","441-UM","2019/10/11 20:19:19","新北市三重區重新路五段652號","121.467995","25.0440583333333","6500500","新莊區"
"242007","440-UM","2019/10/11 20:19:33","新北市新莊區福壽街124巷34弄10號","121.459263333333","25.0509366666667","6500500","新莊區"
"242044","415-TV","2019/10/11 20:19:28","新北市新莊區中正路895-15號","121.412765","25.021155","6500500","新莊區"
"242013","413-TV","2019/10/11 20:19:29","新北市新莊區幸福路710巷8號","121.449755","25.0496516666667","6500500","新莊區"
"242050","400-BY","2019/10/11 20:19:24","新北市新莊區民安西路212巷1弄2號","121.425498333333","25.01483","6500500","新莊區"
"242025","362-BY","2019/10/11 20:19:29","新北市新莊區五工一路80巷23號","121.46119","25.0667683333333","6500500","新莊區"
"242023","353-BY","2019/10/11 20:19:23","新北市新莊區化成路812號","121.465081666667","25.059635","6500500","新莊區"
"242015","132-UY","2019/10/11 20:19:27","新北市新莊區中和街31巷22號","121.447236666667","25.0438233333333","6500500","新莊區"
"242039","135-UY","2019/10/11 20:19:29","新北市新莊區成功街71號","121.424748333333","25.0199983333333","6500500","新莊區"
"242056","172-VK","2019/10/11 20:19:20","新北市新莊區新莊路649巷15弄1號","121.444998333333","25.0314433333333","6500500","新莊區"
"242017","173-VK","2019/10/11 20:19:18","新北市新莊區中港一街47號","121.450616666667","25.045405","6500500","新莊區"
"242032","175-VK","2019/10/11 20:19:27","新北市新莊區中正路418號","121.440996666667","25.0338416666667","6500500","新莊區"
"242021","KED-0687","2019/10/11 20:19:28","新北市新莊區和興街61號","121.44647","25.04096","6500500","新莊區"
"242037","347-TH","2019/10/11 20:19:10","新北市新莊區建安街62巷10號","121.42697","25.0250033333333","6500500","新莊區"
"242009","349-TH","2019/10/11 20:19:16","新北市新莊區昌隆街58巷1弄1號","121.454895","25.0504733333333","6500500","新莊區"
"242034","350-TH","2019/10/11 20:19:30","新北市新莊區中正路326號","121.446098333333","25.0348866666667","6500500","新莊區"
"242019","351-TH","2019/10/11 20:19:31","新北市新莊區思源路133-3號","121.45941","25.043735","6500500","新莊區"
"221036","130-UY","2019/10/11 20:19:30","新北市汐止區福安街59巷1號","121.664125","25.06364","6501100","汐止區"
"221015","131-UY","2019/10/11 20:19:28","新北市汐止區建成路160巷16號","121.661931666667","25.073955","6501100","汐止區"
"221010","269-BY","2019/10/11 20:19:19","新北市汐止區八連路一段203號","121.640968333333","25.0810533333333","6501100","汐止區"
"221012","278-VK","2019/10/11 20:19:32","新北市汐止區大同路三段334號","121.67954","25.0710833333333","6501100","汐止區"
"221023","279-VK","2019/10/11 20:19:27","新北市汐止區明峰街298巷7弄2號","121.624911666667","25.0688483333333","6501100","汐止區"
"221032","280-BY","2019/10/11 20:19:28","新北市汐止區弘道街45號","121.618178333333","25.0485816666667","6501100","汐止區"
"221029","298-VK","2019/10/11 20:16:19","新北市汐止區樟樹一路99巷12號","121.641233333333","25.063845","6501100","汐止區"
"221021","299-VK","2019/10/11 20:19:22","新北市汐止區水源路一段284號","121.65421","25.05828","6501100","汐止區"
"221031","353-TW","2019/10/11 20:19:27","新北市汐止區福德二路104號","121.632215","25.0660666666667","6501100","汐止區"
"221035","622-UM","2019/10/11 20:19:18","新北市汐止區長江街57巷21弄2號","121.655881666667","25.0721833333333","6501100","汐止區"
"221025","623-UM","2019/10/11 20:19:18","新北市汐止區水源路二段30號","121.654753333333","25.0573233333333","6501100","汐止區"
"221038","646-BX","2019/10/11 20:19:19","新北市汐止區茄苳路43號","121.66587","25.0708433333333","6501100","汐止區"
"221033","647-BX","2019/10/11 20:19:17","新北市汐止區東勢街201巷39號","121.634948333333","25.04336","6501100","汐止區"
"221002","707-TV","2019/10/11 20:19:24","新北市汐止區福德三路95號","121.636073333333","25.068965","6501100","汐止區"
"221018","753-BX","2019/10/11 20:19:15","新北市汐止區茄苳路277號","121.672326666667","25.0679733333333","6501100","汐止區"
"220094","285-UM","2019/10/11 20:19:28","新北市五股區天乙路102-20號","121.447776666667","25.1070816666667","6500100","板橋區"
"220083","286-VK","2019/10/11 20:19:17","新北市板橋區大觀路一段38巷156弄154號","121.443865","25.0089533333333","6500100","板橋區"
"220081","287-VK","2019/10/11 20:19:17","新北市板橋區僑中一街80巷5弄5號","121.447528333333","25.0124883333333","6500100","板橋區"
"242046","281-VK","2019/10/11 20:19:29","新北市新莊區中正路新生巷37號","121.417311666667","25.0233966666667","6500500","新莊區"
"242011","280-VK","2019/10/11 20:19:19","新北市新莊區中信街11號","121.451295","25.0508166666667","6500500","新莊區"
"220080","568-UM","2019/10/11 20:19:18","新北市土城區自強街33號","121.432585","24.9730816666667","6500100","板橋區"
"220054","741-BX","2019/10/11 20:19:29","新北市板橋區實踐路93巷21號","121.465045","25.00542","6500100","板橋區"
"220055","827-TW","2019/10/11 20:19:17","新北市板橋區仁愛路25號","121.458981666667","24.9994333333333","6500100","板橋區"
"220074","895-R6","2019/10/11 20:19:16","新北市板橋區南雅南路一段7巷22弄7號","121.455798333333","25.0047783333333","6500100","板橋區"
"235073","KEA-2876","2019/10/11 19:53:26","新北市中和區員山路36巷16-3號","121.48505","24.9914366666667","6500300","中和區"
