"lineid","car","time","location","longitude","latitude","cityid","cityname"
"232001","758-BX","2019/10/10 08:19:15","新北市坪林區大粗坑6-1號","121.732243333333","24.9482716666667","6502000","坪林區"
"244006","080-UY","2019/10/10 08:19:30","新北市林口區湖子48-3號","121.383148333333","25.095115","6501700","林口區"
"244003","248-BX","2019/10/10 08:19:24","新北市林口區頂福里9鄰94-2號","121.320261666667","25.1080033333333","6501700","林口區"
"244012","KEA-2802","2019/10/10 08:19:18","新北市林口區佳林路157號","121.385323333333","25.079205","6501700","林口區"
"244022","483-VK","2019/10/10 08:19:27","新北市林口區隆林街65號","121.38697","25.0753833333333","6501700","林口區"
"244016","485-VK","2019/10/10 08:19:27","新北市林口區文化二路一段220號","121.369448333333","25.0723633333333","6501700","林口區"
"244008","656-BX","2019/10/10 08:17:52","新北市林口區中北三街287號","121.382505","25.0830083333333","6501700","林口區"
"244010","701-TV","2019/10/10 08:19:29","新北市林口區中正路443號","121.384788333333","25.077705","6501700","林口區"
"244024","837-TS","2019/10/10 08:19:29","新北市林口區忠孝路308巷19號","121.367461666667","25.07196","6501700","林口區"
"244020","838-TS","2019/10/10 08:19:14","新北市林口區醒吾新村13號","121.396258333333","25.0791933333333","6501700","林口區"
"222006","289-BY","2019/10/10 08:18:40","新北市深坑區萬福路83號","121.60167","25.009335","6501800","深坑區"
"231069","189-VK","2019/10/10 08:19:13","新北市新店區新潭路一段71號","121.524273333333","24.9404166666667","6500600","新店區"
"231008","192-VK","2019/10/10 08:19:21","新北市新店區永興路73號","121.544616666667","24.93581","6500600","新店區"
"226005","5620-A6","2019/10/10 08:18:35","新北市平溪區南山里南山坪126號","121.785315","25.04639","6502400","平溪區"
"226007","APG-9813","2019/10/10 08:19:22","新北市平溪區東勢里芊蓁林39號","121.7523","25.0151083333333","6502400","平溪區"
"226003","AGD-0702","2019/10/10 08:19:20","新北市平溪區十分里十分街54號","121.775255","25.0413883333333","6502400","平溪區"
"223003","205-TH","2019/10/10 08:19:21","新北市石碇區北宜路六段塗潭巷43號","121.650501666667","24.934115","6501900","石碇區"
"223008","406-TH","2019/10/10 08:19:14","新北市石碇區石碇子埔42-2號","121.672683333333","25.0075766666667","6501900","石碇區"
"223001","592-UM","2019/10/10 08:19:13","新北市石碇區北宜路六段塗潭巷23號","121.650851666667","24.9340416666667","6501900","石碇區"
"223004","660-BX","2019/10/10 08:19:30","新北市石碇區外按11-5號","121.651541666667","24.9991133333333","6501900","石碇區"
"223007","661-BX","2019/10/10 08:19:29","新北市石碇區靜安路一段208號","121.672391666667","25.007075","6501900","石碇區"
"223005","677-TV","2019/10/10 08:13:26","新北市石碇區外按11-5號","121.651505","24.9992416666667","6501900","石碇區"
"252004","249-BX","2019/10/10 08:19:30","新北市三芝區興華里車埕62號","121.49886","25.1969533333333","6502100","三芝區"
"252007","AAC-283","2019/10/10 08:19:15","新北市三芝區後厝里番社后38號","121.4724","25.24195","6502100","三芝區"
"237014","760-BX","2019/10/10 08:19:22","新北市三峽區五寮55-3號","121.361625","24.85595","6500900","三峽區"
"242040","AAC-296","2019/10/10 08:19:18","新北市泰山區新北大道六段371號","121.422356666667","25.0327566666667","6500500","新莊區"
"242003","751-BX","2019/10/10 08:19:26","新北市新莊區自立街231號","121.457961666667","25.0455","6500500","新莊區"
"242059","705-TV","2019/10/10 08:19:20","新北市新莊區新樹路509號","121.432663333333","25.01081","6500500","新莊區"
"242028","615-BX","2019/10/10 08:19:20","新北市新莊區中平路79號","121.444748333333","25.0452133333333","6500500","新莊區"
"242026","613-BX","2019/10/10 08:19:26","新北市新莊區福壽街175號","121.457956666667","25.0540233333333","6500500","新莊區"
"242057","612-BX","2019/10/10 08:19:24","新北市新莊區雙鳳路134巷11號","121.41253","25.0282033333333","6500500","新莊區"
"242047","566-BX","2019/10/10 08:19:12","新北市新莊區萬安街146巷24號","121.41999","25.0219966666667","6500500","新莊區"
"242052","497-BY","2019/10/10 08:19:27","新北市新莊區新樹路699巷53號","121.433203333333","25.000985","6500500","新莊區"
"242001","441-UM","2019/10/10 08:19:29","新北市新莊區大觀街42巷3號","121.454068333333","25.0356616666667","6500500","新莊區"
"242006","440-UM","2019/10/10 08:19:19","新北市新莊區福樂街73號","121.45676","25.047905","6500500","新莊區"
"242043","415-TV","2019/10/10 08:19:19","新北市新莊區雙鳳路21號","121.416806666667","25.0269316666667","6500500","新莊區"
"242012","413-TV","2019/10/10 08:19:28","新北市新莊區中和街86號","121.447676666667","25.0465566666667","6500500","新莊區"
"242049","400-BY","2019/10/10 08:19:29","新北市新莊區民安西路135號","121.426478333333","25.0176183333333","6500500","新莊區"
"242024","362-BY","2019/10/10 08:19:29","新北市三重區光復路二段170號","121.471835","25.0612433333333","6500500","新莊區"
"242022","353-BY","2019/10/10 08:19:21","新北市新莊區福壽街1號","121.457671666667","25.0475833333333","6500500","新莊區"
"242014","132-UY","2019/10/10 08:19:21","新北市新莊區新泰路502巷56號","121.444506666667","25.04632","6500500","新莊區"
"242038","135-UY","2019/10/10 08:19:29","新北市新莊區民安路189號","121.426","25.022745","6500500","新莊區"
"242055","172-VK","2019/10/10 08:19:30","新北市新莊區瓊林路38-11號","121.447898333333","25.030015","6500500","新莊區"
"242016","173-VK","2019/10/10 08:19:27","新北市新莊區中港路304號","121.452658333333","25.0449566666667","6500500","新莊區"
"242030","175-VK","2019/10/10 08:19:27","新北市新莊區新泰路349號","121.444706666667","25.0421666666667","6500500","新莊區"
"242020","KED-0687","2019/10/10 08:19:13","新北市新莊區中華路一段45巷1號","121.45197","25.0380883333333","6500500","新莊區"
"242035","347-TH","2019/10/10 08:19:29","新北市新莊區建福路49巷22號","121.427646666667","25.0279533333333","6500500","新莊區"
"242008","349-TH","2019/10/10 08:19:28","新北市新莊區昌明街78號","121.455098333333","25.0522033333333","6500500","新莊區"
"242033","350-TH","2019/10/10 08:19:12","新北市新莊區景德路548號","121.443","25.0331233333333","6500500","新莊區"
"242018","351-TH","2019/10/10 08:19:24","新北市新莊區明中街51巷1號","121.456735","25.0396616666667","6500500","新莊區"
"244018","KED-0667","2019/10/10 08:19:25","新北市林口區公園路223巷1號","121.373923333333","25.0748683333333","6501700","林口區"
"220034","297-UM","2019/10/10 08:00:31","新北市板橋區華東街1-10號","121.448443333333","24.9949683333333","6500100","板橋區"
"242045","281-VK","2019/10/10 08:19:21","新北市新莊區建國一路23號","121.434006666667","25.0313566666667","6500500","新莊區"
"242010","280-VK","2019/10/10 08:19:28","新北市新莊區中港路中慶巷27弄4號","121.450013333333","25.0536583333333","6500500","新莊區"
