"lineid","car","time","location","longitude","latitude","cityid","cityname"
"244022","483-VK","2019/10/10 10:09:27","新北市林口區文林六街13巷24號","121.370121666667","25.0811933333333","6501700","林口區"
"244010","701-TV","2019/10/10 10:09:29","新北市林口區太平里11鄰40號","121.35873","25.1327183333333","6501700","林口區"
"222006","289-BY","2019/10/10 10:09:20","新北市深坑區王軍寮7號","121.615378333333","24.984055","6501800","深坑區"
"231069","189-VK","2019/10/10 10:09:13","新北市新店區新潭路三段7號","121.5086","24.9159416666667","6500600","新店區"
"231008","192-VK","2019/10/10 10:03:01","新北市新店區小坑一路35巷1號","121.529358333333","24.9107333333333","6500600","新店區"
"223003","205-TH","2019/10/10 10:09:21","新北市石碇區石崁1號","121.651548333333","25.0023833333333","6501900","石碇區"
"252007","AAC-283","2019/10/10 10:09:14","新北市三芝區古庄里茂興店74號","121.493058333333","25.2667566666667","6502100","三芝區"
"237014","760-BX","2019/10/10 09:59:19","新北市三峽區中山路459巷135號","121.348861666667","24.9330433333333","6500900","三峽區"
"242026","613-BX","2019/10/10 10:09:30","新北市新莊區新泰路255巷83號","121.442123333333","25.03909","6500500","新莊區"
