"lineid","car","time","location","longitude","latitude","cityid","cityname"
"244022","483-VK","2019/10/10 10:39:27","新北市林口區民權路165-1號","121.374265","25.0848216666667","6501700","林口區"
"244010","701-TV","2019/10/10 10:39:29","新北市林口區粉寮69號","121.405106666667","25.0908416666667","6501700","林口區"
"222006","289-BY","2019/10/10 10:39:20","新北市深坑區文山路三段15號","121.61299","24.9978416666667","6501800","深坑區"
"231069","189-VK","2019/10/10 10:39:33","新北市新店區新潭路一段120巷15-1號","121.527445","24.9359866666667","6500600","新店區"
"231008","192-VK","2019/10/10 10:34:41","新北市新店區成功路45-1號","121.53971","24.9000016666667","6500600","新店區"
