"lineid","car","time","location","longitude","latitude","cityid","cityname"
"234044","148-BY","2019/10/10 13:09:26","新北市永和區永元路52巷15號","121.52319","25.0009716666667","6500400","永和區"
"234078","298-R6","2019/10/10 13:09:31","新北市永和區永亨路59號","121.521035","25.0061","6500400","永和區"
"234036","336-UY","2019/10/10 13:09:35","新北市永和區民樂街71巷1號","121.527383333333","24.9975066666667","6500400","永和區"
"234062","337-UY","2019/10/10 13:09:29","新北市永和區秀朗路二段46號","121.521371666667","25.0023483333333","6500400","永和區"
"234084","338-UY","2019/10/10 13:09:24","新北市永和區永貞路90號","121.519506666667","25.00454","6500400","永和區"
"234068","552-UM","2019/10/10 13:09:24","新北市永和區豫溪街95巷10弄1號","121.517926666667","25.01084","6500400","永和區"
"234015","745-BX","2019/10/10 13:09:28","新北市永和區文化路90巷20號","121.513835","25.016055","6500400","永和區"
"234028","746-BX","2019/10/10 13:09:22","新北市永和區民生路23號","121.522875","24.9988516666667","6500400","永和區"
"234052","KEA-2590","2019/10/10 13:09:15","新北市永和區中興街133巷18號","121.518161666667","25.0126","6500400","永和區"
"234005","KED-0605","2019/10/10 13:09:17","新北市永和區中山路一段106號","121.51097","25.0103766666667","6500400","永和區"
"234012","KEA-2591","2019/10/10 13:09:24","新北市永和區保福路二段45號","121.510941666667","25.0116916666667","6500400","永和區"
"234060","AAD-866","2019/10/10 13:09:26","新北市永和區安樂路304巷26號","121.51502","25.0055283333333","6500400","永和區"
"234040","862-TW","2019/10/10 13:09:33","新北市永和區永貞路334號","121.511291666667","25.0055666666667","6500400","永和區"
"234048","863-TW","2019/10/10 13:06:30","新北市永和區文化路135巷22弄1號","121.510453333333","25.0146816666667","6500400","永和區"
"234025","9371-KE","2019/10/10 13:09:30","新北市永和區秀朗路一段10巷19號","121.513478333333","25.0061133333333","6500400","永和區"
"234010","9373-KE","2019/10/10 13:09:33","新北市永和區仁愛路31巷2弄2號","121.514198333333","25.0130433333333","6500400","永和區"
"248013","025-BX","2019/10/10 13:09:13","新北市五股區成泰路一段132號","121.435068333333","25.0753483333333","6501500","五股區"
"248015","026-BX","2019/10/10 13:09:32","新北市五股區芳洲路59號","121.44202","25.0842133333333","6501500","五股區"
"248006","077-UY","2019/10/10 13:09:18","新北市五股區中興路二段53號","121.461828333333","25.0764433333333","6501500","五股區"
"248007","KED-0815","2019/10/10 13:09:16","新北市五股區更洲路32巷15弄9號","121.458185","25.08053","6501500","五股區"
"248017","KED-0813","2019/10/10 13:09:26","新北市五股區芳洲路49號","121.44176","25.0839316666667","6501500","五股區"
"248003","677-BX","2019/10/10 13:09:31","新北市五股區成泰路二段55號","121.437965","25.083455","6501500","五股區"
"248001","678-BX","2019/10/10 13:09:19","新北市五股區中興路三段198號","121.441338333333","25.0820516666667","6501500","五股區"
"248009","682-TV","2019/10/10 13:09:26","新北市五股區新五路二段137號","121.439346666667","25.0808066666667","6501500","五股區"
"234022","9380-KE","2019/10/10 13:09:20","新北市永和區中興街10巷54號","121.516188333333","25.0109566666667","6500400","永和區"
"234076","969-R7","2019/10/10 13:09:18","新北市永和區民光街22巷2號","121.516045","24.9956633333333","6500400","永和區"
"234072","AAC-211","2019/10/10 13:09:27","新北市永和區竹林路189號","121.520563333333","25.009415","6500400","永和區"
"234066","AAC-212","2019/10/10 13:09:30","新北市永和區保平路23號","121.512605","25.0073683333333","6500400","永和區"
"234001","AAC-295","2019/10/10 13:09:33","新北市永和區永和路二段5號","121.514315","25.0100866666667","6500400","永和區"
"243005","646-TV","2019/10/10 13:09:15","新北市泰山區犁頭窠18號","121.421905","25.05118","6501600","泰山區"
"231030","002-UM","2019/10/10 13:09:15","新北市新店區安華路28-1號","121.51979","24.96082","6500600","新店區"
"231027","0293-UT","2019/10/10 13:09:15","新北市新店區安華路1-1號","121.519371666667","24.9605066666667","6500600","新店區"
"231005","046-UY","2019/10/10 13:09:30","新北市新店區安華路28-1號","121.519088333333","24.9609116666667","6500600","新店區"
"231029","106-UY","2019/10/10 13:09:28","新北市新店區安華路28-1號","121.519906666667","24.9607533333333","6500600","新店區"
"231036","110-UY","2019/10/10 13:09:15","新北市新店區安康路三段131號","121.490241666667","24.951825","6500600","新店區"
"231023","260-TV","2019/10/10 13:09:31","新北市新店區安一路一段1-1號","121.519888333333","24.9616883333333","6500600","新店區"
"231003","268-BY","2019/10/10 13:08:57","新北市新店區安一路一段1-1號","121.51976","24.96162","6500600","新店區"
"231035","278-BY","2019/10/10 13:09:34","新北市新店區安一路一段1-1號","121.51986","24.9611566666667","6500600","新店區"
"231017","AAD-862","2019/10/10 13:09:25","新北市新店區安一路一段1-1號","121.51976","24.9610733333333","6500600","新店區"
"231045","355-BY","2019/10/10 13:09:30","新北市新店區安華路28-1號","121.519113333333","24.9609366666667","6500600","新店區"
"231024","4716-K9","2019/10/10 13:09:21","新北市新店區安華路28-1號","121.519868333333","24.9604716666667","6500600","新店區"
"231025","4715-K9","2019/10/10 13:09:12","新北市新店區安華路1-1號","121.519288333333","24.9605416666667","6500600","新店區"
"231021","513-UM","2019/10/10 13:09:22","新北市新店區安一路一段1-1號","121.51967","24.961145","6500600","新店區"
"231034","641-BX","2019/10/10 13:09:18","新北市新店區安華路28-1號","121.519456666667","24.9606183333333","6500600","新店區"
"231011","KED-0819","2019/10/10 13:09:25","新北市新店區安一路一段1-1號","121.5197","24.9613266666667","6500600","新店區"
"231010","719-UM","2019/10/10 13:09:24","新北市新店區安華路28-1號","121.519358333333","24.960965","6500600","新店區"
"231026","720-UM","2019/10/10 13:09:22","新北市新店區安康路一段355-3號","121.519021666667","24.96192","6500600","新店區"
"231001","898-TW","2019/10/10 13:09:34","新北市新店區安華路28-1號","121.519383333333","24.960925","6500600","新店區"
"231004","899-TW","2019/10/10 13:09:34","新北市新店區安華路1-1號","121.519675","24.9601166666667","6500600","新店區"
"231037","AKT-0513","2019/10/10 13:09:23","新北市新店區安華路1-1號","121.519568333333","24.960495","6500600","新店區"
"235030","003-UY","2019/10/10 13:09:15","新北市中和區連城路103號","121.496448333333","24.9997816666667","6500300","中和區"
"235027","006-UY","2019/10/10 13:09:31","新北市中和區員山路36巷13號","121.484238333333","24.9906783333333","6500300","中和區"
"235003","097-UM","2019/10/10 13:09:15","新北市中和區中正路507號","121.488393333333","24.99357","6500300","中和區"
"235029","098-UM","2019/10/10 13:09:20","新北市中和區莊敬路49巷20弄22號","121.50275","25.0058966666667","6500300","中和區"
"235022","151-BY","2019/10/10 13:09:19","新北市中和區圓通路367巷59弄16號","121.493075","24.983665","6500300","中和區"
"235019","183-VK","2019/10/10 13:09:14","新北市中和區員山路36巷16-3號","121.485065","24.9913716666667","6500300","中和區"
"235002","185-VK","2019/10/10 13:09:30","新北市中和區大仁街20巷1號","121.517823333333","24.993255","6500300","中和區"
"235031","255-BX","2019/10/10 13:09:28","新北市中和區新生街187號","121.483741666667","25.0004016666667","6500300","中和區"
"235036","301-VK","2019/10/10 13:09:21","新北市中和區錦和路111-1號","121.490171666667","24.995145","6500300","中和區"
"235007","352-BY","2019/10/10 13:09:25","新北市中和區錦和路350-1號","121.4904","24.9935866666667","6500300","中和區"
"235033","4980-A6","2019/10/10 13:09:26","新北市中和區錦和路91號","121.489978333333","24.9957916666667","6500300","中和區"
"235034","558-UM","2019/10/10 13:09:21","新北市中和區圓通路207號","121.49713","24.9944566666667","6500300","中和區"
"235009","565-BX","2019/10/10 13:09:27","新北市中和區復興路81號","121.503438333333","24.9899566666667","6500300","中和區"
"235024","KED-0823","2019/10/10 13:09:23","新北市中和區員山路220號","121.481276666667","25.000965","6500300","中和區"
"235010","733-UM","2019/10/10 13:09:11","新北市中和區員山路36巷13號","121.484158333333","24.9909183333333","6500300","中和區"
"235021","801-TS","2019/10/10 13:09:25","新北市中和區民安街53號","121.479375","25.0000266666667","6500300","中和區"
"235005","802-TS","2019/10/10 13:09:16","新北市中和區錦和路216號","121.490375","24.9939066666667","6500300","中和區"
"235017","900-TW","2019/10/10 13:09:18","新北市中和區員山路36巷16-2號","121.485323333333","24.9914016666667","6500300","中和區"
"235028","911-UM","2019/10/10 13:09:29","新北市中和區中正路220號","121.496425","24.99403","6500300","中和區"
"235015","157-BY","2019/10/10 13:09:26","新北市中和區興南路一段86號","121.509781666667","24.98936","6500300","中和區"
"235001","AAC-213","2019/10/10 13:09:17","新北市中和區景平路151巷21號","121.514291666667","24.9913383333333","6500300","中和區"
"235023","AAC-215","2019/10/10 13:09:14","新北市中和區員山路36巷16-3號","121.485256666667","24.9911366666667","6500300","中和區"
"228005","097-TW","2019/10/10 13:09:31","新北市貢寮區仁理村仁和路198號","121.923578333333","25.0527766666667","6502600","貢寮區"
"228004","212-TW","2019/10/10 13:08:54","新北市貢寮區吉林里內寮街61號","121.891765","24.97648","6502600","貢寮區"
"253003","6232-TK","2019/10/10 13:08:56","新北市石門區石崩山1號","121.563326666667","25.285475","6502200","石門區"
"253004","6251-TK","2019/10/10 13:09:14","新北市石門區阿里荖4-2號","121.614278333333","25.2786383333333","6502200","石門區"
"253002","637-UY","2019/10/10 13:09:20","新北市石門區老崩山35號","121.557591666667","25.2768216666667","6502200","石門區"
"253001","KEC-0718","2019/10/10 13:09:15","新北市石門區楓林1號","121.536745","25.2983216666667","6502200","石門區"
"207002","749-BX","2019/10/10 13:09:32","新北市萬里區崁腳里內崁路8號","121.640283333333","25.1599683333333","6502800","萬里區"
"252005","073-UM","2019/10/10 13:09:16","新北市三芝區八賢里八連溪1-7號","121.507231666667","25.249045","6502100","三芝區"
"207001","662-BX","2019/10/10 13:09:16","新北市萬里區萬里里瑪鋉路139號","121.689316666667","25.17759","6502800","萬里區"
"237014","760-BX","2019/10/10 13:09:25","新北市三峽區大智路49號","121.36048","24.9363416666667","6500900","三峽區"
"220030","610-BX","2019/10/10 13:09:17","新北市板橋區華東街1-10號","121.448258333333","24.994925","6500100","板橋區"
"220020","461-BY","2019/10/10 13:09:28","新北市板橋區華東街1-9號","121.448126666667","24.9948533333333","6500100","板橋區"
"220021","985-R7","2019/10/10 13:09:29","新北市板橋區華東街1-10號","121.448333333333","24.994985","6500100","板橋區"
"235032","KEA-2873","2019/10/10 13:09:24","新北市中和區員山路36巷16-3號","121.485151666667","24.99145","6500300","中和區"
"235025","KEA-2875","2019/10/10 13:09:32","新北市中和區民德路187號","121.46841","24.999275","6500300","中和區"
"235026","KEA-2876","2019/10/10 13:09:30","新北市中和區板南路448-1號","121.489541666667","25.005305","6500300","中和區"
