"lineid","car","time","location","longitude","latitude","cityid","cityname"
"234044","148-BY","2019/10/10 13:39:26","新北市永和區成功路二段4號","121.526533333333","25.0011983333333","6500400","永和區"
"234078","298-R6","2019/10/10 13:39:31","新北市永和區林森路20巷7號","121.525853333333","25.0057333333333","6500400","永和區"
"234036","336-UY","2019/10/10 13:39:29","新北市永和區民樂街29號","121.527756666667","25.001525","6500400","永和區"
"234062","337-UY","2019/10/10 13:39:15","新北市永和區秀朗路二段24巷28弄2號","121.519681666667","25.00179","6500400","永和區"
"234084","338-UY","2019/10/10 13:39:24","新北市永和區永亨路142號","121.525135","25.0039483333333","6500400","永和區"
"234068","552-UM","2019/10/10 13:39:24","新北市永和區中興街1號","121.515525","25.0121016666667","6500400","永和區"
"234015","745-BX","2019/10/10 13:39:28","新北市永和區永和路二段405巷4號","121.515278333333","25.0173566666667","6500400","永和區"
"234028","746-BX","2019/10/10 13:39:22","新北市永和區民生路37巷7號","121.523683333333","24.9980733333333","6500400","永和區"
"234052","KEA-2590","2019/10/10 13:39:15","新北市永和區竹林路39巷7號","121.518265","25.0144933333333","6500400","永和區"
"234005","KED-0605","2019/10/10 13:39:17","新北市永和區中山路一段98巷2號","121.511785","25.010995","6500400","永和區"
"234012","KEA-2591","2019/10/10 13:39:24","新北市永和區永平路230號","121.508878333333","25.0107783333333","6500400","永和區"
"234060","AAD-866","2019/10/10 13:39:32","新北市永和區中正路498號","121.517403333333","25.0041283333333","6500400","永和區"
"234040","862-TW","2019/10/10 13:39:33","新北市永和區中和路591號","121.512131666667","25.00412","6500400","永和區"
"234048","863-TW","2019/10/10 13:39:30","新北市永和區保安路76號","121.509928333333","25.0164483333333","6500400","永和區"
"234025","9371-KE","2019/10/10 13:39:30","新北市永和區和平街95巷30號","121.51116","25.0093133333333","6500400","永和區"
"234010","9373-KE","2019/10/10 13:39:33","新北市永和區仁愛路169號","121.510705","25.0126883333333","6500400","永和區"
"248015","026-BX","2019/10/10 13:39:32","新北市五股區凌雲路一段149巷5-1號","121.448935","25.1017383333333","6501500","五股區"
"248006","077-UY","2019/10/10 13:39:18","新北市五股區四維路173號","121.46787","25.0751133333333","6501500","五股區"
"248007","KED-0815","2019/10/10 13:39:16","新北市五股區中興路一段153號","121.465085","25.0736216666667","6501500","五股區"
"248017","KED-0813","2019/10/10 13:39:26","新北市五股區民義路二段54-1號","121.406706666667","25.1071483333333","6501500","五股區"
"248011","247-BX","2019/10/10 13:39:27","新北市五股區成泰路三段2巷3號","121.44095","25.0863633333333","6501500","五股區"
"248003","677-BX","2019/10/10 13:39:31","新北市五股區民義路一段283號","121.425705","25.0927833333333","6501500","五股區"
"248001","678-BX","2019/10/10 13:39:26","新北市五股區西雲路234號","121.448683333333","25.0966316666667","6501500","五股區"
"248009","682-TV","2019/10/10 13:39:25","新北市五股區水碓一路92號","121.431768333333","25.0736733333333","6501500","五股區"
"234022","9380-KE","2019/10/10 13:39:20","新北市永和區中正路702巷20弄1號","121.516531666667","25.0106183333333","6500400","永和區"
"234076","969-R7","2019/10/10 13:39:22","新北市永和區得和路215號","121.519383333333","25.0002966666667","6500400","永和區"
"234072","AAC-211","2019/10/10 13:39:20","新北市永和區竹林路211號","121.520846666667","25.0089016666667","6500400","永和區"
"234066","AAC-212","2019/10/10 13:39:33","新北市永和區中山路一段174號","121.509183333333","25.0090083333333","6500400","永和區"
"234001","AAC-295","2019/10/10 13:39:13","新北市永和區永和路一段114號","121.513793333333","25.0073816666667","6500400","永和區"
"244003","248-BX","2019/10/10 13:39:29","新北市林口區瑞平里7鄰52號","121.341428333333","25.1244716666667","6501700","林口區"
"243002","297-R6","2019/10/10 13:39:18","新北市泰山區辭修路48號","121.428596666667","25.0571183333333","6501600","泰山區"
"243006","KEA-2801","2019/10/10 13:39:31","新北市泰山區犁頭窠3-1號","121.42212","25.06048","6501600","泰山區"
"243008","421-VK","2019/10/10 13:39:15","新北市泰山區仁愛路62號","121.432081666667","25.0549083333333","6501600","泰山區"
"243007","680-BX","2019/10/10 13:39:15","新北市泰山區黎明路25號","121.42182","25.0608316666667","6501600","泰山區"
"231030","002-UM","2019/10/10 13:39:16","新北市新店區安康路一段235-1號","121.525105","24.9632916666667","6500600","新店區"
"231027","0293-UT","2019/10/10 13:39:15","新北市新店區國校路68號","121.538586666667","24.9531416666667","6500600","新店區"
"231005","046-UY","2019/10/10 13:39:30","新北市新店區寶中路49-1號","121.54634","24.97982","6500600","新店區"
"231029","106-UY","2019/10/10 13:39:28","新北市新店區安康路二段250號","121.509088333333","24.959045","6500600","新店區"
"231018","107-UY","2019/10/10 13:39:22","新北市新店區百忍街10巷5號","121.534605","24.9758416666667","6500600","新店區"
"231013","108-UY","2019/10/10 13:39:22","新北市新店區中正路454-5號","121.534465","24.9791283333333","6500600","新店區"
"231036","110-UY","2019/10/10 13:39:15","新北市新店區安祥路147巷40號","121.476038333333","24.9569083333333","6500600","新店區"
"231031","256-BX","2019/10/10 13:39:27","新北市新店區莒光路44巷21弄11-6號","121.518711666667","24.9521616666667","6500600","新店區"
"231023","260-TV","2019/10/10 13:39:32","新北市新店區新店路118號","121.537146666667","24.9548333333333","6500600","新店區"
"231003","268-BY","2019/10/10 13:39:17","新北市新店區中興路一段282號","121.545648333333","24.9685516666667","6500600","新店區"
"231035","278-BY","2019/10/10 13:39:34","新北市新店區安忠路94號","121.511153333333","24.957395","6500600","新店區"
"231017","AAD-862","2019/10/10 13:39:25","新北市新店區竹林路2巷21號","121.550403333333","24.9511166666667","6500600","新店區"
"231006","355-BY","2019/10/10 13:39:30","新北市新店區光明街85號","121.53874","24.9609533333333","6500600","新店區"
"231038","3712-VJ","2019/10/10 13:39:23","新北市新店區安華路30巷1號","121.519571666667","24.95926","6500600","新店區"
"231024","4716-K9","2019/10/10 13:39:21","新北市新店區華興街21號","121.53761","24.9692733333333","6500600","新店區"
"231025","4715-K9","2019/10/10 13:39:12","新北市新店區中央五街37號","121.528603333333","24.97499","6500600","新店區"
"231021","513-UM","2019/10/10 13:39:22","新北市新店區新烏路一段58-2號","121.546048333333","24.947095","6500600","新店區"
"231002","619-UM","2019/10/10 13:39:19","新北市新店區中央三街127號","121.524086666667","24.9768666666667","6500600","新店區"
"231034","641-BX","2019/10/10 13:39:18","新北市新店區車子路121號","121.505385","24.9512216666667","6500600","新店區"
"231011","KED-0819","2019/10/10 13:39:25","新北市新店區德正街23巷12-1號","121.544688333333","24.9722683333333","6500600","新店區"
"231010","719-UM","2019/10/10 13:39:24","新北市新店區平等街10號","121.536973333333","24.9742466666667","6500600","新店區"
"231026","720-UM","2019/10/10 13:39:22","新北市新店區北宜路一段120號","121.53922","24.9551116666667","6500600","新店區"
"231028","897-TW","2019/10/10 13:39:22","新北市新店區安和路一段41號","121.51726","24.9653933333333","6500600","新店區"
"231001","898-TW","2019/10/10 13:39:14","新北市新店區中央路57號","121.532758333333","24.9774216666667","6500600","新店區"
"231004","899-TW","2019/10/10 13:39:22","新北市新店區北新路二段18號","121.542778333333","24.971335","6500600","新店區"
"231037","AKT-0513","2019/10/10 13:39:23","新北市新店區安康路二段416號","121.496588333333","24.95523","6500600","新店區"
"235030","003-UY","2019/10/10 13:39:14","新北市中和區光華街48號","121.5051","25.0035666666667","6500300","中和區"
"235027","006-UY","2019/10/10 13:39:31","新北市中和區中正路700號","121.486106666667","24.99637","6500300","中和區"
"235020","096-UM","2019/10/10 13:39:21","新北市中和區中正路1163號","121.481631666667","25.00931","6500300","中和區"
"235003","097-UM","2019/10/10 13:39:15","新北市中和區景平路278巷12號","121.51405","24.9929466666667","6500300","中和區"
"235029","098-UM","2019/10/10 13:39:24","新北市中和區莊敬路33巷42號","121.500288333333","25.00685","6500300","中和區"
"235022","151-BY","2019/10/10 13:39:19","新北市中和區員山路59號","121.480931666667","24.9932033333333","6500300","中和區"
"235019","183-VK","2019/10/10 13:39:34","新北市中和區德光路77巷1號","121.469481666667","25.003515","6500300","中和區"
"235002","185-VK","2019/10/10 13:39:30","新北市中和區大勇街110號","121.518096666667","24.9949683333333","6500300","中和區"
"235031","255-BX","2019/10/10 13:39:28","新北市中和區員山路148巷49號","121.482713333333","24.9971666666667","6500300","中和區"
"235008","293-VK","2019/10/10 13:39:25","新北市中和區復興路280巷1弄2號","121.502223333333","24.9906616666667","6500300","中和區"
"235036","301-VK","2019/10/10 13:39:21","新北市中和區中山路二段174巷2-3號","121.501205","25.00316","6500300","中和區"
"235007","352-BY","2019/10/10 13:39:25","新北市中和區景平路71號","121.51969","24.991335","6500300","中和區"
"235006","KEA-2878","2019/10/10 13:39:33","新北市中和區秀朗路三段135巷7弄1號","121.525485","24.99204","6500300","中和區"
"235014","4979-A6","2019/10/10 13:39:13","新北市中和區景新街496巷28弄39號","121.512681666667","24.98589","6500300","中和區"
"235033","4980-A6","2019/10/10 13:39:26","新北市中和區連城路65巷14號","121.498066666667","25.0006333333333","6500300","中和區"
"235034","558-UM","2019/10/10 13:39:24","新北市中和區圓通路14號","121.50149","24.9981833333333","6500300","中和區"
"235009","565-BX","2019/10/10 13:39:27","新北市中和區南山路204號","121.506043333333","24.9903383333333","6500300","中和區"
"235024","KED-0823","2019/10/10 13:39:23","新北市中和區民治街9巷1號","121.475171666667","25.0046116666667","6500300","中和區"
"235018","640-BX","2019/10/10 13:39:33","新北市中和區民享街71號","121.474176666667","25.0021183333333","6500300","中和區"
"235011","732-UM","2019/10/10 13:39:23","新北市中和區興南路二段36號","121.506913333333","24.985335","6500300","中和區"
"235010","733-UM","2019/10/10 13:39:32","新北市中和區忠孝街101巷1號","121.511786666667","24.9860033333333","6500300","中和區"
"235021","801-TS","2019/10/10 13:39:25","新北市中和區民安街28號","121.480306666667","25.0005783333333","6500300","中和區"
"235005","802-TS","2019/10/10 13:39:16","新北市中和區中和路402-1號","121.511411666667","25.0025566666667","6500300","中和區"
"235016","805-TS","2019/10/10 13:39:15","新北市中和區興南路三段20巷4號","121.496923333333","24.9796","6500300","中和區"
"235012","896-TW","2019/10/10 13:39:11","新北市中和區中正路83號","121.500618333333","24.9935316666667","6500300","中和區"
"235017","900-TW","2019/10/10 13:39:18","新北市中和區華福街71號","121.467076666667","24.9965533333333","6500300","中和區"
"235028","911-UM","2019/10/10 13:39:29","新北市中和區泰和街34號","121.499366666667","25.000265","6500300","中和區"
"235015","157-BY","2019/10/10 13:39:26","新北市中和區華新街143巷106弄32號","121.506208333333","24.97874","6500300","中和區"
"235001","AAC-213","2019/10/10 13:39:24","新北市中和區秀朗路三段128巷10號","121.524583333333","24.9926766666667","6500300","中和區"
"235023","AAC-215","2019/10/10 13:39:34","新北市中和區錦和路350-1號","121.490533333333","24.9935816666667","6500300","中和區"
"220013","072-UY","2019/10/10 13:39:20","新北市板橋區成都街72-3號","121.46348","25.0052283333333","6500100","板橋區"
"220034","073-UY","2019/10/10 13:39:31","新北市板橋區華東街1-10號","121.448271666667","24.995065","6500100","板橋區"
"220017","AAD-861","2019/10/10 13:39:32","新北市板橋區大華街5號","121.45893","25.00621","6500100","板橋區"
"247001","341-TH","2019/10/10 13:39:28","新北市五股區中興路三段5號","121.4496","25.080035","6501400","蘆洲區"
"247013","056-VK","2019/10/10 13:39:23","新北市五股區成泰路三段358號","121.45127","25.0982483333333","6501400","蘆洲區"
"235013","251-BX","2019/10/10 13:39:31","新北市中和區明義街8號","121.50496","24.99503","6500300","中和區"
"228005","097-TW","2019/10/10 13:39:31","新北市貢寮區美豐里文秀坑3號","121.904281666667","25.05272","6502600","貢寮區"
"228004","212-TW","2019/10/10 13:39:14","新北市貢寮區龍崗里嵩陽街17號","121.907821666667","25.0097233333333","6502600","貢寮區"
"253003","6232-TK","2019/10/10 13:39:16","新北市石門區內石門18-3號","121.573386666667","25.2746783333333","6502200","石門區"
"253004","6251-TK","2019/10/10 13:39:34","新北市石門區草埔尾34號","121.603613333333","25.2666866666667","6502200","石門區"
"253002","637-UY","2019/10/10 13:39:20","新北市石門區內石門79號","121.566316666667","25.26024","6502200","石門區"
"253001","KEC-0718","2019/10/10 13:39:15","新北市石門區八甲58-2號","121.522053333333","25.2744816666667","6502200","石門區"
"207002","749-BX","2019/10/10 13:39:26","新北市萬里區崁腳里崁腳路166號","121.644975","25.1559583333333","6502800","萬里區"
"252005","073-UM","2019/10/10 13:39:16","新北市三芝區圓山里木屐寮30號","121.533221666667","25.22304","6502100","三芝區"
"207001","662-BX","2019/10/10 13:39:15","新北市萬里區大鵬里萬里加投19-12號","121.65029","25.2093083333333","6502800","萬里區"
"237014","760-BX","2019/10/10 13:21:14","新北市三峽區中山路459巷135號","121.348875","24.9330683333333","6500900","三峽區"
"236040","KED-0685","2019/10/10 13:39:30","新北市土城區城林路6巷80號","121.438761666667","24.9797233333333","6501300","土城區"
"236029","253-BX","2019/10/10 13:39:30","新北市土城區城林路6巷80號","121.438538333333","24.979775","6501300","土城區"
"236012","270-VK","2019/10/10 13:39:21","新北市土城區城林路6巷80號","121.438533333333","24.979775","6501300","土城區"
"236032","271-VK","2019/10/10 13:39:35","新北市土城區城林路6巷80號","121.438468333333","24.9798466666667","6501300","土城區"
"236017","401-BY","2019/10/10 13:39:21","新北市土城區城林路6巷80號","121.438406666667","24.97986","6501300","土城區"
"236060","752-BX","2019/10/10 13:39:24","新北市土城區城林路6巷80號","121.438463333333","24.9797916666667","6501300","土城區"
"236045","913-UM","2019/10/10 13:39:13","新北市土城區城林路6巷80號","121.438425","24.9797416666667","6501300","土城區"
"238006","571-TV","2019/10/10 13:34:06","新北市樹林區育德街78號","121.387525","24.9683883333333","6500700","樹林區"
"220027","145-BY","2019/10/10 13:39:28","新北市板橋區大觀路一段35巷1號","121.449618333333","25.008505","6500100","板橋區"
"220028","200-UY","2019/10/10 13:39:14","新北市板橋區大觀路二段435號","121.441668333333","24.9950583333333","6500100","板橋區"
"220030","610-BX","2019/10/10 13:39:20","新北市板橋區篤行路一段29號","121.432023333333","24.9945533333333","6500100","板橋區"
"220004","276-BY","2019/10/10 13:39:11","新北市板橋區館前西路46巷2號","121.45898","25.0071533333333","6500100","板橋區"
"220020","277-BY","2019/10/10 13:39:35","新北市板橋區大觀路三段80號","121.43281","24.99481","6500100","板橋區"
"220019","283-VK","2019/10/10 13:39:28","新北市板橋區四川路二段14號","121.456088333333","24.9963633333333","6500100","板橋區"
"220043","285-UM","2019/10/10 13:39:25","新北市板橋區民生路二段161巷1號","121.46994","25.0198316666667","6500100","板橋區"
"220031","286-VK","2019/10/10 13:39:31","新北市板橋區大觀路二段153巷47號","121.446965","25.0007933333333","6500100","板橋區"
"220029","287-VK","2019/10/10 13:39:21","新北市板橋區大觀路二段153巷33號","121.446856666667","25.0002666666667","6500100","板橋區"
"220039","288-VK","2019/10/10 13:39:31","新北市板橋區民生路二段120號","121.470465","25.0196116666667","6500100","板橋區"
"220032","296-UM","2019/10/10 13:39:33","新北市板橋區大觀路二段146-6號","121.441768333333","24.99902","6500100","板橋區"
"220034","297-UM","2019/10/10 13:19:27","新北市板橋區華東街1-10號","121.44843","24.9949733333333","6500100","板橋區"
"220023","303-R5","2019/10/10 13:39:18","新北市板橋區大觀路二段266號","121.44892","24.9963433333333","6500100","板橋區"
"220041","307-R5","2019/10/10 13:39:25","新北市板橋區民生路二段89-4號","121.471073333333","25.0184033333333","6500100","板橋區"
"220020","461-BY","2019/10/10 13:39:28","新北市板橋區中正路413巷4號","121.453881666667","25.0227683333333","6500100","板橋區"
"220038","487-VK","2019/10/10 13:39:20","新北市板橋區民生路二段161巷1號","121.470041666667","25.0200983333333","6500100","板橋區"
"220037","491-VK","2019/10/10 13:39:21","新北市板橋區民生路二段175號","121.469786666667","25.0201933333333","6500100","板橋區"
"220104","560-BX","2019/10/10 13:39:13","新北市板橋區南雅西路二段145巷10號","121.451651666667","25.0119083333333","6500100","板橋區"
"220052","561-BX","2019/10/10 13:39:22","新北市板橋區民生路二段121號","121.470881666667","25.018425","6500100","板橋區"
"220005","686-BX","2019/10/10 13:39:33","新北市板橋區館前東路11號","121.459881666667","25.0073166666667","6500100","板橋區"
"220025","687-BX","2019/10/10 13:39:12","新北市板橋區大觀路三段198巷5號","121.43061","24.99285","6500100","板橋區"
"220002","741-BX","2019/10/10 13:38:14","新北市板橋區華東街1-9號","121.448093333333","24.9949366666667","6500100","板橋區"
"220051","KEA-2699","2019/10/10 13:39:23","新北市板橋區民生路二段89-4號","121.471388333333","25.0183916666667","6500100","板橋區"
"220003","827-TW","2019/10/10 13:39:22","新北市板橋區忠孝路19號","121.460311666667","25.0021183333333","6500100","板橋區"
"220022","895-R6","2019/10/10 13:39:17","新北市板橋區南雅南路一段8號","121.455828333333","25.0063616666667","6500100","板橋區"
"220021","985-R7","2019/10/10 13:39:29","新北市板橋區南雅南路二段116號","121.454313333333","25.000065","6500100","板橋區"
"220046","AAC-210","2019/10/10 13:39:21","新北市板橋區民生路二段161巷9號","121.470178333333","25.0195983333333","6500100","板橋區"
"220012","AAC-253","2019/10/10 13:39:17","新北市板橋區民生路二段89-1號","121.471795","25.017305","6500100","板橋區"
"235032","KEA-2873","2019/10/10 13:39:24","新北市中和區圓通路265巷58號","121.49633","24.9923633333333","6500300","中和區"
"235025","KEA-2875","2019/10/10 13:39:22","新北市中和區民享街40號","121.473858333333","25.00287","6500300","中和區"
"235026","KEA-2876","2019/10/10 13:39:29","新北市中和區中山路二段312巷33弄20號","121.494838333333","25.00419","6500300","中和區"
