"lineid","car","time","location","longitude","latitude","cityid","cityname"
"231030","002-UM","2019/10/10 15:29:34","新北市新店區安和路二段222號","121.517413333333","24.975965","6500600","新店區"
"231005","046-UY","2019/10/10 15:29:30","新北市新店區建國路270號","121.537561666667","24.9833733333333","6500600","新店區"
"231029","106-UY","2019/10/10 15:29:27","新北市新店區安康路三段628號","121.478241666667","24.945605","6500600","新店區"
"231018","107-UY","2019/10/10 15:29:22","新北市新店區中央七街86號","121.526773333333","24.9769483333333","6500600","新店區"
"231013","108-UY","2019/10/10 15:29:22","新北市新店區華潭街1巷3號","121.529496666667","24.94964","6500600","新店區"
"231036","110-UY","2019/10/10 15:29:21","新北市新店區安祥路67巷26號","121.484433333333","24.9597833333333","6500600","新店區"
"231039","187-VK","2019/10/10 15:29:32","新北市新店區寶元路一段44號","121.543631666667","24.9848666666667","6500600","新店區"
"231031","256-BX","2019/10/10 15:29:26","新北市新店區裕合街143號","121.489095","24.949095","6500600","新店區"
"231023","260-TV","2019/10/10 15:29:32","新北市新店區五峰路24號","121.54371","24.969165","6500600","新店區"
"231003","268-BY","2019/10/10 15:29:17","新北市新店區寶高路120巷1號","121.554726666667","24.9762116666667","6500600","新店區"
"231035","278-BY","2019/10/10 15:29:34","新北市新店區安興路81號","121.515431666667","24.97533","6500600","新店區"
"231017","AAD-862","2019/10/10 15:29:25","新北市新店區銀河路58號","121.576735","24.9573383333333","6500600","新店區"
"231038","3712-VJ","2019/10/10 15:29:23","新北市新店區安康路一段355號","121.51999","24.9636183333333","6500600","新店區"
"231024","4716-K9","2019/10/10 15:29:21","新北市新店區安康路一段295號","121.522515","24.9636733333333","6500600","新店區"
"231021","513-UM","2019/10/10 15:29:21","新北市新店區湖興路49號","121.561026666667","24.9347483333333","6500600","新店區"
"231002","619-UM","2019/10/10 15:29:19","新北市新店區環河路114巷2號","121.536385","24.96444","6500600","新店區"
"231034","641-BX","2019/10/10 15:29:17","新北市新店區玫瑰路16號","121.494883333333","24.9504133333333","6500600","新店區"
"231011","KED-0819","2019/10/10 15:29:25","新北市新店區寶元路一段107號","121.54568","24.98283","6500600","新店區"
"231028","897-TW","2019/10/10 15:29:21","新北市新店區僑信路106號","121.500066666667","24.94713","6500600","新店區"
"231004","899-TW","2019/10/10 15:29:24","新北市新店區民族路108號","121.538111666667","24.977185","6500600","新店區"
"231037","AKT-0513","2019/10/10 15:29:23","新北市新店區安興路69號","121.51593","24.975175","6500600","新店區"
"241017","063-VK","2019/10/10 15:29:28","新北市三重區重新路四段121號","121.485266666667","25.0520383333333","6500200","三重區"
"241013","270-UM","2019/10/10 15:29:22","新北市三重區重新路四段121號","121.48499","25.0520866666667","6500200","三重區"
"241020","478-VK","2019/10/10 15:29:32","新北市三重區重新路四段121號","121.484825","25.0525016666667","6500200","三重區"
"241029","942-UM","2019/10/10 15:29:33","新北市三重區重新路四段121號","121.485116666667","25.0523316666667","6500200","三重區"
"241033","AAC-255","2019/10/10 15:29:21","新北市三重區重新路四段121號","121.485213333333","25.0524","6500200","三重區"
"235030","003-UY","2019/10/10 15:29:14","新北市中和區中山路二段3巷22弄27號","121.505951666667","25.0042866666667","6500300","中和區"
"235019","183-VK","2019/10/10 15:29:14","新北市八里區中山路三段409號","121.36866","25.1347533333333","6500300","中和區"
"235014","4979-A6","2019/10/10 15:29:33","新北市中和區景安路82巷11號","121.504861666667","24.99624","6500300","中和區"
"235033","4980-A6","2019/10/10 15:29:26","新北市中和區連城路467-4號","121.483838333333","24.996055","6500300","中和區"
"235026","551-UM","2019/10/10 15:29:23","新北市中和區立業路51號","121.492806666667","25.0073933333333","6500300","中和區"
"235023","AAC-215","2019/10/10 15:29:34","新北市中和區員山路28-8號","121.482601666667","24.987465","6500300","中和區"
"207001","662-BX","2019/10/10 15:29:15","新北市萬里區龜吼里玉田路46-2號","121.683073333333","25.1895883333333","6502800","萬里區"
"236040","KED-0685","2019/10/10 15:29:26","新北市土城區學府路一段98巷15號","121.45574","24.9885533333333","6501300","土城區"
"236074","166-UM","2019/10/10 15:29:22","新北市土城區溪頭路110號","121.408825","24.950575","6501300","土城區"
"236029","253-BX","2019/10/10 15:29:28","新北市土城區日新街9巷1號","121.445356666667","24.9871066666667","6501300","土城區"
"236024","269-VK","2019/10/10 15:29:32","新北市土城區中央路一段286號","121.44363","24.9825083333333","6501300","土城區"
"236012","270-VK","2019/10/10 15:29:21","新北市土城區廣明街14號","121.455955","24.9921483333333","6501300","土城區"
"236032","271-VK","2019/10/10 15:29:15","新北市土城區明德路一段20巷1弄2號","121.464625","24.984805","6501300","土城區"
"236068","KEA-2877","2019/10/10 15:29:28","新北市土城區水源街34號","121.440871666667","24.9756766666667","6501300","土城區"
"236017","401-BY","2019/10/10 15:29:30","新北市土城區延吉街137巷12弄4號","121.470716666667","24.9855316666667","6501300","土城區"
"236060","752-BX","2019/10/10 15:29:24","新北市土城區延和路62巷8弄1號","121.466216666667","24.98832","6501300","土城區"
"236057","912-UM","2019/10/10 15:29:27","新北市土城區中央路二段154號","121.44197","24.9767633333333","6501300","土城區"
"236045","913-UM","2019/10/10 15:29:33","新北市土城區青雲路216號","121.459026666667","24.9815283333333","6501300","土城區"
"236054","AAC-216","2019/10/10 15:29:21","新北市土城區延和路19號","121.464436666667","24.9884033333333","6501300","土城區"
"238002","755-BX","2019/10/10 15:29:26","新北市樹林區日新街109號","121.421328333333","24.989825","6500700","樹林區"
"238010","601-UM","2019/10/10 15:29:16","新北市樹林區三福街134號","121.405678333333","25.0164033333333","6500700","樹林區"
"238006","571-TV","2019/10/10 15:29:22","新北市樹林區太元街51號","121.418648333333","24.979205","6500700","樹林區"
"238011","5061-A6","2019/10/10 15:29:20","新北市樹林區東豐街81號","121.410966666667","24.97366","6500700","樹林區"
"238005","KEA-2217","2019/10/10 15:29:20","新北市樹林區中山路1段191巷1-1號","121.422435","24.9875583333333","6500700","樹林區"
"238009","KEA-2213","2019/10/10 15:29:23","新北市樹林區忠孝街12號","121.423305","24.9825833333333","6500700","樹林區"
"238008","KEA-2539","2019/10/10 15:29:29","新北市樹林區柑園街一段119號","121.401081666667","24.9598166666667","6500700","樹林區"
"238012","303-VK","2019/10/10 15:29:23","新北市樹林區中山路一段151號","121.422061666667","24.9890416666667","6500700","樹林區"
"238004","283-BY","2019/10/10 15:29:26","新北市樹林區保安街二段333巷2號","121.412311666667","25.0075966666667","6500700","樹林區"
"238001","282-BY","2019/10/10 15:29:20","新北市樹林區潭興街107巷21弄14號","121.423963333333","24.9989616666667","6500700","樹林區"
"238007","268-VK","2019/10/10 15:29:28","新北市樹林區俊英街168號","121.42658","25.007015","6500700","樹林區"
"238013","172-UY","2019/10/10 15:29:34","新北市樹林區新興街19巷34弄21號","121.402315","24.9727133333333","6500700","樹林區"
"238003","169-UY","2019/10/10 15:29:31","新北市樹林區長壽街2巷5-4號","121.424155","24.9935533333333","6500700","樹林區"
"220031","286-VK","2019/10/10 15:29:31","新北市板橋區僑中二街104巷1號","121.445781666667","25.00779","6500100","板橋區"
"220034","297-UM","2019/10/10 15:20:06","新北市板橋區華東街1-10號","121.448433333333","24.99496","6500100","板橋區"
"220003","827-TW","2019/10/10 15:29:22","新北市板橋區南雅南路二段49號","121.451506666667","24.9944216666667","6500100","板橋區"
