"lineid","car","time","location","longitude","latitude","cityid","cityname"
"249001","173-UM","2019/10/10 17:09:29","新北市八里區中華路二段361-5號","121.398446666667","25.144465","6502300","八里區"
"249004","303-UY","2019/10/10 17:09:23","新北市八里區忠孝路152號","121.423848333333","25.160745","6502300","八里區"
"249002","305-UY","2019/10/10 17:09:24","新北市八里區龍米路二段147巷7號","121.441101666667","25.1496566666667","6502300","八里區"
"249003","593-UM","2019/10/10 17:09:27","新北市八里區中山路二段405號","121.397725","25.1466","6502300","八里區"
"244007","080-UY","2019/10/10 17:09:16","新北市林口區菁埔5-1號","121.37942","25.09627","6501700","林口區"
"244023","483-VK","2019/10/10 17:09:14","新北市林口區仁愛路一段669號","121.387718333333","25.0765116666667","6501700","林口區"
"244017","485-VK","2019/10/10 17:09:20","新北市林口區粉寮69號","121.405058333333","25.0908383333333","6501700","林口區"
"244009","656-BX","2019/10/10 17:09:19","新北市林口區文化北路二段550巷29弄13號","121.379373333333","25.09234","6501700","林口區"
"244025","837-TS","2019/10/10 17:09:31","新北市林口區中山路522號","121.378486666667","25.083385","6501700","林口區"
"244021","838-TS","2019/10/10 17:09:29","新北市林口區東林里4鄰64號","121.404771666667","25.0904566666667","6501700","林口區"
"231046","719-UM","2019/10/10 17:02:33","新北市新店區灣潭路15-2號","121.542681666667","24.9429683333333","6500600","新店區"
"241011","013-R5","2019/10/10 17:09:23","新北市三重區龍濱路196號","121.501068333333","25.0732983333333","6500200","三重區"
"241028","022-UY","2019/10/10 17:09:14","新北市三重區重新路三段120號","121.492151666667","25.0602183333333","6500200","三重區"
"241008","059-VK","2019/10/10 17:09:14","新北市三重區力行路二段136巷17弄2號","121.481663333333","25.0756716666667","6500200","三重區"
"241002","060-VK","2019/10/10 17:09:25","新北市三重區五華街35巷17號","121.495066666667","25.0811833333333","6500200","三重區"
"241015","062-VK","2019/10/10 17:09:20","新北市三重區長生街4號","121.499023333333","25.066335","6500200","三重區"
"241017","063-VK","2019/10/10 17:09:28","新北市三重區大同北路60巷24號","121.493553333333","25.06366","6500200","三重區"
"241024","065-VK","2019/10/10 17:09:17","新北市三重區中正北路193巷11弄34號","121.478276666667","25.07058","6500200","三重區"
"241007","066-VK","2019/10/10 17:09:15","新北市三重區三和路四段163巷22號","121.484828333333","25.0791216666667","6500200","三重區"
"241003","091-VK","2019/10/10 17:09:17","新北市三重區富福街103號","121.493323333333","25.08548","6500200","三重區"
"241006","262-UM","2019/10/10 17:09:34","新北市三重區車路頭街129號","121.484373333333","25.0756166666667","6500200","三重區"
"241016","266-UM","2019/10/10 17:09:35","新北市三重區國隆路26號","121.492391666667","25.0643466666667","6500200","三重區"
"241009","267-UM","2019/10/10 17:09:27","新北市三重區三和路四段217號","121.481711666667","25.0797633333333","6500200","三重區"
"241018","268-UM","2019/10/10 17:09:31","新北市三重區大智街158號","121.491956666667","25.0688683333333","6500200","三重區"
"241032","269-UM","2019/10/10 17:09:16","新北市三重區重陽路一段112號","121.486683333333","25.059865","6500200","三重區"
"241013","270-UM","2019/10/10 17:09:23","新北市三重區仁愛街101號","121.495886666667","25.0739566666667","6500200","三重區"
"241025","271-UM","2019/10/10 17:09:19","新北市三重區中正北路560巷9號","121.470883333333","25.0716333333333","6500200","三重區"
"241030","KED-0822","2019/10/10 17:09:31","新北市三重區集成路6號","121.488383333333","25.0518333333333","6500200","三重區"
"241004","475-VK","2019/10/10 17:09:29","新北市三重區五華街89號","121.49199","25.0832833333333","6500200","三重區"
"241020","478-VK","2019/10/10 17:09:32","新北市三重區自強路三段18號","121.486876666667","25.0721783333333","6500200","三重區"
"241014","543-UM","2019/10/10 17:09:16","新北市三重區龍濱路128號","121.501663333333","25.071675","6500200","三重區"
"241023","545-UM","2019/10/10 17:09:28","新北市三重區忠孝路三段126號","121.480175","25.0637016666667","6500200","三重區"
"241001","547-UM","2019/10/10 17:09:32","新北市三重區仁愛街255巷42-1號","121.494081666667","25.0787983333333","6500200","三重區"
"241019","KEA-2593","2019/10/10 17:09:21","新北市三重區力行路一段50號","121.485956666667","25.0682733333333","6500200","三重區"
"241005","AAD-863","2019/10/10 17:09:31","新北市三重區永安北路二段25巷11號","121.482475","25.0816166666667","6500200","三重區"
"241012","743-BX","2019/10/10 17:09:12","新北市三重區仁興街10號","121.499691666667","25.0743316666667","6500200","三重區"
"241022","KED-0820","2019/10/10 17:09:24","新北市三重區三民街131號","121.484896666667","25.0639233333333","6500200","三重區"
"241026","887-TS","2019/10/10 17:09:31","新北市三重區重新路一段56號","121.50248","25.0639666666667","6500200","三重區"
"241029","942-UM","2019/10/10 17:09:33","新北市三重區重新路三段150號","121.490833333333","25.0592866666667","6500200","三重區"
"241033","AAC-255","2019/10/10 17:09:21","新北市三重區中興北街275號","121.469271666667","25.060735","6500200","三重區"
"247016","KEA-2869","2019/10/10 17:09:35","新北市蘆洲區正和街52號","121.468936666667","25.08174","6501400","蘆洲區"
"247010","KED-0682","2019/10/10 17:09:30","新北市蘆洲區民族路26號","121.476165","25.084295","6501400","蘆洲區"
"235054","640-BX","2019/10/10 16:58:20","新北市中和區員山路36巷16-2號","121.48537","24.9916866666667","6500300","中和區"
"247006","893-R6","2019/10/10 17:09:26","新北市蘆洲區長安街102巷51-1號","121.462416666667","25.0818616666667","6501400","蘆洲區"
"247020","546-UM","2019/10/10 17:09:26","新北市蘆洲區仁愛街42-9號","121.472585","25.09401","6501400","蘆洲區"
"247002","341-TH","2019/10/10 17:09:24","新北市蘆洲區永樂街64號","121.457211666667","25.0885933333333","6501400","蘆洲區"
"247012","337-TH","2019/10/10 17:09:31","新北市蘆洲區信義路266巷2號","121.478495","25.0869783333333","6501400","蘆洲區"
"247004","336-TH","2019/10/10 17:09:31","新北市蘆洲區長安街201-1號","121.460011666667","25.081815","6501400","蘆洲區"
"247024","057-VK","2019/10/10 17:09:28","新北市蘆洲區光華路162巷19號","121.46483","25.082725","6501400","蘆洲區"
"247014","056-VK","2019/10/10 17:09:28","新北市蘆洲區中央路37巷15-15號","121.473211666667","25.0825166666667","6501400","蘆洲區"
"247018","053-VK","2019/10/10 17:09:23","新北市蘆洲區復興路128號","121.476571666667","25.0874783333333","6501400","蘆洲區"
"247022","007-UY","2019/10/10 17:09:31","新北市蘆洲區水湳街95號","121.47019","25.090215","6501400","蘆洲區"
"247008","002-UY","2019/10/10 17:09:16","新北市蘆洲區民生街53號","121.474846666667","25.0788216666667","6501400","蘆洲區"
"228003","097-TW","2019/10/10 17:09:32","新北市貢寮區福隆里東興街31-1號","121.952275","25.0206033333333","6502600","貢寮區"
"228001","212-TW","2019/10/10 17:09:25","新北市貢寮區仁理村研海街45號","121.926646666667","25.040175","6502600","貢寮區"
"228002","663-BX","2019/10/10 17:09:22","新北市貢寮區龍崗里泮宮路1號","121.907616666667","25.0184566666667","6502600","貢寮區"
"224006","676-BX","2019/10/10 17:09:21","新北市瑞芳區大寮路114號","121.780236666667","25.0979633333333","6501200","瑞芳區"
"224009","275-VK","2019/10/10 17:09:30","新北市瑞芳區濱二路30號","121.840771666667","25.1157833333333","6501200","瑞芳區"
"224008","273-VK","2019/10/10 17:09:27","新北市瑞芳區九芎橋路14號","121.831945","25.0909083333333","6501200","瑞芳區"
"224005","271-BY","2019/10/10 17:09:18","新北市瑞芳區鼻頭路229-1號","121.913943333333","25.12406","6501200","瑞芳區"
"227002","642-TC","2019/10/10 17:09:20","新北市雙溪區上林里新寮子2號","121.83902","25.03115","6502500","雙溪區"
"227001","400-TW","2019/10/10 17:09:10","新北市雙溪區三貂里政光路6-5號","121.851321666667","25.0719666666667","6502500","雙溪區"
"251004","009-UM","2019/10/10 17:09:23","新北市淡水區中正東路二段101號","121.459255","25.1519833333333","6501000","淡水區"
"251005","010-UM","2019/10/10 17:09:27","新北市淡水區鄧公路19-1號","121.450235","25.16991","6501000","淡水區"
"251015","KEA-2871","2019/10/10 17:09:19","新北市淡水區忠愛街1-3號","121.455351666667","25.1717916666667","6501000","淡水區"
"251016","179-VK","2019/10/10 17:09:29","新北市淡水區社厝坑3-6號","121.47494","25.1882583333333","6501000","淡水區"
"251008","181-VK","2019/10/10 17:09:17","新北市淡水區樹梅坑6號","121.47252","25.1454683333333","6501000","淡水區"
"251013","182-VK","2019/10/10 17:09:28","新北市淡水區大埤頭6號","121.482741666667","25.1974716666667","6501000","淡水區"
"251010","413-VK","2019/10/10 17:09:26","新北市淡水區中正路二段31號","121.41946","25.181495","6501000","淡水區"
"251007","442-VK","2019/10/10 17:09:32","新北市淡水區中正東路二段153號","121.459845","25.146505","6501000","淡水區"
"251012","443-VK","2019/10/10 17:09:27","新北市淡水區重建街82號","121.440148333333","25.1723933333333","6501000","淡水區"
"251006","561-UM","2019/10/10 17:09:27","新北市淡水區真理街6號","121.438413333333","25.1744983333333","6501000","淡水區"
"251009","575-R6","2019/10/10 17:09:21","新北市淡水區中正路一段130-7號","121.421998333333","25.1792083333333","6501000","淡水區"
"251014","577-R6","2019/10/10 17:09:29","新北市淡水區八里堆7-6號","121.461068333333","25.2245716666667","6501000","淡水區"
"251011","650-BX","2019/10/10 17:09:23","新北市淡水區坪頂路50號","121.457961666667","25.1626083333333","6501000","淡水區"
"251003","673-BX","2019/10/10 17:09:35","新北市淡水區中正路二段31號","121.419483333333","25.18143","6501000","淡水區"
"252002","178-VK","2019/10/10 17:09:19","新北市三芝區智成街120號","121.506053333333","25.2553566666667","6502100","三芝區"
"233002","762-BX","2019/10/10 17:09:32","新北市烏來區溫泉街86巷20號","121.550725","24.86052","6502900","烏來區"
"252001","KED-0821","2019/10/10 17:09:23","新北市三芝區埔頭里埔頭27-1號","121.495443333333","25.2601216666667","6502100","三芝區"
"242004","751-BX","2019/10/10 17:09:33","新北市新莊區新泰路255巷83號","121.442371666667","25.0387933333333","6500500","新莊區"
"242029","615-BX","2019/10/10 17:09:25","新北市新莊區新泰路357巷3弄57號","121.441923333333","25.0392916666667","6500500","新莊區"
"242027","613-BX","2019/10/10 17:09:33","新北市新莊區新泰路255巷83號","121.442223333333","25.0391666666667","6500500","新莊區"
"242048","566-BX","2019/10/10 17:09:24","新北市新莊區中正路471號","121.441766666667","25.0338933333333","6500500","新莊區"
"242053","497-BY","2019/10/10 17:09:31","新北市新莊區新泰路357巷3弄53號","121.442396666667","25.0398883333333","6500500","新莊區"
"242002","441-UM","2019/10/10 17:09:15","新北市新莊區三和路12-21號","121.442063333333","25.0382466666667","6500500","新莊區"
"242007","440-UM","2019/10/10 17:09:19","新北市新莊區三和路12-21號","121.442245","25.0386333333333","6500500","新莊區"
"242013","413-TV","2019/10/10 17:09:20","新北市新莊區新泰路357巷3弄57號","121.441853333333","25.039665","6500500","新莊區"
"242051","400-BY","2019/10/10 17:09:26","新北市泰山區磚雅厝3號","121.442088333333","25.041675","6500500","新莊區"
"242025","362-BY","2019/10/10 17:09:22","新北市新莊區新泰路357巷3弄57號","121.442025","25.03905","6500500","新莊區"
"242023","353-BY","2019/10/10 17:09:21","新北市新莊區新泰路357巷3弄57號","121.442065","25.0392133333333","6500500","新莊區"
"242039","135-UY","2019/10/10 17:09:19","新北市新莊區三和路12-16號","121.442213333333","25.0374366666667","6500500","新莊區"
"242017","173-VK","2019/10/10 17:09:16","新北市新莊區三和路12-21號","121.442053333333","25.03874","6500500","新莊區"
"242031","175-VK","2019/10/10 17:09:22","新北市新莊區三和路12-21號","121.44202","25.0387416666667","6500500","新莊區"
"242021","KED-0687","2019/10/10 17:09:30","新北市新莊區三和路12-21號","121.442265","25.0381266666667","6500500","新莊區"
"242036","348-TH","2019/10/10 17:09:19","新北市新莊區三和路12-21號","121.442131666667","25.038735","6500500","新莊區"
"242009","349-TH","2019/10/10 17:09:31","新北市新莊區三和路12-21號","121.442306666667","25.0383333333333","6500500","新莊區"
"242034","350-TH","2019/10/10 17:09:29","新北市新莊區新泰路357巷2-2號","121.441941666667","25.0413433333333","6500500","新莊區"
"242019","351-TH","2019/10/10 17:09:30","新北市新莊區新泰路357巷3弄57號","121.442016666667","25.039505","6500500","新莊區"
"238015","755-BX","2019/10/10 17:09:15","新北市樹林區中山路三段125-11號","121.398628333333","24.9736933333333","6500700","樹林區"
"238023","601-UM","2019/10/10 17:09:16","新北市樹林區中正路433-1號","121.414983333333","25.00804","6500700","樹林區"
"238019","571-TV","2019/10/10 17:09:22","新北市樹林區育德街78-1號","121.387633333333","24.9681716666667","6500700","樹林區"
"238018","KEA-2217","2019/10/10 17:09:27","新北市樹林區環河路10號","121.426685","24.9788133333333","6500700","樹林區"
"238022","KEA-2213","2019/10/10 17:09:23","新北市樹林區八德街225號","121.421465","24.97927","6500700","樹林區"
"238021","KEA-2539","2019/10/10 17:09:32","新北市樹林區西圳街一段165巷20弄11號","121.395665","24.9601933333333","6500700","樹林區"
"238025","303-VK","2019/10/10 17:09:23","新北市樹林區中正路22-1號","121.427978333333","24.9994366666667","6500700","樹林區"
"238014","282-BY","2019/10/10 17:09:16","新北市樹林區中正路22-1號","121.427708333333","24.9995766666667","6500700","樹林區"
"238020","268-VK","2019/10/10 17:09:18","新北市樹林區中正路22-1號","121.42795","24.999285","6500700","樹林區"
"238026","172-UY","2019/10/10 17:09:23","新北市樹林區佳園路一段153號","121.39381","24.9686533333333","6500700","樹林區"
"239007","AAC-297","2019/10/10 17:09:27","新北市鶯歌區公有市場9號","121.35289","24.9541566666667","6500800","鶯歌區"
"239006","891-R6","2019/10/10 17:09:27","新北市鶯歌區八德路2巷17號","121.336996666667","24.947365","6500800","鶯歌區"
"239008","527-UM","2019/10/10 17:09:25","新北市鶯歌區尖山路103號","121.348226666667","24.9491533333333","6500800","鶯歌區"
"239005","526-UM","2019/10/10 17:09:24","新北市鶯歌區鶯桃路301號","121.33368","24.9606133333333","6500800","鶯歌區"
"239001","417-VK","2019/10/10 17:09:23","新北市鶯歌區尖山路144號","121.34659","24.9487466666667","6500800","鶯歌區"
"239003","360-BY","2019/10/10 17:09:26","新北市鶯歌區八德路16號","121.330641666667","24.9554566666667","6500800","鶯歌區"
"239002","359-BY","2019/10/10 17:09:34","新北市鶯歌區建國路200號","121.349428333333","24.953525","6500800","鶯歌區"
"239004","193-VK","2019/10/10 17:09:28","新北市鶯歌區文化路324巷13號","121.350233333333","24.9445883333333","6500800","鶯歌區"
"244019","KED-0667","2019/10/10 17:09:31","新北市林口區公園路227-3號","121.374823333333","25.07506","6501700","林口區"
"220034","297-UM","2019/10/10 17:09:33","新北市板橋區華東街1-10號","121.448386666667","24.9949816666667","6500100","板橋區"
"242046","281-VK","2019/10/10 17:09:27","新北市新莊區三和路12-21號","121.442273333333","25.0383833333333","6500500","新莊區"
"242011","280-VK","2019/10/10 17:09:28","新北市新莊區三和路12-21號","121.442065","25.038405","6500500","新莊區"
"235061","KEA-2875","2019/10/10 17:08:18","新北市中和區員山路36巷16-2號","121.485241666667","24.9917466666667","6500300","中和區"
