"lineid","car","time","location","longitude","latitude","cityid","cityname"
"234081","298-R6","2019/10/10 18:29:26","新北市永和區環河東路二段92號","121.52446","25.010625","6500400","永和區"
"234086","338-UY","2019/10/10 18:29:31","新北市永和區福和路8巷1號","121.525028333333","25.0090583333333","6500400","永和區"
"234017","745-BX","2019/10/10 18:29:33","新北市永和區福和路1號","121.526371666667","25.00951","6500400","永和區"
"234007","KED-0605","2019/10/10 18:29:26","新北市永和區環河西路二段195號","121.502285","25.0111166666667","6500400","永和區"
"234013","KEA-2591","2019/10/10 18:27:48","新北市永和區福和路1號","121.526446666667","25.0094183333333","6500400","永和區"
"234026","9371-KE","2019/10/10 18:29:33","新北市永和區永貞路419號","121.507233333333","25.0093983333333","6500400","永和區"
"234011","9373-KE","2019/10/10 18:29:24","新北市永和區保福路二段156號","121.509175","25.0150516666667","6500400","永和區"
"249001","173-UM","2019/10/10 18:29:29","新北市八里區龍米路一段140號","121.452915","25.1256033333333","6502300","八里區"
"249004","303-UY","2019/10/10 18:29:30","新北市八里區忠孝路81號","121.425161666667","25.1604983333333","6502300","八里區"
"249002","305-UY","2019/10/10 18:28:04","新北市八里區龍形五街35-1號","121.449493333333","25.1328","6502300","八里區"
"249003","593-UM","2019/10/10 18:29:27","新北市八里區中山路三段409號","121.368483333333","25.1352583333333","6502300","八里區"
"248014","025-BX","2019/10/10 18:29:29","新北市五股區成泰路一段149-1號","121.435443333333","25.0733233333333","6501500","五股區"
"248016","026-BX","2019/10/10 18:29:34","新北市五股區凌雲路一段83巷14號","121.450326666667","25.1008066666667","6501500","五股區"
"248008","KED-0815","2019/10/10 18:29:31","新北市五股區更洲路32巷8弄14號","121.459226666667","25.0796266666667","6501500","五股區"
"248020","KED-0813","2019/10/10 18:29:19","新北市五股區孝義路57-1號","121.45392","25.1123216666667","6501500","五股區"
"248012","247-BX","2019/10/10 18:29:25","新北市五股區御成路81號","121.441665","25.0932366666667","6501500","五股區"
"248004","677-BX","2019/10/10 18:29:17","新北市五股區民義路一段206號","121.430368333333","25.0890916666667","6501500","五股區"
"248002","678-BX","2019/10/10 18:29:36","新北市五股區西雲路116-5號","121.444691666667","25.093575","6501500","五股區"
"248010","682-TV","2019/10/10 18:29:24","新北市五股區明德路12巷16號","121.433298333333","25.0719216666667","6501500","五股區"
"234077","969-R7","2019/10/10 18:29:26","新北市永和區福和路1號","121.526435","25.009765","6500400","永和區"
"232011","375-UM","2019/10/10 18:29:15","新北市坪林區坪雙路一段41號","121.71167","24.9424483333333","6502000","坪林區"
"244007","080-UY","2019/10/10 18:29:16","新北市林口區中湖62號","121.384535","25.10097","6501700","林口區"
"244013","KEA-2802","2019/10/10 18:29:21","新北市林口區文化一路二段92號","121.38193","25.07863","6501700","林口區"
"244023","483-VK","2019/10/10 18:29:14","新北市林口區仁愛路二段62巷7號","121.38425","25.0759566666667","6501700","林口區"
"244017","485-VK","2019/10/10 18:29:20","新北市林口區文化二路一段62-4號","121.365341666667","25.0685366666667","6501700","林口區"
"244009","656-BX","2019/10/10 18:29:19","新北市林口區竹林路358巷15號","121.39247","25.08407","6501700","林口區"
"244011","701-TV","2019/10/10 18:29:18","新北市林口區興林路17巷5弄1號","121.390513333333","25.0770183333333","6501700","林口區"
"244025","837-TS","2019/10/10 18:29:31","新北市林口區南勢六街79號","121.354431666667","25.0721533333333","6501700","林口區"
"244021","838-TS","2019/10/10 18:29:29","新北市林口區自強二街11號","121.397786666667","25.0782233333333","6501700","林口區"
"243010","297-R6","2019/10/10 18:29:16","新北市泰山區黎明路26號","121.421053333333","25.0604416666667","6501600","泰山區"
"243015","680-BX","2019/10/10 18:29:29","新北市泰山區犁頭窠3-1號","121.422013333333","25.0605583333333","6501600","泰山區"
"222003","436-BY","2019/10/10 18:29:34","新北市深坑區烏月路56-1號","121.631175","25.0056983333333","6501800","深坑區"
"222002","659-BX","2019/10/10 18:29:22","新北市深坑區雲鄉路133號","121.62267","24.9981016666667","6501800","深坑區"
"231061","002-UM","2019/10/10 18:29:24","新北市新店區安華路28-1號","121.519751666667","24.9605883333333","6500600","新店區"
"231058","0293-UT","2019/10/10 18:29:33","新北市新店區國校路2巷1號","121.53797","24.9565666666667","6500600","新店區"
"231044","046-UY","2019/10/10 18:29:27","新北市新店區安華路28-1號","121.519278333333","24.9609583333333","6500600","新店區"
"231051","107-UY","2019/10/10 18:29:12","新北市新店區安一路一段1-1號","121.519681666667","24.9611466666667","6500600","新店區"
"231065","110-UY","2019/10/10 18:29:31","新北市新店區安一路一段1-1號","121.5194","24.9612233333333","6500600","新店區"
"231062","256-BX","2019/10/10 18:29:22","新北市新店區安一路一段1-1號","121.519915","24.9612083333333","6500600","新店區"
"231054","260-TV","2019/10/10 18:29:26","新北市新店區安一路一段1-1號","121.519281666667","24.9612333333333","6500600","新店區"
"231042","268-BY","2019/10/10 18:29:25","新北市新店區安一路一段1-1號","121.519645","24.9613416666667","6500600","新店區"
"231064","278-BY","2019/10/10 18:29:30","新北市新店區安一路一段1-1號","121.519846666667","24.96117","6500600","新店區"
"231050","AAD-862","2019/10/10 18:29:28","新北市新店區安華路28-1號","121.519795","24.9608366666667","6500600","新店區"
"231045","355-BY","2019/10/10 18:29:29","新北市新店區安華路28-1號","121.51921","24.96075","6500600","新店區"
"231055","4716-K9","2019/10/10 18:29:19","新北市新店區北新路二段29巷1弄8號","121.542068333333","24.9723033333333","6500600","新店區"
"231056","4715-K9","2019/10/10 18:29:26","新北市新店區自立街45巷1號","121.537088333333","24.9799116666667","6500600","新店區"
"231067","4772-VM","2019/10/10 18:29:22","新北市新店區安華路28-1號","121.519298333333","24.9606683333333","6500600","新店區"
"231052","513-UM","2019/10/10 18:29:34","新北市新店區北宜路一段254號","121.545476666667","24.952825","6500600","新店區"
"231063","641-BX","2019/10/10 18:29:29","新北市新店區安華路28-1號","121.519781666667","24.9607866666667","6500600","新店區"
"231047","KED-0819","2019/10/10 18:29:30","新北市新店區安一路一段1-1號","121.520001666667","24.9611966666667","6500600","新店區"
"231057","720-UM","2019/10/10 18:29:22","新北市新店區安一路一段1-1號","121.519401666667","24.96124","6500600","新店區"
"231040","898-TW","2019/10/10 18:29:31","新北市新店區安華路28-1號","121.519333333333","24.9609216666667","6500600","新店區"
"231043","899-TW","2019/10/10 18:29:35","新北市新店區安華路28-1號","121.519276666667","24.9608316666667","6500600","新店區"
"231066","AKT-0513","2019/10/10 18:29:18","新北市新店區安華路1-1號","121.519331666667","24.9602783333333","6500600","新店區"
"235066","003-UY","2019/10/10 18:29:16","新北市中和區中山路二段118號","121.502648333333","25.0039933333333","6500300","中和區"
"235063","006-UY","2019/10/10 18:29:36","新北市中和區連城路369號","121.48727","24.9961183333333","6500300","中和區"
"235056","096-UM","2019/10/10 18:29:24","新北市中和區員山路611巷5弄1號","121.477936666667","25.0112366666667","6500300","中和區"
"235039","097-UM","2019/10/10 18:29:27","新北市中和區安樂路249號","121.514","24.9996683333333","6500300","中和區"
"235065","098-UM","2019/10/10 18:29:35","新北市中和區莊敬路49巷20弄22號","121.502711666667","25.0058366666667","6500300","中和區"
"235040","150-BY","2019/10/10 18:29:16","新北市中和區安平路59號","121.509516666667","24.9951683333333","6500300","中和區"
"235058","151-BY","2019/10/10 18:29:32","新北市中和區圓通路320號","121.487025","24.988245","6500300","中和區"
"235055","183-VK","2019/10/10 18:29:16","新北市中和區民生街93-2號","121.468541666667","25.0048233333333","6500300","中和區"
"235038","185-VK","2019/10/10 18:29:18","新北市中和區自立路147號","121.522475","24.9931533333333","6500300","中和區"
"235067","255-BX","2019/10/10 18:29:13","新北市中和區新生街6號","121.483103333333","25.0046766666667","6500300","中和區"
"235044","293-VK","2019/10/10 18:29:26","新北市中和區復興路302號","121.501373333333","24.9903083333333","6500300","中和區"
"235072","301-VK","2019/10/10 18:29:22","新北市中和區連城路87號","121.496923333333","25.0004016666667","6500300","中和區"
"235043","352-BY","2019/10/10 18:29:17","新北市中和區景平路273號","121.507953333333","24.9929866666667","6500300","中和區"
"235042","KEA-2878","2019/10/10 18:29:29","新北市中和區自立路179號","121.523423333333","24.991865","6500300","中和區"
"235050","4979-A6","2019/10/10 18:29:28","新北市中和區興南路一段20-1號","121.511283333333","24.9910666666667","6500300","中和區"
"235069","4980-A6","2019/10/10 18:29:30","新北市中和區連城路101號","121.496461666667","24.99978","6500300","中和區"
"235070","558-UM","2019/10/10 18:29:30","新北市中和區南華路41號","121.50371","24.9965433333333","6500300","中和區"
"235045","565-BX","2019/10/10 18:29:13","新北市中和區南山路236巷34-8號","121.504566666667","24.9882683333333","6500300","中和區"
"235060","KED-0823","2019/10/10 18:29:19","新北市中和區中山路三段94號","121.477448333333","25.005645","6500300","中和區"
"235054","640-BX","2019/10/10 18:29:33","新北市中和區莒光路80號","121.472328333333","25.002915","6500300","中和區"
"235047","732-UM","2019/10/10 18:29:23","新北市中和區南山路493號","121.507973333333","24.9878816666667","6500300","中和區"
"235046","733-UM","2019/10/10 18:29:25","新北市中和區忠孝街101巷1號","121.51177","24.9860716666667","6500300","中和區"
"235057","801-TS","2019/10/10 18:29:24","新北市中和區員山路327巷46號","121.480501666667","25.00172","6500300","中和區"
"235041","802-TS","2019/10/10 18:29:30","新北市中和區景安路42號","121.507065","24.9981883333333","6500300","中和區"
"235052","805-TS","2019/10/10 18:29:32","新北市中和區興南路二段104號","121.50483","24.9839983333333","6500300","中和區"
"235048","896-TW","2019/10/10 18:29:30","新北市中和區中正路19號","121.502816666667","24.9934683333333","6500300","中和區"
"235053","900-TW","2019/10/10 18:29:23","新北市中和區民享街462號","121.469703333333","24.9923","6500300","中和區"
"235064","911-UM","2019/10/10 18:29:24","新北市中和區連城路103號","121.496301666667","24.9995933333333","6500300","中和區"
"235051","157-BY","2019/10/10 18:29:25","新北市中和區興南路二段114巷10弄38號","121.504028333333","24.985085","6500300","中和區"
"235037","AAC-213","2019/10/10 18:29:18","新北市中和區景平路87號","121.517793333333","24.9915916666667","6500300","中和區"
"235059","AAC-215","2019/10/10 18:29:22","新北市中和區員山路36巷16-3號","121.48509","24.9913983333333","6500300","中和區"
"220065","072-UY","2019/10/10 18:29:29","新北市板橋區南雅南路二段1-1號","121.454766666667","25.0036533333333","6500100","板橋區"
"247022","007-UY","2019/10/10 18:27:51","新北市八里區荖阡坑路34號","121.401916666667","25.1291916666667","6501400","蘆洲區"
"226004","312-R5","2019/10/10 18:29:20","新北市平溪區白石里白石腳211號","121.728198333333","25.02269","6502400","平溪區"
"235049","251-BX","2019/10/10 18:29:13","新北市中和區景安路72號","121.50568","24.9966583333333","6500300","中和區"
"228003","097-TW","2019/10/10 18:29:32","新北市貢寮區和美里和美街38號","121.912198333333","25.08895","6502600","貢寮區"
"228001","212-TW","2019/10/10 18:29:25","新北市貢寮區仁理村仁和路166號","121.923475","25.0521533333333","6502600","貢寮區"
"228002","663-BX","2019/10/10 18:29:22","新北市貢寮區福連里福連街35號","121.990118333333","25.01034","6502600","貢寮區"
"224010","AGQ-8101","2019/10/10 18:29:32","新北市瑞芳區九份中山巷10號","121.843945","25.1076","6501200","瑞芳區"
"224006","676-BX","2019/10/10 18:29:21","新北市瑞芳區逢甲路72號","121.8105","25.1082566666667","6501200","瑞芳區"
"224007","285-BY","2019/10/10 18:29:23","新北市瑞芳區大埔路國宅新村30-1號","121.76467","25.100195","6501200","瑞芳區"
"224009","275-VK","2019/10/10 18:29:30","新北市瑞芳區金光路334號","121.84958","25.1096466666667","6501200","瑞芳區"
"224008","273-VK","2019/10/10 18:29:27","新北市瑞芳區岳王路1巷46號","121.805983333333","25.11051","6501200","瑞芳區"
"224005","271-BY","2019/10/10 18:29:18","新北市瑞芳區建基路二段83號","121.805756666667","25.133955","6501200","瑞芳區"
"227002","642-TC","2019/10/10 18:29:16","新北市雙溪區共和里中山路59號","121.868213333333","25.0314883333333","6502500","雙溪區"
"227001","400-TW","2019/10/10 18:29:30","新北市雙溪區牡丹里牡丹159-1號","121.850946666667","25.05909","6502500","雙溪區"
"253005","032-BX","2019/10/10 18:29:28","新北市石門區老崩山11-13號","121.551878333333","25.2905883333333","6502200","石門區"
"253006","295-VK","2019/10/10 18:29:20","新北市石門區公地16號","121.545761666667","25.290235","6502200","石門區"
"222001","KEA-2212","2019/10/10 18:29:27","新北市深坑區北深路一段185號","121.631553333333","25.010205","6501800","深坑區"
"208002","KEA-2872","2019/10/10 18:29:27","新北市金山區民生路31號","121.643471666667","25.22189","6502700","金山區"
"208003","665-BX","2019/10/10 18:29:21","新北市金山區中山路102號","121.640076666667","25.219105","6502700","金山區"
"251004","009-UM","2019/10/10 18:29:30","新北市淡水區民族路31巷29號","121.462311666667","25.1364716666667","6501000","淡水區"
"251005","010-UM","2019/10/10 18:29:34","新北市淡水區中正東路35巷12號","121.44651","25.1686333333333","6501000","淡水區"
"251015","KEA-2871","2019/10/10 18:29:19","新北市淡水區興福寮88巷216號","121.48599","25.1665883333333","6501000","淡水區"
"251016","179-VK","2019/10/10 18:29:29","新北市淡水區下圭柔山114-1號","121.44532","25.2108333333333","6501000","淡水區"
"251008","181-VK","2019/10/10 18:29:16","新北市淡水區水源街二段346巷1弄1號","121.464486666667","25.1756016666667","6501000","淡水區"
"251013","182-VK","2019/10/10 18:29:28","新北市淡水區椿子林19號","121.480606666667","25.2030383333333","6501000","淡水區"
"251010","413-VK","2019/10/10 18:29:26","新北市淡水區沙崙路181巷27號","121.423095","25.18479","6501000","淡水區"
"251012","443-VK","2019/10/10 18:29:27","新北市淡水區北新路一段175號","121.459441666667","25.182265","6501000","淡水區"
"251001","559-UM","2019/10/10 18:29:27","新北市淡水區自強路122巷1號","121.464486666667","25.133105","6501000","淡水區"
"251006","561-UM","2019/10/10 18:29:27","新北市淡水區新生街29號","121.439446666667","25.1749766666667","6501000","淡水區"
"251009","575-R6","2019/10/10 18:29:21","新北市淡水區下圭柔山90-2號","121.431691666667","25.2119583333333","6501000","淡水區"
"251014","577-R6","2019/10/10 18:29:29","新北市淡水區南平26-1號","121.494056666667","25.2146566666667","6501000","淡水區"
"251011","650-BX","2019/10/10 18:29:22","新北市淡水區坪頂路26號","121.456883333333","25.16175","6501000","淡水區"
"251002","672-BX","2019/10/10 18:29:27","新北市淡水區竿蓁二街34巷1號","121.453951666667","25.1628216666667","6501000","淡水區"
"251003","673-BX","2019/10/10 18:29:15","新北市淡水區北新路169巷14號","121.449726666667","25.1801516666667","6501000","淡水區"
"207003","681-TV","2019/10/10 18:29:25","新北市萬里區野柳里港西路8-2號","121.685165","25.2036816666667","6502800","萬里區"
"207004","291-VK","2019/10/10 18:29:23","新北市萬里區萬里里瑪鋉路21號","121.687383333333","25.1754066666667","6502800","萬里區"
"252002","178-VK","2019/10/10 18:29:18","新北市三芝區中山路二段38號","121.502991666667","25.2551466666667","6502100","三芝區"
"252003","249-BX","2019/10/10 18:29:29","新北市三芝區後厝里北勢子45-33號","121.469903333333","25.2511166666667","6502100","三芝區"
"208001","170-UY","2019/10/10 18:29:27","新北市金山區環金路19號","121.641053333333","25.2176283333333","6502700","金山區"
"237004","KEA-2597","2019/10/10 18:29:21","新北市三峽區五寮22號","121.374823333333","24.8703666666667","6500900","三峽區"
"237007","153-BY","2019/10/10 18:29:17","新北市三峽區中正路三段76-1號","121.356081666667","24.9037333333333","6500900","三峽區"
"237009","210-TH","2019/10/10 18:29:25","新北市三峽區民權街231號","121.368026666667","24.927895","6500900","三峽區"
"237012","275-BY","2019/10/10 18:29:20","新北市三峽區三樹路128-1號","121.37844","24.93964","6500900","三峽區"
"237008","302-VK","2019/10/10 18:29:20","新北市三峽區白雞68-313號","121.392311666667","24.9099683333333","6500900","三峽區"
"237014","433-BY","2019/10/10 18:29:35","新北市三峽區文化路4號","121.373361666667","24.93557","6500900","三峽區"
"237013","280-TH","2019/10/10 18:29:16","新北市三峽區永安街9巷5號","121.376248333333","24.9296583333333","6500900","三峽區"
"237006","5529-G3","2019/10/10 18:29:27","新北市三峽區溪東路218巷2-1號","121.40756","24.9321066666667","6500900","三峽區"
"237011","KEA-2596","2019/10/10 18:29:27","新北市三峽區溪東路218巷32號","121.40699","24.9300333333333","6500900","三峽區"
"237015","649-BX","2019/10/10 18:29:21","新北市三峽區竹崙路116號","121.433956666667","24.9108666666667","6500900","三峽區"
"237010","706-TV","2019/10/10 18:29:31","新北市三峽區中山路145號","121.364983333333","24.9361833333333","6500900","三峽區"
"237014","760-BX","2019/10/10 18:27:17","新北市三峽區中山路13巷11號","121.369065","24.9339633333333","6500900","三峽區"
"237005","AKY-6261","2019/10/10 18:29:24","新北市三峽區仁愛街26號","121.368431666667","24.9321316666667","6500900","三峽區"
"236042","KED-0685","2019/10/10 18:29:35","新北市土城區裕民路61巷10號","121.44954","24.988225","6501300","土城區"
"236078","166-UM","2019/10/10 18:29:32","新北市土城區中央路四段27巷10弄1號","121.4246","24.9621033333333","6501300","土城區"
"236030","253-BX","2019/10/10 18:29:23","新北市土城區水源街69號","121.439841666667","24.9763166666667","6501300","土城區"
"236026","269-VK","2019/10/10 18:29:28","新北市土城區南天母路135巷20號","121.448571666667","24.95468","6501300","土城區"
"236014","270-VK","2019/10/10 18:29:26","新北市土城區青雲路39巷7號","121.460356666667","24.9875883333333","6501300","土城區"
"236038","271-VK","2019/10/10 18:29:16","新北市土城區青雲路483巷10弄35號","121.459473333333","24.97246","6501300","土城區"
"236070","KEA-2877","2019/10/10 18:29:34","新北市土城區永豐路255巷27弄21號","121.476153333333","24.97301","6501300","土城區"
"252001","KED-0821","2019/10/10 18:29:19","新北市三芝區中興街二段6號","121.498481666667","25.2564316666667","6502100","三芝區"
"236021","401-BY","2019/10/10 18:29:27","新北市土城區永豐路202巷14號","121.466276666667","24.9834666666667","6501300","土城區"
"236063","752-BX","2019/10/10 18:28:51","新北市土城區延壽路20號","121.471271666667","24.99084","6501300","土城區"
"236059","912-UM","2019/10/10 18:29:21","新北市土城區中央路四段99號","121.416763333333","24.9579516666667","6501300","土城區"
"236049","913-UM","2019/10/10 18:29:22","新北市土城區青雲路480號","121.458781666667","24.97326","6501300","土城區"
"236055","AAC-216","2019/10/10 18:29:26","新北市土城區中華路一段235號","121.44144","24.9827583333333","6501300","土城區"
"242042","AAC-296","2019/10/10 18:29:20","新北市新莊區天祥街120巷3弄2號","121.414788333333","25.03044","6500500","新莊區"
"242061","705-TV","2019/10/10 18:29:25","新北市新莊區四維路97巷22-1號","121.42421","25.02323","6500500","新莊區"
"242058","612-BX","2019/10/10 18:28:58","新北市新莊區中正路891-16號","121.412986666667","25.0223816666667","6500500","新莊區"
"242053","497-BY","2019/10/10 18:29:31","新北市新莊區樹新路120巷49弄1號","121.430236666667","24.9958616666667","6500500","新莊區"
"242044","415-TV","2019/10/10 18:29:19","新北市新莊區新北大道七段840號","121.41362","25.0238233333333","6500500","新莊區"
"242025","362-BY","2019/10/10 18:29:22","新北市新莊區中央路232號","121.45464","25.0590183333333","6500500","新莊區"
"242015","132-UY","2019/10/10 18:29:18","新北市新莊區新泰路357巷3弄1號","121.44253","25.0412833333333","6500500","新莊區"
"242056","172-VK","2019/10/10 18:29:12","新北市新莊區中環路一段30號","121.442503333333","25.027125","6500500","新莊區"
"242009","349-TH","2019/10/10 18:29:31","新北市新莊區中華路二段29號","121.453598333333","25.04622","6500500","新莊區"
"242034","350-TH","2019/10/10 18:29:29","新北市板橋區大觀路三段2巷7號","121.435206666667","24.9963683333333","6500500","新莊區"
"238023","601-UM","2019/10/10 18:29:16","新北市樹林區三福街114號","121.406461666667","25.0163066666667","6500700","樹林區"
"238019","571-TV","2019/10/10 18:29:21","新北市樹林區八德街86號","121.419936666667","24.98137","6500700","樹林區"
"238024","5061-A6","2019/10/10 18:29:21","新北市樹林區育英街2巷52號","121.423548333333","24.990555","6500700","樹林區"
"238018","KEA-2217","2019/10/10 18:29:26","新北市樹林區保安街一段20巷40號","121.428501666667","24.99507","6500700","樹林區"
"238025","303-VK","2019/10/10 18:29:23","新北市樹林區保安街一段183號","121.42117","24.9957266666667","6500700","樹林區"
"238017","283-BY","2019/10/10 18:29:26","新北市樹林區光榮街21號","121.412046666667","25.00378","6500700","樹林區"
"238020","268-VK","2019/10/10 18:29:18","新北市樹林區三龍街28-1號","121.411985","25.01813","6500700","樹林區"
"238026","172-UY","2019/10/10 18:29:23","新北市樹林區佳園路一段75巷208號","121.397253333333","24.9705166666667","6500700","樹林區"
"238016","169-UY","2019/10/10 18:29:31","新北市樹林區中山路二段10號","121.417536666667","24.9849966666667","6500700","樹林區"
"239007","AAC-297","2019/10/10 18:29:26","新北市鶯歌區重慶街84號","121.348818333333","24.95198","6500800","鶯歌區"
"239005","526-UM","2019/10/10 18:29:24","新北市鶯歌區鶯桃路668巷73號","121.329943333333","24.9718116666667","6500800","鶯歌區"
"239001","417-VK","2019/10/10 18:29:23","新北市鶯歌區尖山路302巷22號","121.342028333333","24.943325","6500800","鶯歌區"
"239003","360-BY","2019/10/10 18:29:25","新北市鶯歌區福安街13巷1號","121.335611666667","24.96533","6500800","鶯歌區"
"239004","193-VK","2019/10/10 18:29:27","新北市鶯歌區尖山路166巷36-1號","121.344921666667","24.9491133333333","6500800","鶯歌區"
"221036","130-UY","2019/10/10 18:29:32","新北市汐止區大同路三段139巷1弄5號","121.669151666667","25.0777433333333","6501100","汐止區"
"221015","131-UY","2019/10/10 18:27:40","新北市汐止區鄉長路二段146號","121.663618333333","25.08579","6501100","汐止區"
"244019","KED-0667","2019/10/10 18:29:31","新北市林口區麗園二街33巷6號","121.380416666667","25.0695666666667","6501700","林口區"
"221010","269-BY","2019/10/10 18:29:17","新北市汐止區汐萬路二段345號","121.644456666667","25.0907716666667","6501100","汐止區"
"221012","278-VK","2019/10/10 18:29:11","新北市汐止區保長路35巷15弄2號","121.67328","25.0800833333333","6501100","汐止區"
"221023","279-VK","2019/10/10 18:29:23","新北市汐止區康寧街474巷7-2號","121.632231666667","25.0678783333333","6501100","汐止區"
"221032","280-BY","2019/10/10 18:29:18","新北市汐止區民權街二段109巷8弄1號","121.619228333333","25.04679","6501100","汐止區"
"221027","281-BY","2019/10/10 18:29:31","新北市汐止區和平街67號","121.661518333333","25.0707633333333","6501100","汐止區"
"221029","298-VK","2019/10/10 18:27:03","新北市汐止區樟樹二路101號","121.640595","25.0664516666667","6501100","汐止區"
"221021","299-VK","2019/10/10 18:29:14","新北市汐止區連興街120號","121.653688333333","25.0623516666667","6501100","汐止區"
"221031","353-TW","2019/10/10 18:29:29","新北市汐止區大同路一段203號","121.633251666667","25.05725","6501100","汐止區"
"221035","622-UM","2019/10/10 18:29:08","新北市汐止區大同路二段189號","121.652173333333","25.0644916666667","6501100","汐止區"
"221025","623-UM","2019/10/10 18:29:23","新北市汐止區仁愛路116號","121.662776666667","25.063685","6501100","汐止區"
"221038","646-BX","2019/10/10 18:29:32","新北市汐止區忠孝東路295號","121.664163333333","25.068725","6501100","汐止區"
"221033","647-BX","2019/10/10 18:29:14","新北市汐止區宜興街40巷1號","121.622011666667","25.04207","6501100","汐止區"
"221002","707-TV","2019/10/10 18:29:20","新北市汐止區福德一路180號","121.635693333333","25.0659183333333","6501100","汐止區"
"221018","753-BX","2019/10/10 18:29:29","新北市汐止區茄苳路120巷4號","121.66766","25.0699633333333","6501100","汐止區"
"220080","200-UY","2019/10/10 18:29:13","新北市板橋區華東街1-9號","121.448093333333","24.994885","6500100","板橋區"
"224002","257-TC","2019/10/10 18:29:31","新北市瑞芳區正貿新村20號","121.813305","25.1057166666667","6501200","瑞芳區"
"220056","276-BY","2019/10/10 18:29:26","新北市板橋區華東街1-10號","121.448275","24.994965","6500100","板橋區"
"220071","283-VK","2019/10/10 18:29:14","新北市板橋區華東街1-9號","121.44806","24.994895","6500100","板橋區"
"220094","285-UM","2019/10/10 18:29:33","新北市板橋區民生路二段161巷1號","121.470075","25.01988","6500100","板橋區"
"220081","287-VK","2019/10/10 18:29:25","新北市板橋區華東街1-10號","121.448246666667","24.9950133333333","6500100","板橋區"
"220084","296-UM","2019/10/10 18:29:18","新北市板橋區華東街1-9號","121.448115","24.9949433333333","6500100","板橋區"
"220034","297-UM","2019/10/10 18:16:56","新北市板橋區華東街1-10號","121.448383333333","24.9949766666667","6500100","板橋區"
"242046","281-VK","2019/10/10 18:29:26","新北市新莊區中正路803巷22號","121.421608333333","25.0280583333333","6500500","新莊區"
"242011","280-VK","2019/10/10 18:29:28","新北市新莊區中榮街47號","121.449525","25.0527","6500500","新莊區"
"220035","560-BX","2019/10/10 18:29:32","新北市板橋區南雅西路一段19巷8號","121.454048333333","25.003895","6500100","板橋區"
"220057","686-BX","2019/10/10 18:29:34","新北市板橋區華東街298號","121.452793333333","25.0024816666667","6500100","板橋區"
"220077","687-BX","2019/10/10 18:29:17","新北市板橋區華東街1-10號","121.448305","24.9949833333333","6500100","板橋區"
"220054","741-BX","2019/10/10 18:29:20","新北市板橋區華東街1-9號","121.44813","24.9949216666667","6500100","板橋區"
"220055","827-TW","2019/10/10 18:29:33","新北市板橋區華東街1號","121.448503333333","24.9942933333333","6500100","板橋區"
"220073","985-R7","2019/10/10 18:29:25","新北市土城區中央路一段2-1號","121.449728333333","24.993085","6500100","板橋區"
"220064","AAC-253","2019/10/10 18:29:15","新北市板橋區南雅南路二段4巷4號","121.454161666667","25.00377","6500100","板橋區"
"235068","KEA-2873","2019/10/10 18:29:22","新北市中和區中正路271-5號","121.495843333333","24.9932466666667","6500300","中和區"
"235061","KEA-2875","2019/10/10 18:29:24","新北市中和區民享街90巷8號","121.474218333333","25.0002933333333","6500300","中和區"
"235062","KEA-2876","2019/10/10 18:29:07","新北市中和區中山路二段312巷12號","121.495328333333","25.0036916666667","6500300","中和區"
