"lineid","car","time","location","longitude","latitude","cityid","cityname"
"234046","148-BY","2019/10/10 18:59:14","新北市永和區得和路373巷31弄3號","121.524821666667","25.00054","6500400","永和區"
"234081","298-R6","2019/10/10 18:59:26","新北市永和區永亨路83號","121.522078333333","25.0057066666667","6500400","永和區"
"234038","336-UY","2019/10/10 18:59:30","新北市永和區成功路二段203號","121.526595","24.9960016666667","6500400","永和區"
"234064","337-UY","2019/10/10 18:59:37","新北市永和區秀朗路一段140號","121.518078333333","25.0033816666667","6500400","永和區"
"234086","338-UY","2019/10/10 18:59:31","新北市永和區中正路397號","121.517215","25.0041733333333","6500400","永和區"
"234070","552-UM","2019/10/10 18:59:24","新北市永和區竹林路137號","121.520226666667","25.0106633333333","6500400","永和區"
"234017","745-BX","2019/10/10 18:59:33","新北市永和區永和路二段299號","121.516105","25.0162316666667","6500400","永和區"
"234030","746-BX","2019/10/10 18:59:29","新北市永和區秀朗路二段276號","121.525883333333","24.997895","6500400","永和區"
"234054","KEA-2590","2019/10/10 18:59:28","新北市永和區竹林路62號","121.518198333333","25.0135666666667","6500400","永和區"
"234007","KED-0605","2019/10/10 18:59:26","新北市永和區中山路一段50號","121.51315","25.010725","6500400","永和區"
"234013","KEA-2591","2019/10/10 18:59:28","新北市永和區中山路一段60巷6號","121.513113333333","25.0109583333333","6500400","永和區"
"234061","AAD-866","2019/10/10 18:59:19","新北市永和區福和路309巷1號","121.51638","25.0070533333333","6500400","永和區"
"234042","862-TW","2019/10/10 18:59:33","新北市永和區永貞路308號","121.511833333333","25.0048566666667","6500400","永和區"
"234050","863-TW","2019/10/10 18:59:32","新北市永和區文化路204號","121.510455","25.016425","6500400","永和區"
"234026","9371-KE","2019/10/10 18:59:36","新北市永和區安樂路461號","121.51431","25.0051983333333","6500400","永和區"
"234011","9373-KE","2019/10/10 18:59:24","新北市永和區仁愛路141巷3弄2號","121.511696666667","25.0123366666667","6500400","永和區"
"249001","173-UM","2019/10/10 18:59:29","新北市八里區龍米路二段208號","121.4333","25.1584916666667","6502300","八里區"
"249003","593-UM","2019/10/10 18:39:48","新北市八里區博物館路10-1號","121.415108333333","25.163965","6502300","八里區"
"248016","026-BX","2019/10/10 18:59:32","新北市五股區成泰路三段559巷14弄2號","121.45135","25.1024616666667","6501500","五股區"
"248006","077-UY","2019/10/10 18:59:32","新北市五股區四維路128號","121.467946666667","25.0749933333333","6501500","五股區"
"248008","KED-0815","2019/10/10 18:59:31","新北市五股區中興路一段118巷6弄9號","121.466296666667","25.0746816666667","6501500","五股區"
"248020","KED-0813","2019/10/10 18:59:19","新北市五股區凌雲路三段59-2號","121.425155","25.1250433333333","6501500","五股區"
"248012","247-BX","2019/10/10 18:59:25","新北市五股區中興路四段48巷16號","121.438603333333","25.0834333333333","6501500","五股區"
"248004","677-BX","2019/10/10 18:59:17","新北市五股區六合街27號","121.43094","25.0887816666667","6501500","五股區"
"248002","678-BX","2019/10/10 18:59:29","新北市五股區天乙路1號","121.448595","25.1027833333333","6501500","五股區"
"248010","682-TV","2019/10/10 18:59:24","新北市五股區水碓一路23號","121.430566666667","25.071365","6501500","五股區"
"234023","9380-KE","2019/10/10 18:59:26","新北市永和區竹林路75巷33弄3號","121.52055","25.0142766666667","6500400","永和區"
"234077","969-R7","2019/10/10 18:59:26","新北市永和區得和路104巷4號","121.517973333333","24.999845","6500400","永和區"
"234074","AAC-211","2019/10/10 18:59:28","新北市永和區豫溪街217巷7號","121.525126666667","25.0099016666667","6500400","永和區"
"234067","AAC-212","2019/10/10 18:59:35","新北市永和區自由街49號","121.513915","25.0057333333333","6500400","永和區"
"234003","AAC-295","2019/10/10 18:59:20","新北市永和區和平街38號","121.51296","25.0099033333333","6500400","永和區"
"232011","375-UM","2019/10/10 18:59:34","新北市坪林區水聳淒坑19-1號","121.712555","24.93486","6502000","坪林區"
"244013","KEA-2802","2019/10/10 18:59:22","新北市林口區麗園一街2巷1號","121.375511666667","25.0718233333333","6501700","林口區"
"244023","483-VK","2019/10/10 18:59:14","新北市林口區民權路102號","121.37321","25.082745","6501700","林口區"
"244017","485-VK","2019/10/10 18:59:23","新北市林口區公園路84號","121.36938","25.0702983333333","6501700","林口區"
"244011","701-TV","2019/10/10 18:59:18","新北市林口區中正路343號","121.387988333333","25.0776866666667","6501700","林口區"
"244025","837-TS","2019/10/10 18:59:31","新北市林口區南勢街192巷11號","121.361086666667","25.0751333333333","6501700","林口區"
"243010","297-R6","2019/10/10 18:59:16","新北市泰山區辭修路24號","121.428996666667","25.0581633333333","6501600","泰山區"
"243014","KEA-2801","2019/10/10 18:59:35","新北市泰山區黎明路23-1號","121.42117","25.0615183333333","6501600","泰山區"
"243016","421-VK","2019/10/10 18:59:18","新北市泰山區明志路二段135號","121.42773","25.0507616666667","6501600","泰山區"
"243011","KEA-2216","2019/10/10 18:59:16","新北市泰山區明志路230號","121.427018333333","25.0482066666667","6501600","泰山區"
"243015","680-BX","2019/10/10 18:59:29","新北市泰山區美寧街50號","121.430576666667","25.064405","6501600","泰山區"
"222003","436-BY","2019/10/10 18:59:14","新北市深坑區深南路88巷1號","121.62139","25.0108883333333","6501800","深坑區"
"222002","659-BX","2019/10/10 18:59:22","新北市深坑區文山路一段31巷2號","121.629828333333","25.0034133333333","6501800","深坑區"
"231061","002-UM","2019/10/10 18:59:24","新北市新店區安華路28-1號","121.519643333333","24.9607016666667","6500600","新店區"
"231058","0293-UT","2019/10/10 18:59:33","新北市新店區中興路一段292號","121.545921666667","24.9691433333333","6500600","新店區"
"231044","046-UY","2019/10/10 18:59:27","新北市新店區寶中路72號","121.54788","24.9806216666667","6500600","新店區"
"231060","106-UY","2019/10/10 18:59:27","新北市新店區安華路30巷12-1號","121.518445","24.957985","6500600","新店區"
"231051","107-UY","2019/10/10 18:59:32","新北市新店區百忍街1-1號","121.53502","24.9754883333333","6500600","新店區"
"231049","108-UY","2019/10/10 18:59:30","新北市新店區二十張路142-1號","121.535058333333","24.9788183333333","6500600","新店區"
"231065","110-UY","2019/10/10 18:59:31","新北市新店區安祥路147巷72號","121.47587","24.95584","6500600","新店區"
"231062","256-BX","2019/10/10 18:59:22","新北市新店區安豐路30-1號","121.50096","24.9567766666667","6500600","新店區"
"231054","260-TV","2019/10/10 18:59:28","新北市新店區新店路27-1號","121.539965","24.9527666666667","6500600","新店區"
"231042","268-BY","2019/10/10 18:59:25","新北市新店區中興路一段285-2號","121.545546666667","24.96864","6500600","新店區"
"231064","278-BY","2019/10/10 18:59:30","新北市新店區安康路一段355-3號","121.51984","24.9626216666667","6500600","新店區"
"231050","AAD-862","2019/10/10 18:59:28","新北市新店區新烏路一段9-1號","121.547286666667","24.9513983333333","6500600","新店區"
"231045","355-BY","2019/10/10 18:59:29","新北市新店區安康路一段90號","121.527943333333","24.9619583333333","6500600","新店區"
"231055","4716-K9","2019/10/10 18:59:19","新北市新店區新生街13巷13號","121.539466666667","24.9659316666667","6500600","新店區"
"231056","4715-K9","2019/10/10 18:59:26","新北市新店區民權路107號","121.536643333333","24.98224","6500600","新店區"
"231067","4772-VM","2019/10/10 18:59:22","新北市新店區安康路一段76巷6-1號","121.528388333333","24.9622316666667","6500600","新店區"
"231052","513-UM","2019/10/10 18:59:34","新北市新店區屈尺路2號","121.54927","24.92262","6500600","新店區"
"231041","619-UM","2019/10/10 18:59:24","新北市新店區環河路62號","121.537068333333","24.9626583333333","6500600","新店區"
"231063","641-BX","2019/10/10 18:59:29","新北市新店區安忠路102-1號","121.510281666667","24.9556283333333","6500600","新店區"
"231047","KED-0819","2019/10/10 18:59:30","新北市新店區德正街27巷11號","121.544928333333","24.971575","6500600","新店區"
"231046","719-UM","2019/10/10 18:58:33","新北市新店區直潭八街2號","121.53479","24.9399633333333","6500600","新店區"
"231057","720-UM","2019/10/10 18:59:21","新北市新店區百齡一路12號","121.553086666667","24.9324733333333","6500600","新店區"
"231059","897-TW","2019/10/10 18:59:30","新北市新店區安華路1-1號","121.519233333333","24.9604616666667","6500600","新店區"
"231040","898-TW","2019/10/10 18:59:31","新北市新店區中央路81號","121.532343333333","24.976675","6500600","新店區"
"231043","899-TW","2019/10/10 18:59:15","新北市新店區北新路二段18號","121.54276","24.97131","6500600","新店區"
"231066","AKT-0513","2019/10/10 18:59:32","新北市新店區安豐路30-1號","121.50089","24.9567483333333","6500600","新店區"
"235066","003-UY","2019/10/10 18:59:36","新北市中和區中山路二段131巷5弄28號","121.50356","25.00343","6500300","中和區"
"235063","006-UY","2019/10/10 18:59:36","新北市中和區連城路399號","121.4863","24.99625","6500300","中和區"
"235056","096-UM","2019/10/10 18:59:24","新北市板橋區三民路二段210號","121.478808333333","25.0119433333333","6500300","中和區"
"235039","097-UM","2019/10/10 18:59:27","新北市中和區景平路64巷13弄22號","121.521418333333","24.99156","6500300","中和區"
"235065","098-UM","2019/10/10 18:59:33","新北市中和區福祥路135號","121.498405","25.0075533333333","6500300","中和區"
"235040","150-BY","2019/10/10 18:59:16","新北市中和區宜安路7號","121.513398333333","24.9953983333333","6500300","中和區"
"235058","151-BY","2019/10/10 18:59:16","新北市中和區連城路372-3號","121.481516666667","24.9952066666667","6500300","中和區"
"235055","183-VK","2019/10/10 18:59:15","新北市中和區德光路37號","121.470478333333","25.0042116666667","6500300","中和區"
"235038","185-VK","2019/10/10 18:59:18","新北市中和區立人街24-5號","121.518898333333","24.9941866666667","6500300","中和區"
"235067","255-BX","2019/10/10 18:59:33","新北市中和區新生街166巷17-2號","121.482873333333","25.0001483333333","6500300","中和區"
"235044","293-VK","2019/10/10 18:59:26","新北市中和區中興街161巷7弄2號","121.501125","24.99092","6500300","中和區"
"235072","301-VK","2019/10/10 18:59:22","新北市中和區福美路309號","121.49695","25.0047583333333","6500300","中和區"
"235043","352-BY","2019/10/10 18:59:17","新北市中和區景平路2號","121.524658333333","24.9905716666667","6500300","中和區"
"235042","KEA-2878","2019/10/10 18:59:29","新北市中和區秀朗路三段22巷10號","121.525918333333","24.9962666666667","6500300","中和區"
"235050","4979-A6","2019/10/10 18:59:28","新北市中和區忠孝街58巷16弄2號","121.512075","24.983285","6500300","中和區"
"235069","4980-A6","2019/10/10 18:59:30","新北市中和區圓通路102號","121.499503333333","24.996725","6500300","中和區"
"235070","558-UM","2019/10/10 18:59:30","新北市中和區中和路169號","121.50306","24.9998683333333","6500300","中和區"
"235045","565-BX","2019/10/10 18:59:13","新北市中和區景新街420號","121.51298","24.9889466666667","6500300","中和區"
"235060","KED-0823","2019/10/10 18:59:28","新北市中和區民有街92號","121.476206666667","25.0036383333333","6500300","中和區"
"235054","640-BX","2019/10/10 18:59:28","新北市中和區國光街113號","121.469765","25.00051","6500300","中和區"
"235047","732-UM","2019/10/10 18:59:23","新北市中和區興南路二段74巷3號","121.505408333333","24.985195","6500300","中和區"
"235046","733-UM","2019/10/10 18:59:25","新北市中和區興南路二段23號","121.507836666667","24.9858883333333","6500300","中和區"
"235057","801-TS","2019/10/10 18:59:24","新北市中和區民利街78號","121.478186666667","24.9982283333333","6500300","中和區"
"235041","802-TS","2019/10/10 18:59:31","新北市中和區景安路58號","121.506746666667","24.99778","6500300","中和區"
"235052","805-TS","2019/10/10 18:59:32","新北市中和區興南路二段110號","121.504565","24.9840966666667","6500300","中和區"
"235048","896-TW","2019/10/10 18:59:30","新北市中和區華新街143巷71弄13號","121.508348333333","24.9788283333333","6500300","中和區"
"235053","900-TW","2019/10/10 18:59:23","新北市板橋區五權街1-8號","121.463785","24.9950583333333","6500300","中和區"
"235064","911-UM","2019/10/10 18:59:27","新北市中和區泰和街8號","121.499696666667","25.00132","6500300","中和區"
"235051","157-BY","2019/10/10 18:59:25","新北市中和區忠孝街31巷33弄2號","121.509696666667","24.984645","6500300","中和區"
"235037","AAC-213","2019/10/10 18:59:18","新北市中和區秀朗路三段58-3號","121.525763333333","24.995095","6500300","中和區"
"235059","AAC-215","2019/10/10 18:59:22","新北市中和區圓通路369巷33弄7號","121.491216666667","24.9879883333333","6500300","中和區"
"220065","072-UY","2019/10/10 18:59:29","新北市板橋區民族路287巷3號","121.471111666667","25.0070966666667","6500100","板橋區"
"220086","073-UY","2019/10/10 18:59:18","新北市板橋區中正路101號","121.456306666667","25.0147916666667","6500100","板橋區"
"220106","075-UY","2019/10/10 18:59:22","新北市板橋區文化路二段317號","121.472165","25.02993","6500100","板橋區"
"220069","AAD-861","2019/10/10 18:59:21","新北市板橋區華興街1號","121.459438333333","25.0046133333333","6500100","板橋區"
"247022","007-UY","2019/10/10 18:39:53","新北市五股區中興路三段163號","121.44922","25.0808633333333","6501400","蘆洲區"
"226004","312-R5","2019/10/10 18:59:23","新北市平溪區靜安路二段440號","121.739978333333","25.024865","6502400","平溪區"
"235049","251-BX","2019/10/10 18:59:33","新北市中和區景安路100號","121.505528333333","24.995535","6500300","中和區"
"228003","097-TW","2019/10/10 18:59:32","新北市貢寮區和美里龍洞街56-2號","121.912151666667","25.1138966666667","6502600","貢寮區"
"228001","212-TW","2019/10/10 18:59:25","新北市貢寮區仁理村仁義街10號","121.923891666667","25.0520466666667","6502600","貢寮區"
"228002","663-BX","2019/10/10 18:59:22","新北市貢寮區福隆里東興街106巷23弄5號","121.94641","25.0182516666667","6502600","貢寮區"
"224006","676-BX","2019/10/10 18:59:21","新北市瑞芳區中正路49號","121.806843333333","25.1071366666667","6501200","瑞芳區"
"224007","285-BY","2019/10/10 18:59:22","新北市瑞芳區中央路48巷166號","121.759135","25.1033283333333","6501200","瑞芳區"
"224009","275-VK","2019/10/10 18:59:30","新北市瑞芳區金光路316巷13號","121.850621666667","25.1080316666667","6501200","瑞芳區"
"224008","273-VK","2019/10/10 18:59:27","新北市瑞芳區逢甲路343-15號","121.798995","25.112415","6501200","瑞芳區"
"224005","271-BY","2019/10/10 18:59:18","新北市瑞芳區瑞濱路1-4號","121.827656666667","25.1216","6501200","瑞芳區"
"227002","642-TC","2019/10/10 18:59:16","新北市雙溪區平林里外平林10-4號","121.859145","25.038045","6502500","雙溪區"
"227001","400-TW","2019/10/10 18:59:30","新北市雙溪區牡丹里中正路61巷16號","121.866076666667","25.0425183333333","6502500","雙溪區"
"253005","032-BX","2019/10/10 18:59:28","新北市石門區中央路37-5號","121.568901666667","25.29602","6502200","石門區"
"253006","295-VK","2019/10/10 18:59:20","新北市石門區下員坑28-6號","121.51579","25.28318","6502200","石門區"
"222001","KEA-2212","2019/10/10 18:59:27","新北市深坑區北深路一段300號","121.625101666667","25.0066783333333","6501800","深坑區"
"208002","KEA-2872","2019/10/10 18:59:27","新北市金山區仁愛路69號","121.634811666667","25.221015","6502700","金山區"
"208003","665-BX","2019/10/10 18:59:21","新北市金山區中正路26號","121.635846666667","25.22225","6502700","金山區"
"251015","KEA-2871","2019/10/10 18:59:19","新北市淡水區糞箕湖60號","121.485191666667","25.1723033333333","6501000","淡水區"
"251016","179-VK","2019/10/10 18:59:33","新北市淡水區淡金路三段325號","121.448958333333","25.206075","6501000","淡水區"
"251013","182-VK","2019/10/10 18:59:28","新北市淡水區頂田寮路1111號","121.490715","25.2133216666667","6501000","淡水區"
"251010","413-VK","2019/10/10 18:59:26","新北市淡水區淡海路69巷26號","121.422073333333","25.181025","6501000","淡水區"
"251007","442-VK","2019/10/10 18:59:32","新北市淡水區民生路113巷1弄33號","121.463261666667","25.1386416666667","6501000","淡水區"
"251012","443-VK","2019/10/10 18:59:27","新北市淡水區新興街83號","121.441576666667","25.180085","6501000","淡水區"
"251001","559-UM","2019/10/10 18:59:27","新北市淡水區自強路58號","121.463155","25.1274616666667","6501000","淡水區"
"251009","575-R6","2019/10/10 18:59:21","新北市淡水區中山路155號","121.440345","25.172755","6501000","淡水區"
"251014","577-R6","2019/10/10 18:59:29","新北市淡水區小中寮22號","121.48919","25.22954","6501000","淡水區"
"251011","650-BX","2019/10/10 18:59:22","新北市淡水區鄧公路30巷2弄42號","121.454665","25.1690266666667","6501000","淡水區"
"251002","672-BX","2019/10/10 18:59:27","新北市淡水區學府路47號","121.447945","25.1692883333333","6501000","淡水區"
"251003","673-BX","2019/10/10 18:59:35","新北市淡水區中山北路一段149巷29號","121.443048333333","25.1778833333333","6501000","淡水區"
"207003","681-TV","2019/10/10 18:59:16","新北市萬里區野柳里港東路162號","121.690261666667","25.20433","6502800","萬里區"
"207004","291-VK","2019/10/10 18:59:23","新北市萬里區萬里里獅頭路23號","121.693156666667","25.178325","6502800","萬里區"
"252002","178-VK","2019/10/10 18:59:18","新北市三芝區中正路一段48號","121.50348","25.2581516666667","6502100","三芝區"
"252003","249-BX","2019/10/10 18:59:24","新北市三芝區後厝里北勢子42-11號","121.471598333333","25.2520683333333","6502100","三芝區"
"208001","170-UY","2019/10/10 18:59:27","新北市金山區中山路16號","121.641773333333","25.2181766666667","6502700","金山區"
"237004","KEA-2597","2019/10/10 18:59:21","新北市三峽區有木183-2號","121.444801666667","24.8352033333333","6500900","三峽區"
"237007","153-BY","2019/10/10 18:59:17","新北市三峽區中正路二段291號","121.365953333333","24.9109833333333","6500900","三峽區"
"237012","275-BY","2019/10/10 18:59:20","新北市三峽區三樹路222巷60號","121.382368333333","24.9423233333333","6500900","三峽區"
"237008","302-VK","2019/10/10 18:59:20","新北市三峽區中正路一段209號","121.372215","24.92744","6500900","三峽區"
"237014","433-BY","2019/10/10 18:59:15","新北市三峽區隆恩街158巷68號","121.364813333333","24.9446733333333","6500900","三峽區"
"237013","280-TH","2019/10/10 18:59:36","新北市三峽區光明路69巷25號","121.376598333333","24.9291983333333","6500900","三峽區"
"237006","5529-G3","2019/10/10 18:59:27","新北市三峽區溪東路233巷1-1號","121.406815","24.9332233333333","6500900","三峽區"
"237011","KEA-2596","2019/10/10 18:59:28","新北市三峽區介壽路三段198號","121.403095","24.94439","6500900","三峽區"
"237015","649-BX","2019/10/10 18:59:21","新北市三峽區建安77-1號","121.451028333333","24.9239083333333","6500900","三峽區"
"237010","706-TV","2019/10/10 18:59:30","新北市三峽區復興路449號","121.362606666667","24.938495","6500900","三峽區"
"237014","760-BX","2019/10/10 18:59:19","新北市三峽區中山路13巷9號","121.369116666667","24.9339583333333","6500900","三峽區"
"237005","AKY-6261","2019/10/10 18:59:24","新北市三峽區大智路2號","121.360538333333","24.93721","6500900","三峽區"
"236042","KED-0685","2019/10/10 18:59:30","新北市土城區學府路一段229巷2號","121.45137","24.9839283333333","6501300","土城區"
"236078","166-UM","2019/10/10 18:59:32","新北市土城區中央路四段121號","121.416448333333","24.9574566666667","6501300","土城區"
"236030","253-BX","2019/10/10 18:59:23","新北市土城區慶利街5號","121.439696666667","24.973595","6501300","土城區"
"236026","269-VK","2019/10/10 18:59:28","新北市土城區光明街12號","121.442058333333","24.9743066666667","6501300","土城區"
"236014","270-VK","2019/10/10 18:59:26","新北市土城區永豐路29巷7號","121.463281666667","24.9884116666667","6501300","土城區"
"236038","271-VK","2019/10/10 18:59:36","新北市土城區仁愛路38號","121.4616","24.979405","6501300","土城區"
"236070","KEA-2877","2019/10/10 18:59:27","新北市土城區裕民路280號","121.455388333333","24.982055","6501300","土城區"
"252001","KED-0821","2019/10/10 18:59:19","新北市三芝區中興街二段260號","121.501781666667","25.253045","6502100","三芝區"
"236021","401-BY","2019/10/10 18:59:27","新北市土城區延吉街168巷2弄2號","121.468296666667","24.9856216666667","6501300","土城區"
"236063","752-BX","2019/10/10 18:59:11","新北市土城區延和路108巷9號","121.467403333333","24.98931","6501300","土城區"
"236059","912-UM","2019/10/10 18:59:21","新北市土城區明德路一段385-1號","121.452878333333","24.9802566666667","6501300","土城區"
"236049","913-UM","2019/10/10 18:59:22","新北市土城區青雲路322巷2弄4號","121.458051666667","24.97734","6501300","土城區"
"236055","AAC-216","2019/10/10 18:59:34","新北市土城區學成路90號","121.450571666667","24.9887916666667","6501300","土城區"
"238023","601-UM","2019/10/10 18:59:35","新北市樹林區大慶街138號","121.396421666667","25.013525","6500700","樹林區"
"238019","571-TV","2019/10/10 18:59:21","新北市樹林區東榮街169號","121.414001666667","24.981355","6500700","樹林區"
"238022","KEA-2213","2019/10/10 18:59:35","新北市樹林區東興街43號","121.410618333333","24.9776583333333","6500700","樹林區"
"238021","KEA-2539","2019/10/10 18:59:16","新北市樹林區柑園街二段300號","121.373645","24.9518533333333","6500700","樹林區"
"238017","283-BY","2019/10/10 18:59:26","新北市樹林區八德街820號","121.394635","24.9687533333333","6500700","樹林區"
"238014","282-BY","2019/10/10 18:59:36","新北市樹林區千歲街61巷10號","121.426028333333","24.998295","6500700","樹林區"
"238020","268-VK","2019/10/10 18:59:18","新北市樹林區俊英街282號","121.423725","25.0133383333333","6500700","樹林區"
"238026","172-UY","2019/10/10 18:59:23","新北市樹林區中和街11號","121.392031666667","24.9729316666667","6500700","樹林區"
"238016","169-UY","2019/10/10 18:59:31","新北市樹林區文化街27號","121.419216666667","24.9877366666667","6500700","樹林區"
"239007","AAC-297","2019/10/10 18:59:26","新北市鶯歌區中正一路建德巷6號","121.364583333333","24.9569116666667","6500800","鶯歌區"
"239008","527-UM","2019/10/10 18:59:17","新北市鶯歌區晨曦街39巷1號","121.338135","24.97723","6500800","鶯歌區"
"239005","526-UM","2019/10/10 18:59:24","新北市鶯歌區鳳吉一街38號","121.32603","24.9737333333333","6500800","鶯歌區"
"239001","417-VK","2019/10/10 18:59:23","新北市鶯歌區國中街171-7號","121.337598333333","24.9386666666667","6500800","鶯歌區"
"239003","360-BY","2019/10/10 18:59:25","新北市鶯歌區永和街69號","121.333016666667","24.9678466666667","6500800","鶯歌區"
"239002","359-BY","2019/10/10 18:59:33","新北市鶯歌區中山路311號","121.344356666667","24.95688","6500800","鶯歌區"
"239004","193-VK","2019/10/10 18:59:27","新北市鶯歌區中正三路156巷31號","121.333403333333","24.9396333333333","6500800","鶯歌區"
"221008","489-VK","2019/10/10 18:59:18","新北市汐止區康寧街582號","121.635015","25.06988","6501100","汐止區"
"221036","130-UY","2019/10/10 18:59:32","新北市汐止區水碓街38號","121.66508","25.0686483333333","6501100","汐止區"
"221015","131-UY","2019/10/10 18:59:20","新北市汐止區鄉長路二段8號","121.668783333333","25.080755","6501100","汐止區"
"244019","KED-0667","2019/10/10 18:59:31","新北市林口區四維路116號","121.377535","25.0780816666667","6501700","林口區"
"221032","280-BY","2019/10/10 18:59:18","新北市汐止區橫科路407巷81弄5號","121.628605","25.04813","6501100","汐止區"
"221029","298-VK","2019/10/10 18:59:23","新北市汐止區樟樹一路228號","121.642201666667","25.0666416666667","6501100","汐止區"
"221031","353-TW","2019/10/10 18:59:29","新北市汐止區福德一路300巷15號","121.630831666667","25.063925","6501100","汐止區"
"221035","622-UM","2019/10/10 18:59:28","新北市汐止區大同路二段298號","121.655276666667","25.06654","6501100","汐止區"
"221002","707-TV","2019/10/10 18:59:20","新北市汐止區大同路一段2號","121.62106","25.0550866666667","6501100","汐止區"
"220079","145-BY","2019/10/10 18:59:26","新北市板橋區中正路183巷26號","121.45546","25.0163316666667","6500100","板橋區"
"220080","200-UY","2019/10/10 18:59:27","新北市板橋區大觀路二段108號","121.444166666667","24.99937","6500100","板橋區"
"220082","610-BX","2019/10/10 18:59:30","新北市板橋區滿平街73號","121.427746666667","24.98906","6500100","板橋區"
"224002","257-TC","2019/10/10 18:59:31","新北市瑞芳區靜安路四段26號","121.798883333333","25.0894733333333","6501200","瑞芳區"
"220056","276-BY","2019/10/10 18:59:26","新北市板橋區信義路146號","121.45886","24.9920166666667","6500100","板橋區"
"220072","277-BY","2019/10/10 18:59:29","新北市板橋區金門街365號","121.428515","24.9846983333333","6500100","板橋區"
"220101","280-UM","2019/10/10 18:59:29","新北市板橋區莊敬路220巷60號","121.471516666667","25.02083","6500100","板橋區"
"220071","283-VK","2019/10/10 18:59:22","新北市板橋區重慶路247-1號","121.463761666667","25.0006066666667","6500100","板橋區"
"220094","285-UM","2019/10/10 18:59:33","新北市板橋區光武街157號","121.4654","25.0296733333333","6500100","板橋區"
"220083","286-VK","2019/10/10 18:59:18","新北市板橋區大觀路一段38巷156弄59號","121.442798333333","25.0068333333333","6500100","板橋區"
"220081","287-VK","2019/10/10 18:59:25","新北市板橋區光華街19巷8號","121.453673333333","25.012105","6500100","板橋區"
"220090","288-VK","2019/10/10 18:59:32","新北市板橋區裕民街21號","121.462201666667","25.0289866666667","6500100","板橋區"
"220061","293-UM","2019/10/10 18:59:24","新北市板橋區懷仁街77巷12號","121.477736666667","25.018705","6500100","板橋區"
"220062","295-UM","2019/10/10 18:59:20","新北市板橋區三民路二段正隆巷4號","121.478551666667","25.0125233333333","6500100","板橋區"
"220084","296-UM","2019/10/10 18:59:18","新北市板橋區龍興街22號","121.44297","25.0001383333333","6500100","板橋區"
"220053","299-UM","2019/10/10 18:59:32","新北市板橋區太和街5巷6號","121.473471666667","25.02008","6500100","板橋區"
"220075","303-R5","2019/10/10 18:59:31","新北市板橋區後菜園街30號","121.456796666667","25.010085","6500100","板橋區"
"220092","307-R5","2019/10/10 18:59:29","新北市板橋區文化路二段225巷60弄60號","121.469085","25.0298033333333","6500100","板橋區"
"220098","317-R6","2019/10/10 18:59:21","新北市板橋區民生路二段226巷46號","121.471726666667","25.0223733333333","6500100","板橋區"
"220089","487-VK","2019/10/10 18:59:34","新北市板橋區文化路二段145號","121.470168333333","25.0269583333333","6500100","板橋區"
"220088","491-VK","2019/10/10 18:59:32","新北市板橋區文化路二段182巷7弄9號","121.472228333333","25.027385","6500100","板橋區"
"220035","560-BX","2019/10/10 18:59:32","新北市板橋區中正路246號","121.455543333333","25.01918","6500100","板橋區"
"220103","561-BX","2019/10/10 18:59:29","新北市板橋區介壽街44-1號","121.468688333333","25.01975","6500100","板橋區"
"220063","609-BX","2019/10/10 18:59:20","新北市板橋區三民路二段79號","121.479331666667","25.016785","6500100","板橋區"
"220091","637-BX","2019/10/10 18:59:28","新北市板橋區大同街26巷3號","121.47808","25.0271616666667","6500100","板橋區"
"220057","686-BX","2019/10/10 18:59:14","新北市板橋區國慶路211號","121.463488333333","24.997185","6500100","板橋區"
"220077","687-BX","2019/10/10 18:59:17","新北市板橋區龍興街71巷1號","121.443751666667","25.00176","6500100","板橋區"
"220093","689-BX","2019/10/10 18:59:18","新北市板橋區民生路三段261號","121.464313333333","25.0295033333333","6500100","板橋區"
"220054","741-BX","2019/10/10 18:59:20","新北市板橋區成都街97號","121.463235","25.0053883333333","6500100","板橋區"
"220102","KEA-2699","2019/10/10 18:59:19","新北市板橋區萬板路710號","121.481818333333","25.02743","6500100","板橋區"
"220055","827-TW","2019/10/10 18:59:33","新北市板橋區中山路一段140號","121.4635","25.01098","6500100","板橋區"
"220068","830-TW","2019/10/10 18:59:28","新北市板橋區三民路一段31巷42號","121.481131666667","25.0229666666667","6500100","板橋區"
"220067","831-TW","2019/10/10 18:59:16","新北市板橋區三民路二段186巷2弄12號","121.478158333333","25.015445","6500100","板橋區"
"220074","895-R6","2019/10/10 18:59:21","新北市板橋區府中路120號","121.455363333333","25.0095333333333","6500100","板橋區"
"220073","985-R7","2019/10/10 18:59:25","新北市板橋區中正路163-1號","121.456616666667","25.01612","6500100","板橋區"
"220097","AAC-210","2019/10/10 18:59:29","新北市板橋區幸福路60巷81號","121.459716666667","25.0218166666667","6500100","板橋區"
"220064","AAC-253","2019/10/10 18:59:15","新北市板橋區板新路1號","121.475608333333","25.0124616666667","6500100","板橋區"
"235068","KEA-2873","2019/10/10 18:59:22","新北市中和區圓通路162巷2弄1號","121.497128333333","24.9953633333333","6500300","中和區"
"235061","KEA-2875","2019/10/10 18:59:24","新北市中和區民有街73號","121.476503333333","25.003135","6500300","中和區"
