"lineid","car","time","location","longitude","latitude","cityid","cityname"
"234046","148-BY","2019/10/10 19:19:34","新北市永和區永元路6號","121.521935","25.0000366666667","6500400","永和區"
"234081","298-R6","2019/10/10 19:19:26","新北市永和區福和路7巷7號","121.525328333333","25.007855","6500400","永和區"
"234038","336-UY","2019/10/10 19:19:30","新北市永和區民樂街70號","121.527323333333","24.9984566666667","6500400","永和區"
"234064","337-UY","2019/10/10 19:19:30","新北市永和區永元路17巷6弄2號","121.521375","25.00068","6500400","永和區"
"234086","338-UY","2019/10/10 19:19:31","新北市永和區永亨路4號","121.519386666667","25.0051616666667","6500400","永和區"
"234070","552-UM","2019/10/10 19:19:33","新北市永和區豫溪街84號","121.517953333333","25.0099583333333","6500400","永和區"
"234017","745-BX","2019/10/10 19:19:33","新北市永和區文化路144巷19弄12號","121.512351666667","25.01671","6500400","永和區"
"234030","746-BX","2019/10/10 19:19:29","新北市永和區四維街78號","121.52348","24.99834","6500400","永和區"
"234054","KEA-2590","2019/10/10 19:19:28","新北市永和區中興街18號","121.51597","25.011805","6500400","永和區"
"234007","KED-0605","2019/10/10 19:19:26","新北市永和區中山路一段151號","121.50998","25.0094733333333","6500400","永和區"
"234013","KEA-2591","2019/10/10 19:19:28","新北市永和區信義路69號","121.51276","25.01276","6500400","永和區"
"234061","AAD-866","2019/10/10 19:19:35","新北市永和區秀朗路一段114號","121.51696","25.0036716666667","6500400","永和區"
"234042","862-TW","2019/10/10 19:19:32","新北市永和區保平路151巷2弄7-1號","121.509711666667","25.0053366666667","6500400","永和區"
"234050","863-TW","2019/10/10 19:19:26","新北市永和區仁愛路104巷4號","121.512138333333","25.0134116666667","6500400","永和區"
"234026","9371-KE","2019/10/10 19:19:33","新北市永和區安樂路144巷31號","121.515228333333","24.9997033333333","6500400","永和區"
"234011","9373-KE","2019/10/10 19:19:24","新北市永和區保福路二段23巷19號","121.51017","25.0111783333333","6500400","永和區"
"249001","173-UM","2019/10/10 19:19:28","新北市八里區中華路二段145號","121.408948333333","25.15253","6502300","八里區"
"249003","593-UM","2019/10/10 19:19:20","新北市八里區中山路二段462號","121.399023333333","25.14726","6502300","八里區"
"248014","025-BX","2019/10/10 19:19:17","新北市五股區民義路一段185-19號","121.431281666667","25.08746","6501500","五股區"
"248020","KED-0813","2019/10/10 19:19:19","新北市五股區凌雲路三段59-2號","121.425118333333","25.12504","6501500","五股區"
"248012","247-BX","2019/10/10 19:19:25","新北市五股區中興路四段48巷16號","121.438596666667","25.08345","6501500","五股區"
"248004","677-BX","2019/10/10 19:19:17","新北市五股區五福路74號","121.432943333333","25.0901366666667","6501500","五股區"
"248002","678-BX","2019/10/10 19:19:16","新北市五股區凌雲路一段158巷6號","121.447781666667","25.102955","6501500","五股區"
"248010","682-TV","2019/10/10 19:19:24","新北市五股區水碓一路23號","121.43058","25.071335","6501500","五股區"
"234023","9380-KE","2019/10/10 19:19:26","新北市永和區竹林路109巷7號","121.520266666667","25.0119583333333","6500400","永和區"
"234077","969-R7","2019/10/10 19:19:32","新北市永和區民治街72巷4號","121.517978333333","24.9983516666667","6500400","永和區"
"234074","AAC-211","2019/10/10 19:19:28","新北市永和區竹林路85號","121.519618333333","25.0123","6500400","永和區"
"234067","AAC-212","2019/10/10 19:19:18","新北市永和區保平路44號","121.511368333333","25.00712","6500400","永和區"
"234003","AAC-295","2019/10/10 19:19:20","新北市永和區中山路一段101號","121.511231666667","25.0103366666667","6500400","永和區"
"244023","483-VK","2019/10/10 19:19:34","新北市林口區民族路262號","121.37002","25.077955","6501700","林口區"
"244025","837-TS","2019/10/10 19:19:31","新北市林口區文化北路一段542巷55弄31號","121.369958333333","25.0793266666667","6501700","林口區"
"243012","AAD-798","2019/10/10 19:19:17","新北市泰山區同義街15號","121.431466666667","25.056725","6501600","泰山區"
"243010","297-R6","2019/10/10 19:19:25","新北市泰山區明志路一段492巷7號","121.429923333333","25.0548","6501600","泰山區"
"243014","KEA-2801","2019/10/10 19:19:15","新北市泰山區泰林路二段124號","121.434536666667","25.05947","6501600","泰山區"
"243016","421-VK","2019/10/10 19:19:18","新北市泰山區工專路55號","121.422706666667","25.0402516666667","6501600","泰山區"
"243009","KEA-2215","2019/10/10 19:19:20","新北市泰山區明志路一段68號","121.43351","25.0646483333333","6501600","泰山區"
"243011","KEA-2216","2019/10/10 19:19:16","新北市泰山區中央路11巷16號","121.426713333333","25.04255","6501600","泰山區"
"243013","646-TV","2019/10/10 19:19:25","新北市泰山區明志路三段165號","121.424783333333","25.03945","6501600","泰山區"
"243015","680-BX","2019/10/10 19:19:29","新北市泰山區公園路42號","121.42885","25.0544133333333","6501600","泰山區"
"222003","436-BY","2019/10/10 19:19:34","新北市深坑區深南路204號","121.626681666667","25.016005","6501800","深坑區"
"222002","659-BX","2019/10/10 19:19:22","新北市深坑區北深路一段177號","121.63253","25.0108833333333","6501800","深坑區"
"231061","002-UM","2019/10/10 19:19:25","新北市新店區安康路一段46巷4號","121.53066","24.9610583333333","6500600","新店區"
"231058","0293-UT","2019/10/10 19:19:33","新北市新店區光明街286巷2號","121.540606666667","24.963905","6500600","新店區"
"231044","046-UY","2019/10/10 19:19:27","新北市新店區中興路三段309-1號","121.541973333333","24.9859033333333","6500600","新店區"
"231060","106-UY","2019/10/10 19:19:27","新北市新店區安康路二段125號","121.512498333333","24.9612683333333","6500600","新店區"
"231051","107-UY","2019/10/10 19:19:32","新北市新店區百忍街90號","121.532698333333","24.97716","6500600","新店區"
"231049","108-UY","2019/10/10 19:19:30","新北市新店區明德路64號","121.54157","24.9794666666667","6500600","新店區"
"231065","110-UY","2019/10/10 19:19:32","新北市新店區安祥路109巷8號","121.475546666667","24.9587816666667","6500600","新店區"
"231062","256-BX","2019/10/10 19:19:22","新北市新店區莒光路38巷4號","121.523048333333","24.9589616666667","6500600","新店區"
"231054","260-TV","2019/10/10 19:19:26","新北市新店區國校路6號","121.537933333333","24.9562766666667","6500600","新店區"
"231042","268-BY","2019/10/10 19:19:25","新北市新店區北宜路一段3號","121.538503333333","24.9584366666667","6500600","新店區"
"231064","278-BY","2019/10/10 19:19:30","新北市新店區安忠路57巷5-6號","121.513195","24.958775","6500600","新店區"
"231050","AAD-862","2019/10/10 19:19:28","新北市新店區竹林路25巷10號","121.552255","24.95136","6500600","新店區"
"231045","355-BY","2019/10/10 19:19:29","新北市新店區北宜路一段260號","121.545668333333","24.95276","6500600","新店區"
"231056","4715-K9","2019/10/10 19:19:26","新北市新店區薏仁坑路5號","121.499041666667","24.9590133333333","6500600","新店區"
"231067","4772-VM","2019/10/10 19:19:22","新北市新店區安康路一段302號","121.518445","24.9640433333333","6500600","新店區"
"231052","513-UM","2019/10/10 19:19:14","新北市新店區自強路236號","121.54715","24.91867","6500600","新店區"
"231041","619-UM","2019/10/10 19:19:23","新北市新店區溪園路247號","121.525213333333","24.98316","6500600","新店區"
"231063","641-BX","2019/10/10 19:19:29","新北市新店區達觀路14巷1-3號","121.504093333333","24.9424516666667","6500600","新店區"
"231047","KED-0819","2019/10/10 19:19:30","新北市新店區德正街27巷30號","121.54551","24.9711666666667","6500600","新店區"
"231046","719-UM","2019/10/10 19:19:33","新北市新店區華城路12-1號","121.529081666667","24.9578783333333","6500600","新店區"
"231057","720-UM","2019/10/10 19:19:21","新北市新店區百齡一路12號","121.552991666667","24.9325166666667","6500600","新店區"
"231059","897-TW","2019/10/10 19:19:35","新北市新店區安和路二段155號","121.518961666667","24.974295","6500600","新店區"
"231040","898-TW","2019/10/10 19:19:31","新北市新店區三民路111號","121.535083333333","24.972135","6500600","新店區"
"231043","899-TW","2019/10/10 19:19:15","新北市新店區北新路二段184號","121.542931666667","24.9762933333333","6500600","新店區"
"231066","AKT-0513","2019/10/10 19:19:18","新北市新店區安祥路35-2號","121.490758333333","24.9567016666667","6500600","新店區"
"241031","061-VK","2019/10/10 19:19:21","新北市三重區重新路四段242號","121.48572","25.0538316666667","6500200","三重區"
"241017","063-VK","2019/10/10 19:19:28","新北市三重區大同北路213號","121.491868333333","25.065675","6500200","三重區"
"241007","066-VK","2019/10/10 19:19:35","新北市三重區慈愛街64號","121.487135","25.079465","6500200","三重區"
"241006","262-UM","2019/10/10 19:19:14","新北市三重區車路頭街153號","121.483713333333","25.07701","6500200","三重區"
"241009","267-UM","2019/10/10 19:19:27","新北市三重區溪尾街230巷65號","121.486243333333","25.081195","6500200","三重區"
"241032","269-UM","2019/10/10 19:19:16","新北市三重區新生街93-1號","121.483801666667","25.0594033333333","6500200","三重區"
"241035","KEA-2210","2019/10/10 19:19:34","新北市三重區信義西街138號","121.495536666667","25.06428","6500200","三重區"
"241020","478-VK","2019/10/10 19:19:27","新北市三重區大智街167號","121.4898","25.072465","6500200","三重區"
"241023","545-UM","2019/10/10 19:19:28","新北市三重區三民街138號","121.482776666667","25.0651316666667","6500200","三重區"
"241022","KED-0820","2019/10/10 19:19:24","新北市三重區重陽路二段50號","121.487215","25.063365","6500200","三重區"
"241026","887-TS","2019/10/10 19:19:31","新北市三重區光興街61號","121.498723333333","25.0603733333333","6500200","三重區"
"241029","942-UM","2019/10/10 19:19:22","新北市三重區集美街263號","121.492456666667","25.055745","6500200","三重區"
"235066","003-UY","2019/10/10 19:19:17","新北市中和區中和路163號","121.502886666667","24.9998933333333","6500300","中和區"
"235063","006-UY","2019/10/10 19:19:16","新北市中和區連城路231號","121.494036666667","24.9972566666667","6500300","中和區"
"235056","096-UM","2019/10/10 19:19:24","新北市中和區民富街4號","121.476981666667","25.0059466666667","6500300","中和區"
"235039","097-UM","2019/10/10 19:19:27","新北市中和區秀峰街119巷6弄1號","121.519593333333","24.9900133333333","6500300","中和區"
"235065","098-UM","2019/10/10 19:19:15","新北市中和區中山路二段64巷14弄1號","121.503366666667","25.0056083333333","6500300","中和區"
"235040","150-BY","2019/10/10 19:19:16","新北市中和區保健路50巷9號","121.510196666667","24.9965383333333","6500300","中和區"
"235058","151-BY","2019/10/10 19:19:32","新北市中和區連城路318號","121.483435","24.9960816666667","6500300","中和區"
"235055","183-VK","2019/10/10 19:19:15","新北市中和區莒光路120巷13弄1號","121.471601666667","25.0015833333333","6500300","中和區"
"235038","185-VK","2019/10/10 19:19:18","新北市中和區大仁街108號","121.520603333333","24.992805","6500300","中和區"
"235067","255-BX","2019/10/10 19:19:31","新北市中和區中正路731號","121.484903333333","24.9991133333333","6500300","中和區"
"235044","293-VK","2019/10/10 19:19:26","新北市中和區復興路308號","121.501195","24.9903116666667","6500300","中和區"
"235072","301-VK","2019/10/10 19:19:22","新北市中和區連城路265巷6弄2號","121.491451666667","24.9959466666667","6500300","中和區"
"235043","352-BY","2019/10/10 19:19:17","新北市中和區南山路189號","121.502815","24.994885","6500300","中和區"
"235042","KEA-2878","2019/10/10 19:19:29","新北市中和區安樂路217巷35弄10號","121.513965","24.9977383333333","6500300","中和區"
"235050","4979-A6","2019/10/10 19:19:28","新北市中和區景安路208巷17號","121.503135","24.9914466666667","6500300","中和區"
"235069","4980-A6","2019/10/10 19:19:30","新北市中和區福美路300-1號","121.497183333333","25.0048916666667","6500300","中和區"
"235070","558-UM","2019/10/10 19:19:30","新北市中和區中和路115號","121.501526666667","25.00025","6500300","中和區"
"235045","565-BX","2019/10/10 19:19:33","新北市中和區景新街383巷68號","121.514733333333","24.99029","6500300","中和區"
"235060","KED-0823","2019/10/10 19:19:19","新北市中和區員山路314巷7弄6號","121.482153333333","25.0031433333333","6500300","中和區"
"235054","640-BX","2019/10/10 19:19:28","新北市中和區國光街87號","121.470501666667","25.00014","6500300","中和區"
"235047","732-UM","2019/10/10 19:19:23","新北市中和區景平路239巷73號","121.508128333333","24.9920916666667","6500300","中和區"
"235046","733-UM","2019/10/10 19:19:25","新北市中和區忠孝街2巷9弄10號","121.510568333333","24.9822916666667","6500300","中和區"
"235071","783-BX","2019/10/10 19:19:31","新北市中和區中正路637巷52弄1號","121.485441666667","24.9938116666667","6500300","中和區"
"235057","801-TS","2019/10/10 19:19:24","新北市中和區員山路388號","121.48056","25.0043683333333","6500300","中和區"
"235041","802-TS","2019/10/10 19:19:30","新北市中和區中和路320號","121.509721666667","25.0006616666667","6500300","中和區"
"235052","805-TS","2019/10/10 19:19:32","新北市中和區華新街143巷19號","121.506626666667","24.9809583333333","6500300","中和區"
"235048","896-TW","2019/10/10 19:19:29","新北市中和區景新街451號","121.513198333333","24.9884616666667","6500300","中和區"
"235053","900-TW","2019/10/10 19:19:23","新北市中和區華順街60號","121.46535","24.998395","6500300","中和區"
"235064","911-UM","2019/10/10 19:19:24","新北市中和區南山路127巷8弄1號","121.502893333333","24.997265","6500300","中和區"
"235051","157-BY","2019/10/10 19:19:27","新北市中和區景平路221巷28號","121.509441666667","24.9921233333333","6500300","中和區"
"235037","AAC-213","2019/10/10 19:19:18","新北市中和區秀朗路三段10巷12弄2號","121.525553333333","24.9965616666667","6500300","中和區"
"235059","AAC-215","2019/10/10 19:19:22","新北市中和區圓通路252巷5弄38號","121.492128333333","24.9915183333333","6500300","中和區"
"220065","072-UY","2019/10/10 19:19:29","新北市板橋區國泰街78號","121.467335","25.0066666666667","6500100","板橋區"
"220086","073-UY","2019/10/10 19:19:18","新北市板橋區國光路173巷3弄1號","121.460443333333","25.0187766666667","6500100","板橋區"
"220106","075-UY","2019/10/10 19:19:22","新北市板橋區文化路二段417巷40號","121.473775","25.033775","6500100","板橋區"
"220069","AAD-861","2019/10/10 19:19:21","新北市板橋區稚暉街46巷1號","121.456328333333","25.0043266666667","6500100","板橋區"
"226004","312-R5","2019/10/10 19:19:20","新北市平溪區十分里十分街96-1號","121.776805","25.04251","6502400","平溪區"
"235049","251-BX","2019/10/10 19:19:28","新北市中和區景新街253號","121.508593333333","24.99421","6500300","中和區"
"228003","097-TW","2019/10/10 19:19:32","新北市貢寮區和美里和美街19-2號","121.912851666667","25.08257","6502600","貢寮區"
"228001","212-TW","2019/10/10 19:19:25","新北市貢寮區真理里新港街10號","121.925456666667","25.0543316666667","6502600","貢寮區"
"228002","663-BX","2019/10/10 19:19:22","新北市貢寮區雙玉里田寮洋街21號","121.927191666667","25.0239416666667","6502600","貢寮區"
"224010","AGQ-8101","2019/10/10 19:19:32","新北市瑞芳區基山街7號","121.845231666667","25.1096516666667","6501200","瑞芳區"
"224009","275-VK","2019/10/10 19:19:30","新北市瑞芳區金光路288號","121.851895","25.1066916666667","6501200","瑞芳區"
"224008","273-VK","2019/10/10 19:19:27","新北市瑞芳區明燈路三段101號","121.803895","25.10846","6501200","瑞芳區"
"224005","271-BY","2019/10/10 19:19:18","新北市瑞芳區三爪子坑路110號","121.807498333333","25.1051616666667","6501200","瑞芳區"
"227002","642-TC","2019/10/10 19:19:16","新北市雙溪區平林里梅竹蹊43號","121.859985","25.0357766666667","6502500","雙溪區"
"227001","400-TW","2019/10/10 19:19:30","新北市雙溪區新基里新基北街40號","121.868523333333","25.0380283333333","6502500","雙溪區"
"253005","032-BX","2019/10/10 19:19:28","新北市石門區阿里荖4-7號","121.611893333333","25.2792416666667","6502200","石門區"
"253006","295-VK","2019/10/10 19:19:20","新北市石門區崁子腳61-1號","121.532388333333","25.28762","6502200","石門區"
"222001","KEA-2212","2019/10/10 19:19:27","新北市深坑區北深路二段109號","121.617293333333","25.003385","6501800","深坑區"
"208002","KEA-2872","2019/10/10 19:19:28","新北市金山區中華路142號","121.63304","25.22117","6502700","金山區"
"208003","665-BX","2019/10/10 19:19:29","新北市金山區中山路182號","121.638101666667","25.22123","6502700","金山區"
"251005","010-UM","2019/10/10 19:19:27","新北市淡水區水源街一段26號","121.443035","25.1722783333333","6501000","淡水區"
"251015","KEA-2871","2019/10/10 19:19:19","新北市淡水區山子邊16巷2號","121.485393333333","25.1832733333333","6501000","淡水區"
"251008","181-VK","2019/10/10 19:19:36","新北市淡水區沙崙路161號","121.423885","25.183375","6501000","淡水區"
"251013","182-VK","2019/10/10 19:19:28","新北市淡水區安子內12-1號","121.481505","25.2191133333333","6501000","淡水區"
"251010","413-VK","2019/10/10 19:19:26","新北市淡水區沙崙路131巷13弄18號","121.4225","25.1836283333333","6501000","淡水區"
"251007","442-VK","2019/10/10 19:19:32","新北市淡水區民生路145巷28號","121.466523333333","25.1387583333333","6501000","淡水區"
"251001","559-UM","2019/10/10 19:19:27","新北市淡水區自強路201巷39號","121.462156666667","25.126805","6501000","淡水區"
"251009","575-R6","2019/10/10 19:19:21","新北市淡水區清水街178號","121.440631666667","25.1707616666667","6501000","淡水區"
"251014","577-R6","2019/10/10 19:19:29","新北市淡水區小中寮19-7號","121.484796666667","25.229635","6501000","淡水區"
"251002","672-BX","2019/10/10 19:19:26","新北市淡水區中山路137-1號","121.440883333333","25.1715683333333","6501000","淡水區"
"251003","673-BX","2019/10/10 19:19:15","新北市淡水區中山路170號","121.441186666667","25.17391","6501000","淡水區"
"207003","681-TV","2019/10/10 19:19:36","新北市萬里區大鵬里頂社24-1號","121.6574","25.2103916666667","6502800","萬里區"
"207004","291-VK","2019/10/10 19:19:23","新北市萬里區萬里里成功新村65號","121.688313333333","25.1745533333333","6502800","萬里區"
"252002","178-VK","2019/10/10 19:19:18","新北市三芝區淡金路二段18-1號","121.502701666667","25.2595166666667","6502100","三芝區"
"208001","170-UY","2019/10/10 19:19:27","新北市金山區金包里街36號","121.639623333333","25.2209583333333","6502700","金山區"
"237004","KEA-2597","2019/10/10 19:19:21","新北市三峽區有木205-1號","121.439036666667","24.8515833333333","6500900","三峽區"
"237007","153-BY","2019/10/10 19:19:37","新北市三峽區二鬮路178號","121.359223333333","24.9067933333333","6500900","三峽區"
"237009","210-TH","2019/10/10 19:19:25","新北市三峽區信義街26號","121.37083","24.935425","6500900","三峽區"
"237012","275-BY","2019/10/10 19:19:20","新北市三峽區三樹路222巷236弄23號","121.391546666667","24.9430433333333","6500900","三峽區"
"237008","302-VK","2019/10/10 19:19:20","新北市三峽區大同路120號","121.374015","24.9269433333333","6500900","三峽區"
"237014","433-BY","2019/10/10 19:19:35","新北市三峽區中山路186號","121.363881666667","24.9368066666667","6500900","三峽區"
"237013","280-TH","2019/10/10 19:19:16","新北市三峽區光明路75巷20號","121.377556666667","24.9281783333333","6500900","三峽區"
"237006","5529-G3","2019/10/10 19:19:27","新北市三峽區溪北街109號","121.398358333333","24.935465","6500900","三峽區"
"237011","KEA-2596","2019/10/10 19:19:27","新北市三峽區介壽路三段65號","121.395498333333","24.9378816666667","6500900","三峽區"
"237015","649-BX","2019/10/10 19:18:41","新北市三峽區安坑64-4號","121.469166666667","24.92962","6500900","三峽區"
"237010","706-TV","2019/10/10 19:19:30","新北市三峽區國光街364巷2號","121.371066666667","24.9399566666667","6500900","三峽區"
"237014","760-BX","2019/10/10 19:19:19","新北市三峽區中山路301號","121.361448333333","24.9376983333333","6500900","三峽區"
"237005","AKY-6261","2019/10/10 19:19:30","新北市三峽區中山路459巷50-2號","121.356033333333","24.9377066666667","6500900","三峽區"
"236078","166-UM","2019/10/10 19:19:32","新北市土城區中央路四段321巷24號","121.411356666667","24.95099","6501300","土城區"
"236026","269-VK","2019/10/10 19:19:33","新北市土城區中央路二段149巷9號","121.442421666667","24.9766966666667","6501300","土城區"
"236014","270-VK","2019/10/10 19:19:26","新北市土城區學府路一段25號","121.458468333333","24.988335","6501300","土城區"
"236070","KEA-2877","2019/10/10 19:19:27","新北市土城區學成路74-2號","121.451251666667","24.9882733333333","6501300","土城區"
"252001","KED-0821","2019/10/10 19:19:19","新北市三芝區長勤街9巷8號","121.501618333333","25.255305","6502100","三芝區"
"236021","401-BY","2019/10/10 19:19:27","新北市土城區峰廷街3號","121.469063333333","24.9873166666667","6501300","土城區"
"236059","912-UM","2019/10/10 19:19:21","新北市土城區中央路二段237號","121.440276666667","24.97228","6501300","土城區"
"238015","755-BX","2019/10/10 19:16:55","新北市樹林區光明街18號","121.411195","24.989575","6500700","樹林區"
"238023","601-UM","2019/10/10 19:19:35","新北市樹林區中正路865號","121.408776666667","25.0181283333333","6500700","樹林區"
"238019","571-TV","2019/10/10 19:19:21","新北市樹林區東華街39號","121.415205","24.981535","6500700","樹林區"
"238018","KEA-2217","2019/10/10 19:19:26","新北市樹林區太元街14號","121.417141666667","24.9807733333333","6500700","樹林區"
"238022","KEA-2213","2019/10/10 19:19:22","新北市樹林區中山路二段151巷6弄1號","121.406595","24.97843","6500700","樹林區"
"238021","KEA-2539","2019/10/10 19:19:36","新北市樹林區柑園街二段203巷17號","121.377246666667","24.9516333333333","6500700","樹林區"
"238025","303-VK","2019/10/10 19:19:24","新北市樹林區中山路三段38號","121.394845","24.9725833333333","6500700","樹林區"
"238017","283-BY","2019/10/10 19:19:26","新北市樹林區光興街221號","121.40814","25.0048633333333","6500700","樹林區"
"238014","282-BY","2019/10/10 19:19:16","新北市樹林區千歲街72號","121.426198333333","24.9975183333333","6500700","樹林區"
"238020","268-VK","2019/10/10 19:19:18","新北市樹林區俊英街125巷1號","121.424411666667","25.0109183333333","6500700","樹林區"
"238026","172-UY","2019/10/10 19:19:23","新北市樹林區佳園路一段41巷2號","121.3934","24.9707766666667","6500700","樹林區"
"238016","169-UY","2019/10/10 19:19:35","新北市樹林區中山路一段306巷51弄26號","121.417725","24.98587","6500700","樹林區"
"239007","AAC-297","2019/10/10 19:19:26","新北市鶯歌區中正一路225號","121.354076666667","24.9574566666667","6500800","鶯歌區"
"239006","891-R6","2019/10/10 19:19:26","新北市鶯歌區鶯桃路296巷84弄13號","121.337088333333","24.9616316666667","6500800","鶯歌區"
"239008","527-UM","2019/10/10 19:19:17","新北市鶯歌區國際二路14巷2號","121.337653333333","24.974695","6500800","鶯歌區"
"239005","526-UM","2019/10/10 19:19:24","新北市鶯歌區中湖街23號","121.347423333333","24.9728166666667","6500800","鶯歌區"
"239001","417-VK","2019/10/10 19:19:23","新北市鶯歌區永明街60巷11號","121.340713333333","24.9552366666667","6500800","鶯歌區"
"239003","360-BY","2019/10/10 19:19:25","新北市鶯歌區鶯桃路439號","121.332415","24.96528","6500800","鶯歌區"
"239002","359-BY","2019/10/10 19:19:33","新北市鶯歌區中山路185-1號","121.347348333333","24.9569733333333","6500800","鶯歌區"
"239004","193-VK","2019/10/10 19:19:31","新北市鶯歌區中正三路282巷12弄1號","121.328398333333","24.93713","6500800","鶯歌區"
"221008","489-VK","2019/10/10 19:19:18","新北市汐止區康寧街310號","121.62675","25.0672766666667","6501100","汐止區"
"221031","353-TW","2019/10/10 19:19:29","新北市汐止區康寧街901號","121.650835","25.0752566666667","6501100","汐止區"
"221035","622-UM","2019/10/10 19:19:28","新北市汐止區康寧街901號","121.6514","25.07508","6501100","汐止區"
"221002","707-TV","2019/10/10 19:19:20","新北市汐止區大同路一段328號","121.637585","25.05896","6501100","汐止區"
"220079","145-BY","2019/10/10 19:19:21","新北市板橋區民權路260巷1弄30號","121.458673333333","25.01577","6500100","板橋區"
"220080","200-UY","2019/10/10 19:19:33","新北市板橋區大觀路二段19巷81號","121.449145","25.002885","6500100","板橋區"
"220082","610-BX","2019/10/10 19:19:34","新北市板橋區篤行路三段71號","121.42735","24.98554","6500100","板橋區"
"220056","276-BY","2019/10/10 19:19:26","新北市板橋區信義路279巷19號","121.464766666667","24.9903433333333","6500100","板橋區"
"220072","277-BY","2019/10/10 19:19:29","新北市板橋區篤行路二段153號","121.429661666667","24.9879683333333","6500100","板橋區"
"220101","280-UM","2019/10/10 19:19:29","新北市板橋區莊敬路220巷62號","121.471623333333","25.0209","6500100","板橋區"
"220071","283-VK","2019/10/10 19:19:14","新北市板橋區大豐街118號","121.461271666667","25.00119","6500100","板橋區"
"220094","285-UM","2019/10/10 19:19:33","新北市板橋區吳鳳路50巷18號","121.469163333333","25.0302616666667","6500100","板橋區"
"220083","286-VK","2019/10/10 19:19:33","新北市板橋區大觀路二段174巷186弄14號","121.442855","25.0034233333333","6500100","板橋區"
"220081","287-VK","2019/10/10 19:19:26","新北市板橋區南雅西路一段110號","121.453041666667","25.0061666666667","6500100","板橋區"
"220090","288-VK","2019/10/10 19:19:32","新北市板橋區長江路一段106巷18弄7號","121.459993333333","25.0284683333333","6500100","板橋區"
"220061","293-UM","2019/10/10 19:19:24","新北市板橋區中山路二段187號","121.476143333333","25.017175","6500100","板橋區"
"220062","295-UM","2019/10/10 19:19:20","新北市板橋區三民路二段153巷36弄2號","121.481168333333","25.0141416666667","6500100","板橋區"
"220084","296-UM","2019/10/10 19:19:31","新北市板橋區滿平街110巷4號","121.428193333333","24.988495","6500100","板橋區"
"220053","299-UM","2019/10/10 19:19:34","新北市板橋區富山街62巷12號","121.477265","25.022325","6500100","板橋區"
"220075","303-R5","2019/10/10 19:19:31","新北市板橋區中正路275巷93號","121.45075","25.0180516666667","6500100","板橋區"
"220092","307-R5","2019/10/10 19:19:29","新北市板橋區文化路一段379號","121.467058333333","25.0215416666667","6500100","板橋區"
"220098","317-R6","2019/10/10 19:19:21","新北市板橋區自由路51巷8號","121.465081666667","25.0235016666667","6500100","板橋區"
"220089","487-VK","2019/10/10 19:19:14","新北市板橋區英士路20號","121.46191","25.0252066666667","6500100","板橋區"
"220088","491-VK","2019/10/10 19:19:32","新北市板橋區雙十路二段136號","121.473766666667","25.0289283333333","6500100","板橋區"
"220035","560-BX","2019/10/10 19:19:32","新北市板橋區新生街23巷19號","121.456543333333","25.0225183333333","6500100","板橋區"
"220103","561-BX","2019/10/10 19:19:29","新北市板橋區文化路一段280-3號","121.467316666667","25.021395","6500100","板橋區"
"220063","609-BX","2019/10/10 19:19:20","新北市板橋區三民路一段1巷39號","121.480256666667","25.0247766666667","6500100","板橋區"
"220091","637-BX","2019/10/10 19:19:28","新北市板橋區文聖街72號","121.477166666667","25.0303983333333","6500100","板橋區"
"220057","686-BX","2019/10/10 19:19:14","新北市板橋區和平路18號","121.460048333333","24.9944416666667","6500100","板橋區"
"220077","687-BX","2019/10/10 19:19:17","新北市板橋區大觀路二段123號","121.445913333333","25.00136","6500100","板橋區"
"220093","689-BX","2019/10/10 19:19:18","新北市板橋區新海路69號","121.4618","25.0217333333333","6500100","板橋區"
"220054","741-BX","2019/10/10 19:19:20","新北市板橋區重慶路182號","121.462441666667","25.00366","6500100","板橋區"
"220102","KEA-2699","2019/10/10 19:19:33","新北市板橋區松柏街22巷31號","121.474983333333","25.0291733333333","6500100","板橋區"
"220055","827-TW","2019/10/10 19:19:33","新北市板橋區新民街13號","121.463971666667","25.009865","6500100","板橋區"
"220068","830-TW","2019/10/10 19:19:28","新北市板橋區萬安街132號","121.483301666667","25.02596","6500100","板橋區"
"220067","831-TW","2019/10/10 19:19:36","新北市板橋區長安街138巷7弄62號","121.47421","25.00932","6500100","板橋區"
"220074","895-R6","2019/10/10 19:19:16","新北市板橋區中正路自強新村68-1號","121.454776666667","25.013185","6500100","板橋區"
"220073","985-R7","2019/10/10 19:19:33","新北市板橋區新生街82號","121.457998333333","25.02143","6500100","板橋區"
"220097","AAC-210","2019/10/10 19:19:18","新北市板橋區新海路134號","121.46093","25.0231333333333","6500100","板橋區"
"220064","AAC-253","2019/10/10 19:19:35","新北市板橋區重慶路30號","121.46114","25.0077733333333","6500100","板橋區"
"235068","KEA-2873","2019/10/10 19:19:22","新北市中和區圓通路158巷3-1號","121.497675","24.99616","6500300","中和區"
"235061","KEA-2875","2019/10/10 19:19:24","新北市中和區員山路167號","121.481176666667","24.9967783333333","6500300","中和區"
