"lineid","car","time","location","longitude","latitude","cityid","cityname"
"234046","148-BY","2019/10/10 19:49:53","新北市永和區永利路125號","121.524015","25.0028016666667","6500400","永和區"
"234081","298-R6","2019/10/10 19:50:06","新北市永和區永亨路98號","121.523036666667","25.0048466666667","6500400","永和區"
"234038","336-UY","2019/10/10 19:50:02","新北市永和區成功路二段90號","121.52661","24.9986066666667","6500400","永和區"
"234064","337-UY","2019/10/10 19:49:50","新北市永和區中正路295號","121.51754","25.0015433333333","6500400","永和區"
"234086","338-UY","2019/10/10 19:46:31","新北市永和區永利路48號","121.518846666667","25.0053083333333","6500400","永和區"
"234070","552-UM","2019/10/10 19:49:44","新北市永和區竹林路81號","121.519551666667","25.0125716666667","6500400","永和區"
"234017","745-BX","2019/10/10 19:49:53","新北市永和區永和路二段299號","121.516103333333","25.0160733333333","6500400","永和區"
"234030","746-BX","2019/10/10 19:49:49","新北市永和區民生路22巷13號","121.521768333333","24.9971766666667","6500400","永和區"
"234054","KEA-2590","2019/10/10 19:49:48","新北市永和區竹林路73-1號","121.518671666667","25.013195","6500400","永和區"
"234007","KED-0605","2019/10/10 19:49:46","新北市中和區光華街28號","121.504761666667","25.004065","6500400","永和區"
"234013","KEA-2591","2019/10/10 19:49:48","新北市永和區保安路244號","121.506488333333","25.01285","6500400","永和區"
"234061","AAD-866","2019/10/10 19:49:55","新北市永和區中正路164號","121.515093333333","24.9967116666667","6500400","永和區"
"234042","862-TW","2019/10/10 19:49:52","新北市永和區中和路389巷8號","121.508118333333","25.0009083333333","6500400","永和區"
"234050","863-TW","2019/10/10 19:49:59","新北市永和區保安路113號","121.507893333333","25.01401","6500400","永和區"
"234026","9371-KE","2019/10/10 19:49:52","新北市永和區雙和街18號","121.509253333333","25.0021266666667","6500400","永和區"
"234011","9373-KE","2019/10/10 19:49:44","新北市永和區仁愛路352巷112弄12號","121.501216666667","25.0084966666667","6500400","永和區"
"249001","173-UM","2019/10/10 19:49:48","新北市八里區中華路二段252號","121.405431666667","25.14967","6502300","八里區"
"249004","303-UY","2019/10/10 19:49:48","新北市八里區仁愛路35號","121.41354","25.16068","6502300","八里區"
"249002","305-UY","2019/10/10 19:50:04","新北市八里區頂寮五街17號","121.451535","25.1259783333333","6502300","八里區"
"249003","593-UM","2019/10/10 19:50:00","新北市八里區華峰三街37號","121.398605","25.1455033333333","6502300","八里區"
"248014","025-BX","2019/10/10 19:49:57","新北市五股區五福路20號","121.434301666667","25.08888","6501500","五股區"
"248016","026-BX","2019/10/10 19:49:52","新北市五股區成泰路四段24-7號","121.45385","25.1068233333333","6501500","五股區"
"248008","KED-0815","2019/10/10 19:49:50","新北市五股區四維路185巷1號","121.468336666667","25.076065","6501500","五股區"
"248020","KED-0813","2019/10/10 19:49:59","新北市五股區中直路崩山巷2-2號","121.424228333333","25.114475","6501500","五股區"
"248012","247-BX","2019/10/10 19:49:45","新北市五股區蓬萊路8號","121.43552","25.07944","6501500","五股區"
"248004","677-BX","2019/10/10 19:49:57","新北市五股區成泰路一段32巷62號","121.435015","25.06701","6501500","五股區"
"248002","678-BX","2019/10/10 19:49:56","新北市五股區成泰路三段590-3號","121.452893333333","25.105955","6501500","五股區"
"248010","682-TV","2019/10/10 19:50:04","新北市五股區登林路貿商巷3弄15號","121.429708333333","25.0698766666667","6501500","五股區"
"234023","9380-KE","2019/10/10 19:49:46","新北市永和區中正路736號","121.515288333333","25.010225","6500400","永和區"
"234077","969-R7","2019/10/10 19:50:06","新北市永和區智光街53號","121.517218333333","24.997915","6500400","永和區"
"234074","AAC-211","2019/10/10 19:49:48","新北市永和區竹林路179巷38號","121.52212","25.0102083333333","6500400","永和區"
"234067","AAC-212","2019/10/10 19:49:58","新北市永和區保平路236巷27號","121.508063333333","25.006845","6500400","永和區"
"234003","AAC-295","2019/10/10 19:50:01","新北市永和區福和路343號","121.515528333333","25.007165","6500400","永和區"
"243012","AAD-798","2019/10/10 19:49:56","新北市泰山區仁愛路130號","121.434028333333","25.0558716666667","6501600","泰山區"
"243010","297-R6","2019/10/10 19:20:56","新北市泰山區明志路一段514號","121.430226666667","25.0539733333333","6501600","泰山區"
"243016","421-VK","2019/10/10 19:49:58","新北市泰山區貴鳳街17號","121.422","25.0316266666667","6501600","泰山區"
"243009","KEA-2215","2019/10/10 19:50:00","新北市泰山區美寧街60號","121.430926666667","25.0646433333333","6501600","泰山區"
"243011","KEA-2216","2019/10/10 19:49:56","新北市泰山區明志路三段182巷37號","121.423065","25.039365","6501600","泰山區"
"222003","436-BY","2019/10/10 19:49:54","新北市深坑區深南路51-1號","121.621168333333","25.00983","6501800","深坑區"
"222002","659-BX","2019/10/10 19:50:02","新北市深坑區翠谷街1號","121.626486666667","25.0073366666667","6501800","深坑區"
"231061","002-UM","2019/10/10 19:49:44","新北市新店區安民街277號","121.51755","24.973185","6500600","新店區"
"231044","046-UY","2019/10/10 19:49:47","新北市新店區復興路121號","121.534181666667","24.987945","6500600","新店區"
"231060","106-UY","2019/10/10 19:49:47","新北市新店區安康路二段216號","121.509863333333","24.9593666666667","6500600","新店區"
"231051","107-UY","2019/10/10 19:49:52","新北市新店區中央三街61號","121.526913333333","24.974995","6500600","新店區"
"231049","108-UY","2019/10/10 19:49:59","新北市新店區二十張路46巷37弄21-2號","121.535755","24.9816516666667","6500600","新店區"
"231065","110-UY","2019/10/10 19:49:51","新北市新店區安祥路109巷151弄5號","121.478305","24.9586233333333","6500600","新店區"
"231068","187-VK","2019/10/10 19:49:57","新北市新店區安一路一段1-1號","121.519561666667","24.9610666666667","6500600","新店區"
"231062","256-BX","2019/10/10 19:50:02","新北市新店區永業路81巷1弄1-1號","121.529458333333","24.9492616666667","6500600","新店區"
"231054","260-TV","2019/10/10 19:50:06","新北市新店區光明街13號","121.53846","24.9592866666667","6500600","新店區"
"231042","268-BY","2019/10/10 19:49:45","新北市新店區中興路一段271號","121.545171666667","24.9680133333333","6500600","新店區"
"231064","278-BY","2019/10/10 19:49:50","新北市新店區光華街5巷19號","121.517688333333","24.9683","6500600","新店區"
"231050","AAD-862","2019/10/10 19:49:48","新北市新店區北宜路二段535號","121.563973333333","24.953455","6500600","新店區"
"231045","355-BY","2019/10/10 19:49:49","新北市新店區北宜路二段483號","121.56229","24.9538416666667","6500600","新店區"
"231055","4716-K9","2019/10/10 19:49:59","新北市新店區力行路42號","121.538846666667","24.9651633333333","6500600","新店區"
"231056","4715-K9","2019/10/10 19:50:06","新北市新店區民權路42巷29號","121.539211666667","24.9836966666667","6500600","新店區"
"231067","4772-VM","2019/10/10 19:49:42","新北市新店區精忠路10-1號","121.532573333333","24.959105","6500600","新店區"
"231052","513-UM","2019/10/10 19:49:54","新北市新店區新烏路三段336號","121.546731666667","24.8960966666667","6500600","新店區"
"231041","619-UM","2019/10/10 19:50:04","新北市新店區中央路125號","121.530571666667","24.9741","6500600","新店區"
"231063","641-BX","2019/10/10 19:49:49","新北市新店區車子路11號","121.503036666667","24.9519916666667","6500600","新店區"
"231047","KED-0819","2019/10/10 19:49:50","新北市新店區寶興路42巷37號","121.547775","24.9717366666667","6500600","新店區"
"231046","719-UM","2019/10/10 19:48:33","新北市新店區福園街10巷7號","121.532495","24.9729116666667","6500600","新店區"
"231057","720-UM","2019/10/10 19:50:01","新北市新店區梅崗一路10號","121.556008333333","24.9313983333333","6500600","新店區"
"231059","897-TW","2019/10/10 19:49:54","新北市新店區安和路二段190號","121.51889","24.9744466666667","6500600","新店區"
"231040","898-TW","2019/10/10 19:49:51","新北市新店區中正路75巷71號","121.54311","24.9688183333333","6500600","新店區"
"231043","899-TW","2019/10/10 19:49:55","新北市新店區中正路263-2號","121.538445","24.9737916666667","6500600","新店區"
"231066","AKT-0513","2019/10/10 19:49:58","新北市新店區安康路三段165巷2弄8號","121.489293333333","24.951355","6500600","新店區"
"241011","013-R5","2019/10/10 19:49:48","新北市三重區三和路二段173巷43號","121.499235","25.07016","6500200","三重區"
"241028","022-UY","2019/10/10 19:50:01","新北市三重區中正南路128號","121.494283333333","25.0578383333333","6500200","三重區"
"241008","059-VK","2019/10/10 19:49:57","新北市三重區永福街100號","121.47892","25.0758966666667","6500200","三重區"
"241031","061-VK","2019/10/10 19:50:01","新北市三重區重新路四段208號","121.48627","25.0544333333333","6500200","三重區"
"241015","062-VK","2019/10/10 19:50:02","新北市三重區重新路一段1號","121.503831666667","25.0643033333333","6500200","三重區"
"241017","063-VK","2019/10/10 19:49:48","新北市三重區重陽路三段5巷10號","121.489456666667","25.0662666666667","6500200","三重區"
"241024","065-VK","2019/10/10 19:49:51","新北市三重區國道路一段58巷15號","121.481375","25.0720516666667","6500200","三重區"
"241007","066-VK","2019/10/10 19:49:55","新北市三重區三和路四段145巷9號","121.484603333333","25.0783433333333","6500200","三重區"
"241003","091-VK","2019/10/10 19:50:04","新北市三重區五華街93巷91號","121.49403","25.08497","6500200","三重區"
"241006","262-UM","2019/10/10 19:49:54","新北市三重區永福街289-5號","121.48362","25.0741683333333","6500200","三重區"
"241016","266-UM","2019/10/10 19:49:35","新北市三重區正義北路16巷32號","121.496346666667","25.062635","6500200","三重區"
"241009","267-UM","2019/10/10 19:50:06","新北市三重區三和路四段396巷27號","121.480303333333","25.078925","6500200","三重區"
"241018","268-UM","2019/10/10 19:49:51","新北市三重區雙園街57巷10號","121.494806666667","25.0676733333333","6500200","三重區"
"241032","269-UM","2019/10/10 19:49:55","新北市三重區重陽路一段44巷10號","121.486013333333","25.057735","6500200","三重區"
"241025","271-UM","2019/10/10 19:49:51","新北市三重區頂崁街194號","121.477425","25.066565","6500200","三重區"
"241035","KEA-2210","2019/10/10 19:49:54","新北市三重區大榮街53號","121.499253333333","25.0635433333333","6500200","三重區"
"241030","KED-0822","2019/10/10 19:49:50","新北市三重區環河南路254巷22號","121.490258333333","25.050995","6500200","三重區"
"241004","475-VK","2019/10/10 19:49:48","新北市三重區仁愛街377巷132號","121.493533333333","25.0819166666667","6500200","三重區"
"241020","478-VK","2019/10/10 19:49:59","新北市三重區大智街169號","121.489806666667","25.072495","6500200","三重區"
"241014","543-UM","2019/10/10 19:49:56","新北市三重區長元街98巷18弄32號","121.501758333333","25.0673916666667","6500200","三重區"
"241023","545-UM","2019/10/10 19:49:48","新北市三重區頂崁街168號","121.47759","25.0659","6500200","三重區"
"241001","547-UM","2019/10/10 19:50:00","新北市三重區仁愛街284號","121.492461666667","25.0791216666667","6500200","三重區"
"241019","KEA-2593","2019/10/10 19:50:01","新北市三重區自強路二段47巷41號","121.490188333333","25.0700933333333","6500200","三重區"
"241005","AAD-863","2019/10/10 19:49:51","新北市三重區溪尾街364號","121.488823333333","25.085415","6500200","三重區"
"241012","743-BX","2019/10/10 19:49:52","新北市三重區仁興街56巷22號","121.498498333333","25.0755983333333","6500200","三重區"
"241026","887-TS","2019/10/10 19:49:50","新北市三重區文化南路42號","121.50045","25.060095","6500200","三重區"
"241029","942-UM","2019/10/10 19:50:02","新北市三重區光明路45號","121.49154","25.05804","6500200","三重區"
"241033","AAC-255","2019/10/10 19:49:54","新北市三重區中興南街80巷3號","121.47136","25.04344","6500200","三重區"
"235056","096-UM","2019/10/10 19:50:04","新北市中和區中山路三段170巷8弄18號","121.47294","25.00763","6500300","中和區"
"235039","097-UM","2019/10/10 19:49:46","新北市中和區大勇街27巷31號","121.51618","24.9938666666667","6500300","中和區"
"235065","098-UM","2019/10/10 19:49:55","新北市中和區永和路39巷2號","121.498075","25.0049383333333","6500300","中和區"
"235040","150-BY","2019/10/10 19:49:56","新北市中和區安和路43號","121.509633333333","24.9948766666667","6500300","中和區"
"235058","151-BY","2019/10/10 19:49:52","新北市中和區員山路148巷1號","121.481506666667","24.9971083333333","6500300","中和區"
"235055","183-VK","2019/10/10 19:49:55","新北市中和區德光路15巷8-1號","121.47128","25.003915","6500300","中和區"
"235038","185-VK","2019/10/10 19:49:58","新北市中和區自立路6號","121.522455","24.9964533333333","6500300","中和區"
"235067","255-BX","2019/10/10 19:49:52","新北市中和區中正路751巷3弄12號","121.484338333333","24.9993516666667","6500300","中和區"
"235044","293-VK","2019/10/10 19:49:49","新北市中和區南山路146巷11號","121.50338","24.9923866666667","6500300","中和區"
"235072","301-VK","2019/10/10 19:50:02","新北市中和區板南路399巷2號","121.493356666667","24.9989916666667","6500300","中和區"
"235043","352-BY","2019/10/10 19:49:58","新北市中和區興南路二段159巷12號","121.505218333333","24.9830666666667","6500300","中和區"
"235042","KEA-2878","2019/10/10 19:49:49","新北市中和區宜安路32號","121.512685","24.9961416666667","6500300","中和區"
"247016","KEA-2869","2019/10/10 19:49:47","新北市蘆洲區中正路245號","121.467793333333","25.0869216666667","6501400","蘆洲區"
"235050","4979-A6","2019/10/10 19:49:47","新北市中和區景平路241巷84弄54號","121.506118333333","24.99236","6500300","中和區"
"235070","558-UM","2019/10/10 19:49:50","新北市中和區圓通路171號","121.497563333333","24.9952666666667","6500300","中和區"
"235047","732-UM","2019/10/10 19:50:03","新北市中和區和平街90號","121.507431666667","24.991225","6500300","中和區"
"235046","733-UM","2019/10/10 19:49:45","新北市中和區興南路一段63-6號","121.510375","24.989605","6500300","中和區"
"235071","783-BX","2019/10/10 19:49:58","新北市中和區中板路11號","121.484313333333","25.011695","6500300","中和區"
"235052","805-TS","2019/10/10 19:49:52","新北市中和區華新街144巷9號","121.50749","24.9831483333333","6500300","中和區"
"235048","896-TW","2019/10/10 19:49:49","新北市中和區興南路一段9號","121.511516666667","24.9910383333333","6500300","中和區"
"235053","900-TW","2019/10/10 19:50:03","新北市中和區民德路276號","121.46812","24.99637","6500300","中和區"
"235051","157-BY","2019/10/10 19:50:05","新北市中和區中興街180巷52弄6號","121.498703333333","24.9884966666667","6500300","中和區"
"235037","AAC-213","2019/10/10 19:49:58","新北市中和區自立路127號","121.521866666667","24.9940916666667","6500300","中和區"
"235059","AAC-215","2019/10/10 19:50:02","新北市中和區圓通路305巷5弄38號","121.494576666667","24.9903033333333","6500300","中和區"
"220065","072-UY","2019/10/10 19:49:49","新北市中和區中山路三段229巷47號","121.469421666667","25.0054533333333","6500100","板橋區"
"220086","073-UY","2019/10/10 19:49:58","新北市板橋區國光路171號","121.46052","25.0183816666667","6500100","板橋區"
"220106","075-UY","2019/10/10 19:50:02","新北市板橋區民治街96巷2號","121.47892","25.0317383333333","6500100","板橋區"
"220069","AAD-861","2019/10/10 19:50:00","新北市板橋區大明街46號","121.457855","25.002825","6500100","板橋區"
"247002","341-TH","2019/10/10 19:49:56","新北市蘆洲區永樂街38巷40號","121.45857","25.0899983333333","6501400","蘆洲區"
"247004","336-TH","2019/10/10 19:50:05","新北市蘆洲區中原路87號","121.457918333333","25.0816833333333","6501400","蘆洲區"
"247014","056-VK","2019/10/10 19:49:57","新北市蘆洲區復興路18號","121.472138333333","25.0851916666667","6501400","蘆洲區"
"247022","007-UY","2019/10/10 19:49:50","新北市蘆洲區中正路472號","121.462331666667","25.0953033333333","6501400","蘆洲區"
"226004","312-R5","2019/10/10 19:50:00","新北市平溪區十分里十分街304號","121.776061666667","25.0442266666667","6502400","平溪區"
"235049","251-BX","2019/10/10 19:49:53","新北市中和區中興街9號","121.50135","24.99504","6500300","中和區"
"228003","097-TW","2019/10/10 19:49:52","新北市貢寮區真理里美艷山街3-1號","121.925538333333","25.0594333333333","6502600","貢寮區"
"228001","212-TW","2019/10/10 19:49:45","新北市貢寮區真理里大澳街10巷46號","121.925528333333","25.0564233333333","6502600","貢寮區"
"224010","AGQ-8101","2019/10/10 19:49:53","新北市瑞芳區基山街134號","121.84379","25.1081783333333","6501200","瑞芳區"
"224009","275-VK","2019/10/10 19:49:50","新北市瑞芳區祈堂路184號","121.857688333333","25.10958","6501200","瑞芳區"
"227002","642-TC","2019/10/10 19:49:55","新北市雙溪區雙溪里內挖路47號","121.863215","25.0367416666667","6502500","雙溪區"
"227001","400-TW","2019/10/10 19:49:50","新北市雙溪區新基里中華路90-1號","121.866031666667","25.0390133333333","6502500","雙溪區"
"222001","KEA-2212","2019/10/10 19:49:47","新北市深坑區北深路三段114號","121.60668","25.0016183333333","6501800","深坑區"
"208002","KEA-2872","2019/10/10 19:49:47","新北市金山區環金路159號","121.63399","25.2177483333333","6502700","金山區"
"208003","665-BX","2019/10/10 19:50:01","新北市金山區中正路26號","121.635855","25.2222716666667","6502700","金山區"
"251004","009-UM","2019/10/10 19:50:01","新北市淡水區民權路177巷55號","121.460528333333","25.1338033333333","6501000","淡水區"
"251005","010-UM","2019/10/10 19:49:47","新北市淡水區中正東路6號","121.446846666667","25.1672233333333","6501000","淡水區"
"251015","KEA-2871","2019/10/10 19:49:59","新北市淡水區山子頂24-1號","121.491393333333","25.18719","6501000","淡水區"
"251016","179-VK","2019/10/10 19:49:48","新北市淡水區淡金路三段380號","121.450883333333","25.2109283333333","6501000","淡水區"
"251008","181-VK","2019/10/10 19:49:56","新北市淡水區中正路二段24巷2-1號","121.426743333333","25.176975","6501000","淡水區"
"251013","182-VK","2019/10/10 19:49:48","新北市淡水區頂田寮路109號","121.457998333333","25.21612","6501000","淡水區"
"251007","442-VK","2019/10/10 19:49:52","新北市淡水區中正東路一段5巷1號","121.450715","25.1644366666667","6501000","淡水區"
"251012","443-VK","2019/10/10 19:50:07","新北市淡水區淡金路三段64號","121.448211666667","25.1998233333333","6501000","淡水區"
"251001","559-UM","2019/10/10 19:49:47","新北市淡水區淡金路182號","121.459265","25.1659133333333","6501000","淡水區"
"251006","561-UM","2019/10/10 19:49:47","新北市淡水區水碓街15號","121.44349","25.1769583333333","6501000","淡水區"
"251009","575-R6","2019/10/10 19:50:01","新北市淡水區中正路17號","121.442801666667","25.16962","6501000","淡水區"
"251014","577-R6","2019/10/10 19:49:49","新北市淡水區番社前1號","121.467978333333","25.2361116666667","6501000","淡水區"
"251011","650-BX","2019/10/10 19:49:44","新北市淡水區紅樹林路211號","121.460851666667","25.1559833333333","6501000","淡水區"
"251002","672-BX","2019/10/10 19:49:46","新北市淡水區下圭柔山90-8號","121.43125","25.2103366666667","6501000","淡水區"
"207003","681-TV","2019/10/10 19:49:56","新北市萬里區大鵬里下社17-4號","121.648213333333","25.21771","6502800","萬里區"
"207004","291-VK","2019/10/10 19:50:02","新北市萬里區萬里里瑪鋉路205號","121.690445","25.17931","6502800","萬里區"
"252002","178-VK","2019/10/10 19:49:58","新北市三芝區三民街31號","121.50456","25.258585","6502100","三芝區"
"208001","170-UY","2019/10/10 19:49:47","新北市金山區南勢湖13號","121.621256666667","25.2193083333333","6502700","金山區"
"237004","KEA-2597","2019/10/10 19:50:01","新北市三峽區添福269號","121.375576666667","24.8932216666667","6500900","三峽區"
"237007","153-BY","2019/10/10 19:49:57","新北市三峽區二鬮路136巷20弄1號","121.356263333333","24.9098866666667","6500900","三峽區"
"237009","210-TH","2019/10/10 19:50:05","新北市三峽區清水街429號","121.368658333333","24.9258816666667","6500900","三峽區"
"237012","275-BY","2019/10/10 19:50:00","新北市三峽區中華路24號","121.373986666667","24.9323766666667","6500900","三峽區"
"237008","302-VK","2019/10/10 19:50:00","新北市三峽區大同路209號","121.370658333333","24.9270433333333","6500900","三峽區"
"237014","433-BY","2019/10/10 19:49:55","新北市三峽區嘉添19-1號","121.368741666667","24.9116266666667","6500900","三峽區"
"237013","280-TH","2019/10/10 19:49:56","新北市三峽區溪北街36號","121.396748333333","24.936085","6500900","三峽區"
"237006","5529-G3","2019/10/10 19:49:47","新北市三峽區中正路一段336巷15弄2號","121.369943333333","24.92497","6500900","三峽區"
"237011","KEA-2596","2019/10/10 19:49:48","新北市三峽區中正路一段524號","121.369473333333","24.9201383333333","6500900","三峽區"
"237015","649-BX","2019/10/10 19:50:01","新北市三峽區橫溪路99巷12號","121.399978333333","24.9362466666667","6500900","三峽區"
"237010","706-TV","2019/10/10 19:49:51","新北市三峽區復興路235號","121.368321666667","24.938945","6500900","三峽區"
"237014","760-BX","2019/10/10 19:36:20","新北市三峽區中山路459巷135號","121.348861666667","24.9330366666667","6500900","三峽區"
"237005","AKY-6261","2019/10/10 19:49:44","新北市三峽區長泰街59-1號","121.377058333333","24.93296","6500900","三峽區"
"236042","KED-0685","2019/10/10 19:49:49","新北市土城區裕民路233巷1號","121.454913333333","24.9836316666667","6501300","土城區"
"236078","166-UM","2019/10/10 19:49:52","新北市土城區中州路67巷12-2號","121.412236666667","24.957435","6501300","土城區"
"236030","253-BX","2019/10/10 19:50:03","新北市土城區中央路一段318巷4弄12號","121.443266666667","24.9823966666667","6501300","土城區"
"236026","269-VK","2019/10/10 19:49:59","新北市土城區中央路二段61巷28號","121.443358333333","24.9786466666667","6501300","土城區"
"236038","271-VK","2019/10/10 19:50:01","新北市土城區國際路158巷59號","121.46809","24.9750666666667","6501300","土城區"
"236070","KEA-2877","2019/10/10 19:49:47","新北市土城區中央路二段252號","121.441706666667","24.974665","6501300","土城區"
"252001","KED-0821","2019/10/10 19:49:59","新北市三芝區公正街66號","121.499811666667","25.25744","6502100","三芝區"
"236021","401-BY","2019/10/10 19:50:07","新北市土城區延吉街127號","121.470871666667","24.9864166666667","6501300","土城區"
"236063","752-BX","2019/10/10 19:49:51","新北市土城區金城路三段163巷16號","121.468973333333","24.9891383333333","6501300","土城區"
"236059","912-UM","2019/10/10 19:50:01","新北市土城區中央路一段147號","121.446575","24.9879433333333","6501300","土城區"
"236049","913-UM","2019/10/10 19:50:02","新北市土城區青雲路208號","121.459078333333","24.9818666666667","6501300","土城區"
"236055","AAC-216","2019/10/10 19:49:46","新北市土城區延和路258號","121.470021666667","24.9894533333333","6501300","土城區"
"242004","751-BX","2019/10/10 19:49:52","新北市新莊區化成路63巷26弄1號","121.463016666667","25.0459533333333","6500500","新莊區"
"242029","615-BX","2019/10/10 19:49:45","新北市新莊區幸福路856號","121.443913333333","25.0489783333333","6500500","新莊區"
"242058","612-BX","2019/10/10 19:49:58","新北市新莊區民安西路11號","121.426883333333","25.0217633333333","6500500","新莊區"
"242048","566-BX","2019/10/10 19:50:04","新北市新莊區建安街76巷5弄15號","121.42557","25.02497","6500500","新莊區"
"242007","440-UM","2019/10/10 19:49:55","新北市新莊區思源路593巷5弄31號","121.457641666667","25.0592883333333","6500500","新莊區"
"242013","413-TV","2019/10/10 19:49:52","新北市新莊區中誠街121巷7號","121.449496666667","25.0471983333333","6500500","新莊區"
"242025","362-BY","2019/10/10 19:50:00","新北市新莊區五權一路12巷21弄6號","121.457843333333","25.0645016666667","6500500","新莊區"
"242023","353-BY","2019/10/10 19:50:01","新北市新莊區化成路182號","121.465551666667","25.0458083333333","6500500","新莊區"
"242039","135-UY","2019/10/10 19:49:55","新北市新莊區民安路299巷52號","121.429641666667","25.023765","6500500","新莊區"
"242056","172-VK","2019/10/10 19:49:52","新北市新莊區新泰路87號","121.448811666667","25.0344783333333","6500500","新莊區"
"242017","173-VK","2019/10/10 19:49:56","新北市新莊區公園路10巷2號","121.447753333333","25.0387766666667","6500500","新莊區"
"242031","175-VK","2019/10/10 19:50:02","新北市新莊區忠孝街86號","121.443968333333","25.0368333333333","6500500","新莊區"
"242021","KED-0687","2019/10/10 19:49:56","新北市新莊區新泰路147號","121.447921666667","25.0366333333333","6500500","新莊區"
"242036","348-TH","2019/10/10 19:49:52","新北市新莊區建安街101巷2弄2號","121.426781666667","25.0241316666667","6500500","新莊區"
"242034","350-TH","2019/10/10 19:50:04","新北市新莊區公園一路110號","121.444426666667","25.0374433333333","6500500","新莊區"
"238015","755-BX","2019/10/10 19:49:55","新北市樹林區樹德街6號","121.423035","24.9913466666667","6500700","樹林區"
"238023","601-UM","2019/10/10 19:49:56","新北市樹林區中正路271號","121.421198333333","25.0050433333333","6500700","樹林區"
"238019","571-TV","2019/10/10 19:50:01","新北市樹林區鎮前街429號","121.413643333333","24.9828466666667","6500700","樹林區"
"238024","5061-A6","2019/10/10 19:50:01","新北市樹林區育德街40-1號","121.390045","24.9692933333333","6500700","樹林區"
"238021","KEA-2539","2019/10/10 19:49:56","新北市樹林區佳園路三段101巷38弄20號","121.391411666667","24.949995","6500700","樹林區"
"238025","303-VK","2019/10/10 19:50:03","新北市樹林區中山路二段168號","121.412211666667","24.9826066666667","6500700","樹林區"
"238017","283-BY","2019/10/10 19:50:06","新北市樹林區保安街二段107巷2號","121.415115","25.00107","6500700","樹林區"
"238014","282-BY","2019/10/10 19:49:56","新北市樹林區千歲街70巷3弄2號","121.426816666667","24.9970833333333","6500700","樹林區"
"238026","172-UY","2019/10/10 19:50:03","新北市樹林區西圳街一段118巷16號","121.394345","24.9665633333333","6500700","樹林區"
"239007","AAC-297","2019/10/10 19:50:06","新北市鶯歌區大湖路326巷4號","121.345985","24.97038","6500800","鶯歌區"
"239006","891-R6","2019/10/10 19:50:07","新北市鶯歌區永昌街92號","121.341398333333","24.949775","6500800","鶯歌區"
"239001","417-VK","2019/10/10 19:49:43","新北市鶯歌區建國路367巷1號","121.339111666667","24.9495516666667","6500800","鶯歌區"
"239002","359-BY","2019/10/10 19:49:53","新北市鶯歌區大湖路185巷2號","121.34425","24.96977","6500800","鶯歌區"
"239004","193-VK","2019/10/10 19:49:47","新北市鶯歌區二甲路33-11號","121.340041666667","24.9380933333333","6500800","鶯歌區"
"221008","489-VK","2019/10/10 19:49:58","新北市汐止區康寧街83巷11號","121.62004","25.066925","6501100","汐止區"
"221010","269-BY","2019/10/10 19:49:57","新北市汐止區汐萬路二段23巷1號","121.649505","25.0808216666667","6501100","汐止區"
"221012","278-VK","2019/10/10 19:49:51","新北市汐止區大同路三段356號","121.680191666667","25.0710483333333","6501100","汐止區"
"221023","279-VK","2019/10/10 19:49:56","新北市汐止區中興路201號","121.629188333333","25.0684883333333","6501100","汐止區"
"221027","281-BY","2019/10/10 19:50:04","新北市汐止區中正路7號","121.663038333333","25.070125","6501100","汐止區"
"221021","299-VK","2019/10/10 19:49:54","新北市汐止區復興路58巷11弄6號","121.656195","25.0617666666667","6501100","汐止區"
"221031","353-TW","2019/10/10 19:49:49","新北市汐止區伯爵街1巷8號","121.64148","25.075195","6501100","汐止區"
"221025","623-UM","2019/10/10 19:50:03","新北市汐止區秀峰路81巷15弄4-1號","121.660861666667","25.0646333333333","6501100","汐止區"
"221038","646-BX","2019/10/10 19:49:46","新北市汐止區忠孝東路411號","121.665603333333","25.0713116666667","6501100","汐止區"
"220079","145-BY","2019/10/10 19:50:01","新北市板橋區民權路202巷36號","121.46064","25.0175233333333","6500100","板橋區"
"220080","200-UY","2019/10/10 19:49:53","新北市板橋區大觀路二段37巷15號","121.44764","25.00278","6500100","板橋區"
"220082","610-BX","2019/10/10 19:49:54","新北市板橋區溪北路102號","121.42856","24.9892816666667","6500100","板橋區"
"224002","257-TC","2019/10/10 19:49:51","新北市瑞芳區三爪子坑路13巷203號","121.815503333333","25.1061666666667","6501200","瑞芳區"
"220056","276-BY","2019/10/10 19:49:46","新北市板橋區四川路二段47巷2弄1號","121.454081666667","24.99493","6500100","板橋區"
"220072","277-BY","2019/10/10 19:49:49","新北市板橋區篤行路二段77巷18號","121.432638333333","24.991695","6500100","板橋區"
"220101","280-UM","2019/10/10 19:49:49","新北市板橋區縣民大道三段133巷35號","121.477025","25.0246616666667","6500100","板橋區"
"220071","283-VK","2019/10/10 19:49:54","新北市板橋區廣權路101號","121.464598333333","24.9926783333333","6500100","板橋區"
"220094","285-UM","2019/10/10 19:49:53","新北市板橋區雨農路17巷1號","121.462015","25.0246166666667","6500100","板橋區"
"220083","286-VK","2019/10/10 19:49:53","新北市板橋區龍興街71巷2-1號","121.443906666667","25.0020116666667","6500100","板橋區"
"220081","287-VK","2019/10/10 19:49:45","新北市板橋區大觀路一段29巷59號","121.45038","25.0070033333333","6500100","板橋區"
"220090","288-VK","2019/10/10 19:49:52","新北市板橋區雨農路27巷9號","121.461485","25.0238633333333","6500100","板橋區"
"220061","293-UM","2019/10/10 19:49:44","新北市板橋區觀光街57巷15弄1號","121.470253333333","25.0160666666667","6500100","板橋區"
"220062","295-UM","2019/10/10 19:50:00","新北市板橋區三民路二段29巷31弄3號","121.481461666667","25.0177366666667","6500100","板橋區"
"220084","296-UM","2019/10/10 19:49:58","新北市板橋區溪崑二街124巷24號","121.42532","24.9886283333333","6500100","板橋區"
"220034","297-UM","2019/10/10 19:38:01","新北市板橋區華東街1-10號","121.448388333333","24.99497","6500100","板橋區"
"220053","299-UM","2019/10/10 19:49:55","新北市板橋區永豐街24號","121.474658333333","25.017075","6500100","板橋區"
"220075","303-R5","2019/10/10 19:50:05","新北市板橋區大勇街10號","121.45526","25.0175566666667","6500100","板橋區"
"220092","307-R5","2019/10/10 19:49:49","新北市板橋區新海路14號","121.462403333333","25.0209066666667","6500100","板橋區"
"220098","317-R6","2019/10/10 19:50:01","新北市板橋區裕民街110號","121.459693333333","25.027745","6500100","板橋區"
"220089","487-VK","2019/10/10 19:49:53","新北市板橋區四維路174號","121.464558333333","25.026355","6500100","板橋區"
"220088","491-VK","2019/10/10 19:50:05","新北市板橋區懷德街166號","121.47911","25.03047","6500100","板橋區"
"220035","560-BX","2019/10/10 19:49:51","新北市板橋區新生街94號","121.458216666667","25.02186","6500100","板橋區"
"220103","561-BX","2019/10/10 19:49:49","新北市板橋區陽明街279巷35-1號","121.46109","25.025585","6500100","板橋區"
"220063","609-BX","2019/10/10 19:50:03","新北市板橋區三民路一段3巷2號","121.478906666667","25.0235083333333","6500100","板橋區"
"220091","637-BX","2019/10/10 19:49:48","新北市板橋區懷德街139巷20弄8號","121.480061666667","25.0305783333333","6500100","板橋區"
"220057","686-BX","2019/10/10 19:49:55","新北市板橋區四川路二段245巷52號","121.451981666667","24.9923216666667","6500100","板橋區"
"220077","687-BX","2019/10/10 19:50:01","新北市板橋區僑中二街124巷2號","121.445413333333","25.0055266666667","6500100","板橋區"
"220093","689-BX","2019/10/10 19:49:58","新北市板橋區文化路二段505巷7號","121.475776666667","25.034655","6500100","板橋區"
"220054","741-BX","2019/10/10 19:50:02","新北市板橋區忠孝路204號","121.465881666667","25.002685","6500100","板橋區"
"220102","KEA-2699","2019/10/10 19:49:58","新北市板橋區松柏街2-1號","121.473836666667","25.0293266666667","6500100","板橋區"
"220055","827-TW","2019/10/10 19:49:56","新北市板橋區國慶路149巷27號","121.460938333333","24.99772","6500100","板橋區"
"220068","830-TW","2019/10/10 19:49:58","新北市板橋區光復街13號","121.484893333333","25.0195966666667","6500100","板橋區"
"220067","831-TW","2019/10/10 19:49:56","新北市板橋區長安街331巷19弄13號","121.473431666667","25.012135","6500100","板橋區"
"220074","895-R6","2019/10/10 19:49:57","新北市板橋區府中路67號","121.45795","25.0091116666667","6500100","板橋區"
"220073","985-R7","2019/10/10 19:49:45","新北市板橋區國光路51號","121.45803","25.0179633333333","6500100","板橋區"
"220097","AAC-210","2019/10/10 19:49:58","新北市板橋區光正街45巷17號","121.461771666667","25.01651","6500100","板橋區"
"220064","AAC-253","2019/10/10 19:49:55","新北市板橋區民族路67號","121.465338333333","25.0087233333333","6500100","板橋區"
"235068","KEA-2873","2019/10/10 19:49:51","新北市中和區永和路39巷2號","121.498063333333","25.005035","6500300","中和區"
"235026","KEA-2876","2019/10/10 19:45:44","新北市中和區員山路36巷16-3號","121.48501","24.9914266666667","6500300","中和區"
