"lineid","car","time","location","longitude","latitude","cityid","cityname"
"234081","298-R6","2019/10/10 20:39:35","新北市永和區永貞路84號","121.520053333333","25.0049233333333","6500400","永和區"
"234064","337-UY","2019/10/10 20:39:30","新北市永和區永利路86號","121.520601666667","25.00403","6500400","永和區"
"234061","AAD-866","2019/10/10 20:39:15","新北市永和區秀安街11巷2號","121.51583","25.0033416666667","6500400","永和區"
"234042","862-TW","2019/10/10 20:39:32","新北市永和區秀朗路一段42號","121.51462","25.0066116666667","6500400","永和區"
"249001","173-UM","2019/10/10 20:39:28","新北市八里區中山路三段382號","121.368506666667","25.1360416666667","6502300","八里區"
"249004","303-UY","2019/10/10 20:39:28","新北市八里區中山路一段338號","121.412581666667","25.158935","6502300","八里區"
"234074","AAC-211","2019/10/10 20:39:28","新北市永和區竹林路117-1號","121.520056666667","25.011455","6500400","永和區"
"243012","AAD-798","2019/10/10 20:39:25","新北市泰山區忠孝街18號","121.427641666667","25.0652716666667","6501600","泰山區"
"243009","KEA-2215","2019/10/10 20:39:20","新北市泰山區泰林路二段542巷1弄1號","121.42338","25.0641083333333","6501600","泰山區"
"222003","436-BY","2019/10/10 20:39:14","新北市深坑區深坑街156號","121.612925","25.0011383333333","6501800","深坑區"
"222002","659-BX","2019/10/10 20:39:22","新北市深坑區萬福路29號","121.598833333333","25.00651","6501800","深坑區"
"231061","002-UM","2019/10/10 20:39:24","新北市新店區新和街36號","121.519273333333","24.9849083333333","6500600","新店區"
"231058","0293-UT","2019/10/10 20:39:33","新北市新店區中正路307巷22號","121.536123333333","24.9740566666667","6500600","新店區"
"231044","046-UY","2019/10/10 20:39:32","新北市新店區建國路220號","121.537788333333","24.9813266666667","6500600","新店區"
"231060","106-UY","2019/10/10 20:39:27","新北市新店區錦秀路33號","121.479235","24.9439333333333","6500600","新店區"
"231051","107-UY","2019/10/10 20:39:32","新北市新店區中央七街105號","121.525988333333","24.9775483333333","6500600","新店區"
"231049","108-UY","2019/10/10 20:39:30","新北市新店區永業路81巷3弄2號","121.52995","24.949085","6500600","新店區"
"231065","110-UY","2019/10/10 20:39:31","新北市新店區安祥路104巷11弄2號","121.481323333333","24.9634233333333","6500600","新店區"
"231068","187-VK","2019/10/10 20:39:35","新北市新店區寶慶街39號","121.542918333333","24.9865866666667","6500600","新店區"
"231062","256-BX","2019/10/10 20:39:22","新北市新店區安泰路60巷55弄131號","121.48458","24.94683","6500600","新店區"
"231054","260-TV","2019/10/10 20:39:26","新北市新店區北新路一段64巷39弄4號","121.542543333333","24.9658166666667","6500600","新店區"
"231042","268-BY","2019/10/10 20:39:25","新北市新店區寶高路116號","121.554548333333","24.9760366666667","6500600","新店區"
"231064","278-BY","2019/10/10 20:39:30","新北市新店區永平街16巷30號","121.517215","24.9844866666667","6500600","新店區"
"231050","AAD-862","2019/10/10 20:39:28","新北市新店區中正路265巷6號","121.537848333333","24.9736433333333","6500600","新店區"
"231045","355-BY","2019/10/10 20:39:29","新北市新店區長春路120號","121.555425","24.9618783333333","6500600","新店區"
"231055","4716-K9","2019/10/10 20:39:19","新北市新店區薏仁坑路2-1號","121.50049","24.957975","6500600","新店區"
"231056","4715-K9","2019/10/10 20:39:26","新北市新店區中央三街127號","121.524108333333","24.97676","6500600","新店區"
"231067","4772-VM","2019/10/10 20:39:22","新北市新店區安華路28-1號","121.51978","24.9607516666667","6500600","新店區"
"231052","513-UM","2019/10/10 20:39:34","新北市新店區松林路53號","121.54447","24.9113116666667","6500600","新店區"
"231041","619-UM","2019/10/10 20:39:30","新北市新店區中正路541號","121.53348","24.9869083333333","6500600","新店區"
"231063","641-BX","2019/10/10 20:39:29","新北市新店區玫瑰路4-2號","121.49406","24.951115","6500600","新店區"
"231047","KED-0819","2019/10/10 20:39:30","新北市新店區寶元路二段1巷1號","121.550746666667","24.9840283333333","6500600","新店區"
"231057","720-UM","2019/10/10 20:39:21","新北市新店區花園二路一段9-6號","121.556148333333","24.9328433333333","6500600","新店區"
"231059","897-TW","2019/10/10 20:39:30","新北市新店區安豐路46號","121.500165","24.9549316666667","6500600","新店區"
"231040","898-TW","2019/10/10 20:39:31","新北市新店區中正路263號","121.53852","24.973495","6500600","新店區"
"231043","899-TW","2019/10/10 20:39:35","新北市新店區建國路8-1號","121.53994","24.9735116666667","6500600","新店區"
"231066","AKT-0513","2019/10/10 20:39:18","新北市新店區安興路83-3號","121.515225","24.9755083333333","6500600","新店區"
"241011","013-R5","2019/10/10 20:39:34","新北市三重區龍濱路182號","121.501273333333","25.072955","6500200","三重區"
"241028","022-UY","2019/10/10 20:39:21","新北市三重區中正南路50號","121.493961666667","25.0599183333333","6500200","三重區"
"241008","059-VK","2019/10/10 20:39:17","新北市三重區下竹圍街42-1號","121.481066666667","25.0748583333333","6500200","三重區"
"241002","060-VK","2019/10/10 20:39:25","新北市三重區仁義街167巷11號","121.497493333333","25.0817666666667","6500200","三重區"
"241031","061-VK","2019/10/10 20:39:21","新北市三重區重陽路一段43巷30號","121.488161666667","25.0586416666667","6500200","三重區"
"241015","062-VK","2019/10/10 20:39:21","新北市三重區雙園街1號","121.497828333333","25.0684033333333","6500200","三重區"
"241017","063-VK","2019/10/10 20:39:28","新北市三重區大同北路269號","121.490858333333","25.0673466666667","6500200","三重區"
"241024","065-VK","2019/10/10 20:39:31","新北市三重區忠孝路三段28號","121.481311666667","25.0668816666667","6500200","三重區"
"241007","066-VK","2019/10/10 20:39:35","新北市三重區自強路四段34號","121.488753333333","25.0769766666667","6500200","三重區"
"241003","091-VK","2019/10/10 20:39:25","新北市三重區五華街141巷58號","121.493511666667","25.08673","6500200","三重區"
"241006","262-UM","2019/10/10 20:39:34","新北市三重區力行路二段170號","121.48309","25.0768766666667","6500200","三重區"
"241016","266-UM","2019/10/10 20:39:14","新北市三重區長壽西街120號","121.495303333333","25.0669616666667","6500200","三重區"
"241009","267-UM","2019/10/10 20:39:27","新北市三重區碧華街57號","121.484775","25.08134","6500200","三重區"
"241018","268-UM","2019/10/10 20:39:31","新北市三重區自強路一段179號","121.492375","25.067825","6500200","三重區"
"241032","269-UM","2019/10/10 20:39:16","新北市三重區重陽路一段120巷44號","121.48512","25.060145","6500200","三重區"
"241025","271-UM","2019/10/10 20:39:31","新北市三重區頂崁街210巷27號","121.475788333333","25.06813","6500200","三重區"
"241035","KEA-2210","2019/10/10 20:39:30","新北市三重區正義北路374號","121.493486666667","25.0715033333333","6500200","三重區"
"241030","KED-0822","2019/10/10 20:39:30","新北市三重區成功路73巷12號","121.489423333333","25.0518933333333","6500200","三重區"
"241004","475-VK","2019/10/10 20:39:28","新北市三重區仁愛街442號","121.489333333333","25.0819583333333","6500200","三重區"
"241020","478-VK","2019/10/10 20:39:35","新北市三重區忠孝路一段101號","121.489655","25.0721716666667","6500200","三重區"
"241014","543-UM","2019/10/10 20:39:16","新北市三重區萬壽街5號","121.499263333333","25.0692966666667","6500200","三重區"
"241023","545-UM","2019/10/10 20:39:28","新北市三重區自由街39巷2號","121.47875","25.0669616666667","6500200","三重區"
"241001","547-UM","2019/10/10 20:39:22","新北市三重區自強路三段110巷29號","121.485715","25.0745383333333","6500200","三重區"
"241019","KEA-2593","2019/10/10 20:39:21","新北市三重區三張街68號","121.491005","25.0709683333333","6500200","三重區"
"241005","AAD-863","2019/10/10 20:39:31","新北市三重區五華街166號","121.489246666667","25.08597","6500200","三重區"
"241012","743-BX","2019/10/10 20:39:32","新北市三重區秀江街2號","121.502768333333","25.0730833333333","6500200","三重區"
"241022","KED-0820","2019/10/10 20:39:24","新北市三重區貴陽街18-1號","121.48422","25.0619233333333","6500200","三重區"
"241026","887-TS","2019/10/10 20:39:30","新北市三重區和平街1號","121.500041666667","25.0622266666667","6500200","三重區"
"241029","942-UM","2019/10/10 20:39:22","新北市三重區集美街202號","121.491108333333","25.05391","6500200","三重區"
"241033","AAC-255","2019/10/10 20:39:14","新北市三重區光復路二段87巷39弄13號","121.47415","25.0567116666667","6500200","三重區"
"235055","183-VK","2019/10/10 20:39:35","新北市八里區中華路三段35號","121.396125","25.1425966666667","6500300","中和區"
"247016","KEA-2869","2019/10/10 20:39:27","新北市蘆洲區中山二路223號","121.470348333333","25.0802433333333","6501400","蘆洲區"
"247010","KED-0682","2019/10/10 20:39:24","新北市蘆洲區中山一路138號","121.476245","25.081715","6501400","蘆洲區"
"235069","4980-A6","2019/10/10 20:39:30","新北市中和區連城路347巷18弄18號","121.48789","24.9947516666667","6500300","中和區"
"247006","893-R6","2019/10/10 20:39:19","新北市蘆洲區和平路148號","121.466651666667","25.0810733333333","6501400","蘆洲區"
"247020","546-UM","2019/10/10 20:39:33","新北市蘆洲區民族路424號","121.47383","25.0917833333333","6501400","蘆洲區"
"247002","341-TH","2019/10/10 20:39:35","新北市蘆洲區永樂街81號","121.455753333333","25.0885966666667","6501400","蘆洲區"
"247012","337-TH","2019/10/10 20:39:31","新北市蘆洲區集賢路224巷46弄38-1號","121.481328333333","25.0876766666667","6501400","蘆洲區"
"247004","336-TH","2019/10/10 20:39:25","新北市蘆洲區長安街297號","121.45812","25.0848233333333","6501400","蘆洲區"
"247024","057-VK","2019/10/10 20:39:26","新北市蘆洲區長樂路56-2號","121.463076666667","25.086175","6501400","蘆洲區"
"247014","056-VK","2019/10/10 20:39:17","新北市蘆洲區中山一路245號","121.47325","25.0803916666667","6501400","蘆洲區"
"247018","053-VK","2019/10/10 20:39:23","新北市蘆洲區民權路74號","121.474871666667","25.087345","6501400","蘆洲區"
"247022","007-UY","2019/10/10 20:39:30","新北市蘆洲區中正路261號","121.467375","25.0872766666667","6501400","蘆洲區"
"247008","002-UY","2019/10/10 20:39:36","新北市蘆洲區集賢路269巷10號","121.48149","25.0834816666667","6501400","蘆洲區"
"224010","AGQ-8101","2019/10/10 20:39:32","新北市瑞芳區豎崎路18號","121.843545","25.10871","6501200","瑞芳區"
"224009","275-VK","2019/10/10 20:39:30","新北市瑞芳區洞頂路205號","121.860508333333","25.1219733333333","6501200","瑞芳區"
"222001","KEA-2212","2019/10/10 20:39:27","新北市深坑區北深路三段197號","121.601065","25.0037116666667","6501800","深坑區"
"251015","KEA-2871","2019/10/10 20:39:19","新北市淡水區淡金路三段446號","121.450816666667","25.21439","6501000","淡水區"
"251016","179-VK","2019/10/10 20:39:29","新北市淡水區後洲子8-2號","121.449515","25.2240066666667","6501000","淡水區"
"251008","181-VK","2019/10/10 20:39:16","新北市淡水區沙崙路183巷10號","121.424128333333","25.1849483333333","6501000","淡水區"
"251013","182-VK","2019/10/10 20:39:28","新北市淡水區下圭柔山28巷13號","121.457705","25.20391","6501000","淡水區"
"251010","413-VK","2019/10/10 20:39:26","新北市淡水區沙崙路181巷15號","121.423955","25.1843383333333","6501000","淡水區"
"251007","442-VK","2019/10/10 20:39:32","新北市淡水區忠愛街2-1號","121.45588","25.1718133333333","6501000","淡水區"
"251012","443-VK","2019/10/10 20:39:27","新北市淡水區興仁路108號","121.451693333333","25.2181383333333","6501000","淡水區"
"251001","559-UM","2019/10/10 20:39:27","新北市淡水區水源街二段177巷32弄20號","121.455023333333","25.178235","6501000","淡水區"
"251006","561-UM","2019/10/10 20:39:27","新北市淡水區商工路196巷4號","121.451123333333","25.1869033333333","6501000","淡水區"
"251014","577-R6","2019/10/10 20:39:29","新北市淡水區公埔子36號","121.462303333333","25.2323","6501000","淡水區"
"251002","672-BX","2019/10/10 20:39:26","新北市淡水區中正路32號","121.44386","25.1692316666667","6501000","淡水區"
"251003","673-BX","2019/10/10 20:39:15","新北市淡水區新民街152巷6弄22號","121.438743333333","25.1784783333333","6501000","淡水區"
"252002","178-VK","2019/10/10 20:39:18","新北市三芝區淡金路二段47-2號","121.503728333333","25.26052","6502100","三芝區"
"237008","280-TH","2019/10/10 20:30:36","新北市三峽區中山路459巷137號","121.34976","24.9337716666667","6500900","三峽區"
"252001","KED-0821","2019/10/10 20:39:19","新北市三芝區長安街32號","121.501673333333","25.25612","6502100","三芝區"
"242042","AAC-296","2019/10/10 20:39:24","新北市新莊區中正路694巷52號","121.417896666667","25.0291183333333","6500500","新莊區"
"242004","751-BX","2019/10/10 20:39:32","新北市新莊區化成路371巷1號","121.465428333333","25.0571633333333","6500500","新莊區"
"242061","705-TV","2019/10/10 20:39:25","新北市新莊區新樹路258巷3號","121.432138333333","25.01551","6500500","新莊區"
"242029","615-BX","2019/10/10 20:39:25","新北市新莊區中華路二段93號","121.45263","25.0494683333333","6500500","新莊區"
"242027","613-BX","2019/10/10 20:39:33","新北市新莊區思源路303號","121.459816666667","25.048845","6500500","新莊區"
"242058","612-BX","2019/10/10 20:39:18","新北市新莊區四維路129-1號","121.422925","25.02265","6500500","新莊區"
"242048","566-BX","2019/10/10 20:39:33","新北市新莊區中正路879號","121.417971666667","25.0267983333333","6500500","新莊區"
"242053","497-BY","2019/10/10 20:39:19","新北市新莊區西盛街324巷5號","121.427585","25.01472","6500500","新莊區"
"242002","441-UM","2019/10/10 20:39:20","新北市新莊區中正路96號","121.455123333333","25.0366933333333","6500500","新莊區"
"242007","440-UM","2019/10/10 20:39:35","新北市新莊區思源路287巷1弄2號","121.45936","25.047995","6500500","新莊區"
"242044","415-TV","2019/10/10 20:39:31","新北市新莊區龍安路94號","121.417716666667","25.0207533333333","6500500","新莊區"
"242013","413-TV","2019/10/10 20:39:31","新北市新莊區中平路292巷1弄3號","121.445463333333","25.051645","6500500","新莊區"
"242051","400-BY","2019/10/10 20:39:26","新北市新莊區民安西路168號","121.426066666667","25.0160433333333","6500500","新莊區"
"242025","362-BY","2019/10/10 20:39:30","新北市新莊區五工二路50巷23號","121.461663333333","25.06608","6500500","新莊區"
"242023","353-BY","2019/10/10 20:39:21","新北市新莊區化成路414號","121.465926666667","25.0508416666667","6500500","新莊區"
"242015","132-UY","2019/10/10 20:39:24","新北市新莊區中平路82巷36-2號","121.446623333333","25.0448516666667","6500500","新莊區"
"242039","135-UY","2019/10/10 20:39:15","新北市新莊區民安路461號","121.434636666667","25.0224683333333","6500500","新莊區"
"242056","172-VK","2019/10/10 20:39:32","新北市新莊區瓊泰路94巷36號","121.444458333333","25.0294383333333","6500500","新莊區"
"242017","173-VK","2019/10/10 20:39:16","新北市新莊區中港三街129號","121.448423333333","25.04598","6500500","新莊區"
"242031","175-VK","2019/10/10 20:39:22","新北市新莊區三泰路23-5號","121.4364","25.0361233333333","6500500","新莊區"
"242036","348-TH","2019/10/10 20:39:32","新北市新莊區建安街16巷3號","121.428481666667","25.0264033333333","6500500","新莊區"
"242009","349-TH","2019/10/10 20:39:31","新北市新莊區幸福路64巷3弄8號","121.45679","25.05009","6500500","新莊區"
"242034","350-TH","2019/10/10 20:39:28","新北市新莊區中正路334巷25弄47號","121.4453","25.03615","6500500","新莊區"
"242019","351-TH","2019/10/10 20:39:32","新北市新莊區銘德街139號","121.454736666667","25.0428466666667","6500500","新莊區"
"221008","489-VK","2019/10/10 20:39:18","新北市汐止區康寧街511號","121.633125","25.068595","6501100","汐止區"
"221036","130-UY","2019/10/10 20:39:32","新北市汐止區新昌路8號","121.66227","25.0672183333333","6501100","汐止區"
"221015","131-UY","2019/10/10 20:39:19","新北市汐止區建成路37巷1號","121.663741666667","25.07277","6501100","汐止區"
"221012","278-VK","2019/10/10 20:39:31","新北市汐止區保新街153號","121.68829","25.0696133333333","6501100","汐止區"
"221023","279-VK","2019/10/10 20:39:36","新北市汐止區湖東街19號","121.635478333333","25.07228","6501100","汐止區"
"221032","280-BY","2019/10/10 20:39:18","新北市汐止區弘道街53巷30弄2號","121.61888","25.05001","6501100","汐止區"
"221029","298-VK","2019/10/10 20:39:36","新北市汐止區大同路一段509號","121.645211666667","25.0624016666667","6501100","汐止區"
"221021","299-VK","2019/10/10 20:39:34","新北市汐止區水源路一段293號","121.654316666667","25.0582066666667","6501100","汐止區"
"221031","353-TW","2019/10/10 20:39:29","新北市汐止區中興路110巷34號","121.634293333333","25.0646433333333","6501100","汐止區"
"221035","622-UM","2019/10/10 20:39:28","新北市汐止區長江街101-5號","121.658728333333","25.0731616666667","6501100","汐止區"
"221025","623-UM","2019/10/10 20:39:23","新北市汐止區水源路二段185號","121.657728333333","25.05355","6501100","汐止區"
"221038","646-BX","2019/10/10 20:39:26","新北市汐止區龍安路28巷30號","121.654136666667","25.0643566666667","6501100","汐止區"
"221033","647-BX","2019/10/10 20:39:14","新北市汐止區合順街18巷8弄5號","121.620358333333","25.0419216666667","6501100","汐止區"
"221002","707-TV","2019/10/10 20:39:20","新北市汐止區福德二路138號","121.630778333333","25.065175","6501100","汐止區"
"221018","753-BX","2019/10/10 20:39:28","新北市汐止區茄苳路85號","121.666821666667","25.07066","6501100","汐止區"
"220083","286-VK","2019/10/10 20:39:33","新北市板橋區僑中二街106巷22-2號","121.444928333333","25.0077383333333","6500100","板橋區"
"220084","296-UM","2019/10/10 20:39:18","新北市八里區下罟子5-11號","121.386291666667","25.14565","6500100","板橋區"
"242046","281-VK","2019/10/10 20:39:26","新北市新莊區裕民街53號","121.418821666667","25.0246883333333","6500500","新莊區"
"242011","280-VK","2019/10/10 20:39:28","新北市新莊區中榮街75-2號","121.445806666667","25.052765","6500500","新莊區"
"220057","686-BX","2019/10/10 20:39:14","新北市板橋區板城路407號","121.447306666667","24.9949566666667","6500100","板橋區"
"220067","831-TW","2019/10/10 20:39:16","新北市林口區太平里180號","121.367021666667","25.1350366666667","6500100","板橋區"
