"lineid","car","time","location","longitude","latitude","cityid","cityname"
"251004","009-UM","2019/10/10 21:49:21","新北市淡水區自強路201巷39號","121.46219","25.126775","6501000","淡水區"
"251005","010-UM","2019/10/10 21:49:27","新北市淡水區鄧公路29巷30號","121.452593333333","25.16986","6501000","淡水區"
"251015","KEA-2871","2019/10/10 21:49:19","新北市淡水區下圭柔山90-8號","121.431338333333","25.21018","6501000","淡水區"
"251008","181-VK","2019/10/10 21:49:16","新北市淡水區水源街二段62號","121.451053333333","25.174145","6501000","淡水區"
"251010","413-VK","2019/10/10 21:49:26","新北市淡水區中正路二段211號","121.426203333333","25.1891233333333","6501000","淡水區"
"251007","442-VK","2019/10/10 21:49:31","新北市淡水區水源街二段177巷100號","121.452155","25.17727","6501000","淡水區"
"251012","443-VK","2019/10/10 21:49:27","新北市淡水區淡金路三段323號","121.449046666667","25.2060066666667","6501000","淡水區"
"251001","559-UM","2019/10/10 21:49:27","新北市淡水區新市二路三段152號","121.43535","25.194245","6501000","淡水區"
"251006","561-UM","2019/10/10 21:49:29","新北市淡水區中正路11巷3號","121.437893333333","25.1707316666667","6501000","淡水區"
"251011","650-BX","2019/10/10 21:49:24","新北市淡水區新民街322巷9號","121.436331666667","25.1827983333333","6501000","淡水區"
"251002","672-BX","2019/10/10 21:49:26","新北市淡水區大忠街115號","121.446826666667","25.1773133333333","6501000","淡水區"
"251003","673-BX","2019/10/10 21:49:14","新北市淡水區新春街83號","121.438821666667","25.182485","6501000","淡水區"
