"lineid","car","time","location","longitude","latitude","cityid","cityname"
"222005","289-BY","2019/12/24 09:13:40","新北市深坑區王軍寮3-3號","121.61759","24.9844633333333","6501800","深坑區"
"231007","189-VK","2019/12/24 09:13:24","新北市新店區新潭路二段80號","121.518283333333","24.9252566666667","6500600","新店區"
"231009","192-VK","2019/12/24 09:13:23","新北市新店區平廣路一段73號","121.531768333333","24.8995316666667","6500600","新店區"
"223003","205-TH","2019/12/24 09:13:33","新北市石碇區北宜路五段76號","121.64526","24.9523333333333","6501900","石碇區"
"223008","406-TH","2019/12/24 09:13:31","新北市石碇區光明路13號","121.680115","25.033635","6501900","石碇區"
"223001","592-UM","2019/12/24 09:13:28","新北市石碇區北宜路五段76號","121.645258333333","24.9522916666667","6501900","石碇區"
"223004","660-BX","2019/12/24 09:13:34","新北市石碇區磨石坑24號","121.690088333333","24.9735166666667","6501900","石碇區"
"223007","661-BX","2019/12/24 09:13:26","新北市石碇區光明路7號","121.677005","25.02762","6501900","石碇區"
"223005","677-TV","2019/12/24 09:13:22","新北市石碇區磨石坑33號","121.6923","24.96835","6501900","石碇區"
"227004","282-VK","2019/12/24 09:13:22","新北市雙溪區上林里內平林125號","121.823796666667","25.027645","6502500","雙溪區"
"227006","030-BX","2019/12/24 09:01:24","新北市雙溪區泰平里料角坑34號","121.799801666667","24.9735983333333","6502500","雙溪區"
"252004","249-BX","2019/12/24 09:13:28","新北市三芝區興華里田心子20-8號","121.494108333333","25.201285","6502100","三芝區"
"252007","AAC-283","2019/12/24 09:13:34","新北市三芝區錫板里南勢崗5-1號","121.480325","25.2626033333333","6502100","三芝區"
