"lineid","car","time","location","longitude","latitude","cityid","cityname"
"222005","289-BY","2019/12/24 09:43:40","新北市深坑區阿柔洋61號","121.607148333333","24.9978116666667","6501800","深坑區"
"231007","189-VK","2019/12/24 09:43:44","新北市新店區新潭路三段215巷26號","121.507848333333","24.9037866666667","6500600","新店區"
"231009","192-VK","2019/12/24 09:43:23","新北市新店區廣興路136號","121.535531666667","24.9105633333333","6500600","新店區"
"227004","282-VK","2019/12/24 09:43:42","新北市雙溪區長源里柑腳52-2號","121.794646666667","25.0089366666667","6502500","雙溪區"
"227006","030-BX","2019/12/24 09:43:24","新北市坪林區鷺鶿岫3號","121.782405","24.9580233333333","6502500","雙溪區"
"252004","249-BX","2019/12/24 09:41:28","新北市三芝區圓山里石曹子坑68-2號","121.523816666667","25.2165033333333","6502100","三芝區"
"252007","AAC-283","2019/12/24 09:43:34","新北市三芝區新庄里新庄子113-8號","121.51648","25.2664283333333","6502100","三芝區"
