"lineid","car","time","location","longitude","latitude","cityid","cityname"
"234044","148-BY","2019/12/24 12:59:42","新北市永和區得和路373巷29號","121.525063333333","25.00028","6500400","永和區"
"234078","298-R6","2019/12/24 12:59:38","新北市永和區永亨路59號","121.52093","25.0061783333333","6500400","永和區"
"234036","336-UY","2019/12/24 12:59:39","新北市永和區成功路二段199-2號","121.526543333333","24.9960383333333","6500400","永和區"
"234062","337-UY","2019/12/24 12:59:34","新北市永和區秀朗路一段146號","121.518265","25.0035","6500400","永和區"
"234084","338-UY","2019/12/24 12:59:39","新北市永和區永寧街129巷2號","121.518003333333","25.00535","6500400","永和區"
"234068","552-UM","2019/12/24 12:59:43","新北市永和區竹林路96巷21號","121.518645","25.0117066666667","6500400","永和區"
"234015","745-BX","2019/12/24 12:59:39","新北市永和區永和路二段299號","121.516093333333","25.0160983333333","6500400","永和區"
"234028","746-BX","2019/12/24 12:59:28","新北市永和區秀朗路二段260號","121.526145","24.9985433333333","6500400","永和區"
"234052","KEA-2590","2019/12/24 12:59:30","新北市永和區竹林路64號","121.518298333333","25.013515","6500400","永和區"
"234005","KED-0605","2019/12/24 12:59:38","新北市永和區中山路一段50號","121.513215","25.0106483333333","6500400","永和區"
"234012","KEA-2591","2019/12/24 12:59:37","新北市永和區信義路15號","121.514366666667","25.0120216666667","6500400","永和區"
"234060","AAD-866","2019/12/24 12:59:41","新北市永和區福和路309巷5號","121.516246666667","25.006935","6500400","永和區"
"234040","862-TW","2019/12/24 12:59:22","新北市永和區永貞路308號","121.511795","25.00485","6500400","永和區"
"234048","863-TW","2019/12/24 12:59:38","新北市永和區文化路190號","121.51093","25.0161166666667","6500400","永和區"
"234025","9371-KE","2019/12/24 12:59:44","新北市永和區水源街2巷22號","121.512115","25.0056516666667","6500400","永和區"
"234010","9381-KE","2019/12/24 12:59:40","新北市永和區仁愛路40巷9弄4號","121.51381","25.0141233333333","6500400","永和區"
"248017","KED-0813","2019/12/24 12:59:31","新北市五股區中興路二段63巷17號","121.460288333333","25.0753066666667","6501500","五股區"
"234022","9380-KE","2019/12/24 12:59:39","新北市永和區竹林路75巷15-2號","121.519785","25.013845","6500400","永和區"
"234076","969-R7","2019/12/24 12:59:27","新北市永和區民享街16號","121.515345","24.9951466666667","6500400","永和區"
"234066","AAC-212","2019/12/24 12:59:25","新北市永和區自由街47號","121.513988333333","25.0060066666667","6500400","永和區"
"234001","AAC-295","2019/12/24 12:59:33","新北市永和區永平路28號","121.51323","25.0088233333333","6500400","永和區"
"231029","106-UY","2019/12/24 12:59:24","新北市新店區安華路28-1號","121.51958","24.9608433333333","6500600","新店區"
"231036","110-UY","2019/12/24 12:59:30","新北市新店區安一路一段1-1號","121.519458333333","24.961175","6500600","新店區"
"231015","KEA-2219","2019/12/24 12:59:23","新北市新店區安一路一段1-1號","121.519826666667","24.9612983333333","6500600","新店區"
"231032","256-BX","2019/12/24 12:59:35","新北市新店區安一路一段1-1號","121.519671666667","24.961205","6500600","新店區"
"231023","260-TV","2019/12/24 12:59:38","新北市新店區安一路一段1-1號","121.519305","24.961185","6500600","新店區"
"231003","268-BY","2019/12/24 12:59:29","新北市新店區安一路一段1-1號","121.519651666667","24.9613233333333","6500600","新店區"
"231035","278-BY","2019/12/24 12:59:20","新北市新店區安一路一段1-1號","121.519863333333","24.9611833333333","6500600","新店區"
"231020","515-UM","2019/12/24 12:59:32","新北市新店區安一路一段1-1號","121.519291666667","24.961115","6500600","新店區"
"231002","619-UM","2019/12/24 12:59:37","新北市新店區安華路28-1號","121.51946","24.9607083333333","6500600","新店區"
"231010","719-UM","2019/12/24 12:59:37","新北市新店區安一路一段1-1號","121.519601666667","24.9613216666667","6500600","新店區"
"231026","720-UM","2019/12/24 12:59:24","新北市新店區安一路一段1-1號","121.519261666667","24.9612016666667","6500600","新店區"
"235028","005-UY","2019/12/24 12:59:36","新北市中和區錦和路350-1號","121.49055","24.9935683333333","6500300","中和區"
"235027","006-UY","2019/12/24 12:59:36","新北市中和區員山路36巷16-3號","121.485026666667","24.9912483333333","6500300","中和區"
"235029","098-UM","2019/12/24 12:59:31","新北市中和區橋和路328號","121.498121666667","25.0074833333333","6500300","中和區"
"235022","151-BY","2019/12/24 12:59:21","新北市中和區圓通路367巷33弄61號","121.49586","24.9861366666667","6500300","中和區"
"235002","185-VK","2019/12/24 12:59:26","新北市中和區成功路54號","121.525993333333","24.99252","6500300","中和區"
"235031","255-BX","2019/12/24 12:59:31","新北市中和區中山路二段550號","121.483848333333","25.0053483333333","6500300","中和區"
"235035","301-VK","2019/12/24 12:59:38","新北市中和區建一路120號","121.488133333333","25.0001633333333","6500300","中和區"
"235034","558-UM","2019/12/24 12:59:42","新北市中和區員山路36巷16-8號","121.485393333333","24.9922783333333","6500300","中和區"
"235009","565-BX","2019/12/24 12:59:32","新北市中和區員山路36巷13號","121.48413","24.991045","6500300","中和區"
"235018","640-BX","2019/12/24 12:59:37","新北市土城區金城路三段259-1號","121.47198","24.99011","6500300","中和區"
"235011","732-UM","2019/12/24 12:59:24","新北市中和區員山路36巷16-3號","121.484895","24.9911616666667","6500300","中和區"
"235021","801-TS","2019/12/24 12:59:28","新北市中和區員山路36巷16-3號","121.485205","24.9912366666667","6500300","中和區"
"235005","802-TS","2019/12/24 12:59:40","新北市中和區和城路一段271巷1號","121.485458333333","24.9917016666667","6500300","中和區"
"235015","157-BY","2019/12/24 12:59:39","新北市中和區中正路571巷2弄7號","121.486313333333","24.9935433333333","6500300","中和區"
"235001","AAC-213","2019/12/24 12:59:26","新北市中和區景平路151號","121.51365","24.9919933333333","6500300","中和區"
"223001","592-UM","2019/12/24 12:59:23","新北市新店區安興路141號","121.516556666667","24.979295","6501900","石碇區"
"228004","212-TW","2019/12/24 12:59:26","新北市貢寮區吉林里內寮街10號","121.8882","24.9900283333333","6502600","貢寮區"
"228005","828-UM","2019/12/24 12:59:35","新北市貢寮區福隆里桂安街1-1號","121.955068333333","25.0205883333333","6502600","貢寮區"
"207002","749-BX","2019/12/24 12:59:30","新北市萬里區雙興里大坪路37-1號","121.627778333333","25.1703666666667","6502800","萬里區"
"207001","662-BX","2019/12/24 12:59:32","新北市萬里區萬里里獅頭路22-1號","121.69308","25.178295","6502800","萬里區"
"235025","KEA-2875","2019/12/24 12:59:29","新北市中和區員山路36巷16-2號","121.485255","24.9916716666667","6500300","中和區"
