"lineid","car","time","location","longitude","latitude","cityid","cityname"
"234025","9371-KE","2019/12/24 14:59:23","新北市永和區水源街27巷8號","121.511241666667","25.0039366666667","6500400","永和區"
"248017","KED-0813","2019/12/24 14:59:31","新北市五股區登林路108號","121.427048333333","25.07078","6501500","五股區"
"244002","248-BX","2019/12/24 14:59:38","新北市林口區南勢里34-8號","121.35254","25.0701366666667","6501700","林口區"
"231030","002-UM","2019/12/24 14:59:31","新北市新店區安興路81號","121.515411666667","24.9754633333333","6500600","新店區"
"231027","0293-UT","2019/12/24 14:59:37","新北市新店區三民路171號","121.534798333333","24.97487","6500600","新店區"
"231005","046-UY","2019/12/24 14:59:38","新北市新店區建國路299號","121.537348333333","24.9868733333333","6500600","新店區"
"231029","106-UY","2019/12/24 14:59:24","新北市新店區錦秀路11巷88號","121.480526666667","24.9433316666667","6500600","新店區"
"231018","107-UY","2019/12/24 14:59:31","新北市新店區中央路192號","121.530881666667","24.9746183333333","6500600","新店區"
"231013","108-UY","2019/12/24 14:59:34","新北市新店區北新路一段311號","121.541535","24.967875","6500600","新店區"
"231036","110-UY","2019/12/24 14:59:30","新北市新店區安祥路102巷21號","121.484736666667","24.9645716666667","6500600","新店區"
"231015","KEA-2219","2019/12/24 14:59:43","新北市新店區北宜路三段214-1號","121.590526666667","24.952465","6500600","新店區"
"231032","256-BX","2019/12/24 14:59:35","新北市新店區安康路二段335號","121.498786666667","24.9562166666667","6500600","新店區"
"231023","260-TV","2019/12/24 14:59:38","新北市新店區檳榔路109號","121.544248333333","24.9617466666667","6500600","新店區"
"231003","268-BY","2019/12/24 14:59:29","新北市新店區中興路二段190號","121.548326666667","24.973165","6500600","新店區"
"231035","278-BY","2019/12/24 14:59:40","新北市新店區新和街59巷1號","121.519938333333","24.9854833333333","6500600","新店區"
"231006","355-BY","2019/12/24 14:59:42","新北市新店區北宜路一段41號","121.538281666667","24.9572833333333","6500600","新店區"
"231038","3712-VJ","2019/12/24 14:59:35","新北市新店區安華路28-1號","121.519648333333","24.9608","6500600","新店區"
"231024","4716-K9","2019/12/24 14:59:29","新北市新店區力行路54號","121.538711666667","24.9655866666667","6500600","新店區"
"231025","4715-K9","2019/12/24 14:59:28","新北市新店區建國路218號","121.537986666667","24.9810633333333","6500600","新店區"
"231039","512-UM","2019/12/24 14:59:37","新北市新店區中興路三段88號","121.545348333333","24.9787716666667","6500600","新店區"
"231020","515-UM","2019/12/24 14:59:32","新北市新店區桂山路2-1號","121.55573","24.9041016666667","6500600","新店區"
"231034","616-UM","2019/12/24 14:59:38","新北市新店區玫瑰路4-1號","121.493558333333","24.9514633333333","6500600","新店區"
"231001","617-UM","2019/12/24 14:59:32","新北市新店區中正路270號","121.53897","24.9735816666667","6500600","新店區"
"231002","619-UM","2019/12/24 14:59:37","新北市新店區民權路149號","121.534606666667","24.982635","6500600","新店區"
"231012","KED-0819","2019/12/24 14:59:34","新北市新店區寶橋路85巷70號","121.544596666667","24.9770116666667","6500600","新店區"
"231026","720-UM","2019/12/24 14:59:37","新北市新店區中正路174號","121.541208333333","24.9720316666667","6500600","新店區"
"231028","897-TW","2019/12/24 14:59:25","新北市新店區安德街167號","121.508568333333","24.9592133333333","6500600","新店區"
"231004","899-TW","2019/12/24 14:59:31","新北市新店區民族路14-1號","121.541431666667","24.97876","6500600","新店區"
"231037","AKT-0513","2019/12/24 14:59:24","新北市新店區安民街337號","121.517143333333","24.9749583333333","6500600","新店區"
"235030","003-UY","2019/12/24 14:59:32","新北市中和區光華街22號","121.504486666667","25.0042633333333","6500300","中和區"
"235036","KEE-1103","2019/12/24 14:59:39","新北市中和區中山路二段80號","121.503606666667","25.0043866666667","6500300","中和區"
"235020","096-UM","2019/12/24 14:59:23","新北市中和區中山路三段165號","121.473238333333","25.00627","6500300","中和區"
"235003","097-UM","2019/12/24 14:59:27","新北市中和區安樂路217巷40弄1號","121.513363333333","24.9979066666667","6500300","中和區"
"235004","150-BY","2019/12/24 14:59:25","新北市中和區保健路10巷14號","121.507668333333","24.99687","6500300","中和區"
"235035","301-VK","2019/12/24 14:59:37","新北市中和區中正路776號","121.48507","25.0003616666667","6500300","中和區"
"235007","352-BY","2019/12/24 14:59:36","新北市中和區興南路二段159巷1號","121.505158333333","24.9832966666667","6500300","中和區"
"235014","4979-A6","2019/12/24 14:59:32","新北市中和區景平路153號","121.513525","24.9916983333333","6500300","中和區"
"235033","4980-A6","2019/12/24 14:59:41","新北市中和區景新街70號","121.504303333333","24.9989566666667","6500300","中和區"
"235032","551-UM","2019/12/24 14:59:25","新北市中和區連城路289號","121.490221666667","24.9963216666667","6500300","中和區"
"235010","733-UM","2019/12/24 14:59:29","新北市中和區忠孝街31巷40號","121.509895","24.9849216666667","6500300","中和區"
"235012","896-TW","2019/12/24 14:59:26","新北市中和區忠孝街1巷2-1號","121.509186666667","24.983045","6500300","中和區"
"235015","157-BY","2019/12/24 14:59:38","新北市中和區捷運路6號","121.510036666667","24.9894166666667","6500300","中和區"
"235001","AAC-213","2019/12/24 14:59:26","新北市中和區自強路60號","121.52006","24.99449","6500300","中和區"
"235023","AAC-215","2019/12/24 14:59:37","新北市中和區圓通路335巷1弄1號","121.492106666667","24.9903783333333","6500300","中和區"
"220002","015-TV","2019/12/24 14:59:32","新北市板橋區忠孝路201巷29號","121.464946666667","25.0034216666667","6500100","板橋區"
"220013","072-UY","2019/12/24 14:59:27","新北市板橋區海山路39號","121.467226666667","25.0096866666667","6500100","板橋區"
"220105","075-UY","2019/12/24 14:59:43","新北市板橋區民治街126巷5號","121.477756666667","25.0312233333333","6500100","板橋區"
"228004","212-TW","2019/12/24 14:59:26","新北市貢寮區福隆里興隆街100巷7號","121.937351666667","25.0183083333333","6502600","貢寮區"
"207002","749-BX","2019/12/24 14:59:38","新北市萬里區崁腳里崁腳路73號","121.647563333333","25.1595583333333","6502800","萬里區"
"207001","662-BX","2019/12/24 14:59:32","新北市萬里區雙興里二坪路10號","121.647283333333","25.1754566666667","6502800","萬里區"
"252005","AAC-283","2019/12/24 14:59:32","新北市三芝區埔坪里埔頭坑122-1號","121.518963333333","25.2449483333333","6502100","三芝區"
"236040","KED-0685","2019/12/24 14:59:43","新北市土城區裕民路214巷13號","121.452833333333","24.983645","6501300","土城區"
"220110","KED-0812","2019/12/24 14:59:40","新北市板橋區四維路232號","121.463668333333","25.0278066666667","6500100","板橋區"
"236074","166-UM","2019/12/24 14:59:38","新北市土城區中央路四段53-1號","121.417521666667","24.9585216666667","6501300","土城區"
"236029","253-BX","2019/12/24 14:59:29","新北市土城區中央路二段180巷14號","121.441141666667","24.9766783333333","6501300","土城區"
"236024","269-VK","2019/12/24 14:59:22","新北市土城區中正路74巷6弄1號","121.444796666667","24.97466","6501300","土城區"
"236013","270-VK","2019/12/24 14:59:23","新北市土城區立德路13巷22號","121.461595","24.98879","6501300","土城區"
"236032","271-VK","2019/12/24 14:59:41","新北市土城區清水路136號","121.458591666667","24.98153","6501300","土城區"
"236065","KEA-2877","2019/12/24 14:59:37","新北市土城區裕生路71號","121.447121666667","24.9847066666667","6501300","土城區"
"236017","401-BY","2019/12/24 14:59:44","新北市土城區延吉街217巷9弄2號","121.46887","24.9844966666667","6501300","土城區"
"236057","912-UM","2019/12/24 14:59:27","新北市土城區明德路一段385-1號","121.453148333333","24.980465","6501300","土城區"
"236045","913-UM","2019/12/24 14:59:32","新北市土城區明德路一段365-1號","121.453653333333","24.9790983333333","6501300","土城區"
"236060","915-UM","2019/12/24 14:59:39","新北市土城區金城路三段93巷6號","121.466983333333","24.9878883333333","6501300","土城區"
"236054","AAC-216","2019/12/24 14:59:29","新北市土城區學成路164號","121.448093333333","24.9890766666667","6501300","土城區"
"220027","145-BY","2019/12/24 14:59:43","新北市板橋區建國街32巷1號","121.457781666667","25.0168916666667","6500100","板橋區"
"220028","200-UY","2019/12/24 14:59:27","新北市板橋區大觀路二段163巷1號","121.445723333333","25.0005233333333","6500100","板橋區"
"220030","610-BX","2019/12/24 14:59:35","新北市板橋區存德街9號","121.429993333333","24.991965","6500100","板橋區"
"220050","245-BX","2019/12/24 14:59:37","新北市板橋區雙十路二段47巷2弄25號","121.475161666667","25.0269183333333","6500100","板橋區"
"220004","276-BY","2019/12/24 14:59:37","新北市板橋區四川路二段47巷2弄1號","121.454118333333","24.9948516666667","6500100","板橋區"
"220020","277-BY","2019/12/24 14:59:38","新北市板橋區金門街109巷22號","121.434061666667","24.991625","6500100","板橋區"
"220019","283-VK","2019/12/24 14:59:40","新北市板橋區五權街30巷24弄29號","121.463723333333","24.993785","6500100","板橋區"
"220043","285-UM","2019/12/24 14:59:25","新北市板橋區文化路一段106號","121.464753333333","25.01817","6500100","板橋區"
"220001","285-VK","2019/12/24 14:59:32","新北市板橋區永豐街155號","121.475368333333","25.02024","6500100","板橋區"
"220107","286-VK","2019/12/24 14:59:38","新北市板橋區大觀路一段38巷156弄168號","121.444235","25.009525","6500100","板橋區"
"220029","287-VK","2019/12/24 14:59:26","新北市板橋區僑中一街80巷14弄2號","121.448243333333","25.013475","6500100","板橋區"
"220009","293-UM","2019/12/24 14:59:29","新北市板橋區中山路一段1號","121.459595","25.007435","6500100","板橋區"
"220041","295-UM","2019/12/24 14:59:38","新北市板橋區文化路一段99號","121.461456666667","25.0144433333333","6500100","板橋區"
"220023","303-R5","2019/12/24 14:59:23","新北市板橋區金華街1號","121.45553","25.0200666666667","6500100","板橋區"
"220010","305-R5","2019/12/24 14:59:26","新北市板橋區中山路二段318巷4號","121.480113333333","25.01918","6500100","板橋區"
"220047","317-R6","2019/12/24 14:59:32","新北市板橋區新海路385巷12號","121.458423333333","25.0257666666667","6500100","板橋區"
"220037","491-VK","2019/12/24 14:59:34","新北市板橋區懷德街70-1號","121.477583333333","25.0322566666667","6500100","板橋區"
"220104","560-BX","2019/12/24 14:59:29","新北市板橋區新生街53巷14號","121.45761","25.0214983333333","6500100","板橋區"
"220052","561-BX","2019/12/24 14:59:34","新北市板橋區漢生西路40號","121.463285","25.01835","6500100","板橋區"
"220109","609-BX","2019/12/24 14:59:39","新北市板橋區三民路一段31巷1號","121.479221666667","25.02314","6500100","板橋區"
"220040","637-BX","2019/12/24 14:59:40","新北市板橋區懷德街174巷12號","121.478843333333","25.0294366666667","6500100","板橋區"
"220005","686-BX","2019/12/24 14:59:28","新北市板橋區四川路二段245巷36號","121.4516","24.9927083333333","6500100","板橋區"
"220025","687-BX","2019/12/24 14:59:37","新北市板橋區僑中一街104號","121.446558333333","25.0116516666667","6500100","板橋區"
"220111","689-BX","2019/12/24 14:59:40","新北市板橋區長江路二段192號","121.467278333333","25.0321166666667","6500100","板橋區"
"220051","KEA-2699","2019/12/24 14:59:39","新北市板橋區文化路一段368號","121.469603333333","25.0235633333333","6500100","板橋區"
"220003","827-TW","2019/12/24 14:59:23","新北市板橋區仁愛路76巷3弄2號","121.460621666667","24.9990083333333","6500100","板橋區"
"220014","829-TW","2019/12/24 14:59:35","新北市板橋區中山路一段206巷109號","121.472788333333","25.0136716666667","6500100","板橋區"
"220016","830-TW","2019/12/24 14:59:32","新北市板橋區中山路二段398號","121.482581666667","25.0206783333333","6500100","板橋區"
"220022","895-R6","2019/12/24 14:59:36","新北市板橋區文化路一段46巷52號","121.460805","25.0109066666667","6500100","板橋區"
"220108","985-R7","2019/12/24 14:59:35","新北市板橋區南雅西路二段92號","121.452411666667","25.01123","6500100","板橋區"
"220046","AAC-210","2019/12/24 14:59:35","新北市板橋區光正街45巷6弄7號","121.461403333333","25.01703","6500100","板橋區"
"220012","AAC-253","2019/12/24 14:59:29","新北市板橋區民族路223號","121.469501666667","25.0072333333333","6500100","板橋區"
