"lineid","car","time","location","longitude","latitude","cityid","cityname"
"234046","148-BY","2019/12/24 18:59:34","新北市永和區得和路373巷31弄4號","121.524901666667","25.0005333333333","6500400","永和區"
"234081","298-R6","2019/12/24 18:59:37","新北市永和區永亨路83號","121.522025","25.0056966666667","6500400","永和區"
"234038","336-UY","2019/12/24 18:59:29","新北市永和區成功路二段207號","121.526576666667","24.9959316666667","6500400","永和區"
"234064","337-UY","2019/12/24 18:59:29","新北市永和區秀朗路一段146號","121.518221666667","25.0032383333333","6500400","永和區"
"234086","338-UY","2019/12/24 18:59:24","新北市永和區永寧街131巷2號","121.518033333333","25.0051066666667","6500400","永和區"
"234070","552-UM","2019/12/24 18:59:30","新北市永和區中興街84巷8號","121.518526666667","25.0116683333333","6500400","永和區"
"234017","745-BX","2019/12/24 18:59:29","新北市永和區永和路二段293號","121.516073333333","25.01594","6500400","永和區"
"234030","746-BX","2019/12/24 18:59:33","新北市永和區秀朗路二段279號","121.526255","24.9982683333333","6500400","永和區"
"234054","KEA-2590","2019/12/24 18:59:39","新北市永和區竹林路66巷15-7號","121.518281666667","25.0132666666667","6500400","永和區"
"234007","KED-0605","2019/12/24 18:59:45","新北市永和區中山路一段66號","121.51265","25.0108166666667","6500400","永和區"
"234061","AAD-866","2019/12/24 18:59:22","新北市永和區福和路305號","121.516335","25.007155","6500400","永和區"
"234042","862-TW","2019/12/24 18:59:42","新北市永和區永貞路310號","121.511778333333","25.0049066666667","6500400","永和區"
"234050","863-TW","2019/12/24 18:59:41","新北市永和區文化路194號","121.510761666667","25.0162266666667","6500400","永和區"
"234026","9371-KE","2019/12/24 18:59:43","新北市永和區安樂路451號","121.514303333333","25.0049566666667","6500400","永和區"
"234011","9373-KE","2019/12/24 18:59:30","新北市永和區仁愛路141巷3弄3號","121.51177","25.01243","6500400","永和區"
"249005","172-UM","2019/12/24 18:59:31","新北市八里區長道坑5-2號","121.393758333333","25.1226366666667","6502300","八里區"
"249001","173-UM","2019/12/24 18:59:30","新北市八里區龍米路二段228-1號","121.432753333333","25.15845","6502300","八里區"
"249002","305-UY","2019/12/24 18:59:40","新北市八里區頂寮二街138號","121.449325","25.1294533333333","6502300","八里區"
"248016","026-BX","2019/12/24 18:59:26","新北市五股區成泰路三段543巷12弄11號","121.45132","25.1023783333333","6501500","五股區"
"248006","077-UY","2019/12/24 18:59:32","新北市蘆洲區中山二路300巷1號","121.46848","25.0766583333333","6501500","五股區"
"248008","KED-0815","2019/12/24 18:59:35","新北市五股區中興路一段128巷38號","121.46579","25.0753516666667","6501500","五股區"
"248020","KED-0813","2019/12/24 18:59:21","新北市五股區凌雲路三段57號","121.425311666667","25.1249833333333","6501500","五股區"
"248010","272-BY","2019/12/24 18:59:29","新北市五股區水碓一路23號","121.430555","25.0713","6501500","五股區"
"248004","677-BX","2019/12/24 18:59:26","新北市五股區民義路二段118號","121.402803333333","25.1140933333333","6501500","五股區"
"248002","678-BX","2019/12/24 18:59:29","新北市五股區凌雲路一段140號","121.449481666667","25.1022383333333","6501500","五股區"
"234023","9380-KE","2019/12/24 18:59:34","新北市永和區竹林路75巷33弄3號","121.520555","25.014295","6500400","永和區"
"234077","969-R7","2019/12/24 18:59:27","新北市永和區得和路104巷16號","121.517938333333","24.999535","6500400","永和區"
"234074","AAC-211","2019/12/24 18:59:27","新北市永和區環河東路二段100號","121.524115","25.010325","6500400","永和區"
"234067","AAC-212","2019/12/24 18:59:38","新北市永和區自由街62號","121.513726666667","25.00579","6500400","永和區"
"234003","AAC-295","2019/12/24 18:59:29","新北市永和區和平街38號","121.51295","25.0099816666667","6500400","永和區"
"244019","402-UM","2019/12/24 18:59:35","新北市林口區文化一路一段166號","121.377101666667","25.07396","6501700","林口區"
"244013","KEA-2802","2019/12/24 18:59:32","新北市林口區文化一路一段126號","121.375665","25.0724016666667","6501700","林口區"
"244023","483-VK","2019/12/24 18:59:37","新北市林口區民權路110號","121.373785","25.08283","6501700","林口區"
"244017","485-VK","2019/12/24 18:59:38","新北市林口區公園路131巷131-1號","121.369128333333","25.0706383333333","6501700","林口區"
"244009","657-BX","2019/12/24 18:59:25","新北市林口區林口路83-1號","121.389573333333","25.0799866666667","6501700","林口區"
"244011","701-TV","2019/12/24 18:59:34","新北市林口區竹林路51號","121.387388333333","25.0781033333333","6501700","林口區"
"244025","837-TS","2019/12/24 18:59:36","新北市林口區文化北路一段396-2號","121.363623333333","25.0754583333333","6501700","林口區"
"208001","267-VK","2019/12/24 18:59:26","新北市金山區民生路51巷1-2號","121.641976666667","25.2202333333333","6502700","金山區"
"243012","AAD-798","2019/12/24 18:59:44","新北市泰山區福興三街26號","121.434128333333","25.0576433333333","6501600","泰山區"
"243010","297-R6","2019/12/24 18:59:26","新北市泰山區辭修路26巷14號","121.429246666667","25.0585666666667","6501600","泰山區"
"243016","421-VK","2019/12/24 18:59:32","新北市泰山區明志路二段135號","121.427648333333","25.0507866666667","6501600","泰山區"
"243009","KEA-2215","2019/12/24 18:59:33","新北市泰山區泰林路二段362號","121.428708333333","25.0636233333333","6501600","泰山區"
"243011","KEA-2216","2019/12/24 18:59:29","新北市泰山區明志路230號","121.427128333333","25.0482016666667","6501600","泰山區"
"243013","646-TV","2019/12/24 18:59:34","新北市泰山區明志路三段249號","121.423445","25.0374933333333","6501600","泰山區"
"243015","680-BX","2019/12/24 18:59:26","新北市泰山區美寧街46號","121.430565","25.0643033333333","6501600","泰山區"
"222003","KEE-1106","2019/12/24 18:59:41","新北市深坑區深南路88巷1號","121.621418333333","25.0107883333333","6501800","深坑區"
"222002","659-BX","2019/12/24 18:59:42","新北市深坑區文山路一段33號","121.62962","25.004045","6501800","深坑區"
"231061","002-UM","2019/12/24 18:59:37","新北市新店區安華路30巷3號","121.518775","24.95848","6500600","新店區"
"231058","0293-UT","2019/12/24 18:59:24","新北市新店區中興路一段196號","121.543506666667","24.9652233333333","6500600","新店區"
"231044","046-UY","2019/12/24 18:59:28","新北市新店區寶中路72號","121.547815","24.9805916666667","6500600","新店區"
"231060","106-UY","2019/12/24 18:59:33","新北市新店區安華路16號","121.516506666667","24.9580033333333","6500600","新店區"
"231051","107-UY","2019/12/24 18:59:43","新北市新店區中央路19號","121.533281666667","24.97821","6500600","新店區"
"231049","108-UY","2019/12/24 18:59:32","新北市新店區中正路418巷21號","121.535008333333","24.978745","6500600","新店區"
"231065","110-UY","2019/12/24 18:59:33","新北市新店區安祥路147巷64號","121.476076666667","24.95614","6500600","新店區"
"231050","KEA-2219","2019/12/24 18:59:29","新北市新店區新烏路一段11巷1弄2號","121.547335","24.9513816666667","6500600","新店區"
"231062","256-BX","2019/12/24 18:59:22","新北市新店區安豐路60-1號","121.497856666667","24.953635","6500600","新店區"
"231054","260-TV","2019/12/24 18:59:39","新北市新店區北宜路一段123-1號","121.540446666667","24.95343","6500600","新店區"
"231042","268-BY","2019/12/24 18:59:21","新北市新店區中興路二段31號","121.54615","24.9696033333333","6500600","新店區"
"231064","278-BY","2019/12/24 18:59:39","新北市新店區安康路一段266巷4號","121.519803333333","24.963995","6500600","新店區"
"231045","355-BY","2019/12/24 18:59:27","新北市新店區安康路一段123號","121.528271666667","24.9618133333333","6500600","新店區"
"231055","4716-K9","2019/12/24 18:59:37","新北市新店區新生街30號","121.53963","24.966795","6500600","新店區"
"231056","4715-K9","2019/12/24 18:59:34","新北市新店區二十張路46巷37弄21號","121.535968333333","24.9816033333333","6500600","新店區"
"231067","4772-VM","2019/12/24 18:59:42","新北市新店區安康路一段76巷18-1號","121.528516666667","24.962895","6500600","新店區"
"231053","515-UM","2019/12/24 18:59:43","新北市新店區新烏路二段7號","121.543993333333","24.92952","6500600","新店區"
"231063","616-UM","2019/12/24 18:59:36","新北市新店區安華路1-1號","121.519503333333","24.9604766666667","6500600","新店區"
"231040","617-UM","2019/12/24 18:59:26","新北市新店區中央路147號","121.53011","24.973415","6500600","新店區"
"231041","619-UM","2019/12/24 18:59:32","新北市新店區安康路一段3-1號","121.534696666667","24.9607816666667","6500600","新店區"
"231048","KED-0819","2019/12/24 18:59:26","新北市新店區德正街23巷12-1號","121.544693333333","24.972155","6500600","新店區"
"231046","719-UM","2019/12/24 18:59:31","新北市新店區直潭路29號","121.53357","24.9455683333333","6500600","新店區"
"231057","720-UM","2019/12/24 18:59:39","新北市新店區百齡一路12號","121.55308","24.9324683333333","6500600","新店區"
"231059","897-TW","2019/12/24 18:59:25","新北市新店區安華路28-1號","121.519611666667","24.9607633333333","6500600","新店區"
"231043","899-TW","2019/12/24 18:59:33","新北市新店區北新路一段140號","121.542483333333","24.9704916666667","6500600","新店區"
"231066","AKT-0513","2019/12/24 18:59:41","新北市新店區安豐路22巷5-5號","121.501683333333","24.9560616666667","6500600","新店區"
"241035","462-BY","2019/12/24 18:59:34","新北市三重區重新路四段121號","121.48489","25.0519583333333","6500200","三重區"
"241029","942-UM","2019/12/24 18:59:26","新北市三重區重新路三段157號","121.489853333333","25.05866","6500200","三重區"
"235066","003-UY","2019/12/24 18:59:32","新北市中和區中山路二段131巷5弄4號","121.502901666667","25.002855","6500300","中和區"
"235064","005-UY","2019/12/24 18:59:31","新北市中和區連城路21號","121.498845","25.0020283333333","6500300","中和區"
"235063","006-UY","2019/12/24 18:59:30","新北市中和區中正路530號","121.487845","24.9944683333333","6500300","中和區"
"235072","KEE-1103","2019/12/24 18:59:38","新北市中和區福美路304號","121.497005","25.0048533333333","6500300","中和區"
"235056","096-UM","2019/12/24 18:59:36","新北市板橋區三民路二段204-4號","121.478928333333","25.0124283333333","6500300","中和區"
"235039","097-UM","2019/12/24 18:59:40","新北市中和區景平路64巷13弄22號","121.521433333333","24.9915616666667","6500300","中和區"
"235065","098-UM","2019/12/24 18:59:31","新北市中和區福祥路158號","121.498691666667","25.0076983333333","6500300","中和區"
"235004","150-BY","2019/12/24 18:59:36","新北市中和區宜安路23巷12號","121.512476666667","24.995485","6500300","中和區"
"235058","151-BY","2019/12/24 18:59:32","新北市中和區員山路75號","121.480806666667","24.9941883333333","6500300","中和區"
"235055","183-VK","2019/12/24 18:59:27","新北市中和區德光路77巷1號","121.469591666667","25.0034666666667","6500300","中和區"
"235038","185-VK","2019/12/24 18:59:40","新北市中和區立人街24-5號","121.518906666667","24.9941633333333","6500300","中和區"
"235067","255-BX","2019/12/24 18:59:34","新北市中和區新生街176巷19號","121.482598333333","24.9998766666667","6500300","中和區"
"235044","293-VK","2019/12/24 18:59:25","新北市中和區中興街161巷8弄2號","121.500965","24.99089","6500300","中和區"
"235071","301-VK","2019/12/24 18:59:39","新北市中和區員山路36巷16-3號","121.485176666667","24.9911716666667","6500300","中和區"
"235043","352-BY","2019/12/24 18:59:42","新北市中和區成功路41巷1號","121.526138333333","24.9932583333333","6500300","中和區"
"235042","KEA-2878","2019/12/24 18:59:28","新北市中和區秀朗路三段78巷4弄1號","121.525578333333","24.994045","6500300","中和區"
"235050","4979-A6","2019/12/24 18:59:37","新北市中和區華新街50巷8號","121.507668333333","24.98394","6500300","中和區"
"235069","4980-A6","2019/12/24 18:59:29","新北市中和區圓通路109巷1弄2號","121.499833333333","24.996375","6500300","中和區"
"235070","558-UM","2019/12/24 18:59:34","新北市中和區中和路51號","121.50031","25.00123","6500300","中和區"
"235045","565-BX","2019/12/24 18:59:22","新北市中和區景新街467巷15弄12號","121.513793333333","24.98875","6500300","中和區"
"235060","KED-0823","2019/12/24 18:59:32","新北市中和區民享街93巷14號","121.475356666667","25.0010416666667","6500300","中和區"
"235054","640-BX","2019/12/24 18:59:27","新北市中和區國光街109巷4-1號","121.46997","25.000425","6500300","中和區"
"235047","732-UM","2019/12/24 18:59:44","新北市中和區興南路二段95號","121.50615","24.984725","6500300","中和區"
"235046","733-UM","2019/12/24 18:59:24","新北市中和區興南路二段9號","121.508013333333","24.9861833333333","6500300","中和區"
"235062","800-TS","2019/12/24 18:59:31","新北市中和區中山路二段440號","121.489195","25.0042883333333","6500300","中和區"
"235057","801-TS","2019/12/24 18:59:34","新北市中和區民利街87號","121.478186666667","24.9981333333333","6500300","中和區"
"235041","802-TS","2019/12/24 18:59:37","新北市中和區景安路73號","121.506851666667","24.997585","6500300","中和區"
"235052","805-TS","2019/12/24 18:59:34","新北市中和區興南路二段116號","121.504675","24.9838883333333","6500300","中和區"
"235048","896-TW","2019/12/24 18:59:27","新北市中和區華新街127號","121.50691","24.9819133333333","6500300","中和區"
"235053","900-TW","2019/12/24 18:59:34","新北市板橋區和平路190巷24號","121.464883333333","24.99469","6500300","中和區"
"235051","157-BY","2019/12/24 18:59:28","新北市中和區忠孝街11巷12號","121.509886666667","24.983225","6500300","中和區"
"235037","AAC-213","2019/12/24 18:59:40","新北市中和區秀朗路三段60巷22號","121.52558","24.9950516666667","6500300","中和區"
"235059","AAC-215","2019/12/24 18:59:22","新北市中和區圓通路367巷20弄31號","121.491278333333","24.988055","6500300","中和區"
"207004","KEE-1107","2019/12/24 18:59:36","新北市萬里區萬里里獅頭路23號","121.69329","25.1782516666667","6502800","萬里區"
"220054","015-TV","2019/12/24 18:59:29","新北市板橋區重慶路127巷19-1號","121.463605","25.00494","6500100","板橋區"
"220065","072-UY","2019/12/24 18:59:35","新北市板橋區民族路287巷16號","121.471156666667","25.0072483333333","6500100","板橋區"
"220086","073-UY","2019/12/24 18:59:37","新北市板橋區中正路148號","121.456916666667","25.0161733333333","6500100","板橋區"
"220106","075-UY","2019/12/24 18:59:28","新北市板橋區雙十路三段10巷10號","121.472066666667","25.0306933333333","6500100","板橋區"
"220069","AAD-861","2019/12/24 18:59:44","新北市板橋區四川路一段146號","121.46002","25.00357","6500100","板橋區"
"226004","312-R5","2019/12/24 18:59:24","新北市平溪區靜安路二段390號","121.738475","25.0245133333333","6502400","平溪區"
"235049","251-BX","2019/12/24 18:59:42","新北市中和區明仁街2號","121.505833333333","24.995515","6500300","中和區"
"228001","212-TW","2019/12/24 18:59:40","新北市貢寮區仁理村保健街71號","121.923746666667","25.0516316666667","6502600","貢寮區"
"228002","663-BX","2019/12/24 18:59:33","新北市貢寮區福隆里東興街106巷21弄2號","121.946186666667","25.0180516666667","6502600","貢寮區"
"228003","828-UM","2019/12/24 18:59:42","新北市貢寮區和美里龍洞街56-2號","121.912235","25.1140183333333","6502600","貢寮區"
"224006","676-BX","2019/12/24 18:59:37","新北市瑞芳區中山路152號","121.802346666667","25.1065183333333","6501200","瑞芳區"
"224007","285-BY","2019/12/24 18:59:36","新北市瑞芳區瑞竹路46號","121.763475","25.10336","6501200","瑞芳區"
"224009","275-VK","2019/12/24 18:59:42","新北市瑞芳區長仁路40號","121.863496666667","25.1183633333333","6501200","瑞芳區"
"224008","273-VK","2019/12/24 18:59:27","新北市瑞芳區逢甲路340-9號","121.798208333333","25.1163116666667","6501200","瑞芳區"
"224005","271-BY","2019/12/24 18:59:37","新北市瑞芳區岳王路90-1號","121.810805","25.11142","6501200","瑞芳區"
"227002","642-TC","2019/12/24 18:59:34","新北市雙溪區平林里外平林18號","121.858475","25.0378316666667","6502500","雙溪區"
"227001","400-TW","2019/12/24 18:59:35","新北市雙溪區牡丹里中正路60號","121.866141666667","25.0422683333333","6502500","雙溪區"
"253005","032-BX","2019/12/24 18:59:36","新北市石門區中央路37-5號","121.569526666667","25.2963433333333","6502200","石門區"
"253006","295-VK","2019/12/24 18:59:35","新北市石門區八甲4-3號","121.520963333333","25.283015","6502200","石門區"
"222001","KEA-2212","2019/12/24 18:59:32","新北市深坑區北深路一段300號","121.624261666667","25.0057616666667","6501800","深坑區"
"208002","KEA-2872","2019/12/24 18:59:26","新北市金山區仁愛路67巷4號","121.634541666667","25.2209316666667","6502700","金山區"
"208003","665-BX","2019/12/24 18:59:42","新北市金山區中正路33號","121.63518","25.22206","6502700","金山區"
"251001","011-UM","2019/12/24 18:59:27","新北市淡水區自強路58號","121.4632","25.127505","6501000","淡水區"
"251002","012-UM","2019/12/24 18:59:33","新北市淡水區中正東路53號","121.446763333333","25.1679633333333","6501000","淡水區"
"251015","KEA-2871","2019/12/24 18:59:24","新北市淡水區糞箕湖60號","121.485176666667","25.1722933333333","6501000","淡水區"
"251016","180-VK","2019/12/24 18:59:27","新北市淡水區淡金路三段313號","121.448958333333","25.20574","6501000","淡水區"
"251010","413-VK","2019/12/24 18:59:32","新北市淡水區中正路一段156巷61號","121.422571666667","25.1814783333333","6501000","淡水區"
"251012","441-VK","2019/12/24 18:59:42","新北市淡水區新興街109號","121.440645","25.1808383333333","6501000","淡水區"
"251007","442-VK","2019/12/24 18:59:38","新北市淡水區民生路113巷1弄40號","121.463025","25.1386416666667","6501000","淡水區"
"251009","575-R6","2019/12/24 18:59:29","新北市淡水區重建街71號","121.439861666667","25.1720033333333","6501000","淡水區"
"251014","577-R6","2019/12/24 18:59:31","新北市淡水區小中寮22號","121.48947","25.2297633333333","6501000","淡水區"
"251011","650-BX","2019/12/24 18:59:40","新北市淡水區鄧公路36巷1號","121.457321666667","25.1689966666667","6501000","淡水區"
"251003","673-BX","2019/12/24 18:59:21","新北市淡水區中山北路一段149巷29號","121.443033333333","25.1778833333333","6501000","淡水區"
"251013","178-VK","2019/12/24 18:59:24","新北市淡水區安子內3號","121.487268333333","25.2158066666667","6501000","淡水區"
"252003","249-BX","2019/12/24 18:59:27","新北市三芝區後厝里北勢子42-6號","121.472403333333","25.252755","6502100","三芝區"
"252001","292-VK","2019/12/24 18:59:27","新北市三芝區中興街二段242號","121.501633333333","25.25311","6502100","三芝區"
"237004","KEA-2597","2019/12/24 18:59:37","新北市三峽區有木212號","121.440055","24.8520183333333","6500900","三峽區"
"237007","153-BY","2019/12/24 18:59:31","新北市三峽區中正路二段169號","121.366093333333","24.914655","6500900","三峽區"
"237013","252-BX","2019/12/24 18:59:26","新北市三峽區大同路48巷17弄8-1號","121.376655","24.9290433333333","6500900","三峽區"
"237012","275-BY","2019/12/24 18:59:40","新北市三峽區三樹路222巷60號","121.382381666667","24.94234","6500900","三峽區"
"237008","302-VK","2019/12/24 18:59:34","新北市三峽區大同路166號","121.372776666667","24.9266883333333","6500900","三峽區"
"237014","433-BY","2019/12/24 18:59:29","新北市三峽區隆恩街232號","121.357851666667","24.9411633333333","6500900","三峽區"
"237006","5529-G3","2019/12/24 18:59:44","新北市三峽區溪東路233巷45弄16號","121.410126666667","24.9341666666667","6500900","三峽區"
"237011","KEA-2596","2019/12/24 18:59:32","新北市三峽區介壽路三段146號","121.400988333333","24.9431066666667","6500900","三峽區"
"237015","649-BX","2019/12/24 18:59:28","新北市三峽區建安27號","121.446406666667","24.9272733333333","6500900","三峽區"
"237010","706-TV","2019/12/24 18:59:33","新北市三峽區復興路279號","121.366228333333","24.9388166666667","6500900","三峽區"
"237005","AKY-6261","2019/12/24 18:59:27","新北市三峽區中山路459巷135號","121.348673333333","24.9329066666667","6500900","三峽區"
"236042","KED-0685","2019/12/24 18:59:32","新北市土城區學府路一段189巷15號","121.45254","24.984535","6501300","土城區"
"220089","KED-0812","2019/12/24 18:59:35","新北市板橋區文化路二段155號","121.470193333333","25.0271616666667","6500100","板橋區"
"236079","166-UM","2019/12/24 18:59:23","新北市土城區中央路四段450號","121.410478333333","24.9512433333333","6501300","土城區"
"236030","253-BX","2019/12/24 18:59:32","新北市土城區慶利街18號","121.439565","24.973695","6501300","土城區"
"236026","269-VK","2019/12/24 18:59:42","新北市土城區中正路56巷8號","121.443985","24.975095","6501300","土城區"
"236014","270-VK","2019/12/24 18:59:25","新北市土城區立德路29巷6號","121.462083333333","24.988335","6501300","土城區"
"236038","271-VK","2019/12/24 18:59:32","新北市土城區仁愛路20-3號","121.461056666667","24.9800133333333","6501300","土城區"
"236070","KEA-2877","2019/12/24 18:59:40","新北市土城區清水路105號","121.456798333333","24.982195","6501300","土城區"
"252002","KED-0821","2019/12/24 18:59:32","新北市三芝區中正路一段16-1號","121.502873333333","25.258835","6502100","三芝區"
"236021","401-BY","2019/12/24 18:59:39","新北市土城區延吉街168巷9號","121.467963333333","24.985865","6501300","土城區"
"236059","912-UM","2019/12/24 18:59:40","新北市土城區金城路二段266號","121.457966666667","24.983985","6501300","土城區"
"236049","913-UM","2019/12/24 18:59:20","新北市土城區青雲路259號","121.459073333333","24.9807666666667","6501300","土城區"
"236063","915-UM","2019/12/24 18:59:40","新北市土城區金城路三段131巷18號","121.467576666667","24.9890233333333","6501300","土城區"
"236055","AAC-216","2019/12/24 18:59:35","新北市土城區學成路164號","121.448048333333","24.9891133333333","6501300","土城區"
"242061","986-R7","2019/12/24 18:59:37","新北市新莊區新樹路49號","121.44014","25.0320183333333","6500500","新莊區"
"238023","601-UM","2019/12/24 18:59:31","新北市樹林區大慶街154號","121.396883333333","25.013505","6500700","樹林區"
"238019","599-UM","2019/12/24 18:59:39","新北市樹林區東榮街173號","121.413891666667","24.981445","6500700","樹林區"
"238022","KEA-2213","2019/12/24 18:59:39","新北市樹林區東興街57巷6號","121.41148","24.9771816666667","6500700","樹林區"
"238021","KEA-2539","2019/12/24 18:59:31","新北市樹林區柑園街二段276巷40號","121.371701666667","24.9536983333333","6500700","樹林區"
"238025","303-VK","2019/12/24 18:59:31","新北市樹林區中山路三段60號","121.393975","24.9724433333333","6500700","樹林區"
"238017","283-BY","2019/12/24 18:59:35","新北市樹林區光興街50號","121.409843333333","25.0027383333333","6500700","樹林區"
"238014","282-BY","2019/12/24 18:59:39","新北市樹林區潭興街143巷12號","121.425368333333","25.0000783333333","6500700","樹林區"
"238020","268-VK","2019/12/24 18:59:31","新北市樹林區俊英街282號","121.423731666667","25.01333","6500700","樹林區"
"238026","172-UY","2019/12/24 18:59:24","新北市樹林區吉祥街5巷2號","121.392685","24.972955","6500700","樹林區"
"238016","169-UY","2019/12/24 18:59:37","新北市樹林區文化街28號","121.419296666667","24.987665","6500700","樹林區"
"239007","AAC-297","2019/12/24 18:59:26","新北市鶯歌區中正一路建德二巷2號","121.363773333333","24.956485","6500800","鶯歌區"
"239006","891-R6","2019/12/24 18:59:25","新北市鶯歌區鶯桃路296巷57號","121.33601","24.9613183333333","6500800","鶯歌區"
"239008","527-UM","2019/12/24 18:59:38","新北市鶯歌區朝陽街4號","121.33627","24.9766016666667","6500800","鶯歌區"
"239005","526-UM","2019/12/24 18:59:24","新北市鶯歌區鳳吉一街18號","121.32535","24.9733316666667","6500800","鶯歌區"
"239001","417-VK","2019/12/24 18:59:32","新北市鶯歌區中正二路184號","121.340906666667","24.9477016666667","6500800","鶯歌區"
"239003","360-BY","2019/12/24 18:59:29","新北市鶯歌區永和街200號","121.33647","24.9708783333333","6500800","鶯歌區"
"239002","359-BY","2019/12/24 18:59:25","新北市鶯歌區中山路268號","121.344348333333","24.9569666666667","6500800","鶯歌區"
"239004","193-VK","2019/12/24 18:59:36","新北市鶯歌區中正三路194巷46號","121.331236666667","24.9408116666667","6500800","鶯歌區"
"221008","489-VK","2019/12/24 18:59:25","新北市汐止區康寧街582號","121.634991666667","25.069865","6501100","汐止區"
"221036","130-UY","2019/12/24 18:59:35","新北市汐止區忠孝東路337號","121.665078333333","25.0700133333333","6501100","汐止區"
"221015","131-UY","2019/12/24 18:59:33","新北市汐止區鄉長路一段55巷22號","121.664808333333","25.076315","6501100","汐止區"
"221032","280-BY","2019/12/24 18:59:30","新北市汐止區橫科路407巷30弄21號","121.62716","25.048125","6501100","汐止區"
"221029","298-VK","2019/12/24 18:59:30","新北市汐止區樟樹一路254號","121.642508333333","25.067235","6501100","汐止區"
"207003","KEE-1020","2019/12/24 18:59:29","新北市萬里區大鵬里頂社2-1號","121.660383333333","25.2072216666667","6502800","萬里區"
"221031","567-BX","2019/12/24 18:59:25","新北市汐止區福德一路300巷14號","121.630773333333","25.06401","6501100","汐止區"
"221035","622-UM","2019/12/24 18:59:38","新北市汐止區大同路二段298號","121.655308333333","25.0665466666667","6501100","汐止區"
"221002","707-TV","2019/12/24 18:59:34","新北市汐止區大同路一段2號","121.62106","25.0550433333333","6501100","汐止區"
"220079","145-BY","2019/12/24 18:59:32","新北市板橋區大智街93號","121.453085","25.01582","6500100","板橋區"
"220080","200-UY","2019/12/24 18:59:27","新北市板橋區大觀路二段文和巷88號","121.444533333333","24.998185","6500100","板橋區"
"220082","610-BX","2019/12/24 18:59:42","新北市板橋區篤行路二段136號","121.429886666667","24.988545","6500100","板橋區"
"220101","245-BX","2019/12/24 18:59:29","新北市板橋區莊敬路208巷2弄6號","121.47166","25.0216766666667","6500100","板橋區"
"220056","276-BY","2019/12/24 18:59:30","新北市板橋區信義路148號","121.458925","24.991765","6500100","板橋區"
"220072","277-BY","2019/12/24 18:59:38","新北市板橋區篤行路一段33號","121.431998333333","24.9944116666667","6500100","板橋區"
"220071","283-VK","2019/12/24 18:59:42","新北市板橋區重慶路245巷67弄1號","121.465476666667","25.001275","6500100","板橋區"
"220094","285-UM","2019/12/24 18:59:27","新北市板橋區光武街151號","121.465505","25.0294516666667","6500100","板橋區"
"220053","285-VK","2019/12/24 18:59:34","新北市板橋區太和街5巷20號","121.473116666667","25.0198366666667","6500100","板橋區"
"220083","286-VK","2019/12/24 18:59:37","新北市板橋區大觀路一段38巷156弄32號","121.442456666667","25.0051","6500100","板橋區"
"220081","287-VK","2019/12/24 18:59:43","新北市板橋區光華街19巷70號","121.45285","25.011945","6500100","板橋區"
"220090","288-VK","2019/12/24 18:59:28","新北市板橋區裕民街21號","121.462158333333","25.0289983333333","6500100","板橋區"
"220061","293-UM","2019/12/24 18:59:38","新北市板橋區懷仁街85巷2弄1號","121.477668333333","25.0183916666667","6500100","板橋區"
"220092","295-UM","2019/12/24 18:59:32","新北市板橋區文化路二段225巷60弄44號","121.469133333333","25.0294583333333","6500100","板橋區"
"220084","296-UM","2019/12/24 18:59:33","新北市板橋區大觀路二段146號","121.442161666667","24.9988516666667","6500100","板橋區"
"220075","303-R5","2019/12/24 18:59:25","新北市板橋區茶館街27號","121.456338333333","25.01049","6500100","板橋區"
"220062","305-R5","2019/12/24 18:59:39","新北市板橋區民享街58號","121.47622","25.015155","6500100","板橋區"
"220098","317-R6","2019/12/24 18:59:36","新北市板橋區民生路二段234巷26弄9號","121.470468333333","25.022155","6500100","板橋區"
"220088","491-VK","2019/12/24 18:59:38","新北市板橋區文化路二段182巷3弄19號","121.471821666667","25.0279","6500100","板橋區"
"220035","560-BX","2019/12/24 18:59:41","新北市板橋區中正路341巷37號","121.45401","25.0197116666667","6500100","板橋區"
"220103","561-BX","2019/12/24 18:59:38","新北市板橋區介壽街41號","121.468681666667","25.0198","6500100","板橋區"
"220063","609-BX","2019/12/24 18:59:39","新北市板橋區三民路二段33號","121.479421666667","25.017595","6500100","板橋區"
"220091","637-BX","2019/12/24 18:59:42","新北市板橋區大同街26巷1號","121.478066666667","25.0271633333333","6500100","板橋區"
"220057","686-BX","2019/12/24 18:59:43","新北市板橋區重慶路346巷5-1號","121.46394","24.9971583333333","6500100","板橋區"
"220077","687-BX","2019/12/24 18:59:30","新北市板橋區龍興街65巷1號","121.443433333333","25.001375","6500100","板橋區"
"220093","689-BX","2019/12/24 18:59:40","新北市板橋區民生路三段149號","121.465911666667","25.026595","6500100","板橋區"
"220102","KEA-2699","2019/12/24 18:59:31","新北市板橋區田單街2巷38號","121.482065","25.0275683333333","6500100","板橋區"
"220055","827-TW","2019/12/24 18:59:40","新北市板橋區新站路3號","121.467025","25.0113933333333","6500100","板橋區"
"220067","829-TW","2019/12/24 18:59:27","新北市板橋區民享街116巷6號","121.47817","25.0155933333333","6500100","板橋區"
"220068","830-TW","2019/12/24 18:59:41","新北市板橋區中山路二段465巷92-1號","121.481118333333","25.0225566666667","6500100","板橋區"
"220074","895-R6","2019/12/24 18:59:37","新北市板橋區林園街7-1號","121.454026666667","25.0092883333333","6500100","板橋區"
"220073","985-R7","2019/12/24 18:59:29","新北市板橋區中正路163號","121.45645","25.0161183333333","6500100","板橋區"
"220097","AAC-210","2019/12/24 18:59:35","新北市板橋區新海路135巷35號","121.459775","25.0227716666667","6500100","板橋區"
"220064","AAC-253","2019/12/24 18:59:41","新北市板橋區板新路27號","121.474666666667","25.0128633333333","6500100","板橋區"
"235061","KEA-2875","2019/12/24 18:59:36","新北市中和區中山路三段92號","121.477561666667","25.0056433333333","6500300","中和區"
"235068","KEA-2876","2019/12/24 18:59:15","新北市中和區圓通路257巷1號","121.495958333333","24.993445","6500300","中和區"
