"lineid","car","time","location","longitude","latitude","cityid","cityname"
"234046","148-BY","2019/12/24 19:43:34","新北市永和區成功路一段106巷3號","121.526228333333","25.0029316666667","6500400","永和區"
"234081","298-R6","2019/12/24 19:43:41","新北市永和區林森路24號","121.525863333333","25.0052516666667","6500400","永和區"
"234038","336-UY","2019/12/24 19:43:29","新北市永和區環河東路四段8號","121.528368333333","25.0001133333333","6500400","永和區"
"234064","337-UY","2019/12/24 19:43:28","新北市永和區秀朗路一段192巷6弄12號","121.519056666667","25.0023433333333","6500400","永和區"
"234086","338-UY","2019/12/24 19:43:24","新北市永和區國中路2號","121.524168333333","25.0042683333333","6500400","永和區"
"234070","552-UM","2019/12/24 19:43:29","新北市永和區永和路二段243號","121.515728333333","25.01468","6500400","永和區"
"234017","745-BX","2019/12/24 19:43:29","新北市永和區永和路二段425巷18號","121.514763333333","25.017845","6500400","永和區"
"234030","746-BX","2019/12/24 19:43:33","新北市永和區四維街103巷16號","121.523675","24.997155","6500400","永和區"
"234054","KEA-2590","2019/12/24 19:43:39","新北市永和區竹林路39巷28弄8號","121.519386666667","25.0145966666667","6500400","永和區"
"234007","KED-0605","2019/12/24 19:43:24","新北市永和區中和路309號","121.506795","24.99976","6500400","永和區"
"234013","KEA-2591","2019/12/24 19:43:32","新北市永和區仁愛路186巷2號","121.509851666667","25.01269","6500400","永和區"
"234061","AAD-866","2019/12/24 19:43:35","新北市永和區中正路362號","121.517731666667","25.0007766666667","6500400","永和區"
"234042","862-TW","2019/12/24 19:43:31","新北市永和區中和路305巷4弄1號","121.506701666667","25.000535","6500400","永和區"
"234050","863-TW","2019/12/24 19:43:41","新北市永和區環河西路一段103號","121.511068333333","25.017625","6500400","永和區"
"234026","9371-KE","2019/12/24 19:43:23","新北市永和區雙和街7巷7-1號","121.509571666667","25.00139","6500400","永和區"
"234011","9373-KE","2019/12/24 19:43:30","新北市永和區仁愛路352巷92弄9號","121.501311666667","25.00834","6500400","永和區"
"249004","303-UY","2019/12/24 19:43:23","新北市八里區中山路一段268巷41號","121.413811666667","25.1600566666667","6502300","八里區"
"249002","305-UY","2019/12/24 19:43:40","新北市八里區頂寮二街33-1號","121.450355","25.1251616666667","6502300","八里區"
"249003","593-UM","2019/12/24 19:43:25","新北市八里區中華路二段532號","121.399208333333","25.14563","6502300","八里區"
"248014","025-BX","2019/12/24 19:43:30","新北市五股區五福路32巷9號","121.434466666667","25.0894433333333","6501500","五股區"
"248016","026-BX","2019/12/24 19:43:26","新北市五股區成泰路3段651-1號","121.452875","25.1054366666667","6501500","五股區"
"248008","KED-0815","2019/12/24 19:43:34","新北市五股區四維路118巷13號","121.46921","25.0742716666667","6501500","五股區"
"248020","KED-0813","2019/12/24 19:43:41","新北市五股區中直路17-5號","121.422441666667","25.1124666666667","6501500","五股區"
"248012","247-BX","2019/12/24 19:43:29","新北市五股區蓬萊路6巷2號","121.435651666667","25.0795966666667","6501500","五股區"
"248010","272-BY","2019/12/24 19:43:29","新北市五股區登林路74-3號","121.431066666667","25.0694316666667","6501500","五股區"
"248004","677-BX","2019/12/24 19:43:26","新北市五股區成泰路一段196號","121.435786666667","25.0783966666667","6501500","五股區"
"248002","678-BX","2019/12/24 19:43:29","新北市五股區成泰路三段577巷22號","121.451656666667","25.10283","6501500","五股區"
"234023","9380-KE","2019/12/24 19:43:29","新北市永和區仁愛路301號","121.503988333333","25.0082066666667","6500400","永和區"
"234077","969-R7","2019/12/24 19:43:28","新北市永和區民權路29巷12號","121.52076","24.99788","6500400","永和區"
"234074","AAC-211","2019/12/24 19:43:27","新北市永和區竹林路213巷41號","121.523285","25.0091966666667","6500400","永和區"
"234067","AAC-212","2019/12/24 19:43:38","新北市永和區永貞路418號","121.50879","25.0080433333333","6500400","永和區"
"234003","AAC-295","2019/12/24 19:43:29","新北市永和區自由街73號","121.51336","25.005125","6500400","永和區"
"244023","483-VK","2019/12/24 19:43:37","新北市林口區文化三路二段1-1號","121.372403333333","25.0784283333333","6501700","林口區"
"208001","267-VK","2019/12/24 19:43:26","新北市金山區重和里六股林口38-6號","121.60358","25.2184216666667","6502700","金山區"
"243012","AAD-798","2019/12/24 19:43:23","新北市泰山區仁愛路100巷58號","121.433826666667","25.0544516666667","6501600","泰山區"
"243010","297-R6","2019/12/24 19:17:46","新北市泰山區明志路一段492巷2號","121.430163333333","25.0547916666667","6501600","泰山區"
"243014","KEA-2801","2019/12/24 19:43:34","新北市泰山區泰林路二段33-7號","121.43533","25.056605","6501600","泰山區"
"243016","421-VK","2019/12/24 19:43:32","新北市泰山區明志路三段470號","121.42082","25.0320933333333","6501600","泰山區"
"243009","KEA-2215","2019/12/24 19:43:33","新北市泰山區美寧街69號","121.430933333333","25.064745","6501600","泰山區"
"243011","KEA-2216","2019/12/24 19:43:35","新北市泰山區明志路三段204巷10弄16號","121.423065","25.0387233333333","6501600","泰山區"
"243015","680-BX","2019/12/24 19:43:31","新北市泰山區明志路二段237巷17號","121.427921666667","25.0481783333333","6501600","泰山區"
"222003","KEE-1106","2019/12/24 19:43:41","新北市深坑區深南路51-1號","121.621155","25.00992","6501800","深坑區"
"222002","659-BX","2019/12/24 19:43:42","新北市深坑區北深路一段177號","121.632496666667","25.010855","6501800","深坑區"
"231061","002-UM","2019/12/24 19:43:37","新北市新店區碧安街9巷22號","121.51636","24.9683783333333","6500600","新店區"
"231058","0293-UT","2019/12/24 19:43:24","新北市新店區中正路102巷8弄2號","121.543345","24.97104","6500600","新店區"
"231044","046-UY","2019/12/24 19:43:28","新北市新店區順安街52號","121.540863333333","24.9862","6500600","新店區"
"231060","106-UY","2019/12/24 19:43:33","新北市新店區安康路二段159巷2號","121.510291666667","24.9593416666667","6500600","新店區"
"231051","107-UY","2019/12/24 19:43:43","新北市新店區中央四街20號","121.529118333333","24.9740883333333","6500600","新店區"
"231049","108-UY","2019/12/24 19:43:32","新北市新店區民權路100-1號","121.536265","24.9832466666667","6500600","新店區"
"231065","110-UY","2019/12/24 19:43:33","新北市新店區安祥路109巷151弄16號","121.477701666667","24.9588333333333","6500600","新店區"
"231050","KEA-2219","2019/12/24 19:43:29","新北市新店區郵政路91號","121.554775","24.951425","6500600","新店區"
"231062","256-BX","2019/12/24 19:43:42","新北市新店區碧潭路2號","121.53497","24.956295","6500600","新店區"
"231054","260-TV","2019/12/24 19:43:39","新北市新店區文中路40號","121.539656666667","24.9566216666667","6500600","新店區"
"231042","268-BY","2019/12/24 19:43:41","新北市新店區中興路一段265號","121.544725","24.9675366666667","6500600","新店區"
"231064","278-BY","2019/12/24 19:43:39","新北市新店區安和路二段115號","121.518616666667","24.9704383333333","6500600","新店區"
"231045","355-BY","2019/12/24 19:43:36","新北市新店區北宜路二段108-1號","121.555803333333","24.9537083333333","6500600","新店區"
"231055","4716-K9","2019/12/24 19:43:37","新北市新店區中華路83巷67號","121.538228333333","24.967265","6500600","新店區"
"231056","4715-K9","2019/12/24 19:43:33","新北市新店區中正路504號","121.533963333333","24.9827233333333","6500600","新店區"
"231067","4772-VM","2019/12/24 19:43:42","新北市新店區精忠路10-1號","121.532643333333","24.9591316666667","6500600","新店區"
"231053","515-UM","2019/12/24 19:43:43","新北市新店區新烏路二段482號","121.552935","24.9079866666667","6500600","新店區"
"231063","616-UM","2019/12/24 19:43:36","新北市新店區車子路136號","121.504681666667","24.9485066666667","6500600","新店區"
"231040","617-UM","2019/12/24 19:43:26","新北市新店區北新路一段98號","121.54227","24.9689016666667","6500600","新店區"
"231041","619-UM","2019/12/24 19:43:32","新北市新店區二十張路46巷37弄47-1號","121.534798333333","24.9815233333333","6500600","新店區"
"231048","KED-0819","2019/12/24 19:43:26","新北市新店區五峰路61巷2-1號","121.547036666667","24.9700383333333","6500600","新店區"
"231046","719-UM","2019/12/24 19:43:31","新北市新店區三民路84號","121.53448","24.9726966666667","6500600","新店區"
"231057","720-UM","2019/12/24 19:43:39","新北市新店區百齡一路10號","121.553845","24.932385","6500600","新店區"
"231059","897-TW","2019/12/24 19:43:25","新北市新店區安和路三段47-1號","121.518068333333","24.98226","6500600","新店區"
"231043","899-TW","2019/12/24 19:43:33","新北市新店區中正路234號","121.539806666667","24.972925","6500600","新店區"
"231066","AKT-0513","2019/12/24 19:43:41","新北市新店區安康路三段165巷2弄5號","121.489196666667","24.9513116666667","6500600","新店區"
"241011","013-R5","2019/12/24 19:43:26","新北市三重區仁愛街39號","121.496653333333","25.0716433333333","6500200","三重區"
"241028","022-UY","2019/12/24 19:43:29","新北市三重區中正南路157號","121.493813333333","25.0561066666667","6500200","三重區"
"241008","059-VK","2019/12/24 19:43:36","新北市三重區永福街111巷14號","121.47871","25.0774916666667","6500200","三重區"
"241031","061-VK","2019/12/24 19:43:27","新北市三重區重新路四段214巷5弄7-1號","121.486195","25.05396","6500200","三重區"
"241015","062-VK","2019/12/24 19:43:43","新北市三重區三和路一段53號","121.502863333333","25.065455","6500200","三重區"
"241017","063-VK","2019/12/24 19:43:26","新北市三重區重陽路三段5巷8弄37號","121.490403333333","25.066335","6500200","三重區"
"241007","066-VK","2019/12/24 19:43:37","新北市三重區三和路四段133號","121.48463","25.077905","6500200","三重區"
"241006","262-UM","2019/12/24 19:43:26","新北市三重區永福街293號","121.483671666667","25.0745233333333","6500200","三重區"
"241016","266-UM","2019/12/24 19:43:27","新北市三重區正義北路2巷1弄7號","121.497055","25.0626566666667","6500200","三重區"
"241009","267-UM","2019/12/24 19:43:36","新北市三重區三和路四段400巷2號","121.481123333333","25.0793516666667","6500200","三重區"
"241032","269-UM","2019/12/24 19:43:42","新北市三重區重陽路一段60巷27號","121.48523","25.0582866666667","6500200","三重區"
"241013","270-UM","2019/12/24 19:43:24","新北市三重區仁福街64巷33號","121.497636666667","25.0756633333333","6500200","三重區"
"241025","271-UM","2019/12/24 19:43:27","新北市三重區忠孝路三段52號","121.480671666667","25.06571","6500200","三重區"
"241030","KED-0822","2019/12/24 19:43:38","新北市三重區環河南路222號","121.492455","25.0516583333333","6500200","三重區"
"241035","462-BY","2019/12/24 19:43:34","新北市三重區文化北路24號","121.499196666667","25.0644483333333","6500200","三重區"
"241020","478-VK","2019/12/24 19:43:36","新北市三重區後竹圍街26號","121.491275","25.0735866666667","6500200","三重區"
"241026","480-VK","2019/12/24 19:43:34","新北市三重區文化南路46號","121.500485","25.0600516666667","6500200","三重區"
"241014","543-UM","2019/12/24 19:43:36","新北市三重區長元街98巷21弄32號","121.503438333333","25.0679533333333","6500200","三重區"
"241023","545-UM","2019/12/24 19:43:39","新北市三重區頂崁街141號","121.477956666667","25.0650883333333","6500200","三重區"
"241001","547-UM","2019/12/24 19:43:41","新北市三重區仁愛街327巷55號","121.493521666667","25.08022","6500200","三重區"
"241019","KEA-2593","2019/12/24 19:43:23","新北市三重區自強路二段74巷35號","121.48758","25.069545","6500200","三重區"
"241005","AAD-863","2019/12/24 19:43:35","新北市三重區碧華街294巷17號","121.488651666667","25.0841016666667","6500200","三重區"
"241012","743-BX","2019/12/24 19:43:32","新北市三重區仁興街28巷43號","121.498133333333","25.0750966666667","6500200","三重區"
"241029","942-UM","2019/12/24 19:43:25","新北市三重區光明路67號","121.491875","25.0575183333333","6500200","三重區"
"235066","003-UY","2019/12/24 19:43:32","新北市中和區中和路196巷10號","121.505001666667","24.9991216666667","6500300","中和區"
"235072","KEE-1103","2019/12/24 19:43:37","新北市中和區中正路432巷11號","121.490746666667","24.99578","6500300","中和區"
"235056","096-UM","2019/12/24 19:43:36","新北市中和區中山路三段136巷2號","121.473975","25.006685","6500300","中和區"
"235039","097-UM","2019/12/24 19:43:40","新北市中和區大勇街23號","121.517023333333","24.9928533333333","6500300","中和區"
"235065","098-UM","2019/12/24 19:43:41","新北市中和區福祥路126號","121.498986666667","25.0066533333333","6500300","中和區"
"235004","150-BY","2019/12/24 19:43:36","新北市中和區安和路39號","121.509648333333","24.994895","6500300","中和區"
"235058","151-BY","2019/12/24 19:43:32","新北市中和區員山路142巷17號","121.482231666667","24.9965666666667","6500300","中和區"
"235055","183-VK","2019/12/24 19:43:27","新北市中和區德光路27巷30號","121.470931666667","25.0034633333333","6500300","中和區"
"235038","185-VK","2019/12/24 19:43:40","新北市中和區自強路27巷2號","121.520946666667","24.9929966666667","6500300","中和區"
"235067","255-BX","2019/12/24 19:43:34","新北市中和區新生街211號","121.48388","24.9997466666667","6500300","中和區"
"235044","293-VK","2019/12/24 19:43:25","新北市中和區捷運路129號","121.507011666667","24.99065","6500300","中和區"
"235071","301-VK","2019/12/24 19:43:39","新北市中和區立德街84號","121.487431666667","25.0079666666667","6500300","中和區"
"235043","352-BY","2019/12/24 19:43:42","新北市中和區華新街151號","121.50621","24.98164","6500300","中和區"
"235042","KEA-2878","2019/12/24 19:43:28","新北市中和區保健路2巷26號","121.50707","24.9976266666667","6500300","中和區"
"247016","KEA-2869","2019/12/24 19:43:33","新北市蘆洲區中正路505號","121.461696666667","25.0969466666667","6501400","蘆洲區"
"235070","558-UM","2019/12/24 19:43:34","新北市中和區圓通路146-1號","121.49812","24.9957016666667","6500300","中和區"
"235060","KED-0823","2019/12/24 19:43:32","新北市中和區新生街16巷40號","121.481726666667","25.0045566666667","6500300","中和區"
"235047","732-UM","2019/12/24 19:43:24","新北市中和區和平街18號","121.50985","24.990075","6500300","中和區"
"235046","733-UM","2019/12/24 19:43:44","新北市中和區四維街37巷2號","121.512448333333","24.98682","6500300","中和區"
"235057","801-TS","2019/12/24 19:43:34","新北市中和區圓通路417-37號","121.488795","24.9876683333333","6500300","中和區"
"235041","802-TS","2019/12/24 19:43:37","新北市中和區永貞路239巷15號","121.512621666667","25.003135","6500300","中和區"
"235052","805-TS","2019/12/24 19:43:34","新北市中和區興南路二段113巷2號","121.505628333333","24.9842283333333","6500300","中和區"
"235048","896-TW","2019/12/24 19:43:35","新北市中和區興南路一段137號","121.508716666667","24.9876666666667","6500300","中和區"
"235053","900-TW","2019/12/24 19:43:29","新北市中和區國光街189巷1號","121.46775","25.0010433333333","6500300","中和區"
"235051","157-BY","2019/12/24 19:43:28","新北市中和區板南路190-1號","121.500055","24.9929583333333","6500300","中和區"
"235037","AAC-213","2019/12/24 19:43:40","新北市中和區秀朗路三段128巷1弄22號","121.523623333333","24.9916833333333","6500300","中和區"
"235059","AAC-215","2019/12/24 19:43:41","新北市中和區圓通路311-5號","121.493175","24.99087","6500300","中和區"
"207004","KEE-1107","2019/12/24 19:43:36","新北市萬里區萬里里瑪鋉路49號","121.687958333333","25.17601","6502800","萬里區"
"220054","015-TV","2019/12/24 19:43:29","新北市板橋區忠孝路227號","121.465735","25.0028516666667","6500100","板橋區"
"220065","072-UY","2019/12/24 19:43:35","新北市板橋區民族路222巷12號","121.468591666667","25.0068733333333","6500100","板橋區"
"220086","073-UY","2019/12/24 19:43:40","新北市板橋區中正路236巷79號","121.459183333333","25.0197","6500100","板橋區"
"220106","075-UY","2019/12/24 19:43:28","新北市板橋區民治街71巷27號","121.480513333333","25.032845","6500100","板橋區"
"220069","AAD-861","2019/12/24 19:43:24","新北市板橋區貴興路81號","121.456745","25.0029783333333","6500100","板橋區"
"247004","500-BY","2019/12/24 19:43:37","新北市蘆洲區中原路21巷7弄21號","121.461435","25.082725","6501400","蘆洲區"
"247002","001-UY","2019/12/24 19:43:25","新北市蘆洲區長榮路675號","121.46039","25.0921033333333","6501400","蘆洲區"
"226004","312-R5","2019/12/24 19:43:43","新北市平溪區十分里十分街76號","121.776313333333","25.04212","6502400","平溪區"
"235049","251-BX","2019/12/24 19:43:42","新北市中和區景平路429-1號","121.50136","24.995365","6500300","中和區"
"228001","212-TW","2019/12/24 19:43:40","新北市貢寮區真理里新港街60號","121.926516666667","25.0559133333333","6502600","貢寮區"
"228003","828-UM","2019/12/24 19:43:41","新北市貢寮區真理里美艷山街15-3號","121.9237","25.06801","6502600","貢寮區"
"224010","AGQ-8101","2019/12/24 19:43:35","新北市瑞芳區石碑巷2號","121.841175","25.1074883333333","6501200","瑞芳區"
"224009","275-VK","2019/12/24 19:43:42","新北市平溪區新寮里五分寮10-2號","121.799911666667","25.07398","6501200","瑞芳區"
"227002","642-TC","2019/12/24 19:43:38","新北市雙溪區雙溪里內挖路83號","121.863105","25.0370233333333","6502500","雙溪區"
"227001","400-TW","2019/12/24 19:43:35","新北市雙溪區新基里中華路38號","121.865955","25.03724","6502500","雙溪區"
"222001","KEA-2212","2019/12/24 19:43:32","新北市深坑區北深路三段18號","121.609535","25.0010616666667","6501800","深坑區"
"208002","KEA-2872","2019/12/24 19:43:26","新北市金山區中正路130號","121.632241666667","25.221515","6502700","金山區"
"208003","665-BX","2019/12/24 19:43:22","新北市金山區清泉里清水路41巷2號","121.629655","25.2335666666667","6502700","金山區"
"251004","009-UM","2019/12/24 19:43:44","新北市淡水區民權路177巷55號","121.460451666667","25.1338033333333","6501000","淡水區"
"251005","010-UM","2019/12/24 19:43:29","新北市淡水區水源街一段1號","121.442503333333","25.17248","6501000","淡水區"
"251001","011-UM","2019/12/24 19:43:27","新北市淡水區中正東路二段93-1號","121.459451666667","25.1523416666667","6501000","淡水區"
"251002","012-UM","2019/12/24 19:43:33","新北市淡水區下圭柔山90-2號","121.43177","25.21144","6501000","淡水區"
"251015","KEA-2871","2019/12/24 19:43:24","新北市淡水區山子頂24-1號","121.491391666667","25.1871583333333","6501000","淡水區"
"251016","180-VK","2019/12/24 19:43:27","新北市淡水區下圭柔山121-12號","121.45464","25.2085983333333","6501000","淡水區"
"251008","181-VK","2019/12/24 19:43:45","新北市淡水區中正路一段62巷33號","121.426468333333","25.17723","6501000","淡水區"
"251010","413-VK","2019/12/24 19:43:32","新北市淡水區崁頂92號","121.429348333333","25.2024466666667","6501000","淡水區"
"251007","442-VK","2019/12/24 19:43:38","新北市淡水區中正東路一段105巷1號","121.45354","25.16031","6501000","淡水區"
"251006","561-UM","2019/12/24 19:43:42","新北市淡水區新興街71號","121.441345","25.1795466666667","6501000","淡水區"
"251009","575-R6","2019/12/24 19:43:32","新北市淡水區中山北路一段168號","121.444358333333","25.1787533333333","6501000","淡水區"
"251014","577-R6","2019/12/24 19:43:31","新北市淡水區番社前4-12號","121.474688333333","25.2361","6501000","淡水區"
"251011","650-BX","2019/12/24 19:43:24","新北市淡水區八勢路50巷21弄7號","121.462421666667","25.15006","6501000","淡水區"
"251013","178-VK","2019/12/24 19:43:24","新北市淡水區頂田寮11-3號","121.462923333333","25.2139116666667","6501000","淡水區"
"252001","292-VK","2019/12/24 19:43:27","新北市三芝區公正街9號","121.499711666667","25.25757","6502100","三芝區"
"237004","KEA-2597","2019/12/24 19:43:37","新北市三峽區金敏17號","121.391965","24.8739833333333","6500900","三峽區"
"237007","153-BY","2019/12/24 19:43:23","新北市三峽區二鬮路136巷22弄17號","121.356808333333","24.910235","6500900","三峽區"
"237009","210-TH","2019/12/24 19:43:31","新北市三峽區中園街82號","121.36784","24.9248966666667","6500900","三峽區"
"237013","252-BX","2019/12/24 19:43:26","新北市三峽區溪北街78號","121.397843333333","24.9355333333333","6500900","三峽區"
"237012","275-BY","2019/12/24 19:43:40","新北市三峽區光明路35號","121.373626666667","24.9307883333333","6500900","三峽區"
"237008","302-VK","2019/12/24 19:43:34","新北市三峽區中正路一段292巷7號","121.370963333333","24.925885","6500900","三峽區"
"237014","433-BY","2019/12/24 19:43:29","新北市三峽區添福107-16號","121.373278333333","24.90299","6500900","三峽區"
"237006","5529-G3","2019/12/24 19:43:44","新北市三峽區中正路一段336巷15弄2號","121.369945","24.9249683333333","6500900","三峽區"
"237011","KEA-2596","2019/12/24 19:43:32","新北市三峽區中正路一段500號","121.37021","24.9206516666667","6500900","三峽區"
"237015","649-BX","2019/12/24 19:43:32","新北市三峽區成福路3號","121.416346666667","24.92795","6500900","三峽區"
"237005","AKY-6261","2019/12/24 19:43:27","新北市三峽區文化路58號","121.372543333333","24.936155","6500900","三峽區"
"236042","KED-0685","2019/12/24 19:43:32","新北市土城區清水路87號","121.4562","24.9817033333333","6501300","土城區"
"220089","KED-0812","2019/12/24 19:43:29","新北市板橋區互助街92號","121.46023","25.026185","6500100","板橋區"
"236079","166-UM","2019/12/24 19:43:23","新北市土城區溪頭路151號","121.409211666667","24.9508633333333","6501300","土城區"
"236030","253-BX","2019/12/24 19:43:32","新北市土城區中央路一段318巷6號","121.442845","24.9818516666667","6501300","土城區"
"236014","270-VK","2019/12/24 19:43:25","新北市土城區廣明街41巷35號","121.453985","24.9924616666667","6501300","土城區"
"236070","KEA-2877","2019/12/24 19:43:40","新北市土城區金城路一段105號","121.444098333333","24.97295","6501300","土城區"
"252002","KED-0821","2019/12/24 19:43:32","新北市三芝區三民街22號","121.504601666667","25.2586283333333","6502100","三芝區"
"236021","401-BY","2019/12/24 19:43:41","新北市土城區延吉街163號","121.469971666667","24.9858583333333","6501300","土城區"
"236059","912-UM","2019/12/24 19:43:32","新北市土城區中央路一段258號","121.444116666667","24.9842966666667","6501300","土城區"
"236049","913-UM","2019/12/24 19:43:40","新北市土城區明德路一段231號","121.462905","24.9783616666667","6501300","土城區"
"236063","915-UM","2019/12/24 19:43:39","新北市土城區延平街64號","121.467855","24.9927433333333","6501300","土城區"
"242005","751-BX","2019/12/24 19:43:43","新北市新莊區化成路29巷86號","121.461961666667","25.04402","6500500","新莊區"
"242048","566-BX","2019/12/24 19:43:28","新北市新莊區後港一路16號","121.424791666667","25.0258183333333","6500500","新莊區"
"242013","413-TV","2019/12/24 19:43:26","新北市新莊區中誠街119號","121.449405","25.047515","6500500","新莊區"
"242023","353-BY","2019/12/24 19:43:36","新北市新莊區復興路三段115號","121.464301666667","25.0445133333333","6500500","新莊區"
"242039","135-UY","2019/12/24 19:43:34","新北市新莊區民安路391號","121.432171666667","25.0230266666667","6500500","新莊區"
"242017","173-VK","2019/12/24 19:43:25","新北市新莊區新泰路357巷3弄11號","121.442393333333","25.0409416666667","6500500","新莊區"
"242037","348-TH","2019/12/24 19:43:27","新北市新莊區建安街101巷3弄1號","121.427013333333","25.0238966666667","6500500","新莊區"
"242034","350-TH","2019/12/24 19:43:36","新北市新莊區仁愛街24號","121.444293333333","25.03599","6500500","新莊區"
"242019","351-TH","2019/12/24 19:43:30","新北市新莊區三和路12-10號","121.442253333333","25.0367566666667","6500500","新莊區"
"238015","755-BX","2019/12/24 19:43:28","新北市樹林區日新街90號","121.421475","24.9902066666667","6500700","樹林區"
"238023","601-UM","2019/12/24 19:43:31","新北市樹林區三福街114號","121.406615","25.0162983333333","6500700","樹林區"
"238019","599-UM","2019/12/24 19:43:39","新北市樹林區大同街23號","121.418203333333","24.982535","6500700","樹林區"
"238024","5061-A6","2019/12/24 19:43:38","新北市樹林區中山路三段22號","121.39553","24.9727883333333","6500700","樹林區"
"238022","KEA-2213","2019/12/24 19:43:39","新北市樹林區國凱街50巷21號","121.420756666667","24.9782316666667","6500700","樹林區"
"238021","KEA-2539","2019/12/24 19:43:41","新北市樹林區佳園路三段111號","121.38685","24.95095","6500700","樹林區"
"238025","303-VK","2019/12/24 19:43:37","新北市樹林區中山路二段72-2號","121.415403333333","24.9840516666667","6500700","樹林區"
"238017","283-BY","2019/12/24 19:43:35","新北市樹林區保安街二段171號","121.414886666667","25.00297","6500700","樹林區"
"238014","282-BY","2019/12/24 19:43:40","新北市樹林區千歲街28巷9號","121.425768333333","24.9958616666667","6500700","樹林區"
"238020","268-VK","2019/12/24 19:43:31","新北市板橋區金門街337巷14弄18號","121.431623333333","24.9824966666667","6500700","樹林區"
"238026","172-UY","2019/12/24 19:43:44","新北市樹林區佳園路二段15巷17號","121.394351666667","24.96294","6500700","樹林區"
"239007","AAC-297","2019/12/24 19:43:26","新北市鶯歌區大湖路109巷14號","121.341516666667","24.9635966666667","6500800","鶯歌區"
"239006","891-R6","2019/12/24 19:43:25","新北市鶯歌區永昌街29號","121.342591666667","24.9497016666667","6500800","鶯歌區"
"239008","527-UM","2019/12/24 19:43:38","新北市鶯歌區大湖路466號","121.33961","24.972345","6500800","鶯歌區"
"239005","526-UM","2019/12/24 19:43:37","新北市鶯歌區中湖街287號","121.348438333333","24.9766666666667","6500800","鶯歌區"
"239001","417-VK","2019/12/24 19:43:31","新北市鶯歌區鶯桃路35-1號","121.342961666667","24.95071","6500800","鶯歌區"
"239003","360-BY","2019/12/24 19:43:28","新北市鶯歌區中正二路3號","121.351738333333","24.9516916666667","6500800","鶯歌區"
"239002","359-BY","2019/12/24 19:43:25","新北市鶯歌區大湖路185巷22號","121.342606666667","24.9705083333333","6500800","鶯歌區"
"239004","193-VK","2019/12/24 19:43:36","新北市鶯歌區中正三路256-2號","121.32951","24.9364133333333","6500800","鶯歌區"
"221008","489-VK","2019/12/24 19:43:28","新北市汐止區康寧街141巷20弄3號","121.621491666667","25.0678316666667","6501100","汐止區"
"221010","269-BY","2019/12/24 19:43:28","新北市汐止區連峰街1巷1號","121.646395","25.0760733333333","6501100","汐止區"
"221012","278-VK","2019/12/24 19:43:44","新北市汐止區大同路三段324號","121.679103333333","25.0711516666667","6501100","汐止區"
"221023","279-VK","2019/12/24 19:43:38","新北市汐止區中興路250號","121.62918","25.0685733333333","6501100","汐止區"
"221027","281-BY","2019/12/24 19:43:30","新北市汐止區忠孝東路9號","121.658243333333","25.06599","6501100","汐止區"
"221029","298-VK","2019/12/24 19:43:30","新北市汐止區康寧街901號","121.65175","25.0749633333333","6501100","汐止區"
"221021","299-VK","2019/12/24 19:43:33","新北市汐止區新興路85巷2號","121.658001666667","25.06142","6501100","汐止區"
"207003","KEE-1020","2019/12/24 19:43:29","新北市萬里區大鵬里下社12號","121.648021666667","25.21786","6502800","萬里區"
"221031","567-BX","2019/12/24 19:43:24","新北市汐止區康寧街901號","121.65081","25.07532","6501100","汐止區"
"221025","623-UM","2019/12/24 19:43:32","新北市汐止區福安街20巷8號","121.6623","25.0648883333333","6501100","汐止區"
"221038","646-BX","2019/12/24 19:43:38","新北市汐止區忠孝東路291號","121.66398","25.0687833333333","6501100","汐止區"
"221033","647-BX","2019/12/24 19:43:29","新北市汐止區東勢街34號","121.625316666667","25.0387733333333","6501100","汐止區"
"220079","145-BY","2019/12/24 19:43:32","新北市板橋區民權路260巷5號","121.458293333333","25.015385","6500100","板橋區"
"220080","200-UY","2019/12/24 19:43:26","新北市板橋區大觀路二段153巷46弄20號","121.449216666667","25.0000766666667","6500100","板橋區"
"220082","610-BX","2019/12/24 19:43:42","新北市板橋區大觀路三段236-6號","121.429186666667","24.9924216666667","6500100","板橋區"
"220101","245-BX","2019/12/24 19:43:36","新北市板橋區縣民大道三段103巷20號","121.475243333333","25.0227833333333","6500100","板橋區"
"224002","257-TC","2019/12/24 19:43:29","新北市瑞芳區三爪子坑路13巷211號","121.815931666667","25.10601","6501200","瑞芳區"
"220056","276-BY","2019/12/24 19:43:30","新北市板橋區信義路1巷6號","121.45739","24.99706","6500100","板橋區"
"220072","277-BY","2019/12/24 19:43:38","新北市板橋區金門街215巷22號","121.433278333333","24.9896483333333","6500100","板橋區"
"220071","283-VK","2019/12/24 19:43:22","新北市板橋區四川路一段338號","121.456876666667","24.9968433333333","6500100","板橋區"
"220094","285-UM","2019/12/24 19:43:26","新北市板橋區陽明街297號","121.46167","25.026665","6500100","板橋區"
"220053","285-VK","2019/12/24 19:43:34","新北市板橋區中山路二段60巷1弄2號","121.474398333333","25.015335","6500100","板橋區"
"220083","286-VK","2019/12/24 19:43:37","新北市板橋區龍興街63巷40號","121.442186666667","25.0017666666667","6500100","板橋區"
"220081","287-VK","2019/12/24 19:43:30","新北市板橋區大觀路一段29巷173號","121.44866","25.00507","6500100","板橋區"
"220090","288-VK","2019/12/24 19:43:43","新北市板橋區英士路199號","121.458726666667","25.0235033333333","6500100","板橋區"
"220061","293-UM","2019/12/24 19:43:37","新北市板橋區觀光街3巷12號","121.471425","25.0156516666667","6500100","板橋區"
"220092","295-UM","2019/12/24 19:43:25","新北市板橋區四維路259巷80號","121.459921666667","25.02639","6500100","板橋區"
"220084","296-UM","2019/12/24 19:43:33","新北市板橋區滿平二街4號","121.425586666667","24.9863416666667","6500100","板橋區"
"220075","303-R5","2019/12/24 19:43:26","新北市板橋區中正路253巷74號","121.452656666667","25.0171933333333","6500100","板橋區"
"220062","305-R5","2019/12/24 19:43:39","新北市板橋區三民路二段29巷31弄11號","121.481796666667","25.0177583333333","6500100","板橋區"
"220098","317-R6","2019/12/24 19:43:28","新北市板橋區民生路三段299巷17號","121.46281","25.0301466666667","6500100","板橋區"
"220088","491-VK","2019/12/24 19:43:38","新北市板橋區文聖街136號","121.47844","25.02814","6500100","板橋區"
"220035","560-BX","2019/12/24 19:43:31","新北市板橋區金華街85巷42號","121.459186666667","25.0212866666667","6500100","板橋區"
"220103","561-BX","2019/12/24 19:43:38","新北市板橋區文化路一段421巷9號","121.466936666667","25.022795","6500100","板橋區"
"220063","609-BX","2019/12/24 19:43:25","新北市板橋區三民路一段120號","121.47931","25.0208283333333","6500100","板橋區"
"220091","637-BX","2019/12/24 19:43:42","新北市板橋區懷德街127巷16號","121.479616666667","25.0311833333333","6500100","板橋區"
"220057","686-BX","2019/12/24 19:43:38","新北市板橋區四川路二段63號","121.45349","24.9950666666667","6500100","板橋區"
"220077","687-BX","2019/12/24 19:43:30","新北市板橋區僑中二街102巷1號","121.446015","25.00812","6500100","板橋區"
"220093","689-BX","2019/12/24 19:43:42","新北市板橋區文化路二段656號","121.480196666667","25.035665","6500100","板橋區"
"220102","KEA-2699","2019/12/24 19:43:30","新北市板橋區仁化街56號","121.47566","25.0315633333333","6500100","板橋區"
"220055","827-TW","2019/12/24 19:43:29","新北市板橋區國慶路149巷21弄7號","121.460553333333","24.9973566666667","6500100","板橋區"
"220067","829-TW","2019/12/24 19:43:38","新北市板橋區民生路一段23號","121.474906666667","25.0114933333333","6500100","板橋區"
"220068","830-TW","2019/12/24 19:43:41","新北市板橋區中山路二段416巷47弄27號","121.483793333333","25.0195466666667","6500100","板橋區"
"220074","895-R6","2019/12/24 19:43:37","新北市板橋區館前西路54號","121.458395","25.006925","6500100","板橋區"
"220073","985-R7","2019/12/24 19:43:29","新北市板橋區中正路216巷68號","121.4578","25.018725","6500100","板橋區"
"220097","AAC-210","2019/12/24 19:43:29","新北市板橋區光正街45巷22號","121.461698333333","25.0165883333333","6500100","板橋區"
"220064","AAC-253","2019/12/24 19:43:33","新北市板橋區實踐路25號","121.463685","25.0072116666667","6500100","板橋區"
"235068","KEA-2876","2019/12/24 19:43:15","新北市中和區中山路二段136巷35弄3號","121.500935","25.0041433333333","6500300","中和區"
