"lineid","car","time","location","longitude","latitude","cityid","cityname"
"234046","148-BY","2019/12/24 20:13:34","新北市永和區永元路68號","121.522476666667","25.0015683333333","6500400","永和區"
"234081","298-R6","2019/12/24 20:13:37","新北市永和區永亨路90號","121.522141666667","25.0055016666667","6500400","永和區"
"234038","336-UY","2019/12/24 20:13:29","新北市永和區成功路一段93巷23弄13號","121.52852","25.003395","6500400","永和區"
"234064","337-UY","2019/12/24 20:13:28","新北市永和區得和路247號","121.520543333333","24.9999533333333","6500400","永和區"
"234086","338-UY","2019/12/24 20:13:44","新北市永和區福和路292號","121.517321666667","25.0074866666667","6500400","永和區"
"234070","552-UM","2019/12/24 20:13:29","新北市永和區永亨路49號","121.52018","25.0063766666667","6500400","永和區"
"234017","745-BX","2019/12/24 20:13:29","新北市永和區永和路二段185號","121.51501","25.0134866666667","6500400","永和區"
"234030","746-BX","2019/12/24 20:13:33","新北市永和區民有街75巷10弄17號","121.518906666667","24.9962333333333","6500400","永和區"
"234054","KEA-2590","2019/12/24 20:13:39","新北市永和區永和路二段336號","121.516368333333","25.016625","6500400","永和區"
"234013","KEA-2591","2019/12/24 20:13:24","新北市永和區保生路24號","121.506505","25.0076016666667","6500400","永和區"
"234061","AAD-866","2019/12/24 20:13:22","新北市永和區安樂路100巷21弄17號","121.514911666667","24.9989083333333","6500400","永和區"
"234042","862-TW","2019/12/24 20:13:42","新北市永和區雙和街18號","121.509238333333","25.0021516666667","6500400","永和區"
"234050","863-TW","2019/12/24 20:13:41","新北市永和區新生路28巷16號","121.508323333333","25.016355","6500400","永和區"
"249005","172-UM","2019/12/24 20:13:31","新北市八里區下罟子5號","121.38727","25.1412583333333","6502300","八里區"
"249001","173-UM","2019/12/24 20:13:30","新北市八里區中華路二段328號","121.403143333333","25.1478016666667","6502300","八里區"
"249004","303-UY","2019/12/24 20:13:23","新北市八里區中山路一段398巷51弄20號","121.41063","25.1587083333333","6502300","八里區"
"249002","305-UY","2019/12/24 20:13:20","新北市八里區龍米路一段52號","121.456278333333","25.119745","6502300","八里區"
"249003","593-UM","2019/12/24 20:13:25","新北市八里區中山路二段447巷5號","121.396888333333","25.145565","6502300","八里區"
"248016","026-BX","2019/12/24 20:13:26","新北市五股區成泰路三段577巷138號","121.448073333333","25.1041466666667","6501500","五股區"
"248008","KED-0815","2019/12/24 20:13:34","新北市五股區中興路一段1巷12弄23號","121.469445","25.07052","6501500","五股區"
"248012","247-BX","2019/12/24 20:13:29","新北市五股區民義路一段208號","121.430645","25.0892766666667","6501500","五股區"
"248010","272-BY","2019/12/24 20:13:29","新北市五股區成泰路一段7巷40號","121.432548333333","25.06711","6501500","五股區"
"248004","677-BX","2019/12/24 20:13:26","新北市五股區成泰路二段100號","121.437646666667","25.0827916666667","6501500","五股區"
"248002","678-BX","2019/12/24 20:13:34","新北市五股區成泰路三段257號","121.446721666667","25.0936866666667","6501500","五股區"
"234023","9380-KE","2019/12/24 20:13:29","新北市永和區中正路659號","121.51469","25.0102516666667","6500400","永和區"
"234077","969-R7","2019/12/24 20:13:26","新北市永和區民享街23巷11號","121.516235","24.9952616666667","6500400","永和區"
"234074","AAC-211","2019/12/24 20:13:27","新北市永和區竹林路191巷2號","121.520958333333","25.009455","6500400","永和區"
"234067","AAC-212","2019/12/24 20:13:38","新北市永和區保平路236巷12弄2號","121.50862","25.0062766666667","6500400","永和區"
"234003","AAC-295","2019/12/24 20:13:38","新北市永和區自強街32巷10號","121.516001666667","25.0076066666667","6500400","永和區"
"243012","AAD-798","2019/12/24 20:13:43","新北市泰山區楓江路86巷16-1號","121.437376666667","25.062505","6501600","泰山區"
"243010","297-R6","2019/12/24 20:03:46","新北市泰山區明志路二段112號","121.42749","25.051745","6501600","泰山區"
"243014","KEA-2801","2019/12/24 20:13:34","新北市泰山區明志路一段61號","121.43367","25.064835","6501600","泰山區"
"243016","421-VK","2019/12/24 20:13:32","新北市泰山區明志路三段219號","121.423853333333","25.0381683333333","6501600","泰山區"
"243009","KEA-2215","2019/12/24 20:13:33","新北市泰山區泰林路二段112號","121.43476","25.05926","6501600","泰山區"
"243011","KEA-2216","2019/12/24 20:13:29","新北市新莊區壽山路160巷21號","121.41745","25.0319066666667","6501600","泰山區"
"243013","646-TV","2019/12/24 20:13:21","新北市泰山區明志路三段74巷10號","121.424355","25.0418683333333","6501600","泰山區"
"243015","680-BX","2019/12/24 20:13:44","新北市泰山區明志路一段493-1號","121.430586666667","25.055035","6501600","泰山區"
"222003","KEE-1106","2019/12/24 20:13:41","新北市深坑區埔新街90號","121.619183333333","25.0022983333333","6501800","深坑區"
"222002","659-BX","2019/12/24 20:13:22","新北市深坑區北深路三段158巷50號","121.601345","25.0049033333333","6501800","深坑區"
"231061","002-UM","2019/12/24 20:13:37","新北市新店區安民街133巷17號","121.515703333333","24.9693","6500600","新店區"
"231058","0293-UT","2019/12/24 20:13:24","新北市新店區安康路二段320巷15弄2號","121.504328333333","24.959635","6500600","新店區"
"231044","046-UY","2019/12/24 20:13:28","新北市新店區中興路三段330號","121.542006666667","24.98657","6500600","新店區"
"231060","106-UY","2019/12/24 20:13:37","新北市新店區安康路三段466-2號","121.48414","24.9509733333333","6500600","新店區"
"231051","107-UY","2019/12/24 20:13:43","新北市新店區中央路192號","121.530836666667","24.9746833333333","6500600","新店區"
"231049","108-UY","2019/12/24 20:13:32","新北市新店區北新路二段97巷11號","121.54214","24.97421","6500600","新店區"
"231065","110-UY","2019/12/24 20:13:32","新北市新店區安祥路106巷222號","121.473861666667","24.9601316666667","6500600","新店區"
"231050","KEA-2219","2019/12/24 20:13:29","新北市新店區北新路一段331號","121.541821666667","24.9685383333333","6500600","新店區"
"231062","256-BX","2019/12/24 20:13:42","新北市新店區安康路二段149-3號","121.51109","24.95969","6500600","新店區"
"231054","260-TV","2019/12/24 20:13:39","新北市新店區檳榔路109號","121.544351666667","24.96174","6500600","新店區"
"231042","268-BY","2019/12/24 20:13:41","新北市新店區中興路二段100巷1號","121.54746","24.9716583333333","6500600","新店區"
"231064","278-BY","2019/12/24 20:13:39","新北市新店區安和路二段138號","121.519566666667","24.9724683333333","6500600","新店區"
"231045","355-BY","2019/12/24 20:13:27","新北市新店區北宜路一段152號","121.540276666667","24.95391","6500600","新店區"
"231055","4716-K9","2019/12/24 20:13:37","新北市新店區北新路一段297巷35號","121.540363333333","24.9684133333333","6500600","新店區"
"231056","4715-K9","2019/12/24 20:13:33","新北市新店區中正路328巷34號","121.537878333333","24.9761283333333","6500600","新店區"
"231067","4772-VM","2019/12/24 20:13:42","新北市新店區溪洲路8巷1號","121.53352","24.961175","6500600","新店區"
"231068","512-UM","2019/12/24 20:13:33","新北市新店區中興路三段202號","121.543848333333","24.9819533333333","6500600","新店區"
"231053","515-UM","2019/12/24 20:13:23","新北市新店區桂山路87號","121.554028333333","24.9040433333333","6500600","新店區"
"231063","616-UM","2019/12/24 20:13:36","新北市新店區黎明路9號","121.502436666667","24.9502766666667","6500600","新店區"
"231040","617-UM","2019/12/24 20:13:26","新北市新店區中正路108號","121.5431","24.9706333333333","6500600","新店區"
"231041","619-UM","2019/12/24 20:13:32","新北市新店區中正路489號","121.533753333333","24.9822633333333","6500600","新店區"
"231048","KED-0819","2019/12/24 20:13:26","新北市新店區永華街29號","121.543718333333","24.976455","6500600","新店區"
"231057","720-UM","2019/12/24 20:13:39","新北市新店區花園一路二段31號","121.552145","24.9330383333333","6500600","新店區"
"231059","897-TW","2019/12/24 20:13:25","新北市新店區安德街39號","121.511445","24.962495","6500600","新店區"
"231043","899-TW","2019/12/24 20:13:33","新北市新店區建國路133號","121.539335","24.9782416666667","6500600","新店區"
"231066","AKT-0513","2019/12/24 20:13:40","新北市新店區安興路20號","121.515035","24.9659883333333","6500600","新店區"
"241011","013-R5","2019/12/24 20:13:25","新北市三重區龍門路53號","121.49639","25.0723683333333","6500200","三重區"
"241028","022-UY","2019/12/24 20:13:29","新北市三重區大同南路128號","121.496426666667","25.058255","6500200","三重區"
"241008","059-VK","2019/12/24 20:13:36","新北市三重區永福街211巷1號","121.479808333333","25.074185","6500200","三重區"
"241031","061-VK","2019/12/24 20:13:27","新北市三重區三寧街15號","121.489391666667","25.0597483333333","6500200","三重區"
"241015","062-VK","2019/12/24 20:13:43","新北市三重區福德北路12號","121.502358333333","25.0643683333333","6500200","三重區"
"241017","063-VK","2019/12/24 20:13:26","新北市三重區大同北路219-2號","121.491535","25.0661866666667","6500200","三重區"
"241007","066-VK","2019/12/24 20:13:28","新北市三重區三和路四段117巷1-1號","121.485778333333","25.0776533333333","6500200","三重區"
"241002","090-VK","2019/12/24 20:13:29","新北市三重區仁義街210號","121.496345","25.0822633333333","6500200","三重區"
"241003","091-VK","2019/12/24 20:13:31","新北市三重區仁愛街478號","121.489561666667","25.0823483333333","6500200","三重區"
"241024","742-BX","2019/12/24 20:13:32","新北市三重區中正北路169號","121.478683333333","25.0693433333333","6500200","三重區"
"241006","262-UM","2019/12/24 20:13:26","新北市三重區車路頭街143巷5號","121.48415","25.0765433333333","6500200","三重區"
"241016","266-UM","2019/12/24 20:13:27","新北市三重區大同北路54巷1號","121.494146666667","25.0636533333333","6500200","三重區"
"241009","267-UM","2019/12/24 20:13:34","新北市三重區三和路四段382巷72號","121.480398333333","25.0781983333333","6500200","三重區"
"241018","268-UM","2019/12/24 20:13:25","新北市三重區正義北路256巷14號","121.495441666667","25.0682383333333","6500200","三重區"
"241032","269-UM","2019/12/24 20:13:42","新北市三重區捷運路19巷1號","121.48528","25.0562883333333","6500200","三重區"
"241013","270-UM","2019/12/24 20:13:28","新北市三重區三和路三段167巷1號","121.492008333333","25.0740333333333","6500200","三重區"
"241025","271-UM","2019/12/24 20:13:34","新北市三重區忠孝路三段15巷65號","121.479301666667","25.06863","6500200","三重區"
"241030","KED-0822","2019/12/24 20:13:38","新北市三重區集美街87號","121.488935","25.0533283333333","6500200","三重區"
"241035","462-BY","2019/12/24 20:13:34","新北市三重區正義北路17號","121.497776666667","25.0632416666667","6500200","三重區"
"241004","475-VK","2019/12/24 20:13:30","新北市三重區自強路四段62號","121.49023","25.0784","6500200","三重區"
"241020","478-VK","2019/12/24 20:13:36","新北市三重區後竹圍街43號","121.490585","25.0733866666667","6500200","三重區"
"241026","480-VK","2019/12/24 20:13:34","新北市三重區中央南路92號","121.501548333333","25.0607533333333","6500200","三重區"
"241014","543-UM","2019/12/24 20:13:35","新北市三重區龍濱路80號","121.502336666667","25.069675","6500200","三重區"
"241023","545-UM","2019/12/24 20:13:39","新北市三重區頂崁街203巷29弄4號","121.478298333333","25.06677","6500200","三重區"
"241001","547-UM","2019/12/24 20:13:41","新北市三重區自強路四段3巷45號","121.490461666667","25.0766","6500200","三重區"
"241019","KEA-2593","2019/12/24 20:13:42","新北市三重區忠孝路一段35號","121.491385","25.0719116666667","6500200","三重區"
"241005","AAD-863","2019/12/24 20:13:35","新北市三重區碧華街374號","121.490875","25.084245","6500200","三重區"
"241012","743-BX","2019/12/24 20:13:32","新北市三重區河邊北街272號","121.501636666667","25.0765783333333","6500200","三重區"
"241022","KED-0820","2019/12/24 20:13:38","新北市三重區中正北路34號","121.488135","25.06369","6500200","三重區"
"241029","942-UM","2019/12/24 20:13:25","新北市三重區中寮街116號","121.49383","25.0576433333333","6500200","三重區"
"241033","AAC-255","2019/12/24 20:13:28","新北市三重區五谷王北街42巷12號","121.475325","25.0492883333333","6500200","三重區"
"235066","003-UY","2019/12/24 20:13:31","新北市中和區水源路128號","121.507718333333","25.0031233333333","6500300","中和區"
"235039","097-UM","2019/12/24 20:13:40","新北市永和區民有街65號","121.517805","24.9957633333333","6500300","中和區"
"235065","098-UM","2019/12/24 20:13:30","新北市中和區永和路128巷45號","121.497806666667","25.0068016666667","6500300","中和區"
"235004","150-BY","2019/12/24 20:13:36","新北市中和區保健路61巷5弄2號","121.509603333333","24.9976166666667","6500300","中和區"
"247016","KEA-2869","2019/12/24 20:13:33","新北市蘆洲區光華路150巷18號","121.46534","25.083025","6501400","蘆洲區"
"247010","KED-0682","2019/12/24 20:13:36","新北市蘆洲區信義路188巷9號","121.47962","25.084495","6501400","蘆洲區"
"235050","4979-A6","2019/12/24 20:13:37","新北市中和區景新街274巷3號","121.510601666667","24.9921966666667","6500300","中和區"
"235069","4980-A6","2019/12/24 20:13:29","新北市中和區景新街64巷7弄5號","121.504313333333","24.9986966666667","6500300","中和區"
"235059","AAC-215","2019/12/24 20:13:22","新北市中和區圓通路335巷13號","121.493431666667","24.9895416666667","6500300","中和區"
"207004","KEE-1107","2019/12/24 20:13:35","新北市萬里區北基里大勇路11號","121.681726666667","25.1764416666667","6502800","萬里區"
"220054","015-TV","2019/12/24 20:13:29","新北市板橋區忠孝路201巷36號","121.46498","25.0035783333333","6500100","板橋區"
"220065","072-UY","2019/12/24 20:13:35","新北市板橋區縣民大道二段68-1號","121.463721666667","25.012915","6500100","板橋區"
"247006","893-R6","2019/12/24 20:13:35","新北市蘆洲區永安南路二段16巷5號","121.46773","25.0771866666667","6501400","蘆洲區"
"247020","546-UM","2019/12/24 20:13:31","新北市蘆洲區民義街108號","121.474083333333","25.0909383333333","6501400","蘆洲區"
"247004","500-BY","2019/12/24 20:13:37","新北市蘆洲區長安街220巷4號","121.458593333333","25.0845866666667","6501400","蘆洲區"
"247012","337-TH","2019/12/24 20:13:33","新北市蘆洲區民族路250巷9號","121.479718333333","25.088965","6501400","蘆洲區"
"247024","057-VK","2019/12/24 20:13:35","新北市蘆洲區光明路102號","121.463303333333","25.0880283333333","6501400","蘆洲區"
"247014","056-VK","2019/12/24 20:13:32","新北市蘆洲區中山二路179號","121.470995","25.080945","6501400","蘆洲區"
"247018","053-VK","2019/12/24 20:13:42","新北市蘆洲區民族路273號","121.475923333333","25.0908","6501400","蘆洲區"
"247022","007-UY","2019/12/24 20:13:37","新北市蘆洲區民族路586號","121.466783333333","25.0884733333333","6501400","蘆洲區"
"247002","001-UY","2019/12/24 20:13:25","新北市蘆洲區長安街242號","121.457568333333","25.085955","6501400","蘆洲區"
"224009","275-VK","2019/12/24 20:13:42","新北市瑞芳區民權街3-1號","121.809215","25.1083466666667","6501200","瑞芳區"
"222001","KEA-2212","2019/12/24 20:13:32","新北市深坑區北深路三段234號","121.600328333333","25.0041533333333","6501800","深坑區"
"251004","009-UM","2019/12/24 20:13:24","新北市淡水區民族路29巷24-1號","121.461683333333","25.1368133333333","6501000","淡水區"
"251001","011-UM","2019/12/24 20:13:27","新北市淡水區淡金路二段15號","121.446116666667","25.189175","6501000","淡水區"
"251002","012-UM","2019/12/24 20:13:33","新北市淡水區中正路334號","121.435796666667","25.1731783333333","6501000","淡水區"
"251015","KEA-2871","2019/12/24 20:13:23","新北市淡水區商工路335號","121.465781666667","25.1857616666667","6501000","淡水區"
"251016","180-VK","2019/12/24 20:13:39","新北市淡水區番子田19號","121.457551666667","25.228755","6501000","淡水區"
"251008","181-VK","2019/12/24 20:13:25","新北市淡水區沙崙路156巷20號","121.423971666667","25.1822933333333","6501000","淡水區"
"251010","413-VK","2019/12/24 20:13:32","新北市淡水區濱海路三段150號","121.424873333333","25.191525","6501000","淡水區"
"251012","441-VK","2019/12/24 20:13:26","新北市淡水區淡金路三段266號","121.448945","25.2065866666667","6501000","淡水區"
"251006","561-UM","2019/12/24 20:13:42","新北市淡水區北新路141巷2弄2號","121.449376666667","25.1791466666667","6501000","淡水區"
"251009","575-R6","2019/12/24 20:13:29","新北市淡水區清水街22號","121.444923333333","25.1704066666667","6501000","淡水區"
"251014","577-R6","2019/12/24 20:13:31","新北市淡水區石頭厝2-1號","121.458103333333","25.2357","6501000","淡水區"
"251011","650-BX","2019/12/24 20:13:44","新北市淡水區崁頂142號","121.431071666667","25.2056466666667","6501000","淡水區"
"251003","673-BX","2019/12/24 20:13:41","新北市淡水區中山北路一段229號","121.444436666667","25.17953","6501000","淡水區"
"251013","178-VK","2019/12/24 20:13:24","新北市淡水區奎柔山路760號","121.474903333333","25.2036683333333","6501000","淡水區"
"252001","292-VK","2019/12/24 20:13:27","新北市三芝區中山路一段9巷16號","121.499861666667","25.2586916666667","6502100","三芝區"
"237006","5529-G3","2019/12/24 20:13:24","新北市三峽區嘉添1-3號","121.367813333333","24.9117283333333","6500900","三峽區"
"237015","649-BX","2019/12/24 20:13:28","新北市三峽區介壽路二段138巷1號","121.396031666667","24.9342566666667","6500900","三峽區"
"236030","253-BX","2019/12/24 20:13:32","新北市土城區中央路一段69巷5號","121.448098333333","24.9895183333333","6501300","土城區"
"236026","269-VK","2019/12/24 20:13:42","新北市土城區裕生路83巷29弄2號","121.448268333333","24.9838916666667","6501300","土城區"
"236014","270-VK","2019/12/24 20:13:36","新北市土城區廣明街63巷23號","121.454155","24.9930883333333","6501300","土城區"
"236038","271-VK","2019/12/24 20:13:30","新北市土城區延吉街331號","121.465221666667","24.9841916666667","6501300","土城區"
"236070","KEA-2877","2019/12/24 20:13:40","新北市土城區大安路18號","121.43287","24.9661433333333","6501300","土城區"
"252002","KED-0821","2019/12/24 20:13:38","新北市三芝區淡金路二段15號","121.5025","25.2590833333333","6502100","三芝區"
"236021","401-BY","2019/12/24 20:13:39","新北市土城區金城路三段208號","121.471798333333","24.9896383333333","6501300","土城區"
"236059","912-UM","2019/12/24 20:13:32","新北市土城區中央路三段134號","121.433873333333","24.9656766666667","6501300","土城區"
"236049","913-UM","2019/12/24 20:13:40","新北市土城區清水路89號","121.456368333333","24.981765","6501300","土城區"
"242042","AAC-296","2019/12/24 20:13:35","新北市新莊區青山路一段89號","121.404785","25.0288833333333","6500500","新莊區"
"242061","986-R7","2019/12/24 20:13:26","新北市新莊區瓊林路瓊英巷4弄1號","121.44347","25.027575","6500500","新莊區"
"242005","751-BX","2019/12/24 20:13:32","新北市新莊區頭興街182號","121.461161666667","25.0536483333333","6500500","新莊區"
"242029","615-BX","2019/12/24 20:13:43","新北市新莊區中原路303號","121.447335","25.05429","6500500","新莊區"
"242027","613-BX","2019/12/24 20:13:31","新北市新莊區立信三街58號","121.444101666667","25.0509516666667","6500500","新莊區"
"242058","612-BX","2019/12/24 20:13:35","新北市新莊區龍安路425號","121.42344","25.0189316666667","6500500","新莊區"
"242048","566-BX","2019/12/24 20:13:28","新北市新莊區四維路182巷8號","121.421866666667","25.02184","6500500","新莊區"
"242054","497-BY","2019/12/24 20:13:39","新北市新莊區民安西路310號","121.426463333333","25.0119516666667","6500500","新莊區"
"242046","442-UM","2019/12/24 20:13:41","新北市新莊區裕民街103巷19號","121.419485","25.0229133333333","6500500","新莊區"
"242002","441-UM","2019/12/24 20:13:26","新北市三重區重新路五段652號","121.467921666667","25.0440716666667","6500500","新莊區"
"242007","440-UM","2019/12/24 20:13:31","新北市新莊區思源路419巷1弄3號","121.45931","25.0523183333333","6500500","新莊區"
"242044","415-TV","2019/12/24 20:13:39","桃園市龜山區萬壽路一段21巷8號","121.410521666667","25.0203466666667","6500500","新莊區"
"242013","413-TV","2019/12/24 20:13:26","新北市新莊區幸福路710巷5弄5號","121.448963333333","25.0499666666667","6500500","新莊區"
"242051","400-BY","2019/12/24 20:13:26","新北市新莊區民安西路170號","121.42589","25.01599","6500500","新莊區"
"242025","362-BY","2019/12/24 20:13:42","新北市新莊區五工路66號","121.458923333333","25.0641","6500500","新莊區"
"242023","353-BY","2019/12/24 20:13:36","新北市新莊區化成路604號","121.466203333333","25.0545516666667","6500500","新莊區"
"242015","132-UY","2019/12/24 20:13:29","新北市新莊區中平路26巷58號","121.447473333333","25.0433833333333","6500500","新莊區"
"242039","135-UY","2019/12/24 20:13:35","新北市新莊區龍安路435號","121.424016666667","25.0187766666667","6500500","新莊區"
"242017","173-VK","2019/12/24 20:13:25","新北市新莊區中港路397號","121.45188","25.04693","6500500","新莊區"
"242056","176-VK","2019/12/24 20:13:37","新北市新莊區豐年街50巷3號","121.4461","25.03174","6500500","新莊區"
"242021","KED-0687","2019/12/24 20:13:42","新北市新莊區中興街59號","121.449056666667","25.03738","6500500","新莊區"
"242037","348-TH","2019/12/24 20:13:38","新北市新莊區建安街73號","121.427721666667","25.0247","6500500","新莊區"
"242009","349-TH","2019/12/24 20:13:37","新北市新莊區昌平街71巷3號","121.454473333333","25.053385","6500500","新莊區"
"242034","350-TH","2019/12/24 20:13:33","新北市新莊區中正路318巷9號","121.446366666667","25.0355183333333","6500500","新莊區"
"242019","351-TH","2019/12/24 20:13:35","新北市新莊區民樂街73號","121.45785","25.0420966666667","6500500","新莊區"
"221008","489-VK","2019/12/24 20:13:24","台北市內湖區康樂街204號","121.621368333333","25.0762416666667","6501100","汐止區"
"221036","130-UY","2019/12/24 20:13:35","新北市汐止區新台五路二段100號","121.662463333333","25.0660216666667","6501100","汐止區"
"221015","131-UY","2019/12/24 20:13:33","新北市汐止區建成路35號","121.663766666667","25.0727133333333","6501100","汐止區"
"221010","269-BY","2019/12/24 20:13:28","新北市汐止區連峰街225巷22號","121.644161666667","25.0811","6501100","汐止區"
"221012","278-VK","2019/12/24 20:13:44","新北市汐止區大同路三段279號","121.674113333333","25.0751266666667","6501100","汐止區"
"221023","279-VK","2019/12/24 20:13:38","新北市汐止區明峰街295號","121.625633333333","25.0679583333333","6501100","汐止區"
"221032","280-BY","2019/12/24 20:13:30","新北市汐止區弘道街10號","121.616993333333","25.04859","6501100","汐止區"
"221027","281-BY","2019/12/24 20:13:30","新北市汐止區大同路二段509號","121.661411666667","25.0688766666667","6501100","汐止區"
"221029","298-VK","2019/12/24 20:13:30","新北市汐止區樟樹一路119巷7號","121.641363333333","25.0642883333333","6501100","汐止區"
"221021","299-VK","2019/12/24 20:13:33","新北市汐止區水源路一段259號","121.654145","25.05959","6501100","汐止區"
"207003","KEE-1020","2019/12/24 20:13:29","新北市萬里區大鵬里萬里加投79號","121.647333333333","25.21159","6502800","萬里區"
"221031","567-BX","2019/12/24 20:13:24","新北市汐止區中興路214巷7弄2號","121.631433333333","25.0666066666667","6501100","汐止區"
"221035","622-UM","2019/12/24 20:13:38","新北市汐止區長江街43號","121.655821666667","25.0712316666667","6501100","汐止區"
"221025","623-UM","2019/12/24 20:13:32","新北市汐止區新台五路一段192號","121.6552","25.0628566666667","6501100","汐止區"
"221038","646-BX","2019/12/24 20:13:37","新北市汐止區忠孝東路462巷22號","121.666696666667","25.073675","6501100","汐止區"
"221033","647-BX","2019/12/24 20:13:29","新北市汐止區東勢街201巷104號","121.633536666667","25.04284","6501100","汐止區"
"221002","707-TV","2019/12/24 20:13:34","新北市汐止區福德一路2巷3號","121.638981666667","25.07002","6501100","汐止區"
"221018","753-BX","2019/12/24 20:13:27","新北市汐止區茄興街10號","121.673413333333","25.0672566666667","6501100","汐止區"
"220079","145-BY","2019/12/24 20:13:42","新北市板橋區復興街90號","121.459566666667","25.0177016666667","6500100","板橋區"
"220080","200-UY","2019/12/24 20:13:26","新北市板橋區大觀路二段153巷44弄53號","121.445991666667","24.9990466666667","6500100","板橋區"
"220083","286-VK","2019/12/24 20:13:37","新北市板橋區僑中二街90巷14號","121.445706666667","25.009275","6500100","板橋區"
"220081","287-VK","2019/12/24 20:13:23","新北市板橋區僑中一街124巷20弄19號","121.446921666667","25.014045","6500100","板橋區"
"220075","303-R5","2019/12/24 20:13:36","新北市板橋區金華街10巷39號","121.457153333333","25.0203383333333","6500100","板橋區"
"242011","280-VK","2019/12/24 20:13:40","新北市新莊區中信街37巷4弄12號","121.449716666667","25.0502416666667","6500500","新莊區"
"220035","560-BX","2019/12/24 20:13:30","新北市板橋區新生街37號","121.456743333333","25.02114","6500100","板橋區"
"220103","561-BX","2019/12/24 20:13:38","新北市板橋區漢生東路33巷42號","121.466141666667","25.017685","6500100","板橋區"
"220077","687-BX","2019/12/24 20:13:30","新北市板橋區僑中一街124巷20弄1號","121.446205","25.0141366666667","6500100","板橋區"
"220055","827-TW","2019/12/24 20:13:30","新北市板橋區忠孝路48巷11弄1號","121.461461666667","24.999795","6500100","板橋區"
"220074","895-R6","2019/12/24 20:13:37","新北市板橋區稚暉街1號","121.455998333333","25.0046566666667","6500100","板橋區"
"235068","KEA-2876","2019/12/24 20:13:15","新北市中和區福祥路83號","121.499131666667","25.0058","6500300","中和區"
