"lineid","car","time","location","longitude","latitude","cityid","cityname"
"251004","009-UM","2019/12/24 21:59:24","新北市淡水區民族路112巷3號","121.462483333333","25.1351216666667","6501000","淡水區"
"251005","010-UM","2019/12/24 21:59:29","新北市淡水區鄧公路30巷1弄67號","121.454401666667","25.16954","6501000","淡水區"
"251008","181-VK","2019/12/24 21:59:25","新北市淡水區水源街二段2號","121.449051666667","25.1734683333333","6501000","淡水區"
"251010","413-VK","2019/12/24 21:59:32","新北市淡水區中正路二段211號","121.426206666667","25.18911","6501000","淡水區"
"251007","442-VK","2019/12/24 21:59:38","新北市淡水區北新路184巷19號","121.450238333333","25.1780616666667","6501000","淡水區"
"251006","561-UM","2019/12/24 21:45:33","新北市淡水區中正路11巷3號","121.437888333333","25.1707516666667","6501000","淡水區"
"251011","650-BX","2019/12/24 21:59:24","新北市淡水區中山北路一段129號","121.442865","25.1770266666667","6501000","淡水區"
"251003","673-BX","2019/12/24 21:59:41","新北市淡水區新春街94號","121.439051666667","25.18232","6501000","淡水區"
