"lineid","car","time","location","longitude","latitude","cityid","cityname"
"232005","291-BY","2019/09/23 08:49:38","新北市坪林區石9-12號","121.708801666667","24.9075566666667","6502000","坪林區"
"244006","080-UY","2019/09/23 08:49:39","新北市林口區林口路162號","121.387781666667","25.0824666666667","6501700","林口區"
"244012","KEA-2802","2019/09/23 08:49:29","新北市林口區中山路297巷86號","121.38314","25.0795733333333","6501700","林口區"
"244022","483-VK","2019/09/23 08:49:25","新北市林口區興林路450號","121.389416666667","25.068075","6501700","林口區"
"244016","485-VK","2019/09/23 08:49:26","新北市林口區公園路36號","121.36697","25.0677466666667","6501700","林口區"
"244008","656-BX","2019/09/23 08:49:29","新北市林口區佳林路56巷13號","121.385431666667","25.08138","6501700","林口區"
"244010","701-TV","2019/09/23 08:49:26","新北市林口區中正路74巷3弄2號","121.394603333333","25.0777216666667","6501700","林口區"
"244024","837-TS","2019/09/23 08:49:36","新北市林口區南勢七街28號","121.355206666667","25.0691983333333","6501700","林口區"
"244020","838-TS","2019/09/23 08:49:25","新北市林口區自強二街42-2號","121.398825","25.0773366666667","6501700","林口區"
"222004","289-BY","2019/09/23 08:49:37","新北市深坑區風格街16巷1號","121.627205","25.016945","6501800","深坑區"
"231007","189-VK","2019/09/23 08:49:34","新北市新店區平廣路二段235號","121.497723333333","24.9011366666667","6500600","新店區"
"231008","192-VK","2019/09/23 08:49:35","新北市新店區廣興路60巷36弄6號","121.544046666667","24.9155033333333","6500600","新店區"
"226005","5620-A6","2019/09/23 08:49:45","新北市平溪區南山里南山坪1號","121.777586666667","25.0428516666667","6502400","平溪區"
"226001","7418-A5","2019/09/23 08:46:05","新北市平溪區東勢里火燒寮26-2號","121.756996666667","24.99211","6502400","平溪區"
"226003","AGD-0702","2019/09/23 08:49:37","新北市平溪區十分里十分街259號","121.778271666667","25.04492","6502400","平溪區"
"223003","205-TH","2019/09/23 08:49:34","新北市石碇區北宜路六段柑腳巷2號","121.659481666667","24.9380383333333","6501900","石碇區"
"223008","406-TH","2019/09/23 08:49:31","新北市石碇區碇南路二段松柏崎巷35號","121.677533333333","25.0214316666667","6501900","石碇區"
"223001","592-UM","2019/09/23 08:49:36","新北市石碇區北宜路六段柑腳巷2號","121.659618333333","24.9380116666667","6501900","石碇區"
"223004","660-BX","2019/09/23 08:49:25","新北市石碇區崩山24-6號","121.679463333333","24.96891","6501900","石碇區"
"223007","661-BX","2019/09/23 08:49:34","新北市石碇區碇南路二段松柏崎巷10號","121.67475","25.0182033333333","6501900","石碇區"
"223005","677-TV","2019/09/23 08:49:30","新北市石碇區崩山24-2號","121.678555","24.9679183333333","6501900","石碇區"
"227003","282-VK","2019/09/23 08:49:40","新北市雙溪區泰平里泰平9號","121.845861666667","24.9891116666667","6502500","雙溪區"
"252006","073-UM","2019/09/23 08:49:26","新北市三芝區古庄里四棧橋27-1號","121.484786666667","25.262525","6502100","三芝區"
"252004","292-VK","2019/09/23 08:49:40","新北市三芝區興華里田心子15-13號","121.492888333333","25.2042916666667","6502100","三芝區"
"237014","760-BX","2019/09/23 08:49:36","新北市三峽區插角248-1號","121.425218333333","24.8563716666667","6500900","三峽區"
"242040","AAC-296","2019/09/23 08:49:34","新北市新莊區天祥街91巷34號","121.414708333333","25.0286833333333","6500500","新莊區"
"242059","986-R7","2019/09/23 08:49:48","新北市新莊區富國路178號","121.424291666667","25.02452","6500500","新莊區"
"242003","751-BX","2019/09/23 08:49:46","新北市新莊區化成路11巷21號","121.464058333333","25.0433666666667","6500500","新莊區"
"242028","615-BX","2019/09/23 08:49:47","新北市新莊區中榮街101號","121.44494","25.0528016666667","6500500","新莊區"
"242026","613-BX","2019/09/23 08:49:37","新北市新莊區中平路377巷43號","121.443171666667","25.0524916666667","6500500","新莊區"
"242057","612-BX","2019/09/23 08:49:39","新北市新莊區中正路901-1號","121.411203333333","25.021415","6500500","新莊區"
"242047","566-BX","2019/09/23 08:49:43","新北市新莊區後港一路28巷14號","121.425685","25.02512","6500500","新莊區"
"242052","497-BY","2019/09/23 08:49:40","新北市新莊區民安西路402號","121.428781666667","25.010145","6500500","新莊區"
"242049","442-UM","2019/09/23 08:49:45","新北市新莊區民安西路212巷10號","121.42514","25.0148633333333","6500500","新莊區"
"242001","441-UM","2019/09/23 08:49:35","新北市新莊區中正路219號","121.450821666667","25.0357816666667","6500500","新莊區"
"242006","440-UM","2019/09/23 08:49:34","新北市新莊區福壽街202巷24號","121.459236666667","25.0536316666667","6500500","新莊區"
"242043","415-TV","2019/09/23 08:49:44","新北市新莊區中山路三段619號","121.413061666667","25.0251316666667","6500500","新莊區"
"242012","413-TV","2019/09/23 08:49:31","新北市新莊區中華路二段83號","121.452631666667","25.048065","6500500","新莊區"
"242024","362-BY","2019/09/23 08:49:41","新北市新莊區五工三路94巷2號","121.458328333333","25.065645","6500500","新莊區"
"242022","353-BY","2019/09/23 08:49:34","新北市新莊區化成路424號","121.465956666667","25.0510566666667","6500500","新莊區"
"242014","132-UY","2019/09/23 08:49:45","新北市新莊區復興路一段39號","121.446733333333","25.042005","6500500","新莊區"
"242038","135-UY","2019/09/23 08:49:42","新北市新莊區民安路299巷55弄10號","121.429203333333","25.0237633333333","6500500","新莊區"
"242055","172-VK","2019/09/23 08:49:39","新北市新莊區瓊泰路63巷19號","121.442693333333","25.028525","6500500","新莊區"
"242016","173-VK","2019/09/23 08:49:41","新北市新莊區中港一街107號","121.448938333333","25.0451333333333","6500500","新莊區"
"242030","175-VK","2019/09/23 08:49:30","新北市新莊區新泰路277巷45號","121.444075","25.0401883333333","6500500","新莊區"
"242020","KED-0687","2019/09/23 08:49:47","新北市新莊區建中街18號","121.44943","25.0377066666667","6500500","新莊區"
"242010","346-TH","2019/09/23 08:49:41","新北市新莊區中港路531巷90號","121.450105","25.05182","6500500","新莊區"
"242018","347-TH","2019/09/23 08:49:45","新北市新莊區民樂街60號","121.458031666667","25.0418583333333","6500500","新莊區"
"242035","348-TH","2019/09/23 08:49:42","新北市新莊區民安路207巷30弄26號","121.428143333333","25.0240416666667","6500500","新莊區"
"242008","349-TH","2019/09/23 08:49:32","新北市新莊區昌盛街35巷4弄1號","121.454121666667","25.0506183333333","6500500","新莊區"
"242033","350-TH","2019/09/23 08:49:40","新北市新莊區新泰路199巷19號","121.445641666667","25.03771","6500500","新莊區"
"244018","KED-0667","2019/09/23 08:49:43","新北市林口區忠孝路542巷5號","121.372905","25.0674266666667","6501700","林口區"
"242045","281-VK","2019/09/23 08:49:35","新北市新莊區中正路829巷59號","121.421511666667","25.0272633333333","6500500","新莊區"
