"lineid","car","time","location","longitude","latitude","cityid","cityname"
"232005","291-BY","2019/09/23 08:59:38","新北市坪林區魚堀9-13號","121.704506666667","24.9061466666667","6502000","坪林區"
"244006","080-UY","2019/09/23 08:59:39","新北市林口區竹林路77號","121.388316666667","25.0792133333333","6501700","林口區"
"244012","KEA-2802","2019/09/23 08:59:42","新北市林口區中正路510號","121.381935","25.077165","6501700","林口區"
"244022","483-VK","2019/09/23 08:59:45","新北市林口區東湖路98號","121.385418333333","25.0737516666667","6501700","林口區"
"244016","485-VK","2019/09/23 08:59:46","新北市林口區八德路62號","121.365768333333","25.06545","6501700","林口區"
"244008","656-BX","2019/09/23 08:59:29","新北市林口區中山路256-1號","121.38555","25.079805","6501700","林口區"
"244010","701-TV","2019/09/23 08:59:45","新北市林口區仁愛路一段266-1號","121.393975","25.0762266666667","6501700","林口區"
"244024","837-TS","2019/09/23 08:59:36","新北市林口區南勢四街328號","121.357435","25.0761433333333","6501700","林口區"
"244020","838-TS","2019/09/23 08:59:45","新北市林口區工六路54號","121.399298333333","25.078105","6501700","林口區"
"222004","289-BY","2019/09/23 08:59:37","新北市深坑區風格街31巷3號","121.627886666667","25.0172766666667","6501800","深坑區"
"231007","189-VK","2019/09/23 08:59:14","新北市新店區新潭路三段215巷25號","121.508115","24.9040883333333","6500600","新店區"
"231008","192-VK","2019/09/23 08:59:35","新北市新店區廣興路60巷35號","121.542485","24.9165566666667","6500600","新店區"
"226001","7418-A5","2019/09/23 08:46:05","新北市平溪區東勢里火燒寮26-2號","121.756996666667","24.99211","6502400","平溪區"
"226003","AGD-0702","2019/09/23 08:59:37","新北市平溪區十分里十分街236號","121.77809","25.044055","6502400","平溪區"
"223003","205-TH","2019/09/23 08:59:34","新北市石碇區北宜路六段水底寮巷18號","121.662816666667","24.9421766666667","6501900","石碇區"
"223008","406-TH","2019/09/23 08:59:31","新北市石碇區石汐路1號","121.678135","25.0340083333333","6501900","石碇區"
"223001","592-UM","2019/09/23 08:59:36","新北市石碇區北宜路六段水底寮巷12號","121.665196666667","24.94218","6501900","石碇區"
"223004","660-BX","2019/09/23 08:59:45","新北市石碇區崩山53號","121.682376666667","24.9688983333333","6501900","石碇區"
"223007","661-BX","2019/09/23 08:59:34","新北市石碇區碇南路二段7號","121.67023","25.031165","6501900","石碇區"
"223005","677-TV","2019/09/23 08:59:39","新北市石碇區碇坪路二段56號","121.682706666667","24.969315","6501900","石碇區"
"227003","282-VK","2019/09/23 08:59:40","新北市雙溪區泰平里泰平35號","121.826121666667","24.9707233333333","6502500","雙溪區"
"252006","073-UM","2019/09/23 08:59:46","新北市三芝區樂全街1號","121.487655","25.259115","6502100","三芝區"
"252004","292-VK","2019/09/23 08:59:19","新北市三芝區興華里田心子32-6號","121.491568333333","25.1996566666667","6502100","三芝區"
"237014","760-BX","2019/09/23 08:59:36","新北市三峽區有木2-2號","121.418753333333","24.8659033333333","6500900","三峽區"
"242040","AAC-296","2019/09/23 08:59:33","新北市新莊區新北大道七段233號","121.413215","25.029985","6500500","新莊區"
"242059","986-R7","2019/09/23 08:59:33","新北市新莊區民安路153號","121.42553","25.0236133333333","6500500","新莊區"
"242003","751-BX","2019/09/23 08:57:49","新北市新莊區化成路45號","121.46518","25.0446616666667","6500500","新莊區"
"242028","615-BX","2019/09/23 08:59:47","新北市新莊區中原路237號","121.44957","25.0542233333333","6500500","新莊區"
"242026","613-BX","2019/09/23 08:59:37","新北市新莊區幸福路902號","121.443041666667","25.04936","6500500","新莊區"
"242057","612-BX","2019/09/23 08:59:32","新北市新莊區中正路879-3號","121.417818333333","25.0263183333333","6500500","新莊區"
"242047","566-BX","2019/09/23 08:59:39","新北市新莊區民安路201號","121.426261666667","25.0224183333333","6500500","新莊區"
"242052","497-BY","2019/09/23 08:59:40","新北市新莊區西盛街395巷1號","121.428058333333","25.0128783333333","6500500","新莊區"
"242049","442-UM","2019/09/23 08:59:35","新北市新莊區民安西路189巷5號","121.426358333333","25.0154133333333","6500500","新莊區"
"242001","441-UM","2019/09/23 08:59:35","新北市新莊區中正路48號","121.464051666667","25.041185","6500500","新莊區"
"242006","440-UM","2019/09/23 08:59:34","新北市新莊區福壽街94巷17號","121.459243333333","25.0502083333333","6500500","新莊區"
"242043","415-TV","2019/09/23 08:59:44","新北市新莊區龍安路103號","121.416248333333","25.0225333333333","6500500","新莊區"
"242012","413-TV","2019/09/23 08:59:31","新北市新莊區中信街63巷4弄2號","121.449078333333","25.0503033333333","6500500","新莊區"
"242024","362-BY","2019/09/23 08:59:47","新北市新莊區五工二路86巷26號","121.460378333333","25.0670183333333","6500500","新莊區"
"242022","353-BY","2019/09/23 08:59:34","新北市新莊區化成路692號","121.465863333333","25.0562483333333","6500500","新莊區"
"242014","132-UY","2019/09/23 08:59:40","新北市新莊區中和街31巷22號","121.447203333333","25.0438666666667","6500500","新莊區"
"242038","135-UY","2019/09/23 08:59:42","新北市新莊區民安西路47號","121.427476666667","25.0206266666667","6500500","新莊區"
"242055","172-VK","2019/09/23 08:59:43","新北市新莊區新豐街29號","121.448018333333","25.0339516666667","6500500","新莊區"
"242016","173-VK","2019/09/23 08:59:31","新北市新莊區中港三街11號","121.451035","25.0464983333333","6500500","新莊區"
"242030","175-VK","2019/09/23 08:59:30","新北市新莊區新泰路225巷22弄19號","121.444185","25.0391816666667","6500500","新莊區"
"242020","KED-0687","2019/09/23 08:59:41","新北市新莊區中興街47號","121.449191666667","25.037065","6500500","新莊區"
"242010","346-TH","2019/09/23 08:59:41","新北市新莊區中信街37巷2弄11號","121.44973","25.0503983333333","6500500","新莊區"
"242018","347-TH","2019/09/23 08:59:45","新北市新莊區復興路二段98號","121.456303333333","25.0443033333333","6500500","新莊區"
"242035","348-TH","2019/09/23 08:59:42","新北市新莊區建安街23號","121.429008333333","25.026015","6500500","新莊區"
"242008","349-TH","2019/09/23 08:59:46","新北市新莊區昌隆街92號","121.456148333333","25.0508066666667","6500500","新莊區"
"242033","350-TH","2019/09/23 08:59:40","新北市新莊區建中街79號","121.447306666667","25.0366466666667","6500500","新莊區"
"244018","KED-0667","2019/09/23 08:59:43","新北市林口區文化一路一段118號","121.37413","25.0717766666667","6501700","林口區"
"242045","281-VK","2019/09/23 08:59:35","新北市新莊區民安路16-9號","121.422726666667","25.028055","6500500","新莊區"
