"lineid","car","time","location","longitude","latitude","cityid","cityname"
"244022","483-VK","2019/09/23 10:09:45","新北市林口區民權路201號","121.375275","25.085385","6501700","林口區"
"231008","192-VK","2019/09/23 10:09:35","新北市新店區小坑一路21-1號","121.532866666667","24.9123133333333","6500600","新店區"
"227003","282-VK","2019/09/23 10:09:40","新北市雙溪區泰平里溪尾寮46號","121.821426666667","24.96759","6502500","雙溪區"
"252004","292-VK","2019/09/23 10:09:40","新北市三芝區福德里埔尾13-3號","121.503975","25.24512","6502100","三芝區"
"237014","760-BX","2019/09/23 10:09:36","新北市三峽區中正路二段60號","121.366715","24.918575","6500900","三峽區"
"242059","986-R7","2019/09/23 10:09:28","新北市泰山區磚雅厝3號","121.44215","25.0416066666667","6500500","新莊區"
"220034","297-UM","2019/09/23 09:49:46","新北市板橋區華東街1-10號","121.448385","24.9949666666667","6500100","板橋區"
