"lineid","car","time","location","longitude","latitude","cityid","cityname"
"244022","483-VK","2019/09/23 10:49:45","新北市林口區文林五街28巷18號","121.3732","25.0840033333333","6501700","林口區"
"231007","189-VK","2019/09/23 10:49:31","新北市新店區新潭路三段80巷3號","121.50265","24.9099683333333","6500600","新店區"
"231008","192-VK","2019/09/23 10:49:35","新北市新店區松林路15號","121.547388333333","24.9106783333333","6500600","新店區"
"227003","282-VK","2019/09/23 10:49:40","新北市雙溪區泰平里泰平63號","121.824538333333","24.9694333333333","6502500","雙溪區"
"237014","760-BX","2019/09/23 10:31:19","新北市三峽區中山路459巷135號","121.348641666667","24.9329466666667","6500900","三峽區"
