"lineid","car","time","location","longitude","latitude","cityid","cityname"
"234044","148-BY","2019/09/23 13:49:35","新北市永和區永利路125號","121.524113333333","25.0029133333333","6500400","永和區"
"234078","298-R6","2019/09/23 13:49:32","新北市永和區永亨路98號","121.523046666667","25.0048666666667","6500400","永和區"
"234036","336-UY","2019/09/23 13:49:42","新北市永和區民樂街59巷7號","121.528016666667","24.9983266666667","6500400","永和區"
"234062","337-UY","2019/09/23 13:49:41","新北市永和區中正路368巷18號","121.518481666667","25.0007666666667","6500400","永和區"
"234084","338-UY","2019/09/23 13:49:44","新北市永和區永利路6號","121.517441666667","25.0059333333333","6500400","永和區"
"234068","552-UM","2019/09/23 13:49:39","新北市永和區竹林路88號","121.51942","25.0125433333333","6500400","永和區"
"234001","553-UM","2019/09/23 13:49:44","新北市永和區永和路一段105號","121.513783333333","25.007905","6500400","永和區"
"234015","745-BX","2019/09/23 13:49:44","新北市永和區文化路53號","121.514293333333","25.0150666666667","6500400","永和區"
"234028","746-BX","2019/09/23 13:49:45","新北市永和區民權路1巷44號","121.522401666667","24.9980766666667","6500400","永和區"
"234052","KEA-2590","2019/09/23 13:49:29","新北市永和區竹林路75巷25弄3號","121.520271666667","25.014235","6500400","永和區"
"234005","KED-0605","2019/09/23 13:49:36","新北市永和區永和路一段42號","121.513055","25.00569","6500400","永和區"
"234012","KEA-2591","2019/09/23 13:49:33","新北市永和區永平路258號","121.508335","25.0114816666667","6500400","永和區"
"234060","AAD-866","2019/09/23 13:49:46","新北市永和區中正路69號","121.514851666667","24.9966933333333","6500400","永和區"
"234040","862-TW","2019/09/23 13:49:33","新北市永和區中和路389巷13號","121.508058333333","25.0010083333333","6500400","永和區"
"234048","863-TW","2019/09/23 13:49:29","新北市永和區保安路144號","121.508528333333","25.0148566666667","6500400","永和區"
"234022","9380-KE","2019/09/23 13:49:35","新北市永和區中正路659號","121.514651666667","25.010245","6500400","永和區"
"234076","969-R7","2019/09/23 13:49:36","新北市永和區民族街41巷23號","121.51944","24.9987833333333","6500400","永和區"
"234072","AAC-211","2019/09/23 13:49:38","新北市永和區豫溪街211號","121.524128333333","25.00959","6500400","永和區"
"234066","AAC-212","2019/09/23 13:49:43","新北市永和區中山路一段255巷22號","121.50851","25.00714","6500400","永和區"
"244001","248-BX","2019/09/23 13:49:37","新北市林口區後坑1-1號","121.35759","25.1322616666667","6501700","林口區"
"243002","297-R6","2019/09/23 13:49:36","新北市泰山區辭修路48號","121.428506666667","25.0574683333333","6501600","泰山區"
"243006","KEA-2801","2019/09/23 13:49:31","新北市泰山區黎明路25號","121.421966666667","25.06073","6501600","泰山區"
"243003","KEA-2216","2019/09/23 13:49:38","新北市泰山區明志路二段25號","121.429851666667","25.0533266666667","6501600","泰山區"
"243007","680-BX","2019/09/23 13:49:31","新北市泰山區美寧街50號","121.430526666667","25.0644883333333","6501600","泰山區"
"231030","002-UM","2019/09/23 13:49:48","新北市新店區安康路一段90號","121.527933333333","24.9619816666667","6500600","新店區"
"231024","0291-UT","2019/09/23 13:49:44","新北市新店區新生街37號","121.539316666667","24.9668166666667","6500600","新店區"
"231005","046-UY","2019/09/23 13:49:28","新北市新店區寶中路121-1號","121.549673333333","24.97945","6500600","新店區"
"231029","106-UY","2019/09/23 13:49:32","新北市新店區安康路二段156號","121.512311666667","24.960875","6500600","新店區"
"231018","107-UY","2019/09/23 13:49:27","新北市新店區中正路400巷26號","121.535453333333","24.9785016666667","6500600","新店區"
"231013","108-UY","2019/09/23 13:49:37","新北市新店區二十張路25巷18弄28號","121.539225","24.98139","6500600","新店區"
"231036","110-UY","2019/09/23 13:49:40","新北市新店區安祥路110巷24號","121.474275","24.9563916666667","6500600","新店區"
"231062","256-BX","2019/09/23 13:49:29","新北市新店區莒光路44巷21弄11-3號","121.518463333333","24.9521866666667","6500600","新店區"
"231023","260-TV","2019/09/23 13:49:31","新北市新店區國校路41號","121.537926666667","24.9554066666667","6500600","新店區"
"231003","268-BY","2019/09/23 13:49:46","新北市新店區中興路一段161號","121.542456666667","24.9642116666667","6500600","新店區"
"231035","278-BY","2019/09/23 13:49:36","新北市新店區安忠路57巷5-6號","121.513181666667","24.9587966666667","6500600","新店區"
"231014","AAD-862","2019/09/23 13:49:46","新北市新店區竹林路65號","121.553038333333","24.9514","6500600","新店區"
"231006","355-BY","2019/09/23 13:49:28","新北市新店區北宜路一段178號","121.540753333333","24.9529116666667","6500600","新店區"
"231038","3712-VJ","2019/09/23 13:49:35","新北市新店區安華路30巷3號","121.519558333333","24.95923","6500600","新店區"
"231027","3713-VJ","2019/09/23 13:49:35","新北市新店區北宜路一段105巷4弄1號","121.539903333333","24.9557066666667","6500600","新店區"
"231025","4715-K9","2019/09/23 13:49:46","新北市新店區中正路275巷20號","121.537081666667","24.973405","6500600","新店區"
"231019","512-UM","2019/09/23 13:49:43","新北市新店區永興路88-1號","121.544123333333","24.9335633333333","6500600","新店區"
"231002","619-UM","2019/09/23 13:49:28","新北市新店區溪園路393號","121.524255","24.9790316666667","6500600","新店區"
"231034","641-BX","2019/09/23 13:49:33","新北市新店區達觀路14巷2號","121.50336","24.9411716666667","6500600","新店區"
"231011","KED-0819","2019/09/23 13:49:27","新北市新店區德正街27巷29弄45號","121.545746666667","24.9722133333333","6500600","新店區"
"231010","719-UM","2019/09/23 13:47:37","","121.535418333333","24.9724166666667","6500600","新店區"
"231026","720-UM","2019/09/23 13:49:43","新北市新店區中正路331-1號","121.536103333333","24.9753033333333","6500600","新店區"
"231028","897-TW","2019/09/23 13:49:32","新北市新店區安和路二段208號","121.518141666667","24.9750983333333","6500600","新店區"
"231001","898-TW","2019/09/23 13:49:44","新北市新店區三民路102號","121.534005","24.9739083333333","6500600","新店區"
"231004","899-TW","2019/09/23 13:49:26","新北市新店區寶橋路88號","121.546655","24.975755","6500600","新店區"
"231037","AKT-0513","2019/09/23 13:49:32","新北市新店區安康路三段359巷12弄25號","121.484058333333","24.9493383333333","6500600","新店區"
"235030","003-UY","2019/09/23 13:49:41","新北市中和區中山路二段131巷33號","121.503818333333","25.0027716666667","6500300","中和區"
"235020","096-UM","2019/09/23 13:49:25","新北市中和區中正路1184號","121.481111666667","25.0101766666667","6500300","中和區"
"235003","097-UM","2019/09/23 13:49:28","新北市中和區景平路64巷12號","121.522318333333","24.9912883333333","6500300","中和區"
"235029","098-UM","2019/09/23 13:49:29","新北市中和區中山路二段2巷45弄2號","121.50234","25.0070633333333","6500300","中和區"
"235004","150-BY","2019/09/23 13:49:32","新北市中和區保健路46巷1號","121.509843333333","24.997045","6500300","中和區"
"235022","151-BY","2019/09/23 13:49:29","新北市中和區連城路559號","121.47985","24.99479","6500300","中和區"
"235002","185-VK","2019/09/23 13:49:31","新北市中和區大勇街31巷1號","121.517431666667","24.9941666666667","6500300","中和區"
"235013","186-VK","2019/09/23 13:49:32","新北市中和區景新街210巷15號","121.507028333333","24.99458","6500300","中和區"
"235031","255-BX","2019/09/23 13:49:31","新北市中和區新生街166巷11號","121.483058333333","25.0001166666667","6500300","中和區"
"235008","293-VK","2019/09/23 13:49:46","新北市中和區中興街139號","121.499966666667","24.991315","6500300","中和區"
"235036","301-VK","2019/09/23 13:49:38","新北市中和區中山路二段94號","121.50331","25.004295","6500300","中和區"
"235007","352-BY","2019/09/23 13:49:40","新北市中和區成功路6號","121.526235","24.99397","6500300","中和區"
"235006","KEA-2878","2019/09/23 13:49:37","新北市中和區秀朗路三段135巷7弄1號","121.5254","24.9919616666667","6500300","中和區"
"247015","KEA-2869","2019/09/23 13:49:31","新北市蘆洲區光華路29號","121.469271666667","25.0831216666667","6501400","蘆洲區"
"235014","4979-A6","2019/09/23 13:49:40","新北市中和區忠孝街62巷3號","121.512646666667","24.9836116666667","6500300","中和區"
"235033","4980-A6","2019/09/23 13:49:31","新北市中和區南山路81巷8弄12號","121.502546666667","24.99776","6500300","中和區"
"235034","558-UM","2019/09/23 13:49:26","新北市中和區中和路143號","121.50221","24.9997083333333","6500300","中和區"
"235009","565-BX","2019/09/23 13:49:46","新北市中和區景新街467巷8號","121.513826666667","24.98808","6500300","中和區"
"235024","KED-0823","2019/09/23 13:49:37","新北市中和區中山路三段136號","121.473943333333","25.006215","6500300","中和區"
"235018","640-BX","2019/09/23 13:49:27","新北市中和區民享街2巷1號","121.47387","25.00567","6500300","中和區"
"235011","732-UM","2019/09/23 13:49:40","新北市中和區興南路二段34巷26弄1號","121.505316666667","24.986435","6500300","中和區"
"235010","733-UM","2019/09/23 13:49:31","新北市中和區興南路一段142-6號","121.50849","24.9872016666667","6500300","中和區"
"235035","783-BX","2019/09/23 13:49:33","新北市中和區中山路二段482巷26號","121.490341666667","25.0063966666667","6500300","中和區"
"235021","801-TS","2019/09/23 13:49:31","新北市中和區民利街56號","121.479088333333","24.9987683333333","6500300","中和區"
"235005","802-TS","2019/09/23 13:49:35","新北市中和區永貞路280號","121.513116666667","25.0039683333333","6500300","中和區"
"235016","805-TS","2019/09/23 13:49:39","新北市中和區興南路二段399巷58號","121.499536666667","24.9789466666667","6500300","中和區"
"235012","896-TW","2019/09/23 13:49:40","新北市中和區南山路238號","121.506928333333","24.98976","6500300","中和區"
"235017","900-TW","2019/09/23 13:49:36","新北市中和區民德路290巷2號","121.467283333333","24.9957466666667","6500300","中和區"
"235028","911-UM","2019/09/23 13:49:36","新北市中和區泰和街34號","121.499335","25.0003016666667","6500300","中和區"
"235015","157-BY","2019/09/23 13:49:37","新北市中和區忠孝街56號","121.511518333333","24.9836583333333","6500300","中和區"
"235023","AAC-215","2019/09/23 13:49:31","新北市中和區圓通路393巷18號","121.489888333333","24.988615","6500300","中和區"
"220013","072-UY","2019/09/23 13:49:32","新北市板橋區館前東路110-1號","121.463326666667","25.0076383333333","6500100","板橋區"
"220034","073-UY","2019/09/23 13:49:30","新北市板橋區南雅西路二段145巷6號","121.45161","25.011755","6500100","板橋區"
"220105","075-UY","2019/09/23 13:49:43","新北市板橋區文化路二段124巷26號","121.471181666667","25.0256583333333","6500100","板橋區"
"220017","AAD-861","2019/09/23 13:49:30","新北市板橋區華興街72號","121.45734","25.0049633333333","6500100","板橋區"
"220016","120-SR","2019/09/23 13:49:30","新北市板橋區大同街24號","121.477783333333","25.0271316666667","6500100","板橋區"
"247007","341-TH","2019/09/23 13:49:43","新北市三重區三和路四段237號","121.480828333333","25.0803383333333","6501400","蘆洲區"
"247011","337-TH","2019/09/23 13:49:28","新北市蘆洲區復興路357號","121.487723333333","25.092795","6501400","蘆洲區"
"247003","336-TH","2019/09/23 13:49:34","新北市蘆洲區長榮路76號","121.462251666667","25.0836533333333","6501400","蘆洲區"
"247001","001-UY","2019/09/23 13:49:42","新北市蘆洲區長榮路709號","121.461023333333","25.0929183333333","6501400","蘆洲區"
"235027","251-BX","2019/09/23 13:49:37","新北市中和區錦和路196巷5號","121.489796666667","24.9949333333333","6500300","中和區"
"253003","6232-TK","2019/09/23 13:49:32","新北市石門區中山路62-20號","121.56973","25.285155","6502200","石門區"
"253004","6251-TK","2019/09/23 13:49:45","新北市石門區阿里荖48號","121.607305","25.2750933333333","6502200","石門區"
"253002","637-UY","2019/09/23 13:49:35","新北市石門區九芎林43號","121.56636","25.2512066666667","6502200","石門區"
"253001","KEC-0718","2019/09/23 13:49:34","新北市石門區八甲58-2號","121.522178333333","25.2743483333333","6502200","石門區"
"207002","749-BX","2019/09/23 13:49:46","新北市萬里區崁腳里崁腳路166號","121.645045","25.15584","6502800","萬里區"
"252005","073-UM","2019/09/23 13:49:39","新北市三芝區圓山里內柑宅25-1號","121.536673333333","25.2239183333333","6502100","三芝區"
"207001","662-BX","2019/09/23 13:49:44","新北市萬里區磺潭里公館崙30號","121.63487","25.21118","6502800","萬里區"
"237014","760-BX","2019/09/23 13:49:32","新北市三峽區民生街119-3號","121.373628333333","24.9353133333333","6500900","三峽區"
"236040","KED-0685","2019/09/23 13:49:33","新北市土城區城林路6巷80號","121.43843","24.979665","6501300","土城區"
"236029","253-BX","2019/09/23 13:49:34","新北市土城區城林路6巷80號","121.43849","24.9797116666667","6501300","土城區"
"236024","269-VK","2019/09/23 13:49:21","新北市土城區城林路6巷80號","121.438533333333","24.979825","6501300","土城區"
"236012","270-VK","2019/09/23 13:49:28","新北市土城區城林路6巷80號","121.438558333333","24.9797516666667","6501300","土城區"
"236032","271-VK","2019/09/23 13:49:33","新北市土城區城林路6巷80號","121.438601666667","24.9798033333333","6501300","土城區"
"247021","KED-0683","2019/09/23 13:49:30","新北市蘆洲區中正路263巷2號","121.467293333333","25.0873466666667","6501400","蘆洲區"
"236064","KEA-2877","2019/09/23 13:49:27","新北市土城區城林路6巷80號","121.438651666667","24.9798316666667","6501300","土城區"
"236016","401-BY","2019/09/23 13:49:39","新北市土城區城林路6巷80號","121.43849","24.9798283333333","6501300","土城區"
"236074","752-BX","2019/09/23 13:49:41","新北市土城區中央路二段258號","121.441581666667","24.9747383333333","6501300","土城區"
"236057","912-UM","2019/09/23 13:49:29","新北市土城區中華路二段257號","121.43747","24.9710616666667","6501300","土城區"
"236045","913-UM","2019/09/23 13:49:43","新北市土城區城林路6巷80號","121.438498333333","24.9797266666667","6501300","土城區"
"236060","915-UM","2019/09/23 13:49:38","新北市土城區城林路6巷80號","121.438443333333","24.9797916666667","6501300","土城區"
"236054","AAC-216","2019/09/23 13:49:41","新北市土城區城林路6巷80號","121.438636666667","24.9797266666667","6501300","土城區"
"220027","145-BY","2019/09/23 13:49:39","新北市板橋區大仁街109號","121.452581666667","25.01553","6500100","板橋區"
"220028","200-UY","2019/09/23 13:49:42","新北市板橋區大觀路二段265巷66弄30號","121.441508333333","24.997055","6500100","板橋區"
"220030","610-BX","2019/09/23 13:49:45","新北市板橋區篤行路三段45號","121.428348333333","24.9862666666667","6500100","板橋區"
"220050","267-BY","2019/09/23 13:49:42","新北市板橋區文化路二段182巷5弄1號","121.471625","25.027025","6500100","板橋區"
"220004","276-BY","2019/09/23 13:49:45","新北市板橋區四川路一段327號","121.45868","25.0003983333333","6500100","板橋區"
"220020","277-BY","2019/09/23 13:49:43","新北市板橋區大觀路三段36巷17號","121.434123333333","24.996485","6500100","板橋區"
"220019","283-VK","2019/09/23 13:49:38","新北市板橋區館前東路80號","121.46175","25.007455","6500100","板橋區"
"220043","285-UM","2019/09/23 13:49:30","新北市板橋區文化路二段76號","121.469196666667","25.0251","6500100","板橋區"
"220001","285-VK","2019/09/23 13:49:30","新北市板橋區永豐街47-1號","121.474205","25.01781","6500100","板橋區"
"220031","286-VK","2019/09/23 13:49:31","新北市板橋區僑中二街156號","121.444743333333","25.0041033333333","6500100","板橋區"
"220029","287-VK","2019/09/23 13:49:38","新北市板橋區光華街12巷1號","121.454235","25.0116433333333","6500100","板橋區"
"220009","293-UM","2019/09/23 13:49:43","新北市板橋區永豐街163號","121.47548","25.020425","6500100","板橋區"
"220032","296-UM","2019/09/23 13:49:29","新北市板橋區大觀路二段150巷20號","121.441691666667","24.9994783333333","6500100","板橋區"
"220034","297-UM","2019/09/23 13:30:11","新北市板橋區華東街1-10號","121.448405","24.9949716666667","6500100","板橋區"
"220023","303-R5","2019/09/23 13:49:41","新北市板橋區大觀路一段11號","121.450441666667","25.00847","6500100","板橋區"
"220010","305-R5","2019/09/23 13:49:35","新北市板橋區中山路二段26號","121.472631666667","25.01511","6500100","板橋區"
"220041","307-R5","2019/09/23 13:49:43","新北市板橋區文化路一段136巷8弄1號","121.465508333333","25.0183066666667","6500100","板橋區"
"220047","317-R6","2019/09/23 13:49:37","新北市板橋區民生路二段226巷10弄2號","121.470528333333","25.0217666666667","6500100","板橋區"
"220038","487-VK","2019/09/23 13:49:26","新北市板橋區長江路三段122號","121.475291666667","25.0344983333333","6500100","板橋區"
"220037","491-VK","2019/09/23 13:49:31","新北市板橋區文化路二段1號","121.468581666667","25.024065","6500100","板橋區"
"220104","560-BX","2019/09/23 13:49:45","新北市板橋區中正路275巷68號","121.452805","25.0178866666667","6500100","板橋區"
"220052","561-BX","2019/09/23 13:49:34","新北市板橋區文化路一段188巷11弄14號","121.468965","25.0186516666667","6500100","板橋區"
"220011","609-BX","2019/09/23 13:49:41","新北市板橋區中山路二段84-3號","121.474826666667","25.01618","6500100","板橋區"
"220040","637-BX","2019/09/23 13:49:43","新北市板橋區雙十路二段47巷46號","121.475071666667","25.0255233333333","6500100","板橋區"
"220005","686-BX","2019/09/23 13:49:33","新北市板橋區重慶路175號","121.46275","25.0025683333333","6500100","板橋區"
"220025","687-BX","2019/09/23 13:49:41","新北市板橋區大觀路三段133巷19號","121.432871666667","24.9943283333333","6500100","板橋區"
"220042","689-BX","2019/09/23 13:49:26","新北市板橋區文化路二段39號","121.468996666667","25.02501","6500100","板橋區"
"220002","741-BX","2019/09/23 13:49:35","新北市板橋區後埔街6號","121.460341666667","25.0069266666667","6500100","板橋區"
"220051","KEA-2699","2019/09/23 13:49:34","新北市板橋區縣民大道三段133巷35號","121.477071666667","25.0247566666667","6500100","板橋區"
"220003","827-TW","2019/09/23 13:49:29","新北市板橋區忠孝路169號","121.463965","25.0024966666667","6500100","板橋區"
"220014","829-TW","2019/09/23 13:49:35","新北市板橋區民生路二段103號","121.471351666667","25.017825","6500100","板橋區"
"220039","831-TW","2019/09/23 13:49:36","新北市板橋區四維路177巷3弄3號","121.4638","25.0259733333333","6500100","板橋區"
"220022","895-R6","2019/09/23 13:49:31","新北市板橋區府中路57號","121.458428333333","25.009435","6500100","板橋區"
"220021","985-R7","2019/09/23 13:49:30","新北市板橋區館前西路121號","121.4567","25.0075483333333","6500100","板橋區"
"220046","AAC-210","2019/09/23 13:49:45","新北市板橋區四維路137巷23號","121.464063333333","25.0247466666667","6500100","板橋區"
"220012","AAC-253","2019/09/23 13:49:44","新北市板橋區漢生東路121號","121.467426666667","25.01447","6500100","板橋區"
"235032","KEA-2873","2019/09/23 13:49:35","新北市中和區圓通路162巷35號","121.496641666667","24.9955416666667","6500300","中和區"
"235025","KEA-2875","2019/09/23 13:49:21","新北市中和區民有街82號","121.47608","25.0041566666667","6500300","中和區"
"235026","KEA-2876","2019/09/23 13:49:45","新北市中和區中山路二段344號","121.493446666667","25.002325","6500300","中和區"
