"lineid","car","time","location","longitude","latitude","cityid","cityname"
"234044","148-BY","2019/09/23 13:59:35","新北市永和區成功路一段87號","121.52682","25.0030216666667","6500400","永和區"
"234078","298-R6","2019/09/23 13:59:32","新北市永和區林森路112巷12弄34號","121.52286","25.0045733333333","6500400","永和區"
"234036","336-UY","2019/09/23 13:59:42","新北市永和區成功路二段167號","121.526666666667","24.99712","6500400","永和區"
"234062","337-UY","2019/09/23 13:59:41","新北市永和區中正路412巷20弄17號","121.518888333333","25.00155","6500400","永和區"
"234084","338-UY","2019/09/23 13:59:44","新北市永和區福和路92號","121.522458333333","25.0081116666667","6500400","永和區"
"234068","552-UM","2019/09/23 13:59:39","新北市永和區國光路51號","121.519015","25.0082","6500400","永和區"
"234001","553-UM","2019/09/23 13:59:44","新北市永和區自由街3號","121.515133333333","25.0071333333333","6500400","永和區"
"234015","745-BX","2019/09/23 13:59:29","新北市永和區文化路69號","121.513888333333","25.0151633333333","6500400","永和區"
"234028","746-BX","2019/09/23 13:59:45","新北市永和區民生路67巷10號","121.523121666667","24.9972066666667","6500400","永和區"
"234052","KEA-2590","2019/09/23 13:59:29","新北市永和區竹林路39巷42弄1號","121.520095","25.0152166666667","6500400","永和區"
"234005","KED-0605","2019/09/23 13:59:36","新北市中和區中和路382號","121.510803333333","25.002295","6500400","永和區"
"234012","KEA-2591","2019/09/23 13:59:33","新北市永和區保生路55號","121.50469","25.0106133333333","6500400","永和區"
"234060","AAD-866","2019/09/23 13:59:41","新北市永和區中正路283巷57號","121.515573333333","24.9989283333333","6500400","永和區"
"234040","862-TW","2019/09/23 13:59:40","新北市永和區中和路335巷18弄12號","121.507833333333","25.0002683333333","6500400","永和區"
"234048","863-TW","2019/09/23 13:59:29","新北市永和區保安路254號","121.506266666667","25.01255","6500400","永和區"
"234010","9373-KE","2019/09/23 13:59:38","新北市永和區仁愛路352巷92弄16號","121.501303333333","25.008265","6500400","永和區"
"234022","9380-KE","2019/09/23 13:59:35","新北市永和區永和路二段234號","121.515741666667","25.0144716666667","6500400","永和區"
"234076","969-R7","2019/09/23 13:59:36","新北市永和區民權路58巷2弄1號","121.519533333333","24.9984116666667","6500400","永和區"
"234072","AAC-211","2019/09/23 13:59:42","新北市永和區豫溪街134號","121.521053333333","25.0103433333333","6500400","永和區"
"234066","AAC-212","2019/09/23 13:59:45","新北市永和區永貞路356號","121.51027","25.006535","6500400","永和區"
"244001","248-BX","2019/09/23 13:59:37","新北市林口區太平里181號","121.36566","25.1351516666667","6501700","林口區"
"243002","297-R6","2019/09/23 13:59:36","新北市泰山區辭修路24號","121.428985","25.05815","6501600","泰山區"
"243006","KEA-2801","2019/09/23 13:59:31","新北市泰山區黎明路2-5號","121.420785","25.06272","6501600","泰山區"
"243008","421-VK","2019/09/23 13:59:32","新北市泰山區明志路二段181號","121.427755","25.0499233333333","6501600","泰山區"
"243001","KEA-2215","2019/09/23 13:59:46","新北市泰山區泰林路二段262號","121.43165","25.0623966666667","6501600","泰山區"
"243003","KEA-2216","2019/09/23 13:59:38","新北市泰山區明志路230號","121.427118333333","25.04829","6501600","泰山區"
"243007","680-BX","2019/09/23 13:59:31","新北市泰山區美寧街50號","121.430533333333","25.064475","6501600","泰山區"
"231030","002-UM","2019/09/23 13:59:48","新北市新店區安康路一段168號","121.525763333333","24.9631216666667","6500600","新店區"
"231024","0291-UT","2019/09/23 13:59:44","新北市新店區力行路62號","121.53908","24.9659366666667","6500600","新店區"
"231005","046-UY","2019/09/23 13:59:28","新北市新店區中興路三段207號","121.543781666667","24.98187","6500600","新店區"
"231029","106-UY","2019/09/23 13:59:32","新北市新店區安和路一段21號","121.516955","24.9645866666667","6500600","新店區"
"231018","107-UY","2019/09/23 13:59:41","新北市新店區中央路129號","121.530513333333","24.9740616666667","6500600","新店區"
"231013","108-UY","2019/09/23 13:59:37","新北市新店區明德路64號","121.541563333333","24.9794083333333","6500600","新店區"
"231036","110-UY","2019/09/23 13:59:40","新北市新店區安祥路108巷33號","121.475301666667","24.9571166666667","6500600","新店區"
"231062","256-BX","2019/09/23 13:59:29","新北市新店區莒光路44巷21弄11-6號","121.51856","24.9523016666667","6500600","新店區"
"231023","260-TV","2019/09/23 13:59:31","新北市新店區文中路40號","121.53967","24.9565683333333","6500600","新店區"
"231003","268-BY","2019/09/23 13:59:46","新北市新店區中興路一段72號","121.539441666667","24.9599","6500600","新店區"
"231035","278-BY","2019/09/23 13:59:41","新北市新店區安康路二段96號","121.513633333333","24.9630816666667","6500600","新店區"
"231014","AAD-862","2019/09/23 13:59:26","新北市新店區北宜路二段82-40號","121.55347","24.95314","6500600","新店區"
"231006","355-BY","2019/09/23 13:59:27","新北市新店區北宜路二段60號","121.54941","24.951445","6500600","新店區"
"231038","3712-VJ","2019/09/23 13:59:35","新北市新店區安康路一段321巷5-1號","121.522131666667","24.9625883333333","6500600","新店區"
"231027","3713-VJ","2019/09/23 13:59:35","新北市新店區中興路一段24-2號","121.538538333333","24.958205","6500600","新店區"
"231025","4715-K9","2019/09/23 13:59:26","新北市新店區中正路302巷6號","121.53778","24.9749433333333","6500600","新店區"
"231019","512-UM","2019/09/23 13:59:43","新北市新店區新烏路二段38號","121.54464","24.9284083333333","6500600","新店區"
"231002","619-UM","2019/09/23 13:59:28","新北市新店區中正路648號","121.534026666667","24.9892766666667","6500600","新店區"
"231034","641-BX","2019/09/23 13:59:33","新北市新店區達觀路27-1號","121.5039","24.9387066666667","6500600","新店區"
"231011","KED-0819","2019/09/23 13:59:27","新北市新店區中興路二段81號","121.546861666667","24.9710933333333","6500600","新店區"
"231010","719-UM","2019/09/23 13:59:37","新北市新店區安康路一段146號","121.526443333333","24.9629216666667","6500600","新店區"
"231026","720-UM","2019/09/23 13:59:43","新北市新店區三民路159巷19弄46號","121.53221","24.9732283333333","6500600","新店區"
"231028","897-TW","2019/09/23 13:59:32","新北市新店區安和路三段9巷1號","121.517988333333","24.980675","6500600","新店區"
"231001","898-TW","2019/09/23 13:59:44","新北市新店區三民路47號","121.53706","24.9708833333333","6500600","新店區"
"231004","899-TW","2019/09/23 13:59:44","新北市新店區北新路二段108號","121.542983333333","24.974395","6500600","新店區"
"231037","AKT-0513","2019/09/23 13:59:32","新北市新店區安康路三段456號","121.484286666667","24.951095","6500600","新店區"
"235030","003-UY","2019/09/23 13:59:41","新北市中和區中山路二段131巷5弄3號","121.502835","25.002865","6500300","中和區"
"235020","096-UM","2019/09/23 13:59:45","新北市中和區中正路1220巷1號","121.479763333333","25.01113","6500300","中和區"
"235003","097-UM","2019/09/23 13:59:28","新北市中和區秀峰街81巷2號","121.521451666667","24.9901966666667","6500300","中和區"
"235029","098-UM","2019/09/23 13:59:29","新北市中和區福祥路131號","121.49854","25.0072033333333","6500300","中和區"
"235004","150-BY","2019/09/23 13:59:27","新北市中和區保健路67巷7號","121.509903333333","24.9976783333333","6500300","中和區"
"235022","151-BY","2019/09/23 13:59:31","新北市中和區連城路573-1號","121.478898333333","24.9942866666667","6500300","中和區"
"235002","185-VK","2019/09/23 13:59:31","新北市中和區立人街24-4號","121.51894","24.9941883333333","6500300","中和區"
"235013","186-VK","2019/09/23 13:59:32","新北市中和區景新街170號","121.505835","24.9964916666667","6500300","中和區"
"235031","255-BX","2019/09/23 13:59:31","新北市中和區中正路683號","121.48517","24.9978433333333","6500300","中和區"
"235008","293-VK","2019/09/23 13:59:46","新北市中和區中興街180巷45號","121.498256666667","24.98957","6500300","中和區"
"235036","301-VK","2019/09/23 13:59:38","新北市中和區中山路二段90號","121.50343","25.0043133333333","6500300","中和區"
"235007","352-BY","2019/09/23 13:59:40","新北市中和區成功路88號","121.525861666667","24.9913216666667","6500300","中和區"
"235006","KEA-2878","2019/09/23 13:59:37","新北市中和區秀朗路三段22巷3號","121.526006666667","24.9962483333333","6500300","中和區"
"247015","KEA-2869","2019/09/23 13:59:29","新北市蘆洲區光華路43號","121.468838333333","25.08303","6501400","蘆洲區"
"247009","KED-0682","2019/09/23 13:59:42","新北市蘆洲區集賢路224巷21號","121.481688333333","25.0868916666667","6501400","蘆洲區"
"235014","4979-A6","2019/09/23 13:59:40","新北市中和區華新街50巷7號","121.507658333333","24.98386","6500300","中和區"
"235033","4980-A6","2019/09/23 13:59:31","新北市中和區圓通路78號","121.500048333333","24.997125","6500300","中和區"
"235034","558-UM","2019/09/23 13:59:46","新北市中和區中和路281-1號","121.505948333333","24.999605","6500300","中和區"
"235009","565-BX","2019/09/23 13:59:31","新北市中和區景新街467巷27號","121.514466666667","24.98861","6500300","中和區"
"235024","KED-0823","2019/09/23 13:59:37","新北市中和區中山路三段94號","121.477451666667","25.0056166666667","6500300","中和區"
"235018","640-BX","2019/09/23 13:59:27","新北市中和區民德路150號","121.468621666667","25.0002333333333","6500300","中和區"
"235011","732-UM","2019/09/23 13:59:40","新北市中和區興南路二段92號","121.505178333333","24.9844333333333","6500300","中和區"
"235010","733-UM","2019/09/23 13:59:31","新北市中和區興南路二段31巷19號","121.508095","24.9851266666667","6500300","中和區"
"235035","783-BX","2019/09/23 13:59:33","新北市中和區立德街98巷63號","121.487876666667","25.0092283333333","6500300","中和區"
"235021","801-TS","2019/09/23 13:59:31","新北市中和區民利街28號","121.479966666667","24.9991066666667","6500300","中和區"
"235005","802-TS","2019/09/23 13:59:35","新北市中和區中安街48號","121.512935","25.0024266666667","6500300","中和區"
"235016","805-TS","2019/09/23 13:59:39","新北市中和區興南路二段186號","121.503495","24.9822883333333","6500300","中和區"
"235012","896-TW","2019/09/23 13:59:35","新北市中和區華新街45號","121.507798333333","24.9846016666667","6500300","中和區"
"235017","900-TW","2019/09/23 13:59:36","新北市板橋區國慶路182巷28-1號","121.463338333333","24.9954833333333","6500300","中和區"
"235028","911-UM","2019/09/23 13:59:36","新北市中和區泰和街28號","121.499385","25.0005933333333","6500300","中和區"
"235015","157-BY","2019/09/23 13:59:37","新北市中和區忠孝街19巷12號","121.510123333333","24.9832383333333","6500300","中和區"
"235023","AAC-215","2019/09/23 13:59:31","新北市中和區圓通路369巷14弄8號","121.490405","24.98787","6500300","中和區"
"220013","072-UY","2019/09/23 13:59:32","新北市板橋區漢生東路317號","121.471843333333","25.0079666666667","6500100","板橋區"
"220034","073-UY","2019/09/23 13:59:31","新北市板橋區大智街22號","121.455671666667","25.0148466666667","6500100","板橋區"
"220105","075-UY","2019/09/23 13:59:43","新北市板橋區雙十路三段9號","121.471671666667","25.0302983333333","6500100","板橋區"
"220017","AAD-861","2019/09/23 13:59:30","新北市板橋區四川路一段104號","121.459535","25.0046433333333","6500100","板橋區"
"220016","120-SR","2019/09/23 13:59:30","新北市板橋區中山路二段465巷76號","121.48126","25.0221566666667","6500100","板橋區"
"247005","893-R6","2019/09/23 13:59:44","新北市蘆洲區永安南路二段36-1號","121.466906666667","25.0772933333333","6501400","蘆洲區"
"247019","546-UM","2019/09/23 13:59:39","新北市蘆洲區民族路422巷19號","121.473733333333","25.09294","6501400","蘆洲區"
"247007","341-TH","2019/09/23 13:59:43","新北市蘆洲區集賢路281號","121.48118","25.082835","6501400","蘆洲區"
"247011","337-TH","2019/09/23 13:59:28","新北市蘆洲區民族路156號","121.479575","25.0861816666667","6501400","蘆洲區"
"247003","336-TH","2019/09/23 13:59:34","新北市蘆洲區長安街98巷19號","121.462918333333","25.08177","6501400","蘆洲區"
"247013","056-VK","2019/09/23 13:59:35","新北市蘆洲區中正路150-3號","121.469553333333","25.0856283333333","6501400","蘆洲區"
"247017","053-VK","2019/09/23 13:59:47","新北市蘆洲區民族路263巷13號","121.476326666667","25.0901316666667","6501400","蘆洲區"
"247001","001-UY","2019/09/23 13:59:42","新北市蘆洲區三民路605號","121.460631666667","25.0936316666667","6501400","蘆洲區"
"235027","251-BX","2019/09/23 13:59:37","新北市中和區中正路510號","121.488466666667","24.99439","6500300","中和區"
"253003","6232-TK","2019/09/23 13:59:32","新北市石門區尖子鹿51-1號","121.577663333333","25.2746283333333","6502200","石門區"
"253004","6251-TK","2019/09/23 13:59:45","新北市石門區草埔尾21號","121.6037","25.2624966666667","6502200","石門區"
"253002","637-UY","2019/09/23 13:59:35","新北市石門區尖山湖19號","121.558613333333","25.2470166666667","6502200","石門區"
"253001","KEC-0718","2019/09/23 13:59:34","新北市石門區下員坑50-2號","121.51901","25.27308","6502200","石門區"
"207002","749-BX","2019/09/23 13:58:26","新北市萬里區溪底里烏塗炭12-1號","121.635843333333","25.1509183333333","6502800","萬里區"
"252005","073-UM","2019/09/23 13:59:39","新北市三芝區圓山里內柑宅27號","121.536216666667","25.2204483333333","6502100","三芝區"
"207001","662-BX","2019/09/23 13:59:44","新北市萬里區磺潭里磺溪12-1號","121.633651666667","25.20192","6502800","萬里區"
"237014","760-BX","2019/09/23 13:59:32","新北市三峽區大智路6號","121.360551666667","24.9368416666667","6500900","三峽區"
"236040","KED-0685","2019/09/23 13:59:33","新北市土城區城林路6巷80號","121.438448333333","24.9796983333333","6501300","土城區"
"236029","253-BX","2019/09/23 13:54:56","新北市土城區中央路二段280號","121.44075","24.974085","6501300","土城區"
"236024","269-VK","2019/09/23 13:59:33","新北市土城區中央路三段42號","121.43741","24.9678133333333","6501300","土城區"
"236012","270-VK","2019/09/23 13:59:28","新北市土城區城林路6巷80號","121.438321666667","24.9795683333333","6501300","土城區"
"236032","271-VK","2019/09/23 13:59:33","新北市土城區城林路6巷80號","121.438555","24.9797","6501300","土城區"
"247021","KED-0683","2019/09/23 13:59:37","新北市蘆洲區中正路263巷2號","121.467278333333","25.0875683333333","6501400","蘆洲區"
"236064","KEA-2877","2019/09/23 13:59:47","新北市土城區城林路6巷80號","121.438461666667","24.9797216666667","6501300","土城區"
"236016","401-BY","2019/09/23 13:59:39","新北市土城區城林路6巷80號","121.438458333333","24.9798533333333","6501300","土城區"
"236074","752-BX","2019/09/23 13:59:35","新北市土城區中央路三段72號","121.436536666667","24.9672066666667","6501300","土城區"
"236057","912-UM","2019/09/23 13:59:29","新北市土城區中央路三段282號","121.426673333333","24.96368","6501300","土城區"
"236045","913-UM","2019/09/23 13:59:43","新北市土城區中華路二段2號","121.439536666667","24.9795266666667","6501300","土城區"
"236060","915-UM","2019/09/23 13:59:38","新北市土城區城林路6巷80號","121.43845","24.9797866666667","6501300","土城區"
"236054","AAC-216","2019/09/23 13:59:41","新北市土城區城林路6巷80號","121.438598333333","24.9797566666667","6501300","土城區"
"220027","145-BY","2019/09/23 13:59:39","新北市板橋區中正路183巷46號","121.454985","25.016","6500100","板橋區"
"220028","200-UY","2019/09/23 13:59:42","新北市板橋區大觀路二段108號","121.443938333333","24.99931","6500100","板橋區"
"220030","610-BX","2019/09/23 13:59:40","新北市板橋區篤行路三段2-1號","121.429278333333","24.9878866666667","6500100","板橋區"
"220050","267-BY","2019/09/23 13:59:42","新北市板橋區莊敬路211號","121.471991666667","25.0221166666667","6500100","板橋區"
"220004","276-BY","2019/09/23 13:59:25","新北市板橋區信義路112號","121.458368333333","24.9925983333333","6500100","板橋區"
"220020","277-BY","2019/09/23 13:59:27","新北市板橋區篤行路一段10號","121.432151666667","24.9954333333333","6500100","板橋區"
"220019","283-VK","2019/09/23 13:59:43","新北市板橋區忠孝路154巷49號","121.464441666667","25.0008533333333","6500100","板橋區"
"220043","285-UM","2019/09/23 13:59:31","新北市板橋區光武街153號","121.465528333333","25.0295533333333","6500100","板橋區"
"220001","285-VK","2019/09/23 13:59:30","新北市板橋區永豐街121號","121.47443","25.01968","6500100","板橋區"
"220031","286-VK","2019/09/23 13:59:31","新北市板橋區大觀路一段38巷170弄1號","121.441918333333","25.0046016666667","6500100","板橋區"
"220029","287-VK","2019/09/23 13:59:38","新北市板橋區光華街19巷2號","121.453925","25.012185","6500100","板橋區"
"220009","293-UM","2019/09/23 13:59:43","新北市板橋區中山路二段216號","121.47797","25.0178716666667","6500100","板橋區"
"220032","296-UM","2019/09/23 13:59:46","新北市板橋區大觀路二段365巷13號","121.440938333333","24.9982333333333","6500100","板橋區"
"220034","297-UM","2019/09/23 13:30:11","新北市板橋區華東街1-10號","121.448405","24.9949716666667","6500100","板橋區"
"220023","303-R5","2019/09/23 13:59:41","新北市板橋區南雅東路88號","121.453821666667","25.0076816666667","6500100","板橋區"
"220010","305-R5","2019/09/23 13:59:39","新北市板橋區三民路二段245巷51號","121.480666666667","25.01262","6500100","板橋區"
"220041","307-R5","2019/09/23 13:59:43","新北市板橋區文化路二段225巷60弄60號","121.469116666667","25.0297983333333","6500100","板橋區"
"220047","317-R6","2019/09/23 13:59:43","新北市板橋區民生路二段234巷26弄9號","121.470496666667","25.0221816666667","6500100","板橋區"
"220038","487-VK","2019/09/23 13:59:26","新北市板橋區文化路二段179號","121.470545","25.0279016666667","6500100","板橋區"
"220037","491-VK","2019/09/23 13:59:31","新北市板橋區莒光路158-2號","121.47393","25.0239466666667","6500100","板橋區"
"220104","560-BX","2019/09/23 13:59:45","新北市板橋區中正路273-1號","121.455488333333","25.01887","6500100","板橋區"
"220052","561-BX","2019/09/23 13:59:34","新北市板橋區介壽街39號","121.468643333333","25.0198716666667","6500100","板橋區"
"220011","609-BX","2019/09/23 13:59:41","新北市板橋區三民路二段83號","121.479391666667","25.0166383333333","6500100","板橋區"
"220040","637-BX","2019/09/23 13:59:43","新北市板橋區大同街26巷5號","121.478085","25.0270883333333","6500100","板橋區"
"220005","686-BX","2019/09/23 13:59:33","新北市板橋區重慶路355號","121.464791666667","24.997545","6500100","板橋區"
"220025","687-BX","2019/09/23 13:59:41","新北市板橋區大觀路二段265巷7-7號","121.44378","24.994325","6500100","板橋區"
"220042","689-BX","2019/09/23 13:59:26","新北市板橋區民生路三段250號","121.464306666667","25.03088","6500100","板橋區"
"220002","741-BX","2019/09/23 13:59:35","新北市板橋區重慶路139巷21號","121.463705","25.00476","6500100","板橋區"
"220051","KEA-2699","2019/09/23 13:59:34","新北市板橋區八德路三段58巷4號","121.48246","25.0272366666667","6500100","板橋區"
"220003","827-TW","2019/09/23 13:59:29","新北市板橋區中山路一段128號","121.463378333333","25.010825","6500100","板橋區"
"220014","829-TW","2019/09/23 13:59:35","新北市板橋區中山路二段90巷47弄2號","121.476478333333","25.0145933333333","6500100","板橋區"
"220039","831-TW","2019/09/23 13:59:36","新北市板橋區裕民街23-3號","121.462065","25.0289766666667","6500100","板橋區"
"220022","895-R6","2019/09/23 13:59:31","新北市板橋區南雅南路一段42號","121.455845","25.0060583333333","6500100","板橋區"
"220021","985-R7","2019/09/23 13:59:30","新北市板橋區館前西路152-2號","121.455251666667","25.0084133333333","6500100","板橋區"
"220046","AAC-210","2019/09/23 13:59:44","新北市板橋區新海路135巷29號","121.460048333333","25.0228866666667","6500100","板橋區"
"220012","AAC-253","2019/09/23 13:59:44","新北市板橋區板新路79號","121.47346","25.01364","6500100","板橋區"
"235032","KEA-2873","2019/09/23 13:59:34","新北市中和區連城路75巷8弄6號","121.498018333333","24.99836","6500300","中和區"
"235025","KEA-2875","2019/09/23 13:59:21","新北市中和區新生街114巷37弄5號","121.482481666667","25.00201","6500300","中和區"
"235026","KEA-2876","2019/09/23 13:59:45","新北市中和區橋和路116號","121.491485","25.0056216666667","6500300","中和區"
