"lineid","car","time","location","longitude","latitude","cityid","cityname"
"231030","002-UM","2019/09/23 15:39:28","新北市新店區新和街93巷2號","121.521041666667","24.986565","6500600","新店區"
"231005","046-UY","2019/09/23 15:39:28","新北市新店區民生路149巷22號","121.529345","24.9799933333333","6500600","新店區"
"231029","106-UY","2019/09/23 15:39:32","新北市新店區安康路三段47號","121.492715","24.9526083333333","6500600","新店區"
"231018","107-UY","2019/09/23 15:39:47","新北市新店區中正路663巷7弄15-5號","121.533175","24.99029","6500600","新店區"
"231013","108-UY","2019/09/23 15:39:45","新北市新店區永業路81巷3弄1號","121.529901666667","24.9492366666667","6500600","新店區"
"231036","110-UY","2019/09/23 15:39:40","新北市新店區安祥路65號","121.48384","24.9602666666667","6500600","新店區"
"231039","187-VK","2019/09/23 15:39:43","新北市新店區寶元路二段37號","121.546985","24.9815316666667","6500600","新店區"
"231031","256-BX","2019/09/23 15:39:48","新北市新店區裕合街79號","121.48914","24.9495216666667","6500600","新店區"
"231023","260-TV","2019/09/23 15:39:35","新北市新店區大新街7巷16號","121.54372","24.96817","6500600","新店區"
"231003","268-BY","2019/09/23 15:39:26","新北市新店區寶興路60巷4號","121.549826666667","24.9719533333333","6500600","新店區"
"231035","278-BY","2019/09/23 15:39:36","新北市新店區安興路83-3號","121.515301666667","24.9754766666667","6500600","新店區"
"231014","AAD-862","2019/09/23 15:39:46","新北市新店區北宜路二段85號","121.55012","24.9522016666667","6500600","新店區"
"231038","3712-VJ","2019/09/23 15:39:35","新北市新店區安康路二段213號","121.508863333333","24.9588766666667","6500600","新店區"
"231019","512-UM","2019/09/23 15:39:42","新北市新店區金興路20號","121.550683333333","24.929945","6500600","新店區"
"231034","641-BX","2019/09/23 15:39:33","新北市新店區如意街51號","121.493325","24.9471366666667","6500600","新店區"
"231011","KED-0819","2019/09/23 15:39:46","新北市新店區文化路23-1號","121.543395","24.979745","6500600","新店區"
"231026","720-UM","2019/09/23 15:39:35","新北市新店區三民路51巷8號","121.53645","24.9703333333333","6500600","新店區"
"231028","897-TW","2019/09/23 15:39:32","新北市新店區僑義路24號","121.500598333333","24.9500366666667","6500600","新店區"
"231004","899-TW","2019/09/23 15:39:46","新北市新店區民族路108號","121.538173333333","24.9774133333333","6500600","新店區"
"231037","AKT-0513","2019/09/23 15:39:32","新北市新店區安興路81號","121.515633333333","24.975355","6500600","新店區"
"241028","022-UY","2019/09/23 15:39:43","新北市三重區重新路四段121號","121.484836666667","25.0525216666667","6500200","三重區"
"241015","062-VK","2019/09/23 15:39:43","新北市三重區成功路187號","121.485318333333","25.0528716666667","6500200","三重區"
"241017","063-VK","2019/09/23 15:39:32","新北市三重區新北大道一段7號","121.489915","25.0614566666667","6500200","三重區"
"241007","066-VK","2019/09/23 15:39:29","新北市三重區重新路四段121號","121.484998333333","25.0519283333333","6500200","三重區"
"241006","262-UM","2019/09/23 15:39:38","新北市三重區重新路四段121號","121.485015","25.0517883333333","6500200","三重區"
"241016","266-UM","2019/09/23 15:39:40","新北市三重區重新路四段121號","121.485058333333","25.0521316666667","6500200","三重區"
"241018","268-UM","2019/09/23 15:39:37","新北市三重區重新路四段121號","121.485345","25.0522433333333","6500200","三重區"
"241013","270-UM","2019/09/23 15:39:31","新北市三重區忠孝路一段87號","121.489845","25.07212","6500200","三重區"
"241020","478-VK","2019/09/23 15:39:44","新北市三重區忠孝路二段57號","121.485196666667","25.0706516666667","6500200","三重區"
"241014","543-UM","2019/09/23 15:39:30","新北市三重區重新路四段121號","121.485098333333","25.0519916666667","6500200","三重區"
"241023","545-UM","2019/09/23 15:39:35","新北市三重區重新路四段121號","121.484585","25.0522716666667","6500200","三重區"
"241019","KEA-2593","2019/09/23 15:39:29","新北市三重區新北大道一段250號","121.479818333333","25.0613116666667","6500200","三重區"
"241022","KED-0820","2019/09/23 15:39:47","新北市三重區重新路四段121號","121.484905","25.0518716666667","6500200","三重區"
"241012","887-TS","2019/09/23 15:39:42","新北市三重區泉州街84巷20號","121.495823333333","25.0543716666667","6500200","三重區"
"241029","942-UM","2019/09/23 15:39:33","新北市三重區環河南路257號","121.491013333333","25.050335","6500200","三重區"
"241033","AAC-255","2019/09/23 15:39:40","新北市三重區重新路五段283號","121.479331666667","25.0489966666667","6500200","三重區"
"235031","255-BX","2019/09/23 15:39:31","新北市五股區成泰路三段358號","121.451048333333","25.0980066666667","6500300","中和區"
"235033","4980-A6","2019/09/23 15:39:31","新北市中和區員山路296號","121.481265","25.0025533333333","6500300","中和區"
"235023","AAC-215","2019/09/23 15:39:30","新北市中和區員山路28-25號","121.481021666667","24.9866066666667","6500300","中和區"
"220034","073-UY","2019/09/23 15:39:28","新北市樹林區八德街395號","121.4153","24.9714233333333","6500100","板橋區"
"236040","KED-0685","2019/09/23 15:39:33","新北市土城區中華路一段236號","121.439703333333","24.9797466666667","6501300","土城區"
"236029","253-BX","2019/09/23 15:39:27","新北市土城區中央路一段45巷2弄13號","121.448301666667","24.9898733333333","6501300","土城區"
"236024","269-VK","2019/09/23 15:39:43","新北市土城區明德路二段118號","121.444843333333","24.98426","6501300","土城區"
"236012","270-VK","2019/09/23 15:39:48","新北市土城區廣明街90巷18號","121.45546","24.9945316666667","6501300","土城區"
"236064","KEA-2877","2019/09/23 15:39:26","新北市土城區慶和街10號","121.43934","24.9719133333333","6501300","土城區"
"236016","401-BY","2019/09/23 15:39:39","新北市土城區延吉街35號","121.472375","24.9880516666667","6501300","土城區"
"236074","752-BX","2019/09/23 15:37:55","新北市土城區中央路四段454號","121.410316666667","24.9511066666667","6501300","土城區"
"236057","912-UM","2019/09/23 15:39:29","新北市土城區中央路一段212號","121.445073333333","24.9856216666667","6501300","土城區"
"236045","913-UM","2019/09/23 15:39:43","新北市中和區連城路534巷2號","121.475378333333","24.9913283333333","6501300","土城區"
"236054","AAC-216","2019/09/23 15:39:40","新北市土城區學成路134號","121.449033333333","24.9896066666667","6501300","土城區"
"238002","755-BX","2019/09/23 15:39:42","新北市樹林區中山路一段108巷25號","121.422151666667","24.9911383333333","6500700","樹林區"
"238010","601-UM","2019/09/23 15:39:14","新北市樹林區龍興街32巷36號","121.401636666667","25.0155816666667","6500700","樹林區"
"238011","5061-A6","2019/09/23 15:39:45","新北市樹林區中山路三段38號","121.394991666667","24.9726516666667","6500700","樹林區"
"238005","KEA-2217","2019/09/23 15:39:40","新北市樹林區中華路219-1號","121.419475","24.9813016666667","6500700","樹林區"
"238009","KEA-2213","2019/09/23 15:39:46","新北市樹林區中華路185-1號","121.420411666667","24.9816666666667","6500700","樹林區"
"238008","KEA-2539","2019/09/23 15:39:29","新北市樹林區柑園街二段18號","121.387808333333","24.9557316666667","6500700","樹林區"
"238012","303-VK","2019/09/23 15:39:30","新北市樹林區中山路二段110-6號","121.413806666667","24.983315","6500700","樹林區"
"238004","283-BY","2019/09/23 15:39:39","新北市樹林區保安街二段293-1號","121.412696666667","25.0063116666667","6500700","樹林區"
"238007","268-VK","2019/09/23 15:39:34","新北市樹林區俊英街286號","121.423681666667","25.0137783333333","6500700","樹林區"
"238013","172-UY","2019/09/23 15:39:46","新北市樹林區八德街500號","121.39984","24.9703966666667","6500700","樹林區"
"238003","169-UY","2019/09/23 15:39:28","新北市樹林區復興路236號","121.418631666667","24.989475","6500700","樹林區"
"220050","267-BY","2019/09/23 15:24:50","新北市板橋區民生路二段120號","121.470606666667","25.0194416666667","6500100","板橋區"
"235026","KEA-2876","2019/09/23 15:39:31","新北市中和區錦和路3號","121.486095","25.003825","6500300","中和區"
