"lineid","car","time","location","longitude","latitude","cityid","cityname"
"249005","172-UM","2019/09/23 16:29:29","新北市八里區龍米路三段2號","121.429471666667","25.159375","6502300","八里區"
"249002","305-UY","2019/09/23 16:29:40","新北市八里區忠孝路286號","121.419596666667","25.16119","6502300","八里區"
"248007","KED-0815","2019/09/23 16:29:38","新北市五股區中興路二段182巷50號","121.45323","25.0807133333333","6501500","五股區"
"244009","656-BX","2019/09/23 16:29:42","新北市林口區粉寮69號","121.405111666667","25.090925","6501700","林口區"
"231046","719-UM","2019/09/23 16:29:03","新北市新店區灣潭路3-2號","121.538315","24.9508583333333","6500600","新店區"
"241011","013-R5","2019/09/23 16:29:29","新北市三重區龍濱路196號","121.501048333333","25.0733283333333","6500200","三重區"
"241028","022-UY","2019/09/23 16:29:43","新北市三重區中正南路157號","121.49381","25.05607","6500200","三重區"
"241008","060-VK","2019/09/23 16:29:38","新北市三重區永福街177巷11弄11號","121.478178333333","25.0758066666667","6500200","三重區"
"241015","062-VK","2019/09/23 16:29:43","新北市三重區信義街59號","121.50124","25.06509","6500200","三重區"
"241017","063-VK","2019/09/23 16:29:37","新北市三重區大同北路38號","121.495246666667","25.0627033333333","6500200","三重區"
"241024","065-VK","2019/09/23 16:29:42","新北市三重區中正北路315巷16弄12號","121.475498333333","25.0717183333333","6500200","三重區"
"241007","066-VK","2019/09/23 16:29:29","新北市三重區三和路四段167巷122號","121.486606666667","25.0798816666667","6500200","三重區"
"241002","090-VK","2019/09/23 16:29:33","新北市三重區五華街18號","121.494861666667","25.0803716666667","6500200","三重區"
"241031","742-BX","2019/09/23 16:29:45","新北市三重區重陽路一段48號","121.486626666667","25.0579183333333","6500200","三重區"
"241006","262-UM","2019/09/23 16:29:38","新北市三重區力行路二段202號","121.4836","25.077765","6500200","三重區"
"241016","266-UM","2019/09/23 16:29:40","新北市三重區大智街23號","121.494216666667","25.0658716666667","6500200","三重區"
"241009","267-UM","2019/09/23 16:29:26","新北市三重區三和路四段191巷76號","121.484306666667","25.0798366666667","6500200","三重區"
"241018","268-UM","2019/09/23 16:29:37","新北市三重區重陽路四段77號","121.492495","25.0709766666667","6500200","三重區"
"241032","269-UM","2019/09/23 16:29:39","新北市三重區三陽路100巷3弄13號","121.482995","25.0581533333333","6500200","三重區"
"241013","270-UM","2019/09/23 16:29:31","新北市三重區三和路三段91巷159號","121.498428333333","25.0733833333333","6500200","三重區"
"241025","271-UM","2019/09/23 16:29:46","新北市三重區中正北路560巷100弄8號","121.472598333333","25.068465","6500200","三重區"
"241030","KED-0822","2019/09/23 16:29:48","新北市三重區成功路40號","121.489323333333","25.0505683333333","6500200","三重區"
"241004","475-VK","2019/09/23 16:29:46","新北市三重區仁愛街377巷44號","121.492336666667","25.0808516666667","6500200","三重區"
"241020","478-VK","2019/09/23 16:29:44","新北市三重區車路頭街45巷19號","121.484638333333","25.071985","6500200","三重區"
"241026","480-VK","2019/09/23 16:29:27","新北市三重區中央南路95巷25-3號","121.500345","25.0605516666667","6500200","三重區"
"241014","543-UM","2019/09/23 16:29:30","新北市三重區河邊北街80號","121.50427","25.0688883333333","6500200","三重區"
"241023","545-UM","2019/09/23 16:29:35","新北市三重區忠孝路三段50巷82號","121.48295","25.0644733333333","6500200","三重區"
"241001","547-UM","2019/09/23 16:29:35","新北市三重區福隆路87號","121.492108333333","25.078195","6500200","三重區"
"241019","KEA-2593","2019/09/23 16:29:29","新北市三重區重陽路三段99號","121.490433333333","25.0680766666667","6500200","三重區"
"241005","AAD-863","2019/09/23 16:29:34","新北市三重區仁華街109號","121.486395","25.0828166666667","6500200","三重區"
"241003","743-BX","2019/09/23 16:29:46","新北市三重區五華街57巷22號","121.493618333333","25.0829383333333","6500200","三重區"
"241022","KED-0820","2019/09/23 16:29:27","新北市三重區重陽路二段8號","121.486715","25.061895","6500200","三重區"
"241012","887-TS","2019/09/23 16:29:42","新北市三重區河邊北街385號","121.501683333333","25.076655","6500200","三重區"
"241029","942-UM","2019/09/23 16:29:33","新北市三重區集美街126巷16號","121.489585","25.05375","6500200","三重區"
"241033","AAC-255","2019/09/23 16:29:40","新北市三重區重新路五段422-1號","121.47532","25.0476616666667","6500200","三重區"
"224007","285-BY","2019/09/23 16:29:40","新北市瑞芳區瑞竹路36巷43號","121.764225","25.1043566666667","6501200","瑞芳區"
"224009","275-VK","2019/09/23 16:29:40","新北市瑞芳區明燈路三段31-1號","121.808165","25.10774","6501200","瑞芳區"
"224005","271-BY","2019/09/23 16:29:43","新北市瑞芳區瑞濱路67號","121.822548333333","25.1208683333333","6501200","瑞芳區"
"227001","642-TC","2019/09/23 16:29:39","新北市雙溪區牡丹里五分11號","121.865581666667","25.0473783333333","6502500","雙溪區"
"227002","400-TW","2019/09/23 16:29:42","新北市雙溪區外柑里外柑腳35-1號","121.80979","25.0198166666667","6502500","雙溪區"
"251015","KEA-2871","2019/09/23 16:29:41","新北市淡水區中正路二段31號","121.419671666667","25.1815916666667","6501000","淡水區"
"251008","181-VK","2019/09/23 16:29:38","新北市淡水區民生路54號","121.461933333333","25.1378883333333","6501000","淡水區"
"251013","182-VK","2019/09/23 16:29:15","新北市淡水區北新路三段171-1號","121.491861666667","25.191495","6501000","淡水區"
"251014","577-R6","2019/09/23 16:29:36","新北市淡水區崁頂36-7號","121.43846","25.1927916666667","6501000","淡水區"
"252001","KED-0821","2019/09/23 16:29:40","新北市三芝區埔坪里埔頭坑46號","121.504486666667","25.2627733333333","6502100","三芝區"
"238010","601-UM","2019/09/23 16:29:34","新北市樹林區中山路三段210-2號","121.380725","24.9667266666667","6500700","樹林區"
"238006","599-UM","2019/09/23 16:29:39","新北市樹林區中華路341-1號","121.415483333333","24.980105","6500700","樹林區"
"238011","5061-A6","2019/09/23 16:29:45","新北市樹林區育德街78-1號","121.387945","24.9681","6500700","樹林區"
"238012","303-VK","2019/09/23 16:29:30","新北市樹林區中正路22-1號","121.427865","24.9993516666667","6500700","樹林區"
"238004","283-BY","2019/09/23 16:29:39","新北市樹林區中正路433-2號","121.414945","25.0081833333333","6500700","樹林區"
"238007","268-VK","2019/09/23 16:29:34","新北市樹林區中正路22-1號","121.427841666667","24.99926","6500700","樹林區"
"220034","297-UM","2019/09/23 16:26:28","新北市板橋區華東街1-10號","121.44843","24.9949166666667","6500100","板橋區"
"235026","KEA-2876","2019/09/23 16:29:31","新北市中和區建八路130號","121.488998333333","24.9985583333333","6500300","中和區"
