"lineid","car","time","location","longitude","latitude","cityid","cityname"
"249005","172-UM","2019/09/23 17:19:29","新北市五股區中直路崩山巷36號","121.417076666667","25.1270483333333","6502300","八里區"
"249001","173-UM","2019/09/23 17:19:27","新北市八里區中華路二段165巷3號","121.407691666667","25.1509316666667","6502300","八里區"
"249004","303-UY","2019/09/23 17:19:30","新北市八里區中山路一段45號","121.419068333333","25.1594133333333","6502300","八里區"
"249002","305-UY","2019/09/23 17:19:20","新北市八里區龍米路二段117巷31號","121.445846666667","25.143015","6502300","八里區"
"249003","593-UM","2019/09/23 17:19:30","新北市八里區中山路二段439號","121.396713333333","25.1457533333333","6502300","八里區"
"244007","080-UY","2019/09/23 17:19:22","新北市林口區湖子18-3號","121.385401666667","25.0919233333333","6501700","林口區"
"244013","KEA-2802","2019/09/23 17:19:25","新北市林口區粉寮69號","121.404783333333","25.0908316666667","6501700","林口區"
"244023","483-VK","2019/09/23 17:19:38","新北市林口區隆林街50號","121.387088333333","25.0754616666667","6501700","林口區"
"244017","485-VK","2019/09/23 17:19:27","新北市林口區中山路52號","121.395136666667","25.0784433333333","6501700","林口區"
"244009","656-BX","2019/09/23 17:19:22","新北市林口區中北一街76號","121.385766666667","25.088805","6501700","林口區"
"244011","701-TV","2019/09/23 17:19:28","新北市林口區仁愛路一段285巷116號","121.395295","25.075875","6501700","林口區"
"244025","837-TS","2019/09/23 17:19:28","新北市林口區民族路96號","121.36631","25.075725","6501700","林口區"
"244021","838-TS","2019/09/23 17:19:37","新北市林口區粉寮路二段281號","121.404393333333","25.0930683333333","6501700","林口區"
"231046","719-UM","2019/09/23 17:17:23","新北市新店區直潭六街64號","121.532243333333","24.940015","6500600","新店區"
"241011","013-R5","2019/09/23 17:19:29","新北市三重區河邊北街100巷25號","121.502806666667","25.0702233333333","6500200","三重區"
"241028","022-UY","2019/09/23 17:19:22","新北市三重區中正南路81號","121.494253333333","25.0585066666667","6500200","三重區"
"241008","060-VK","2019/09/23 17:19:38","新北市三重區永福街72巷53-1號","121.480765","25.0760383333333","6500200","三重區"
"241015","062-VK","2019/09/23 17:19:23","新北市三重區福德北路89號","121.501883333333","25.0662133333333","6500200","三重區"
"241017","063-VK","2019/09/23 17:19:32","新北市三重區大同北路52號","121.495043333333","25.063035","6500200","三重區"
"241024","065-VK","2019/09/23 17:19:22","新北市三重區中正北路193巷21弄48號","121.479201666667","25.07118","6500200","三重區"
"241007","066-VK","2019/09/23 17:19:29","新北市三重區三和路四段145巷68號","121.485928333333","25.0787333333333","6500200","三重區"
"241002","090-VK","2019/09/23 17:19:33","新北市三重區仁愛街367號","121.491731666667","25.080145","6500200","三重區"
"241031","742-BX","2019/09/23 17:19:25","新北市三重區重陽路一段117巷2號","121.486928333333","25.06053","6500200","三重區"
"241006","262-UM","2019/09/23 17:11:58","新北市三重區三和路四段264巷6弄17號","121.485116666667","25.076585","6500200","三重區"
"241016","266-UM","2019/09/23 17:19:40","新北市三重區大同北路97-3號","121.494413333333","25.0635966666667","6500200","三重區"
"241009","267-UM","2019/09/23 17:19:26","新北市三重區仁愛街610號","121.483771666667","25.0807466666667","6500200","三重區"
"241018","268-UM","2019/09/23 17:19:37","新北市三重區安慶街184號","121.49361","25.06844","6500200","三重區"
"241032","269-UM","2019/09/23 17:19:39","新北市三重區興華街120號","121.483483333333","25.0596","6500200","三重區"
"241013","270-UM","2019/09/23 17:19:31","新北市三重區仁愛街83號","121.495793333333","25.0732566666667","6500200","三重區"
"241025","271-UM","2019/09/23 17:19:26","新北市三重區中正北路183號","121.477698333333","25.0694566666667","6500200","三重區"
"241030","KED-0822","2019/09/23 17:19:28","新北市三重區成功路73巷13號","121.489531666667","25.0520333333333","6500200","三重區"
"241004","475-VK","2019/09/23 17:19:25","新北市三重區五華街110巷9號","121.491593333333","25.082615","6500200","三重區"
"241020","478-VK","2019/09/23 17:19:24","新北市三重區忠孝路一段107號","121.489106666667","25.07208","6500200","三重區"
"241026","480-VK","2019/09/23 17:19:27","新北市三重區正義南路10號","121.498168333333","25.0615383333333","6500200","三重區"
"241014","543-UM","2019/09/23 17:19:30","新北市三重區長榮路3號","121.500151666667","25.06841","6500200","三重區"
"241023","545-UM","2019/09/23 17:19:35","新北市三重區忠孝路三段50巷29號","121.481805","25.0651483333333","6500200","三重區"
"241001","547-UM","2019/09/23 17:19:35","新北市三重區仁愛街269巷29號","121.493908333333","25.0790883333333","6500200","三重區"
"241019","KEA-2593","2019/09/23 17:19:29","新北市三重區三張街115-1號","121.487953333333","25.0700016666667","6500200","三重區"
"241005","AAD-863","2019/09/23 17:19:34","新北市蘆洲區永安北路二段34號","121.481553333333","25.0812916666667","6500200","三重區"
"241003","743-BX","2019/09/23 17:19:26","新北市三重區富福街65號","121.492183333333","25.0846566666667","6500200","三重區"
"241022","KED-0820","2019/09/23 17:19:27","新北市三重區重陽路二段34巷23號","121.486275","25.063485","6500200","三重區"
"241012","887-TS","2019/09/23 17:19:42","新北市三重區河邊北街256巷28號","121.500881666667","25.0758533333333","6500200","三重區"
"241033","AAC-255","2019/09/23 17:19:20","新北市三重區中興北街148號","121.4689","25.0564433333333","6500200","三重區"
"247016","KEA-2869","2019/09/23 17:19:33","新北市蘆洲區正和街101號","121.467718333333","25.0804716666667","6501400","蘆洲區"
"247010","KED-0682","2019/09/23 17:19:23","新北市蘆洲區三民路26巷29號","121.476806666667","25.0828733333333","6501400","蘆洲區"
"247006","893-R6","2019/09/23 17:19:32","新北市蘆洲區長安街73巷2號","121.462298333333","25.079755","6501400","蘆洲區"
"247020","546-UM","2019/09/23 17:19:35","新北市蘆洲區仁愛街35巷14弄3號","121.471408333333","25.092775","6501400","蘆洲區"
"247008","341-TH","2019/09/23 17:19:33","新北市蘆洲區永安北路一段72巷34號","121.476421666667","25.0770233333333","6501400","蘆洲區"
"247012","337-TH","2019/09/23 17:19:39","新北市蘆洲區信義路317號","121.47836","25.0864766666667","6501400","蘆洲區"
"247004","336-TH","2019/09/23 17:19:37","新北市蘆洲區中原路62號","121.458716666667","25.0822266666667","6501400","蘆洲區"
"247024","057-VK","2019/09/23 17:19:24","新北市蘆洲區長榮路378號","121.459863333333","25.0871116666667","6501400","蘆洲區"
"247014","056-VK","2019/09/23 17:19:22","新北市蘆洲區中正路93號","121.469963333333","25.08385","6501400","蘆洲區"
"247018","053-VK","2019/09/23 17:19:27","新北市蘆洲區民權路84號","121.474546666667","25.0876133333333","6501400","蘆洲區"
"247002","001-UY","2019/09/23 17:19:23","新北市蘆洲區永樂街38巷33弄2號","121.458065","25.089485","6501400","蘆洲區"
"228003","097-TW","2019/09/23 17:19:37","新北市貢寮區福隆里興隆街24-1號","121.94438","25.01663","6502600","貢寮區"
"228002","663-BX","2019/09/23 17:19:32","新北市貢寮區雙玉里下雙溪街19號","121.918223333333","25.0106516666667","6502600","貢寮區"
"228001","670-TC","2019/09/23 17:19:32","新北市貢寮區仁理村尖山腳街18-3號","121.925503333333","25.048365","6502600","貢寮區"
"224006","676-BX","2019/09/23 17:19:40","新北市瑞芳區大寮路14號","121.784011666667","25.099345","6501200","瑞芳區"
"224007","285-BY","2019/09/23 17:19:40","新北市瑞芳區靜安路四段12巷3號","121.797306666667","25.0866866666667","6501200","瑞芳區"
"224009","275-VK","2019/09/23 17:19:24","新北市瑞芳區八號巷20號","121.842693333333","25.1105983333333","6501200","瑞芳區"
"224008","273-VK","2019/09/23 17:19:26","新北市瑞芳區侯硐路48號","121.825733333333","25.082935","6501200","瑞芳區"
"224005","271-BY","2019/09/23 17:19:43","新北市瑞芳區鼻頭路247號","121.912646666667","25.1239216666667","6501200","瑞芳區"
"227001","642-TC","2019/09/23 17:19:39","新北市雙溪區三貂里定福路1-2號","121.850736666667","25.0633666666667","6502500","雙溪區"
"227002","400-TW","2019/09/23 17:19:42","新北市雙溪區共和里東榮街30號","121.86579","25.0339183333333","6502500","雙溪區"
"251009","008-UM","2019/09/23 17:19:37","新北市淡水區三民街24號","121.43912","25.1718016666667","6501000","淡水區"
"251004","009-UM","2019/09/23 17:19:34","新北市淡水區中正東路二段88巷15號","121.45905","25.1505433333333","6501000","淡水區"
"251015","KEA-2871","2019/09/23 17:19:41","新北市淡水區樹林口41號","121.473426666667","25.16804","6501000","淡水區"
"251016","179-VK","2019/09/23 17:19:39","新北市淡水區鄒厝崙13號","121.462283333333","25.1906466666667","6501000","淡水區"
"251008","181-VK","2019/09/23 17:19:38","新北市淡水區大同路283號","121.467895","25.1425","6501000","淡水區"
"251013","182-VK","2019/09/23 17:19:35","新北市淡水區破瓦厝子3-3號","121.47246","25.1968433333333","6501000","淡水區"
"251010","413-VK","2019/09/23 17:19:36","新北市淡水區沙崙路165號","121.424143333333","25.1836316666667","6501000","淡水區"
"251012","441-VK","2019/09/23 17:19:35","新北市淡水區中山北路一段158號","121.444198333333","25.1778933333333","6501000","淡水區"
"251007","442-VK","2019/09/23 17:19:25","新北市淡水區民生路47-4號","121.462043333333","25.1379883333333","6501000","淡水區"
"251005","443-VK","2019/09/23 17:19:37","新北市淡水區鄧公路19號","121.451381666667","25.17006","6501000","淡水區"
"251006","561-UM","2019/09/23 17:19:39","新北市淡水區中山路190號","121.441408333333","25.17453","6501000","淡水區"
"251014","577-R6","2019/09/23 17:19:36","新北市淡水區公埔子43號","121.463966666667","25.2293533333333","6501000","淡水區"
"251011","650-BX","2019/09/23 17:19:26","新北市淡水區坪頂路70巷6號","121.459125","25.1628633333333","6501000","淡水區"
"251003","673-BX","2019/09/23 17:19:39","新北市淡水區中正路二段12號","121.420325","25.18074","6501000","淡水區"
"207003","550-UM","2019/09/23 17:19:21","新北市萬里區萬里里獅頭路23號","121.69343","25.1782766666667","6502800","萬里區"
"252002","178-VK","2019/09/23 17:19:30","新北市三芝區忠孝街1-14號","121.50553","25.2539516666667","6502100","三芝區"
"233002","762-BX","2019/09/23 17:19:25","新北市烏來區環山路71號","121.548578333333","24.8622483333333","6502900","烏來區"
"247022","KED-0683","2019/09/23 17:19:30","新北市蘆洲區三民路132號","121.471038333333","25.087725","6501400","蘆洲區"
"252001","KED-0821","2019/09/23 17:19:40","新北市三芝區長安街119號","121.49806","25.2596383333333","6502100","三芝區"
"242042","AAC-296","2019/09/23 17:19:21","新北市新莊區新樹路52-5號","121.437178333333","25.0270783333333","6500500","新莊區"
"242004","751-BX","2019/09/23 17:19:33","新北市新莊區新泰路421-7號","121.442505","25.0452583333333","6500500","新莊區"
"242029","615-BX","2019/09/23 17:19:29","新北市新莊區幸福路610號","121.451743333333","25.0493116666667","6500500","新莊區"
"242027","613-BX","2019/09/23 17:19:24","新北市新莊區復興路二段189號","121.45914","25.0444616666667","6500500","新莊區"
"242058","612-BX","2019/09/23 17:19:41","新北市新莊區新泰路357巷3弄57號","121.442113333333","25.0391166666667","6500500","新莊區"
"242048","566-BX","2019/09/23 17:19:36","新北市新莊區民安路29號","121.423528333333","25.0276216666667","6500500","新莊區"
"242053","497-BY","2019/09/23 17:19:35","新北市新莊區環河路462號","121.440168333333","25.0197583333333","6500500","新莊區"
"242002","441-UM","2019/09/23 17:19:22","新北市新莊區環漢路三段1號","121.442278333333","25.0243366666667","6500500","新莊區"
"242007","440-UM","2019/09/23 17:19:22","新北市新莊區新泰路488號","121.442481666667","25.045845","6500500","新莊區"
"242044","415-TV","2019/09/23 17:19:38","新北市新莊區後港一路73號","121.426998333333","25.026665","6500500","新莊區"
"242013","413-TV","2019/09/23 17:19:26","新北市新莊區中環路二段392-1號","121.442455","25.04537","6500500","新莊區"
"242050","400-BY","2019/09/23 17:19:39","新北市新莊區瓊林南路7號","121.438326666667","25.0205133333333","6500500","新莊區"
"242025","362-BY","2019/09/23 17:19:21","新北市新莊區復興路一段85號","121.448455","25.042795","6500500","新莊區"
"242023","353-BY","2019/09/23 17:19:43","新北市新莊區新泰路500號","121.442508333333","25.0459216666667","6500500","新莊區"
"242015","132-UY","2019/09/23 17:19:28","新北市新莊區新泰路357巷1弄12號","121.442718333333","25.0409866666667","6500500","新莊區"
"242039","135-UY","2019/09/23 17:19:37","新北市新莊區新樹路215號","121.435598333333","25.023425","6500500","新莊區"
"242056","172-VK","2019/09/23 17:19:28","新北市新莊區新莊路664-1號","121.442358333333","25.032695","6500500","新莊區"
"242017","173-VK","2019/09/23 17:19:35","新北市新莊區三和路12-21號","121.442065","25.038775","6500500","新莊區"
"242031","175-VK","2019/09/23 17:19:36","新北市新莊區新泰路488號","121.44254","25.0459033333333","6500500","新莊區"
"242021","KED-0687","2019/09/23 17:19:41","新北市新莊區新泰路207號","121.446955","25.0383016666667","6500500","新莊區"
"242036","348-TH","2019/09/23 17:19:39","新北市新莊區新樹路215號","121.435475","25.0232716666667","6500500","新莊區"
"242009","349-TH","2019/09/23 17:19:24","新北市新莊區中環路二段392-1號","121.44229","25.0458433333333","6500500","新莊區"
"242034","350-TH","2019/09/23 17:19:37","新北市新莊區瓊林路50-12號","121.44601","25.028845","6500500","新莊區"
"242019","351-TH","2019/09/23 17:19:41","新北市新莊區新泰路357巷3弄57號","121.442188333333","25.03963","6500500","新莊區"
"238010","601-UM","2019/09/23 17:19:34","新北市樹林區中正路433號","121.415065","25.0087116666667","6500700","樹林區"
"238019","599-UM","2019/09/23 17:19:39","新北市樹林區八德街262-1號","121.41742","24.97203","6500700","樹林區"
"238024","5061-A6","2019/09/23 17:19:28","新北市樹林區樹新路79巷11號","121.427201666667","24.9955966666667","6500700","樹林區"
"238018","KEA-2217","2019/09/23 17:19:28","新北市樹林區樹中街61巷23號","121.422148333333","24.9853966666667","6500700","樹林區"
"238022","KEA-2213","2019/09/23 17:19:26","新北市樹林區中華路37巷12號","121.42407","24.9830116666667","6500700","樹林區"
"238021","KEA-2539","2019/09/23 17:19:34","新北市樹林區西圳街一段61-1號","121.40059","24.9625483333333","6500700","樹林區"
"238025","303-VK","2019/09/23 17:19:30","新北市樹林區保安二街155號","121.422275","24.9954833333333","6500700","樹林區"
"238017","283-BY","2019/09/23 17:19:39","新北市樹林區光武街35號","121.416605","25.0065683333333","6500700","樹林區"
"238014","282-BY","2019/09/23 17:19:37","新北市樹林區長壽街80-5號","121.420646666667","24.99492","6500700","樹林區"
"238020","268-VK","2019/09/23 17:19:34","新北市樹林區中正路22-1號","121.42785","24.9993316666667","6500700","樹林區"
"238026","172-UY","2019/09/23 17:19:32","新北市樹林區東順街79巷4號","121.409853333333","24.9762533333333","6500700","樹林區"
"238016","169-UY","2019/09/23 17:19:27","新北市樹林區中山路一段396號","121.418378333333","24.9854916666667","6500700","樹林區"
"239007","AAC-297","2019/09/23 17:19:39","新北市鶯歌區行政路3-1號","121.350765","24.9552766666667","6500800","鶯歌區"
"239006","891-R6","2019/09/23 17:19:29","新北市鶯歌區德昌街9-1號","121.333581666667","24.96035","6500800","鶯歌區"
"239008","527-UM","2019/09/23 17:19:26","新北市鶯歌區中山路118號","121.350525","24.9571266666667","6500800","鶯歌區"
"239005","526-UM","2019/09/23 17:19:37","新北市鶯歌區福德三街3號","121.330043333333","24.9677866666667","6500800","鶯歌區"
"239001","417-VK","2019/09/23 17:19:42","新北市鶯歌區尖山路191巷49號","121.344431666667","24.9466616666667","6500800","鶯歌區"
"239003","360-BY","2019/09/23 17:19:27","新北市鶯歌區德昌二街70巷32弄1號","121.332048333333","24.9581966666667","6500800","鶯歌區"
"239002","359-BY","2019/09/23 17:19:39","新北市鶯歌區建國路242號","121.34801","24.9535666666667","6500800","鶯歌區"
"239004","193-VK","2019/09/23 17:19:37","新北市鶯歌區文化路417-5號","121.352833333333","24.948805","6500800","鶯歌區"
"244019","KED-0667","2019/09/23 17:19:26","新北市林口區公園路165號","121.370981666667","25.0715066666667","6501700","林口區"
"233001","KEA-2870","2019/09/23 17:19:39","新北市烏來區溫泉街156號","121.55141","24.8574466666667","6502900","烏來區"
"220034","297-UM","2019/09/23 16:58:47","新北市板橋區華東街1-10號","121.44835","24.994885","6500100","板橋區"
"242046","281-VK","2019/09/23 17:19:33","新北市新莊區新樹路65-5號","121.439418333333","25.030835","6500500","新莊區"
"242011","280-VK","2019/09/23 17:19:36","新北市新莊區新泰路496號","121.442575","25.04628","6500500","新莊區"
