"lineid","car","time","location","longitude","latitude","cityid","cityname"
"234046","148-BY","2019/09/23 18:29:40","新北市永和區福和路1號","121.525356666667","25.00966","6500400","永和區"
"234081","298-R6","2019/09/23 18:29:30","新北市永和區豫溪街217巷1號","121.524861666667","25.0093083333333","6500400","永和區"
"234086","338-UY","2019/09/23 18:29:35","新北市永和區福和路8巷1號","121.525005","25.0088833333333","6500400","永和區"
"234017","745-BX","2019/09/23 18:29:40","新北市永和區福和路1號","121.52638","25.0095416666667","6500400","永和區"
"234007","KED-0605","2019/09/23 18:29:44","新北市永和區環河西路二段219號","121.501148333333","25.0103933333333","6500400","永和區"
"234013","KEA-2591","2019/09/23 18:29:37","新北市永和區環河東路二段8號","121.522196666667","25.0135716666667","6500400","永和區"
"234042","862-TW","2019/09/23 18:29:35","新北市永和區福和路1號","121.526321666667","25.00988","6500400","永和區"
"234026","9371-KE","2019/09/23 18:29:19","新北市永和區豫溪街52巷6號","121.515801666667","25.0095433333333","6500400","永和區"
"234011","9373-KE","2019/09/23 18:29:21","新北市永和區保福路二段158巷1號","121.509133333333","25.0150166666667","6500400","永和區"
"249005","172-UM","2019/09/23 18:29:29","新北市八里區中華路三段145巷9號","121.392306666667","25.1331833333333","6502300","八里區"
"249001","173-UM","2019/09/23 18:29:27","新北市八里區龍米路一段92號","121.453985","25.1238716666667","6502300","八里區"
"249004","303-UY","2019/09/23 18:29:30","新北市八里區忠孝路120號","121.425576666667","25.1604433333333","6502300","八里區"
"249002","305-UY","2019/09/23 18:29:20","新北市八里區龍形三街6巷5號","121.44998","25.1323633333333","6502300","八里區"
"248014","025-BX","2019/09/23 18:29:27","新北市五股區明德路5號","121.43504","25.071205","6501500","五股區"
"248016","026-BX","2019/09/23 18:29:43","新北市五股區凌雲路一段83巷1-4號","121.45041","25.1008116666667","6501500","五股區"
"248008","KED-0815","2019/09/23 18:29:22","新北市五股區中興路二段78-5號","121.461315","25.0786066666667","6501500","五股區"
"248018","KED-0813","2019/09/23 18:29:31","新北市五股區御史路300號","121.416895","25.1091233333333","6501500","五股區"
"248012","247-BX","2019/09/23 18:29:31","新北市五股區御史路35巷2號","121.442078333333","25.0916483333333","6501500","五股區"
"248004","677-BX","2019/09/23 18:29:23","新北市五股區六合街3號","121.431995","25.088525","6501500","五股區"
"248002","678-BX","2019/09/23 18:29:39","新北市五股區西雲路163號","121.446105","25.09446","6501500","五股區"
"248010","682-TV","2019/09/23 18:29:37","新北市五股區明德路8號","121.433346666667","25.0717133333333","6501500","五股區"
"234023","9380-KE","2019/09/23 18:29:35","新北市永和區福和路1號","121.526353333333","25.00963","6500400","永和區"
"232011","076-UY","2019/09/23 18:29:34","新北市坪林區坪雙路一段41號","121.711708333333","24.9424366666667","6502000","坪林區"
"244007","080-UY","2019/09/23 18:29:42","新北市林口區後湖38號","121.386953333333","25.099765","6501700","林口區"
"244013","KEA-2802","2019/09/23 18:29:25","新北市林口區信義路58-8號","121.382165","25.0785383333333","6501700","林口區"
"244023","483-VK","2019/09/23 18:29:38","新北市林口區仁愛路二段62巷37號","121.383835","25.076215","6501700","林口區"
"244017","485-VK","2019/09/23 18:29:27","新北市林口區文化二路一段62-6號","121.365463333333","25.0685716666667","6501700","林口區"
"244009","656-BX","2019/09/23 18:29:22","新北市林口區寶林路42號","121.38522","25.08441","6501700","林口區"
"244011","701-TV","2019/09/23 18:29:28","新北市林口區中正路267號","121.390178333333","25.0776683333333","6501700","林口區"
"244025","837-TS","2019/09/23 18:29:27","新北市林口區南勢四街82巷11-1號","121.35553","25.071215","6501700","林口區"
"244021","838-TS","2019/09/23 18:29:37","新北市林口區自強二街25號","121.398326666667","25.0778183333333","6501700","林口區"
"243010","297-R6","2019/09/23 18:29:28","新北市泰山區黎明路22號","121.420798333333","25.06101","6501600","泰山區"
"243015","680-BX","2019/09/23 18:29:34","新北市泰山區黎明路25號","121.422116666667","25.0606283333333","6501600","泰山區"
"222003","436-BY","2019/09/23 18:29:23","新北市深坑區烏月路56-1號","121.631206666667","25.00571","6501800","深坑區"
"222002","659-BX","2019/09/23 18:29:38","新北市深坑區雲鄉路157號","121.621328333333","24.9981466666667","6501800","深坑區"
"231061","002-UM","2019/09/23 18:29:32","新北市新店區安華路28-1號","121.519678333333","24.96074","6500600","新店區"
"231055","0291-UT","2019/09/23 18:29:30","新北市新店區中正路128巷17號","121.542446666667","24.97242","6500600","新店區"
"231044","046-UY","2019/09/23 18:29:38","新北市新店區安華路1-1號","121.519296666667","24.9605416666667","6500600","新店區"
"231060","106-UY","2019/09/23 18:29:24","新北市新店區安華路28-1號","121.51971","24.9606483333333","6500600","新店區"
"231051","107-UY","2019/09/23 18:29:37","新北市新店區安一路一段1-1號","121.519503333333","24.9613583333333","6500600","新店區"
"231065","110-UY","2019/09/23 18:29:35","新北市新店區安華路3號","121.519363333333","24.959715","6500600","新店區"
"231062","256-BX","2019/09/23 18:29:42","新北市新店區安一路一段1-1號","121.519611666667","24.9612","6500600","新店區"
"231054","260-TV","2019/09/23 18:29:25","新北市新店區安一路一段1-1號","121.519191666667","24.961275","6500600","新店區"
"231042","268-BY","2019/09/23 18:29:36","新北市新店區安一路一段1-1號","121.519655","24.9613333333333","6500600","新店區"
"231064","278-BY","2019/09/23 18:29:42","新北市新店區安一路一段1-1號","121.519585","24.961135","6500600","新店區"
"231050","AAD-862","2019/09/23 18:29:39","新北市新店區安華路28-1號","121.520073333333","24.9608666666667","6500600","新店區"
"231045","355-BY","2019/09/23 18:29:26","新北市新店區安華路28-1號","121.519178333333","24.96096","6500600","新店區"
"231058","3713-VJ","2019/09/23 18:29:24","新北市新店區環河路19巷27號","121.537726666667","24.95964","6500600","新店區"
"231056","4715-K9","2019/09/23 18:29:36","新北市新店區自立街45巷1號","121.537056666667","24.97992","6500600","新店區"
"231067","4772-VM","2019/09/23 18:29:20","新北市新店區安華路28-1號","121.51923","24.9606766666667","6500600","新店區"
"231052","512-UM","2019/09/23 18:29:23","新北市新店區北宜路一段260號","121.545656666667","24.9527916666667","6500600","新店區"
"231041","619-UM","2019/09/23 18:29:28","新北市新店區安華路28-1號","121.519606666667","24.9608233333333","6500600","新店區"
"231063","641-BX","2019/09/23 18:29:29","新北市新店區安華路1-1號","121.51947","24.9604583333333","6500600","新店區"
"231047","KED-0819","2019/09/23 18:29:36","新北市新店區安一路一段1-1號","121.5199","24.961215","6500600","新店區"
"231046","719-UM","2019/09/23 18:21:03","新北市新店區直潭七街60號","121.532248333333","24.9398333333333","6500600","新店區"
"231057","720-UM","2019/09/23 18:29:34","新北市新店區安華路28-1號","121.519228333333","24.96098","6500600","新店區"
"231059","897-TW","2019/09/23 18:29:24","新北市新店區安一路一段1-1號","121.519661666667","24.961065","6500600","新店區"
"231040","898-TW","2019/09/23 18:29:19","新北市新店區安華路28-1號","121.519433333333","24.9608866666667","6500600","新店區"
"231043","899-TW","2019/09/23 18:29:39","新北市新店區安華路28-1號","121.519293333333","24.96085","6500600","新店區"
"231066","AKT-0513","2019/09/23 18:29:31","新北市新店區安華路28-1號","121.519451666667","24.96058","6500600","新店區"
"235066","003-UY","2019/09/23 18:29:39","新北市中和區中山路二段120號","121.502676666667","25.0036966666667","6500300","中和區"
"235056","096-UM","2019/09/23 18:29:33","新北市中和區員山路611巷1號","121.477866666667","25.0113","6500300","中和區"
"235039","097-UM","2019/09/23 18:29:32","新北市中和區安平路160號","121.512618333333","24.9986033333333","6500300","中和區"
"235065","098-UM","2019/09/23 18:29:40","新北市中和區莊敬路49巷15弄14號","121.500631666667","25.0058666666667","6500300","中和區"
"235040","150-BY","2019/09/23 18:29:31","新北市中和區安平路59號","121.509571666667","24.995225","6500300","中和區"
"235058","151-BY","2019/09/23 18:29:39","新北市中和區圓通路320號","121.487233333333","24.9882816666667","6500300","中和區"
"235055","183-VK","2019/09/23 18:29:31","新北市中和區民生街91號","121.468613333333","25.0048016666667","6500300","中和區"
"235038","185-VK","2019/09/23 18:29:28","新北市中和區自立路141巷18號","121.52307","24.9935166666667","6500300","中和區"
"235049","186-VK","2019/09/23 18:29:25","新北市中和區景安路120巷3號","121.505208333333","24.99468","6500300","中和區"
"235067","255-BX","2019/09/23 18:29:25","新北市中和區新生街30巷1號","121.483031666667","25.0038516666667","6500300","中和區"
"235072","301-VK","2019/09/23 18:29:27","新北市中和區連城路12號","121.498998333333","25.0022316666667","6500300","中和區"
"235043","352-BY","2019/09/23 18:29:32","新北市中和區景平路253號","121.508736666667","24.9928933333333","6500300","中和區"
"235042","KEA-2878","2019/09/23 18:29:41","新北市中和區秀朗路三段150巷11號","121.523766666667","24.990925","6500300","中和區"
"235050","4979-A6","2019/09/23 18:29:37","新北市中和區景新街320號","121.511648333333","24.99142","6500300","中和區"
"235069","4980-A6","2019/09/23 18:29:23","新北市中和區連城路125號","121.496186666667","24.9991666666667","6500300","中和區"
"235070","558-UM","2019/09/23 18:29:31","新北市中和區南華路46號","121.503946666667","24.9966366666667","6500300","中和區"
"235045","565-BX","2019/09/23 18:29:31","新北市中和區復興路40號","121.504795","24.9900433333333","6500300","中和區"
"235060","KED-0823","2019/09/23 18:29:28","新北市中和區員山路481號","121.479975","25.005345","6500300","中和區"
"235054","640-BX","2019/09/23 18:29:32","新北市中和區民享街108號","121.47469","24.9993616666667","6500300","中和區"
"235047","732-UM","2019/09/23 18:29:33","新北市中和區南山路252號","121.507828333333","24.988555","6500300","中和區"
"235046","733-UM","2019/09/23 18:29:32","新北市中和區仁愛街128號","121.511788333333","24.9867033333333","6500300","中和區"
"235057","801-TS","2019/09/23 18:29:32","新北市中和區員山路327巷52號","121.48023","25.0017816666667","6500300","中和區"
"235041","802-TS","2019/09/23 18:29:28","新北市中和區景安路36號","121.507073333333","24.9983666666667","6500300","中和區"
"235052","805-TS","2019/09/23 18:29:41","新北市中和區興南路二段130號","121.50432","24.9836016666667","6500300","中和區"
"235048","896-TW","2019/09/23 18:29:25","新北市中和區中正路77號","121.500845","24.9934383333333","6500300","中和區"
"235053","900-TW","2019/09/23 18:29:23","新北市中和區員山路72號","121.481011666667","24.993595","6500300","中和區"
"235064","911-UM","2019/09/23 18:29:35","新北市中和區連城路89巷1號","121.496663333333","25.0000166666667","6500300","中和區"
"235051","157-BY","2019/09/23 18:29:31","新北市中和區興南路二段142巷25弄4號","121.503033333333","24.9838433333333","6500300","中和區"
"235037","AAC-213","2019/09/23 18:29:26","新北市中和區景平路73號","121.518975","24.9913333333333","6500300","中和區"
"235059","AAC-215","2019/09/23 18:29:37","新北市中和區員山路36巷16-3號","121.485076666667","24.9913766666667","6500300","中和區"
"220065","072-UY","2019/09/23 18:29:34","新北市板橋區南雅南路二段140號","121.451725","24.996215","6500100","板橋區"
"220017","AAD-861","2019/09/23 18:29:41","新北市板橋區南雅南路二段144巷60號","121.450115","24.9972416666667","6500100","板橋區"
"226004","312-R5","2019/09/23 18:29:31","新北市平溪區白石里白石腳211號","121.728186666667","25.02268","6502400","平溪區"
"235063","251-BX","2019/09/23 18:29:22","新北市中和區連城路389巷10弄3號","121.48641","24.995605","6500300","中和區"
"228003","097-TW","2019/09/23 18:29:37","新北市貢寮區和美里和美街40號","121.912521666667","25.0897883333333","6502600","貢寮區"
"228002","663-BX","2019/09/23 18:29:30","新北市貢寮區福連里福連街34號","121.988458333333","25.01158","6502600","貢寮區"
"228001","670-TC","2019/09/23 18:29:38","新北市貢寮區仁理村仁和路166號","121.923595","25.0521666666667","6502600","貢寮區"
"224010","AGQ-8101","2019/09/23 18:29:33","新北市瑞芳區烏勢巷107號","121.84614","25.10863","6501200","瑞芳區"
"224006","676-BX","2019/09/23 18:29:40","新北市瑞芳區明燈路二段79號","121.810378333333","25.1082466666667","6501200","瑞芳區"
"224002","639-TC","2019/09/23 18:29:40","新北市瑞芳區正貿新村15號","121.813646666667","25.1059533333333","6501200","瑞芳區"
"224007","285-BY","2019/09/23 18:29:20","新北市瑞芳區大埔路有勝二村24號","121.76386","25.0998316666667","6501200","瑞芳區"
"224009","275-VK","2019/09/23 18:29:23","新北市瑞芳區祈堂路239號","121.856245","25.10891","6501200","瑞芳區"
"224008","273-VK","2019/09/23 18:29:25","新北市瑞芳區瑞芳街2號","121.806781666667","25.110125","6501200","瑞芳區"
"224005","271-BY","2019/09/23 18:29:23","新北市瑞芳區建基路一段46號","121.81977","25.1221816666667","6501200","瑞芳區"
"227001","642-TC","2019/09/23 18:29:37","新北市雙溪區牡丹里牡丹127號","121.850881666667","25.0594533333333","6502500","雙溪區"
"227002","400-TW","2019/09/23 18:29:42","新北市雙溪區魚行里坤溪35號","121.870386666667","25.03071","6502500","雙溪區"
"253005","032-BX","2019/09/23 18:29:41","新北市石門區老崩山11-13號","121.551891666667","25.2908333333333","6502200","石門區"
"253006","295-VK","2019/09/23 18:29:37","新北市石門區公地16號","121.545748333333","25.2902566666667","6502200","石門區"
"222001","KEA-2212","2019/09/23 18:29:24","新北市深坑區北深路一段185號","121.631973333333","25.010515","6501800","深坑區"
"208002","KEA-2872","2019/09/23 18:29:32","新北市金山區民生路51巷13號","121.642356666667","25.22113","6502700","金山區"
"208003","665-BX","2019/09/23 18:29:39","新北市金山區中山路142號","121.638885","25.220525","6502700","金山區"
"251004","009-UM","2019/09/23 18:29:34","新北市淡水區民族路31巷36號","121.462445","25.1365116666667","6501000","淡水區"
"251015","KEA-2871","2019/09/23 18:29:41","新北市淡水區興福寮88巷216號","121.485985","25.1665866666667","6501000","淡水區"
"251016","179-VK","2019/09/23 18:29:39","新北市淡水區下圭柔山115-10號","121.44625","25.2125266666667","6501000","淡水區"
"251008","181-VK","2019/09/23 18:29:38","新北市淡水區淡金路一段102號","121.457635","25.1746483333333","6501000","淡水區"
"251013","182-VK","2019/09/23 18:29:34","新北市淡水區椿子林20號","121.48003","25.2037733333333","6501000","淡水區"
"251010","413-VK","2019/09/23 18:29:36","新北市淡水區沙崙路181巷15號","121.4239","25.184375","6501000","淡水區"
"251012","441-VK","2019/09/23 18:29:35","新北市淡水區北新路一段157號","121.458695","25.182295","6501000","淡水區"
"251005","443-VK","2019/09/23 18:29:36","新北市淡水區中正東路35巷6號","121.446311666667","25.1684916666667","6501000","淡水區"
"251001","559-UM","2019/09/23 18:29:33","新北市淡水區自強路122巷1號","121.464468333333","25.13319","6501000","淡水區"
"251006","561-UM","2019/09/23 18:29:39","新北市淡水區新生街51巷15號","121.44057","25.1754483333333","6501000","淡水區"
"251011","650-BX","2019/09/23 18:29:34","新北市淡水區坪頂路51巷2號","121.458406666667","25.1626516666667","6501000","淡水區"
"251002","672-BX","2019/09/23 18:29:29","新北市淡水區竿蓁二街61-2號","121.454866666667","25.1633066666667","6501000","淡水區"
"251003","673-BX","2019/09/23 18:29:39","新北市淡水區北新路169巷12號","121.44966","25.1802483333333","6501000","淡水區"
"207003","550-UM","2019/09/23 18:29:26","新北市萬里區野柳里港東新村1-6號","121.68563","25.2031333333333","6502800","萬里區"
"207004","291-VK","2019/09/23 18:29:28","新北市萬里區萬里里瑪鋉路8-3號","121.687526666667","25.17545","6502800","萬里區"
"252002","178-VK","2019/09/23 18:29:29","新北市三芝區中山路二段39號","121.502885","25.255075","6502100","三芝區"
"252003","249-BX","2019/09/23 18:29:33","新北市三芝區後厝里北勢子41-7號","121.472463333333","25.2530733333333","6502100","三芝區"
"208001","170-UY","2019/09/23 18:29:39","新北市金山區文化二路4號","121.636841666667","25.2245833333333","6502700","金山區"
"237004","KEA-2597","2019/09/23 18:29:26","新北市三峽區五寮89-7號","121.35955","24.85641","6500900","三峽區"
"237007","153-BY","2019/09/23 18:29:27","新北市三峽區中正路三段76-1號","121.356005","24.903615","6500900","三峽區"
"237009","210-TH","2019/09/23 18:29:33","新北市三峽區大同路253號","121.366616666667","24.926","6500900","三峽區"
"237013","252-BX","2019/09/23 18:29:36","新北市三峽區光明路69巷25號","121.376591666667","24.9291816666667","6500900","三峽區"
"237012","275-BY","2019/09/23 18:29:34","新北市三峽區三樹路168巷21號","121.37945","24.940575","6500900","三峽區"
"237008","302-VK","2019/09/23 18:29:38","新北市三峽區白雞115-8號","121.400708333333","24.9065966666667","6500900","三峽區"
"237014","433-BY","2019/09/23 18:29:25","新北市三峽區信義街2號","121.370821666667","24.9361","6500900","三峽區"
"237006","5529-G3","2019/09/23 18:29:35","新北市三峽區溪東路473巷10號","121.414076666667","24.9285616666667","6500900","三峽區"
"237011","KEA-2596","2019/09/23 18:29:22","新北市三峽區溪東路218巷24弄2號","121.406865","24.9304333333333","6500900","三峽區"
"237015","649-BX","2019/09/23 18:29:35","新北市三峽區竹崙路147號","121.43482","24.9096683333333","6500900","三峽區"
"237010","706-TV","2019/09/23 18:29:29","新北市三峽區中山路117號","121.365576666667","24.9358866666667","6500900","三峽區"
"237005","AKY-6261","2019/09/23 18:29:29","新北市三峽區民族街5巷29號","121.369753333333","24.9322","6500900","三峽區"
"236042","KED-0685","2019/09/23 18:29:23","新北市土城區裕民路67巷4弄8號","121.450018333333","24.98772","6501300","土城區"
"236030","253-BX","2019/09/23 18:29:41","新北市土城區水源街81巷18號","121.43936","24.9759433333333","6501300","土城區"
"236026","269-VK","2019/09/23 18:29:30","新北市土城區南天母路135巷24號","121.449263333333","24.9547666666667","6501300","土城區"
"236014","270-VK","2019/09/23 18:29:20","新北市土城區青雲路39巷7號","121.460365","24.987525","6501300","土城區"
"236039","271-VK","2019/09/23 18:29:29","新北市土城區明德路一段309號","121.459655","24.977165","6501300","土城區"
"236069","KEA-2877","2019/09/23 18:29:36","新北市土城區永豐路255巷12號","121.475398333333","24.97314","6501300","土城區"
"252001","KED-0821","2019/09/23 18:29:40","新北市三芝區中興街二段12號","121.498553333333","25.25632","6502100","三芝區"
"236020","401-BY","2019/09/23 18:29:25","新北市土城區永豐路202巷14號","121.466288333333","24.983455","6501300","土城區"
"236078","752-BX","2019/09/23 18:29:39","新北市土城區中央路四段2-3號","121.425998333333","24.9632283333333","6501300","土城區"
"236059","912-UM","2019/09/23 18:29:29","新北市土城區中央路四段131號","121.416116666667","24.9575133333333","6501300","土城區"
"236048","913-UM","2019/09/23 18:29:43","新北市土城區明德路一段309號","121.459633333333","24.9771133333333","6501300","土城區"
"236063","915-UM","2019/09/23 18:29:38","新北市土城區延壽路1-9號","121.469156666667","24.993925","6501300","土城區"
"236055","AAC-216","2019/09/23 18:29:25","新北市土城區中華路一段247號","121.440968333333","24.9817166666667","6501300","土城區"
"242042","AAC-296","2019/09/23 18:29:23","新北市新莊區天祥街91巷23號","121.414848333333","25.028655","6500500","新莊區"
"242060","986-R7","2019/09/23 18:29:42","新北市新莊區富國路178號","121.424226666667","25.02442","6500500","新莊區"
"242058","612-BX","2019/09/23 18:29:41","桃園市龜山區萬壽路一段78號","121.40828","25.0190266666667","6500500","新莊區"
"242053","497-BY","2019/09/23 18:29:42","新北市新莊區樹新路120巷51號","121.430011666667","24.9958766666667","6500500","新莊區"
"242002","441-UM","2019/09/23 18:29:42","新北市新莊區環漢路二段630號","121.443321666667","25.0254283333333","6500500","新莊區"
"242044","415-TV","2019/09/23 18:29:38","新北市新莊區中正路新旺巷38號","121.416396666667","25.022565","6500500","新莊區"
"242025","362-BY","2019/09/23 18:29:41","新北市新莊區五工五路15號","121.45479","25.0621433333333","6500500","新莊區"
"242015","132-UY","2019/09/23 18:29:28","新北市新莊區新泰路357巷3弄1號","121.44239","25.0414916666667","6500500","新莊區"
"242009","349-TH","2019/09/23 18:29:24","新北市新莊區中華路二段5號","121.453471666667","25.04518","6500500","新莊區"
"238015","755-BX","2019/09/23 18:29:40","新北市樹林區復興路390巷19-1號","121.414255","24.985975","6500700","樹林區"
"238023","601-UM","2019/09/23 18:29:34","新北市樹林區三福街114號","121.406268333333","25.0162333333333","6500700","樹林區"
"238019","599-UM","2019/09/23 18:29:38","新北市樹林區國凱街106號","121.422228333333","24.9798033333333","6500700","樹林區"
"238024","5061-A6","2019/09/23 18:29:33","新北市樹林區育英街5號","121.422435","24.9890633333333","6500700","樹林區"
"238018","KEA-2217","2019/09/23 18:29:27","新北市樹林區保安街一段20巷40號","121.428423333333","24.994945","6500700","樹林區"
"238025","303-VK","2019/09/23 18:29:30","新北市樹林區保安街一段100號","121.424011666667","24.994725","6500700","樹林區"
"238017","283-BY","2019/09/23 18:29:39","新北市樹林區光榮街21號","121.412023333333","25.0038066666667","6500700","樹林區"
"238014","282-BY","2019/09/23 18:29:32","新北市樹林區大安路111巷41號","121.423275","24.9976033333333","6500700","樹林區"
"238020","268-VK","2019/09/23 18:29:34","新北市樹林區三龍街26號","121.411605","25.0176466666667","6500700","樹林區"
"238026","172-UY","2019/09/23 18:29:26","新北市樹林區八德街634號","121.396808333333","24.9694366666667","6500700","樹林區"
"238016","169-UY","2019/09/23 18:29:27","新北市樹林區中山路一段412號","121.417386666667","24.98516","6500700","樹林區"
"239007","AAC-297","2019/09/23 18:29:39","新北市鶯歌區文昌街27-3號","121.350103333333","24.9514816666667","6500800","鶯歌區"
"239006","891-R6","2019/09/23 18:29:29","新北市鶯歌區鶯桃路268巷12-2號","121.335873333333","24.960255","6500800","鶯歌區"
"239008","527-UM","2019/09/23 18:29:26","新北市鶯歌區朝陽街1號","121.33627","24.9765716666667","6500800","鶯歌區"
"239005","526-UM","2019/09/23 18:29:37","新北市鶯歌區鶯桃路668巷73號","121.329915","24.9717583333333","6500800","鶯歌區"
"239001","417-VK","2019/09/23 18:29:42","新北市鶯歌區中正二路192號","121.339533333333","24.9432083333333","6500800","鶯歌區"
"239003","360-BY","2019/09/23 18:29:26","新北市鶯歌區福安街68號","121.33587","24.965185","6500800","鶯歌區"
"239002","359-BY","2019/09/23 18:29:39","新北市鶯歌區國慶街45號","121.349735","24.955555","6500800","鶯歌區"
"239004","193-VK","2019/09/23 18:29:37","新北市鶯歌區尖山路174巷32號","121.344436666667","24.9486566666667","6500800","鶯歌區"
"221036","130-UY","2019/09/23 18:29:39","新北市汐止區大同路三段143號","121.669353333333","25.0776616666667","6501100","汐止區"
"221015","131-UY","2019/09/23 18:29:38","新北市汐止區鄉長路二段23巷5號","121.667361666667","25.0825416666667","6501100","汐止區"
"244019","KED-0667","2019/09/23 18:29:26","新北市林口區麗園二街23巷19號","121.380181666667","25.0704916666667","6501700","林口區"
"221010","269-BY","2019/09/23 18:29:33","新北市汐止區汐萬路35號","121.644168333333","25.0915816666667","6501100","汐止區"
"221012","278-VK","2019/09/23 18:29:31","新北市汐止區保長路35巷13號","121.67323","25.08009","6501100","汐止區"
"221023","279-VK","2019/09/23 18:29:23","新北市汐止區康寧街474巷7-2號","121.632253333333","25.06791","6501100","汐止區"
"221027","281-BY","2019/09/23 18:29:39","新北市汐止區和平街69號","121.661421666667","25.0706833333333","6501100","汐止區"
"221029","298-VK","2019/09/23 18:29:32","新北市汐止區樟樹二路330巷68號","121.642845","25.0699183333333","6501100","汐止區"
"221021","299-VK","2019/09/23 18:29:33","新北市汐止區大同路二段184巷11號","121.653531666667","25.063735","6501100","汐止區"
"221031","353-TW","2019/09/23 18:29:38","新北市汐止區大同路一段160號","121.633325","25.0570633333333","6501100","汐止區"
"221032","567-BX","2019/09/23 18:29:26","新北市汐止區橫科路73巷1號","121.61923","25.0505533333333","6501100","汐止區"
"221035","622-UM","2019/09/23 18:29:26","新北市汐止區大同路二段187巷9號","121.652118333333","25.0647833333333","6501100","汐止區"
"221025","623-UM","2019/09/23 18:29:38","新北市汐止區仁愛路119巷2號","121.662718333333","25.0637666666667","6501100","汐止區"
"221038","646-BX","2019/09/23 18:29:26","新北市汐止區忠孝東路303號","121.664191666667","25.068965","6501100","汐止區"
"221033","647-BX","2019/09/23 18:29:30","新北市汐止區宜興街130號","121.623358333333","25.0434416666667","6501100","汐止區"
"221002","707-TV","2019/09/23 18:29:36","新北市汐止區福德一路169號","121.636106666667","25.0662583333333","6501100","汐止區"
"221018","753-BX","2019/09/23 18:29:39","新北市汐止區茄苳路120巷2號","121.667723333333","25.0699366666667","6501100","汐止區"
"220079","145-BY","2019/09/23 18:29:34","新北市板橋區華東街1-10號","121.448318333333","24.9950716666667","6500100","板橋區"
"220080","200-UY","2019/09/23 18:29:29","新北市板橋區華東街1-9號","121.448066666667","24.994905","6500100","板橋區"
"220056","276-BY","2019/09/23 18:29:21","新北市板橋區華東街1-9號","121.448113333333","24.9949383333333","6500100","板橋區"
"220071","283-VK","2019/09/23 18:29:25","新北市板橋區華東街1-9號","121.448025","24.994905","6500100","板橋區"
"220094","285-UM","2019/09/23 18:29:21","新北市板橋區民生路二段161巷3號","121.470095","25.01973","6500100","板橋區"
"242046","281-VK","2019/09/23 18:29:33","新北市新莊區民安路16-29號","121.422365","25.0278733333333","6500500","新莊區"
"242011","280-VK","2019/09/23 18:29:36","新北市新莊區中榮街9號","121.451046666667","25.05276","6500500","新莊區"
"220035","560-BX","2019/09/23 18:29:38","新北市板橋區南雅西路一段53巷10號","121.45263","25.00545","6500100","板橋區"
"220077","687-BX","2019/09/23 18:29:27","新北市板橋區華東街1-10號","121.44837","24.9949533333333","6500100","板橋區"
"220055","827-TW","2019/09/23 18:29:41","新北市板橋區華東街1號","121.448386666667","24.994145","6500100","板橋區"
"220073","985-R7","2019/09/23 18:29:32","新北市土城區中央路一段2-1號","121.449551666667","24.993185","6500100","板橋區"
"220064","AAC-253","2019/09/23 18:29:28","新北市板橋區華東街260號","121.452653333333","25.0014916666667","6500100","板橋區"
"235068","KEA-2873","2019/09/23 18:29:21","新北市中和區中正路273-5號","121.495613333333","24.9931683333333","6500300","中和區"
"235061","KEA-2875","2019/09/23 18:29:33","新北市中和區民享街90巷18號","121.473778333333","25.0001633333333","6500300","中和區"
"235062","KEA-2876","2019/09/23 18:29:16","新北市中和區中山路二段312巷12號","121.495443333333","25.003705","6500300","中和區"
