"lineid","car","time","location","longitude","latitude","cityid","cityname"
"234046","148-BY","2019/09/23 18:49:40","新北市永和區永元路52巷52號","121.524576666667","25.0007","6500400","永和區"
"234081","298-R6","2019/09/23 18:49:30","新北市永和區國中路109巷1弄1號","121.524086666667","25.005925","6500400","永和區"
"234038","336-UY","2019/09/23 18:49:37","新北市永和區成功路一段131號","121.526836666667","25.0017583333333","6500400","永和區"
"234064","337-UY","2019/09/23 18:49:26","新北市永和區福和路1號","121.52568","25.009435","6500400","永和區"
"234086","338-UY","2019/09/23 18:49:35","新北市永和區中正路74號","121.513605","24.9951583333333","6500400","永和區"
"234017","745-BX","2019/09/23 18:49:40","新北市永和區永和路二段299號","121.516001666667","25.0162683333333","6500400","永和區"
"234030","746-BX","2019/09/23 18:49:24","新北市永和區得和路328號","121.523308333333","24.9995083333333","6500400","永和區"
"234007","KED-0605","2019/09/23 18:49:44","新北市永和區文化路118號","121.513221666667","25.01531","6500400","永和區"
"234013","KEA-2591","2019/09/23 18:49:37","新北市永和區保福路二段133巷22號","121.509166666667","25.0136483333333","6500400","永和區"
"234061","AAD-866","2019/09/23 18:49:34","新北市永和區福和路313號","121.516145","25.0070983333333","6500400","永和區"
"234042","862-TW","2019/09/23 18:49:35","新北市永和區永貞路308號","121.511851666667","25.004855","6500400","永和區"
"234011","9373-KE","2019/09/23 18:49:41","新北市永和區文化路126巷8號","121.513108333333","25.0158066666667","6500400","永和區"
"249005","172-UM","2019/09/23 18:49:29","新北市八里區長道坑16-1號","121.395431666667","25.117045","6502300","八里區"
"249001","173-UM","2019/09/23 18:49:27","新北市八里區龍米路二段16號","121.449016666667","25.139085","6502300","八里區"
"249004","303-UY","2019/09/23 18:49:30","新北市八里區中山路一段150巷80號","121.416138333333","25.160285","6502300","八里區"
"249002","305-UY","2019/09/23 18:49:40","新北市八里區頂寮二街138號","121.44929","25.12944","6502300","八里區"
"248014","025-BX","2019/09/23 18:49:27","新北市五股區民義路一段107巷32號","121.432055","25.0849583333333","6501500","五股區"
"248016","026-BX","2019/09/23 18:49:37","新北市五股區成泰路三段543巷52-1號","121.449728333333","25.1030266666667","6501500","五股區"
"248006","077-UY","2019/09/23 18:49:33","新北市五股區中興路一段40號","121.46825","25.072605","6501500","五股區"
"248008","KED-0815","2019/09/23 18:49:22","新北市五股區中興路一段151巷62號","121.465161666667","25.0720783333333","6501500","五股區"
"248018","KED-0813","2019/09/23 18:49:31","新北市五股區民義路二段93-9號","121.407066666667","25.1067866666667","6501500","五股區"
"248012","247-BX","2019/09/23 18:49:31","新北市五股區工商路16號","121.439545","25.0832533333333","6501500","五股區"
"248004","677-BX","2019/09/23 18:49:25","新北市五股區民義路二段54-3號","121.407548333333","25.10648","6501500","五股區"
"248002","678-BX","2019/09/23 18:49:39","新北市五股區成泰路三段454號","121.451415","25.1003516666667","6501500","五股區"
"248010","682-TV","2019/09/23 18:49:37","新北市五股區水碓五路81號","121.429998333333","25.0719","6501500","五股區"
"234023","9380-KE","2019/09/23 18:49:35","新北市永和區竹林路119巷45號","121.521953333333","25.01185","6500400","永和區"
"234077","969-R7","2019/09/23 18:49:40","新北市永和區中正路42巷6弄1號","121.513286666667","24.9941583333333","6500400","永和區"
"234067","AAC-212","2019/09/23 18:49:26","新北市永和區永和路一段2號","121.512595","25.0043916666667","6500400","永和區"
"234003","AAC-295","2019/09/23 18:49:35","新北市永和區中正路742-1號","121.515138333333","25.0102316666667","6500400","永和區"
"232011","076-UY","2019/09/23 18:49:34","新北市坪林區坪林街74號","121.711445","24.9373216666667","6502000","坪林區"
"244007","080-UY","2019/09/23 18:49:22","新北市林口區太平里28號","121.376748333333","25.1183966666667","6501700","林口區"
"244013","KEA-2802","2019/09/23 18:49:25","新北市林口區麗園一街11巷11號","121.378811666667","25.0705733333333","6501700","林口區"
"244023","483-VK","2019/09/23 18:49:38","新北市林口區文化二路二段100號","121.378775","25.0816666666667","6501700","林口區"
"244017","485-VK","2019/09/23 18:49:27","新北市林口區文化二路一段68巷24-3號","121.36707","25.06888","6501700","林口區"
"244009","656-BX","2019/09/23 18:49:22","新北市林口區竹林路460號","121.38801","25.08509","6501700","林口區"
"244011","701-TV","2019/09/23 18:49:28","新北市林口區仁愛路一段285巷62號","121.395418333333","25.0743333333333","6501700","林口區"
"244025","837-TS","2019/09/23 18:49:27","新北市林口區南勢街252號","121.358545","25.07577","6501700","林口區"
"243010","297-R6","2019/09/23 18:49:28","新北市泰山區辭修路48號","121.42843","25.0571683333333","6501600","泰山區"
"243014","KEA-2801","2019/09/23 18:49:28","新北市泰山區犁頭窠3-1號","121.422265","25.06057","6501600","泰山區"
"243015","680-BX","2019/09/23 18:49:34","新北市泰山區美寧街50號","121.4305","25.0644383333333","6501600","泰山區"
"222003","436-BY","2019/09/23 18:49:23","新北市深坑區深南路48號","121.620355","25.00876","6501800","深坑區"
"222002","659-BX","2019/09/23 18:49:38","新北市深坑區昇高坑路15號","121.624828333333","25.001085","6501800","深坑區"
"231061","002-UM","2019/09/23 18:49:32","新北市新店區安華路28-1號","121.519643333333","24.9607266666667","6500600","新店區"
"231055","0291-UT","2019/09/23 18:49:30","新北市新店區北新路一段271巷31-1號","121.539791666667","24.9670566666667","6500600","新店區"
"231044","046-UY","2019/09/23 18:49:38","新北市新店區中正路84號","121.543686666667","24.97041","6500600","新店區"
"231060","106-UY","2019/09/23 18:49:24","新北市新店區安華路28-1號","121.519551666667","24.9607133333333","6500600","新店區"
"231051","107-UY","2019/09/23 18:49:37","新北市新店區中央路87號","121.532063333333","24.9765033333333","6500600","新店區"
"231049","108-UY","2019/09/23 18:49:25","新北市新店區中央路238-1號","121.529291666667","24.9724283333333","6500600","新店區"
"231065","110-UY","2019/09/23 18:49:35","新北市新店區安康路三段267號","121.48645","24.951825","6500600","新店區"
"231062","256-BX","2019/09/23 18:49:22","新北市新店區安一路一段1-1號","121.519685","24.961225","6500600","新店區"
"231054","260-TV","2019/09/23 18:49:25","新北市新店區安一路一段1-1號","121.51916","24.9610816666667","6500600","新店區"
"231042","268-BY","2019/09/23 18:49:36","新北市新店區中正路71號","121.543501666667","24.969815","6500600","新店區"
"231064","278-BY","2019/09/23 18:49:42","新北市新店區安一路一段1-1號","121.51969","24.9610516666667","6500600","新店區"
"231050","AAD-862","2019/09/23 18:49:39","新北市新店區安康路一段89號","121.52914","24.96153","6500600","新店區"
"231045","355-BY","2019/09/23 18:49:26","新北市新店區安華路28-1號","121.51927","24.9608933333333","6500600","新店區"
"231058","3713-VJ","2019/09/23 18:49:24","新北市新店區北宜路一段105巷4弄2-1號","121.540101666667","24.9554533333333","6500600","新店區"
"231056","4715-K9","2019/09/23 18:49:36","新北市新店區建國路216-1號","121.538343333333","24.981075","6500600","新店區"
"231067","4772-VM","2019/09/23 18:49:40","新北市新店區安華路3號","121.518938333333","24.9606283333333","6500600","新店區"
"231052","512-UM","2019/09/23 18:49:23","新北市新店區新烏路一段105巷6號","121.546276666667","24.9408833333333","6500600","新店區"
"231041","619-UM","2019/09/23 18:49:28","新北市新店區安華路28-1號","121.519495","24.960885","6500600","新店區"
"231063","641-BX","2019/09/23 18:49:29","新北市新店區安華路1-1號","121.51951","24.9604983333333","6500600","新店區"
"231047","KED-0819","2019/09/23 18:49:36","新北市新店區北新路一段150號","121.542555","24.97068","6500600","新店區"
"231046","719-UM","2019/09/23 18:49:23","新北市新店區直潭路71號","121.532396666667","24.9422","6500600","新店區"
"231057","720-UM","2019/09/23 18:49:33","新北市新店區新烏路一段215號","121.54927","24.9313716666667","6500600","新店區"
"231059","897-TW","2019/09/23 18:49:24","新北市新店區安華路28-1號","121.51971","24.9610433333333","6500600","新店區"
"231040","898-TW","2019/09/23 18:49:39","新北市新店區安康路一段104號","121.52731","24.9624666666667","6500600","新店區"
"231043","899-TW","2019/09/23 18:49:39","新北市新店區安華路28-1號","121.519285","24.9609216666667","6500600","新店區"
"231066","AKT-0513","2019/09/23 18:49:31","新北市新店區安華路30巷1號","121.519485","24.9595933333333","6500600","新店區"
"235066","003-UY","2019/09/23 18:49:39","新北市中和區水源路18巷2弄2號","121.50406","25.0033966666667","6500300","中和區"
"235056","096-UM","2019/09/23 18:49:33","新北市中和區員山路466巷17弄27號","121.480438333333","25.0073083333333","6500300","中和區"
"235039","097-UM","2019/09/23 18:49:39","新北市中和區宜安路52巷9號","121.512255","24.997155","6500300","中和區"
"235065","098-UM","2019/09/23 18:49:40","新北市中和區勝利路35巷11弄1號","121.499703333333","25.0067583333333","6500300","中和區"
"235040","150-BY","2019/09/23 18:49:31","新北市中和區安平路36巷5號","121.510295","24.9948466666667","6500300","中和區"
"235058","151-BY","2019/09/23 18:49:19","新北市中和區連城路532巷34弄18號","121.475163333333","24.9927683333333","6500300","中和區"
"235055","183-VK","2019/09/23 18:49:31","新北市中和區民德路27號","121.468958333333","25.0026633333333","6500300","中和區"
"235038","185-VK","2019/09/23 18:49:28","新北市中和區立人街30號","121.518553333333","24.9941466666667","6500300","中和區"
"235049","186-VK","2019/09/23 18:49:25","新北市中和區景安路179號","121.505141666667","24.9941216666667","6500300","中和區"
"235067","255-BX","2019/09/23 18:49:25","新北市中和區中正路839巷25號","121.483795","25.002295","6500300","中和區"
"235044","293-VK","2019/09/23 18:49:37","新北市中和區中興街165號","121.49996","24.9906966666667","6500300","中和區"
"235072","301-VK","2019/09/23 18:49:27","新北市中和區中山路二段178巷1號","121.500801666667","25.002865","6500300","中和區"
"235043","352-BY","2019/09/23 18:49:41","新北市中和區秀朗路三段70巷6號","121.526261666667","24.99462","6500300","中和區"
"235042","KEA-2878","2019/09/23 18:49:39","新北市中和區秀朗路三段100巷2弄1號","121.52515","24.9934016666667","6500300","中和區"
"235050","4979-A6","2019/09/23 18:49:37","新北市中和區忠孝街79號","121.512166666667","24.985105","6500300","中和區"
"235069","4980-A6","2019/09/23 18:49:43","新北市中和區南山路107號","121.502143333333","24.9975416666667","6500300","中和區"
"235070","558-UM","2019/09/23 18:49:31","新北市中和區安和路215號","121.5058","24.9990483333333","6500300","中和區"
"235045","565-BX","2019/09/23 18:49:31","新北市中和區興南路一段86號","121.509805","24.9893783333333","6500300","中和區"
"235060","KED-0823","2019/09/23 18:49:28","新北市中和區中山路三段144號","121.47371","25.0063066666667","6500300","中和區"
"235054","640-BX","2019/09/23 18:49:32","新北市中和區民享街35巷15號","121.474915","25.0041033333333","6500300","中和區"
"235047","732-UM","2019/09/23 18:49:33","新北市中和區興南路二段34巷28弄1號","121.50493","24.9864633333333","6500300","中和區"
"235046","733-UM","2019/09/23 18:49:31","新北市中和區興南路一段104號","121.509858333333","24.988955","6500300","中和區"
"235057","801-TS","2019/09/23 18:49:32","新北市中和區民利街58巷3弄2號","121.478741666667","24.999245","6500300","中和區"
"235041","802-TS","2019/09/23 18:49:28","新北市中和區安平路147號","121.512053333333","24.997985","6500300","中和區"
"235052","805-TS","2019/09/23 18:49:41","新北市中和區興南路二段399巷98弄48號","121.498315","24.97668","6500300","中和區"
"235048","896-TW","2019/09/23 18:49:25","新北市中和區華新街8號","121.507468333333","24.98509","6500300","中和區"
"235053","900-TW","2019/09/23 18:49:32","新北市中和區華福街43號","121.466366666667","24.9967433333333","6500300","中和區"
"235064","911-UM","2019/09/23 18:49:35","新北市中和區泰和街38巷15號","121.498823333333","25.0005683333333","6500300","中和區"
"235051","157-BY","2019/09/23 18:49:31","新北市中和區忠孝街22號","121.51042","24.9828483333333","6500300","中和區"
"235037","AAC-213","2019/09/23 18:49:26","新北市中和區秀朗路三段10巷14弄92號","121.523676666667","24.9965883333333","6500300","中和區"
"235059","AAC-215","2019/09/23 18:49:37","新北市中和區圓通路393巷16號","121.489795","24.988635","6500300","中和區"
"220065","072-UY","2019/09/23 18:49:34","新北市板橋區民族路61號","121.464883333333","25.0086483333333","6500100","板橋區"
"220086","073-UY","2019/09/23 18:49:33","新北市板橋區南雅西路二段145巷4號","121.451665","25.0116416666667","6500100","板橋區"
"220106","075-UY","2019/09/23 18:49:26","新北市板橋區文化路二段124巷28-2號","121.4712","25.025615","6500100","板橋區"
"220069","AAD-861","2019/09/23 18:49:41","新北市板橋區華興街90號","121.456788333333","25.0053133333333","6500100","板橋區"
"220068","120-SR","2019/09/23 18:49:38","新北市板橋區大同街35巷17號","121.477356666667","25.0277916666667","6500100","板橋區"
"226004","312-R5","2019/09/23 18:49:31","新北市平溪區平溪里三坑路38號","121.734178333333","25.0331116666667","6502400","平溪區"
"235063","251-BX","2019/09/23 18:49:43","新北市中和區錦和路194號","121.490011666667","24.9949733333333","6500300","中和區"
"228003","097-TW","2019/09/23 18:49:37","新北市貢寮區和美里龍洞街35-2號","121.916621666667","25.11173","6502600","貢寮區"
"228002","663-BX","2019/09/23 18:49:30","新北市貢寮區福隆里東興街6-11號","121.95075","25.021085","6502600","貢寮區"
"228001","670-TC","2019/09/23 18:49:32","新北市貢寮區仁理村保健街73號","121.923746666667","25.0516633333333","6502600","貢寮區"
"224010","AGQ-8101","2019/09/23 18:49:33","新北市瑞芳區基山街36號","121.844831666667","25.1083966666667","6501200","瑞芳區"
"224006","676-BX","2019/09/23 18:49:39","新北市瑞芳區中正路62號","121.80629","25.1074666666667","6501200","瑞芳區"
"224002","639-TC","2019/09/23 18:49:41","新北市瑞芳區靜安路四段60巷1號","121.794748333333","25.1045833333333","6501200","瑞芳區"
"224007","285-BY","2019/09/23 18:49:40","新北市瑞芳區大埔路128號","121.761996666667","25.1009383333333","6501200","瑞芳區"
"224009","275-VK","2019/09/23 18:49:23","新北市瑞芳區祈堂路53-1號","121.859575","25.11046","6501200","瑞芳區"
"224008","273-VK","2019/09/23 18:49:36","新北市瑞芳區裕民新城1號","121.802121666667","25.1119816666667","6501200","瑞芳區"
"224005","271-BY","2019/09/23 18:49:23","新北市瑞芳區濱二路66-6號","121.831121666667","25.1197783333333","6501200","瑞芳區"
"227001","642-TC","2019/09/23 18:49:37","新北市雙溪區牡丹里下坑11號","121.85102","25.0561716666667","6502500","雙溪區"
"227002","400-TW","2019/09/23 18:49:22","新北市雙溪區共和里中山路59號","121.868183333333","25.0315433333333","6502500","雙溪區"
"253005","032-BX","2019/09/23 18:49:21","新北市石門區中山路28-2號","121.565691666667","25.28972","6502200","石門區"
"253006","295-VK","2019/09/23 18:49:37","新北市石門區下員坑15號","121.510888333333","25.2834716666667","6502200","石門區"
"222001","KEA-2212","2019/09/23 18:49:24","新北市深坑區北深路一段32-3號","121.63834","25.010475","6501800","深坑區"
"208002","KEA-2872","2019/09/23 18:49:32","新北市金山區信義路26號","121.635645","25.21993","6502700","金山區"
"208003","665-BX","2019/09/23 18:49:39","新北市金山區中山路393號","121.633413333333","25.22524","6502700","金山區"
"251009","008-UM","2019/09/23 18:49:42","新北市淡水區重建街212號","121.441173333333","25.1747466666667","6501000","淡水區"
"251004","009-UM","2019/09/23 18:49:34","新北市淡水區民權路3巷36號","121.46266","25.1444716666667","6501000","淡水區"
"251015","KEA-2871","2019/09/23 18:49:41","新北市淡水區興福寮1-9號","121.487166666667","25.1657616666667","6501000","淡水區"
"251016","179-VK","2019/09/23 18:49:38","新北市淡水區下圭柔山71-3號","121.446975","25.206235","6501000","淡水區"
"251008","181-VK","2019/09/23 18:49:38","新北市淡水區北投子14-2號","121.448603333333","25.183755","6501000","淡水區"
"251013","182-VK","2019/09/23 18:49:34","新北市淡水區安子內5-1號","121.483723333333","25.2151966666667","6501000","淡水區"
"251010","413-VK","2019/09/23 18:49:36","新北市淡水區沙崙路9號","121.421008333333","25.181225","6501000","淡水區"
"251012","441-VK","2019/09/23 18:49:35","新北市淡水區北新路2號","121.444266666667","25.1777233333333","6501000","淡水區"
"251001","559-UM","2019/09/23 18:49:33","新北市淡水區自強路108-1號","121.461876666667","25.13018","6501000","淡水區"
"251011","650-BX","2019/09/23 18:49:29","新北市淡水區平遠街11號","121.448305","25.1681433333333","6501000","淡水區"
"251002","672-BX","2019/09/23 18:49:29","新北市淡水區學府路75號","121.448486666667","25.1698583333333","6501000","淡水區"
"251003","673-BX","2019/09/23 18:49:39","新北市淡水區中山北路一段212巷38號","121.446183333333","25.1789733333333","6501000","淡水區"
"207003","550-UM","2019/09/23 18:49:21","新北市萬里區野柳里港東路157號","121.68995","25.20494","6502800","萬里區"
"207004","291-VK","2019/09/23 18:49:28","新北市萬里區萬里里獅頭路23號","121.693228333333","25.17825","6502800","萬里區"
"252002","178-VK","2019/09/23 18:49:29","新北市三芝區中正路一段112號","121.504843333333","25.2563533333333","6502100","三芝區"
"252003","249-BX","2019/09/23 18:49:32","新北市三芝區後厝里大片頭108號","121.458463333333","25.2428066666667","6502100","三芝區"
"208001","170-UY","2019/09/23 18:49:39","新北市金山區文化三路66巷1號","121.634213333333","25.2256133333333","6502700","金山區"
"237004","KEA-2597","2019/09/23 18:49:25","新北市三峽區插角218-2號","121.415051666667","24.8679866666667","6500900","三峽區"
"237007","153-BY","2019/09/23 18:49:32","新北市三峽區中正路二段399號","121.364905","24.9076066666667","6500900","三峽區"
"237013","252-BX","2019/09/23 18:49:36","新北市三峽區光明路69巷25號","121.376636666667","24.929195","6500900","三峽區"
"237012","275-BY","2019/09/23 18:49:33","新北市三峽區三樹路358號","121.383988333333","24.9433483333333","6500900","三峽區"
"237008","302-VK","2019/09/23 18:49:38","新北市三峽區中正路一段415號","121.370185","24.9204766666667","6500900","三峽區"
"237014","433-BY","2019/09/23 18:49:25","新北市三峽區隆恩街158巷68號","121.364911666667","24.9445383333333","6500900","三峽區"
"237006","5529-G3","2019/09/23 18:49:35","新北市三峽區溪東路211巷7號","121.40509","24.933685","6500900","三峽區"
"237011","KEA-2596","2019/09/23 18:49:22","新北市三峽區溪東路240號","121.408255","24.931805","6500900","三峽區"
"237015","649-BX","2019/09/23 18:49:26","新北市三峽區建安71-3號","121.447975","24.9265766666667","6500900","三峽區"
"237010","706-TV","2019/09/23 18:49:31","新北市三峽區復興路455號","121.362218333333","24.9385166666667","6500900","三峽區"
"237005","AKY-6261","2019/09/23 18:49:29","新北市三峽區文化路212號","121.368903333333","24.93594","6500900","三峽區"
"236042","KED-0685","2019/09/23 18:49:36","新北市土城區裕民路114巷15號","121.450505","24.98592","6501300","土城區"
"236030","253-BX","2019/09/23 18:49:41","新北市土城區中央路二段340號","121.440176666667","24.97202","6501300","土城區"
"236026","269-VK","2019/09/23 18:49:39","新北市土城區興城路48號","121.44131","24.9726266666667","6501300","土城區"
"236014","270-VK","2019/09/23 18:49:38","新北市土城區清水路235巷5弄2號","121.460753333333","24.98389","6501300","土城區"
"236039","271-VK","2019/09/23 18:49:29","新北市土城區明德路一段195巷1弄1號","121.463935","24.978755","6501300","土城區"
"236069","KEA-2877","2019/09/23 18:49:36","新北市土城區永豐路157巷4號","121.468231666667","24.98151","6501300","土城區"
"252001","KED-0821","2019/09/23 18:49:40","新北市三芝區中正路三段9號","121.502883333333","25.253955","6502100","三芝區"
"236020","401-BY","2019/09/23 18:49:38","新北市土城區延吉街251號","121.467653333333","24.9848166666667","6501300","土城區"
"236078","752-BX","2019/09/23 18:48:59","新北市土城區中央路四段125巷27號","121.417096666667","24.9566483333333","6501300","土城區"
"236059","912-UM","2019/09/23 18:49:32","新北市土城區金城路一段78號","121.444061666667","24.97266","6501300","土城區"
"236048","913-UM","2019/09/23 18:49:38","新北市土城區青雲路72號","121.459503333333","24.987095","6501300","土城區"
"236063","915-UM","2019/09/23 18:49:40","新北市土城區金城路三段207巷6弄7號","121.470403333333","24.99009","6501300","土城區"
"236055","AAC-216","2019/09/23 18:49:25","新北市土城區裕民路176號","121.45264","24.9852833333333","6501300","土城區"
"242002","441-UM","2019/09/23 18:49:22","新北市樹林區中山路三段206-1號","121.384308333333","24.9672916666667","6500500","新莊區"
"242009","349-TH","2019/09/23 18:49:24","新北市新莊區三泰路24-4號","121.43975","25.0344316666667","6500500","新莊區"
"238023","601-UM","2019/09/23 18:49:34","新北市樹林區工興街14巷7號","121.399243333333","25.013805","6500700","樹林區"
"238019","599-UM","2019/09/23 18:49:39","新北市樹林區中華路190-16號","121.411683333333","24.980605","6500700","樹林區"
"238024","5061-A6","2019/09/23 18:49:25","新北市樹林區太順街49巷14號","121.418085","24.9788716666667","6500700","樹林區"
"238022","KEA-2213","2019/09/23 18:49:26","新北市樹林區中華路393號","121.411426666667","24.9804483333333","6500700","樹林區"
"238014","282-BY","2019/09/23 18:49:32","新北市樹林區大安路111巷25號","121.423141666667","24.9975433333333","6500700","樹林區"
"238020","268-VK","2019/09/23 18:49:34","新北市樹林區俊英街280號","121.423793333333","25.01313","6500700","樹林區"
"238026","172-UY","2019/09/23 18:49:26","新北市樹林區信和街72號","121.38977","24.9730816666667","6500700","樹林區"
"238016","169-UY","2019/09/23 18:49:07","新北市樹林區中山路一段412號","121.417408333333","24.9851533333333","6500700","樹林區"
"239008","527-UM","2019/09/23 18:49:26","新北市鶯歌區朝陽街2號","121.33624","24.9765833333333","6500800","鶯歌區"
"239005","526-UM","2019/09/23 18:49:37","新北市鶯歌區鳳吉二街160號","121.328996666667","24.9752416666667","6500800","鶯歌區"
"239001","417-VK","2019/09/23 18:49:42","新北市鶯歌區國中街171-1號","121.337646666667","24.9387133333333","6500800","鶯歌區"
"239003","360-BY","2019/09/23 18:49:26","新北市鶯歌區永和街239-1號","121.337035","24.971505","6500800","鶯歌區"
"239004","193-VK","2019/09/23 18:49:37","新北市鶯歌區尖山路302巷18號","121.3417","24.9433033333333","6500800","鶯歌區"
"221036","130-UY","2019/09/23 18:49:39","新北市汐止區橋東街1號","121.666665","25.07626","6501100","汐止區"
"221015","131-UY","2019/09/23 18:49:38","新北市汐止區吉祥街11巷2號","121.66783","25.0807566666667","6501100","汐止區"
"244019","KED-0667","2019/09/23 18:49:26","新北市林口區麗園二街1巷9-1號","121.37875","25.0701466666667","6501700","林口區"
"221029","298-VK","2019/09/23 18:49:32","新北市汐止區工建路44號","121.64132","25.0629083333333","6501100","汐止區"
"221021","299-VK","2019/09/23 18:49:33","新北市汐止區新興路76號","121.657341666667","25.0618783333333","6501100","汐止區"
"221031","353-TW","2019/09/23 18:49:38","新北市汐止區福德一路272巷9號","121.631851666667","25.06426","6501100","汐止區"
"221032","567-BX","2019/09/23 18:49:26","新北市汐止區民權街二段85號","121.619081666667","25.047735","6501100","汐止區"
"221035","622-UM","2019/09/23 18:49:26","新北市汐止區新台五路一段79-7號","121.645991666667","25.0623816666667","6501100","汐止區"
"221025","623-UM","2019/09/23 18:49:38","新北市汐止區福安街20巷21號","121.66171","25.0643016666667","6501100","汐止區"
"221002","707-TV","2019/09/23 18:49:36","新北市汐止區環河街207號","121.625898333333","25.0551333333333","6501100","汐止區"
"221018","753-BX","2019/09/23 18:49:39","新北市汐止區茄苳路277號","121.672323333333","25.0679583333333","6501100","汐止區"
"220079","145-BY","2019/09/23 18:49:34","新北市板橋區大智街71巷42弄16號","121.452206666667","25.01474","6500100","板橋區"
"220080","200-UY","2019/09/23 18:49:29","新北市板橋區大觀路二段265巷66弄30號","121.441518333333","24.997145","6500100","板橋區"
"220082","610-BX","2019/09/23 18:49:24","新北市板橋區篤行路三段79-1號","121.427176666667","24.9853316666667","6500100","板橋區"
"220101","267-BY","2019/09/23 18:49:40","新北市板橋區文化路二段182巷7弄1號","121.471991666667","25.0269266666667","6500100","板橋區"
"220056","276-BY","2019/09/23 18:49:38","新北市板橋區四川路一段287號","121.458841666667","25.0007166666667","6500100","板橋區"
"220072","277-BY","2019/09/23 18:49:43","新北市板橋區金門街25巷10號","121.433991666667","24.9944033333333","6500100","板橋區"
"220071","283-VK","2019/09/23 18:49:38","新北市板橋區四川路一段40號","121.459495","25.0060333333333","6500100","板橋區"
"220094","285-UM","2019/09/23 18:49:21","新北市板橋區莒光路1-1號","121.469576666667","25.024945","6500100","板橋區"
"220053","285-VK","2019/09/23 18:49:36","新北市板橋區成功路39號","121.475013333333","25.017665","6500100","板橋區"
"220083","286-VK","2019/09/23 18:49:24","新北市板橋區僑中三街39號","121.445115","25.00482","6500100","板橋區"
"220081","287-VK","2019/09/23 18:49:32","新北市板橋區光華街13巷54號","121.452583333333","25.0111983333333","6500100","板橋區"
"220090","288-VK","2019/09/23 18:49:32","新北市板橋區四維路177巷4弄10號","121.46355","25.0263383333333","6500100","板橋區"
"220061","293-UM","2019/09/23 18:49:35","新北市板橋區太和街3巷1號","121.473931666667","25.0197383333333","6500100","板橋區"
"220084","296-UM","2019/09/23 18:49:31","新北市板橋區大觀路二段150巷58-1號","121.441531666667","25.00047","6500100","板橋區"
"220075","303-R5","2019/09/23 18:49:30","新北市板橋區館前西路259號","121.454123333333","25.0086783333333","6500100","板橋區"
"220062","305-R5","2019/09/23 18:49:40","新北市板橋區中山路二段23號","121.472401666667","25.0152933333333","6500100","板橋區"
"220092","307-R5","2019/09/23 18:49:35","新北市板橋區文化路一段104巷1弄11號","121.465473333333","25.0180616666667","6500100","板橋區"
"220047","317-R6","2019/09/23 18:49:35","新北市板橋區民生路二段234巷37號","121.469275","25.0227233333333","6500100","板橋區"
"220088","491-VK","2019/09/23 18:49:41","新北市板橋區民生路二段216號","121.469243333333","25.02154","6500100","板橋區"
"220035","560-BX","2019/09/23 18:47:59","新北市板橋區南雅西路二段301巷63號","121.451888333333","25.0171583333333","6500100","板橋區"
"220103","561-BX","2019/09/23 18:49:37","新北市板橋區文化路一段188巷9弄86號","121.468933333333","25.0186983333333","6500100","板橋區"
"220063","609-BX","2019/09/23 18:49:28","新北市板橋區民生路一段80號","121.473553333333","25.0154516666667","6500100","板橋區"
"220091","637-BX","2019/09/23 18:49:37","新北市板橋區雙十路二段47巷36號","121.475325","25.0256583333333","6500100","板橋區"
"220057","686-BX","2019/09/23 18:49:23","新北市板橋區重慶路153號","121.462426666667","25.003775","6500100","板橋區"
"220077","687-BX","2019/09/23 18:49:27","新北市板橋區大觀路二段174巷171號","121.44194","25.0034983333333","6500100","板橋區"
"220093","689-BX","2019/09/23 18:49:31","新北市板橋區文化路一段479巷42號","121.467843333333","25.0234466666667","6500100","板橋區"
"220054","741-BX","2019/09/23 18:49:36","新北市板橋區館前東路21號","121.460256666667","25.0072783333333","6500100","板橋區"
"220102","KEA-2699","2019/09/23 18:49:39","新北市板橋區萬板路478號","121.479958333333","25.0260016666667","6500100","板橋區"
"220055","827-TW","2019/09/23 18:49:37","新北市板橋區重慶路183號","121.46281","25.002285","6500100","板橋區"
"220067","829-TW","2019/09/23 18:49:28","新北市板橋區民享街116巷2弄29號","121.477371666667","25.0149783333333","6500100","板橋區"
"220074","895-R6","2019/09/23 18:49:35","新北市板橋區府中路29號","121.45893","25.0088633333333","6500100","板橋區"
"220073","985-R7","2019/09/23 18:49:40","新北市板橋區館前西路152-1號","121.45531","25.0084233333333","6500100","板橋區"
"220097","AAC-210","2019/09/23 18:49:27","新北市板橋區四維路137巷31號","121.463791666667","25.024495","6500100","板橋區"
"220064","AAC-253","2019/09/23 18:49:28","新北市板橋區漢生東路178號","121.467363333333","25.0143383333333","6500100","板橋區"
"235068","KEA-2873","2019/09/23 18:49:21","新北市中和區中正路211巷32弄20號","121.496478333333","24.99233","6500300","中和區"
"235061","KEA-2875","2019/09/23 18:49:19","新北市中和區民享街69巷5號","121.474571666667","25.00226","6500300","中和區"
"235062","KEA-2876","2019/09/23 18:49:16","新北市中和區中山路二段456號","121.488795","25.0044316666667","6500300","中和區"
