"lineid","car","time","location","longitude","latitude","cityid","cityname"
"234046","148-BY","2019/09/23 19:59:28","新北市永和區成功路一段2號","121.526955","25.00559","6500400","永和區"
"234081","298-R6","2019/09/23 19:59:30","新北市永和區永利路81巷2弄1號","121.521663333333","25.0036","6500400","永和區"
"234038","336-UY","2019/09/23 19:59:37","新北市永和區成功路二段167號","121.526611666667","24.9970583333333","6500400","永和區"
"234064","337-UY","2019/09/23 19:59:26","新北市永和區中正路412巷2弄11號","121.518505","25.0019216666667","6500400","永和區"
"234086","338-UY","2019/09/23 19:59:35","新北市永和區永利路2號","121.517341666667","25.005945","6500400","永和區"
"234070","552-UM","2019/09/23 19:59:41","新北市永和區國光路6號","121.519768333333","25.0084866666667","6500400","永和區"
"234017","745-BX","2019/09/23 19:59:40","新北市永和區文化路55號","121.514215","25.01504","6500400","永和區"
"234030","746-BX","2019/09/23 19:59:40","新北市永和區民權路49巷5弄8號","121.520796666667","24.9975316666667","6500400","永和區"
"234054","KEA-2590","2019/09/23 19:59:23","新北市永和區環河東路一段122號","121.520595","25.0154833333333","6500400","永和區"
"234007","KED-0605","2019/09/23 19:59:23","新北市永和區保生路22巷21號","121.50725","25.0082883333333","6500400","永和區"
"234013","KEA-2591","2019/09/23 19:59:37","新北市永和區保生路55號","121.504706666667","25.0105883333333","6500400","永和區"
"234061","AAD-866","2019/09/23 19:59:34","新北市永和區中正路283巷62號","121.516201666667","24.9998183333333","6500400","永和區"
"234042","862-TW","2019/09/23 19:59:35","新北市永和區中和路421巷16弄2號","121.50885","25.0012333333333","6500400","永和區"
"234050","863-TW","2019/09/23 19:59:22","新北市永和區保安路250號","121.506313333333","25.0125633333333","6500400","永和區"
"234026","9371-KE","2019/09/23 19:59:39","新北市永和區水源街33巷4號","121.510803333333","25.00413","6500400","永和區"
"234011","9373-KE","2019/09/23 19:59:41","新北市永和區仁愛路352巷122弄11號","121.500691666667","25.0088183333333","6500400","永和區"
"249005","172-UM","2019/09/23 19:59:29","新北市八里區楓林路3-4號","121.382223333333","25.1294133333333","6502300","八里區"
"249001","173-UM","2019/09/23 19:59:24","新北市八里區中華路二段302號","121.404053333333","25.14856","6502300","八里區"
"249004","303-UY","2019/09/23 19:59:25","新北市八里區中華路一段333-1號","121.413096666667","25.15404","6502300","八里區"
"249002","305-UY","2019/09/23 19:59:40","新北市八里區頂寮一街45號","121.450505","25.1240266666667","6502300","八里區"
"249003","593-UM","2019/09/23 19:59:33","新北市八里區訊塘路8號","121.398148333333","25.144755","6502300","八里區"
"248014","025-BX","2019/09/23 19:59:38","新北市五股區成泰路二段147巷5-17號","121.437135","25.0881616666667","6501500","五股區"
"248016","026-BX","2019/09/23 19:59:35","新北市五股區成泰路三段577巷80弄7號","121.44945","25.1043133333333","6501500","五股區"
"248008","KED-0815","2019/09/23 19:59:22","新北市五股區四維路153號","121.467666666667","25.0745433333333","6501500","五股區"
"248018","KED-0813","2019/09/23 19:59:31","新北市五股區登林路101號","121.411341666667","25.0780366666667","6501500","五股區"
"248012","247-BX","2019/09/23 19:59:33","新北市五股區工商路185號","121.433823333333","25.0867766666667","6501500","五股區"
"248004","677-BX","2019/09/23 19:59:23","新北市五股區成泰路一段34巷1號","121.435075","25.068475","6501500","五股區"
"248002","678-BX","2019/09/23 19:59:39","新北市五股區成泰路三段487號","121.450703333333","25.09926","6501500","五股區"
"248010","682-TV","2019/09/23 19:59:37","新北市五股區登林路64-1號","121.4315","25.068995","6501500","五股區"
"234023","9380-KE","2019/09/23 19:59:35","新北市永和區中正路702巷2號","121.516355","25.0100916666667","6500400","永和區"
"234077","969-R7","2019/09/23 19:59:40","新北市永和區民有街23巷1號","121.516821666667","24.9964116666667","6500400","永和區"
"234074","AAC-211","2019/09/23 19:59:42","新北市永和區竹林路179巷46號","121.522533333333","25.0102783333333","6500400","永和區"
"234067","AAC-212","2019/09/23 19:59:26","新北市永和區永貞路358號","121.51014","25.0065933333333","6500400","永和區"
"234003","AAC-295","2019/09/23 19:59:35","新北市永和區中正路716號","121.515926666667","25.0100766666667","6500400","永和區"
"243012","AAD-798","2019/09/23 19:59:40","新北市泰山區全興路13號","121.432288333333","25.0589383333333","6501600","泰山區"
"243010","297-R6","2019/09/23 19:59:28","新北市泰山區明志路二段51號","121.429455","25.0527566666667","6501600","泰山區"
"243016","421-VK","2019/09/23 19:59:44","新北市泰山區明志路三段415號","121.421091666667","25.0338066666667","6501600","泰山區"
"243009","KEA-2215","2019/09/23 19:59:33","新北市泰山區楓江路16巷23號","121.434023333333","25.06152","6501600","泰山區"
"243011","KEA-2216","2019/09/23 19:59:25","新北市泰山區工專路65號","121.422135","25.04046","6501600","泰山區"
"222003","436-BY","2019/09/23 19:59:23","新北市深坑區埔新街10號","121.620706666667","25.00401","6501800","深坑區"
"222002","659-BX","2019/09/23 19:59:38","新北市深坑區北深路二段81巷8弄3號","121.618213333333","25.0030466666667","6501800","深坑區"
"231061","002-UM","2019/09/23 19:59:32","新北市新店區安民街327號","121.517355","24.97464","6500600","新店區"
"231055","0291-UT","2019/09/23 19:59:30","新北市新店區新生街5巷12號","121.539846666667","24.9657333333333","6500600","新店區"
"231044","046-UY","2019/09/23 19:59:38","新北市新店區寶慶街58巷6號","121.542085","24.9870466666667","6500600","新店區"
"231060","106-UY","2019/09/23 19:59:24","新北市新店區安康路二段400-1號","121.496901666667","24.9553566666667","6500600","新店區"
"231051","107-UY","2019/09/23 19:59:37","新北市新店區中央路216-1號","121.529855","24.9731433333333","6500600","新店區"
"231049","108-UY","2019/09/23 19:59:25","新北市新店區民族路18號","121.541125","24.9787883333333","6500600","新店區"
"231065","110-UY","2019/09/23 19:59:35","新北市新店區安祥路106巷10號","121.478663333333","24.9626283333333","6500600","新店區"
"231068","187-VK","2019/09/23 19:59:37","新北市新店區安平路23-13號","121.520453333333","24.9657083333333","6500600","新店區"
"231062","256-BX","2019/09/23 19:59:22","新北市新店區華城路36巷1-3號","121.52758","24.9554283333333","6500600","新店區"
"231054","260-TV","2019/09/23 19:59:25","新北市新店區光明街204號","121.539776666667","24.9625533333333","6500600","新店區"
"231042","268-BY","2019/09/23 19:59:35","新北市新店區中正路5號","121.545846666667","24.9691466666667","6500600","新店區"
"231064","278-BY","2019/09/23 19:59:42","新北市新店區安光路10-1號","121.51379","24.9641466666667","6500600","新店區"
"231050","AAD-862","2019/09/23 19:59:39","新北市新店區北宜路二段335號","121.557513333333","24.9539783333333","6500600","新店區"
"231045","355-BY","2019/09/23 19:59:26","新北市新店區北宜路二段419號","121.560263333333","24.9544483333333","6500600","新店區"
"231056","4715-K9","2019/09/23 19:59:36","新北市新店區北新路二段29巷2弄1號","121.542416666667","24.972635","6500600","新店區"
"231067","4772-VM","2019/09/23 19:59:20","新北市新店區秀山路11巷18弄1號","121.53162","24.9589633333333","6500600","新店區"
"231052","512-UM","2019/09/23 19:59:23","新北市新店區新烏路三段寶島巷2弄3號","121.552018333333","24.8986783333333","6500600","新店區"
"231041","619-UM","2019/09/23 19:59:28","新北市新店區中央路13號","121.53324","24.9785033333333","6500600","新店區"
"231063","641-BX","2019/09/23 19:59:29","新北市新店區車子路11號","121.502956666667","24.9517166666667","6500600","新店區"
"231047","KED-0819","2019/09/23 19:59:36","新北市新店區寶橋路103號","121.548335","24.9768816666667","6500600","新店區"
"231057","720-UM","2019/09/23 19:59:33","新北市新店區花園二路一段11號","121.555466666667","24.9325066666667","6500600","新店區"
"231059","897-TW","2019/09/23 19:59:32","新北市新店區安和路一段15號","121.516818333333","24.9643283333333","6500600","新店區"
"231040","898-TW","2019/09/23 19:59:39","新北市新店區中正路75巷71號","121.543121666667","24.9689166666667","6500600","新店區"
"231043","899-TW","2019/09/23 19:59:39","新北市新店區中正路263-4號","121.538308333333","24.97388","6500600","新店區"
"231066","AKT-0513","2019/09/23 19:59:31","新北市新店區安康路二段382號","121.500376666667","24.9569483333333","6500600","新店區"
"241011","013-R5","2019/09/23 19:59:29","新北市三重區介壽路3-1號","121.498988333333","25.0690633333333","6500200","三重區"
"241028","022-UY","2019/09/23 19:59:35","新北市三重區中正南路83號","121.494205","25.0584633333333","6500200","三重區"
"241008","060-VK","2019/09/23 19:59:38","新北市三重區力行路二段136巷45弄4-1號","121.479485","25.0757316666667","6500200","三重區"
"241015","062-VK","2019/09/23 19:59:40","新北市三重區三和路二段17號","121.501186666667","25.0668516666667","6500200","三重區"
"241017","063-VK","2019/09/23 19:59:32","新北市三重區自強路一段217號","121.491256666667","25.068555","6500200","三重區"
"241024","065-VK","2019/09/23 19:59:36","新北市三重區大勇街59號","121.480961666667","25.0716883333333","6500200","三重區"
"241007","066-VK","2019/09/23 19:59:39","新北市三重區溪尾街154號","121.488835","25.0799283333333","6500200","三重區"
"241002","090-VK","2019/09/23 19:59:33","新北市三重區仁義街101巷2號","121.498066666667","25.0794466666667","6500200","三重區"
"241031","742-BX","2019/09/23 19:59:24","新北市三重區重新路四段184巷16號","121.486946666667","25.0549533333333","6500200","三重區"
"241006","262-UM","2019/09/23 19:59:38","新北市三重區力行路二段76巷29號","121.48052","25.07354","6500200","三重區"
"241016","266-UM","2019/09/23 19:59:20","新北市三重區正義北路46號","121.497375","25.063795","6500200","三重區"
"241009","267-UM","2019/09/23 19:59:26","新北市三重區三和路四段390巷32號","121.480756666667","25.07869","6500200","三重區"
"241018","268-UM","2019/09/23 19:59:37","新北市三重區正義北路195號","121.496166666667","25.0681883333333","6500200","三重區"
"241032","269-UM","2019/09/23 19:59:28","新北市三重區朝陽街26巷1弄19號","121.483186666667","25.05704","6500200","三重區"
"241013","270-UM","2019/09/23 19:59:21","新北市三重區三和路三段125巷40號","121.493995","25.0737816666667","6500200","三重區"
"241025","271-UM","2019/09/23 19:59:39","新北市三重區頂崁街210巷16號","121.476483333333","25.0676916666667","6500200","三重區"
"241035","KEA-2210","2019/09/23 19:59:21","新北市三重區大榮街7號","121.498168333333","25.0631116666667","6500200","三重區"
"241030","KED-0822","2019/09/23 19:59:28","新北市三重區成功路112-2號","121.48655","25.0521116666667","6500200","三重區"
"241004","475-VK","2019/09/23 19:59:25","新北市三重區五華街74號","121.493338333333","25.0819833333333","6500200","三重區"
"241020","478-VK","2019/09/23 19:59:42","新北市三重區忠孝路一段101號","121.48949","25.0721666666667","6500200","三重區"
"241026","480-VK","2019/09/23 19:59:27","新北市三重區仁慈街2-1號","121.501511666667","25.0631266666667","6500200","三重區"
"241014","543-UM","2019/09/23 19:59:30","新北市三重區三和路二段89號","121.499643333333","25.0683583333333","6500200","三重區"
"241023","545-UM","2019/09/23 19:59:34","新北市三重區頂崁街172號","121.47759","25.0659183333333","6500200","三重區"
"241001","547-UM","2019/09/23 19:59:30","新北市三重區福隆路12號","121.49032","25.07746","6500200","三重區"
"241019","KEA-2593","2019/09/23 19:59:41","新北市三重區自強路二段18-1號","121.489955","25.0690233333333","6500200","三重區"
"241005","AAD-863","2019/09/23 19:59:33","新北市三重區碧華街294巷15號","121.488986666667","25.0844083333333","6500200","三重區"
"241012","887-TS","2019/09/23 19:59:21","新北市三重區仁厚街26號","121.499601666667","25.0763083333333","6500200","三重區"
"241029","942-UM","2019/09/23 19:59:39","新北市三重區重新路三段198號","121.490033333333","25.0587583333333","6500200","三重區"
"241033","AAC-255","2019/09/23 19:59:39","新北市三重區中興北街24號","121.469678333333","25.048585","6500200","三重區"
"235066","003-UY","2019/09/23 19:59:39","新北市中和區中山路二段56號","121.504133333333","25.0047466666667","6500300","中和區"
"235039","097-UM","2019/09/23 19:59:39","新北市中和區大勇街29巷23弄1號","121.515518333333","24.9946833333333","6500300","中和區"
"235065","098-UM","2019/09/23 19:59:40","新北市中和區永和路59號","121.49696","25.0053633333333","6500300","中和區"
"235040","150-BY","2019/09/23 19:59:31","新北市中和區保健路10巷3弄1號","121.507706666667","24.9976083333333","6500300","中和區"
"235058","151-BY","2019/09/23 19:59:41","新北市中和區員山路148巷7號","121.481683333333","24.9971316666667","6500300","中和區"
"235044","293-VK","2019/09/23 19:59:25","新北市中和區復興路56號","121.503868333333","24.9903983333333","6500300","中和區"
"247016","KEA-2869","2019/09/23 19:59:34","新北市蘆洲區中正路96號","121.470071666667","25.0837116666667","6501400","蘆洲區"
"235070","558-UM","2019/09/23 19:59:31","新北市中和區圓通路178號","121.49677","24.994435","6500300","中和區"
"235046","733-UM","2019/09/23 19:59:31","新北市中和區忠孝街31巷56號","121.50985","24.9856133333333","6500300","中和區"
"235057","801-TS","2019/09/23 19:58:32","新北市五股區中直路15-2號","121.423331666667","25.1110516666667","6500300","中和區"
"235052","805-TS","2019/09/23 19:59:41","新北市中和區華新街30巷28號","121.506281666667","24.9838583333333","6500300","中和區"
"235048","896-TW","2019/09/23 19:59:25","新北市中和區景新街459號","121.513281666667","24.988365","6500300","中和區"
"235051","157-BY","2019/09/23 19:59:31","新北市中和區景安路247巷26號","121.50446","24.99044","6500300","中和區"
"235037","AAC-213","2019/09/23 19:59:26","新北市中和區大勇街50號","121.517701666667","24.9940816666667","6500300","中和區"
"235059","AAC-215","2019/09/23 19:59:37","新北市中和區圓通路305巷23號","121.494806666667","24.9892683333333","6500300","中和區"
"220065","072-UY","2019/09/23 19:59:34","新北市板橋區民族路69巷18弄1號","121.466461666667","25.009935","6500100","板橋區"
"220086","073-UY","2019/09/23 19:59:33","新北市板橋區中正路1巷4號","121.455666666667","25.0119083333333","6500100","板橋區"
"220106","075-UY","2019/09/23 19:59:26","新北市板橋區文聖街20-3號","121.476266666667","25.0315783333333","6500100","板橋區"
"220069","AAD-861","2019/09/23 19:59:41","新北市板橋區大明街25巷4弄9號","121.45774","25.0021116666667","6500100","板橋區"
"220068","120-SR","2019/09/23 19:59:37","新北市板橋區中山路二段394號","121.482511666667","25.0206716666667","6500100","板橋區"
"247006","893-R6","2019/09/23 19:59:35","新北市蘆洲區九芎街109號","121.465648333333","25.07971","6501400","蘆洲區"
"247020","546-UM","2019/09/23 19:59:30","新北市蘆洲區民權路113號","121.472418333333","25.089465","6501400","蘆洲區"
"247008","341-TH","2019/09/23 19:59:35","新北市蘆洲區信義路111號","121.478386666667","25.0802216666667","6501400","蘆洲區"
"247004","336-TH","2019/09/23 19:59:30","新北市蘆洲區長安街200號","121.458591666667","25.0841183333333","6501400","蘆洲區"
"247024","057-VK","2019/09/23 19:59:35","新北市蘆洲區光復路69號","121.464155","25.085475","6501400","蘆洲區"
"247014","056-VK","2019/09/23 19:59:29","新北市蘆洲區成功路129號","121.472391666667","25.082245","6501400","蘆洲區"
"247018","053-VK","2019/09/23 19:59:37","新北市蘆洲區民族路292號","121.47791","25.08968","6501400","蘆洲區"
"247002","001-UY","2019/09/23 19:59:35","新北市蘆洲區長安街270號","121.457516666667","25.0868916666667","6501400","蘆洲區"
"226004","312-R5","2019/09/23 19:59:31","新北市平溪區靜安路三段392巷3號","121.784376666667","25.049545","6502400","平溪區"
"228003","097-TW","2019/09/23 19:59:37","新北市貢寮區仁理村仁和路222號","121.923881666667","25.05354","6502600","貢寮區"
"228001","670-TC","2019/09/23 19:59:32","新北市貢寮區仁理村仁愛路66巷27號","121.926645","25.05236","6502600","貢寮區"
"224002","639-TC","2019/09/23 19:59:43","新北市瑞芳區員山子路員山巷12-1號","121.81703","25.1042766666667","6501200","瑞芳區"
"227001","642-TC","2019/09/23 19:59:37","新北市雙溪區新基里新基南街25號","121.866241666667","25.038135","6502500","雙溪區"
"227002","400-TW","2019/09/23 19:59:22","新北市雙溪區雙溪里長安街16號","121.865033333333","25.03463","6502500","雙溪區"
"222001","KEA-2212","2019/09/23 19:59:24","新北市深坑區北深路三段165-1號","121.602175","25.00341","6501800","深坑區"
"208002","KEA-2872","2019/09/23 19:59:32","新北市金山區環金路462號","121.630151666667","25.2247983333333","6502700","金山區"
"208003","665-BX","2019/09/23 19:59:39","新北市金山區香園9號","121.634618333333","25.2490216666667","6502700","金山區"
"251009","008-UM","2019/09/23 19:59:42","新北市淡水區英專路21巷12-3號","121.444943333333","25.16975","6501000","淡水區"
"251004","009-UM","2019/09/23 19:59:37","新北市淡水區民權路177巷9號","121.460733333333","25.1354416666667","6501000","淡水區"
"251015","KEA-2871","2019/09/23 19:59:21","新北市淡水區泉洲厝19號","121.490131666667","25.1906966666667","6501000","淡水區"
"251016","179-VK","2019/09/23 19:59:39","新北市淡水區興仁路162號","121.45137","25.2207766666667","6501000","淡水區"
"251008","181-VK","2019/09/23 19:59:38","新北市淡水區淡海路63巷10-1號","121.422685","25.1807066666667","6501000","淡水區"
"251013","182-VK","2019/09/23 19:59:34","新北市淡水區下圭柔山63-7號","121.451881666667","25.2061616666667","6501000","淡水區"
"251012","441-VK","2019/09/23 19:59:37","新北市淡水區下圭柔山93-3號","121.436211666667","25.2091416666667","6501000","淡水區"
"251005","443-VK","2019/09/23 19:59:36","新北市淡水區學府路136巷19號","121.451421666667","25.17282","6501000","淡水區"
"251001","559-UM","2019/09/23 19:59:33","新北市淡水區淡金路二段108-1號","121.447941666667","25.1842316666667","6501000","淡水區"
"251006","561-UM","2019/09/23 19:59:39","新北市淡水區水碓街28號","121.444096666667","25.1773316666667","6501000","淡水區"
"251011","650-BX","2019/09/23 19:59:25","新北市淡水區北新路一段2-15號","121.453546666667","25.180435","6501000","淡水區"
"251002","672-BX","2019/09/23 19:59:28","新北市淡水區新市一路一段6號","121.429","25.1873883333333","6501000","淡水區"
"207003","550-UM","2019/09/23 19:59:21","新北市萬里區大鵬里萬里加投45-1號","121.641491666667","25.2108783333333","6502800","萬里區"
"207004","291-VK","2019/09/23 19:59:28","新北市萬里區北基里忠一街1號","121.686788333333","25.1763316666667","6502800","萬里區"
"252002","178-VK","2019/09/23 19:59:29","新北市三芝區忠孝街116-3號","121.5055","25.2575816666667","6502100","三芝區"
"208001","170-UY","2019/09/23 19:59:39","新北市金山區南勢41-1號","121.629123333333","25.2198833333333","6502700","金山區"
"237004","KEA-2597","2019/09/23 19:59:25","新北市三峽區添福15-32號","121.372548333333","24.9047266666667","6500900","三峽區"
"237007","153-BY","2019/09/23 19:59:27","新北市三峽區麻園36-10號","121.363855","24.9196216666667","6500900","三峽區"
"237009","210-TH","2019/09/23 19:59:33","新北市三峽區民族街78巷2弄12號","121.368153333333","24.9300516666667","6500900","三峽區"
"237013","252-BX","2019/09/23 19:59:36","新北市三峽區介壽路二段167號","121.394638333333","24.9360616666667","6500900","三峽區"
"237012","275-BY","2019/09/23 19:59:33","新北市三峽區光明路42號","121.37388","24.9304816666667","6500900","三峽區"
"237008","302-VK","2019/09/23 19:59:38","新北市三峽區中正路一段174巷16號","121.371825","24.9289416666667","6500900","三峽區"
"237014","433-BY","2019/09/23 19:59:25","新北市三峽區添福9-15號","121.371536666667","24.9069583333333","6500900","三峽區"
"237006","5529-G3","2019/09/23 19:59:35","新北市三峽區中正路二段168號","121.366","24.915555","6500900","三峽區"
"237015","649-BX","2019/09/23 19:59:26","新北市三峽區溪北街78號","121.397761666667","24.9354333333333","6500900","三峽區"
"237005","AKY-6261","2019/09/23 19:59:29","新北市三峽區民生街1巷29-7號","121.381311666667","24.9329566666667","6500900","三峽區"
"236042","KED-0685","2019/09/23 19:59:43","新北市土城區學府路一段120巷15號","121.454893333333","24.9882333333333","6501300","土城區"
"236030","253-BX","2019/09/23 19:59:32","新北市土城區中央路一段250巷2-6號","121.443796666667","24.9848183333333","6501300","土城區"
"236026","269-VK","2019/09/23 19:59:34","新北市土城區中央路二段93號","121.44228","24.978095","6501300","土城區"
"236039","271-VK","2019/09/23 19:59:39","新北市土城區國際路139巷40號","121.468378333333","24.97729","6501300","土城區"
"247022","KED-0683","2019/09/23 19:59:41","新北市蘆洲區中正路178號","121.467103333333","25.0877933333333","6501400","蘆洲區"
"236069","KEA-2877","2019/09/23 19:59:43","新北市土城區忠義路75巷2號","121.442225","24.9661916666667","6501300","土城區"
"252001","KED-0821","2019/09/23 19:59:40","新北市三芝區公正街9號","121.499755","25.2574633333333","6502100","三芝區"
"236020","401-BY","2019/09/23 19:59:25","新北市土城區延吉街60號","121.471448333333","24.98679","6501300","土城區"
"236078","752-BX","2019/09/23 19:53:59","新北市土城區中央路四段410巷3號","121.411285","24.9536683333333","6501300","土城區"
"236059","912-UM","2019/09/23 19:59:34","新北市土城區中央路一段344號","121.443106666667","24.981115","6501300","土城區"
"236048","913-UM","2019/09/23 19:56:23","新北市土城區金城路三段162號","121.46734","24.98736","6501300","土城區"
"236063","915-UM","2019/09/23 19:59:38","新北市土城區金城路三段163巷16號","121.468943333333","24.9891966666667","6501300","土城區"
"236055","AAC-216","2019/09/23 19:59:25","新北市土城區學府路一段41號","121.457771666667","24.9883466666667","6501300","土城區"
"242042","AAC-296","2019/09/23 19:59:41","新北市新莊區青山路一段26號","121.410976666667","25.027625","6500500","新莊區"
"242060","986-R7","2019/09/23 19:59:41","新北市新莊區瓊林路92號","121.444563333333","25.027855","6500500","新莊區"
"242004","751-BX","2019/09/23 19:59:32","新北市新莊區化成路314巷4號","121.466356666667","25.04821","6500500","新莊區"
"242029","615-BX","2019/09/23 19:59:29","新北市新莊區中平路377巷1-7號","121.44442","25.0523866666667","6500500","新莊區"
"242027","613-BX","2019/09/23 19:59:33","新北市新莊區立信五街5號","121.444308333333","25.051365","6500500","新莊區"
"242058","612-BX","2019/09/23 19:59:27","新北市新莊區八德街99號","121.424308333333","25.0212916666667","6500500","新莊區"
"242048","566-BX","2019/09/23 19:59:38","新北市新莊區民安路207巷1號","121.426561666667","25.0227833333333","6500500","新莊區"
"242053","497-BY","2019/09/23 19:59:35","新北市新莊區西盛街423號","121.427301666667","25.0121566666667","6500500","新莊區"
"242007","440-UM","2019/09/23 19:59:42","新北市新莊區富貴路59號","121.458796666667","25.056285","6500500","新莊區"
"242013","413-TV","2019/09/23 19:59:41","新北市新莊區中港路417巷9號","121.451518333333","25.0475166666667","6500500","新莊區"
"242050","400-BY","2019/09/23 19:59:28","新北市新莊區西盛街188號","121.428163333333","25.0185266666667","6500500","新莊區"
"242025","362-BY","2019/09/23 19:59:41","新北市新莊區五工二路86巷25號","121.460296666667","25.06714","6500500","新莊區"
"242023","353-BY","2019/09/23 19:59:33","新北市新莊區化成路354號","121.465843333333","25.04918","6500500","新莊區"
"242015","132-UY","2019/09/23 19:59:32","新北市新莊區泰順街41號","121.446711666667","25.042805","6500500","新莊區"
"242039","135-UY","2019/09/23 19:59:36","新北市新莊區民安路276號","121.427721666667","25.0214533333333","6500500","新莊區"
"242056","172-VK","2019/09/23 19:59:28","新北市新莊區新豐街66號","121.446646666667","25.0337883333333","6500500","新莊區"
"242017","173-VK","2019/09/23 19:59:35","新北市新莊區中安街2號","121.452866666667","25.0452083333333","6500500","新莊區"
"242031","175-VK","2019/09/23 19:59:35","新北市新莊區公園一路17號","121.443335","25.03503","6500500","新莊區"
"242021","KED-0687","2019/09/23 19:59:21","新北市新莊區建中街48巷10弄12號","121.448593333333","25.0384516666667","6500500","新莊區"
"242036","348-TH","2019/09/23 19:59:22","新北市新莊區建安街27號","121.428933333333","25.0259033333333","6500500","新莊區"
"242034","350-TH","2019/09/23 19:59:37","新北市新莊區建中街109號","121.446268333333","25.0365083333333","6500500","新莊區"
"242019","351-TH","2019/09/23 19:59:32","新北市新莊區民生街15巷7號","121.455455","25.0425633333333","6500500","新莊區"
"238019","599-UM","2019/09/23 19:59:38","新北市樹林區中山路三段204號","121.386801666667","24.9687583333333","6500700","樹林區"
"238021","KEA-2539","2019/09/23 19:59:35","新北市樹林區佳園路三段7號","121.388348333333","24.955385","6500700","樹林區"
"238017","283-BY","2019/09/23 19:59:39","新北市樹林區保安街二段45巷21弄11號","121.414878333333","24.999685","6500700","樹林區"
"239006","891-R6","2019/09/23 19:59:30","新北市鶯歌區鶯桃路29號","121.343376666667","24.9505866666667","6500800","鶯歌區"
"239001","417-VK","2019/09/23 19:59:21","新北市鶯歌區建國路401號","121.337935","24.9506966666667","6500800","鶯歌區"
"239002","359-BY","2019/09/23 19:59:39","新北市鶯歌區大湖路185巷22號","121.342673333333","24.9705166666667","6500800","鶯歌區"
"239004","193-VK","2019/09/23 19:59:37","新北市鶯歌區二甲路93號","121.340783333333","24.931395","6500800","鶯歌區"
"221008","489-VK","2019/09/23 19:59:20","新北市汐止區康寧街83巷26號","121.620655","25.067395","6501100","汐止區"
"221015","131-UY","2019/09/23 19:59:38","新北市汐止區橋東街9號","121.666628333333","25.0759683333333","6501100","汐止區"
"221010","269-BY","2019/09/23 19:59:33","新北市汐止區汐萬路一段333巷2號","121.649978333333","25.0762433333333","6501100","汐止區"
"221012","278-VK","2019/09/23 19:59:31","新北市汐止區保長路273巷10號","121.682188333333","25.0737116666667","6501100","汐止區"
"221023","279-VK","2019/09/23 19:59:43","新北市汐止區民族六街4巷1號","121.629553333333","25.0701066666667","6501100","汐止區"
"221027","281-BY","2019/09/23 19:59:39","新北市汐止區中正路97號","121.661071666667","25.0694133333333","6501100","汐止區"
"221029","298-VK","2019/09/23 19:59:32","新北市汐止區樟樹一路139巷23號","121.641075","25.0660283333333","6501100","汐止區"
"221021","299-VK","2019/09/23 19:59:33","新北市汐止區水源路一段175號","121.655158333333","25.06183","6501100","汐止區"
"221031","353-TW","2019/09/23 19:59:38","新北市汐止區福德二路53號","121.63417","25.067025","6501100","汐止區"
"221035","622-UM","2019/09/23 19:59:26","新北市汐止區長江街11號","121.654705","25.07121","6501100","汐止區"
"221025","623-UM","2019/09/23 19:59:38","新北市汐止區仁愛路77巷3號","121.660978333333","25.0634083333333","6501100","汐止區"
"221038","646-BX","2019/09/23 19:59:25","新北市汐止區忠孝東路479號","121.666041666667","25.07329","6501100","汐止區"
"221033","647-BX","2019/09/23 19:59:30","新北市汐止區東勢街190巷3號","121.633876666667","25.0416033333333","6501100","汐止區"
"220079","145-BY","2019/09/23 19:59:33","新北市板橋區民權路255號","121.457156666667","25.0158433333333","6500100","板橋區"
"220080","200-UY","2019/09/23 19:59:28","新北市板橋區大觀路二段153巷25號","121.446556666667","25.0004016666667","6500100","板橋區"
"220082","610-BX","2019/09/23 19:59:24","新北市板橋區存德街3號","121.429915","24.9919916666667","6500100","板橋區"
"220101","267-BY","2019/09/23 19:59:40","新北市板橋區莒光路165巷30號","121.474396666667","25.0246466666667","6500100","板橋區"
"220056","276-BY","2019/09/23 19:59:41","新北市板橋區四川路二段99-1號","121.45265","24.9945516666667","6500100","板橋區"
"220072","277-BY","2019/09/23 19:59:43","新北市板橋區金門街117-3號","121.433048333333","24.99185","6500100","板橋區"
"220071","283-VK","2019/09/23 19:59:25","新北市板橋區五權街32巷21-2號","121.464173333333","24.9928133333333","6500100","板橋區"
"220094","285-UM","2019/09/23 19:59:41","新北市板橋區文化路一段154號","121.465561666667","25.0191333333333","6500100","板橋區"
"220053","285-VK","2019/09/23 19:59:36","新北市板橋區懷仁街55號","121.476936666667","25.0189216666667","6500100","板橋區"
"220083","286-VK","2019/09/23 19:59:24","新北市板橋區僑中二街10巷28號","121.445878333333","25.0111033333333","6500100","板橋區"
"220081","287-VK","2019/09/23 19:59:32","新北市板橋區大觀路一段29巷7號","121.450131666667","25.008155","6500100","板橋區"
"220090","288-VK","2019/09/23 19:59:30","新北市板橋區新海路72巷5弄34號","121.461566666667","25.0229816666667","6500100","板橋區"
"220061","293-UM","2019/09/23 19:59:35","新北市板橋區四川路一段8號","121.45937","25.0067833333333","6500100","板橋區"
"220084","296-UM","2019/09/23 19:59:31","新北市板橋區滿平街2巷5號","121.425971666667","24.989825","6500100","板橋區"
"220075","303-R5","2019/09/23 19:59:30","新北市板橋區金華街10巷48弄24-3號","121.457808333333","25.0199566666667","6500100","板橋區"
"220062","305-R5","2019/09/23 19:59:39","新北市板橋區中山路二段412巷23號","121.483561666667","25.0201066666667","6500100","板橋區"
"220092","307-R5","2019/09/23 19:59:27","新北市板橋區文化路一段71-1號","121.460785","25.01408","6500100","板橋區"
"220098","317-R6","2019/09/23 19:59:27","新北市板橋區裕民街133巷1號","121.459208333333","25.027155","6500100","板橋區"
"220089","487-VK","2019/09/23 19:59:41","新北市板橋區四維路294號","121.462783333333","25.02925","6500100","板橋區"
"242011","280-VK","2019/09/23 19:59:36","新北市新莊區中港路531巷35號","121.449936666667","25.05148","6500500","新莊區"
"220088","491-VK","2019/09/23 19:59:41","新北市板橋區民治街92號","121.479246666667","25.0317533333333","6500100","板橋區"
"220035","560-BX","2019/09/23 19:59:38","新北市板橋區金華街122號","121.459196666667","25.0208783333333","6500100","板橋區"
"220103","561-BX","2019/09/23 19:59:37","新北市板橋區漢生東路23巷38號","121.465805","25.0178933333333","6500100","板橋區"
"220063","609-BX","2019/09/23 19:59:28","新北市板橋區中山路二段121號","121.474868333333","25.0162916666667","6500100","板橋區"
"220091","637-BX","2019/09/23 19:59:37","新北市板橋區文聖街89巷27號","121.478445","25.030705","6500100","板橋區"
"220077","687-BX","2019/09/23 19:59:27","新北市板橋區僑中一街108號","121.446413333333","25.0116516666667","6500100","板橋區"
"220093","689-BX","2019/09/23 19:59:32","新北市板橋區長江路二段205號","121.467645","25.0322816666667","6500100","板橋區"
"220054","741-BX","2019/09/23 19:59:16","新北市板橋區忠孝路忠義巷15弄35號","121.465643333333","25.0044383333333","6500100","板橋區"
"220102","KEA-2699","2019/09/23 19:59:38","新北市板橋區莒光路64號","121.471195","25.0242216666667","6500100","板橋區"
"220055","827-TW","2019/09/23 19:59:41","新北市板橋區國慶路149巷37弄13號","121.460388333333","24.9978783333333","6500100","板橋區"
"220067","829-TW","2019/09/23 19:59:28","新北市板橋區漢生東路193巷69弄2號","121.472378333333","25.012005","6500100","板橋區"
"220074","895-R6","2019/09/23 19:59:30","新北市板橋區文化路一段46巷19號","121.460213333333","25.011655","6500100","板橋區"
"220073","985-R7","2019/09/23 19:59:32","新北市板橋區南雅西路二段206號","121.45186","25.0149716666667","6500100","板橋區"
"220097","AAC-210","2019/09/23 19:46:40","新北市板橋區光正街43號","121.4618","25.0170716666667","6500100","板橋區"
"220064","AAC-253","2019/09/23 19:59:33","新北市板橋區漢生東路193巷23-4號","121.470958333333","25.0121616666667","6500100","板橋區"
"235068","KEA-2873","2019/09/23 19:59:21","新北市中和區中山路二段250巷24號","121.497343333333","25.0032783333333","6500300","中和區"
