"lineid","car","time","location","longitude","latitude","cityid","cityname"
"251004","009-UM","2019/09/23 22:29:36","新北市淡水區民族路33號","121.462268333333","25.1358116666667","6501000","淡水區"
"251008","181-VK","2019/09/23 22:29:37","新北市淡水區學府路104號","121.449848333333","25.1717966666667","6501000","淡水區"
"251010","413-VK","2019/09/23 22:29:38","新北市淡水區沙崙路305號","121.427295","25.1870633333333","6501000","淡水區"
"251007","442-VK","2019/09/23 22:29:25","新北市淡水區北新路180號","121.44942","25.178605","6501000","淡水區"
"251011","650-BX","2019/09/23 22:29:25","新北市淡水區水碓街7號","121.443151666667","25.1771583333333","6501000","淡水區"
