"lineid","car","time","location","longitude","latitude","cityid","cityname"
"234001","395-TH","2019/09/24 10:09:41","新北市永和區保生路55-8號","121.503948333333","25.0104483333333","6500400","永和區"
"231009","192-VK","2019/09/24 10:09:31","新北市新店區小坑一路12-6號","121.535298333333","24.912615","6500600","新店區"
"227004","282-VK","2019/09/24 10:08:47","新北市雙溪區長源里盤山坑2-2號","121.787956666667","25.001735","6502500","雙溪區"
"227006","030-BX","2019/09/24 10:09:31","新北市雙溪區泰平里烏山路15號","121.795268333333","24.9500166666667","6502500","雙溪區"
"252004","249-BX","2019/09/24 10:09:42","新北市三芝區福德里埔尾2號","121.502025","25.2469916666667","6502100","三芝區"
"252007","AAC-283","2019/09/24 10:09:44","新北市三芝區車新路118號","121.493023333333","25.2670716666667","6502100","三芝區"
"237014","760-BX","2019/09/24 10:09:34","新北市三峽區三樹路98巷175號","121.384221666667","24.9398983333333","6500900","三峽區"
