"lineid","car","time","location","longitude","latitude","cityid","cityname"
"234044","148-BY","2019/09/24 13:19:40","新北市永和區得和路338號","121.523568333333","24.999485","6500400","永和區"
"234078","298-R6","2019/09/24 13:19:41","新北市永和區福和路7巷7號","121.525253333333","25.007855","6500400","永和區"
"234036","336-UY","2019/09/24 13:19:45","新北市永和區民樂街70號","121.527398333333","24.9984366666667","6500400","永和區"
"234062","337-UY","2019/09/24 13:19:44","新北市永和區永元路17巷15號","121.521303333333","25.0007716666667","6500400","永和區"
"234084","338-UY","2019/09/24 13:19:33","新北市永和區永貞路45號","121.51983","25.00469","6500400","永和區"
"234068","552-UM","2019/09/24 13:19:33","新北市永和區豫溪街39號","121.516665","25.0098816666667","6500400","永和區"
"234015","745-BX","2019/09/24 13:19:33","新北市永和區環河西路一段95巷14號","121.511638333333","25.017285","6500400","永和區"
"234028","746-BX","2019/09/24 13:19:29","新北市永和區四維街34號","121.525533333333","24.9980533333333","6500400","永和區"
"234052","KEA-2590","2019/09/24 13:19:36","新北市永和區中興街63號","121.516778333333","25.011665","6500400","永和區"
"234005","KED-0605","2019/09/24 13:19:40","新北市永和區中山路一段320號","121.506728333333","25.007085","6500400","永和區"
"234012","KEA-2591","2019/09/24 13:19:42","新北市永和區信義路23號","121.513953333333","25.0121616666667","6500400","永和區"
"234060","AAD-866","2019/09/24 13:19:42","新北市永和區中正路582號","121.517116666667","25.0065616666667","6500400","永和區"
"234040","862-TW","2019/09/24 13:19:35","新北市永和區保平路151巷15號","121.510495","25.0051616666667","6500400","永和區"
"234048","863-TW","2019/09/24 13:19:29","新北市永和區信義路100號","121.512398333333","25.0138816666667","6500400","永和區"
"234025","9371-KE","2019/09/24 13:19:36","新北市永和區大新街19巷1號","121.514895","25.00875","6500400","永和區"
"234010","9373-KE","2019/09/24 13:19:27","新北市永和區忠孝街34巷16號","121.514546666667","25.016795","6500400","永和區"
"248017","KED-0813","2019/09/24 13:19:43","新北市五股區御史路205-1號","121.431565","25.1011866666667","6501500","五股區"
"234022","9380-KE","2019/09/24 13:19:31","新北市永和區竹林路101號","121.51975","25.0119266666667","6500400","永和區"
"234076","969-R7","2019/09/24 13:19:37","新北市永和區民有街69號","121.517925","24.99569","6500400","永和區"
"234072","AAC-211","2019/09/24 13:19:30","新北市永和區竹林路46號","121.517656666667","25.0143","6500400","永和區"
"234066","AAC-212","2019/09/24 13:19:44","新北市永和區保平路174巷14弄7號","121.510918333333","25.0075666666667","6500400","永和區"
"234001","AAC-295","2019/09/24 13:19:36","新北市永和區保福路一段92號","121.51212","25.0103866666667","6500400","永和區"
"244002","248-BX","2019/09/24 13:19:40","新北市林口區頂福24號","121.357191666667","25.092245","6501700","林口區"
"231024","0291-UT","2019/09/24 13:19:37","新北市新店區秀山路66號","121.530838333333","24.960975","6500600","新店區"
"231005","046-UY","2019/09/24 13:19:31","新北市新店區安康路一段355號","121.519801666667","24.963085","6500600","新店區"
"231029","106-UY","2019/09/24 13:19:23","新北市新店區安華路28-1號","121.519631666667","24.9608333333333","6500600","新店區"
"231018","107-UY","2019/09/24 13:19:31","新北市新店區環河路182-2號","121.533515","24.9701483333333","6500600","新店區"
"231013","108-UY","2019/09/24 13:19:42","新北市新店區安康路一段156號","121.526251666667","24.9629833333333","6500600","新店區"
"231036","110-UY","2019/09/24 13:19:25","新北市新店區建業路15號","121.482596666667","24.9526616666667","6500600","新店區"
"231032","256-BX","2019/09/24 13:19:29","新北市新店區安華路30巷1號","121.519603333333","24.9598266666667","6500600","新店區"
"231023","260-TV","2019/09/24 13:19:39","新北市新店區安一路一段1-1號","121.519303333333","24.9612","6500600","新店區"
"231003","268-BY","2019/09/24 13:19:28","新北市新店區安一路一段1-1號","121.519665","24.96135","6500600","新店區"
"231035","278-BY","2019/09/24 13:19:30","新北市新店區安一路一段1-1號","121.519886666667","24.961135","6500600","新店區"
"231015","AAD-862","2019/09/24 13:19:33","新北市新店區安一路一段1-1號","121.519848333333","24.9611483333333","6500600","新店區"
"231006","355-BY","2019/09/24 13:19:43","新北市新店區安一路一段1-1號","121.519191666667","24.9610083333333","6500600","新店區"
"231027","3713-VJ","2019/09/24 13:19:38","新北市新店區安康路一段44號","121.530771666667","24.96102","6500600","新店區"
"231025","4715-K9","2019/09/24 13:19:43","新北市新店區中央五街40號","121.528465","24.9750216666667","6500600","新店區"
"231020","512-UM","2019/09/24 13:19:29","新北市新店區安康路一段85號","121.529323333333","24.9614533333333","6500600","新店區"
"231001","617-UM","2019/09/24 13:19:40","新北市新店區安華路28-1號","121.51926","24.9609316666667","6500600","新店區"
"231002","619-UM","2019/09/24 13:19:36","新北市新店區安華路28-1號","121.519568333333","24.9606383333333","6500600","新店區"
"231034","641-BX","2019/09/24 13:19:31","新北市新店區安華路1-1號","121.519551666667","24.96044","6500600","新店區"
"231012","KED-0819","2019/09/24 13:19:31","新北市新店區安一路一段1-1號","121.519901666667","24.9612266666667","6500600","新店區"
"231010","719-UM","2019/09/24 13:19:38","新北市新店區秀山路72號","121.531308333333","24.9609116666667","6500600","新店區"
"231026","720-UM","2019/09/24 13:19:27","新北市新店區安一路一段1-1號","121.519278333333","24.9611","6500600","新店區"
"231028","897-TW","2019/09/24 13:19:32","新北市新店區安華路28-1號","121.519685","24.9607766666667","6500600","新店區"
"231004","899-TW","2019/09/24 13:19:44","新北市新店區安華路28-1號","121.519193333333","24.9607233333333","6500600","新店區"
"231037","AKT-0513","2019/09/24 13:19:30","新北市新店區車子路10-4號","121.504851666667","24.9545733333333","6500600","新店區"
"235030","003-UY","2019/09/24 13:19:37","新北市中和區中山路二段119號","121.502886666667","25.0035416666667","6500300","中和區"
"235003","097-UM","2019/09/24 13:19:34","新北市中和區景平路172號","121.516968333333","24.9925916666667","6500300","中和區"
"235029","098-UM","2019/09/24 13:19:41","新北市中和區莊敬路49巷20弄22號","121.502758333333","25.00585","6500300","中和區"
"235004","150-BY","2019/09/24 13:19:31","新北市中和區保健路50巷66號","121.509265","24.9952233333333","6500300","中和區"
"235022","151-BY","2019/09/24 13:19:42","新北市中和區圓通路369巷152號","121.488003333333","24.9816083333333","6500300","中和區"
"235019","183-VK","2019/09/24 13:19:34","新北市中和區國光街1號","121.472735","25.0000333333333","6500300","中和區"
"235002","185-VK","2019/09/24 13:19:25","新北市中和區大智街70號","121.523346666667","24.9924466666667","6500300","中和區"
"235031","255-BX","2019/09/24 13:19:29","新北市中和區員山路148巷45號","121.482705","24.9971483333333","6500300","中和區"
"235036","301-VK","2019/09/24 13:19:44","新北市中和區連城路265巷6弄1號","121.491428333333","24.9959016666667","6500300","中和區"
"235007","352-BY","2019/09/24 13:19:31","新北市中和區景平路381號","121.503935","24.9933716666667","6500300","中和區"
"235006","KEA-2878","2019/09/24 13:19:38","新北市中和區大仁街46號","121.518556666667","24.9937416666667","6500300","中和區"
"235014","4979-A6","2019/09/24 13:19:33","新北市中和區捷運路61巷1號","121.508971666667","24.9896466666667","6500300","中和區"
"235033","4980-A6","2019/09/24 13:19:26","新北市中和區圓通路295-3號","121.494476666667","24.9917466666667","6500300","中和區"
"235013","551-UM","2019/09/24 13:19:44","新北市中和區員山路36巷16-3號","121.48498","24.9914516666667","6500300","中和區"
"235034","558-UM","2019/09/24 13:19:38","新北市中和區景平路435號","121.501023333333","24.9957916666667","6500300","中和區"
"235009","565-BX","2019/09/24 13:19:37","新北市中和區南山路236巷20弄5號","121.505691666667","24.9893633333333","6500300","中和區"
"235024","KED-0823","2019/09/24 13:19:28","新北市中和區員山路431號","121.480808333333","25.003685","6500300","中和區"
"235018","640-BX","2019/09/24 13:19:45","新北市中和區民享街90巷2號","121.474638333333","25.0004783333333","6500300","中和區"
"235035","783-BX","2019/09/24 13:19:25","新北市中和區中板路18巷1弄13號","121.483506666667","25.0124916666667","6500300","中和區"
"235021","801-TS","2019/09/24 13:19:39","新北市中和區民享街97巷12號","121.475263333333","24.99958","6500300","中和區"
"235005","802-TS","2019/09/24 13:19:44","新北市中和區景安路4號","121.507738333333","24.999075","6500300","中和區"
"235016","805-TS","2019/09/24 13:19:40","新北市中和區興南路二段23號","121.507823333333","24.9858833333333","6500300","中和區"
"235017","900-TW","2019/09/24 13:19:36","新北市中和區員山路36巷16-2號","121.485266666667","24.991525","6500300","中和區"
"235028","911-UM","2019/09/24 13:19:39","新北市中和區圓通路137號","121.498965","24.99558","6500300","中和區"
"235015","157-BY","2019/09/24 13:19:23","新北市中和區忠孝街39-13號","121.512025","24.9844166666667","6500300","中和區"
"235001","AAC-213","2019/09/24 13:19:24","新北市中和區景德街88號","121.516251666667","24.9914916666667","6500300","中和區"
"235023","AAC-215","2019/09/24 13:19:28","新北市中和區員山路36巷16-3號","121.484925","24.9912316666667","6500300","中和區"
"247023","057-VK","2019/09/24 13:19:40","新北市五股區中興路三段2巷10號","121.44921","25.0810283333333","6501400","蘆洲區"
"247013","056-VK","2019/09/24 13:19:39","新北市五股區中興路三段2巷10號","121.44911","25.0811483333333","6501400","蘆洲區"
"235027","251-BX","2019/09/24 13:19:36","新北市中和區中正路589巷15號","121.485865","24.9936433333333","6500300","中和區"
"228005","097-TW","2019/09/24 13:19:24","新北市貢寮區美豐里丹裡街36-1號","121.909871666667","25.0599016666667","6502600","貢寮區"
"228004","212-TW","2019/09/24 13:19:43","新北市貢寮區吉林里內寮街23號","121.902066666667","24.9847216666667","6502600","貢寮區"
"207002","749-BX","2019/09/24 13:19:38","新北市萬里區崁腳里崁腳路166號","121.645078333333","25.15582","6502800","萬里區"
"207001","662-BX","2019/09/24 13:19:42","新北市萬里區龜吼里玉田路32號","121.680733333333","25.194415","6502800","萬里區"
"252005","AAC-283","2019/09/24 13:19:42","新北市三芝區八賢里八連溪88號","121.520666666667","25.2292183333333","6502100","三芝區"
"220030","610-BX","2019/09/24 13:19:25","新北市板橋區華東街1-10號","121.448273333333","24.99494","6500100","板橋區"
"220025","687-BX","2019/09/24 13:19:39","新北市板橋區華東街1-10號","121.448358333333","24.9949766666667","6500100","板橋區"
"220021","985-R7","2019/09/24 13:19:25","新北市板橋區華東街1-10號","121.448343333333","24.9949866666667","6500100","板橋區"
"235032","KEA-2873","2019/09/24 13:19:21","新北市中和區中正路637巷60弄61號","121.48552","24.9932866666667","6500300","中和區"
"235025","KEA-2875","2019/09/24 13:19:36","新北市中和區民享街97巷2號","121.475095","24.9993533333333","6500300","中和區"
"235026","KEA-2876","2019/09/24 13:19:27","新北市中和區景平路989巷11號","121.495513333333","25.0052483333333","6500300","中和區"
