"lineid","car","time","location","longitude","latitude","cityid","cityname"
"234046","148-BY","2019/09/24 18:49:34","新北市永和區秀朗路二段124-3號","121.524756666667","25.0014866666667","6500400","永和區"
"234081","298-R6","2019/09/24 18:49:35","新北市永和區永利路134號","121.52182","25.0029316666667","6500400","永和區"
"234038","336-UY","2019/09/24 18:49:31","新北市永和區福和路8巷1號","121.52504","25.009065","6500400","永和區"
"234064","337-UY","2019/09/24 18:49:33","新北市永和區豫溪街217巷1號","121.525356666667","25.0097133333333","6500400","永和區"
"234086","338-UY","2019/09/24 18:49:39","新北市永和區中正路159號","121.516411666667","24.9984683333333","6500400","永和區"
"234017","745-BX","2019/09/24 18:49:39","新北市永和區永和路二段297號","121.516075","25.0160433333333","6500400","永和區"
"234030","746-BX","2019/09/24 18:49:43","新北市永和區得和路345號","121.523898333333","24.99947","6500400","永和區"
"234054","KEA-2590","2019/09/24 18:49:26","新北市永和區竹林路153號","121.520411666667","25.010425","6500400","永和區"
"234007","KED-0605","2019/09/24 18:49:43","新北市永和區文化路164號","121.512165","25.0154183333333","6500400","永和區"
"234013","KEA-2591","2019/09/24 18:49:38","新北市永和區保福路二段133巷22號","121.509146666667","25.01362","6500400","永和區"
"234061","AAD-866","2019/09/24 18:49:38","新北市永和區福和路309巷1號","121.516353333333","25.0070416666667","6500400","永和區"
"234042","862-TW","2019/09/24 18:49:32","新北市永和區永貞路306號","121.511833333333","25.0048333333333","6500400","永和區"
"234026","9371-KE","2019/09/24 18:49:28","新北市永和區自由街58號","121.513766666667","25.0059866666667","6500400","永和區"
"234011","9373-KE","2019/09/24 18:49:30","新北市永和區文化路126巷7號","121.513028333333","25.0157283333333","6500400","永和區"
"249005","172-UM","2019/09/24 18:49:37","新北市八里區長道坑16-1號","121.395516666667","25.1170333333333","6502300","八里區"
"248014","025-BX","2019/09/24 18:49:29","新北市五股區民義路一段107巷32號","121.432246666667","25.084415","6501500","五股區"
"248016","026-BX","2019/09/24 18:49:29","新北市五股區成泰路三段543巷52號","121.449988333333","25.1028816666667","6501500","五股區"
"248006","077-UY","2019/09/24 18:49:34","新北市五股區中興路一段40號","121.46821","25.0725816666667","6501500","五股區"
"248008","KED-0815","2019/09/24 18:49:38","新北市五股區中興路一段151巷66號","121.465153333333","25.0720116666667","6501500","五股區"
"248020","KED-0813","2019/09/24 18:49:30","新北市五股區凌雲路三段88號","121.428221666667","25.11896","6501500","五股區"
"248012","247-BX","2019/09/24 18:49:44","新北市五股區成泰路二段222-2號","121.439068333333","25.0854116666667","6501500","五股區"
"248004","677-BX","2019/09/24 18:49:36","新北市五股區民義路二段50-5號","121.410846666667","25.1040533333333","6501500","五股區"
"248002","678-BX","2019/09/24 18:49:43","新北市五股區凌雲路一段74號","121.451005","25.1012733333333","6501500","五股區"
"248010","682-TV","2019/09/24 18:49:43","新北市五股區水碓九路104號","121.429595","25.0723133333333","6501500","五股區"
"234023","9380-KE","2019/09/24 18:49:37","新北市永和區竹林路119巷45號","121.521971666667","25.0118966666667","6500400","永和區"
"234077","969-R7","2019/09/24 18:49:44","新北市永和區中正路2巷27號","121.51389","24.99344","6500400","永和區"
"234067","AAC-212","2019/09/24 18:49:43","新北市中和區永貞路288號","121.513023333333","25.0040633333333","6500400","永和區"
"234003","AAC-295","2019/09/24 18:49:44","新北市永和區中正路700號","121.516338333333","25.0098316666667","6500400","永和區"
"232011","076-UY","2019/09/24 18:49:41","新北市坪林區坪林街55號","121.711436666667","24.9375883333333","6502000","坪林區"
"244007","080-UY","2019/09/24 18:49:35","新北市林口區太平里5鄰23號","121.37645","25.115785","6501700","林口區"
"244013","KEA-2802","2019/09/24 18:49:41","新北市林口區麗園一街11巷11號","121.378715","25.0705566666667","6501700","林口區"
"244023","483-VK","2019/09/24 18:49:33","新北市林口區文化二路二段88巷9號","121.379463333333","25.0808833333333","6501700","林口區"
"244017","485-VK","2019/09/24 18:49:26","新北市林口區文化二路一段120巷3號","121.367925","25.07006","6501700","林口區"
"244009","656-BX","2019/09/24 18:49:41","新北市林口區竹林路462號","121.387985","25.085065","6501700","林口區"
"244011","701-TV","2019/09/24 18:49:42","新北市林口區仁愛路一段285巷52號","121.39545","25.0745933333333","6501700","林口區"
"244025","837-TS","2019/09/24 18:49:35","新北市林口區南勢街196號","121.360333333333","25.0747483333333","6501700","林口區"
"243010","297-R6","2019/09/24 18:49:39","新北市泰山區辭修路48號","121.428528333333","25.0570916666667","6501600","泰山區"
"243014","KEA-2801","2019/09/24 18:49:37","新北市泰山區犁頭窠3-1號","121.422246666667","25.0605966666667","6501600","泰山區"
"222003","436-BY","2019/09/24 18:49:39","新北市深坑區深南路51-1號","121.621326666667","25.0101433333333","6501800","深坑區"
"222002","659-BX","2019/09/24 18:49:44","新北市深坑區文山路一段69號","121.62702","25.0018766666667","6501800","深坑區"
"231061","002-UM","2019/09/24 18:49:43","新北市新店區安華路28-1號","121.519668333333","24.9606516666667","6500600","新店區"
"231055","0291-UT","2019/09/24 18:49:31","新北市新店區新生街55號","121.538801666667","24.96694","6500600","新店區"
"231044","046-UY","2019/09/24 18:49:36","新北市新店區環河路2號","121.538496666667","24.9617533333333","6500600","新店區"
"231060","106-UY","2019/09/24 18:49:32","新北市新店區安華路28-1號","121.519715","24.9608283333333","6500600","新店區"
"231051","107-UY","2019/09/24 18:49:38","新北市新店區中央路87號","121.532195","24.9764666666667","6500600","新店區"
"231049","108-UY","2019/09/24 18:49:43","新北市新店區環河路116號","121.537103333333","24.9669633333333","6500600","新店區"
"231065","110-UY","2019/09/24 18:49:39","新北市新店區安康路二段393號","121.494316666667","24.9539116666667","6500600","新店區"
"231062","256-BX","2019/09/24 18:49:33","新北市新店區安一路一段1-1號","121.519643333333","24.9611083333333","6500600","新店區"
"231054","260-TV","2019/09/24 18:49:30","新北市新店區安一路一段1-1號","121.519318333333","24.961225","6500600","新店區"
"231042","268-BY","2019/09/24 18:49:30","新北市新店區安康路一段107-2號","121.528813333333","24.9616216666667","6500600","新店區"
"231064","278-BY","2019/09/24 18:49:40","新北市新店區安一路一段1-1號","121.51965","24.9611366666667","6500600","新店區"
"231050","AAD-862","2019/09/24 18:49:43","新北市新店區安一路一段1-1號","121.519851666667","24.9610816666667","6500600","新店區"
"231045","355-BY","2019/09/24 18:49:27","新北市新店區安華路28-1號","121.519198333333","24.9608966666667","6500600","新店區"
"231058","3713-VJ","2019/09/24 18:49:24","新北市新店區北宜路一段105巷4弄3號","121.53995","24.9556366666667","6500600","新店區"
"231056","4715-K9","2019/09/24 18:49:37","新北市新店區大同街8巷2號","121.539768333333","24.98012","6500600","新店區"
"231067","4772-VM","2019/09/24 18:49:03","新北市新店區安華路3號","121.518966666667","24.9605083333333","6500600","新店區"
"231053","512-UM","2019/09/24 18:49:38","新北市新店區長興路35號","121.548011666667","24.93892","6500600","新店區"
"231040","617-UM","2019/09/24 18:49:41","新北市新店區安康路一段85號","121.529346666667","24.9614416666667","6500600","新店區"
"231041","619-UM","2019/09/24 18:49:37","新北市新店區安華路28-1號","121.519481666667","24.9609533333333","6500600","新店區"
"231063","641-BX","2019/09/24 18:49:36","新北市新店區安華路28-1號","121.519455","24.9605916666667","6500600","新店區"
"231048","KED-0819","2019/09/24 18:49:35","新北市新店區環河路1-2號","121.538238333333","24.9616583333333","6500600","新店區"
"231046","719-UM","2019/09/24 18:49:30","新北市新店區直潭路71號","121.532411666667","24.9422133333333","6500600","新店區"
"231057","720-UM","2019/09/24 18:49:41","新北市新店區新烏路一段215號","121.549305","24.93135","6500600","新店區"
"231059","897-TW","2019/09/24 18:49:33","新北市新店區安華路28-1號","121.519618333333","24.96078","6500600","新店區"
"231043","899-TW","2019/09/24 18:49:26","新北市新店區安一路一段1-1號","121.519665","24.96163","6500600","新店區"
"231066","AKT-0513","2019/09/24 18:49:34","新北市新店區安華路1-1號","121.519528333333","24.9604216666667","6500600","新店區"
"235066","003-UY","2019/09/24 18:49:36","新北市中和區水源路20號","121.504125","25.0035133333333","6500300","中和區"
"235056","096-UM","2019/09/24 18:49:39","新北市中和區員山路466巷17弄33號","121.48045","25.00747","6500300","中和區"
"235039","097-UM","2019/09/24 18:49:44","新北市中和區安平路190號","121.513243333333","24.9990533333333","6500300","中和區"
"235065","098-UM","2019/09/24 18:49:32","新北市中和區莊敬路33巷7號","121.50014","25.0066466666667","6500300","中和區"
"235040","150-BY","2019/09/24 18:49:46","新北市中和區安平路70號","121.510718333333","24.9963833333333","6500300","中和區"
"235058","151-BY","2019/09/24 18:49:38","新北市中和區連城路518巷1號","121.476378333333","24.99177","6500300","中和區"
"235055","183-VK","2019/09/24 18:49:34","新北市中和區民德路23號","121.46883","25.002735","6500300","中和區"
"235038","185-VK","2019/09/24 18:49:39","新北市中和區大勇街43巷1號","121.51776","24.9946533333333","6500300","中和區"
"235067","255-BX","2019/09/24 18:49:29","新北市中和區民樂路81號","121.48483","25.00156","6500300","中和區"
"235044","293-VK","2019/09/24 18:49:34","新北市中和區中興街169號","121.499983333333","24.9904683333333","6500300","中和區"
"235072","301-VK","2019/09/24 18:49:25","新北市中和區中山路二段264號","121.497278333333","25.00251","6500300","中和區"
"235043","352-BY","2019/09/24 18:49:41","新北市中和區秀朗路三段68號","121.526275","24.9948383333333","6500300","中和區"
"235042","KEA-2878","2019/09/24 18:49:34","新北市中和區秀朗路三段131號","121.525431666667","24.9927966666667","6500300","中和區"
"235050","4979-A6","2019/09/24 18:49:31","新北市中和區忠孝街58巷22號","121.512425","24.9829083333333","6500300","中和區"
"235069","4980-A6","2019/09/24 18:49:38","新北市中和區南山路111巷3號","121.502596666667","24.99773","6500300","中和區"
"235049","551-UM","2019/09/24 18:49:42","新北市中和區景安路134號","121.504965","24.9943616666667","6500300","中和區"
"235070","558-UM","2019/09/24 18:49:31","新北市中和區安和路179-1號","121.506026666667","24.99799","6500300","中和區"
"235045","565-BX","2019/09/24 18:49:34","新北市中和區景新街469號","121.513533333333","24.988125","6500300","中和區"
"235060","KED-0823","2019/09/24 18:49:30","新北市中和區民治街22號","121.475155","25.0042616666667","6500300","中和區"
"235054","640-BX","2019/09/24 18:49:37","新北市中和區民享街86巷6號","121.474198333333","25.0009316666667","6500300","中和區"
"235047","732-UM","2019/09/24 18:49:34","新北市中和區興南路二段34巷28弄1號","121.504995","24.9864866666667","6500300","中和區"
"235046","733-UM","2019/09/24 18:49:26","新北市中和區興南路一段89號","121.509856666667","24.9888433333333","6500300","中和區"
"235057","801-TS","2019/09/24 18:49:36","新北市中和區民利街58巷5號","121.478753333333","24.9992566666667","6500300","中和區"
"235041","802-TS","2019/09/24 18:49:30","新北市中和區宜安路92巷7號","121.511041666667","24.9977783333333","6500300","中和區"
"235052","805-TS","2019/09/24 18:49:26","新北市中和區興南路二段399巷98弄60號","121.497886666667","24.9763916666667","6500300","中和區"
"235048","896-TW","2019/09/24 18:49:39","新北市中和區華新街40號","121.507901666667","24.9842933333333","6500300","中和區"
"235053","900-TW","2019/09/24 18:49:44","新北市中和區民德路290巷19號","121.46648","24.996005","6500300","中和區"
"235064","911-UM","2019/09/24 18:49:32","新北市中和區連城路47巷6號","121.498063333333","25.001435","6500300","中和區"
"235051","157-BY","2019/09/24 18:49:44","新北市中和區忠孝街106巷9弄1號","121.512503333333","24.9845866666667","6500300","中和區"
"235037","AAC-213","2019/09/24 18:49:32","新北市中和區秀朗路三段10巷14弄41-5號","121.524151666667","24.9964233333333","6500300","中和區"
"235059","AAC-215","2019/09/24 18:49:24","新北市中和區圓通路391-7號","121.489643333333","24.9890033333333","6500300","中和區"
"220065","072-UY","2019/09/24 18:49:34","新北市板橋區館前東路108-1號","121.463161666667","25.0076166666667","6500100","板橋區"
"220086","073-UY","2019/09/24 18:49:36","新北市板橋區南雅西路二段145巷4號","121.451655","25.011675","6500100","板橋區"
"220106","075-UY","2019/09/24 18:49:27","新北市板橋區文化路二段124巷24號","121.471181666667","25.0257233333333","6500100","板橋區"
"220069","AAD-861","2019/09/24 18:49:40","新北市板橋區華興街84號","121.456925","25.0052116666667","6500100","板橋區"
"220068","120-SR","2019/09/24 18:49:42","新北市板橋區大同街35巷16號","121.477481666667","25.0279","6500100","板橋區"
"226004","312-R5","2019/09/24 18:49:43","新北市平溪區平溪里平溪街58號","121.737831666667","25.027855","6502400","平溪區"
"235063","251-BX","2019/09/24 18:49:39","新北市中和區連城路319巷5弄1-3號","121.489205","24.9953216666667","6500300","中和區"
"228003","097-TW","2019/09/24 18:49:38","新北市貢寮區和美里龍洞街53號","121.912425","25.1136466666667","6502600","貢寮區"
"228001","212-TW","2019/09/24 18:49:40","新北市貢寮區仁理村研海街12-1號","121.923781666667","25.05168","6502600","貢寮區"
"228002","663-BX","2019/09/24 18:49:48","新北市貢寮區福隆里東興街6-11號","121.950745","25.021095","6502600","貢寮區"
"224006","676-BX","2019/09/24 18:49:30","新北市瑞芳區中正路68-1號","121.80626","25.107475","6501200","瑞芳區"
"224007","285-BY","2019/09/24 18:49:27","新北市瑞芳區大埔路慶安新村44-1號","121.76279","25.1001533333333","6501200","瑞芳區"
"224009","275-VK","2019/09/24 18:49:27","新北市瑞芳區祈堂路53-1號","121.859555","25.1104283333333","6501200","瑞芳區"
"224008","273-VK","2019/09/24 18:49:44","新北市瑞芳區裕民新城2號","121.801916666667","25.111975","6501200","瑞芳區"
"224005","271-BY","2019/09/24 18:49:47","新北市瑞芳區海濱路87-2號","121.830585","25.122535","6501200","瑞芳區"
"227001","642-TC","2019/09/24 18:49:38","新北市雙溪區牡丹里下坑11號","121.851003333333","25.0561916666667","6502500","雙溪區"
"227002","400-TW","2019/09/24 18:49:37","新北市雙溪區共和里中山路39號","121.866123333333","25.0323733333333","6502500","雙溪區"
"253005","032-BX","2019/09/24 18:49:33","新北市石門區石門街2巷20號","121.565681666667","25.2904866666667","6502200","石門區"
"253006","295-VK","2019/09/24 18:49:36","新北市石門區下員坑15號","121.511676666667","25.2849183333333","6502200","石門區"
"222001","KEA-2212","2019/09/24 18:49:35","新北市深坑區北深路一段32號","121.637955","25.010505","6501800","深坑區"
"208002","KEA-2872","2019/09/24 18:49:38","新北市金山區信義路39號","121.635321666667","25.2196783333333","6502700","金山區"
"208003","665-BX","2019/09/24 18:49:41","新北市金山區中山路283號","121.636186666667","25.2232083333333","6502700","金山區"
"251009","008-UM","2019/09/24 18:49:33","新北市淡水區新生街124號","121.441023333333","25.17453","6501000","淡水區"
"251004","009-UM","2019/09/24 18:49:27","新北市淡水區中正東路二段143巷2弄1號","121.460661666667","25.14728","6501000","淡水區"
"251001","011-UM","2019/09/24 18:49:28","新北市淡水區自強路273號","121.4626","25.1281033333333","6501000","淡水區"
"251015","KEA-2871","2019/09/24 18:49:32","新北市淡水區糞箕湖60號","121.485241666667","25.172325","6501000","淡水區"
"251016","179-VK","2019/09/24 18:49:31","新北市淡水區下圭柔山71-3號","121.44699","25.2062366666667","6501000","淡水區"
"251008","181-VK","2019/09/24 18:49:31","新北市淡水區北投子19-8號","121.45392","25.1839083333333","6501000","淡水區"
"251013","182-VK","2019/09/24 18:49:40","新北市淡水區安子內5號","121.484161666667","25.2151266666667","6501000","淡水區"
"251010","413-VK","2019/09/24 18:49:41","新北市淡水區沙崙路9號","121.421088333333","25.18123","6501000","淡水區"
"251012","441-VK","2019/09/24 18:49:36","新北市淡水區北新路2號","121.444253333333","25.1777183333333","6501000","淡水區"
"251014","577-R6","2019/09/24 18:49:26","新北市淡水區崙頂3號","121.490571666667","25.223975","6501000","淡水區"
"251011","650-BX","2019/09/24 18:49:28","新北市淡水區學府路32巷29號","121.448451666667","25.1682866666667","6501000","淡水區"
"251002","672-BX","2019/09/24 18:49:44","新北市淡水區學府路77號","121.448525","25.1699983333333","6501000","淡水區"
"251003","673-BX","2019/09/24 18:49:37","新北市淡水區北新路109號","121.446328333333","25.17889","6501000","淡水區"
"207003","550-UM","2019/09/24 18:49:36","新北市萬里區野柳里港西路70號","121.685321666667","25.2045383333333","6502800","萬里區"
"207004","291-VK","2019/09/24 18:49:29","新北市萬里區萬里里獅頭路23號","121.693268333333","25.17824","6502800","萬里區"
"252002","178-VK","2019/09/24 18:49:25","新北市三芝區中正路一段112號","121.504833333333","25.2563733333333","6502100","三芝區"
"252003","249-BX","2019/09/24 18:49:42","新北市三芝區後厝里大片頭76號","121.459283333333","25.2456516666667","6502100","三芝區"
"208001","170-UY","2019/09/24 18:49:32","新北市金山區文化三路66巷1號","121.634215","25.2256133333333","6502700","金山區"
"237004","KEA-2597","2019/09/24 18:49:37","新北市三峽區有木31號","121.430045","24.8631933333333","6500900","三峽區"
"237007","153-BY","2019/09/24 18:49:37","新北市三峽區中正路二段395巷28號","121.365925","24.9078616666667","6500900","三峽區"
"237013","252-BX","2019/09/24 18:49:42","新北市三峽區光明路69巷25號","121.376585","24.9291733333333","6500900","三峽區"
"237012","275-BY","2019/09/24 18:49:30","新北市三峽區三樹路340號","121.383961666667","24.9433183333333","6500900","三峽區"
"237008","302-VK","2019/09/24 18:49:43","新北市三峽區正義街123號","121.368541666667","24.9168733333333","6500900","三峽區"
"237014","433-BY","2019/09/24 18:49:42","新北市三峽區隆恩街551號","121.357456666667","24.9401516666667","6500900","三峽區"
"237006","5529-G3","2019/09/24 18:49:27","新北市三峽區溪東路211巷20號","121.406615","24.9339933333333","6500900","三峽區"
"237011","KEA-2596","2019/09/24 18:49:36","新北市三峽區溪東路148號","121.405031666667","24.9332183333333","6500900","三峽區"
"237015","649-BX","2019/09/24 18:49:31","新北市三峽區建安77-1號","121.450931666667","24.9244016666667","6500900","三峽區"
"237010","706-TV","2019/09/24 18:49:25","新北市三峽區復興路485號","121.36132","24.9385066666667","6500900","三峽區"
"237005","AKY-6261","2019/09/24 18:49:40","新北市三峽區中山路459巷135號","121.349081666667","24.93339","6500900","三峽區"
"236042","KED-0685","2019/09/24 18:49:40","新北市土城區學府路一段256巷21號","121.450641666667","24.9850233333333","6501300","土城區"
"236030","253-BX","2019/09/24 18:49:30","新北市土城區中央路三段61巷1號","121.439128333333","24.969385","6501300","土城區"
"236026","269-VK","2019/09/24 18:49:36","新北市土城區農豐街9號","121.442661666667","24.9739633333333","6501300","土城區"
"236014","270-VK","2019/09/24 18:49:38","新北市土城區清水路235巷26號","121.460655","24.9839883333333","6501300","土城區"
"236038","271-VK","2019/09/24 18:49:38","新北市土城區明德路一段221巷5號","121.463696666667","24.9780816666667","6501300","土城區"
"236070","KEA-2877","2019/09/24 18:49:34","新北市土城區延和路21巷5號","121.46411","24.9886216666667","6501300","土城區"
"252001","KED-0821","2019/09/24 18:49:40","新北市三芝區中正路三段9號","121.502908333333","25.2539783333333","6502100","三芝區"
"236021","401-BY","2019/09/24 18:49:27","新北市土城區延吉街208號","121.467601666667","24.9851666666667","6501300","土城區"
"236079","752-BX","2019/09/24 18:49:29","新北市土城區中央路四段67巷60-13號","121.416935","24.9559933333333","6501300","土城區"
"236059","912-UM","2019/09/24 18:49:39","新北市土城區金城路二段28-6號","121.45065","24.9783383333333","6501300","土城區"
"236049","913-UM","2019/09/24 18:49:44","新北市土城區廣福街68巷18弄1號","121.45952","24.9905116666667","6501300","土城區"
"236063","915-UM","2019/09/24 18:49:27","新北市土城區延和路177巷11弄4號","121.46978","24.990795","6501300","土城區"
"236055","AAC-216","2019/09/24 18:49:32","新北市土城區裕民路174號","121.45263","24.985335","6501300","土城區"
"242061","986-R7","2019/09/24 18:49:32","新北市新莊區民安東路160號","121.43211","25.0206083333333","6500500","新莊區"
"242029","615-BX","2019/09/24 18:49:26","新北市新莊區新泰路357巷3弄57號","121.442101666667","25.03929","6500500","新莊區"
"242009","349-TH","2019/09/24 18:49:42","新北市樹林區八德街437-1號","121.405578333333","24.9693883333333","6500500","新莊區"
"238023","601-UM","2019/09/24 18:49:45","新北市樹林區工興街14巷1號","121.398933333333","25.0136233333333","6500700","樹林區"
"238024","5061-A6","2019/09/24 18:49:36","新北市樹林區太平路247巷1號","121.419223333333","24.9750933333333","6500700","樹林區"
"238022","KEA-2213","2019/09/24 18:49:34","新北市樹林區中華路190-1號","121.411376666667","24.9804933333333","6500700","樹林區"
"238021","KEA-2539","2019/09/24 18:49:38","新北市樹林區西圳街二段29號","121.388351666667","24.9615983333333","6500700","樹林區"
"238017","283-BY","2019/09/24 18:49:25","新北市樹林區光興街50號","121.40986","25.0027216666667","6500700","樹林區"
"238014","282-BY","2019/09/24 18:49:26","新北市樹林區大安路111巷11號","121.423066666667","24.9975933333333","6500700","樹林區"
"238020","268-VK","2019/09/24 18:49:44","新北市樹林區俊英街280號","121.42375","25.01329","6500700","樹林區"
"238026","172-UY","2019/09/24 18:49:34","新北市樹林區八德街1172號","121.39016","24.96827","6500700","樹林區"
"238016","169-UY","2019/09/24 18:49:43","新北市樹林區中山路一段412號","121.417425","24.98518","6500700","樹林區"
"239007","AAC-297","2019/09/24 18:49:41","新北市鶯歌區中正一路建德巷8號","121.364766666667","24.9569433333333","6500800","鶯歌區"
"239006","891-R6","2019/09/24 18:49:27","新北市鶯歌區鶯桃路296巷48-1號","121.33583","24.9612266666667","6500800","鶯歌區"
"239008","527-UM","2019/09/24 18:49:27","新北市鶯歌區朝陽街2號","121.336238333333","24.9765933333333","6500800","鶯歌區"
"239005","526-UM","2019/09/24 18:49:28","新北市鶯歌區大湖路361巷62號","121.331056666667","24.9773416666667","6500800","鶯歌區"
"239001","417-VK","2019/09/24 18:49:28","新北市鶯歌區中正三路193巷31號","121.336365","24.9385366666667","6500800","鶯歌區"
"239003","360-BY","2019/09/24 18:49:30","新北市鶯歌區永和街128號","121.334976666667","24.9695483333333","6500800","鶯歌區"
"239002","359-BY","2019/09/24 18:49:39","新北市鶯歌區中山路311號","121.344375","24.956915","6500800","鶯歌區"
"239004","193-VK","2019/09/24 18:49:35","新北市鶯歌區國中街134號","121.339335","24.9399033333333","6500800","鶯歌區"
"221036","130-UY","2019/09/24 18:49:28","新北市汐止區大同路三段45號","121.666883333333","25.0766733333333","6501100","汐止區"
"221015","131-UY","2019/09/24 18:49:31","新北市汐止區鄉長路二段8號","121.668831666667","25.08075","6501100","汐止區"
"244019","KED-0667","2019/09/24 18:49:34","新北市林口區麗園二街1巷6-2號","121.378048333333","25.0701116666667","6501700","林口區"
"221029","298-VK","2019/09/24 18:49:40","新北市汐止區工建路64號","121.640563333333","25.063065","6501100","汐止區"
"221021","299-VK","2019/09/24 18:49:36","新北市汐止區新興路44號","121.657073333333","25.06316","6501100","汐止區"
"221031","353-TW","2019/09/24 18:49:39","新北市汐止區福德一路272巷9號","121.631803333333","25.064255","6501100","汐止區"
"221032","567-BX","2019/09/24 18:49:24","新北市汐止區民權街二段79號","121.619188333333","25.0480166666667","6501100","汐止區"
"221035","622-UM","2019/09/24 18:49:35","新北市汐止區大同路二段33號","121.647541666667","25.0630466666667","6501100","汐止區"
"221025","623-UM","2019/09/24 18:49:42","新北市汐止區仁愛路113巷17號","121.66193","25.0640283333333","6501100","汐止區"
"221002","707-TV","2019/09/24 18:49:27","新北市汐止區大同路一段144號","121.631506666667","25.0556016666667","6501100","汐止區"
"221018","753-BX","2019/09/24 18:49:31","新北市汐止區茄福街17號","121.67286","25.0673916666667","6501100","汐止區"
"220079","145-BY","2019/09/24 18:49:37","新北市板橋區南雅西路二段192巷1弄23號","121.452373333333","25.0150883333333","6500100","板橋區"
"220080","200-UY","2019/09/24 18:49:39","新北市板橋區大觀路二段375巷13號","121.441065","24.9977966666667","6500100","板橋區"
"220082","610-BX","2019/09/24 18:49:27","新北市板橋區篤行路三段玉平巷45號","121.428601666667","24.98679","6500100","板橋區"
"220056","276-BY","2019/09/24 18:49:31","新北市板橋區四川路一段475號","121.457201666667","24.9974266666667","6500100","板橋區"
"220072","277-BY","2019/09/24 18:49:45","新北市板橋區金門街31巷42號","121.434111666667","24.9934933333333","6500100","板橋區"
"220101","280-UM","2019/09/24 18:49:43","新北市板橋區莊敬路123號","121.471886666667","25.0254266666667","6500100","板橋區"
"220071","283-VK","2019/09/24 18:49:45","新北市板橋區四川路一段64號","121.459651666667","25.0055666666667","6500100","板橋區"
"220094","285-UM","2019/09/24 18:49:31","新北市板橋區文化路二段76號","121.469451666667","25.0250116666667","6500100","板橋區"
"220083","286-VK","2019/09/24 18:49:37","新北市板橋區僑中二街82號","121.446538333333","25.0095966666667","6500100","板橋區"
"220081","287-VK","2019/09/24 18:49:33","新北市板橋區大觀路二段101巷19號","121.446936666667","25.001395","6500100","板橋區"
"220090","288-VK","2019/09/24 18:49:40","新北市板橋區四維路221號","121.463151666667","25.0270833333333","6500100","板橋區"
"220061","293-UM","2019/09/24 18:49:38","新北市板橋區永豐街111號","121.474146666667","25.0195533333333","6500100","板橋區"
"220053","299-UM","2019/09/24 18:49:43","新北市板橋區成功路46號","121.475075","25.0176733333333","6500100","板橋區"
"220075","303-R5","2019/09/24 18:49:41","新北市板橋區大觀路一段28巷96號","121.450413333333","25.0110416666667","6500100","板橋區"
"220062","305-R5","2019/09/24 18:49:26","新北市板橋區中山路二段23號","121.4724","25.0153183333333","6500100","板橋區"
"220092","307-R5","2019/09/24 18:49:31","新北市板橋區文化路一段136巷8弄8號","121.465528333333","25.0181266666667","6500100","板橋區"
"220098","317-R6","2019/09/24 18:49:37","新北市板橋區民生路二段234巷25號","121.46905","25.0228016666667","6500100","板橋區"
"220089","487-VK","2019/09/24 18:49:32","新北市板橋區仁化街83號","121.476003333333","25.031915","6500100","板橋區"
"220088","491-VK","2019/09/24 18:49:40","新北市板橋區莒光路49號","121.470701666667","25.0244183333333","6500100","板橋區"
"220035","560-BX","2019/09/24 18:49:42","新北市板橋區中正路275巷73號","121.452583333333","25.0180016666667","6500100","板橋區"
"220103","561-BX","2019/09/24 18:49:36","新北市板橋區文化路一段188巷9弄86-3號","121.468993333333","25.018735","6500100","板橋區"
"220063","609-BX","2019/09/24 18:49:31","新北市板橋區中山路二段50-6號","121.473566666667","25.0152816666667","6500100","板橋區"
"220091","637-BX","2019/09/24 18:49:29","新北市板橋區雙十路二段47巷52號","121.474951666667","25.0254083333333","6500100","板橋區"
"220057","686-BX","2019/09/24 18:49:31","新北市板橋區重慶路112號","121.462091666667","25.005065","6500100","板橋區"
"220077","687-BX","2019/09/24 18:49:35","新北市板橋區大觀路二段174巷175號","121.44201","25.003635","6500100","板橋區"
"220093","689-BX","2019/09/24 18:49:28","新北市板橋區民生路三段110號","121.466491666667","25.0263283333333","6500100","板橋區"
"220054","741-BX","2019/09/24 18:49:39","新北市板橋區館前東路19號","121.460171666667","25.007295","6500100","板橋區"
"220102","KEA-2699","2019/09/24 18:49:30","新北市板橋區萬板路476號","121.479955","25.0259616666667","6500100","板橋區"
"220055","827-TW","2019/09/24 18:49:32","新北市板橋區重慶路183號","121.46278","25.0022833333333","6500100","板橋區"
"220067","831-TW","2019/09/24 18:49:36","新北市板橋區中山路二段90巷47弄16號","121.47732","25.0149516666667","6500100","板橋區"
"220074","895-R6","2019/09/24 18:49:29","新北市板橋區南門街1號","121.45773","25.0094616666667","6500100","板橋區"
"220073","985-R7","2019/09/24 18:49:47","新北市板橋區館前西路154-2號","121.45516","25.008415","6500100","板橋區"
"220064","AAC-253","2019/09/24 18:49:42","新北市板橋區漢生東路119號","121.467428333333","25.0145733333333","6500100","板橋區"
"235068","KEA-2873","2019/09/24 18:49:38","新北市中和區中正路211巷36弄2號","121.497315","24.9928033333333","6500300","中和區"
"235061","KEA-2875","2019/09/24 18:49:38","新北市中和區民治街130巷7號","121.474861666667","25.0025683333333","6500300","中和區"
"235062","KEA-2876","2019/09/24 18:49:27","新北市中和區中山路二段388號","121.490436666667","25.00368","6500300","中和區"
