"lineid","car","time","location","longitude","latitude","cityid","cityname"
"234046","148-BY","2019/09/24 19:29:34","新北市永和區秀朗路二段231號","121.526511666667","25.000205","6500400","永和區"
"234081","298-R6","2019/09/24 19:29:35","新北市永和區環河東路三段52巷7號","121.526398333333","25.0058183333333","6500400","永和區"
"234038","336-UY","2019/09/24 19:29:41","新北市永和區民樂街42號","121.527383333333","25.000575","6500400","永和區"
"234064","337-UY","2019/09/24 19:29:33","新北市永和區中正路368巷1弄88號","121.520528333333","25.0007","6500400","永和區"
"234086","338-UY","2019/09/24 19:29:42","新北市永和區林森路31-1號","121.525966666667","25.00502","6500400","永和區"
"234070","552-UM","2019/09/24 19:29:36","新北市永和區警光街12號","121.519728333333","25.0095616666667","6500400","永和區"
"234017","745-BX","2019/09/24 19:29:39","新北市永和區環河西路一段87-1號","121.51252","25.01796","6500400","永和區"
"234030","746-BX","2019/09/24 19:29:43","新北市永和區民生路37巷1號","121.522991666667","24.99811","6500400","永和區"
"234054","KEA-2590","2019/09/24 19:29:26","新北市永和區復興街27號","121.516248333333","25.0131466666667","6500400","永和區"
"234007","KED-0605","2019/09/24 19:29:43","新北市永和區永和路一段88號","121.513053333333","25.0067716666667","6500400","永和區"
"234013","KEA-2591","2019/09/24 19:29:45","新北市永和區中山路一段131號","121.510561666667","25.00997","6500400","永和區"
"234061","AAD-866","2019/09/24 19:29:40","新北市永和區永貞路189號","121.514881666667","25.0038033333333","6500400","永和區"
"234042","862-TW","2019/09/24 19:29:32","新北市永和區水源街39巷9號","121.510521666667","25.0038733333333","6500400","永和區"
"234050","863-TW","2019/09/24 19:29:38","新北市永和區仁愛路88號","121.51248","25.0133383333333","6500400","永和區"
"234026","9371-KE","2019/09/24 19:29:29","新北市中和區安樂路207號","121.514471666667","24.9985533333333","6500400","永和區"
"249003","593-UM","2019/09/24 19:29:30","新北市八里區商港一路22號","121.397046666667","25.148035","6502300","八里區"
"248014","025-BX","2019/09/24 19:29:42","新北市五股區民義路一段172巷11號","121.433535","25.0882016666667","6501500","五股區"
"248008","KED-0815","2019/09/24 19:29:38","新北市五股區中興路二段83巷26-6號","121.460013333333","25.07529","6501500","五股區"
"248020","KED-0813","2019/09/24 19:29:30","新北市五股區凌雲路三段41-1號","121.430493333333","25.1176516666667","6501500","五股區"
"248012","247-BX","2019/09/24 19:29:44","新北市五股區成泰路二段91巷9號","121.43756","25.0841283333333","6501500","五股區"
"248004","677-BX","2019/09/24 19:29:36","新北市五股區工商路151號","121.43501","25.08657","6501500","五股區"
"248002","678-BX","2019/09/24 19:29:43","新北市五股區凌雲路一段158巷6號","121.447785","25.1029816666667","6501500","五股區"
"234023","9380-KE","2019/09/24 19:29:37","新北市永和區竹林路91巷45號","121.52139","25.012935","6500400","永和區"
"234077","969-R7","2019/09/24 19:29:44","新北市永和區民族街43巷8號","121.518968333333","24.9984","6500400","永和區"
"234074","AAC-211","2019/09/24 19:29:36","新北市永和區環河東路一段128號","121.520778333333","25.0153166666667","6500400","永和區"
"234067","AAC-212","2019/09/24 19:29:43","新北市永和區永貞路360巷6號","121.510598333333","25.0067766666667","6500400","永和區"
"234003","AAC-295","2019/09/24 19:29:24","新北市永和區福和路385號","121.514211666667","25.0075866666667","6500400","永和區"
"244023","483-VK","2019/09/24 19:29:33","新北市林口區文化三路一段617巷138號","121.371128333333","25.0782916666667","6501700","林口區"
"243012","AAD-798","2019/09/24 19:29:27","新北市泰山區仁義路222號","121.432861666667","25.053555","6501600","泰山區"
"243010","297-R6","2019/09/24 19:29:39","新北市泰山區民生路17巷3號","121.43","25.05235","6501600","泰山區"
"243014","KEA-2801","2019/09/24 19:29:42","新北市泰山區中港西路490號","121.432671666667","25.052395","6501600","泰山區"
"243016","421-VK","2019/09/24 19:29:40","新北市泰山區明志路三段317號","121.422448333333","25.0359083333333","6501600","泰山區"
"243009","KEA-2215","2019/09/24 19:29:31","新北市泰山區半山雅2號","121.431775","25.0674033333333","6501600","泰山區"
"243011","KEA-2216","2019/09/24 19:29:28","新北市泰山區貴子路120號","121.428438333333","25.0406083333333","6501600","泰山區"
"243013","646-TV","2019/09/24 19:29:28","新北市泰山區貴子路36巷22號","121.425746666667","25.0408666666667","6501600","泰山區"
"243015","680-BX","2019/09/24 19:29:37","新北市泰山區明志路二段136巷1-1號","121.427273333333","25.0511833333333","6501600","泰山區"
"222003","436-BY","2019/09/24 19:29:39","新北市深坑區深南路51-1號","121.621303333333","25.0097283333333","6501800","深坑區"
"222002","659-BX","2019/09/24 19:29:24","新北市深坑區北深路一段177號","121.632493333333","25.0108816666667","6501800","深坑區"
"231061","002-UM","2019/09/24 19:29:42","新北市新店區安康路二段1-5號","121.517278333333","24.9639716666667","6500600","新店區"
"231044","046-UY","2019/09/24 19:29:36","新北市新店區中興路三段141號","121.544516666667","24.9798233333333","6500600","新店區"
"231060","106-UY","2019/09/24 19:29:32","新北市新店區安康路二段22號","121.515983333333","24.9637416666667","6500600","新店區"
"231051","107-UY","2019/09/24 19:29:38","新北市新店區中央五街66號","121.527256666667","24.97568","6500600","新店區"
"231049","108-UY","2019/09/24 19:29:43","新北市新店區北新路3段65巷34弄29-1號","121.540023333333","24.9819616666667","6500600","新店區"
"231065","110-UY","2019/09/24 19:29:39","新北市新店區安祥路109巷1弄1號","121.47554","24.9594366666667","6500600","新店區"
"231062","256-BX","2019/09/24 19:29:33","新北市新店區莒光路20號","121.523956666667","24.9594516666667","6500600","新店區"
"231054","260-TV","2019/09/24 19:29:30","新北市新店區文中路45號","121.539646666667","24.9566533333333","6500600","新店區"
"231042","268-BY","2019/09/24 19:29:29","新北市新店區中興路一段24-2號","121.538525","24.95831","6500600","新店區"
"231064","278-BY","2019/09/24 19:29:40","新北市新店區安康路二段85巷18號","121.513763333333","24.9621716666667","6500600","新店區"
"231050","AAD-862","2019/09/24 19:29:43","新北市新店區竹林路82號","121.554408333333","24.950525","6500600","新店區"
"231045","355-BY","2019/09/24 19:29:27","新北市新店區北宜路二段209號","121.553145","24.9532933333333","6500600","新店區"
"231058","3713-VJ","2019/09/24 19:29:44","新北市新店區北新路二段228巷11號","121.54338","24.9772416666667","6500600","新店區"
"231056","4715-K9","2019/09/24 19:29:37","新北市新店區柴埕路59號","121.51357","24.96495","6500600","新店區"
"231067","4772-VM","2019/09/24 19:29:42","新北市新店區薏仁坑路自強巷6號","121.496791666667","24.958415","6500600","新店區"
"231053","512-UM","2019/09/24 19:29:38","新北市新店區廣興路7-2號","121.546141666667","24.912095","6500600","新店區"
"231040","617-UM","2019/09/24 19:29:41","新北市新店區三民路35巷2號","121.537451666667","24.970725","6500600","新店區"
"231041","619-UM","2019/09/24 19:29:37","新北市新店區中正路616號","121.533986666667","24.988635","6500600","新店區"
"231063","641-BX","2019/09/24 19:29:36","新北市新店區達觀路14巷3號","121.503243333333","24.94179","6500600","新店區"
"231048","KED-0819","2019/09/24 19:29:35","新北市新店區中興路一段282-5號","121.546271666667","24.9681283333333","6500600","新店區"
"231046","719-UM","2019/09/24 19:29:30","新北市新店區北新路一段14號","121.540796666667","24.9656016666667","6500600","新店區"
"231057","720-UM","2019/09/24 19:29:41","新北市新店區花園一路二段19號","121.55084","24.9330533333333","6500600","新店區"
"231059","897-TW","2019/09/24 19:29:33","新北市新店區安和路三段4號","121.51796","24.9808866666667","6500600","新店區"
"231043","899-TW","2019/09/24 19:29:46","新北市新店區北新路二段187號","121.542838333333","24.977715","6500600","新店區"
"231066","AKT-0513","2019/09/24 19:29:34","新北市新店區安康路三段355巷2號","121.48444","24.9503816666667","6500600","新店區"
"241028","022-UY","2019/09/24 19:29:36","新北市三重區中寮街30號","121.492521666667","25.0590283333333","6500200","三重區"
"241008","059-VK","2019/09/24 19:29:33","新北市三重區永福街111巷37弄11號","121.477455","25.0765083333333","6500200","三重區"
"241017","063-VK","2019/09/24 19:29:30","新北市三重區國隆路16號","121.49295","25.0640166666667","6500200","三重區"
"241007","066-VK","2019/09/24 19:29:45","新北市三重區溪尾街124-2號","121.489265","25.0793266666667","6500200","三重區"
"241031","742-BX","2019/09/24 19:29:30","新北市三重區重新路四段184巷40號","121.488206666667","25.0551583333333","6500200","三重區"
"241006","262-UM","2019/09/24 19:29:26","新北市三重區後竹圍街205巷61號","121.484638333333","25.073165","6500200","三重區"
"241009","267-UM","2019/09/24 19:29:41","新北市三重區溪尾街242巷59號","121.48629","25.081505","6500200","三重區"
"241032","269-UM","2019/09/24 19:29:35","新北市三重區三陽路64號","121.483866666667","25.0587283333333","6500200","三重區"
"241025","271-UM","2019/09/24 19:29:45","新北市三重區頂崁街210巷28弄9號","121.475788333333","25.0671566666667","6500200","三重區"
"241035","KEA-2210","2019/09/24 19:29:34","新北市三重區信義西街1巷3號","121.498108333333","25.0649183333333","6500200","三重區"
"241030","KED-0822","2019/09/24 19:29:41","新北市三重區成功路41巷6號","121.490165","25.0515083333333","6500200","三重區"
"241013","462-BY","2019/09/24 19:29:32","新北市三重區仁愛街141巷13號","121.496075","25.0752816666667","6500200","三重區"
"241020","478-VK","2019/09/24 19:29:30","新北市三重區三和路四段20巷18號","121.490406666667","25.0736266666667","6500200","三重區"
"241026","480-VK","2019/09/24 19:29:31","新北市三重區文化南路38-1號","121.500296666667","25.0610366666667","6500200","三重區"
"241023","545-UM","2019/09/24 19:29:38","新北市三重區頂崁街99號","121.477988333333","25.0638966666667","6500200","三重區"
"241001","547-UM","2019/09/24 19:29:40","新北市三重區慈愛街149號","121.489443333333","25.0794116666667","6500200","三重區"
"241022","KED-0820","2019/09/24 19:29:33","新北市三重區三民街165巷6號","121.483978333333","25.0652816666667","6500200","三重區"
"241029","942-UM","2019/09/24 19:29:38","新北市三重區泉州街84巷18號","121.495816666667","25.0543116666667","6500200","三重區"
"235066","003-UY","2019/09/24 19:29:36","新北市中和區景新街48號","121.503793333333","24.9992916666667","6500300","中和區"
"235056","096-UM","2019/09/24 19:29:39","新北市中和區員山路581巷31弄5號","121.47714","25.0103333333333","6500300","中和區"
"235039","097-UM","2019/09/24 19:29:44","新北市中和區景平路137號","121.51457","24.99218","6500300","中和區"
"235065","098-UM","2019/09/24 19:29:32","新北市中和區中山路二段178巷1號","121.500718333333","25.0029533333333","6500300","中和區"
"235040","150-BY","2019/09/24 19:29:46","新北市中和區景安路79巷50號","121.507811666667","24.9957033333333","6500300","中和區"
"235058","151-BY","2019/09/24 19:29:46","新北市中和區連城路374巷3號","121.48134","24.9954383333333","6500300","中和區"
"235055","183-VK","2019/09/24 19:29:33","新北市中和區中山路三段209號","121.4719","25.0063633333333","6500300","中和區"
"235038","185-VK","2019/09/24 19:29:39","新北市中和區自立路127號","121.521978333333","24.9940883333333","6500300","中和區"
"235067","255-BX","2019/09/24 19:29:29","新北市中和區連城路340巷14弄18號","121.48294","24.9971716666667","6500300","中和區"
"235044","293-VK","2019/09/24 19:29:34","新北市中和區捷運路125號","121.507385","24.990615","6500300","中和區"
"235072","301-VK","2019/09/24 19:29:25","新北市中和區連城路265巷10弄1號","121.491673333333","24.99529","6500300","中和區"
"235043","352-BY","2019/09/24 19:29:45","新北市中和區安樂路17號","121.5117","24.9921983333333","6500300","中和區"
"235042","KEA-2878","2019/09/24 19:29:29","新北市中和區中和路350巷15弄2號","121.5106","25.0008633333333","6500300","中和區"
"235049","551-UM","2019/09/24 19:29:42","新北市中和區景新街285巷12號","121.510331666667","24.9935383333333","6500300","中和區"
"235070","558-UM","2019/09/24 19:29:31","新北市中和區景平路668號","121.497218333333","25.0008883333333","6500300","中和區"
"235045","565-BX","2019/09/24 19:29:34","新北市中和區景新街423巷49號","121.514818333333","24.9899333333333","6500300","中和區"
"235060","KED-0823","2019/09/24 19:29:30","新北市中和區新生街16巷19號","121.482368333333","25.0042916666667","6500300","中和區"
"235054","640-BX","2019/09/24 19:29:32","新北市中和區德光路40號","121.470186666667","25.004275","6500300","中和區"
"235047","732-UM","2019/09/24 19:29:34","新北市中和區景平路259巷32號","121.507046666667","24.9928316666667","6500300","中和區"
"235046","733-UM","2019/09/24 19:29:26","新北市中和區忠孝街37巷67號","121.510596666667","24.9845716666667","6500300","中和區"
"235071","783-BX","2019/09/24 19:29:34","新北市中和區連城路308號","121.483658333333","24.9963633333333","6500300","中和區"
"235057","801-TS","2019/09/24 19:29:36","新北市中和區員山路194號","121.481326666667","25.0004583333333","6500300","中和區"
"235041","802-TS","2019/09/24 19:29:29","新北市中和區中和路400巷21號","121.511673333333","25.0022733333333","6500300","中和區"
"235052","805-TS","2019/09/24 19:29:46","新北市中和區華新街143巷62號","121.50622","24.97939","6500300","中和區"
"235048","896-TW","2019/09/24 19:29:38","新北市中和區忠孝街106巷4號","121.512121666667","24.98445","6500300","中和區"
"235053","900-TW","2019/09/24 19:29:44","新北市中和區華順街30巷1號","121.466936666667","24.9990116666667","6500300","中和區"
"235064","911-UM","2019/09/24 19:29:32","新北市中和區南山路40號","121.501986666667","24.9976466666667","6500300","中和區"
"235051","157-BY","2019/09/24 19:29:44","新北市中和區南華路9號","121.502186666667","24.9955633333333","6500300","中和區"
"235037","AAC-213","2019/09/24 19:29:32","新北市中和區秀朗路三段48號","121.52629","24.9955283333333","6500300","中和區"
"235059","AAC-215","2019/09/24 19:29:44","新北市中和區圓通路252巷6-2號","121.492803333333","24.9919116666667","6500300","中和區"
"220065","072-UY","2019/09/24 19:29:41","新北市板橋區國泰街75巷28弄56號","121.467676666667","25.00469","6500100","板橋區"
"220086","073-UY","2019/09/24 19:29:36","新北市板橋區中正路216巷23號","121.456695","25.01869","6500100","板橋區"
"220106","075-UY","2019/09/24 19:29:48","新北市板橋區文化路二段550號","121.476233333333","25.0340966666667","6500100","板橋區"
"220069","AAD-861","2019/09/24 19:29:39","新北市板橋區貴興路106巷8號","121.455221666667","25.003035","6500100","板橋區"
"220068","120-SR","2019/09/24 19:29:42","新北市板橋區萬安街98號","121.483806666667","25.0241133333333","6500100","板橋區"
"247004","500-BY","2019/09/24 19:29:40","新北市蘆洲區長安街140號","121.460195","25.0821916666667","6501400","蘆洲區"
"226004","312-R5","2019/09/24 19:29:32","新北市平溪區十分里十分街238號","121.778105","25.0441216666667","6502400","平溪區"
"235063","251-BX","2019/09/24 19:29:39","新北市中和區連城路219巷15號","121.494873333333","24.9963366666667","6500300","中和區"
"228003","097-TW","2019/09/24 19:29:38","新北市貢寮區和美里和美街22-1號","121.912751666667","25.08269","6502600","貢寮區"
"228001","212-TW","2019/09/24 19:29:40","新北市貢寮區真理里大澳街25號","121.925051666667","25.056215","6502600","貢寮區"
"224009","275-VK","2019/09/24 19:29:47","新北市瑞芳區中山路63號","121.804211666667","25.1061833333333","6501200","瑞芳區"
"227001","642-TC","2019/09/24 19:29:38","新北市雙溪區新基里新基北街43號","121.868183333333","25.039715","6502500","雙溪區"
"227002","400-TW","2019/09/24 19:29:37","新北市雙溪區雙溪里光復街3號","121.865148333333","25.0355316666667","6502500","雙溪區"
"222001","KEA-2212","2019/09/24 19:29:35","新北市深坑區深坑街10號","121.615791666667","25.00272","6501800","深坑區"
"208002","KEA-2872","2019/09/24 19:29:38","新北市金山區中山路313巷23號","121.63511","25.2230116666667","6502700","金山區"
"208003","665-BX","2019/09/24 19:29:42","新北市金山區仁愛路61號","121.635081666667","25.2208883333333","6502700","金山區"
"251009","008-UM","2019/09/24 19:29:33","新北市淡水區中山路185號","121.441301666667","25.1742133333333","6501000","淡水區"
"251001","011-UM","2019/09/24 19:29:28","新北市淡水區民權路141號","121.460043333333","25.1364416666667","6501000","淡水區"
"251015","KEA-2871","2019/09/24 19:29:32","新北市淡水區山子頂24-1號","121.491388333333","25.187195","6501000","淡水區"
"251016","179-VK","2019/09/24 19:29:31","新北市淡水區淡金路三段350巷18號","121.450793333333","25.20836","6501000","淡水區"
"251008","181-VK","2019/09/24 19:29:31","新北市淡水區中正路一段64號","121.425361666667","25.17694","6501000","淡水區"
"251013","182-VK","2019/09/24 19:29:40","新北市淡水區安子內18號","121.471623333333","25.218775","6501000","淡水區"
"251010","413-VK","2019/09/24 19:29:41","新北市淡水區中正路二段152巷28號","121.42464","25.1880583333333","6501000","淡水區"
"251007","442-VK","2019/09/24 19:29:31","新北市淡水區八勢一街26號","121.460835","25.15591","6501000","淡水區"
"251005","443-VK","2019/09/24 19:29:43","新北市淡水區水源街一段47巷39號","121.444055","25.17348","6501000","淡水區"
"251006","561-UM","2019/09/24 19:29:31","新北市淡水區大義街51號","121.441436666667","25.1782433333333","6501000","淡水區"
"251014","577-R6","2019/09/24 19:29:46","新北市淡水區小中寮15-3號","121.485285","25.2302866666667","6501000","淡水區"
"251002","672-BX","2019/09/24 19:29:44","新北市淡水區沙崙路216巷72號","121.426298333333","25.18517","6501000","淡水區"
"251003","673-BX","2019/09/24 19:29:37","新北市淡水區中山北路三段136號","121.444545","25.1947233333333","6501000","淡水區"
"207003","550-UM","2019/09/24 19:29:36","新北市萬里區大鵬里萬里加投103-1號","121.646031666667","25.2129716666667","6502800","萬里區"
"207004","291-VK","2019/09/24 19:29:44","新北市萬里區萬里里瑪鋉路93號","121.688773333333","25.17737","6502800","萬里區"
"252002","178-VK","2019/09/24 19:29:45","新北市三芝區淡金路二段18-1號","121.502658333333","25.259485","6502100","三芝區"
"208001","170-UY","2019/09/24 19:29:32","新北市金山區南勢104號","121.625688333333","25.2202033333333","6502700","金山區"
"237004","KEA-2597","2019/09/24 19:29:37","新北市三峽區有木205-1號","121.439048333333","24.8516083333333","6500900","三峽區"
"237007","153-BY","2019/09/24 19:29:37","新北市三峽區二鬮路136巷20弄85號","121.35826","24.908915","6500900","三峽區"
"237009","210-TH","2019/09/24 19:29:42","新北市三峽區民權街49號","121.369731666667","24.93352","6500900","三峽區"
"237013","252-BX","2019/09/24 19:29:44","新北市三峽區介壽路一段309號","121.381233333333","24.930595","6500900","三峽區"
"237012","275-BY","2019/09/24 19:29:30","新北市三峽區三樹路98巷169-1號","121.383985","24.9396916666667","6500900","三峽區"
"237008","302-VK","2019/09/24 19:29:42","新北市三峽區永安街152號","121.373906666667","24.9285416666667","6500900","三峽區"
"237014","433-BY","2019/09/24 19:29:42","新北市三峽區中山路67巷32號","121.366933333333","24.9342616666667","6500900","三峽區"
"237006","5529-G3","2019/09/24 19:29:26","新北市三峽區中正路一段336巷15弄2號","121.369965","24.9249666666667","6500900","三峽區"
"237011","KEA-2596","2019/09/24 19:29:35","新北市三峽區介壽路一段233號","121.37919","24.9303983333333","6500900","三峽區"
"237015","649-BX","2019/09/24 19:29:31","新北市三峽區安坑1-12號","121.436648333333","24.9252","6500900","三峽區"
"237010","706-TV","2019/09/24 19:29:45","新北市三峽區復興路175號","121.369885","24.9385933333333","6500900","三峽區"
"237005","AKY-6261","2019/09/24 19:29:40","新北市三峽區復興路367巷5號","121.363628333333","24.937865","6500900","三峽區"
"236042","KED-0685","2019/09/24 19:29:40","新北市土城區學府路一段239號","121.450495","24.9833883333333","6501300","土城區"
"236026","269-VK","2019/09/24 19:29:36","新北市土城區中央路二段98號","121.442196666667","24.9783","6501300","土城區"
"236014","270-VK","2019/09/24 19:29:30","新北市土城區廣福街123號","121.456225","24.99288","6501300","土城區"
"236070","KEA-2877","2019/09/24 19:29:34","新北市土城區裕民路185巷36弄10號","121.454316666667","24.9845233333333","6501300","土城區"
"252001","KED-0821","2019/09/24 19:29:40","新北市三芝區長勤街63-1號","121.5001","25.25606","6502100","三芝區"
"236021","401-BY","2019/09/24 19:29:47","新北市土城區峰廷街3號","121.469041666667","24.987305","6501300","土城區"
"236079","752-BX","2019/09/24 19:29:38","新北市土城區中州路12巷5號","121.4149","24.957425","6501300","土城區"
"236049","913-UM","2019/09/24 19:29:39","新北市土城區清水路200號","121.460423333333","24.9818383333333","6501300","土城區"
"236055","AAC-216","2019/09/24 19:29:32","新北市土城區學府路一段276號","121.450211666667","24.9833383333333","6501300","土城區"
"242005","751-BX","2019/09/24 19:29:44","新北市新莊區思源路50號","121.460575","25.04396","6500500","新莊區"
"238015","755-BX","2019/09/24 19:29:33","新北市樹林區復興路364號","121.415651666667","24.985905","6500700","樹林區"
"238023","601-UM","2019/09/24 19:29:45","新北市樹林區三福街25號","121.408531666667","25.0166866666667","6500700","樹林區"
"238019","599-UM","2019/09/24 19:29:36","新北市樹林區鎮前街347巷1弄26號","121.417316666667","24.9839133333333","6500700","樹林區"
"238024","5061-A6","2019/09/24 19:29:36","新北市樹林區福德街47號","121.39972","24.974935","6500700","樹林區"
"238018","KEA-2217","2019/09/24 19:29:45","新北市樹林區中華路211號","121.419721666667","24.9813583333333","6500700","樹林區"
"238022","KEA-2213","2019/09/24 19:29:34","新北市樹林區國凱街82號","121.421238333333","24.9793533333333","6500700","樹林區"
"238021","KEA-2539","2019/09/24 19:29:27","新北市樹林區佳園路三段181巷17號","121.387053333333","24.947745","6500700","樹林區"
"238025","303-VK","2019/09/24 19:29:41","新北市樹林區中山路一段249號","121.420505","24.9866133333333","6500700","樹林區"
"238017","283-BY","2019/09/24 19:29:26","新北市樹林區光興街188號","121.407688333333","25.0046116666667","6500700","樹林區"
"238014","282-BY","2019/09/24 19:29:47","新北市樹林區千歲街6巷5號","121.425418333333","24.9953416666667","6500700","樹林區"
"238020","268-VK","2019/09/24 19:29:44","新北市樹林區俊英街105-1號","121.424995","25.0096816666667","6500700","樹林區"
"238026","172-UY","2019/09/24 19:29:34","新北市樹林區寶園街8-2號","121.385541666667","24.9536133333333","6500700","樹林區"
"238016","169-UY","2019/09/24 19:29:43","新北市樹林區復興路464巷46號","121.412768333333","24.983425","6500700","樹林區"
"239007","AAC-297","2019/09/24 19:29:41","新北市鶯歌區大湖路85巷13號","121.34193","24.9623683333333","6500800","鶯歌區"
"239006","891-R6","2019/09/24 19:29:27","新北市鶯歌區鶯桃路91巷14號","121.338825","24.95321","6500800","鶯歌區"
"239008","527-UM","2019/09/24 19:29:47","新北市鶯歌區大湖路530巷3號","121.337301666667","24.9730616666667","6500800","鶯歌區"
"239001","417-VK","2019/09/24 19:29:28","新北市鶯歌區鶯桃路95巷47號","121.337843333333","24.9530233333333","6500800","鶯歌區"
"239003","360-BY","2019/09/24 19:29:32","新北市鶯歌區文化路337號","121.351935","24.9517733333333","6500800","鶯歌區"
"239002","359-BY","2019/09/24 19:29:39","新北市鶯歌區中山路132號","121.350223333333","24.9570066666667","6500800","鶯歌區"
"239004","193-VK","2019/09/24 19:29:35","新北市鶯歌區二甲路97-3號","121.333001666667","24.9319","6500800","鶯歌區"
"221008","489-VK","2019/09/24 19:29:30","新北市汐止區康寧街235號","121.624015","25.0668433333333","6501100","汐止區"
"221027","281-BY","2019/09/24 19:29:46","新北市汐止區忠孝東路9號","121.658256666667","25.06592","6501100","汐止區"
"221031","353-TW","2019/09/24 19:29:39","新北市汐止區康寧街901號","121.65074","25.075325","6501100","汐止區"
"221033","645-BX","2019/09/24 19:29:24","新北市汐止區南勢街1巷1號","121.62707","25.037475","6501100","汐止區"
"221025","623-UM","2019/09/24 19:29:42","新北市汐止區忠孝東路201號","121.659518333333","25.06542","6501100","汐止區"
"221002","707-TV","2019/09/24 19:29:47","新北市汐止區中興路21號","121.63699","25.05953","6501100","汐止區"
"220079","145-BY","2019/09/24 19:29:34","新北市板橋區公館街106號","121.461168333333","25.01677","6500100","板橋區"
"220080","200-UY","2019/09/24 19:29:42","新北市板橋區大觀路二段37巷87-1號","121.450411666667","25.002375","6500100","板橋區"
"220082","610-BX","2019/09/24 19:29:47","新北市板橋區金門街231號","121.432103333333","24.98964","6500100","板橋區"
"220056","276-BY","2019/09/24 19:29:28","新北市板橋區信義路91-2號","121.4573","24.9938316666667","6500100","板橋區"
"220072","277-BY","2019/09/24 19:29:45","新北市板橋區篤行路二段153號","121.429715","24.987895","6500100","板橋區"
"220101","280-UM","2019/09/24 19:29:43","新北市板橋區萬板路48號","121.472108333333","25.0227116666667","6500100","板橋區"
"220071","283-VK","2019/09/24 19:29:45","新北市板橋區忠孝路48巷9弄19號","121.462085","25.00023","6500100","板橋區"
"220094","285-UM","2019/09/24 19:29:39","新北市板橋區銘傳街41-4號","121.469225","25.0314533333333","6500100","板橋區"
"220083","286-VK","2019/09/24 19:29:37","新北市板橋區大觀路二段174巷163弄4號","121.441595","25.0032283333333","6500100","板橋區"
"220081","287-VK","2019/09/24 19:29:33","新北市板橋區南雅西路一段122號","121.452715","25.0065816666667","6500100","板橋區"
"220090","288-VK","2019/09/24 19:29:40","新北市板橋區長江路一段48巷2弄1號","121.458988333333","25.0287533333333","6500100","板橋區"
"220061","293-UM","2019/09/24 19:29:38","新北市板橋區中山路一段265巷11號","121.468575","25.0146716666667","6500100","板橋區"
"220084","296-UM","2019/09/24 19:29:41","新北市板橋區滿平街136巷6弄1號","121.427998333333","24.9873616666667","6500100","板橋區"
"220053","299-UM","2019/09/24 19:29:42","新北市板橋區懷仁街77巷5號","121.47748","25.0187433333333","6500100","板橋區"
"220075","303-R5","2019/09/24 19:29:41","新北市板橋區中正路275巷93號","121.450773333333","25.0180916666667","6500100","板橋區"
"220062","305-R5","2019/09/24 19:29:45","新北市板橋區三民路二段169號","121.479086666667","25.0144916666667","6500100","板橋區"
"220092","307-R5","2019/09/24 19:29:33","新北市板橋區自由路51巷22號","121.464593333333","25.0233533333333","6500100","板橋區"
"220098","317-R6","2019/09/24 19:29:37","新北市板橋區四維路266巷2弄25-1號","121.464101666667","25.0281416666667","6500100","板橋區"
"220089","487-VK","2019/09/24 19:29:32","新北市板橋區龍泉街81號","121.456675","25.02508","6500100","板橋區"
"220088","491-VK","2019/09/24 19:29:40","新北市板橋區文化路二段578號","121.476678333333","25.0345616666667","6500100","板橋區"
"220035","560-BX","2019/09/24 19:29:28","新北市板橋區中正路433巷11號","121.453725","25.0234033333333","6500100","板橋區"
"220103","561-BX","2019/09/24 19:29:35","新北市板橋區陽明街29巷32號","121.46374","25.0227316666667","6500100","板橋區"
"220063","609-BX","2019/09/24 19:29:31","新北市板橋區三民路一段31巷2-4號","121.481871666667","25.0230683333333","6500100","板橋區"
"220091","637-BX","2019/09/24 19:29:29","新北市板橋區懷德街174巷31號","121.47853","25.028715","6500100","板橋區"
"220057","686-BX","2019/09/24 19:29:31","新北市板橋區國慶路161-5號","121.461908333333","24.9961466666667","6500100","板橋區"
"220077","687-BX","2019/09/24 19:29:32","新北市板橋區大觀路一段28巷40號","121.449881666667","25.0097333333333","6500100","板橋區"
"220093","689-BX","2019/09/24 19:29:28","新北市板橋區長江路一段44號","121.45856","25.0291016666667","6500100","板橋區"
"220054","741-BX","2019/09/24 19:29:39","新北市板橋區校前街82號","121.46222","25.0033433333333","6500100","板橋區"
"220102","KEA-2699","2019/09/24 19:29:30","新北市板橋區雙十路二段50號","121.475648333333","25.0276283333333","6500100","板橋區"
"220055","827-TW","2019/09/24 19:29:27","新北市板橋區實踐路130號","121.464471666667","25.002815","6500100","板橋區"
"220067","831-TW","2019/09/24 19:29:36","新北市板橋區長安街138巷12號","121.47293","25.0092383333333","6500100","板橋區"
"220074","895-R6","2019/09/24 19:29:29","新北市板橋區文化路一段27-1號","121.459903333333","25.01283","6500100","板橋區"
"220073","985-R7","2019/09/24 19:29:47","新北市板橋區中正路328號","121.454481666667","25.0213216666667","6500100","板橋區"
"220097","AAC-210","2019/09/24 19:22:09","新北市板橋區民生路二段188號","121.46981","25.02046","6500100","板橋區"
"220064","AAC-253","2019/09/24 19:29:38","新北市板橋區中山路一段137號","121.462535","25.010725","6500100","板橋區"
"235068","KEA-2873","2019/09/24 19:29:38","新北市中和區景平路493巷17號","121.499355","24.99706","6500300","中和區"
"235061","KEA-2875","2019/09/24 19:29:38","新北市中和區民安街2巷16號","121.480213333333","25.0015783333333","6500300","中和區"
