"lineid","car","time","location","longitude","latitude","cityid","cityname"
"234046","148-BY","2019/09/24 20:09:34","新北市永和區得和路386號","121.525075","24.9992666666667","6500400","永和區"
"234081","298-R6","2019/09/24 20:09:35","新北市永和區國中路27號","121.524515","25.0053116666667","6500400","永和區"
"234038","336-UY","2019/09/24 20:09:31","新北市永和區成功路一段47巷28號","121.527668333333","25.003865","6500400","永和區"
"234064","337-UY","2019/09/24 20:09:33","新北市永和區永利路92號","121.520816666667","25.0036983333333","6500400","永和區"
"234086","338-UY","2019/09/24 20:09:39","新北市永和區中正路636號","121.516921666667","25.0081583333333","6500400","永和區"
"234070","552-UM","2019/09/24 20:09:36","新北市永和區永貞路10巷9號","121.520051666667","25.0071983333333","6500400","永和區"
"234017","745-BX","2019/09/24 20:09:45","新北市永和區文化路95-1號","121.51327","25.01522","6500400","永和區"
"234030","746-BX","2019/09/24 20:09:43","新北市永和區民有街75巷8號","121.518433333333","24.99617","6500400","永和區"
"234054","KEA-2590","2019/09/24 20:09:26","新北市永和區博愛街15號","121.517115","25.01582","6500400","永和區"
"234007","KED-0605","2019/09/24 20:09:43","新北市永和區環河西路二段229巷5號","121.501535","25.0099516666667","6500400","永和區"
"234013","KEA-2591","2019/09/24 20:09:45","新北市永和區永貞路399號","121.507766666667","25.0089616666667","6500400","永和區"
"234061","AAD-866","2019/09/24 20:09:38","新北市永和區安樂路58巷16號","121.515345","24.998195","6500400","永和區"
"234042","862-TW","2019/09/24 20:09:32","新北市永和區雙和街35號","121.508886666667","25.0022633333333","6500400","永和區"
"234050","863-TW","2019/09/24 20:09:38","新北市永和區環河西路二段151號","121.50558","25.0140166666667","6500400","永和區"
"234026","9371-KE","2019/09/24 20:09:28","新北市永和區保生路26號","121.506423333333","25.00764","6500400","永和區"
"249005","172-UM","2019/09/24 20:09:37","新北市八里區下罟子58-6號","121.389453333333","25.1387","6502300","八里區"
"249001","173-UM","2019/09/24 20:09:37","新北市八里區中華路二段326號","121.403275","25.1479383333333","6502300","八里區"
"249004","303-UY","2019/09/24 20:09:40","新北市八里區中山路一段191號","121.411818333333","25.158195","6502300","八里區"
"249002","305-UY","2019/09/24 20:09:28","新北市五股區成泰路四段39號","121.455643333333","25.10984","6502300","八里區"
"249003","593-UM","2019/09/24 20:09:39","新北市八里區中山路二段540巷9弄31號","121.396326666667","25.1462966666667","6502300","八里區"
"248016","026-BX","2019/09/24 20:09:28","新北市五股區成泰路三段577巷80弄72號","121.448911666667","25.1047666666667","6501500","五股區"
"248008","KED-0815","2019/09/24 20:09:38","新北市五股區四維路30巷29號","121.468571666667","25.071475","6501500","五股區"
"248020","KED-0813","2019/09/24 20:09:30","新北市五股區凌雲路三段18-10號","121.43705","25.103855","6501500","五股區"
"248012","247-BX","2019/09/24 20:09:44","新北市五股區六合街70號","121.431851666667","25.090075","6501500","五股區"
"248004","677-BX","2019/09/24 20:09:36","新北市五股區成泰路二段24號","121.43697","25.0810683333333","6501500","五股區"
"248002","678-BX","2019/09/24 20:09:43","新北市五股區成泰路三段277號","121.447111666667","25.0941916666667","6501500","五股區"
"248010","682-TV","2019/09/24 20:09:28","新北市五股區成泰路一段7巷17號","121.432513333333","25.06709","6501500","五股區"
"234023","9380-KE","2019/09/24 20:09:42","新北市永和區中正路662巷14號","121.517795","25.0087833333333","6500400","永和區"
"234077","969-R7","2019/09/24 20:09:44","新北市永和區智光街107巷15號","121.515855","24.9958866666667","6500400","永和區"
"234074","AAC-211","2019/09/24 20:09:36","新北市永和區豫溪街136巷1號","121.521216666667","25.010385","6500400","永和區"
"234067","AAC-212","2019/09/24 20:09:43","新北市永和區保平路214巷10弄2號","121.509285","25.0064633333333","6500400","永和區"
"234003","AAC-295","2019/09/24 20:09:44","新北市永和區中正路618號","121.51701","25.007685","6500400","永和區"
"243012","AAD-798","2019/09/24 20:09:27","新北市泰山區楓江路19號","121.434006666667","25.06242","6501600","泰山區"
"243010","297-R6","2019/09/24 20:09:39","新北市泰山區明志路二段136巷21弄2號","121.426028333333","25.0519933333333","6501600","泰山區"
"243014","KEA-2801","2019/09/24 20:09:37","新北市泰山區明志路一段72號","121.433468333333","25.0645716666667","6501600","泰山區"
"243016","421-VK","2019/09/24 20:09:40","新北市泰山區明志路三段405號","121.421295","25.0340083333333","6501600","泰山區"
"243009","KEA-2215","2019/09/24 20:09:31","新北市泰山區泰林路二段116巷4弄1號","121.435211666667","25.0595716666667","6501600","泰山區"
"243011","KEA-2216","2019/09/24 20:09:28","新北市泰山區壽山路54號","121.420146666667","25.0291383333333","6501600","泰山區"
"222003","436-BY","2019/09/24 20:09:39","新北市深坑區埔新街91號","121.619523333333","25.0023366666667","6501800","深坑區"
"222002","659-BX","2019/09/24 20:09:44","新北市深坑區北深路三段160號","121.60264","25.0033083333333","6501800","深坑區"
"231061","002-UM","2019/09/24 20:09:42","新北市新店區安興路39-1號","121.516453333333","24.9713033333333","6500600","新店區"
"231055","0291-UT","2019/09/24 20:09:31","新北市新店區中華路48巷28號","121.540843333333","24.9691516666667","6500600","新店區"
"231044","046-UY","2019/09/24 20:09:36","新北市新店區寶慶街58巷4號","121.542041666667","24.9869083333333","6500600","新店區"
"231060","106-UY","2019/09/24 20:09:32","新北市新店區安康路三段179-1號","121.488295","24.9518016666667","6500600","新店區"
"231051","107-UY","2019/09/24 20:09:38","新北市新店區中央路196號","121.530745","24.9746266666667","6500600","新店區"
"231049","108-UY","2019/09/24 20:09:43","新北市新店區北新路二段139巷12弄1號","121.542143333333","24.975945","6500600","新店區"
"231065","110-UY","2019/09/24 20:09:39","新北市新店區安祥路106巷155號","121.47355","24.959055","6500600","新店區"
"231068","187-VK","2019/09/24 20:09:40","新北市新店區中興路二段192號","121.548301666667","24.9732733333333","6500600","新店區"
"231062","256-BX","2019/09/24 20:09:33","新北市新店區安康路一段226-2號","121.523413333333","24.963615","6500600","新店區"
"231054","260-TV","2019/09/24 20:09:30","新北市新店區北宜路一段3號","121.538508333333","24.9584116666667","6500600","新店區"
"231042","268-BY","2019/09/24 20:09:29","新北市新店區中興路二段89號","121.547051666667","24.97143","6500600","新店區"
"231064","278-BY","2019/09/24 20:09:40","新北市新店區安德街20號","121.5124","24.962955","6500600","新店區"
"231050","AAD-862","2019/09/24 20:09:42","新北市新店區北新路一段331號","121.541785","24.9685","6500600","新店區"
"231045","355-BY","2019/09/24 20:09:27","新北市新店區北宜路一段201號","121.54733","24.9523166666667","6500600","新店區"
"231056","4715-K9","2019/09/24 20:09:37","新北市新店區中正路275巷11號","121.537366666667","24.9738016666667","6500600","新店區"
"231067","4772-VM","2019/09/24 20:09:42","新北市新店區溪洲路85號","121.53313","24.9610233333333","6500600","新店區"
"231053","512-UM","2019/09/24 20:09:38","新北市新店區新烏路三段寶島巷4號","121.551531666667","24.8991466666667","6500600","新店區"
"231040","617-UM","2019/09/24 20:09:41","新北市新店區中正路98號","121.543421666667","24.970455","6500600","新店區"
"231041","619-UM","2019/09/24 20:09:37","新北市新店區中正路468號","121.533945","24.979405","6500600","新店區"
"231063","641-BX","2019/09/24 20:09:36","新北市新店區黎明路54巷2號","121.502313333333","24.9483883333333","6500600","新店區"
"231048","KED-0819","2019/09/24 20:09:35","新北市新店區寶橋路160號","121.549008333333","24.97717","6500600","新店區"
"231057","720-UM","2019/09/24 20:09:41","新北市新店區百齡一路12號","121.553083333333","24.932485","6500600","新店區"
"231059","897-TW","2019/09/24 20:09:33","新北市新店區安成街28-1號","121.510178333333","24.96095","6500600","新店區"
"231043","899-TW","2019/09/24 20:09:46","新北市新店區民族路207號","121.537","24.9760533333333","6500600","新店區"
"231066","AKT-0513","2019/09/24 20:09:34","新北市新店區柴埕路59號","121.51355","24.96495","6500600","新店區"
"241011","013-R5","2019/09/24 20:09:40","新北市三重區仁愛街30號","121.496286666667","25.07168","6500200","三重區"
"241028","022-UY","2019/09/24 20:09:36","新北市三重區大同南路182號","121.496731666667","25.0570383333333","6500200","三重區"
"241008","059-VK","2019/09/24 20:09:33","新北市三重區永福街209號","121.479981666667","25.0745133333333","6500200","三重區"
"241005","060-VK","2019/09/24 20:09:29","新北市三重區碧華街285號","121.490168333333","25.0836666666667","6500200","三重區"
"241015","062-VK","2019/09/24 20:09:44","新北市三重區福德北路30號","121.5022","25.06499","6500200","三重區"
"241017","063-VK","2019/09/24 20:09:30","新北市三重區大智街108-1號","121.493128333333","25.0667466666667","6500200","三重區"
"241024","065-VK","2019/09/24 20:09:42","新北市三重區力行路一段158號","121.48234","25.07103","6500200","三重區"
"241007","066-VK","2019/09/24 20:09:46","新北市三重區三和路四段111-9號","121.48645","25.0776183333333","6500200","三重區"
"241002","090-VK","2019/09/24 20:09:32","新北市三重區五華街35巷38號","121.495271666667","25.081615","6500200","三重區"
"241031","742-BX","2019/09/24 20:09:30","新北市三重區過圳街9-1號","121.488748333333","25.06005","6500200","三重區"
"241006","262-UM","2019/09/24 20:09:46","新北市三重區車路頭街135-1號","121.484208333333","25.0761633333333","6500200","三重區"
"241016","266-UM","2019/09/24 20:09:35","新北市三重區大同北路54巷5號","121.493996666667","25.063375","6500200","三重區"
"241009","267-UM","2019/09/24 20:09:41","新北市三重區三和路四段382巷96弄6號","121.478953333333","25.0780433333333","6500200","三重區"
"241018","268-UM","2019/09/24 20:09:41","新北市三重區正義北路256巷10號","121.495495","25.0683916666667","6500200","三重區"
"241032","269-UM","2019/09/24 20:09:35","新北市三重區捷運路65號","121.483386666667","25.0556366666667","6500200","三重區"
"241025","271-UM","2019/09/24 20:09:25","新北市三重區中正北路253號","121.475533333333","25.07092","6500200","三重區"
"241035","KEA-2210","2019/09/24 20:09:34","新北市三重區中央北路18巷41號","121.499485","25.0638533333333","6500200","三重區"
"241030","KED-0822","2019/09/24 20:09:41","新北市三重區成功路145巷35號","121.487836666667","25.05325","6500200","三重區"
"241013","462-BY","2019/09/24 20:09:32","新北市三重區三和路三段151巷50號","121.49366","25.0743016666667","6500200","三重區"
"241004","475-VK","2019/09/24 20:09:41","新北市三重區自強路四段100號","121.491266666667","25.0797216666667","6500200","三重區"
"241020","478-VK","2019/09/24 20:09:47","新北市三重區後竹圍街2巷1弄2號","121.491685","25.0733316666667","6500200","三重區"
"241026","480-VK","2019/09/24 20:09:31","新北市三重區福德南路65巷2號","121.502446666667","25.0604233333333","6500200","三重區"
"241014","543-UM","2019/09/24 20:09:42","新北市三重區長壽街120巷28號","121.501941666667","25.0696416666667","6500200","三重區"
"241023","545-UM","2019/09/24 20:09:38","新北市三重區頂崁街233號","121.476978333333","25.06846","6500200","三重區"
"241001","547-UM","2019/09/24 20:09:40","新北市三重區三和路四段91號","121.488938333333","25.0755733333333","6500200","三重區"
"241019","KEA-2593","2019/09/24 20:09:30","新北市三重區自強路二段33巷42號","121.49048","25.0698083333333","6500200","三重區"
"241003","743-BX","2019/09/24 20:09:36","新北市三重區富華街10號","121.489483333333","25.0823683333333","6500200","三重區"
"241022","KED-0820","2019/09/24 20:09:33","新北市三重區重陽路二段10號","121.486785","25.0620333333333","6500200","三重區"
"241012","887-TS","2019/09/24 20:09:35","新北市三重區仁愛街125巷109號","121.498953333333","25.07648","6500200","三重區"
"241029","942-UM","2019/09/24 20:09:38","新北市三重區光明路32巷16號","121.491796666667","25.0587133333333","6500200","三重區"
"241033","AAC-255","2019/09/24 20:09:42","新北市三重區光復路一段61巷21號","121.473066666667","25.04925","6500200","三重區"
"235066","003-UY","2019/09/24 20:09:36","新北市中和區水源路127巷2弄2號","121.508031666667","25.0040466666667","6500300","中和區"
"235039","097-UM","2019/09/24 20:09:44","新北市中和區自強路38巷1號","121.520168333333","24.99524","6500300","中和區"
"235065","098-UM","2019/09/24 20:09:32","新北市中和區永和路84號","121.497496666667","25.0052433333333","6500300","中和區"
"235040","150-BY","2019/09/24 20:09:46","新北市中和區保健路37號","121.508896666667","24.99757","6500300","中和區"
"247016","KEA-2869","2019/09/24 20:09:34","新北市蘆洲區光華路136號","121.46628","25.0823516666667","6501400","蘆洲區"
"247010","KED-0682","2019/09/24 20:09:48","新北市蘆洲區信義路213號","121.479275","25.0834233333333","6501400","蘆洲區"
"235050","4979-A6","2019/09/24 20:09:36","新北市中和區景平路209號","121.510915","24.992505","6500300","中和區"
"235069","4980-A6","2019/09/24 20:09:31","新北市中和區景新街64巷7弄16號","121.50466","24.9985116666667","6500300","中和區"
"235070","558-UM","2019/09/24 20:09:30","新北市板橋區光復街192巷16弄6號","121.486393333333","25.0197633333333","6500300","中和區"
"235051","157-BY","2019/09/24 20:09:44","新北市中和區捷運路12-1號","121.50911","24.9898316666667","6500300","中和區"
"235037","AAC-213","2019/09/24 20:09:32","新北市板橋區民生路二段179號","121.46976","25.0204816666667","6500300","中和區"
"235059","AAC-215","2019/09/24 20:09:44","新北市中和區圓通路335巷37弄1號","121.493875","24.9890833333333","6500300","中和區"
"220065","072-UY","2019/09/24 20:09:34","新北市板橋區中山路一段154巷3弄2號","121.465435","25.0104083333333","6500100","板橋區"
"247006","893-R6","2019/09/24 20:09:29","新北市蘆洲區中山二路286號","121.468895","25.0778","6501400","蘆洲區"
"247020","546-UM","2019/09/24 20:09:42","新北市蘆洲區民權路106巷5弄22號","121.474253333333","25.089195","6501400","蘆洲區"
"247004","500-BY","2019/09/24 20:09:40","新北市蘆洲區長安街285巷5弄1號","121.458011666667","25.08429","6501400","蘆洲區"
"247022","341-TH","2019/09/24 20:09:14","新北市蘆洲區三民路173號","121.470995","25.087085","6501400","蘆洲區"
"247012","337-TH","2019/09/24 20:09:47","新北市蘆洲區民族路236巷35號","121.48026","25.0886516666667","6501400","蘆洲區"
"247024","057-VK","2019/09/24 20:09:45","新北市蘆洲區長樂路56巷10號","121.463803333333","25.086315","6501400","蘆洲區"
"247014","056-VK","2019/09/24 20:09:47","新北市蘆洲區中山二路253號","121.469958333333","25.0798266666667","6501400","蘆洲區"
"247018","053-VK","2019/09/24 20:09:26","新北市蘆洲區民族路314巷21號","121.478101666667","25.0905483333333","6501400","蘆洲區"
"247002","001-UY","2019/09/24 20:09:35","新北市蘆洲區永康街2巷8號","121.459348333333","25.0861833333333","6501400","蘆洲區"
"224009","275-VK","2019/09/24 20:09:26","新北市瑞芳區傑魚坑路73號","121.793201666667","25.1103566666667","6501200","瑞芳區"
"222001","KEA-2212","2019/09/24 20:09:34","新北市深坑區北深路三段191號","121.601196666667","25.0036533333333","6501800","深坑區"
"251009","008-UM","2019/09/24 20:09:33","新北市淡水區英專路2巷27號","121.44644","25.1693816666667","6501000","淡水區"
"251004","009-UM","2019/09/24 20:09:27","新北市淡水區民族路29巷60號","121.461916666667","25.13676","6501000","淡水區"
"251001","011-UM","2019/09/24 20:09:28","新北市淡水區淡金路二段15號","121.446341666667","25.1892183333333","6501000","淡水區"
"251015","KEA-2871","2019/09/24 20:09:32","新北市淡水區泉洲厝8-1號","121.48498","25.1889116666667","6501000","淡水區"
"251016","179-VK","2019/09/24 20:09:31","新北市淡水區番子田25-3號","121.456178333333","25.23058","6501000","淡水區"
"251008","181-VK","2019/09/24 20:09:31","新北市淡水區沙崙路152巷17弄1號","121.424183333333","25.182195","6501000","淡水區"
"251013","182-VK","2019/09/24 20:09:40","新北市淡水區奎柔山路578號","121.468446666667","25.205105","6501000","淡水區"
"251010","413-VK","2019/09/24 20:09:41","新北市淡水區崁頂五路303號","121.423978333333","25.1973033333333","6501000","淡水區"
"251012","441-VK","2019/09/24 20:09:36","新北市淡水區淡金路三段224號","121.4489","25.204885","6501000","淡水區"
"251006","561-UM","2019/09/24 20:09:39","新北市淡水區北新路141巷5號","121.449126666667","25.1792433333333","6501000","淡水區"
"251014","577-R6","2019/09/24 20:09:46","新北市淡水區石頭厝2-1號","121.458101666667","25.23571","6501000","淡水區"
"251011","650-BX","2019/09/24 20:09:37","新北市淡水區崁頂57-7號","121.442605","25.1973466666667","6501000","淡水區"
"251002","672-BX","2019/09/24 20:09:44","新北市淡水區中正路334號","121.435768333333","25.1731383333333","6501000","淡水區"
"251003","673-BX","2019/09/24 20:09:37","新北市淡水區新市一路二段252號","121.44385","25.18292","6501000","淡水區"
"207003","550-UM","2019/09/24 20:09:36","新北市萬里區大鵬里萬里加投180號","121.64303","25.2158283333333","6502800","萬里區"
"207004","291-VK","2019/09/24 20:09:29","新北市萬里區北基里愛二街2號","121.682416666667","25.17671","6502800","萬里區"
"252002","178-VK","2019/09/24 20:09:45","新北市三芝區中正路一段72號","121.503933333333","25.2576466666667","6502100","三芝區"
"237012","275-BY","2019/09/24 20:09:30","新北市三峽區中華路137巷2號","121.371371666667","24.9274766666667","6500900","三峽區"
"237006","5529-G3","2019/09/24 20:09:46","新北市三峽區大利路20號","121.366911666667","24.911645","6500900","三峽區"
"237015","649-BX","2019/09/24 20:09:31","新北市三峽區介壽路二段138巷1弄98-4號","121.398731666667","24.9323316666667","6500900","三峽區"
"236042","KED-0685","2019/09/24 20:09:40","新北市土城區學享街40號","121.451913333333","24.9868333333333","6501300","土城區"
"236030","253-BX","2019/09/24 20:09:36","新北市土城區中央路一段141號","121.446735","24.988025","6501300","土城區"
"236026","269-VK","2019/09/24 20:09:36","新北市土城區明德路二段247號","121.445306666667","24.9840783333333","6501300","土城區"
"236014","270-VK","2019/09/24 20:09:30","新北市土城區廣興街39號","121.455038333333","24.991595","6501300","土城區"
"236038","271-VK","2019/09/24 20:09:28","新北市土城區延吉街355號","121.464551666667","24.9839066666667","6501300","土城區"
"236070","KEA-2877","2019/09/24 20:09:33","新北市土城區中央路三段185-5號","121.431445","24.9648633333333","6501300","土城區"
"252001","KED-0821","2019/09/24 20:09:40","新北市三芝區公正街22號","121.499653333333","25.2580466666667","6502100","三芝區"
"236021","401-BY","2019/09/24 20:09:34","新北市土城區延吉街23巷37號","121.474293333333","24.9874516666667","6501300","土城區"
"236079","752-BX","2019/09/24 20:09:29","新北市土城區民族街20號","121.418913333333","24.9630733333333","6501300","土城區"
"236059","912-UM","2019/09/24 20:09:39","新北市土城區中央路二段261號","121.439855","24.9711816666667","6501300","土城區"
"236049","913-UM","2019/09/24 20:09:39","新北市土城區清水路148號","121.459208333333","24.9814766666667","6501300","土城區"
"236063","915-UM","2019/09/24 20:09:46","新北市土城區金城路三段33巷19號","121.465171666667","24.98723","6501300","土城區"
"236055","AAC-216","2019/09/24 20:09:32","新北市土城區中華路一段166號","121.441458333333","24.9831516666667","6501300","土城區"
"242042","AAC-296","2019/09/24 20:09:33","新北市新莊區青山路一段189號","121.399015","25.0309133333333","6500500","新莊區"
"242061","986-R7","2019/09/24 20:09:43","新北市新莊區瓊林路瓊英巷8弄1號","121.443101666667","25.0277516666667","6500500","新莊區"
"242005","751-BX","2019/09/24 20:09:44","新北市新莊區頭興街7巷1號","121.46264","25.0536383333333","6500500","新莊區"
"242029","615-BX","2019/09/24 20:09:35","新北市新莊區中原路349號","121.445116666667","25.0542933333333","6500500","新莊區"
"242027","613-BX","2019/09/24 20:09:34","新北市新莊區立信一街58號","121.443065","25.0497066666667","6500500","新莊區"
"242058","612-BX","2019/09/24 20:09:43","新北市新莊區八德街157號","121.423428333333","25.0194183333333","6500500","新莊區"
"242048","566-BX","2019/09/24 20:09:32","新北市新莊區四維路152巷14號","121.4222","25.0230016666667","6500500","新莊區"
"242054","497-BY","2019/09/24 20:09:35","新北市新莊區西盛街380號","121.42794","25.0130383333333","6500500","新莊區"
"242013","442-UM","2019/09/24 20:09:49","新北市新莊區幸福路670巷2弄3號","121.451143333333","25.0496433333333","6500500","新莊區"
"242002","441-UM","2019/09/24 20:09:42","新北市新莊區中正路51號","121.46342","25.0406683333333","6500500","新莊區"
"242007","440-UM","2019/09/24 20:09:38","新北市新莊區福壽街202巷24號","121.459228333333","25.05363","6500500","新莊區"
"242044","415-TV","2019/09/24 20:09:42","新北市新莊區中正路929巷29號","121.411306666667","25.0199283333333","6500500","新莊區"
"242051","400-BY","2019/09/24 20:09:44","新北市新莊區民安西路198號","121.425903333333","25.0153716666667","6500500","新莊區"
"242025","362-BY","2019/09/24 20:09:41","新北市新莊區五工三路78巷15號","121.459443333333","25.06561","6500500","新莊區"
"242023","353-BY","2019/09/24 20:09:42","新北市新莊區化成路548號","121.466266666667","25.0537083333333","6500500","新莊區"
"242015","132-UY","2019/09/24 20:09:44","新北市新莊區中平路26巷27號","121.446268333333","25.043405","6500500","新莊區"
"242039","135-UY","2019/09/24 20:09:45","新北市新莊區龍安路509號","121.42627","25.0178966666667","6500500","新莊區"
"242056","172-VK","2019/09/24 20:09:38","新北市新莊區豐年街52號","121.446351666667","25.03185","6500500","新莊區"
"242017","173-VK","2019/09/24 20:09:28","新北市新莊區中安街17號","121.452963333333","25.0460566666667","6500500","新莊區"
"242032","175-VK","2019/09/24 20:09:28","新北市新莊區忠孝街29巷9號","121.44359","25.035735","6500500","新莊區"
"242021","KED-0687","2019/09/24 20:09:40","新北市新莊區中正路206號","121.449263333333","25.0357466666667","6500500","新莊區"
"242009","349-TH","2019/09/24 20:09:48","新北市新莊區昌盛街35巷4弄1號","121.454105","25.050545","6500500","新莊區"
"242034","350-TH","2019/09/24 20:09:40","新北市新莊區中正路316號","121.446298333333","25.0350333333333","6500500","新莊區"
"242019","351-TH","2019/09/24 20:09:34","新北市新莊區民樂街66號","121.45809","25.042275","6500500","新莊區"
"239006","891-R6","2019/09/24 20:09:47","新北市鶯歌區文化路145巷4號","121.35668","24.9540166666667","6500800","鶯歌區"
"239002","359-BY","2019/09/24 20:09:38","新北市鶯歌區中山路129號","121.349698333333","24.95701","6500800","鶯歌區"
"221008","489-VK","2019/09/24 20:09:30","新北市汐止區忠一街9巷7號","121.620471666667","25.07321","6501100","汐止區"
"221036","130-UY","2019/09/24 20:09:28","新北市汐止區新台五路二段41巷9號","121.66295","25.0668416666667","6501100","汐止區"
"221015","131-UY","2019/09/24 20:09:30","新北市汐止區建成路15號","121.664511666667","25.0725883333333","6501100","汐止區"
"221010","269-BY","2019/09/24 20:09:41","新北市汐止區連峰街268號","121.644495","25.0813466666667","6501100","汐止區"
"221012","278-VK","2019/09/24 20:09:45","新北市汐止區大同路三段451號","121.678563333333","25.0712966666667","6501100","汐止區"
"221023","279-VK","2019/09/24 20:09:37","新北市汐止區明峰街198號","121.627771666667","25.0694066666667","6501100","汐止區"
"221027","281-BY","2019/09/24 20:09:46","新北市汐止區光明街28號","121.660183333333","25.0686566666667","6501100","汐止區"
"221029","298-VK","2019/09/24 20:09:40","新北市汐止區樟樹一路119巷10弄1號","121.641218333333","25.0644933333333","6501100","汐止區"
"221021","299-VK","2019/09/24 20:09:36","新北市汐止區新台五路一段172號","121.654493333333","25.062545","6501100","汐止區"
"221031","353-TW","2019/09/24 20:09:39","新北市汐止區福德一路260號","121.633096666667","25.0643483333333","6501100","汐止區"
"221033","645-BX","2019/09/24 20:09:44","新北市汐止區東勢街201巷104號","121.633581666667","25.0429183333333","6501100","汐止區"
"221032","567-BX","2019/09/24 20:09:44","新北市汐止區力行街59巷7號","121.617221666667","25.0496133333333","6501100","汐止區"
"221035","622-UM","2019/09/24 20:09:34","新北市汐止區長江街39巷21號","121.655251666667","25.07209","6501100","汐止區"
"221025","623-UM","2019/09/24 20:09:42","新北市汐止區仁愛路1-6號","121.659206666667","25.06471","6501100","汐止區"
"221038","646-BX","2019/09/24 20:09:37","新北市汐止區大同路三段41號","121.666848333333","25.0764516666667","6501100","汐止區"
"221018","753-BX","2019/09/24 20:09:30","新北市汐止區茄苳路320號","121.673593333333","25.0665","6501100","汐止區"
"220079","145-BY","2019/09/24 20:09:34","新北市板橋區復興街89號","121.459501666667","25.0177616666667","6500100","板橋區"
"220080","200-UY","2019/09/24 20:09:36","新北市板橋區大觀路二段187巷25號","121.446096666667","24.99926","6500100","板橋區"
"220082","610-BX","2019/09/24 20:09:36","新北市板橋區大觀路三段201號","121.43175","24.9930866666667","6500100","板橋區"
"220101","280-UM","2019/09/24 20:09:43","新北市板橋區莊敬路77號","121.473008333333","25.0267283333333","6500100","板橋區"
"220083","286-VK","2019/09/24 20:09:37","新北市板橋區大觀路一段38巷156弄168號","121.44423","25.00945","6500100","板橋區"
"220081","287-VK","2019/09/24 20:09:33","新北市板橋區僑中一街80巷7弄2號","121.447883333333","25.0127483333333","6500100","板橋區"
"220061","293-UM","2019/09/24 20:09:38","新北市板橋區文華街12號","121.457833333333","25.000435","6500100","板橋區"
"220084","296-UM","2019/09/24 20:09:41","新北市板橋區溪崑二街112巷10號","121.426081666667","24.9888983333333","6500100","板橋區"
"242046","281-VK","2019/09/24 20:09:40","新北市新莊區裕民街110號","121.418195","25.0229866666667","6500500","新莊區"
"220075","303-R5","2019/09/24 20:09:41","新北市板橋區金華街10巷91號","121.4585","25.0204683333333","6500100","板橋區"
"220062","305-R5","2019/09/24 20:09:45","新北市板橋區萬安街85巷1弄11號","121.484351666667","25.025045","6500100","板橋區"
"242011","280-VK","2019/09/24 20:09:41","新北市新莊區中信街52號","121.449323333333","25.0508483333333","6500500","新莊區"
"220035","560-BX","2019/09/24 20:09:28","新北市板橋區新生街23巷4號","121.456153333333","25.0214566666667","6500100","板橋區"
"220077","687-BX","2019/09/24 20:09:35","新北市板橋區僑中一街102巷7弄20號","121.446006666667","25.0129516666667","6500100","板橋區"
"220054","741-BX","2019/09/24 20:09:39","新北市板橋區忠孝路201巷92號","121.464776666667","25.00477","6500100","板橋區"
"220055","827-TW","2019/09/24 20:09:27","新北市板橋區仁愛路62巷15弄16-3號","121.460821666667","24.9986066666667","6500100","板橋區"
"220074","895-R6","2019/09/24 20:09:47","新北市板橋區府後街1號","121.459648333333","25.0099916666667","6500100","板橋區"
"220073","985-R7","2019/09/24 20:09:47","新北市板橋區館前西路162號","121.45285","25.0085833333333","6500100","板橋區"
"220064","AAC-253","2019/09/24 20:09:38","新北市板橋區中山路一段180號","121.4688","25.0130666666667","6500100","板橋區"
"235068","KEA-2873","2019/09/24 20:09:38","新北市中和區福祥路85巷2弄12號","121.498625","25.0061283333333","6500300","中和區"
"235026","KEA-2876","2019/09/24 19:53:51","新北市中和區員山路36巷16-3號","121.485036666667","24.9914583333333","6500300","中和區"
