"lineid","car","time","location","longitude","latitude","cityid","cityname"
"234081","298-R6","2019/09/24 20:19:35","新北市永和區國中路104巷6號","121.524661666667","25.0069866666667","6500400","永和區"
"234038","336-UY","2019/09/24 20:19:31","新北市永和區成功路一段91號","121.52694","25.0027433333333","6500400","永和區"
"234064","337-UY","2019/09/24 20:19:33","新北市永和區得和路119號","121.518643333333","25.0002266666667","6500400","永和區"
"234086","338-UY","2019/09/24 20:19:39","新北市永和區永和路二段207號","121.515463333333","25.0138133333333","6500400","永和區"
"234070","552-UM","2019/09/24 20:19:36","新北市永和區福和路263巷7弄1號","121.517908333333","25.007045","6500400","永和區"
"234017","745-BX","2019/09/24 20:19:39","新北市永和區仁愛路46號","121.514083333333","25.013415","6500400","永和區"
"234030","746-BX","2019/09/24 20:19:43","新北市中和區景平路120號","121.519366666667","24.9918016666667","6500400","永和區"
"234054","KEA-2590","2019/09/24 20:19:43","新北市永和區光復街2巷31號","121.51742","25.01666","6500400","永和區"
"234013","KEA-2591","2019/09/24 20:19:44","新北市永和區仁愛路295號","121.504995","25.0091766666667","6500400","永和區"
"234061","AAD-866","2019/09/24 20:19:43","新北市永和區得和路35號","121.516041666667","25.0002333333333","6500400","永和區"
"234042","862-TW","2019/09/24 20:19:32","新北市中和區中安街168號","121.510845","24.9998766666667","6500400","永和區"
"234050","863-TW","2019/09/24 20:19:39","新北市永和區文化路187號","121.509611666667","25.0170383333333","6500400","永和區"
"249005","172-UM","2019/09/24 20:19:37","新北市八里區下罟子1-16號","121.389853333333","25.1420616666667","6502300","八里區"
"249001","173-UM","2019/09/24 20:19:37","新北市八里區中華路二段341-10號","121.399118333333","25.1449983333333","6502300","八里區"
"249004","303-UY","2019/09/24 20:19:40","新北市八里區中山路一段127號","121.413508333333","25.15926","6502300","八里區"
"249002","305-UY","2019/09/24 20:19:48","新北市八里區龍米路一段226號","121.45185","25.1285383333333","6502300","八里區"
"249003","593-UM","2019/09/24 20:19:30","新北市八里區華峰一街68號","121.398046666667","25.1459666666667","6502300","八里區"
"248016","026-BX","2019/09/24 20:19:45","新北市五股區凌雲路一段158巷39弄2號","121.446851666667","25.1037716666667","6501500","五股區"
"248008","KED-0815","2019/09/24 20:19:38","新北市五股區中興路一段1巷31-1號","121.46938","25.06998","6501500","五股區"
"248012","247-BX","2019/09/24 20:19:44","新北市五股區民義路一段34號","121.4371","25.0837583333333","6501500","五股區"
"248002","678-BX","2019/09/24 20:19:43","新北市五股區成泰路三段149號","121.44488","25.091485","6501500","五股區"
"248010","682-TV","2019/09/24 20:19:28","新北市泰山區楓江路111號","121.43852","25.0645583333333","6501500","五股區"
"234023","9380-KE","2019/09/24 20:19:37","新北市永和區復興街39號","121.516486666667","25.0131916666667","6500400","永和區"
"234077","969-R7","2019/09/24 20:19:44","新北市永和區民享街16號","121.515355","24.9952066666667","6500400","永和區"
"234074","AAC-211","2019/09/24 20:19:36","新北市永和區豫溪街160巷2號","121.523278333333","25.0095733333333","6500400","永和區"
"234067","AAC-212","2019/09/24 20:19:43","新北市永和區保平路268巷11號","121.50838","25.0054533333333","6500400","永和區"
"234003","AAC-295","2019/09/24 20:19:44","新北市永和區大新街23號","121.515018333333","25.008545","6500400","永和區"
"243012","AAD-798","2019/09/24 20:19:27","新北市泰山區楓江路162號","121.440775","25.0656933333333","6501600","泰山區"
"243010","297-R6","2019/09/24 20:19:42","新北市泰山區明志路二段254巷1號","121.426435","25.0476016666667","6501600","泰山區"
"243014","KEA-2801","2019/09/24 20:19:41","新北市泰山區明志路一段187號","121.433028333333","25.06196","6501600","泰山區"
"243016","421-VK","2019/09/24 20:19:41","新北市泰山區明志路二段418號","121.424953333333","25.0439933333333","6501600","泰山區"
"243009","KEA-2215","2019/09/24 20:19:31","新北市泰山區福泰街20號","121.433108333333","25.059945","6501600","泰山區"
"243011","KEA-2216","2019/09/24 20:19:28","新北市泰山區貴陽街16巷5弄14號","121.422688333333","25.0319266666667","6501600","泰山區"
"243013","646-TV","2019/09/24 20:19:34","新北市泰山區民國街18號","121.425648333333","25.0433416666667","6501600","泰山區"
"243015","680-BX","2019/09/24 20:19:41","新北市泰山區明志路一段312號","121.431718333333","25.0594866666667","6501600","泰山區"
"222003","436-BY","2019/09/24 20:19:39","新北市深坑區深坑街27號","121.615996666667","25.0023716666667","6501800","深坑區"
"222002","659-BX","2019/09/24 20:19:47","新北市深坑區萬福路75巷49號","121.598248333333","25.00978","6501800","深坑區"
"231061","002-UM","2019/09/24 20:19:42","新北市新店區安興路32號","121.515711666667","24.9703333333333","6500600","新店區"
"231055","0291-UT","2019/09/24 20:19:31","新北市新店區中華路48巷9號","121.540131666667","24.9687616666667","6500600","新店區"
"231044","046-UY","2019/09/24 20:19:36","新北市新店區北新路三段89號","121.541488333333","24.981735","6500600","新店區"
"231060","106-UY","2019/09/24 20:19:32","新北市新店區安康路三段578-1號","121.481151666667","24.9486966666667","6500600","新店區"
"231051","107-UY","2019/09/24 20:19:38","新北市新店區中央六街125號","121.524883333333","24.977865","6500600","新店區"
"231049","108-UY","2019/09/24 20:19:43","新北市新店區北新路二段64號","121.542868333333","24.9721083333333","6500600","新店區"
"231065","110-UY","2019/09/24 20:19:39","新北市新店區安祥路102巷32號","121.484141666667","24.963905","6500600","新店區"
"231068","187-VK","2019/09/24 20:19:40","新北市新店區寶安街33號","121.541933333333","24.9824033333333","6500600","新店區"
"231062","256-BX","2019/09/24 20:19:33","新北市新店區安泰路7巷16號","121.485638333333","24.9509716666667","6500600","新店區"
"231042","268-BY","2019/09/24 20:19:29","新北市新店區中興路二段192號","121.548426666667","24.97341","6500600","新店區"
"231064","278-BY","2019/09/24 20:19:40","新北市新店區安業街33號","121.517495","24.97716","6500600","新店區"
"231050","AAD-862","2019/09/24 20:19:44","新北市新店區博愛街15號","121.541115","24.9734","6500600","新店區"
"231045","355-BY","2019/09/24 20:19:07","新北市新店區五峰路145巷7號","121.545938333333","24.9648383333333","6500600","新店區"
"231058","3713-VJ","2019/09/24 20:19:24","新北市新店區安和路三段4巷1-3號","121.518326666667","24.9803816666667","6500600","新店區"
"231056","4715-K9","2019/09/24 20:19:37","新北市新店區中正路309號","121.536643333333","24.97497","6500600","新店區"
"231067","4772-VM","2019/09/24 20:19:42","新北市新店區安康路一段35號","121.531741666667","24.96093","6500600","新店區"
"231053","512-UM","2019/09/24 20:19:38","新北市新店區松林路4號","121.546981666667","24.910985","6500600","新店區"
"231054","515-UM","2019/09/24 20:19:42","新北市新店區光明街138巷22號","121.54022","24.9609016666667","6500600","新店區"
"231040","617-UM","2019/09/24 20:19:41","新北市新店區中正路110號","121.54302","24.9706283333333","6500600","新店區"
"231041","619-UM","2019/09/24 20:19:37","新北市新店區民權路46號","121.540155","24.9829466666667","6500600","新店區"
"231063","641-BX","2019/09/24 20:19:36","新北市新店區車子路1-1號","121.504713333333","24.957735","6500600","新店區"
"231048","KED-0819","2019/09/24 20:19:35","新北市新店區寶橋路88號","121.546901666667","24.975825","6500600","新店區"
"231057","720-UM","2019/09/24 20:19:43","新北市新店區花園七路一段14號","121.554038333333","24.934955","6500600","新店區"
"231059","897-TW","2019/09/24 20:19:33","新北市新店區安德街64號","121.510703333333","24.9619166666667","6500600","新店區"
"231043","899-TW","2019/09/24 20:19:26","新北市新店區建國路131號","121.53945","24.9781733333333","6500600","新店區"
"231066","AKT-0513","2019/09/24 20:19:47","新北市新店區柴埕路60巷1-1號","121.510081666667","24.9635916666667","6500600","新店區"
"241011","013-R5","2019/09/24 20:19:40","新北市三重區龍門路183號","121.499396666667","25.073275","6500200","三重區"
"241028","022-UY","2019/09/24 20:19:36","新北市三重區光興街72號","121.496441666667","25.059775","6500200","三重區"
"241008","059-VK","2019/09/24 20:19:44","新北市三重區永福街172號","121.480995","25.0744233333333","6500200","三重區"
"241005","060-VK","2019/09/24 20:19:29","新北市三重區碧華街405號","121.493258333333","25.0858716666667","6500200","三重區"
"241015","062-VK","2019/09/24 20:19:44","新北市三重區文化北路2號","121.499718333333","25.06324","6500200","三重區"
"241017","063-VK","2019/09/24 20:19:30","新北市三重區自強路一段236號","121.493351666667","25.067135","6500200","三重區"
"241024","065-VK","2019/09/24 20:19:42","新北市三重區中正北路238號","121.481868333333","25.0679066666667","6500200","三重區"
"241007","066-VK","2019/09/24 20:19:45","新北市三重區溪尾街108巷59號","121.487491666667","25.0782833333333","6500200","三重區"
"241002","090-VK","2019/09/24 20:19:32","新北市三重區仁義街101巷28號","121.498786666667","25.0805933333333","6500200","三重區"
"241031","742-BX","2019/09/24 20:19:30","新北市三重區過圳街9-1號","121.488748333333","25.06005","6500200","三重區"
"241006","262-UM","2019/09/24 20:19:46","新北市三重區車路頭街139巷8號","121.484136666667","25.0762683333333","6500200","三重區"
"241016","266-UM","2019/09/24 20:19:35","新北市三重區大同北路97-3號","121.494376666667","25.06354","6500200","三重區"
"241009","267-UM","2019/09/24 20:19:41","新北市三重區三和路四段177-1號","121.482778333333","25.07877","6500200","三重區"
"241018","268-UM","2019/09/24 20:19:41","新北市三重區雙園街107號","121.493643333333","25.0673166666667","6500200","三重區"
"241032","269-UM","2019/09/24 20:19:35","新北市三重區捷運路19巷6弄20號","121.484335","25.0567866666667","6500200","三重區"
"241025","271-UM","2019/09/24 20:19:45","新北市三重區三民街260號","121.479291666667","25.0679966666667","6500200","三重區"
"241035","KEA-2210","2019/09/24 20:19:34","新北市三重區文化北路14號","121.49944","25.0638483333333","6500200","三重區"
"241030","KED-0822","2019/09/24 20:19:40","新北市三重區環河南路254巷61號","121.487823333333","25.05231","6500200","三重區"
"241013","462-BY","2019/09/24 20:19:32","新北市三重區三和路三段167巷27號","121.492973333333","25.07439","6500200","三重區"
"241004","475-VK","2019/09/24 20:19:41","新北市三重區自強路四段110號","121.491543333333","25.0799616666667","6500200","三重區"
"241020","478-VK","2019/09/24 20:19:40","新北市三重區忠孝路一段21巷11-1號","121.491786666667","25.0727933333333","6500200","三重區"
"241026","480-VK","2019/09/24 20:19:39","新北市三重區和平街69號","121.502333333333","25.0626566666667","6500200","三重區"
"241014","543-UM","2019/09/24 20:19:42","新北市三重區龍門路238號","121.500665","25.0736866666667","6500200","三重區"
"241023","545-UM","2019/09/24 20:19:38","新北市三重區忠孝路三段84巷5號","121.480241666667","25.0644283333333","6500200","三重區"
"241001","547-UM","2019/09/24 20:19:40","新北市三重區自強路四段31巷7號","121.489705","25.0767016666667","6500200","三重區"
"241019","KEA-2593","2019/09/24 20:19:30","新北市三重區大智街157號","121.490276666667","25.0716516666667","6500200","三重區"
"241003","743-BX","2019/09/24 20:19:36","新北市三重區五華街136-1號","121.491406666667","25.08363","6500200","三重區"
"241022","KED-0820","2019/09/24 20:19:33","新北市三重區新北大道一段50號","121.487635","25.0614316666667","6500200","三重區"
"241012","887-TS","2019/09/24 20:19:35","新北市三重區河邊北街266號","121.501646666667","25.0765","6500200","三重區"
"241029","942-UM","2019/09/24 20:19:38","新北市三重區重安街98號","121.492615","25.0562516666667","6500200","三重區"
"241033","AAC-255","2019/09/24 20:19:42","新北市三重區五谷王北街81號","121.475816666667","25.0509283333333","6500200","三重區"
"235066","003-UY","2019/09/24 20:19:36","新北市中和區保平路249號","121.50734","25.0039583333333","6500300","中和區"
"235040","150-BY","2019/09/24 20:19:46","新北市中和區安平路38號","121.509995","24.995005","6500300","中和區"
"247016","KEA-2869","2019/09/24 20:19:42","新北市蘆洲區中正路185巷47號","121.465658333333","25.08386","6501400","蘆洲區"
"247010","KED-0682","2019/09/24 20:19:28","新北市蘆洲區信義路224號","121.478905","25.0852733333333","6501400","蘆洲區"
"235050","4979-A6","2019/09/24 20:19:31","新北市中和區景安路82巷5號","121.505088333333","24.9961766666667","6500300","中和區"
"235069","4980-A6","2019/09/24 20:19:31","新北市中和區圓通路192號","121.496368333333","24.9945566666667","6500300","中和區"
"235059","AAC-215","2019/09/24 20:19:44","新北市中和區員山路30-3號","121.484061666667","24.9877933333333","6500300","中和區"
"220065","072-UY","2019/09/24 20:19:34","新北市板橋區南雅南路二段49號","121.451493333333","24.9944966666667","6500100","板橋區"
"247006","893-R6","2019/09/24 20:19:29","新北市蘆洲區九芎街153巷12號","121.46559","25.0787166666667","6501400","蘆洲區"
"247004","500-BY","2019/09/24 20:19:40","新北市蘆洲區長安街299巷46號","121.456571666667","25.084545","6501400","蘆洲區"
"247022","341-TH","2019/09/24 20:19:34","新北市蘆洲區三民路251號","121.468398333333","25.0894133333333","6501400","蘆洲區"
"247012","337-TH","2019/09/24 20:19:27","新北市蘆洲區中興街8號","121.480178333333","25.0868316666667","6501400","蘆洲區"
"247024","057-VK","2019/09/24 20:19:45","新北市蘆洲區光榮路120巷8弄39號","121.464581666667","25.08796","6501400","蘆洲區"
"247014","056-VK","2019/09/24 20:19:47","新北市蘆洲區中山一路238號","121.472498333333","25.0800766666667","6501400","蘆洲區"
"247018","053-VK","2019/09/24 20:19:46","新北市蘆洲區民族路402號","121.474771666667","25.0914033333333","6501400","蘆洲區"
"247008","002-UY","2019/09/24 20:19:36","新北市蘆洲區集賢路237號","121.481715","25.0851716666667","6501400","蘆洲區"
"247002","001-UY","2019/09/24 20:19:35","新北市蘆洲區長安街331巷26號","121.456243333333","25.086635","6501400","蘆洲區"
"224009","275-VK","2019/09/24 20:19:26","新北市瑞芳區民權街3-1號","121.809273333333","25.10826","6501200","瑞芳區"
"222001","KEA-2212","2019/09/24 20:19:34","新北市深坑區北深路三段251號","121.59928","25.00424","6501800","深坑區"
"251009","008-UM","2019/09/24 20:19:33","新北市淡水區清水街54-1號","121.444216666667","25.1702816666667","6501000","淡水區"
"251001","011-UM","2019/09/24 20:19:28","新北市淡水區淡金路二段15號","121.446356666667","25.1892266666667","6501000","淡水區"
"251015","KEA-2871","2019/09/24 20:19:32","新北市淡水區埤島79號","121.449571666667","25.1898283333333","6501000","淡水區"
"251016","179-VK","2019/09/24 20:19:31","新北市淡水區番子田18-3號","121.45449","25.2305083333333","6501000","淡水區"
"251008","181-VK","2019/09/24 20:19:31","新北市淡水區淡海路182巷15號","121.421033333333","25.1848516666667","6501000","淡水區"
"251013","182-VK","2019/09/24 20:19:40","新北市淡水區相公山1-2號","121.474511666667","25.2065566666667","6501000","淡水區"
"251010","413-VK","2019/09/24 20:19:41","新北市淡水區新民街一段134號","121.427698333333","25.1889733333333","6501000","淡水區"
"251012","441-VK","2019/09/24 20:19:36","新北市淡水區淡金路三段374號","121.449783333333","25.210015","6501000","淡水區"
"251006","561-UM","2019/09/24 20:19:29","新北市淡水區北新路141巷80弄26號","121.448135","25.1802866666667","6501000","淡水區"
"251014","577-R6","2019/09/24 20:19:46","新北市淡水區石頭厝1號","121.458735","25.2354533333333","6501000","淡水區"
"251002","672-BX","2019/09/24 20:19:47","新北市淡水區中正路248號","121.43883","25.1710733333333","6501000","淡水區"
"251003","673-BX","2019/09/24 20:19:37","新北市淡水區中山北路一段217號","121.44442","25.1791783333333","6501000","淡水區"
"207003","550-UM","2019/09/24 20:19:36","新北市萬里區野柳里八斗60號","121.668565","25.2032166666667","6502800","萬里區"
"207004","291-VK","2019/09/24 20:19:29","新北市萬里區北基里大仁路5號","121.68211","25.1753333333333","6502800","萬里區"
"252002","178-VK","2019/09/24 20:19:25","新北市三芝區中正路一段53號","121.50343","25.25804","6502100","三芝區"
"237006","5529-G3","2019/09/24 20:19:46","新北市三峽區中正路二段41號","121.366726666667","24.9188333333333","6500900","三峽區"
"236030","253-BX","2019/09/24 20:19:38","新北市土城區學成路128巷13弄2號","121.4496","24.9901433333333","6501300","土城區"
"236026","269-VK","2019/09/24 20:19:36","新北市土城區裕生路67巷6弄2號","121.447641666667","24.9844633333333","6501300","土城區"
"236014","270-VK","2019/09/24 20:19:48","新北市土城區四川路2號","121.455751666667","24.9962016666667","6501300","土城區"
"236070","KEA-2877","2019/09/24 20:19:33","新北市土城區中山路34號","121.424861666667","24.96382","6501300","土城區"
"252001","KED-0821","2019/09/24 20:19:40","新北市三芝區中山路一段14號","121.500646666667","25.2581083333333","6502100","三芝區"
"236059","912-UM","2019/09/24 20:19:39","新北市土城區大安路101-5號","121.433388333333","24.968495","6501300","土城區"
"242042","AAC-296","2019/09/24 20:19:33","新北市新莊區壽山路67號","121.409743333333","25.0326766666667","6500500","新莊區"
"242061","986-R7","2019/09/24 20:19:46","新北市新莊區瓊林路190號","121.439206666667","25.020775","6500500","新莊區"
"242005","751-BX","2019/09/24 20:19:44","新北市新莊區頭前路2巷8號","121.468495","25.052955","6500500","新莊區"
"242029","615-BX","2019/09/24 20:19:36","新北市新莊區中原路219號","121.450335","25.0542566666667","6500500","新莊區"
"242027","613-BX","2019/09/24 20:19:34","新北市新莊區中平路377巷17弄2號","121.44406","25.0523666666667","6500500","新莊區"
"242058","612-BX","2019/09/24 20:19:43","新北市新莊區龍安路278巷18號","121.421896666667","25.0185116666667","6500500","新莊區"
"242048","566-BX","2019/09/24 20:19:32","新北市新莊區四維路212巷4弄8號","121.421223333333","25.020615","6500500","新莊區"
"242054","497-BY","2019/09/24 20:19:35","新北市新莊區西盛街382巷1號","121.427481666667","25.0129983333333","6500500","新莊區"
"242013","442-UM","2019/09/24 20:19:47","新北市新莊區中信街63巷4弄6號","121.448843333333","25.0502383333333","6500500","新莊區"
"242002","441-UM","2019/09/24 20:19:34","新北市新莊區化成路31號","121.465148333333","25.0439883333333","6500500","新莊區"
"242007","440-UM","2019/09/24 20:19:38","新北市新莊區福壽街124巷41弄2號","121.459321666667","25.051315","6500500","新莊區"
"242044","415-TV","2019/09/24 20:19:32","新北市新莊區中正路895-15號","121.41277","25.0210683333333","6500500","新莊區"
"242051","400-BY","2019/09/24 20:19:44","新北市新莊區民安西路252巷31號","121.42522","25.0136433333333","6500500","新莊區"
"242025","362-BY","2019/09/24 20:19:43","新北市新莊區五工二路70巷2號","121.460341666667","25.0658066666667","6500500","新莊區"
"242023","353-BY","2019/09/24 20:19:36","新北市新莊區化成路752-7號","121.465443333333","25.0581966666667","6500500","新莊區"
"242015","132-UY","2019/09/24 20:19:44","新北市新莊區中和街31巷22號","121.447126666667","25.0438483333333","6500500","新莊區"
"242039","135-UY","2019/09/24 20:19:44","新北市新莊區成功街71號","121.424731666667","25.0200983333333","6500500","新莊區"
"242056","172-VK","2019/09/24 20:19:38","新北市新莊區新莊路649巷26弄33號","121.444328333333","25.032035","6500500","新莊區"
"242017","173-VK","2019/09/24 20:19:28","新北市新莊區中港一街46號","121.450523333333","25.04551","6500500","新莊區"
"242032","175-VK","2019/09/24 20:19:47","新北市新莊區中正路418號","121.440993333333","25.0338216666667","6500500","新莊區"
"242021","KED-0687","2019/09/24 20:19:40","新北市新莊區和興街3號","121.447643333333","25.0390216666667","6500500","新莊區"
"242009","349-TH","2019/09/24 20:19:41","新北市新莊區昌平街1號","121.45484","25.05129","6500500","新莊區"
"242034","350-TH","2019/09/24 20:19:39","新北市新莊區建中街90巷8號","121.44686","25.0373916666667","6500500","新莊區"
"242019","351-TH","2019/09/24 20:19:34","新北市新莊區銘德街1號","121.459326666667","25.04375","6500500","新莊區"
"221008","489-VK","2019/09/24 20:19:30","台北市內湖區康樂街201巷32號","121.62242","25.0765633333333","6501100","汐止區"
"221036","130-UY","2019/09/24 20:19:31","新北市汐止區福安街59巷1號","121.664005","25.0635416666667","6501100","汐止區"
"221015","131-UY","2019/09/24 20:19:30","新北市汐止區建成路160巷41號","121.661746666667","25.0739966666667","6501100","汐止區"
"221010","269-BY","2019/09/24 20:19:34","新北市汐止區八連路一段203號","121.640938333333","25.0810366666667","6501100","汐止區"
"221012","278-VK","2019/09/24 20:19:45","新北市汐止區汐平路一段59號","121.682466666667","25.07048","6501100","汐止區"
"221023","279-VK","2019/09/24 20:19:31","新北市汐止區明峰街298巷10弄1號","121.624978333333","25.06886","6501100","汐止區"
"221029","298-VK","2019/09/24 20:19:40","新北市汐止區樟樹一路99巷7弄4號","121.640996666667","25.063555","6501100","汐止區"
"221021","299-VK","2019/09/24 20:19:36","新北市汐止區水源路一段284號","121.654185","25.0583083333333","6501100","汐止區"
"221031","353-TW","2019/09/24 20:19:39","新北市汐止區福德二路104號","121.632248333333","25.0659916666667","6501100","汐止區"
"221033","645-BX","2019/09/24 20:19:44","新北市汐止區東勢街70號","121.633048333333","25.0402516666667","6501100","汐止區"
"221032","567-BX","2019/09/24 20:19:44","新北市汐止區弘道街45號","121.61815","25.048565","6501100","汐止區"
"221035","622-UM","2019/09/24 20:19:34","新北市汐止區長江街57巷22號","121.65598","25.0724033333333","6501100","汐止區"
"221025","623-UM","2019/09/24 20:19:22","新北市汐止區水源路二段30號","121.654916666667","25.0574583333333","6501100","汐止區"
"221038","646-BX","2019/09/24 20:19:37","新北市汐止區忠孝東路428-3號","121.666075","25.0721083333333","6501100","汐止區"
"221002","707-TV","2019/09/24 20:19:47","新北市汐止區福德一路86巷8號","121.63798","25.068765","6501100","汐止區"
"221018","753-BX","2019/09/24 20:19:44","新北市汐止區茄苳路268號","121.67202","25.0681283333333","6501100","汐止區"
"220079","145-BY","2019/09/24 20:19:34","新北市板橋區建國街112號","121.460253333333","25.017465","6500100","板橋區"
"220083","286-VK","2019/09/24 20:19:37","新北市板橋區大觀路一段38巷156弄147號","121.443801666667","25.0089783333333","6500100","板橋區"
"220081","287-VK","2019/09/24 20:19:36","新北市板橋區僑中一街80巷7弄5號","121.447541666667","25.01275","6500100","板橋區"
"242046","281-VK","2019/09/24 20:19:40","新北市新莊區中正路新生巷42號","121.41714","25.0233683333333","6500500","新莊區"
"242011","280-VK","2019/09/24 20:19:49","新北市新莊區中信街25號","121.450915","25.05073","6500500","新莊區"
"220054","741-BX","2019/09/24 20:19:39","新北市板橋區實踐路105號","121.463996666667","25.0053033333333","6500100","板橋區"
"220055","827-TW","2019/09/24 20:19:27","新北市板橋區重慶路290巷38號","121.461786666667","24.9987483333333","6500100","板橋區"
"220074","895-R6","2019/09/24 20:19:29","新北市板橋區南雅南路一段7巷22弄7號","121.455908333333","25.0047283333333","6500100","板橋區"
"220064","AAC-253","2019/09/24 20:19:38","新北市板橋區大觀路二段251號","121.4432","24.99912","6500100","板橋區"
"235068","KEA-2873","2019/09/24 20:19:38","新北市中和區福美路249號","121.498965","25.0051866666667","6500300","中和區"
"235026","KEA-2876","2019/09/24 19:53:51","新北市中和區員山路36巷16-3號","121.485036666667","24.9914583333333","6500300","中和區"
