"lineid","car","time","location","longitude","latitude","cityid","cityname"
"222002","659-BX","2019/09/24 20:59:44","新北市深坑區深南路32號","121.62074","25.0085","6501800","深坑區"
"231061","002-UM","2019/09/24 20:59:43","新北市新店區永安街60號","121.51901","24.9869333333333","6500600","新店區"
"231060","106-UY","2019/09/24 20:59:32","新北市新店區安康路三段527號","121.482465","24.9470916666667","6500600","新店區"
"231051","107-UY","2019/09/24 20:59:38","新北市新店區中正路663巷7弄15號","121.532905","24.990075","6500600","新店區"
"231049","108-UY","2019/09/24 20:59:43","新北市新店區柴埕路38-8號","121.513425","24.964945","6500600","新店區"
"231065","110-UY","2019/09/24 20:59:39","新北市新店區安祥路67巷50弄1號","121.48481","24.9590116666667","6500600","新店區"
"231068","187-VK","2019/09/24 20:59:40","新北市新店區寶中路73號","121.547468333333","24.9805483333333","6500600","新店區"
"231062","256-BX","2019/09/24 20:59:33","新北市新店區裕合街1號","121.490095","24.9500533333333","6500600","新店區"
"231042","268-BY","2019/09/24 20:59:29","新北市新店區寶興路60巷4號","121.54985","24.971865","6500600","新店區"
"231064","278-BY","2019/09/24 20:59:40","新北市新店區薏仁坑路6號","121.500593333333","24.958165","6500600","新店區"
"231050","AAD-862","2019/09/24 20:59:43","新北市新店區三民路40號","121.536163333333","24.9715016666667","6500600","新店區"
"231058","3713-VJ","2019/09/24 20:59:44","新北市新店區光華街38巷7號","121.515665","24.9699783333333","6500600","新店區"
"231054","515-UM","2019/09/24 20:59:47","新北市新店區中興路一段267號","121.544888333333","24.9676366666667","6500600","新店區"
"231040","617-UM","2019/09/24 20:59:41","新北市新店區中正路146號","121.541755","24.97154","6500600","新店區"
"231063","641-BX","2019/09/24 20:59:35","新北市新店區如意街97號","121.495453333333","24.9468783333333","6500600","新店區"
"231048","KED-0819","2019/09/24 20:59:35","新北市新店區文化路22-1號","121.543445","24.97969","6500600","新店區"
"231059","897-TW","2019/09/24 20:59:33","新北市新店區僑信路92號","121.499825","24.9477883333333","6500600","新店區"
"231043","899-TW","2019/09/24 20:59:46","新北市新店區中央路151號","121.529423333333","24.9722966666667","6500600","新店區"
"231066","AKT-0513","2019/09/24 20:59:34","新北市新店區安光路10-1號","121.51374","24.964065","6500600","新店區"
"241011","013-R5","2019/09/24 20:59:40","新北市三重區秀江街117號","121.499745","25.07221","6500200","三重區"
"241028","022-UY","2019/09/24 20:59:36","新北市三重區正義南路47號","121.498145","25.0606916666667","6500200","三重區"
"241008","059-VK","2019/09/24 20:59:33","新北市三重區車路頭街135-1號","121.484271666667","25.076075","6500200","三重區"
"241005","060-VK","2019/09/24 20:59:49","新北市三重區三信路182號","121.487885","25.0862233333333","6500200","三重區"
"241015","062-VK","2019/09/24 20:59:44","新北市三重區福德北路65號","121.502228333333","25.0656383333333","6500200","三重區"
"241017","063-VK","2019/09/24 20:59:50","新北市三重區大同北路128-1號","121.492505","25.064405","6500200","三重區"
"241024","065-VK","2019/09/24 20:59:42","新北市三重區大勇街82巷15弄30號","121.481261666667","25.0719766666667","6500200","三重區"
"241007","066-VK","2019/09/24 20:59:45","新北市三重區三和路四段145巷81號","121.48637","25.0787283333333","6500200","三重區"
"241002","090-VK","2019/09/24 20:59:39","新北市三重區仁義街161號","121.497253333333","25.0812216666667","6500200","三重區"
"241031","742-BX","2019/09/24 20:59:30","新北市三重區重陽路一段113巷3號","121.487503333333","25.05976","6500200","三重區"
"241006","262-UM","2019/09/24 20:59:46","新北市三重區永福街72巷53-1號","121.4809","25.0760766666667","6500200","三重區"
"241016","266-UM","2019/09/24 20:59:35","新北市三重區正義北路86號","121.496948333333","25.0645316666667","6500200","三重區"
"241009","267-UM","2019/09/24 20:59:40","新北市三重區車路頭街135-1號","121.48426","25.07599","6500200","三重區"
"241018","268-UM","2019/09/24 20:59:41","新北市三重區正義北路256巷60號","121.494603333333","25.0681483333333","6500200","三重區"
"241032","269-UM","2019/09/24 20:59:35","新北市三重區三陽路139號","121.482953333333","25.05887","6500200","三重區"
"241025","271-UM","2019/09/24 20:59:45","新北市三重區貴陽街14號","121.484191666667","25.0618483333333","6500200","三重區"
"241030","KED-0822","2019/09/24 20:59:40","新北市三重區中正南路269號","121.493266666667","25.0522383333333","6500200","三重區"
"241013","462-BY","2019/09/24 20:59:31","新北市三重區仁愛街129巷2號","121.495648333333","25.0749533333333","6500200","三重區"
"241004","475-VK","2019/09/24 20:59:41","新北市三重區仁愛街420號","121.490363333333","25.0814083333333","6500200","三重區"
"241020","478-VK","2019/09/24 20:59:40","新北市三重區忠孝路二段34號","121.485753333333","25.0710016666667","6500200","三重區"
"241026","480-VK","2019/09/24 20:59:50","新北市三重區文化南路42號","121.500423333333","25.0600766666667","6500200","三重區"
"241014","543-UM","2019/09/24 20:59:42","新北市三重區長壽街120巷11號","121.502443333333","25.069115","6500200","三重區"
"241023","545-UM","2019/09/24 20:59:38","新北市三重區忠孝路三段84巷63號","121.482331666667","25.0637283333333","6500200","三重區"
"241001","547-UM","2019/09/24 20:59:40","新北市三重區三和路四段156號","121.48803","25.075625","6500200","三重區"
"241019","KEA-2593","2019/09/24 20:59:30","新北市三重區自強路二段74巷21號","121.48797","25.0698233333333","6500200","三重區"
"241003","743-BX","2019/09/24 20:59:36","新北市三重區仁義街252號","121.493825","25.0859716666667","6500200","三重區"
"241022","KED-0820","2019/09/24 20:59:33","新北市三重區中正北路20巷12號","121.487986666667","25.06246","6500200","三重區"
"241012","887-TS","2019/09/24 20:59:35","新北市三重區龍門路274巷45號","121.501223333333","25.075545","6500200","三重區"
"241029","942-UM","2019/09/24 20:59:38","新北市三重區大同南路122巷15號","121.497416666667","25.0584933333333","6500200","三重區"
"241033","AAC-255","2019/09/24 20:59:42","新北市三重區光復路二段1號","121.472205","25.053295","6500200","三重區"
"235040","150-BY","2019/09/24 20:59:26","新北市中和區和城路一段271巷1號","121.485753333333","24.991955","6500300","中和區"
"247016","KEA-2869","2019/09/24 20:59:42","新北市蘆洲區正和街83號","121.468188333333","25.08072","6501400","蘆洲區"
"247010","KED-0682","2019/09/24 20:59:28","新北市蘆洲區鷺江街91號","121.476851666667","25.083685","6501400","蘆洲區"
"235069","4980-A6","2019/09/24 20:59:31","新北市中和區連城路477巷6弄17-3號","121.482406666667","24.99502","6500300","中和區"
"235018","640-BX","2019/09/24 20:56:35","新北市中和區員山路36巷16-2號","121.485228333333","24.9915033333333","6500300","中和區"
"220065","072-UY","2019/09/24 20:59:44","新北市樹林區柑園街一段1-2號","121.408223333333","24.9599683333333","6500100","板橋區"
"247006","893-R6","2019/09/24 20:59:29","新北市蘆洲區永安南路二段16巷5號","121.467745","25.0772216666667","6501400","蘆洲區"
"247020","546-UM","2019/09/24 20:59:42","新北市蘆洲區民族路484號","121.471085","25.09132","6501400","蘆洲區"
"247004","500-BY","2019/09/24 20:59:40","新北市蘆洲區永安南路二段268號","121.458615","25.0806916666667","6501400","蘆洲區"
"247012","337-TH","2019/09/24 20:59:46","新北市蘆洲區民權路6-1號","121.476773333333","25.0857033333333","6501400","蘆洲區"
"247024","057-VK","2019/09/24 20:59:45","新北市蘆洲區長興路213號","121.461116666667","25.086355","6501400","蘆洲區"
"247014","056-VK","2019/09/24 20:59:47","新北市蘆洲區中央路58號","121.47346","25.083945","6501400","蘆洲區"
"247018","053-VK","2019/09/24 20:59:46","新北市蘆洲區民權路87-2號","121.473056666667","25.0887716666667","6501400","蘆洲區"
"247008","002-UY","2019/09/24 20:59:35","新北市蘆洲區民生街76號","121.472811666667","25.0790616666667","6501400","蘆洲區"
"247002","001-UY","2019/09/24 20:59:35","新北市蘆洲區永樂街38巷69號","121.458573333333","25.09047","6501400","蘆洲區"
"251001","011-UM","2019/09/24 20:59:48","新北市淡水區新市一路三段101巷2號","121.446288333333","25.1831966666667","6501000","淡水區"
"251015","KEA-2871","2019/09/24 20:59:33","新北市淡水區淡金路四段542巷17號","121.4528","25.2270466666667","6501000","淡水區"
"251016","179-VK","2019/09/24 20:59:31","新北市淡水區牛埔子11-1號","121.450178333333","25.2184066666667","6501000","淡水區"
"251008","181-VK","2019/09/24 20:59:31","新北市淡水區中山北路三段163號","121.445281666667","25.1967216666667","6501000","淡水區"
"251013","182-VK","2019/09/24 20:59:40","新北市淡水區番子厝13號","121.46137","25.201415","6501000","淡水區"
"251010","413-VK","2019/09/24 20:59:41","新北市淡水區沙崙路145-1號","121.423516666667","25.1830433333333","6501000","淡水區"
"251012","441-VK","2019/09/24 20:59:36","新北市淡水區淡金路五段116-1號","121.456543333333","25.2368733333333","6501000","淡水區"
"251007","442-VK","2019/09/24 20:59:31","新北市淡水區仁愛街2巷8號","121.446313333333","25.1706833333333","6501000","淡水區"
"251005","443-VK","2019/09/24 20:59:43","新北市淡水區學府路51巷2弄4號","121.447785","25.16959","6501000","淡水區"
"251014","577-R6","2019/09/24 20:59:46","新北市淡水區溪口28號","121.455303333333","25.2366183333333","6501000","淡水區"
"251011","650-BX","2019/09/24 20:59:37","新北市淡水區新民街230號","121.4363","25.1808016666667","6501000","淡水區"
"251002","672-BX","2019/09/24 20:59:43","新北市淡水區英專路59號","121.445646666667","25.1710083333333","6501000","淡水區"
"251003","673-BX","2019/09/24 20:59:37","新北市淡水區新春街117號","121.441535","25.18192","6501000","淡水區"
"242005","751-BX","2019/09/24 20:59:04","新北市五股區中直路17-4號","121.422783333333","25.1113283333333","6500500","新莊區"
"242058","612-BX","2019/09/24 20:59:43","新北市泰山區新五路一段137號","121.439251666667","25.0637166666667","6500500","新莊區"
"242002","441-UM","2019/09/24 20:59:34","新北市五股區新城八路1號","121.447826666667","25.0886516666667","6500500","新莊區"
"242025","362-BY","2019/09/24 20:59:41","新北市八里區下罟子17號","121.3792","25.1427383333333","6500500","新莊區"
"242009","349-TH","2019/09/24 20:59:41","新北市三重區中興南街82號","121.470353333333","25.0429183333333","6500500","新莊區"
"221036","130-UY","2019/09/24 20:59:28","新北市汐止區仁愛路321-1號","121.664411666667","25.0676783333333","6501100","汐止區"
"221032","567-BX","2019/09/24 20:59:44","新北市汐止區民權街二段28號","121.619495","25.050125","6501100","汐止區"
"220064","AAC-253","2019/09/24 20:59:37","新北市土城區自強街15巷4號","121.43058","24.9715633333333","6500100","板橋區"
