"lineid","car","time","location","longitude","latitude","cityid","cityname"
"251008","181-VK","2019/09/24 21:59:31","新北市淡水區學府路104號","121.449866666667","25.17178","6501000","淡水區"
"251010","413-VK","2019/09/24 21:59:41","新北市淡水區沙崙路14號","121.42105","25.1810616666667","6501000","淡水區"
"251007","442-VK","2019/09/24 21:59:31","新北市淡水區北新路184巷19號","121.450278333333","25.1780583333333","6501000","淡水區"
"251005","443-VK","2019/09/24 21:59:23","新北市淡水區鄧公路30巷2弄24號","121.45367","25.1691166666667","6501000","淡水區"
"251006","561-UM","2019/09/24 21:59:36","新北市淡水區中正路二段31號","121.419255","25.18202","6501000","淡水區"
"251011","650-BX","2019/09/24 21:59:37","新北市淡水區水碓街5號","121.443135","25.17707","6501000","淡水區"
"251003","673-BX","2019/09/24 21:59:37","新北市淡水區新春街81號","121.438766666667","25.1824266666667","6501000","淡水區"
