"lineid","car","time","location","longitude","latitude","cityid","cityname"
"251004","009-UM","2019/09/24 22:09:27","新北市淡水區民族路33號","121.462305","25.1358283333333","6501000","淡水區"
"251008","181-VK","2019/09/24 22:09:31","新北市淡水區學府路104號","121.449858333333","25.1717816666667","6501000","淡水區"
"251010","413-VK","2019/09/24 22:09:41","新北市淡水區沙崙路200號","121.424583333333","25.1838333333333","6501000","淡水區"
"251007","442-VK","2019/09/24 22:09:31","新北市淡水區北新路180號","121.449508333333","25.17868","6501000","淡水區"
"251005","443-VK","2019/09/24 22:09:43","新北市淡水區鄧公路19號","121.451425","25.1700116666667","6501000","淡水區"
"251011","650-BX","2019/09/24 22:09:37","新北市淡水區水碓街7號","121.443173333333","25.1771","6501000","淡水區"
