"lineid","car","time","location","longitude","latitude","cityid","cityname"
"244022","483-VK","2019/10/03 10:09:45","新北市林口區民權路102號","121.373418333333","25.082635","6501700","林口區"
"222006","289-BY","2019/10/03 10:09:34","新北市深坑區王軍寮15號","121.61415","24.9823533333333","6501800","深坑區"
"231069","189-VK","2019/10/03 10:09:29","新北市新店區新潭路二段132號","121.51361","24.9221783333333","6500600","新店區"
"231008","192-VK","2019/10/03 10:09:30","新北市新店區小坑一路35巷2號","121.528215","24.9091883333333","6500600","新店區"
"252004","249-BX","2019/10/03 10:09:40","新北市三芝區福德里埔尾7-1號","121.503671666667","25.24626","6502100","三芝區"
"252007","AAC-283","2019/10/03 10:09:28","新北市三芝區古庄里古庄101-2號","121.494035","25.269635","6502100","三芝區"
"242035","497-BY","2019/10/03 10:09:40","新北市新莊區瓊泰路186號","121.443231666667","25.033485","6500500","新莊區"
"233003","KEA-2870","2019/10/03 09:51:22","新北市烏來區屯鹿33號","121.502091666667","24.797165","6502900","烏來區"
"220021","259-TC","2019/10/03 09:44:43","新北市板橋區華東街1-10號","121.448558333333","24.994835","6500100","板橋區"
