"lineid","car","time","location","longitude","latitude","cityid","cityname"
"244022","483-VK","2019/10/03 10:19:45","新北市林口區文林六街48號","121.371258333333","25.0816366666667","6501700","林口區"
"222006","289-BY","2019/10/03 10:19:34","新北市深坑區王軍寮15號","121.615091666667","24.982425","6501800","深坑區"
"231069","189-VK","2019/10/03 10:19:32","新北市新店區新潭路二段20號","121.527191666667","24.9261533333333","6500600","新店區"
"231008","192-VK","2019/10/03 10:19:30","新北市新店區廣興路22號","121.545988333333","24.9128666666667","6500600","新店區"
"252007","AAC-283","2019/10/03 10:19:49","新北市三芝區新庄里番社后18-2號","121.496065","25.274805","6502100","三芝區"
"233003","KEA-2870","2019/10/03 09:51:22","新北市烏來區屯鹿33號","121.502091666667","24.797165","6502900","烏來區"
