"lineid","car","time","location","longitude","latitude","cityid","cityname"
"244022","483-VK","2019/10/03 10:49:45","新北市林口區文林四街17號","121.374438333333","25.0858116666667","6501700","林口區"
"222006","289-BY","2019/10/03 10:49:34","新北市深坑區公館後2-3號","121.602966666667","24.99253","6501800","深坑區"
"231008","192-VK","2019/10/03 10:49:30","新北市新店區松林路16巷41號","121.545826666667","24.907025","6500600","新店區"
"233003","KEA-2870","2019/10/03 10:49:26","新北市烏來區信福路181-1號","121.515511666667","24.8191866666667","6502900","烏來區"
"220021","259-TC","2019/10/03 10:45:07","新北市板橋區華東街1-10號","121.4486","24.9948033333333","6500100","板橋區"
