"lineid","car","time","location","longitude","latitude","cityid","cityname"
"234044","148-BY","2019/10/03 14:09:30","新北市永和區得和路415號","121.525721666667","24.9992033333333","6500400","永和區"
"234078","298-R6","2019/10/03 14:09:37","新北市永和區國中路86巷1號","121.524606666667","25.00613","6500400","永和區"
"234036","336-UY","2019/10/03 14:09:34","新北市永和區成功路一段111號","121.52688","25.0022766666667","6500400","永和區"
"234062","337-UY","2019/10/03 14:09:31","新北市永和區永利路152號","121.522433333333","25.00276","6500400","永和區"
"234084","338-UY","2019/10/03 14:09:47","新北市永和區福和路189號","121.519738333333","25.007495","6500400","永和區"
"234068","552-UM","2019/10/03 14:09:31","新北市永和區福和路183巷1號","121.519951666667","25.007395","6500400","永和區"
"234015","745-BX","2019/10/03 14:09:38","新北市永和區永和路二段216號","121.51563","25.0139983333333","6500400","永和區"
"234028","746-BX","2019/10/03 14:09:47","新北市永和區民權路84號","121.519773333333","24.99707","6500400","永和區"
"234052","KEA-2590","2019/10/03 14:09:44","新北市永和區環河東路一段106號","121.5199","25.0159683333333","6500400","永和區"
"234005","KED-0605","2019/10/03 14:09:40","新北市永和區中和路395號","121.508686666667","25.0002983333333","6500400","永和區"
"234012","KEA-2591","2019/10/03 14:09:32","新北市永和區永貞路405號","121.50766","25.0091383333333","6500400","永和區"
"234060","AAD-866","2019/10/03 14:09:37","新北市永和區安樂路166號","121.514421666667","25.00087","6500400","永和區"
"234040","862-TW","2019/10/03 14:09:38","新北市永和區雙和街60號","121.508965","25.003355","6500400","永和區"
"234048","863-TW","2019/10/03 14:09:37","新北市永和區環河西路二段87號","121.506701666667","25.0149583333333","6500400","永和區"
"234025","9371-KE","2019/10/03 14:09:30","新北市永和區安樂路270號","121.51447","25.00411","6500400","永和區"
"248015","025-BX","2019/10/03 14:09:43","新北市五股區成泰路三段543巷24號","121.450798333333","25.1023383333333","6501500","五股區"
"248007","KED-0815","2019/10/03 14:09:31","新北市五股區中興路二段37巷26號","121.460576666667","25.0750666666667","6501500","五股區"
"248017","KED-0813","2019/10/03 14:09:35","新北市五股區民義路二段48巷1-8號","121.41422","25.10286","6501500","五股區"
"248011","247-BX","2019/10/03 14:09:36","新北市五股區工商路36巷16號","121.439805","25.0842783333333","6501500","五股區"
"248003","677-BX","2019/10/03 14:09:33","新北市五股區工商路148-2號","121.433686666667","25.0872083333333","6501500","五股區"
"248001","678-BX","2019/10/03 14:09:37","新北市五股區成泰路三段577巷82號","121.449658333333","25.1037716666667","6501500","五股區"
"234022","9380-KE","2019/10/03 14:09:37","新北市永和區博愛街32巷18號","121.518725","25.0151983333333","6500400","永和區"
"234076","969-R7","2019/10/03 14:09:30","新北市永和區民族街67巷7號","121.51879","24.997295","6500400","永和區"
"234072","AAC-211","2019/10/03 14:09:35","新北市永和區竹林路201巷24弄1號","121.5223","25.00969","6500400","永和區"
"234066","AAC-212","2019/10/03 14:09:47","新北市永和區保平路238號","121.509263333333","25.0055283333333","6500400","永和區"
"234001","AAC-295","2019/10/03 14:09:48","新北市永和區中正路609巷24號","121.515973333333","25.0090383333333","6500400","永和區"
"244003","248-BX","2019/10/03 14:09:42","新北市林口區太平里2-3號","121.361476666667","25.1342616666667","6501700","林口區"
"243003","267-VK","2019/10/03 14:09:26","新北市泰山區明志路二段323號","121.42635","25.0459433333333","6501600","泰山區"
"243004","AAD-798","2019/10/03 14:09:19","新北市泰山區辭修路10-7號","121.42983","25.0579716666667","6501600","泰山區"
"243002","297-R6","2019/10/03 14:09:41","新北市泰山區明志路一段460號","121.430503333333","25.0555566666667","6501600","泰山區"
"243006","KEA-2801","2019/10/03 14:09:46","新北市泰山區泰林路二段442巷1號","121.426266666667","25.0643966666667","6501600","泰山區"
"243008","421-VK","2019/10/03 14:09:32","新北市泰山區明志路二段343號","121.425541666667","25.0444616666667","6501600","泰山區"
"243001","KEA-2215","2019/10/03 14:09:31","新北市泰山區楓江路25巷3號","121.434428333333","25.06317","6501600","泰山區"
"243005","646-TV","2019/10/03 14:09:34","新北市泰山區明志路三段277號","121.423055","25.0368566666667","6501600","泰山區"
"243007","680-BX","2019/10/03 14:09:32","新北市泰山區明志路一段368號","121.430795","25.0578833333333","6501600","泰山區"
"231030","002-UM","2019/10/03 14:09:39","新北市新店區安興路7-1號","121.515016666667","24.96854","6500600","新店區"
"231005","046-UY","2019/10/03 14:09:31","新北市新店區中興路三段302號","121.542406666667","24.9852016666667","6500600","新店區"
"231029","106-UY","2019/10/03 14:09:33","新北市新店區安康路二段115-1號","121.512493333333","24.9616266666667","6500600","新店區"
"231018","107-UY","2019/10/03 14:09:35","新北市新店區中央五街46號","121.528156666667","24.975105","6500600","新店區"
"231013","108-UY","2019/10/03 14:09:37","新北市新店區二十張路1巷5號","121.540403333333","24.9820583333333","6500600","新店區"
"231036","110-UY","2019/10/03 14:09:38","新北市新店區安祥路109巷3弄64號","121.477651666667","24.9611583333333","6500600","新店區"
"231031","256-BX","2019/10/03 14:09:26","新北市新店區永業路12號","121.533585","24.9559733333333","6500600","新店區"
"231023","260-TV","2019/10/03 14:09:38","新北市新店區文中路45號","121.539556666667","24.956795","6500600","新店區"
"231035","278-BY","2019/10/03 14:09:31","新北市新店區安和路二段115號","121.518683333333","24.9704316666667","6500600","新店區"
"231017","AAD-862","2019/10/03 14:09:38","新北市新店區北宜路二段150號","121.557726666667","24.9530883333333","6500600","新店區"
"231006","355-BY","2019/10/03 14:09:41","新北市新店區北宜路二段167巷4弄22號","121.552985","24.9535316666667","6500600","新店區"
"231038","3712-VJ","2019/10/03 14:09:30","新北市新店區溪洲路101-1號","121.532178333333","24.9623666666667","6500600","新店區"
"231027","3713-VJ","2019/10/03 14:09:31","新北市新店區北宜路一段7號","121.538418333333","24.9583333333333","6500600","新店區"
"231024","4716-K9","2019/10/03 14:09:47","新北市新店區中央二街79號","121.525838333333","24.974965","6500600","新店區"
"231025","4715-K9","2019/10/03 14:09:44","新北市新店區自立街45巷1號","121.537148333333","24.9799033333333","6500600","新店區"
"231021","513-UM","2019/10/03 14:09:43","新北市新店區屈尺路83號","121.545131666667","24.9226833333333","6500600","新店區"
"231003","618-UM","2019/10/03 14:09:42","新北市新店區中興路一段108號","121.541006666667","24.9618033333333","6500600","新店區"
"231002","619-UM","2019/10/03 14:09:35","新北市新店區中正路500號","121.534011666667","24.9820733333333","6500600","新店區"
"231034","641-BX","2019/10/03 14:09:34","新北市新店區車子路16號","121.505036666667","24.9537633333333","6500600","新店區"
"231011","KED-0819","2019/10/03 14:09:44","新北市新店區五峰路140號","121.544918333333","24.965705","6500600","新店區"
"231026","720-UM","2019/10/03 14:09:34","新北市新店區安康路一段355號","121.519553333333","24.9631183333333","6500600","新店區"
"231028","897-TW","2019/10/03 14:09:39","新北市新店區安和路三段89號","121.517866666667","24.9839733333333","6500600","新店區"
"231001","898-TW","2019/10/03 14:09:36","新北市新店區三民路20巷4號","121.537845","24.97064","6500600","新店區"
"231004","899-TW","2019/10/03 14:09:46","新北市新店區北新路二段193號","121.54268","24.9780716666667","6500600","新店區"
"231037","AKT-0513","2019/10/03 14:09:34","新北市新店區安康路三段207巷15號","121.488386666667","24.95087","6500600","新店區"
"235030","003-UY","2019/10/03 14:09:45","新北市中和區廣福路112號","121.502156666667","25.00115","6500300","中和區"
"235027","006-UY","2019/10/03 14:09:39","新北市中和區連城路249巷21弄2號","121.494066666667","24.99597","6500300","中和區"
"235020","096-UM","2019/10/03 14:09:31","新北市中和區中正路1173號","121.481095","25.0096783333333","6500300","中和區"
"235003","097-UM","2019/10/03 14:09:31","新北市中和區秀峰街119巷6弄2號","121.519645","24.9900016666667","6500300","中和區"
"235029","098-UM","2019/10/03 14:09:43","新北市中和區中山路二段64巷12弄15號","121.504141666667","25.0056533333333","6500300","中和區"
"235004","150-BY","2019/10/03 14:09:15","新北市中和區中安街178巷13弄16號","121.510415","24.9982016666667","6500300","中和區"
"235022","151-BY","2019/10/03 14:09:44","新北市中和區連城路477巷6弄4號","121.482986666667","24.9951783333333","6500300","中和區"
"235019","183-VK","2019/10/03 14:09:43","新北市中和區中山路三段177號","121.472818333333","25.0062233333333","6500300","中和區"
"235002","185-VK","2019/10/03 14:09:33","新北市中和區大仁街20巷25弄19號","121.518503333333","24.9936583333333","6500300","中和區"
"235031","255-BX","2019/10/03 14:09:49","新北市中和區連城路270號","121.484906666667","24.9963666666667","6500300","中和區"
"235008","293-VK","2019/10/03 14:09:35","新北市中和區中興街235巷1號","121.500705","24.989585","6500300","中和區"
"235036","301-VK","2019/10/03 14:09:36","新北市中和區永和路1號","121.499748333333","25.0027916666667","6500300","中和區"
"235007","352-BY","2019/10/03 14:09:30","新北市中和區景平路136號","121.518738333333","24.992045","6500300","中和區"
"235006","KEA-2878","2019/10/03 14:09:48","新北市中和區自強路62巷12號","121.519378333333","24.9946333333333","6500300","中和區"
"247015","KEA-2869","2019/10/03 14:09:36","新北市蘆洲區光華路46巷46號","121.467601666667","25.0845283333333","6501400","蘆洲區"
"247009","KED-0682","2019/10/03 14:09:41","新北市蘆洲區三民路50號","121.475513333333","25.083285","6501400","蘆洲區"
"235014","4979-A6","2019/10/03 14:09:36","新北市中和區復興路280巷18弄11號","121.501901666667","24.9924316666667","6500300","中和區"
"235033","4980-A6","2019/10/03 14:09:39","新北市中和區中山路二段178巷1號","121.500678333333","25.002955","6500300","中和區"
"235010","551-UM","2019/10/03 14:08:29","新北市中和區員山路36巷13號","121.484033333333","24.9910383333333","6500300","中和區"
"235034","558-UM","2019/10/03 14:09:40","新北市中和區中和路67號","121.500681666667","25.0011316666667","6500300","中和區"
"235009","565-BX","2019/10/03 14:09:09","新北市中和區景新街467巷35弄1號","121.51465","24.988935","6500300","中和區"
"235024","KED-0823","2019/10/03 14:09:29","新北市中和區新生街114巷10號","121.48299","25.0023933333333","6500300","中和區"
"235018","640-BX","2019/10/03 14:09:43","新北市中和區國光街107巷2弄25號","121.469615","24.9992866666667","6500300","中和區"
"235011","732-UM","2019/10/03 14:09:47","新北市中和區和平街2巷6弄7號","121.509928333333","24.99135","6500300","中和區"
"235035","783-BX","2019/10/03 14:09:37","新北市中和區橋和路81號","121.489488333333","25.0052733333333","6500300","中和區"
"235021","801-TS","2019/10/03 14:09:36","新北市中和區中山路三段37巷37號","121.479785","25.0047866666667","6500300","中和區"
"235005","802-TS","2019/10/03 14:09:30","新北市中和區中安街178巷13弄6號","121.510323333333","24.9985866666667","6500300","中和區"
"235016","805-TS","2019/10/03 14:09:36","新北市中和區興南路二段114巷2號","121.50427","24.9842816666667","6500300","中和區"
"235012","896-TW","2019/10/03 14:09:35","新北市中和區華新街109巷32號","121.508776666667","24.98009","6500300","中和區"
"235017","900-TW","2019/10/03 14:09:41","新北市中和區華福街57巷12號","121.466843333333","24.997125","6500300","中和區"
"235028","911-UM","2019/10/03 14:09:31","新北市中和區連城路4號","121.499143333333","25.00251","6500300","中和區"
"235015","157-BY","2019/10/03 14:09:41","新北市中和區興南路一段61號","121.510456666667","24.989785","6500300","中和區"
"235001","AAC-213","2019/10/03 14:09:44","新北市中和區秀朗路三段10巷37弄13號","121.524086666667","24.9957183333333","6500300","中和區"
"235023","AAC-215","2019/10/03 14:09:44","新北市中和區圓通路431號","121.488001666667","24.9888983333333","6500300","中和區"
"220013","072-UY","2019/10/03 14:09:48","新北市板橋區民族路219巷8號","121.469533333333","25.00764","6500100","板橋區"
"220034","073-UY","2019/10/03 14:09:33","新北市板橋區中正路236巷13號","121.45654","25.0192416666667","6500100","板橋區"
"220105","075-UY","2019/10/03 14:09:44","新北市板橋區雙十路三段48號","121.47103","25.031315","6500100","板橋區"
"220017","AAD-861","2019/10/03 14:09:35","新北市板橋區華興街33-2號","121.458426666667","25.004635","6500100","板橋區"
"247005","893-R6","2019/10/03 14:09:40","新北市蘆洲區九芎街82號","121.466178333333","25.0795416666667","6501400","蘆洲區"
"247019","546-UM","2019/10/03 14:09:41","新北市蘆洲區民族路426巷22號","121.473061666667","25.0927883333333","6501400","蘆洲區"
"247011","337-TH","2019/10/03 14:09:45","新北市蘆洲區信義路300號","121.477543333333","25.0876016666667","6501400","蘆洲區"
"247003","336-TH","2019/10/03 14:09:28","新北市蘆洲區長安街110號","121.461126666667","25.08162","6501400","蘆洲區"
"247023","057-VK","2019/10/03 14:09:44","新北市蘆洲區光榮路88號","121.463615","25.0888883333333","6501400","蘆洲區"
"247013","056-VK","2019/10/03 14:09:48","新北市蘆洲區三民路165號","121.471328333333","25.0869233333333","6501400","蘆洲區"
"247017","053-VK","2019/10/03 14:09:45","新北市蘆洲區民族路227巷20號","121.476893333333","25.0891866666667","6501400","蘆洲區"
"247021","007-UY","2019/10/03 14:09:30","新北市蘆洲區三民路155號","121.471375","25.0868416666667","6501400","蘆洲區"
"247007","002-UY","2019/10/03 14:09:43","新北市蘆洲區中山一路298號","121.470441666667","25.0780583333333","6501400","蘆洲區"
"247001","001-UY","2019/10/03 14:09:45","新北市蘆洲區永平街65號","121.457185","25.09168","6501400","蘆洲區"
"235013","251-BX","2019/10/03 14:09:36","新北市中和區景新街218號","121.507131666667","24.9950566666667","6500300","中和區"
"228005","097-TW","2019/10/03 14:09:41","新北市貢寮區美豐里土地公嶺10號","121.889595","25.0570766666667","6502600","貢寮區"
"228004","212-TW","2019/10/03 14:09:40","新北市貢寮區雙玉里德心街9-1號","121.917903333333","25.0158333333333","6502600","貢寮區"
"253003","6232-TK","2019/10/03 14:09:26","新北市石門區內石門62號","121.577998333333","25.2658633333333","6502200","石門區"
"253004","6251-TK","2019/10/03 14:09:22","新北市石門區小坑51-3號","121.597696666667","25.25794","6502200","石門區"
"253002","637-UY","2019/10/03 14:09:38","新北市石門區七股33-1號","121.552675","25.2612783333333","6502200","石門區"
"253001","KEC-0718","2019/10/03 14:08:17","新北市石門區八甲49-1號","121.531231666667","25.2678533333333","6502200","石門區"
"207002","749-BX","2019/10/03 14:09:30","新北市萬里區溪底里瑞泉路8-2號","121.607951666667","25.144255","6502800","萬里區"
"252005","073-UM","2019/10/03 14:09:36","新北市三芝區橫山里橫山57-3號","121.536496666667","25.2520583333333","6502100","三芝區"
"207001","662-BX","2019/10/03 14:09:49","新北市萬里區磺潭里清水18號","121.637885","25.1976983333333","6502800","萬里區"
"236040","KED-0685","2019/10/03 14:09:27","新北市土城區中央路一段287號","121.444421666667","24.9844033333333","6501300","土城區"
"236074","166-UM","2019/10/03 14:09:31","新北市土城區永和街5號","121.434593333333","24.9650983333333","6501300","土城區"
"236029","253-BX","2019/10/03 14:09:29","新北市土城區城林路6巷80號","121.438435","24.9797716666667","6501300","土城區"
"236024","269-VK","2019/10/03 14:09:34","新北市土城區千歲路22號","121.441511666667","24.969065","6501300","土城區"
"236012","270-VK","2019/10/03 14:09:33","新北市土城區學府路一段202號","121.452703333333","24.9857266666667","6501300","土城區"
"236032","271-VK","2019/10/03 14:09:47","新北市土城區青雲路449-1號","121.458863333333","24.9747116666667","6501300","土城區"
"236068","KEA-2877","2019/10/03 14:09:44","新北市土城區明德路一段128巷2號","121.463228333333","24.9790883333333","6501300","土城區"
"236017","401-BY","2019/10/03 14:09:50","新北市土城區中正路75號","121.444926666667","24.9757616666667","6501300","土城區"
"236057","912-UM","2019/10/03 14:09:28","新北市土城區中央路四段168號","121.41686","24.9580633333333","6501300","土城區"
"236045","913-UM","2019/10/03 14:09:34","新北市土城區明德路一段365-1號","121.453526666667","24.9790783333333","6501300","土城區"
"236060","915-UM","2019/10/03 14:09:38","新北市土城區中正路75號","121.445021666667","24.9757666666667","6501300","土城區"
"236054","AAC-216","2019/10/03 14:09:30","新北市土城區中華路二段92號","121.43822","24.974755","6501300","土城區"
"221032","280-BY","2019/10/03 14:09:41","新北市汐止區大同路二段273號","121.652415","25.0679116666667","6501100","汐止區"
"220027","145-BY","2019/10/03 14:09:32","新北市板橋區民權路117號","121.458531666667","25.0132283333333","6500100","板橋區"
"220028","200-UY","2019/10/03 14:09:39","新北市板橋區大觀路二段7巷45號","121.448386666667","25.00336","6500100","板橋區"
"220030","610-BX","2019/10/03 14:09:48","新北市板橋區滿平街37-1號","121.426916666667","24.9897583333333","6500100","板橋區"
"220004","276-BY","2019/10/03 14:09:31","新北市板橋區信義路74巷2弄1號","121.457035","24.9931283333333","6500100","板橋區"
"220020","277-BY","2019/10/03 14:09:45","新北市板橋區金門街222號","121.430995","24.9881766666667","6500100","板橋區"
"220050","280-UM","2019/10/03 14:09:42","新北市板橋區莊敬路6-1號","121.47381","25.02796","6500100","板橋區"
"220019","283-VK","2019/10/03 14:09:31","新北市板橋區忠孝路132巷39號","121.463951666667","25.0014233333333","6500100","板橋區"
"220043","285-UM","2019/10/03 14:09:37","新北市板橋區吳鳳路21巷2號","121.466938333333","25.0312583333333","6500100","板橋區"
"220031","286-VK","2019/10/03 14:09:35","新北市板橋區大觀路二段174巷165弄18號","121.441268333333","25.0037066666667","6500100","板橋區"
"220029","287-VK","2019/10/03 14:09:38","新北市板橋區南雅西路二段199號","121.451641666667","25.01332","6500100","板橋區"
"220039","288-VK","2019/10/03 14:09:45","新北市板橋區長江路一段106巷13弄5號","121.46031","25.0292466666667","6500100","板橋區"
"220009","293-UM","2019/10/03 14:09:28","新北市板橋區中山路二段326-2號","121.481105","25.01945","6500100","板橋區"
"220032","296-UM","2019/10/03 14:09:32","新北市板橋區大觀路三段207號","121.43141","24.9931333333333","6500100","板橋區"
"220023","303-R5","2019/10/03 14:09:41","新北市板橋區大智街25巷22號","121.45446","25.0148283333333","6500100","板橋區"
"220010","305-R5","2019/10/03 14:09:40","新北市板橋區三民路二段居仁巷1弄31號","121.480138333333","25.0136583333333","6500100","板橋區"
"220041","307-R5","2019/10/03 14:09:29","新北市板橋區松江街72巷29號","121.46983","25.0278783333333","6500100","板橋區"
"220047","317-R6","2019/10/03 14:09:45","新北市板橋區民有街47號","121.465603333333","25.02594","6500100","板橋區"
"220038","487-VK","2019/10/03 14:09:29","新北市板橋區文化路一段339號","121.466521666667","25.0206116666667","6500100","板橋區"
"220037","491-VK","2019/10/03 14:09:45","新北市板橋區文化路二段182巷3弄12號","121.471831666667","25.0274883333333","6500100","板橋區"
"220104","560-BX","2019/10/03 14:09:31","新北市板橋區中正路379巷1弄32號","121.453116666667","25.0218283333333","6500100","板橋區"
"220052","561-BX","2019/10/03 14:09:39","新北市板橋區文化路一段268號","121.467355","25.0207416666667","6500100","板橋區"
"220011","609-BX","2019/10/03 14:09:44","新北市板橋區三民路二段169號","121.479085","25.0145016666667","6500100","板橋區"
"220040","637-BX","2019/10/03 14:09:38","新北市板橋區文聖街210號","121.480428333333","25.0256316666667","6500100","板橋區"
"220005","686-BX","2019/10/03 14:09:44","新北市板橋區和平路143巷10號","121.46323","24.99593","6500100","板橋區"
"220025","687-BX","2019/10/03 14:09:46","新北市板橋區大觀路二段174巷210號","121.442416666667","25.0042566666667","6500100","板橋區"
"220002","741-BX","2019/10/03 14:09:43","新北市板橋區重慶路102號","121.461993333333","25.0058166666667","6500100","板橋區"
"220051","KEA-2699","2019/10/03 14:09:40","新北市板橋區萬板路706號","121.481475","25.0273483333333","6500100","板橋區"
"220003","827-TW","2019/10/03 14:09:30","新北市板橋區新民街4巷21號","121.465391666667","25.00998","6500100","板橋區"
"220014","829-TW","2019/10/03 14:09:45","新北市板橋區民享街116巷6號","121.478203333333","25.0155833333333","6500100","板橋區"
"220016","830-TW","2019/10/03 14:09:46","新北市板橋區翠華街6巷15號","121.481005","25.0243533333333","6500100","板橋區"
"220001","831-TW","2019/10/03 14:09:30","新北市板橋區懷仁街25巷18號","121.476956666667","25.02001","6500100","板橋區"
"220022","895-R6","2019/10/03 14:09:37","新北市板橋區西門街55巷1號","121.454091666667","25.0101633333333","6500100","板橋區"
"220021","985-R7","2019/10/03 14:09:40","新北市板橋區北門街61號","121.456138333333","25.0119116666667","6500100","板橋區"
"220046","AAC-210","2019/10/03 14:09:40","新北市板橋區幸福路32巷3弄12號","121.460803333333","25.020695","6500100","板橋區"
"220012","AAC-253","2019/10/03 14:09:36","新北市板橋區漢生東路83巷2號","121.466865","25.0157766666667","6500100","板橋區"
"235032","KEA-2873","2019/10/03 14:09:28","新北市中和區景平路493巷8號","121.499276666667","24.997175","6500300","中和區"
"235025","KEA-2875","2019/10/03 14:09:19","新北市中和區民利街71號","121.47872","24.9982683333333","6500300","中和區"
"235026","KEA-2876","2019/10/03 14:09:25","新北市中和區中山路二段414號","121.489846666667","25.0038516666667","6500300","中和區"
