"lineid","car","time","location","longitude","latitude","cityid","cityname"
"244003","248-BX","2019/10/03 15:29:42","新北市林口區中山路1號","121.397031666667","25.0778583333333","6501700","林口區"
"231030","002-UM","2019/10/03 15:29:39","新北市新店區安和路三段61號","121.517955","24.98341","6500600","新店區"
"231005","046-UY","2019/10/03 15:29:33","新北市新店區建國路233號","121.537551666667","24.9818183333333","6500600","新店區"
"231029","106-UY","2019/10/03 15:29:33","新北市新店區安康路三段535號","121.480116666667","24.94775","6500600","新店區"
"231018","107-UY","2019/10/03 15:29:35","新北市新店區民生路145巷1號","121.528815","24.9809866666667","6500600","新店區"
"231013","108-UY","2019/10/03 15:29:37","新北市新店區永業路81巷5弄3號","121.530308333333","24.9490583333333","6500600","新店區"
"231036","110-UY","2019/10/03 15:29:38","新北市新店區安祥路67巷50弄1號","121.484816666667","24.959015","6500600","新店區"
"231039","187-VK","2019/10/03 15:29:47","新北市新店區寶元路一段52號","121.543896666667","24.9846216666667","6500600","新店區"
"231031","256-BX","2019/10/03 15:29:32","新北市新店區和成街19巷24號","121.487651666667","24.946075","6500600","新店區"
"231023","260-TV","2019/10/03 15:29:38","新北市新店區五峰路26號","121.543643333333","24.969045","6500600","新店區"
"231035","278-BY","2019/10/03 15:29:31","新北市新店區安民街365巷7弄2號","121.515846666667","24.97528","6500600","新店區"
"231017","AAD-862","2019/10/03 15:25:18","新北市新店區明山路3號","121.56286","24.9546983333333","6500600","新店區"
"231038","3712-VJ","2019/10/03 15:29:30","新北市新店區安康路一段266巷4號","121.519976666667","24.9638966666667","6500600","新店區"
"231024","4716-K9","2019/10/03 15:29:47","新北市新店區安康路二段66號","121.514815","24.963615","6500600","新店區"
"231025","4715-K9","2019/10/03 15:29:44","新北市新店區安光路16號","121.513738333333","24.964755","6500600","新店區"
"231021","513-UM","2019/10/03 15:29:28","新北市新店區湖興路109號","121.561325","24.9372866666667","6500600","新店區"
"231003","618-UM","2019/10/03 15:29:42","新北市新店區寶高路120巷1號","121.554668333333","24.9760716666667","6500600","新店區"
"231002","619-UM","2019/10/03 15:29:34","新北市新店區環河路152號","121.535338333333","24.966545","6500600","新店區"
"231034","641-BX","2019/10/03 15:29:31","新北市新店區玫瑰路16號","121.49474","24.9502316666667","6500600","新店區"
"231011","KED-0819","2019/10/03 15:29:44","新北市新店區文化路92號","121.545001666667","24.9826116666667","6500600","新店區"
"231028","897-TW","2019/10/03 15:29:37","新北市新店區僑信路122號","121.500463333333","24.9464066666667","6500600","新店區"
"231001","898-TW","2019/10/03 15:29:36","新北市新店區光明街191號","121.53999","24.96339","6500600","新店區"
"231004","899-TW","2019/10/03 15:29:46","新北市新店區民族路108號","121.538176666667","24.9773766666667","6500600","新店區"
"231037","AKT-0513","2019/10/03 15:29:34","新北市新店區安民街365巷14號","121.515811666667","24.9754966666667","6500600","新店區"
"241019","060-VK","2019/10/03 15:29:39","新北市三重區重新路四段121號","121.485058333333","25.0522016666667","6500200","三重區"
"241017","063-VK","2019/10/03 15:29:47","新北市三重區重新路四段121號","121.485263333333","25.052085","6500200","三重區"
"241007","066-VK","2019/10/03 15:29:32","新北市三重區重新路四段121號","121.484961666667","25.0519883333333","6500200","三重區"
"241013","270-UM","2019/10/03 15:29:39","新北市三重區重新路四段121號","121.484613333333","25.0520016666667","6500200","三重區"
"241020","478-VK","2019/10/03 15:29:34","新北市三重區重新路四段121號","121.484816666667","25.05254","6500200","三重區"
"241012","743-BX","2019/10/03 15:29:30","新北市三重區重新路四段121號","121.48505","25.0521583333333","6500200","三重區"
"241029","942-UM","2019/10/03 15:29:46","新北市三重區成功路112-2號","121.486561666667","25.051975","6500200","三重區"
"235019","183-VK","2019/10/03 15:29:43","新北市八里區中山路三段409號","121.368458333333","25.1349366666667","6500300","中和區"
"235033","4980-A6","2019/10/03 15:29:39","新北市中和區連城路347巷18弄30號","121.487373333333","24.9947566666667","6500300","中和區"
"235010","551-UM","2019/10/03 15:29:40","新北市中和區員山路36巷13號","121.484145","24.9909366666667","6500300","中和區"
"235023","AAC-215","2019/10/03 15:29:43","新北市中和區員山路28-8號","121.482728333333","24.987565","6500300","中和區"
"220013","072-UY","2019/10/03 15:29:28","新北市樹林區環河路2-2號","121.425531666667","24.9769416666667","6500100","板橋區"
"220034","073-UY","2019/10/03 15:29:32","新北市樹林區太平路262號","121.418185","24.972405","6500100","板橋區"
"207001","662-BX","2019/10/03 15:29:49","新北市萬里區龜吼里玉田路4-2號","121.68229","25.1845233333333","6502800","萬里區"
"236040","KED-0685","2019/10/03 15:29:47","新北市土城區學府路一段98巷25-1號","121.455218333333","24.9886066666667","6501300","土城區"
"236074","166-UM","2019/10/03 15:29:50","新北市三峽區介壽路三段245號","121.407898333333","24.9495983333333","6501300","土城區"
"236029","253-BX","2019/10/03 15:29:49","新北市土城區日新街8巷6號","121.445441666667","24.9873266666667","6501300","土城區"
"236024","269-VK","2019/10/03 15:29:34","新北市土城區員林街69號","121.444335","24.9773083333333","6501300","土城區"
"236012","270-VK","2019/10/03 15:29:33","新北市土城區德興街133號","121.454993333333","24.99167","6501300","土城區"
"236032","271-VK","2019/10/03 15:29:47","新北市土城區延吉街296巷1弄1號","121.464416666667","24.984335","6501300","土城區"
"236068","KEA-2877","2019/10/03 15:29:44","新北市土城區中央路二段192巷3號","121.441325","24.9759283333333","6501300","土城區"
"236017","401-BY","2019/10/03 15:29:30","新北市土城區延吉街62號","121.471391666667","24.9867816666667","6501300","土城區"
"236057","912-UM","2019/10/03 15:29:48","新北市土城區中華路二段2號","121.438833333333","24.9797483333333","6501300","土城區"
"236045","913-UM","2019/10/03 15:29:36","新北市土城區青雲路199號","121.459181666667","24.982285","6501300","土城區"
"236060","915-UM","2019/10/03 15:29:38","新北市土城區金城路三段73巷4弄2號","121.466395","24.9877266666667","6501300","土城區"
"236054","AAC-216","2019/10/03 15:29:50","新北市土城區延和路258號","121.46999","24.989445","6501300","土城區"
"238002","755-BX","2019/10/03 15:29:33","新北市樹林區中興街53-3號","121.420943333333","24.9909533333333","6500700","樹林區"
"238010","601-UM","2019/10/03 15:29:50","新北市樹林區三福街62號","121.405016666667","25.0162816666667","6500700","樹林區"
"238006","599-UM","2019/10/03 15:29:27","新北市樹林區太平路143號","121.419078333333","24.97999","6500700","樹林區"
"238011","5061-A6","2019/10/03 15:29:39","新北市樹林區太平路270-1號","121.41791","24.9732916666667","6500700","樹林區"
"238005","KEA-2217","2019/10/03 15:29:46","新北市樹林區鎮前街10號","121.426216666667","24.9932","6500700","樹林區"
"238009","KEA-2213","2019/10/03 15:29:45","新北市樹林區仁愛街32號","121.422776666667","24.982305","6500700","樹林區"
"238008","KEA-2539","2019/10/03 15:29:49","新北市樹林區柑園街一段23-2號","121.404451666667","24.9604533333333","6500700","樹林區"
"238012","303-VK","2019/10/03 15:29:40","新北市樹林區中山路一段191號","121.421325","24.9877383333333","6500700","樹林區"
"238004","283-BY","2019/10/03 15:29:34","新北市樹林區保安街二段333巷2號","121.412473333333","25.0075866666667","6500700","樹林區"
"238001","282-BY","2019/10/03 15:29:34","新北市樹林區千歲街61巷52號","121.425306666667","24.9987383333333","6500700","樹林區"
"238007","268-VK","2019/10/03 15:29:39","新北市樹林區俊英街116巷41弄2號","121.429025","25.0064316666667","6500700","樹林區"
"238013","172-UY","2019/10/03 15:29:32","新北市樹林區新興街19巷11號","121.400781666667","24.973105","6500700","樹林區"
"238003","169-UY","2019/10/03 15:29:43","新北市樹林區中山路一段2巷1號","121.424333333333","24.9939033333333","6500700","樹林區"
"221018","279-VK","2019/10/03 15:26:07","新北市汐止區汐萬路一段256巷1號","121.651785","25.0749366666667","6501100","汐止區"
"220030","610-BX","2019/10/03 15:29:48","新北市樹林區環河路2號","121.428065","24.9790166666667","6500100","板橋區"
"220020","277-BY","2019/10/03 15:29:36","新北市樹林區中山路三段214號","121.380148333333","24.9679083333333","6500100","板橋區"
"220031","286-VK","2019/10/03 15:29:35","新北市板橋區僑中二街108巷18號","121.445083333333","25.007535","6500100","板橋區"
"220029","287-VK","2019/10/03 15:29:38","新北市板橋區僑中二街126巷2號","121.445358333333","25.0052166666667","6500100","板橋區"
"220037","491-VK","2019/10/03 15:29:45","新北市三重區光復路二段143巷8-3號","121.474568333333","25.0599533333333","6500100","板橋區"
"220011","609-BX","2019/10/03 15:29:44","新北市板橋區縣民大道三段270巷1號","121.478396666667","25.023505","6500100","板橋區"
"220014","829-TW","2019/10/03 15:29:48","新北市板橋區中山路一段206巷2弄4號","121.470003333333","25.01335","6500100","板橋區"
"220012","AAC-253","2019/10/03 15:29:36","新北市板橋區長安街331巷21號","121.473803333333","25.0126033333333","6500100","板橋區"
"235026","KEA-2876","2019/10/03 15:29:36","新北市中和區橋和路88號","121.490213333333","25.0053433333333","6500300","中和區"
