"lineid","car","time","location","longitude","latitude","cityid","cityname"
"249005","172-UM","2019/10/03 16:59:46","新北市八里區渡船頭3-19號","121.433951666667","25.1517283333333","6502300","八里區"
"249001","173-UM","2019/10/03 16:59:35","新北市八里區下罟子1-11號","121.390006666667","25.1419983333333","6502300","八里區"
"249004","303-UY","2019/10/03 16:59:36","新北市八里區忠孝路353號","121.416436666667","25.1612133333333","6502300","八里區"
"249002","305-UY","2019/10/03 16:58:09","新北市八里區牛寮埔28號","121.432233333333","25.1445383333333","6502300","八里區"
"249003","593-UM","2019/10/03 16:59:43","新北市八里區中山路二段301號","121.401065","25.1481366666667","6502300","八里區"
"244007","080-UY","2019/10/03 16:59:37","新北市林口區文化北路二段176-6號","121.377706666667","25.092605","6501700","林口區"
"244023","483-VK","2019/10/03 16:59:32","新北市林口區粉寮路二段128號","121.404616666667","25.0906683333333","6501700","林口區"
"244009","656-BX","2019/10/03 16:59:38","新北市林口區粉寮路一段77號","121.396875","25.0788516666667","6501700","林口區"
"244011","701-TV","2019/10/03 16:59:39","新北市林口區粉寮路二段160巷28號","121.405208333333","25.090745","6501700","林口區"
"244025","837-TS","2019/10/03 16:59:41","新北市林口區粉寮路二段221號","121.404163333333","25.0905366666667","6501700","林口區"
"244021","838-TS","2019/10/03 16:59:37","新北市林口區粉寮一街134號","121.40447","25.08612","6501700","林口區"
"231046","719-UM","2019/10/03 16:59:33","新北市新店區灣潭路15-12號","121.541898333333","24.942255","6500600","新店區"
"241011","013-R5","2019/10/03 16:59:38","新北市三重區仁愛街53巷88號","121.49829","25.0725216666667","6500200","三重區"
"241028","022-UY","2019/10/03 16:59:33","新北市三重區中正南路41巷1號","121.493726666667","25.0599566666667","6500200","三重區"
"241008","059-VK","2019/10/03 16:59:42","新北市三重區永福街177巷6-1號","121.478563333333","25.074945","6500200","三重區"
"241019","060-VK","2019/10/03 16:59:39","新北市三重區三張街115號","121.487995","25.0700483333333","6500200","三重區"
"241031","061-VK","2019/10/03 16:59:30","新北市三重區三寧街15號","121.489425","25.0596533333333","6500200","三重區"
"241015","062-VK","2019/10/03 16:59:40","新北市三重區三和路二段1-4號","121.501695","25.066525","6500200","三重區"
"241017","063-VK","2019/10/03 16:59:27","新北市三重區大仁街3巷41號","121.492825","25.0638616666667","6500200","三重區"
"241024","065-VK","2019/10/03 16:59:33","新北市三重區大勇街82巷24號","121.479415","25.0722083333333","6500200","三重區"
"241007","066-VK","2019/10/03 16:59:32","新北市三重區三和路四段145巷209號","121.488718333333","25.0793666666667","6500200","三重區"
"241002","090-VK","2019/10/03 16:59:40","新北市三重區仁義街101巷20號","121.498688333333","25.0802216666667","6500200","三重區"
"241003","091-VK","2019/10/03 16:59:35","新北市三重區碧華街347號","121.491946666667","25.0848683333333","6500200","三重區"
"241016","266-UM","2019/10/03 16:59:41","新北市三重區大同北路95巷2號","121.49448","25.0638966666667","6500200","三重區"
"241009","267-UM","2019/10/03 16:59:30","新北市三重區仁美街108巷32號","121.484515","25.0804","6500200","三重區"
"241018","268-UM","2019/10/03 16:59:46","新北市三重區六張街126巷20號","121.492651666667","25.06859","6500200","三重區"
"241032","269-UM","2019/10/03 16:59:42","新北市三重區重陽路一段130巷26號","121.485745","25.0603916666667","6500200","三重區"
"241013","270-UM","2019/10/03 16:59:39","新北市三重區仁孝街62號","121.497216666667","25.074425","6500200","三重區"
"241025","271-UM","2019/10/03 16:59:42","新北市三重區中正北路510號","121.472711666667","25.0716116666667","6500200","三重區"
"241030","KED-0822","2019/10/03 16:59:48","新北市三重區昌隆街61號","121.491041666667","25.0510566666667","6500200","三重區"
"241004","475-VK","2019/10/03 16:59:31","新北市三重區五華街102號","121.49247","25.0824216666667","6500200","三重區"
"241020","478-VK","2019/10/03 16:59:34","新北市三重區後竹圍街175巷34號","121.485491666667","25.0730566666667","6500200","三重區"
"241026","480-VK","2019/10/03 16:59:37","新北市三重區光興街37號","121.499468333333","25.06022","6500200","三重區"
"241014","543-UM","2019/10/03 16:59:29","新北市三重區三和路二段173巷147號","121.50117","25.0705516666667","6500200","三重區"
"241023","545-UM","2019/10/03 16:59:48","新北市三重區新北大道一段252號","121.47989","25.061755","6500200","三重區"
"241001","547-UM","2019/10/03 16:59:43","新北市三重區仁政街4號","121.493271666667","25.0763","6500200","三重區"
"241005","AAD-863","2019/10/03 16:59:43","新北市三重區仁愛街695號","121.483076666667","25.0809616666667","6500200","三重區"
"241012","743-BX","2019/10/03 16:59:30","新北市三重區河邊北街226號","121.502005","25.0751883333333","6500200","三重區"
"241022","KED-0820","2019/10/03 16:59:40","新北市三重區中華路125號","121.483601666667","25.0640716666667","6500200","三重區"
"241006","887-TS","2019/10/03 16:59:37","新北市三重區車路頭街117巷63號","121.485655","25.075655","6500200","三重區"
"241029","942-UM","2019/10/03 16:59:46","新北市三重區中正南路260-1號","121.49315","25.05303","6500200","三重區"
"241033","AAC-255","2019/10/03 16:59:48","新北市三重區中興北街271號","121.469176666667","25.06049","6500200","三重區"
"247016","KEA-2869","2019/10/03 16:59:37","新北市蘆洲區中正路69號","121.470365","25.082725","6501400","蘆洲區"
"235054","640-BX","2019/10/03 16:59:36","新北市中和區員山路36巷16-2號","121.485358333333","24.9916466666667","6500300","中和區"
"247006","893-R6","2019/10/03 16:59:36","新北市蘆洲區長安街99巷25號","121.460993333333","25.0798383333333","6501400","蘆洲區"
"247020","546-UM","2019/10/03 16:59:41","新北市蘆洲區民族路422巷82弄14號","121.473978333333","25.0938566666667","6501400","蘆洲區"
"247010","341-TH","2019/10/03 16:59:30","新北市蘆洲區信義路180號","121.47926","25.0841266666667","6501400","蘆洲區"
"247012","337-TH","2019/10/03 16:59:49","新北市蘆洲區信義路296號","121.477693333333","25.0875866666667","6501400","蘆洲區"
"247004","336-TH","2019/10/03 16:59:28","新北市蘆洲區長安街110號","121.46109","25.081635","6501400","蘆洲區"
"247024","057-VK","2019/10/03 16:59:29","新北市蘆洲區長興路255號","121.460523333333","25.0875666666667","6501400","蘆洲區"
"247014","056-VK","2019/10/03 16:59:41","新北市蘆洲區中山一路161號","121.475458333333","25.08153","6501400","蘆洲區"
"247022","007-UY","2019/10/03 16:59:31","新北市蘆洲區三民路128巷128號","121.468875","25.0917233333333","6501400","蘆洲區"
"247008","002-UY","2019/10/03 16:59:40","新北市蘆洲區中山一路197巷26號","121.475008333333","25.07989","6501400","蘆洲區"
"247002","001-UY","2019/10/03 16:59:32","新北市蘆洲區永平街1號","121.45917","25.0904883333333","6501400","蘆洲區"
"228003","097-TW","2019/10/03 16:59:39","新北市貢寮區福隆里興隆街36號","121.942556666667","25.0165583333333","6502600","貢寮區"
"228002","663-BX","2019/10/03 16:59:52","新北市貢寮區貢寮里朝陽街142號","121.905685","25.0231533333333","6502600","貢寮區"
"224006","676-BX","2019/10/03 16:59:42","新北市瑞芳區傑魚坑路255號","121.787295","25.10629","6501200","瑞芳區"
"224007","285-BY","2019/10/03 16:59:42","新北市瑞芳區粗坑口路11-1號","121.761411666667","25.0989","6501200","瑞芳區"
"224009","275-VK","2019/10/03 16:59:31","新北市瑞芳區明燈路一段1號","121.826568333333","25.1093","6501200","瑞芳區"
"224008","273-VK","2019/10/03 16:59:33","新北市瑞芳區明燈路一段267號","121.81669","25.1085066666667","6501200","瑞芳區"
"224005","271-BY","2019/10/03 16:59:33","","121.89968","25.119325","6501200","瑞芳區"
"227002","642-TC","2019/10/03 16:59:29","新北市雙溪區上林里內平林90號","121.827846666667","25.0276216666667","6502500","雙溪區"
"227001","400-TW","2019/10/03 16:59:32","新北市雙溪區三貂里定福路27號","121.851533333333","25.0735983333333","6502500","雙溪區"
"251004","010-UM","2019/10/03 16:59:42","新北市淡水區中山路5號","121.444075","25.1695883333333","6501000","淡水區"
"251015","KEA-2871","2019/10/03 16:59:32","新北市淡水區忠愛街5-2號","121.460688333333","25.171595","6501000","淡水區"
"251016","179-VK","2019/10/03 16:59:49","新北市淡水區瓦坑7號","121.477763333333","25.18143","6501000","淡水區"
"251008","181-VK","2019/10/03 16:59:32","新北市淡水區樹梅坑9號","121.472858333333","25.14265","6501000","淡水區"
"251013","182-VK","2019/10/03 16:59:40","新北市淡水區泉洲厝32號","121.489293333333","25.1925316666667","6501000","淡水區"
"251012","441-VK","2019/10/03 16:59:28","新北市淡水區中正東路40號","121.449935","25.1652","6501000","淡水區"
"251007","442-VK","2019/10/03 16:58:37","新北市淡水區中正東路36號","121.448836666667","25.165735","6501000","淡水區"
"251005","443-VK","2019/10/03 16:59:49","新北市淡水區水源街一段6號","121.442573333333","25.1723466666667","6501000","淡水區"
"251006","561-UM","2019/10/03 16:59:35","新北市淡水區中正路382號","121.430135","25.17531","6501000","淡水區"
"251009","575-R6","2019/10/03 16:59:47","新北市淡水區中正路二段31號","121.419473333333","25.181645","6501000","淡水區"
"251014","577-R6","2019/10/03 16:59:32","新北市淡水區淡金路四段472巷24號","121.45287","25.22404","6501000","淡水區"
"251011","650-BX","2019/10/03 16:59:30","新北市淡水區坪頂路50號","121.457956666667","25.16251","6501000","淡水區"
"252002","178-VK","2019/10/03 16:59:39","新北市三芝區忠孝街145號","121.506113333333","25.26079","6502100","三芝區"
"233002","762-BX","2019/10/03 16:59:45","新北市烏來區環山路61-1號","121.548741666667","24.8627616666667","6502900","烏來區"
"252001","KED-0821","2019/10/03 16:59:46","新北市三芝區淡金路二段43號","121.503398333333","25.2602183333333","6502100","三芝區"
"242061","986-R7","2019/10/03 16:59:46","新北市新莊區新泰路357巷3弄57號","121.441965","25.03905","6500500","新莊區"
"242004","751-BX","2019/10/03 16:59:32","新北市新莊區新泰路255巷83號","121.442246666667","25.0387266666667","6500500","新莊區"
"242027","613-BX","2019/10/03 16:59:43","新北市新莊區三和路12-21號","121.441988333333","25.0388233333333","6500500","新莊區"
"242058","612-BX","2019/10/03 16:59:31","新北市新莊區新泰路255巷83號","121.442073333333","25.0389716666667","6500500","新莊區"
"242007","440-UM","2019/10/03 16:59:26","新北市新莊區三和路12-21號","121.442063333333","25.0383816666667","6500500","新莊區"
"242025","362-BY","2019/10/03 16:59:43","新北市新莊區三和路18-23號","121.441821666667","25.03895","6500500","新莊區"
"242021","KED-0687","2019/10/03 16:59:35","新北市新莊區三和路12-21號","121.442178333333","25.0380316666667","6500500","新莊區"
"242011","346-TH","2019/10/03 16:59:33","新北市新莊區三和路12-21號","121.441973333333","25.0382583333333","6500500","新莊區"
"242036","348-TH","2019/10/03 16:59:26","新北市新莊區新泰路255巷83號","121.442021666667","25.0389066666667","6500500","新莊區"
"242034","350-TH","2019/10/03 16:59:31","新北市新莊區三和路12-21號","121.441975","25.038835","6500500","新莊區"
"242019","351-TH","2019/10/03 16:59:45","新北市新莊區新泰路357巷3弄57號","121.44211","25.0395966666667","6500500","新莊區"
"238025","303-VK","2019/10/03 16:59:40","新北市樹林區中正路22-1號","121.4279","24.9994416666667","6500700","樹林區"
"238017","283-BY","2019/10/03 16:59:34","新北市樹林區光武街2-2號","121.415058333333","25.0042066666667","6500700","樹林區"
"238001","282-BY","2019/10/03 16:59:33","新北市樹林區大慶街99-1號","121.427768333333","24.9998183333333","6500700","樹林區"
"239007","AAC-297","2019/10/03 16:59:41","新北市鶯歌區文化路545號","121.352971666667","24.9477016666667","6500800","鶯歌區"
"239006","891-R6","2019/10/03 16:59:30","新北市鶯歌區二甲路7號","121.338361666667","24.9406016666667","6500800","鶯歌區"
"239008","527-UM","2019/10/03 16:59:34","新北市鶯歌區尖山路101巷12號","121.346865","24.9426333333333","6500800","鶯歌區"
"239005","526-UM","2019/10/03 16:59:35","新北市鶯歌區中正三路68號","121.338721666667","24.941325","6500800","鶯歌區"
"239001","417-VK","2019/10/03 16:59:45","新北市鶯歌區文化路527號","121.352938333333","24.9481383333333","6500800","鶯歌區"
"239004","193-VK","2019/10/03 16:59:33","新北市鶯歌區環河路177-1號","121.346321666667","24.9354566666667","6500800","鶯歌區"
"244019","KED-0667","2019/10/03 16:59:48","新北市林口區仁愛路二段167號","121.381705","25.0739833333333","6501700","林口區"
"233001","KEA-2870","2019/10/03 16:59:48","新北市烏來區西羅岸路29號","121.547411666667","24.8664116666667","6502900","烏來區"
"242046","281-VK","2019/10/03 16:59:27","新北市新莊區三和路12-21號","121.442261666667","25.038255","6500500","新莊區"
"220011","609-BX","2019/10/03 16:59:44","新北市板橋區民生路三段129號","121.466428333333","25.0260233333333","6500100","板橋區"
"235062","KEA-2876","2019/10/03 16:49:24","新北市中和區員山路36巷16-3號","121.485073333333","24.9914033333333","6500300","中和區"
