"lineid","car","time","location","longitude","latitude","cityid","cityname"
"234026","9371-KE","2019/10/03 17:49:31","新北市永和區和平街109巷4號","121.510828333333","25.0096933333333","6500400","永和區"
"249005","172-UM","2019/10/03 17:49:46","新北市八里區荖阡坑路41-10號","121.402425","25.1335816666667","6502300","八里區"
"249001","173-UM","2019/10/03 17:49:35","新北市八里區龍米路二段147巷6號","121.442716666667","25.15068","6502300","八里區"
"249004","303-UY","2019/10/03 17:49:45","新北市八里區中華路一段309巷19-13號","121.417148333333","25.153415","6502300","八里區"
"249002","305-UY","2019/10/03 17:49:29","新北市八里區龍形五街37巷3-1號","121.448713333333","25.1326016666667","6502300","八里區"
"249003","593-UM","2019/10/03 17:49:43","新北市八里區文昌路55號","121.41067","25.1566266666667","6502300","八里區"
"248016","025-BX","2019/10/03 17:49:33","新北市五股區中興路二段37巷26號","121.460361666667","25.0749516666667","6501500","五股區"
"248008","KED-0815","2019/10/03 17:49:33","新北市五股區中興路二段57-6號","121.460403333333","25.0753283333333","6501500","五股區"
"248014","261-SL","2019/10/03 17:49:37","新北市五股區中興路二段37巷24號","121.460655","25.0749866666667","6501500","五股區"
"248004","677-BX","2019/10/03 17:49:29","新北市五股區中興路二段37巷28號","121.460261666667","25.075045","6501500","五股區"
"232011","375-UM","2019/10/03 17:49:37","新北市坪林區北宜路八段112號","121.706113333333","24.934745","6502000","坪林區"
"244007","080-UY","2019/10/03 17:49:37","新北市林口區竹林路161號","121.388868333333","25.0800583333333","6501700","林口區"
"244013","KEA-2802","2019/10/03 17:49:45","新北市林口區中山路73號","121.392953333333","25.0784716666667","6501700","林口區"
"244023","483-VK","2019/10/03 17:49:32","新北市林口區東湖路86號","121.386473333333","25.0739716666667","6501700","林口區"
"244017","485-VK","2019/10/03 17:49:40","新北市林口區文化二路一段335號","121.370195","25.0731283333333","6501700","林口區"
"244009","656-BX","2019/10/03 17:49:38","新北市林口區竹林路564號","121.386791666667","25.0837033333333","6501700","林口區"
"244011","701-TV","2019/10/03 17:49:39","新北市林口區中正路130號","121.393023333333","25.0772733333333","6501700","林口區"
"244025","837-TS","2019/10/03 17:49:41","新北市林口區三民路185號","121.360946666667","25.07116","6501700","林口區"
"244021","838-TS","2019/10/03 17:49:37","新北市林口區仁愛路一段61巷13號","121.398583333333","25.0696316666667","6501700","林口區"
"222003","436-BY","2019/10/03 17:49:40","新北市深坑區阿柔洋60-1號","121.60859","24.998545","6501800","深坑區"
"222002","659-BX","2019/10/03 17:49:42","新北市深坑區平埔街22巷8號","121.614951666667","25.0008483333333","6501800","深坑區"
"231046","719-UM","2019/10/03 17:21:53","新北市新店區直潭六街64號","121.53223","24.940025","6500600","新店區"
"241016","266-UM","2019/10/03 17:49:21","新北市三重區新北大道一段7號","121.489835","25.06144","6500200","三重區"
"241024","KEA-2210","2019/10/03 17:49:34","新北市三重區國道路一段39巷1號","121.484105","25.0730466666667","6500200","三重區"
"241012","743-BX","2019/10/03 17:49:30","新北市三重區仁興街39巷46號","121.501073333333","25.076545","6500200","三重區"
"241033","AAC-255","2019/10/03 17:49:48","新北市三重區重新路五段566號","121.469963333333","25.0457816666667","6500200","三重區"
"235063","006-UY","2019/10/03 17:49:41","新北市中和區員山路36巷16-3號","121.485015","24.9912816666667","6500300","中和區"
"235065","098-UM","2019/10/03 17:49:36","新北市中和區中正路637巷52弄3號","121.485205","24.9937316666667","6500300","中和區"
"235058","151-BY","2019/10/03 17:49:37","新北市中和區員山路36巷16-2號","121.485273333333","24.9916383333333","6500300","中和區"
"247016","KEA-2869","2019/10/03 17:49:36","新北市蘆洲區中正路185巷23弄20號","121.467433333333","25.0841333333333","6501400","蘆洲區"
"235045","565-BX","2019/10/03 17:48:43","新北市中和區圓通路332號","121.484556666667","24.9865033333333","6500300","中和區"
"235054","640-BX","2019/10/03 17:49:44","新北市中和區員山路36巷16-2號","121.485296666667","24.991555","6500300","中和區"
"235057","801-TS","2019/10/03 17:49:38","新北市中和區員山路36巷16-2號","121.485151666667","24.9916066666667","6500300","中和區"
"235064","911-UM","2019/10/03 17:49:44","新北市中和區員山路36巷16-3號","121.485043333333","24.9914166666667","6500300","中和區"
"235037","AAC-213","2019/10/03 17:49:32","新北市中和區錦和路350-1號","121.490298333333","24.9936033333333","6500300","中和區"
"247006","893-R6","2019/10/03 17:49:35","新北市蘆洲區九芎街115號","121.465533333333","25.0794916666667","6501400","蘆洲區"
"247020","546-UM","2019/10/03 17:49:41","新北市蘆洲區民權路188-2號","121.47156","25.09076","6501400","蘆洲區"
"247010","341-TH","2019/10/03 17:49:30","新北市蘆洲區民族路31-4號","121.477535","25.0850466666667","6501400","蘆洲區"
"247012","337-TH","2019/10/03 17:49:49","新北市蘆洲區復興路85號","121.47654","25.087585","6501400","蘆洲區"
"247004","336-TH","2019/10/03 17:49:48","新北市蘆洲區長榮路203號","121.460986666667","25.0847783333333","6501400","蘆洲區"
"247024","057-VK","2019/10/03 17:49:29","新北市蘆洲區長樂路233巷1號","121.461441666667","25.0899333333333","6501400","蘆洲區"
"247014","056-VK","2019/10/03 17:49:41","新北市蘆洲區保和街73號","121.469215","25.0861","6501400","蘆洲區"
"247022","007-UY","2019/10/03 17:49:31","新北市蘆洲區中正路370號","121.463496666667","25.0928216666667","6501400","蘆洲區"
"247008","002-UY","2019/10/03 17:49:43","新北市蘆洲區中山一路287號","121.471881666667","25.079455","6501400","蘆洲區"
"247002","001-UY","2019/10/03 17:49:32","新北市蘆洲區永平街32巷33弄26號","121.458433333333","25.0926333333333","6501400","蘆洲區"
"228003","097-TW","2019/10/03 17:49:39","新北市貢寮區真理里延平街72-5號","121.925236666667","25.0581933333333","6502600","貢寮區"
"228001","212-TW","2019/10/03 17:49:46","新北市貢寮區真理里新港街26巷28-6號","121.927768333333","25.055445","6502600","貢寮區"
"228002","663-BX","2019/10/03 17:49:32","新北市貢寮區福隆里外隆林街14-1號","121.959158333333","25.0036166666667","6502600","貢寮區"
"224006","676-BX","2019/10/03 17:49:41","新北市瑞芳區傑魚坑路183號","121.788488333333","25.1082816666667","6501200","瑞芳區"
"224009","275-VK","2019/10/03 17:49:31","新北市瑞芳區金光路368號","121.849825","25.11038","6501200","瑞芳區"
"224008","273-VK","2019/10/03 17:49:33","新北市瑞芳區明燈路一段18巷6-1號","121.822876666667","25.10744","6501200","瑞芳區"
"224005","271-BY","2019/10/03 17:49:33","新北市瑞芳區瑞濱路67號","121.8222","25.1210133333333","6501200","瑞芳區"
"227002","642-TC","2019/10/03 17:21:28","新北市雙溪區共和里東榮街52號","121.86636","25.0336933333333","6502500","雙溪區"
"227001","400-TW","2019/10/03 17:49:32","新北市雙溪區三貂里定福路1-2號","121.850735","25.0634766666667","6502500","雙溪區"
"253006","295-VK","2019/10/03 17:49:37","新北市石門區老崩山6-1號","121.552645","25.29119","6502200","石門區"
"208002","KEA-2872","2019/10/03 17:49:47","新北市金山區磺清路135號","121.639466666667","25.2277783333333","6502700","金山區"
"251004","010-UM","2019/10/03 17:49:46","新北市淡水區民權一街21號","121.458835","25.1362583333333","6501000","淡水區"
"251002","012-UM","2019/10/03 17:49:31","新北市淡水區中山路102號","121.442416666667","25.1705833333333","6501000","淡水區"
"251015","KEA-2871","2019/10/03 17:49:32","新北市淡水區興福寮88巷1-12號","121.48733","25.167535","6501000","淡水區"
"251016","179-VK","2019/10/03 17:49:29","新北市淡水區埤島39-15號","121.452736666667","25.1958683333333","6501000","淡水區"
"251008","181-VK","2019/10/03 17:49:32","新北市淡水區八勢路一段156號","121.468151666667","25.1564866666667","6501000","淡水區"
"251013","182-VK","2019/10/03 17:49:39","新北市淡水區泉洲厝31號","121.479561666667","25.1910116666667","6501000","淡水區"
"251010","413-VK","2019/10/03 17:49:44","新北市淡水區中正路二段12號","121.420036666667","25.1804033333333","6501000","淡水區"
"251012","441-VK","2019/10/03 17:49:28","新北市淡水區北新路一段175號","121.459473333333","25.1822216666667","6501000","淡水區"
"251007","442-VK","2019/10/03 17:49:38","新北市淡水區民生路52巷9號","121.462301666667","25.1376533333333","6501000","淡水區"
"251005","443-VK","2019/10/03 17:49:29","新北市淡水區學府路102巷6號","121.450538333333","25.1718816666667","6501000","淡水區"
"251006","561-UM","2019/10/03 17:49:35","新北市淡水區大信街1巷16號","121.440181666667","25.1768533333333","6501000","淡水區"
"251009","575-R6","2019/10/03 17:49:47","新北市淡水區長興街16-3號","121.44385","25.1708083333333","6501000","淡水區"
"251014","577-R6","2019/10/03 17:49:31","新北市淡水區公埔子16-6號","121.481033333333","25.22456","6501000","淡水區"
"251011","650-BX","2019/10/03 17:49:29","新北市淡水區小坪頂13-3號","121.486611666667","25.1561766666667","6501000","淡水區"
"251003","766-UM","2019/10/03 17:49:29","新北市淡水區大忠街5巷1號","121.44315","25.176395","6501000","淡水區"
"207003","550-UM","2019/10/03 17:49:45","新北市萬里區野柳里東澳路66號","121.692748333333","25.2009233333333","6502800","萬里區"
"207004","291-VK","2019/10/03 17:49:41","新北市萬里區萬里里瑪鋉路12-4號","121.687728333333","25.1756483333333","6502800","萬里區"
"252002","178-VK","2019/10/03 17:49:39","新北市三芝區民生街30號","121.503608333333","25.2566716666667","6502100","三芝區"
"237009","210-TH","2019/10/03 17:49:33","新北市三峽區大勇路70號","121.367163333333","24.93638","6500900","三峽區"
"237013","252-BX","2019/10/03 17:49:33","新北市三峽區中華路8號","121.375253333333","24.9330116666667","6500900","三峽區"
"237012","275-BY","2019/10/03 17:49:35","新北市三峽區大勇路1號","121.367033333333","24.9387433333333","6500900","三峽區"
"237014","433-BY","2019/10/03 17:49:41","新北市三峽區文化路125號","121.369983333333","24.9360233333333","6500900","三峽區"
"237006","5529-G3","2019/10/03 17:49:41","新北市三峽區介壽路二段38巷10-3號","121.391576666667","24.935045","6500900","三峽區"
"237011","KEA-2596","2019/10/03 17:49:38","新北市三峽區大同路137號","121.371663333333","24.9269366666667","6500900","三峽區"
"237015","649-BX","2019/10/03 17:49:42","新北市三峽區白雞149-2號","121.400143333333","24.9055666666667","6500900","三峽區"
"237010","706-TV","2019/10/03 17:49:38","新北市三峽區復興路235號","121.368373333333","24.9388716666667","6500900","三峽區"
"237005","AKY-6261","2019/10/03 17:49:37","新北市三峽區中山路246號","121.362166666667","24.93749","6500900","三峽區"
"236042","KED-0685","2019/10/03 17:49:50","新北市土城區城林路6巷80號","121.438518333333","24.9795983333333","6501300","土城區"
"233002","762-BX","2019/10/03 17:49:45","新北市烏來區烏來街6號","121.551641666667","24.8647683333333","6502900","烏來區"
"236078","166-UM","2019/10/03 17:49:40","新北市土城區永寧路121號","121.43068","24.9539016666667","6501300","土城區"
"236030","253-BX","2019/10/03 17:49:32","新北市土城區城林路6巷80號","121.438416666667","24.9797433333333","6501300","土城區"
"236014","270-VK","2019/10/03 17:49:32","新北市土城區城林路6巷80號","121.43853","24.9795783333333","6501300","土城區"
"236038","271-VK","2019/10/03 17:49:33","新北市土城區城林路6巷80號","121.438476666667","24.9797816666667","6501300","土城區"
"236070","KEA-2877","2019/10/03 17:49:37","新北市土城區青雲路378巷14號","121.457506666667","24.9742583333333","6501300","土城區"
"252001","KED-0821","2019/10/03 17:49:45","新北市三芝區中興街一段12號","121.49748","25.2592883333333","6502100","三芝區"
"236059","912-UM","2019/10/03 17:49:36","新北市土城區中央路三段185號","121.43084","24.9650333333333","6501300","土城區"
"236049","913-UM","2019/10/03 17:49:44","新北市土城區城林路6巷80號","121.438568333333","24.9797016666667","6501300","土城區"
"236063","915-UM","2019/10/03 17:49:36","新北市土城區城林路6巷80號","121.438651666667","24.9796316666667","6501300","土城區"
"236055","AAC-216","2019/10/03 17:49:30","新北市土城區城林路6巷80號","121.438458333333","24.979565","6501300","土城區"
"242042","AAC-296","2019/10/03 17:49:47","新北市泰山區中山路二段841號","121.42586","25.035435","6500500","新莊區"
"242061","986-R7","2019/10/03 17:49:38","新北市新莊區瓊林南路118-27號","121.43392","25.0107316666667","6500500","新莊區"
"242004","751-BX","2019/10/03 17:49:32","新北市新莊區思源路177巷7弄2號","121.459291666667","25.0453866666667","6500500","新莊區"
"242029","615-BX","2019/10/03 17:49:46","新北市新莊區復興路一段2號","121.445536666667","25.04125","6500500","新莊區"
"242027","613-BX","2019/10/03 17:49:43","新北市新莊區福壽街147號","121.457968333333","25.0529416666667","6500500","新莊區"
"242058","612-BX","2019/10/03 17:49:44","新北市新莊區中正路700-12號","121.418576666667","25.0276883333333","6500500","新莊區"
"242048","442-UM","2019/10/03 17:49:48","新北市新莊區萬安街60巷11號","121.420533333333","25.023345","6500500","新莊區"
"242002","441-UM","2019/10/03 17:49:46","新北市新莊區新莊路362號","121.449718333333","25.0335","6500500","新莊區"
"242007","440-UM","2019/10/03 17:49:46","新北市新莊區福樂街106號","121.45737","25.0476933333333","6500500","新莊區"
"242044","415-TV","2019/10/03 17:49:35","新北市新莊區中正路855巷25號","121.420448333333","25.0268566666667","6500500","新莊區"
"242013","413-TV","2019/10/03 17:49:49","新北市新莊區中和街82巷9號","121.448263333333","25.0467583333333","6500500","新莊區"
"242051","400-BY","2019/10/03 17:49:42","新北市新莊區西盛街257巷21號","121.428905","25.0158983333333","6500500","新莊區"
"242025","362-BY","2019/10/03 17:49:43","新北市三重區中山路279號","121.471401666667","25.06143","6500500","新莊區"
"242023","353-BY","2019/10/03 17:49:45","新北市新莊區福樂街52號","121.457703333333","25.045905","6500500","新莊區"
"242015","132-UY","2019/10/03 17:49:40","新北市新莊區新泰路421-1號","121.443115","25.04488","6500500","新莊區"
"242039","135-UY","2019/10/03 17:49:39","新北市新莊區民安路101號","121.424541666667","25.0251633333333","6500500","新莊區"
"242056","172-VK","2019/10/03 17:49:37","新北市新莊區瓊林路40巷19號","121.44699","25.0301183333333","6500500","新莊區"
"242017","173-VK","2019/10/03 17:49:47","新北市新莊區永樂街144號","121.449255","25.0447733333333","6500500","新莊區"
"242031","175-VK","2019/10/03 17:49:46","新北市新莊區新泰路321巷37號","121.443095","25.0411633333333","6500500","新莊區"
"242021","KED-0687","2019/10/03 17:49:42","新北市新莊區永寧街30巷2號","121.452868333333","25.0389466666667","6500500","新莊區"
"242011","346-TH","2019/10/03 17:49:33","新北市新莊區中港路742號","121.450385","25.0583316666667","6500500","新莊區"
"242053","347-TH","2019/10/03 17:49:30","新北市新莊區新樹路579號","121.432888333333","25.006905","6500500","新莊區"
"242036","348-TH","2019/10/03 17:49:46","新北市新莊區建福路59巷17號","121.427533333333","25.0275133333333","6500500","新莊區"
"242009","349-TH","2019/10/03 17:49:41","新北市新莊區昌明街42號","121.456331666667","25.05225","6500500","新莊區"
"242034","350-TH","2019/10/03 17:49:37","新北市新莊區新樹路13號","121.440836666667","25.0328866666667","6500500","新莊區"
"242019","351-TH","2019/10/03 17:49:45","新北市新莊區公園路224號","121.456555","25.0405833333333","6500500","新莊區"
"238015","755-BX","2019/10/03 17:49:42","新北市樹林區復興路67號","121.421603333333","24.99305","6500700","樹林區"
"238023","601-UM","2019/10/03 17:49:35","新北市樹林區龍興街14巷25號","121.401908333333","25.0157316666667","6500700","樹林區"
"238019","599-UM","2019/10/03 17:49:46","新北市樹林區太順街34號","121.41912","24.9801533333333","6500700","樹林區"
"238018","KEA-2217","2019/10/03 17:49:37","新北市樹林區博愛街92號","121.426896666667","24.99176","6500700","樹林區"
"238022","KEA-2213","2019/10/03 17:49:45","新北市樹林區福順街63號","121.416263333333","24.978365","6500700","樹林區"
"238021","KEA-2539","2019/10/03 17:49:50","新北市樹林區柑園街一段41號","121.403496666667","24.960155","6500700","樹林區"
"238025","303-VK","2019/10/03 17:49:40","新北市樹林區俊興街209-6號","121.417536666667","25.0144483333333","6500700","樹林區"
"238017","283-BY","2019/10/03 17:49:34","新北市樹林區俊德街14號","121.41485","25.0148016666667","6500700","樹林區"
"238014","282-BY","2019/10/03 17:49:33","新北市樹林區保安街一段253號","121.419716666667","24.9968216666667","6500700","樹林區"
"238020","268-VK","2019/10/03 17:49:39","新北市樹林區俊英街155巷9弄5號","121.424341666667","25.0119883333333","6500700","樹林區"
"238026","172-UY","2019/10/03 17:49:32","新北市樹林區新興街19巷6號","121.400495","24.972615","6500700","樹林區"
"238016","169-UY","2019/10/03 17:49:47","新北市樹林區復興路310號","121.41682","24.9870166666667","6500700","樹林區"
"239007","AAC-297","2019/10/03 17:49:41","新北市鶯歌區鶯桃路94巷17號","121.340286666667","24.9541366666667","6500800","鶯歌區"
"239006","891-R6","2019/10/03 17:49:50","新北市鶯歌區永和街116號","121.334516666667","24.9692566666667","6500800","鶯歌區"
"239008","527-UM","2019/10/03 17:49:34","新北市鶯歌區國際一路167號","121.335883333333","24.9781566666667","6500800","鶯歌區"
"239005","526-UM","2019/10/03 17:49:35","新北市鶯歌區鶯桃路609號","121.328981666667","24.9691916666667","6500800","鶯歌區"
"239001","417-VK","2019/10/03 17:49:45","新北市鶯歌區中正三路231號","121.334816666667","24.9390616666667","6500800","鶯歌區"
"239003","360-BY","2019/10/03 17:49:47","新北市鶯歌區永吉街46巷3號","121.335433333333","24.957305","6500800","鶯歌區"
"239002","359-BY","2019/10/03 17:49:33","新北市鶯歌區育樂街51號","121.343571666667","24.955165","6500800","鶯歌區"
"239004","193-VK","2019/10/03 17:49:32","新北市鶯歌區文化路393巷6弄2號","121.352721666667","24.950985","6500800","鶯歌區"
"221008","489-VK","2019/10/03 17:49:39","新北市汐止區康寧街901號","121.651475","25.0750633333333","6501100","汐止區"
"244019","KED-0667","2019/10/03 17:49:48","新北市林口區麗園路121號","121.371481666667","25.0676233333333","6501700","林口區"
"221010","269-BY","2019/10/03 17:49:50","新北市汐止區汐萬路二段40號","121.649608333333","25.08144","6501100","汐止區"
"221023","279-VK","2019/10/03 17:49:38","新北市汐止區明峰街5號","121.635483333333","25.0712033333333","6501100","汐止區"
"221029","298-VK","2019/10/03 17:49:32","新北市汐止區康寧街901號","121.651643333333","25.0749166666667","6501100","汐止區"
"221031","353-TW","2019/10/03 17:49:38","新北市汐止區康寧街861巷1號","121.645415","25.0759116666667","6501100","汐止區"
"233001","KEA-2870","2019/10/03 17:49:48","新北市烏來區環山路42號","121.548631666667","24.8641183333333","6502900","烏來區"
"242046","281-VK","2019/10/03 17:49:47","新北市新莊區福營路97巷9號","121.434793333333","25.0317216666667","6500500","新莊區"
"235061","KEA-2875","2019/10/03 17:49:27","新北市中和區員山路36巷16-2號","121.485231666667","24.9917733333333","6500300","中和區"
"235062","KEA-2876","2019/10/03 17:49:27","新北市中和區員山路36巷16-3號","121.485038333333","24.991435","6500300","中和區"
