"lineid","car","time","location","longitude","latitude","cityid","cityname"
"234046","148-BY","2019/10/03 18:39:44","新北市永和區永元路52巷14號","121.522713333333","25.000955","6500400","永和區"
"234081","298-R6","2019/10/03 18:39:54","新北市永和區林森路77號","121.523963333333","25.0039533333333","6500400","永和區"
"234064","337-UY","2019/10/03 18:39:53","新北市永和區福和路1號","121.526478333333","25.0103183333333","6500400","永和區"
"234086","338-UY","2019/10/03 18:39:58","新北市永和區中正路188號","121.51538","24.9970883333333","6500400","永和區"
"234017","745-BX","2019/10/03 18:39:57","新北市永和區福和路1號","121.526413333333","25.009665","6500400","永和區"
"234030","746-BX","2019/10/03 18:39:52","新北市永和區成功路一段89號","121.526888333333","25.002885","6500400","永和區"
"234007","KED-0605","2019/10/03 18:39:51","新北市永和區文化路164號","121.512136666667","25.01538","6500400","永和區"
"234013","KEA-2591","2019/10/03 18:39:24","新北市永和區仁愛路88號","121.51254","25.0133583333333","6500400","永和區"
"234042","862-TW","2019/10/03 18:39:53","新北市永和區中和路615號","121.512745","25.0046466666667","6500400","永和區"
"234026","9371-KE","2019/10/03 18:39:51","新北市永和區保平路93巷1號","121.51173","25.0067833333333","6500400","永和區"
"234011","9373-KE","2019/10/03 18:39:42","新北市永和區文化路9巷22弄58號","121.51384","25.014485","6500400","永和區"
"249005","172-UM","2019/10/03 18:39:46","新北市八里區中華路三段198號","121.388525","25.1259366666667","6502300","八里區"
"249001","173-UM","2019/10/03 18:39:54","新北市八里區龍米路一段382號","121.45151","25.13182","6502300","八里區"
"249004","303-UY","2019/10/03 18:39:56","新北市八里區龍米路三段60號","121.423633333333","25.1589833333333","6502300","八里區"
"249002","305-UY","2019/10/03 18:39:49","新北市八里區龍形一街12巷8號","121.449863333333","25.130765","6502300","八里區"
"249003","593-UM","2019/10/03 18:33:56","新北市八里區博物館路10-1號","121.415095","25.163985","6502300","八里區"
"248016","025-BX","2019/10/03 18:39:53","新北市五股區凌雲路一段149巷7號","121.44887","25.1016416666667","6501500","五股區"
"248008","KED-0815","2019/10/03 18:39:53","新北市五股區中興路一段150巷7號","121.464618333333","25.0742583333333","6501500","五股區"
"248020","KED-0813","2019/10/03 18:39:53","新北市五股區孝義路108-1號","121.442395","25.119795","6501500","五股區"
"248012","247-BX","2019/10/03 18:39:52","新北市五股區成泰路三段2巷1-20號","121.44107","25.0864733333333","6501500","五股區"
"248014","261-SL","2019/10/03 18:39:37","新北市五股區民義路一段74號","121.436213333333","25.0847","6501500","五股區"
"248004","677-BX","2019/10/03 18:40:00","新北市五股區民義路一段282號","121.425498333333","25.09298","6501500","五股區"
"248002","678-BX","2019/10/03 18:39:54","新北市五股區西雲路205號","121.448568333333","25.0965566666667","6501500","五股區"
"248010","682-TV","2019/10/03 18:39:45","新北市五股區水碓七路168號","121.430816666667","25.0739616666667","6501500","五股區"
"234023","9380-KE","2019/10/03 18:39:47","新北市永和區竹林路225巷46號","121.522446666667","25.0085183333333","6500400","永和區"
"234077","969-R7","2019/10/03 18:39:54","新北市永和區中正路188號","121.515406666667","24.9970883333333","6500400","永和區"
"234003","AAC-295","2019/10/03 18:39:56","新北市永和區福和路1號","121.526611666667","25.00995","6500400","永和區"
"232011","375-UM","2019/10/03 18:39:57","新北市坪林區坪雙路一段41號","121.7117","24.94245","6502000","坪林區"
"244007","080-UY","2019/10/03 18:39:57","新北市林口區太平嶺1鄰3號","121.378728333333","25.11201","6501700","林口區"
"244013","KEA-2802","2019/10/03 18:39:44","新北市林口區麗園一街6巷6-3號","121.375256666667","25.0705516666667","6501700","林口區"
"244023","483-VK","2019/10/03 18:39:54","新北市林口區四維路156-2號","121.381248333333","25.0753233333333","6501700","林口區"
"244017","485-VK","2019/10/03 18:39:40","新北市林口區文化二路一段70號","121.36582","25.06917","6501700","林口區"
"244009","656-BX","2019/10/03 18:39:58","新北市林口區竹林路326巷68號","121.392615","25.0821083333333","6501700","林口區"
"244011","701-TV","2019/10/03 18:39:39","新北市林口區新寮1-84號","121.39279","25.0768233333333","6501700","林口區"
"244025","837-TS","2019/10/03 18:39:41","新北市林口區南勢四街325號","121.356605","25.074845","6501700","林口區"
"244021","838-TS","2019/10/03 18:39:57","新北市林口區工六路62號","121.399456666667","25.077915","6501700","林口區"
"243010","297-R6","2019/10/03 18:39:54","新北市泰山區辭修路48號","121.428435","25.057195","6501600","泰山區"
"243014","KEA-2801","2019/10/03 18:39:50","新北市泰山區犁頭窠3-1號","121.42264","25.0606383333333","6501600","泰山區"
"243016","421-VK","2019/10/03 18:39:43","新北市泰山區黎明路23-1號","121.421373333333","25.0614616666667","6501600","泰山區"
"243015","680-BX","2019/10/03 18:39:47","新北市泰山區泰林路二段416號","121.427265","25.064335","6501600","泰山區"
"222003","436-BY","2019/10/03 18:40:00","新北市深坑區翠谷街25號","121.626883333333","25.0087316666667","6501800","深坑區"
"222002","659-BX","2019/10/03 18:39:42","新北市深坑區文山路一段62巷3號","121.622876666667","25.000905","6501800","深坑區"
"231061","002-UM","2019/10/03 18:39:42","新北市新店區安華路28-1號","121.51972","24.960705","6500600","新店區"
"231044","046-UY","2019/10/03 18:39:53","新北市新店區光明街171號","121.539545","24.9626866666667","6500600","新店區"
"231060","106-UY","2019/10/03 18:39:58","新北市新店區安華路28-1號","121.519588333333","24.9608066666667","6500600","新店區"
"231051","107-UY","2019/10/03 18:39:51","新北市新店區環河路29巷1號","121.537005","24.9614","6500600","新店區"
"231065","110-UY","2019/10/03 18:39:59","新北市新店區安一路一段1-1號","121.519348333333","24.9610866666667","6500600","新店區"
"231062","256-BX","2019/10/03 18:39:41","新北市新店區安一路一段1-1號","121.519746666667","24.96107","6500600","新店區"
"231054","260-TV","2019/10/03 18:39:42","新北市新店區安一路一段1-1號","121.519256666667","24.961245","6500600","新店區"
"231042","268-BY","2019/10/03 18:39:41","新北市新店區安康路一段323-1號","121.521568333333","24.9637666666667","6500600","新店區"
"231064","278-BY","2019/10/03 18:39:44","新北市新店區安一路一段1-1號","121.519636666667","24.961105","6500600","新店區"
"231050","AAD-862","2019/10/03 18:39:49","新北市新店區安一路一段1-1號","121.519623333333","24.961095","6500600","新店區"
"231045","355-BY","2019/10/03 18:39:44","新北市新店區安華路28-1號","121.519256666667","24.960915","6500600","新店區"
"231058","3713-VJ","2019/10/03 18:39:44","新北市新店區國校路76-1號","121.538516666667","24.9530766666667","6500600","新店區"
"231055","4716-K9","2019/10/03 18:39:38","新北市新店區華興街38巷5號","121.537098333333","24.96922","6500600","新店區"
"231056","4715-K9","2019/10/03 18:39:51","新北市新店區建國路196號","121.537738333333","24.9804483333333","6500600","新店區"
"231052","515-UM","2019/10/03 18:39:45","新北市新店區新烏路一段60號","121.546071666667","24.94862","6500600","新店區"
"231041","619-UM","2019/10/03 18:39:52","新北市新店區安華路28-1號","121.519596666667","24.9605583333333","6500600","新店區"
"231063","641-BX","2019/10/03 18:39:39","新北市新店區安華路28-1號","121.519613333333","24.960645","6500600","新店區"
"231047","KED-0819","2019/10/03 18:39:52","新北市新店區安一路一段1-1號","121.519736666667","24.96154","6500600","新店區"
"231046","719-UM","2019/10/03 18:39:53","新北市新店區直潭二街1號","121.535406666667","24.943145","6500600","新店區"
"231057","720-UM","2019/10/03 18:39:43","新北市新店區北宜路一段150號","121.54023","24.953935","6500600","新店區"
"231059","897-TW","2019/10/03 18:39:50","新北市新店區安華路28-1號","121.519551666667","24.9606716666667","6500600","新店區"
"231040","898-TW","2019/10/03 18:39:46","新北市新店區安華路28-1號","121.519451666667","24.96084","6500600","新店區"
"231043","899-TW","2019/10/03 18:39:41","新北市新店區安華路28-1號","121.519256666667","24.96091","6500600","新店區"
"241024","KEA-2210","2019/10/03 18:39:54","新北市三重區重新路四段121號","121.483676666667","25.0515216666667","6500200","三重區"
"235066","003-UY","2019/10/03 18:39:43","新北市中和區光華街58號","121.505356666667","25.0035733333333","6500300","中和區"
"235063","006-UY","2019/10/03 18:39:41","新北市中和區連城路258-7號","121.487031666667","24.9965416666667","6500300","中和區"
"235056","096-UM","2019/10/03 18:39:59","新北市中和區員山路611巷5弄3號","121.478008333333","25.0112133333333","6500300","中和區"
"235039","097-UM","2019/10/03 18:39:46","新北市中和區宜安路18巷13號","121.513963333333","24.99635","6500300","中和區"
"235065","098-UM","2019/10/03 18:39:55","新北市中和區莊敬路33巷7號","121.500083333333","25.00658","6500300","中和區"
"235040","150-BY","2019/10/03 18:39:40","新北市中和區宜安路63號","121.511323333333","24.9969633333333","6500300","中和區"
"235058","151-BY","2019/10/03 18:39:57","新北市中和區員山路143巷11-4號","121.480296666667","24.9959883333333","6500300","中和區"
"235055","183-VK","2019/10/03 18:39:50","新北市中和區莒光路37巷2號","121.472025","25.004985","6500300","中和區"
"235038","185-VK","2019/10/03 18:39:42","新北市中和區大勇街60巷22號","121.519028333333","24.9946566666667","6500300","中和區"
"235067","255-BX","2019/10/03 18:39:44","新北市中和區中山路二段449巷1弄19號","121.483916666667","25.0036066666667","6500300","中和區"
"235044","293-VK","2019/10/03 18:39:56","新北市中和區復興路280巷15號","121.502256666667","24.9913466666667","6500300","中和區"
"235072","301-VK","2019/10/03 18:39:59","新北市中和區中山路二段75號","121.503746666667","25.0043633333333","6500300","中和區"
"235043","352-BY","2019/10/03 18:39:46","新北市中和區景平路73-3號","121.518476666667","24.9915783333333","6500300","中和區"
"235042","KEA-2878","2019/10/03 18:39:59","新北市中和區成功路47號","121.526285","24.99297","6500300","中和區"
"247016","KEA-2869","2019/10/03 18:39:56","新北市八里區下罟子6-3號","121.386156666667","25.1419266666667","6501400","蘆洲區"
"235050","4979-A6","2019/10/03 18:39:53","新北市中和區景新街496巷30弄7號","121.513168333333","24.9855333333333","6500300","中和區"
"235069","4980-A6","2019/10/03 18:39:52","新北市中和區連城路87號","121.496741666667","25.000275","6500300","中和區"
"235070","558-UM","2019/10/03 18:39:52","新北市中和區南山路27號","121.501991666667","24.999045","6500300","中和區"
"235045","565-BX","2019/10/03 18:39:43","新北市中和區南山路208巷2號","121.505973333333","24.9902183333333","6500300","中和區"
"235060","KED-0823","2019/10/03 18:39:57","新北市中和區中山路三段136號","121.473923333333","25.0061916666667","6500300","中和區"
"235054","640-BX","2019/10/03 18:39:55","新北市中和區民享街68巷12號","121.473551666667","25.0018233333333","6500300","中和區"
"235047","732-UM","2019/10/03 18:39:53","新北市中和區興南路二段45號","121.507428333333","24.9856366666667","6500300","中和區"
"235057","801-TS","2019/10/03 18:39:58","新北市中和區民安街27號","121.48043","25.00037","6500300","中和區"
"235041","802-TS","2019/10/03 18:39:38","新北市中和區中安街178巷13弄3號","121.510366666667","24.99865","6500300","中和區"
"235052","805-TS","2019/10/03 18:39:57","新北市中和區興南路三段90號","121.490903333333","24.973875","6500300","中和區"
"235048","896-TW","2019/10/03 18:39:55","新北市中和區南山路250巷2號","121.507761666667","24.9889","6500300","中和區"
"235053","900-TW","2019/10/03 18:39:54","新北市中和區華福街34號","121.466165","24.9966416666667","6500300","中和區"
"235064","911-UM","2019/10/03 18:39:44","新北市中和區景平路511號","121.499233333333","24.9986916666667","6500300","中和區"
"235051","157-BY","2019/10/03 18:39:52","新北市中和區華新街143巷106弄39號","121.506956666667","24.9783","6500300","中和區"
"235037","AAC-213","2019/10/03 18:39:52","新北市中和區秀朗路三段128巷11號","121.524445","24.993265","6500300","中和區"
"235059","AAC-215","2019/10/03 18:39:50","新北市中和區錦和路354巷5號","121.490266666667","24.9914483333333","6500300","中和區"
"220086","073-UY","2019/10/03 18:39:46","新北市板橋區南雅南路二段120-2號","121.452318333333","24.9997816666667","6500100","板橋區"
"220106","075-UY","2019/10/03 18:39:52","新北市板橋區民生路二段161巷9號","121.470303333333","25.019675","6500100","板橋區"
"220069","AAD-861","2019/10/03 18:39:45","新北市板橋區南雅南路二段4巷24號","121.45345","25.0036633333333","6500100","板橋區"
"220068","120-SR","2019/10/03 18:39:44","新北市板橋區民生路二段120號","121.470813333333","25.019415","6500100","板橋區"
"226004","312-R5","2019/10/03 18:39:41","新北市平溪區石底里公園街18-3號","121.733776666667","25.02539","6502400","平溪區"
"235049","251-BX","2019/10/03 18:39:46","新北市中和區明義街16號","121.504575","24.9949133333333","6500300","中和區"
"228003","097-TW","2019/10/03 18:39:38","新北市貢寮區和美里龍洞街12-2號","121.917928333333","25.1117233333333","6502600","貢寮區"
"228001","212-TW","2019/10/03 18:39:46","新北市貢寮區仁理村研海街12-1號","121.923835","25.0516583333333","6502600","貢寮區"
"228002","663-BX","2019/10/03 18:39:52","新北市貢寮區福隆里桂安街2號","121.963375","25.0211916666667","6502600","貢寮區"
"224006","676-BX","2019/10/03 18:39:42","新北市瑞芳區一坑路42號","121.8037","25.10912","6501200","瑞芳區"
"224002","639-TC","2019/10/03 18:40:00","新北市瑞芳區三爪子坑路1號","121.815421666667","25.1081283333333","6501200","瑞芳區"
"224007","285-BY","2019/10/03 18:39:41","新北市瑞芳區大埔路115巷4號","121.763295","25.101095","6501200","瑞芳區"
"224009","275-VK","2019/10/03 18:39:51","新北市瑞芳區祈堂路53-1號","121.859635","25.110545","6501200","瑞芳區"
"224008","273-VK","2019/10/03 18:39:33","新北市瑞芳區岳王路14號","121.807933333333","25.111205","6501200","瑞芳區"
"224005","271-BY","2019/10/03 18:39:53","新北市瑞芳區瑞濱路87號","121.82071","25.121055","6501200","瑞芳區"
"227002","642-TC","2019/10/03 18:39:38","新北市雙溪區魚行里坤溪3-5號","121.876186666667","25.0208566666667","6502500","雙溪區"
"227001","400-TW","2019/10/03 18:39:52","新北市雙溪區牡丹里下坑11號","121.850985","25.05618","6502500","雙溪區"
"253005","032-BX","2019/10/03 18:39:42","新北市石門區石門街47號","121.566493333333","25.29036","6502200","石門區"
"253006","295-VK","2019/10/03 18:39:57","新北市石門區崁子腳28-1號","121.539908333333","25.2898633333333","6502200","石門區"
"222001","KEA-2212","2019/10/03 18:39:48","新北市深坑區北深路一段80號","121.63643","25.0107383333333","6501800","深坑區"
"208002","KEA-2872","2019/10/03 18:39:47","新北市金山區龜子山路30號","121.639301666667","25.2181383333333","6502700","金山區"
"208003","665-BX","2019/10/03 18:39:59","新北市金山區中山路296號","121.634713333333","25.224595","6502700","金山區"
"251004","010-UM","2019/10/03 18:39:46","新北市淡水區大同路2號","121.461435","25.1407466666667","6501000","淡水區"
"251002","012-UM","2019/10/03 18:39:52","新北市淡水區中正東路一段3巷14弄1號","121.450943333333","25.16419","6501000","淡水區"
"251015","KEA-2871","2019/10/03 18:39:52","新北市淡水區興福寮66巷307號","121.485313333333","25.16178","6501000","淡水區"
"251016","179-VK","2019/10/03 18:39:49","新北市淡水區下圭柔山70-14號","121.445273333333","25.2065816666667","6501000","淡水區"
"251008","181-VK","2019/10/03 18:37:52","新北市淡水區北新路一段28號","121.45495","25.1809366666667","6501000","淡水區"
"251013","182-VK","2019/10/03 18:39:59","新北市淡水區椿子林5-2號","121.482253333333","25.2057583333333","6501000","淡水區"
"251010","413-VK","2019/10/03 18:39:43","新北市淡水區沙崙路141號","121.42326","25.18289","6501000","淡水區"
"251012","441-VK","2019/10/03 18:39:48","新北市淡水區北新路121號","121.44898","25.1786866666667","6501000","淡水區"
"251001","559-UM","2019/10/03 18:39:52","新北市淡水區自強路166號","121.465583333333","25.1341","6501000","淡水區"
"251006","561-UM","2019/10/03 18:39:55","新北市淡水區崁頂36號","121.438875","25.1946066666667","6501000","淡水區"
"251014","577-R6","2019/10/03 18:39:51","新北市淡水區崙頂12-8號","121.495578333333","25.2172183333333","6501000","淡水區"
"251011","650-BX","2019/10/03 18:39:55","新北市淡水區學府路36號","121.448071666667","25.1686216666667","6501000","淡水區"
"251003","766-UM","2019/10/03 18:39:49","新北市淡水區北新路69巷26號","121.446623333333","25.1801683333333","6501000","淡水區"
"207003","550-UM","2019/10/03 18:39:45","新北市萬里區野柳里港東路162-14號","121.690446666667","25.2040383333333","6502800","萬里區"
"207004","291-VK","2019/10/03 18:39:56","新北市萬里區萬里里獅頭路7號","121.691983333333","25.178315","6502800","萬里區"
"252002","178-VK","2019/10/03 18:39:39","新北市三芝區民生街64巷1號","121.503486666667","25.255365","6502100","三芝區"
"252003","249-BX","2019/10/03 18:39:50","新北市三芝區後厝里土地公坑54-18號","121.46534","25.249365","6502100","三芝區"
"208001","170-UY","2019/10/03 18:39:55","新北市金山區文化三路7號","121.635186666667","25.2249566666667","6502700","金山區"
"237007","153-BY","2019/10/03 18:39:39","新北市三峽區柑樹路2巷15號","121.362016666667","24.904965","6500900","三峽區"
"237009","210-TH","2019/10/03 18:39:53","新北市三峽區大同路286巷12號","121.363968333333","24.9252466666667","6500900","三峽區"
"237013","252-BX","2019/10/03 18:39:53","新北市三峽區光明路69巷25號","121.376618333333","24.9292","6500900","三峽區"
"237012","275-BY","2019/10/03 18:39:54","新北市三峽區三樹路300號","121.380795","24.9438483333333","6500900","三峽區"
"237008","302-VK","2019/10/03 18:39:49","新北市三峽區白雞81-1號","121.403075","24.9092916666667","6500900","三峽區"
"237014","433-BY","2019/10/03 18:39:41","新北市三峽區復興路465號","121.36181","24.9385983333333","6500900","三峽區"
"237006","5529-G3","2019/10/03 18:39:41","新北市三峽區溪東路473巷2號","121.413873333333","24.9281533333333","6500900","三峽區"
"237011","KEA-2596","2019/10/03 18:39:58","新北市三峽區溪東路329號","121.410771666667","24.9300616666667","6500900","三峽區"
"237015","649-BX","2019/10/03 18:39:42","新北市三峽區成福路317號","121.429651666667","24.9236416666667","6500900","三峽區"
"237010","706-TV","2019/10/03 18:39:58","新北市三峽區復興路489號","121.361238333333","24.9384033333333","6500900","三峽區"
"237004","756-BX","2019/10/03 18:39:42","新北市三峽區圳頭94號","121.38018","24.87747","6500900","三峽區"
"237005","AKY-6261","2019/10/03 18:39:57","新北市三峽區清水街302號","121.373048333333","24.9346766666667","6500900","三峽區"
"236042","KED-0685","2019/10/03 18:39:46","新北市土城區學成路114號","121.449723333333","24.9893716666667","6501300","土城區"
"236078","166-UM","2019/10/03 18:40:00","新北市土城區中央路四段196-1號","121.41629","24.9576783333333","6501300","土城區"
"236030","253-BX","2019/10/03 18:39:52","新北市土城區福仁街72號","121.439301666667","24.97416","6501300","土城區"
"236026","269-VK","2019/10/03 18:39:56","新北市土城區千歲路28巷2-1號","121.44139","24.968775","6501300","土城區"
"236014","270-VK","2019/10/03 18:39:52","新北市土城區清水路207巷11號","121.45987","24.9823516666667","6501300","土城區"
"236038","271-VK","2019/10/03 18:39:53","新北市土城區明德路一段313巷26號","121.459615","24.9761216666667","6501300","土城區"
"236070","KEA-2877","2019/10/03 18:39:37","新北市土城區永豐路157巷29弄6-1號","121.46829","24.9814516666667","6501300","土城區"
"252001","KED-0821","2019/10/03 18:39:45","新北市三芝區中興街二段260號","121.501895","25.2528916666667","6502100","三芝區"
"236021","401-BY","2019/10/03 18:39:46","新北市土城區延吉街253巷10號","121.467641666667","24.9844","6501300","土城區"
"236059","912-UM","2019/10/03 18:39:56","新北市土城區中央路三段177號","121.4315","24.9652133333333","6501300","土城區"
"236049","913-UM","2019/10/03 18:39:54","新北市土城區明德路一段109號","121.465588333333","24.9822516666667","6501300","土城區"
"236063","915-UM","2019/10/03 18:39:57","新北市土城區延和路125巷65號","121.469328333333","24.9913716666667","6501300","土城區"
"236055","AAC-216","2019/10/03 18:39:50","新北市土城區裕民路42號","121.448201666667","24.9882883333333","6501300","土城區"
"242042","AAC-296","2019/10/03 18:39:47","新北市新莊區天祥街92巷35號","121.415335","25.030155","6500500","新莊區"
"242061","986-R7","2019/10/03 18:39:57","新北市新莊區民安路188巷6號","121.425103333333","25.02344","6500500","新莊區"
"242058","612-BX","2019/10/03 18:39:51","新北市新莊區中正路887-17號","121.416131666667","25.02415","6500500","新莊區"
"238023","601-UM","2019/10/03 18:39:56","新北市樹林區三福街114號","121.406435","25.0162783333333","6500700","樹林區"
"238024","5061-A6","2019/10/03 18:39:39","新北市樹林區中華路391號","121.411598333333","24.9804533333333","6500700","樹林區"
"238018","KEA-2217","2019/10/03 18:39:57","新北市樹林區鎮前街72號","121.42563","24.9922433333333","6500700","樹林區"
"238022","KEA-2213","2019/10/03 18:39:45","新北市樹林區中華路393號","121.411356666667","24.9804466666667","6500700","樹林區"
"238020","268-VK","2019/10/03 18:39:59","新北市樹林區俊安街64號","121.418598333333","25.0130716666667","6500700","樹林區"
"238026","172-UY","2019/10/03 18:39:52","新北市樹林區育德街78-1號","121.387581666667","24.9681383333333","6500700","樹林區"
"238016","169-UY","2019/10/03 18:39:47","新北市樹林區中山路一段412號","121.417405","24.9851783333333","6500700","樹林區"
"239008","527-UM","2019/10/03 18:39:54","新北市鶯歌區朝陽街2號","121.336231666667","24.9766016666667","6500800","鶯歌區"
"239005","526-UM","2019/10/03 18:39:55","新北市鶯歌區鳳吉三街31巷9號","121.327646666667","24.974295","6500800","鶯歌區"
"239001","417-VK","2019/10/03 18:39:45","新北市鶯歌區國中街178號","121.338246666667","24.9392033333333","6500800","鶯歌區"
"239003","360-BY","2019/10/03 18:39:47","新北市鶯歌區鶯桃路500號","121.332003333333","24.96616","6500800","鶯歌區"
"239004","193-VK","2019/10/03 18:39:52","新北市鶯歌區尖山路240巷9號","121.342478333333","24.9472716666667","6500800","鶯歌區"
"221036","130-UY","2019/10/03 18:39:44","新北市汐止區長興街一段13號","121.669551666667","25.0786883333333","6501100","汐止區"
"244019","KED-0667","2019/10/03 18:39:48","新北市林口區麗園二街76-2號","121.381776666667","25.0678133333333","6501700","林口區"
"221010","269-BY","2019/10/03 18:39:50","新北市汐止區汐萬路三段256號","121.644066666667","25.1045733333333","6501100","汐止區"
"221012","278-VK","2019/10/03 18:39:48","新北市汐止區保長路51巷9號","121.67366","25.0789133333333","6501100","汐止區"
"221023","279-VK","2019/10/03 18:39:58","新北市汐止區康寧街505號","121.632765","25.06862","6501100","汐止區"
"221032","280-BY","2019/10/03 18:39:44","新北市汐止區福山街60巷16號","121.618336666667","25.0461533333333","6501100","汐止區"
"221029","298-VK","2019/10/03 18:39:52","新北市汐止區樟樹一路127號","121.642168333333","25.0648516666667","6501100","汐止區"
"221021","299-VK","2019/10/03 18:39:50","新北市汐止區新台五路一段148號","121.653326666667","25.0620583333333","6501100","汐止區"
"221031","353-TW","2019/10/03 18:39:58","新北市汐止區光復街7巷26號","121.640066666667","25.0594716666667","6501100","汐止區"
"221015","567-BX","2019/10/03 18:39:43","新北市汐止區鄉長路二段23巷18號","121.667673333333","25.0830783333333","6501100","汐止區"
"221035","622-UM","2019/10/03 18:39:47","新北市汐止區大同路二段167號","121.651025","25.0649833333333","6501100","汐止區"
"221025","623-UM","2019/10/03 18:39:48","新北市汐止區仁愛路121巷9號","121.662685","25.0643116666667","6501100","汐止區"
"221038","646-BX","2019/10/03 18:39:52","新北市汐止區秀峰路9號","121.659208333333","25.0662833333333","6501100","汐止區"
"221033","647-BX","2019/10/03 18:39:46","新北市汐止區東勢街20號","121.6246","25.0384816666667","6501100","汐止區"
"221002","707-TV","2019/10/03 18:39:52","新北市汐止區中興路25號","121.636883333333","25.0596","6501100","汐止區"
"221018","753-BX","2019/10/03 18:37:46","新北市汐止區茄苳路220號","121.670931666667","25.0686966666667","6501100","汐止區"
"220079","145-BY","2019/10/03 18:39:49","新北市板橋區大觀路一段31號","121.449715","25.008475","6500100","板橋區"
"220082","610-BX","2019/10/03 18:39:54","新北市板橋區大觀路三段59巷17弄6-1號","121.436496666667","24.99545","6500100","板橋區"
"220080","256-TC","2019/10/03 18:39:47","新北市板橋區大觀路二段265巷7-7號","121.44404","24.994625","6500100","板橋區"
"220056","276-BY","2019/10/03 18:39:57","新北市板橋區四川路一段59號","121.459691666667","25.0061633333333","6500100","板橋區"
"220101","280-UM","2019/10/03 18:39:52","新北市板橋區民生路二段161巷1號","121.47016","25.0198483333333","6500100","板橋區"
"220071","283-VK","2019/10/03 18:39:45","新北市板橋區四川路二段71號","121.453251666667","24.9950683333333","6500100","板橋區"
"220094","285-UM","2019/10/03 18:39:59","新北市板橋區民生路二段161巷3號","121.470201666667","25.01981","6500100","板橋區"
"220083","286-VK","2019/10/03 18:39:46","新北市板橋區大觀路二段266號","121.448618333333","24.9970733333333","6500100","板橋區"
"220081","287-VK","2019/10/03 18:39:49","新北市板橋區大觀路二段266號","121.448586666667","24.997015","6500100","板橋區"
"220090","288-VK","2019/10/03 18:39:57","新北市板橋區民生路二段89-6號","121.470675","25.0193066666667","6500100","板橋區"
"220061","293-UM","2019/10/03 18:39:57","新北市板橋區民生路二段120號","121.470348333333","25.0197133333333","6500100","板橋區"
"220084","296-UM","2019/10/03 18:39:54","新北市板橋區大觀路二段140號","121.442881666667","24.9991016666667","6500100","板橋區"
"242046","281-VK","2019/10/03 18:39:51","新北市新莊區富國路66巷5號","121.419846666667","25.02544","6500500","新莊區"
"220075","303-R5","2019/10/03 18:39:49","新北市板橋區南雅南路二段144巷60號","121.450248333333","24.9974266666667","6500100","板橋區"
"220062","305-R5","2019/10/03 18:39:43","新北市板橋區民生路二段161巷5號","121.470251666667","25.0197716666667","6500100","板橋區"
"220092","307-R5","2019/10/03 18:39:56","新北市板橋區民生路二段89-4號","121.471135","25.018325","6500100","板橋區"
"220098","317-R6","2019/10/03 18:39:57","新北市板橋區民生路二段180號","121.471041666667","25.020325","6500100","板橋區"
"220089","487-VK","2019/10/03 18:39:51","新北市板橋區民生路二段175號","121.469878333333","25.0202066666667","6500100","板橋區"
"220088","491-VK","2019/10/03 18:39:56","新北市板橋區民生路二段161巷1號","121.470011666667","25.0201383333333","6500100","板橋區"
"220035","560-BX","2019/10/03 18:39:39","新北市板橋區南雅西路二段145巷10號","121.45161","25.01193","6500100","板橋區"
"220103","561-BX","2019/10/03 18:39:53","新北市板橋區民生路二段89-4號","121.471566666667","25.0181416666667","6500100","板橋區"
"220065","568-UM","2019/10/03 18:39:58","新北市板橋區實踐路82號","121.463795","25.0053066666667","6500100","板橋區"
"220063","609-BX","2019/10/03 18:39:53","新北市板橋區民生路二段89-6號","121.470623333333","25.0193516666667","6500100","板橋區"
"220057","686-BX","2019/10/03 18:39:39","新北市板橋區館前西路4-1號","121.45928","25.0071266666667","6500100","板橋區"
"220077","687-BX","2019/10/03 18:39:58","新北市板橋區大觀路二段435-5號","121.446436666667","24.9952916666667","6500100","板橋區"
"220054","741-BX","2019/10/03 18:39:54","新北市板橋區南雅南路二段144巷60號","121.450145","24.997295","6500100","板橋區"
"220102","KEA-2699","2019/10/03 18:40:00","新北市板橋區民生路二段198號","121.469643333333","25.02086","6500100","板橋區"
"220055","827-TW","2019/10/03 18:39:57","新北市板橋區忠孝路33-1號","121.46081","25.0020116666667","6500100","板橋區"
"220067","829-TW","2019/10/03 18:39:48","新北市板橋區民生路二段121號","121.47086","25.018255","6500100","板橋區"
"220053","831-TW","2019/10/03 18:39:48","新北市板橋區民生路二段161巷5號","121.470256666667","25.019715","6500100","板橋區"
"220074","895-R6","2019/10/03 18:39:43","新北市板橋區南雅南路二段1-1號","121.454755","25.0038916666667","6500100","板橋區"
"220073","985-R7","2019/10/03 18:39:55","新北市板橋區四川路二段47巷2號","121.453885","24.995245","6500100","板橋區"
"220097","AAC-210","2019/10/03 18:38:02","新北市板橋區民生路二段120號","121.470323333333","25.0197016666667","6500100","板橋區"
"220064","AAC-253","2019/10/03 18:40:00","新北市板橋區民生路二段36-1號","121.472116666667","25.0167933333333","6500100","板橋區"
"235068","KEA-2873","2019/10/03 18:39:49","新北市中和區中正路211巷13弄7號","121.497155","24.99316","6500300","中和區"
"235061","KEA-2875","2019/10/03 18:39:57","新北市中和區民享街28號","121.473858333333","25.00359","6500300","中和區"
"235062","KEA-2876","2019/10/03 18:39:57","新北市中和區景平路703巷2弄2號","121.496185","25.0036066666667","6500300","中和區"
