"lineid","car","time","location","longitude","latitude","cityid","cityname"
"234046","148-BY","2019/10/03 18:49:44","新北市永和區秀朗路二段124-3號","121.524816666667","25.0015333333333","6500400","永和區"
"234081","298-R6","2019/10/03 18:49:55","新北市永和區永亨路98號","121.522976666667","25.00468","6500400","永和區"
"234038","336-UY","2019/10/03 18:49:53","新北市永和區成功路一段133號","121.526825","25.0017","6500400","永和區"
"234064","337-UY","2019/10/03 18:49:34","新北市永和區福和路1號","121.526188333333","25.009585","6500400","永和區"
"234086","338-UY","2019/10/03 18:49:58","新北市永和區中正路164號","121.515115","24.9967533333333","6500400","永和區"
"234017","745-BX","2019/10/03 18:49:57","新北市永和區忠孝街26巷13號","121.515253333333","25.0166116666667","6500400","永和區"
"234030","746-BX","2019/10/03 18:49:52","新北市永和區得和路321號","121.523353333333","24.9995933333333","6500400","永和區"
"234007","KED-0605","2019/10/03 18:49:51","新北市永和區文化路160號","121.512311666667","25.015385","6500400","永和區"
"234013","KEA-2591","2019/10/03 18:49:45","新北市永和區保福路二段133巷30號","121.509038333333","25.0134866666667","6500400","永和區"
"234061","AAD-866","2019/10/03 18:49:50","新北市永和區福和路309巷3號","121.516388333333","25.0069716666667","6500400","永和區"
"234042","862-TW","2019/10/03 18:49:53","新北市永和區永貞路308號","121.511831666667","25.0048633333333","6500400","永和區"
"234026","9371-KE","2019/10/03 18:49:51","新北市永和區自由街56號","121.513745","25.0059616666667","6500400","永和區"
"234011","9373-KE","2019/10/03 18:49:42","新北市永和區仁愛路73巷2弄1號","121.513393333333","25.0128133333333","6500400","永和區"
"249005","172-UM","2019/10/03 18:49:46","新北市八里區長道坑16-2號","121.394885","25.1171383333333","6502300","八里區"
"249001","173-UM","2019/10/03 18:49:54","新北市八里區龍米路二段16號","121.449038333333","25.1391266666667","6502300","八里區"
"249004","303-UY","2019/10/03 18:49:56","新北市八里區中山路一段150巷80號","121.416061666667","25.1602616666667","6502300","八里區"
"249003","593-UM","2019/10/03 18:33:56","新北市八里區博物館路10-1號","121.415095","25.163985","6502300","八里區"
"248016","025-BX","2019/10/03 18:49:54","新北市五股區成泰路三段543巷52號","121.44989","25.1029416666667","6501500","五股區"
"248006","077-UY","2019/10/03 18:49:52","新北市五股區四維路87號","121.467201666667","25.0725716666667","6501500","五股區"
"248008","KED-0815","2019/10/03 18:49:53","新北市五股區中興路一段132號","121.465238333333","25.0735766666667","6501500","五股區"
"248020","KED-0813","2019/10/03 18:49:53","新北市五股區凌雲路三段41-2號","121.430276666667","25.1175483333333","6501500","五股區"
"248012","247-BX","2019/10/03 18:49:42","新北市五股區成泰路二段147巷5-17號","121.437081666667","25.0882833333333","6501500","五股區"
"248004","677-BX","2019/10/03 18:49:49","新北市五股區民義路二段52-22號","121.409418333333","25.1053116666667","6501500","五股區"
"248002","678-BX","2019/10/03 18:49:46","新北市五股區成泰路三段454號","121.451395","25.1003233333333","6501500","五股區"
"248010","682-TV","2019/10/03 18:49:45","新北市五股區水碓九路35號","121.428781666667","25.0719616666667","6501500","五股區"
"234023","9380-KE","2019/10/03 18:49:47","新北市永和區竹林路119巷35號","121.521803333333","25.01185","6500400","永和區"
"234077","969-R7","2019/10/03 18:49:55","新北市永和區中正路42巷12號","121.513431666667","24.9940833333333","6500400","永和區"
"234003","AAC-295","2019/10/03 18:49:56","新北市永和區中正路696-1號","121.516408333333","25.0097766666667","6500400","永和區"
"232011","375-UM","2019/10/03 18:49:57","新北市坪林區坪碇路83號","121.71183","24.9384466666667","6502000","坪林區"
"244007","080-UY","2019/10/03 18:49:57","新北市林口區太平里10鄰26號","121.375916666667","25.1156583333333","6501700","林口區"
"244013","KEA-2802","2019/10/03 18:49:44","新北市林口區麗園二街23巷15-9號","121.379171666667","25.07025","6501700","林口區"
"244023","483-VK","2019/10/03 18:49:52","新北市林口區文化二路二段102號","121.378831666667","25.0817116666667","6501700","林口區"
"244017","485-VK","2019/10/03 18:49:40","新北市林口區文化二路一段68巷18-2號","121.366138333333","25.0677133333333","6501700","林口區"
"244009","656-BX","2019/10/03 18:49:58","新北市林口區竹林路350號","121.391483333333","25.0840766666667","6501700","林口區"
"244011","701-TV","2019/10/03 18:49:39","新北市林口區仁愛路一段285巷60號","121.395426666667","25.07442","6501700","林口區"
"244025","837-TS","2019/10/03 18:49:41","新北市林口區忠孝一路160號","121.359471666667","25.0738866666667","6501700","林口區"
"243010","297-R6","2019/10/03 18:49:54","新北市泰山區辭修路48號","121.428396666667","25.05719","6501600","泰山區"
"243014","KEA-2801","2019/10/03 18:49:50","新北市泰山區犁頭窠3-1號","121.422241666667","25.0604866666667","6501600","泰山區"
"243016","421-VK","2019/10/03 18:49:43","新北市泰山區明志路一段509號","121.430528333333","25.0544666666667","6501600","泰山區"
"243015","680-BX","2019/10/03 18:49:47","新北市泰山區美寧街48號","121.43054","25.0643583333333","6501600","泰山區"
"222003","436-BY","2019/10/03 18:50:00","新北市深坑區深南路43號","121.620536666667","25.0095033333333","6501800","深坑區"
"222002","659-BX","2019/10/03 18:49:42","新北市深坑區文山路一段69號","121.627023333333","25.0018733333333","6501800","深坑區"
"231061","002-UM","2019/10/03 18:49:42","新北市新店區安華路28-1號","121.519718333333","24.9609766666667","6500600","新店區"
"231044","046-UY","2019/10/03 18:49:53","新北市新店區寶中路49-1號","121.546516666667","24.9798766666667","6500600","新店區"
"231060","106-UY","2019/10/03 18:49:58","新北市新店區安華路28-1號","121.519798333333","24.9607866666667","6500600","新店區"
"231051","107-UY","2019/10/03 18:49:51","新北市新店區中央路87號","121.532231666667","24.976435","6500600","新店區"
"231049","108-UY","2019/10/03 18:49:51","新北市新店區中央路181-1號","121.535831666667","24.969045","6500600","新店區"
"231065","110-UY","2019/10/03 18:49:39","新北市新店區安康路二段397巷2-1號","121.494495","24.9537416666667","6500600","新店區"
"231062","256-BX","2019/10/03 18:49:41","新北市新店區安一路一段1-1號","121.519688333333","24.9611833333333","6500600","新店區"
"231054","260-TV","2019/10/03 18:49:42","新北市新店區安一路一段1-1號","121.519278333333","24.961285","6500600","新店區"
"231042","268-BY","2019/10/03 18:49:41","新北市新店區北新路一段72號","121.541416666667","24.967275","6500600","新店區"
"231064","278-BY","2019/10/03 18:49:44","新北市新店區安一路一段1-1號","121.519605","24.9611216666667","6500600","新店區"
"231050","AAD-862","2019/10/03 18:49:49","新北市新店區安康路一段223號","121.525696666667","24.9630066666667","6500600","新店區"
"231045","355-BY","2019/10/03 18:49:44","新北市新店區安華路28-1號","121.5193","24.96088","6500600","新店區"
"231058","3713-VJ","2019/10/03 18:49:45","新北市新店區北宜路一段105巷4弄13號","121.54075","24.955445","6500600","新店區"
"231055","4716-K9","2019/10/03 18:49:38","新北市新店區新生街27巷15號","121.539243333333","24.9667933333333","6500600","新店區"
"231056","4715-K9","2019/10/03 18:49:51","新北市新店區大同街2號","121.539806666667","24.9799983333333","6500600","新店區"
"231052","515-UM","2019/10/03 18:49:45","新北市新店區新烏路一段105巷9-1號","121.546338333333","24.9409033333333","6500600","新店區"
"231041","619-UM","2019/10/03 18:49:52","新北市新店區安華路28-1號","121.519481666667","24.9608266666667","6500600","新店區"
"231063","641-BX","2019/10/03 18:49:59","新北市新店區安華路28-1號","121.519618333333","24.96057","6500600","新店區"
"231047","KED-0819","2019/10/03 18:49:52","新北市新店區北新路一段150號","121.542573333333","24.9706433333333","6500600","新店區"
"231046","719-UM","2019/10/03 18:49:53","新北市新店區直潭路77號","121.531991666667","24.9420866666667","6500600","新店區"
"231057","720-UM","2019/10/03 18:49:43","新北市新店區新烏路一段201號","121.548341666667","24.931825","6500600","新店區"
"231059","897-TW","2019/10/03 18:49:50","新北市新店區安華路28-1號","121.519571666667","24.9606666666667","6500600","新店區"
"231040","898-TW","2019/10/03 18:49:46","新北市新店區安康路一段35號","121.531718333333","24.9607633333333","6500600","新店區"
"231043","899-TW","2019/10/03 18:49:41","新北市新店區安一路一段1-1號","121.519636666667","24.9612466666667","6500600","新店區"
"231066","AKT-0513","2019/10/03 18:49:44","新北市新店區安華路1-1號","121.519335","24.9605433333333","6500600","新店區"
"235066","003-UY","2019/10/03 18:49:43","新北市中和區中山路二段131巷33號","121.503806666667","25.00281","6500300","中和區"
"235063","006-UY","2019/10/03 18:49:41","新北市中和區連城路319巷11弄1號","121.489396666667","24.995055","6500300","中和區"
"235056","096-UM","2019/10/03 18:49:59","新北市中和區員山路466巷17弄35號","121.480453333333","25.0074833333333","6500300","中和區"
"235039","097-UM","2019/10/03 18:49:45","新北市中和區安樂路217巷40弄1號","121.51328","24.9979033333333","6500300","中和區"
"235065","098-UM","2019/10/03 18:49:56","新北市中和區中山路二段2巷45弄26-7號","121.501236666667","25.0070666666667","6500300","中和區"
"235040","150-BY","2019/10/03 18:49:40","新北市中和區安平路36巷1號","121.510051666667","24.99489","6500300","中和區"
"235058","151-BY","2019/10/03 18:49:57","新北市中和區連城路532巷3-3號","121.475368333333","24.99189","6500300","中和區"
"235055","183-VK","2019/10/03 18:49:50","新北市中和區中山路三段227號","121.470883333333","25.006565","6500300","中和區"
"235038","185-VK","2019/10/03 18:49:42","新北市中和區立人街38號","121.51815","24.9941466666667","6500300","中和區"
"235067","255-BX","2019/10/03 18:49:44","新北市中和區中正路803號","121.48457","25.0010566666667","6500300","中和區"
"235044","293-VK","2019/10/03 18:49:56","新北市中和區中興街169號","121.49993","24.9905166666667","6500300","中和區"
"235072","301-VK","2019/10/03 18:49:39","新北市中和區中山路二段172號","121.501183333333","25.002865","6500300","中和區"
"235043","352-BY","2019/10/03 18:49:44","新北市中和區秀朗路三段60-1號","121.526386666667","24.9950033333333","6500300","中和區"
"235042","KEA-2878","2019/10/03 18:49:39","新北市中和區秀朗路三段70巷38號","121.52544","24.9944783333333","6500300","中和區"
"247016","KEA-2869","2019/10/03 18:49:56","新北市五股區凌雲路二段18巷12號","121.444448333333","25.10679","6501400","蘆洲區"
"235050","4979-A6","2019/10/03 18:49:53","新北市中和區忠孝街60巷7號","121.511715","24.9838133333333","6500300","中和區"
"235069","4980-A6","2019/10/03 18:49:53","新北市中和區連城路61號","121.497585","25.0014366666667","6500300","中和區"
"235070","558-UM","2019/10/03 18:49:52","新北市中和區安和路163號","121.506268333333","24.99753","6500300","中和區"
"235045","565-BX","2019/10/03 18:49:43","新北市中和區興南路一段86號","121.509796666667","24.9893433333333","6500300","中和區"
"235060","KED-0823","2019/10/03 18:49:57","新北市中和區民治街6巷1號","121.474933333333","25.0053266666667","6500300","中和區"
"235054","640-BX","2019/10/03 18:49:44","新北市中和區中山路三段147號","121.473708333333","25.0062066666667","6500300","中和區"
"235047","732-UM","2019/10/03 18:49:53","新北市中和區興南路二段34巷28弄2號","121.505025","24.986495","6500300","中和區"
"235057","801-TS","2019/10/03 18:49:58","新北市中和區民利街58巷5號","121.478776666667","24.9992683333333","6500300","中和區"
"235041","802-TS","2019/10/03 18:49:38","新北市中和區安平路133號","121.511683333333","24.9981483333333","6500300","中和區"
"235052","805-TS","2019/10/03 18:49:57","新北市中和區興南路二段399巷98弄40號","121.499756666667","24.97733","6500300","中和區"
"235048","896-TW","2019/10/03 18:49:55","新北市中和區華新街32號","121.50777","24.984535","6500300","中和區"
"235053","900-TW","2019/10/03 18:49:51","新北市中和區民德路290巷12號","121.467098333333","24.9958433333333","6500300","中和區"
"235064","911-UM","2019/10/03 18:49:44","新北市中和區泰和街30巷25號","121.498878333333","25.001295","6500300","中和區"
"235051","157-BY","2019/10/03 18:49:52","新北市中和區忠孝街106巷56號","121.513766666667","24.9842933333333","6500300","中和區"
"235037","AAC-213","2019/10/03 18:49:52","新北市中和區秀朗路三段10巷37弄4號","121.52416","24.9960466666667","6500300","中和區"
"235059","AAC-215","2019/10/03 18:49:50","新北市中和區圓通路393巷21號","121.490198333333","24.9884766666667","6500300","中和區"
"220086","073-UY","2019/10/03 18:49:46","新北市板橋區南雅西路二段145巷6號","121.451608333333","25.01169","6500100","板橋區"
"220106","075-UY","2019/10/03 18:49:52","新北市板橋區文化路二段124巷28-2號","121.471231666667","25.0256616666667","6500100","板橋區"
"220069","AAD-861","2019/10/03 18:49:45","新北市板橋區華興街73-1號","121.457063333333","25.00507","6500100","板橋區"
"220068","120-SR","2019/10/03 18:49:44","新北市板橋區大同街35巷28號","121.477375","25.027825","6500100","板橋區"
"226004","312-R5","2019/10/03 18:49:48","新北市平溪區平溪里三坑路4號","121.737528333333","25.0282266666667","6502400","平溪區"
"235049","251-BX","2019/10/03 18:49:46","新北市中和區景安路177巷29號","121.506716666667","24.9946633333333","6500300","中和區"
"228003","097-TW","2019/10/03 18:49:39","新北市貢寮區和美里龍洞街63-7號","121.917558333333","25.11859","6502600","貢寮區"
"228001","212-TW","2019/10/03 18:49:46","新北市貢寮區仁理村研海街12-1號","121.923831666667","25.0516683333333","6502600","貢寮區"
"228002","663-BX","2019/10/03 18:49:52","新北市貢寮區福隆里東興街6-11號","121.95076","25.0210733333333","6502600","貢寮區"
"224010","AGQ-8101","2019/10/03 18:49:51","新北市瑞芳區基山街61號","121.84523","25.1085933333333","6501200","瑞芳區"
"224006","676-BX","2019/10/03 18:49:41","新北市瑞芳區中正路27號","121.807728333333","25.10712","6501200","瑞芳區"
"224002","639-TC","2019/10/03 18:49:40","新北市瑞芳區傑魚坑路44-1號","121.793638333333","25.10748","6501200","瑞芳區"
"224007","285-BY","2019/10/03 18:49:41","新北市瑞芳區大埔路東泰新村1號","121.761325","25.10106","6501200","瑞芳區"
"224009","275-VK","2019/10/03 18:49:51","新北市瑞芳區五號路253-1號","121.858633333333","25.1142766666667","6501200","瑞芳區"
"224008","273-VK","2019/10/03 18:49:53","新北市瑞芳區逢甲路338號","121.802953333333","25.1117983333333","6501200","瑞芳區"
"224005","271-BY","2019/10/03 18:49:53","新北市瑞芳區濱二路69號","121.82989","25.1199716666667","6501200","瑞芳區"
"227002","642-TC","2019/10/03 18:49:58","新北市雙溪區共和里中山路39號","121.866128333333","25.0323333333333","6502500","雙溪區"
"227001","400-TW","2019/10/03 18:49:52","新北市雙溪區牡丹里下坑11號","121.850975","25.0561833333333","6502500","雙溪區"
"253005","032-BX","2019/10/03 18:49:42","新北市石門區石門街2巷20號","121.565581666667","25.2905433333333","6502200","石門區"
"253006","295-VK","2019/10/03 18:49:57","新北市石門區下員坑15號","121.510651666667","25.2838466666667","6502200","石門區"
"222001","KEA-2212","2019/10/03 18:49:48","新北市深坑區北深路一段32號","121.638143333333","25.0105416666667","6501800","深坑區"
"208002","KEA-2872","2019/10/03 18:49:47","新北市金山區仁愛路37-10號","121.635995","25.2191516666667","6502700","金山區"
"208003","665-BX","2019/10/03 18:49:57","新北市金山區中山路310號","121.63436","25.22475","6502700","金山區"
"251002","012-UM","2019/10/03 18:49:52","新北市淡水區學府路83號","121.448608333333","25.170195","6501000","淡水區"
"251015","KEA-2871","2019/10/03 18:49:52","新北市淡水區樹興里25號","121.486918333333","25.1699433333333","6501000","淡水區"
"251016","179-VK","2019/10/03 18:49:49","新北市淡水區下圭柔山71-3號","121.447015","25.20619","6501000","淡水區"
"251013","182-VK","2019/10/03 18:49:59","新北市淡水區安子內5號","121.483991666667","25.2146716666667","6501000","淡水區"
"251010","413-VK","2019/10/03 18:49:43","新北市淡水區沙崙路24號","121.421281666667","25.1812116666667","6501000","淡水區"
"251012","441-VK","2019/10/03 18:49:48","新北市淡水區中山北路一段158號","121.444188333333","25.17785","6501000","淡水區"
"251001","559-UM","2019/10/03 18:49:52","新北市淡水區自強路108-1號","121.461973333333","25.1299316666667","6501000","淡水區"
"251009","575-R6","2019/10/03 18:49:47","新北市淡水區中山北路一段166號","121.444175","25.1784633333333","6501000","淡水區"
"251014","577-R6","2019/10/03 18:49:31","新北市淡水區崙頂3號","121.491053333333","25.2239316666667","6501000","淡水區"
"251011","650-BX","2019/10/03 18:49:49","新北市淡水區學府路32巷1號","121.448585","25.1685333333333","6501000","淡水區"
"251003","766-UM","2019/10/03 18:49:49","新北市淡水區中山北路一段212巷38號","121.446176666667","25.179045","6501000","淡水區"
"207003","550-UM","2019/10/03 18:49:45","新北市萬里區野柳里港東路112-1號","121.688976666667","25.203855","6502800","萬里區"
"207004","291-VK","2019/10/03 18:49:56","新北市萬里區萬里里獅頭路23號","121.693223333333","25.1783016666667","6502800","萬里區"
"252002","178-VK","2019/10/03 18:49:59","新北市三芝區中正路一段83號","121.504346666667","25.2567766666667","6502100","三芝區"
"252003","249-BX","2019/10/03 18:49:50","新北市三芝區後厝里大片頭81-1號","121.459076666667","25.2443033333333","6502100","三芝區"
"208001","170-UY","2019/10/03 18:49:55","新北市金山區文化三路66巷1號","121.634195","25.22566","6502700","金山區"
"237007","153-BY","2019/10/03 18:49:59","新北市三峽區大埔路115號","121.366535","24.906725","6500900","三峽區"
"237009","210-TH","2019/10/03 18:49:53","新北市三峽區中山路54號","121.368391666667","24.93452","6500900","三峽區"
"237013","252-BX","2019/10/03 18:49:53","新北市三峽區光明路69巷25號","121.37661","24.92924","6500900","三峽區"
"237012","275-BY","2019/10/03 18:49:54","新北市三峽區三樹路340號","121.383941666667","24.9433016666667","6500900","三峽區"
"237008","302-VK","2019/10/03 18:49:49","新北市三峽區白雞33-60號","121.370895","24.9131133333333","6500900","三峽區"
"237014","433-BY","2019/10/03 18:49:49","新北市三峽區隆恩街250號","121.357025","24.9406583333333","6500900","三峽區"
"237006","5529-G3","2019/10/03 18:49:40","新北市三峽區溪東路315巷68號","121.411828333333","24.9312833333333","6500900","三峽區"
"237011","KEA-2596","2019/10/03 18:49:58","新北市三峽區溪東路351號","121.411401666667","24.9295266666667","6500900","三峽區"
"237015","649-BX","2019/10/03 18:49:42","新北市三峽區建安77-1號","121.450753333333","24.9247416666667","6500900","三峽區"
"237010","706-TV","2019/10/03 18:49:58","新北市三峽區復興路487號","121.361298333333","24.9384566666667","6500900","三峽區"
"237004","756-BX","2019/10/03 18:49:42","新北市三峽區插角130號","121.407871666667","24.8704283333333","6500900","三峽區"
"237005","AKY-6261","2019/10/03 18:49:57","新北市三峽區新興街25號","121.37273","24.9354366666667","6500900","三峽區"
"236042","KED-0685","2019/10/03 18:49:46","新北市土城區裕民路92巷25弄4號","121.449621666667","24.985845","6501300","土城區"
"236078","166-UM","2019/10/03 18:49:40","新北市土城區中央路四段125巷7號","121.416653333333","24.95728","6501300","土城區"
"236030","253-BX","2019/10/03 18:49:51","新北市土城區忠義路26巷10號","121.439858333333","24.9698783333333","6501300","土城區"
"236026","269-VK","2019/10/03 18:49:56","新北市土城區農豐街12-1號","121.442485","24.9738816666667","6501300","土城區"
"236014","270-VK","2019/10/03 18:49:52","新北市土城區金城路二段356號","121.46086","24.9845633333333","6501300","土城區"
"236038","271-VK","2019/10/03 18:49:53","新北市土城區明德路一段195巷3弄5號","121.464275","24.9785783333333","6501300","土城區"
"236070","KEA-2877","2019/10/03 18:49:57","新北市土城區延和路21巷19號","121.463976666667","24.9888683333333","6501300","土城區"
"252001","KED-0821","2019/10/03 18:49:45","新北市三芝區中正路三段9號","121.502836666667","25.25401","6502100","三芝區"
"236021","401-BY","2019/10/03 18:49:51","新北市土城區明峰街43-1號","121.46696","24.9862033333333","6501300","土城區"
"236059","912-UM","2019/10/03 18:49:56","新北市土城區金城路一段66號","121.443028333333","24.9714066666667","6501300","土城區"
"236049","913-UM","2019/10/03 18:49:57","新北市板橋區信義路170巷10號","121.459953333333","24.99065","6501300","土城區"
"236063","915-UM","2019/10/03 18:49:57","新北市土城區金城路三段185-1號","121.469726666667","24.988895","6501300","土城區"
"236055","AAC-216","2019/10/03 18:49:50","新北市土城區裕民路116號","121.4511","24.9865316666667","6501300","土城區"
"238023","601-UM","2019/10/03 18:49:55","桃園市龜山區萬壽路一段424號","121.399488333333","25.01644","6500700","樹林區"
"238024","5061-A6","2019/10/03 18:49:59","新北市樹林區太平路247巷24-4號","121.419786666667","24.97484","6500700","樹林區"
"238022","KEA-2213","2019/10/03 18:49:45","新北市樹林區中華路393號","121.411323333333","24.9804383333333","6500700","樹林區"
"238021","KEA-2539","2019/10/03 18:49:47","新北市樹林區西圳街二段57巷1號","121.3874","24.960215","6500700","樹林區"
"238020","268-VK","2019/10/03 18:49:59","新北市樹林區俊英街223巷2號","121.423711666667","25.0133466666667","6500700","樹林區"
"238026","172-UY","2019/10/03 18:49:52","新北市樹林區中山路三段210-2號","121.382263333333","24.96584","6500700","樹林區"
"238016","169-UY","2019/10/03 18:49:47","新北市樹林區中山路一段412號","121.417385","24.9851716666667","6500700","樹林區"
"239007","AAC-297","2019/10/03 18:49:41","新北市鶯歌區中正一路465號","121.371051666667","24.958695","6500800","鶯歌區"
"239008","527-UM","2019/10/03 18:49:54","新北市鶯歌區朝陽街4號","121.336245","24.9765983333333","6500800","鶯歌區"
"239005","526-UM","2019/10/03 18:49:55","新北市鶯歌區鳳吉二街22號","121.325823333333","24.9732","6500800","鶯歌區"
"239001","417-VK","2019/10/03 18:49:45","新北市鶯歌區國中街176號","121.338481666667","24.93936","6500800","鶯歌區"
"239003","360-BY","2019/10/03 18:49:47","新北市鶯歌區永和街116號","121.334631666667","24.9692633333333","6500800","鶯歌區"
"239002","359-BY","2019/10/03 18:49:52","新北市鶯歌區國慶街167號","121.3512","24.953","6500800","鶯歌區"
"239004","193-VK","2019/10/03 18:49:52","新北市鶯歌區尖山路388巷2號","121.341901666667","24.943415","6500800","鶯歌區"
"221036","130-UY","2019/10/03 18:49:44","新北市汐止區大同路三段21號","121.666475","25.076165","6501100","汐止區"
"244019","KED-0667","2019/10/03 18:49:48","新北市林口區麗園二街1巷6-2號","121.37801","25.0701","6501700","林口區"
"221032","280-BY","2019/10/03 18:49:44","新北市汐止區民權街二段79號","121.619126666667","25.0479633333333","6501100","汐止區"
"221029","298-VK","2019/10/03 18:49:52","新北市汐止區工建路66號","121.640391666667","25.0630116666667","6501100","汐止區"
"221021","299-VK","2019/10/03 18:49:50","新北市汐止區新興路83號","121.657606666667","25.0621216666667","6501100","汐止區"
"221031","353-TW","2019/10/03 18:49:58","新北市汐止區中興路102號","121.634205","25.0627","6501100","汐止區"
"221015","567-BX","2019/10/03 18:49:43","新北市汐止區鄉友街1號","121.667965","25.08064","6501100","汐止區"
"221035","622-UM","2019/10/03 18:49:47","新北市汐止區大同路二段33號","121.64774","25.06316","6501100","汐止區"
"221025","623-UM","2019/10/03 18:49:51","新北市汐止區仁愛路113巷23號","121.661766666667","25.064175","6501100","汐止區"
"221002","707-TV","2019/10/03 18:49:52","新北市汐止區大同路一段149號","121.63206","25.05614","6501100","汐止區"
"221018","753-BX","2019/10/03 18:49:46","新北市汐止區茄苳路293號","121.672865","25.067405","6501100","汐止區"
"220079","145-BY","2019/10/03 18:49:49","新北市板橋區大仁街107號","121.45264","25.01564","6500100","板橋區"
"220082","610-BX","2019/10/03 18:49:55","新北市板橋區篤行路三段玉平巷45號","121.428658333333","24.986835","6500100","板橋區"
"220080","256-TC","2019/10/03 18:49:57","新北市板橋區大觀路二段397號","121.441198333333","24.997125","6500100","板橋區"
"220056","276-BY","2019/10/03 18:49:55","新北市板橋區四川路一段479號","121.457143333333","24.9973883333333","6500100","板橋區"
"220072","277-BY","2019/10/03 18:49:55","新北市板橋區金門街27號","121.433518333333","24.994415","6500100","板橋區"
"220101","280-UM","2019/10/03 18:49:52","新北市板橋區莊敬路92號","121.471386666667","25.0245733333333","6500100","板橋區"
"220071","283-VK","2019/10/03 18:49:51","新北市板橋區四川路一段168號","121.459933333333","25.0030516666667","6500100","板橋區"
"220094","285-UM","2019/10/03 18:49:39","新北市板橋區文化路二段76號","121.469486666667","25.0249383333333","6500100","板橋區"
"220083","286-VK","2019/10/03 18:49:46","新北市板橋區僑中二街116巷2號","121.445635","25.0064283333333","6500100","板橋區"
"220081","287-VK","2019/10/03 18:49:54","新北市板橋區光華街13巷52號","121.45272","25.011285","6500100","板橋區"
"220090","288-VK","2019/10/03 18:49:57","新北市板橋區四維路177巷4弄22號","121.463358333333","25.0267466666667","6500100","板橋區"
"220061","293-UM","2019/10/03 18:49:57","新北市板橋區永豐街111號","121.474118333333","25.01958","6500100","板橋區"
"220084","296-UM","2019/10/03 18:49:54","新北市板橋區大觀路二段150巷23號","121.441623333333","24.9994883333333","6500100","板橋區"
"220034","297-UM","2019/10/03 18:41:55","新北市板橋區華東街1-10號","121.448461666667","24.9949116666667","6500100","板橋區"
"220075","303-R5","2019/10/03 18:49:49","新北市板橋區大觀路一段11號","121.450436666667","25.0084266666667","6500100","板橋區"
"220062","305-R5","2019/10/03 18:49:43","新北市板橋區觀光街2號","121.472413333333","25.015325","6500100","板橋區"
"220092","307-R5","2019/10/03 18:49:56","新北市板橋區文化路一段136巷8弄8號","121.46551","25.018145","6500100","板橋區"
"220098","317-R6","2019/10/03 18:49:57","新北市板橋區民生路二段234巷77號","121.47029","25.0225883333333","6500100","板橋區"
"220089","487-VK","2019/10/03 18:49:51","新北市板橋區文化路二段419號","121.474476666667","25.032815","6500100","板橋區"
"220088","491-VK","2019/10/03 18:49:59","新北市板橋區民生路二段222號","121.469136666667","25.021765","6500100","板橋區"
"220035","560-BX","2019/10/03 18:49:54","新北市板橋區中正路275巷68號","121.452721666667","25.01791","6500100","板橋區"
"220103","561-BX","2019/10/03 18:49:53","新北市板橋區文化路一段188巷9弄86-3號","121.46903","25.0187416666667","6500100","板橋區"
"220065","568-UM","2019/10/03 18:49:38","新北市板橋區館前東路108號","121.463108333333","25.0075183333333","6500100","板橋區"
"220063","609-BX","2019/10/03 18:49:53","新北市板橋區中山路二段73號","121.473738333333","25.0158","6500100","板橋區"
"220091","637-BX","2019/10/03 18:49:47","新北市板橋區雙十路二段47巷52號","121.474805","25.0253566666667","6500100","板橋區"
"220057","686-BX","2019/10/03 18:49:59","新北市板橋區重慶路171號","121.462676666667","25.00263","6500100","板橋區"
"220077","687-BX","2019/10/03 18:49:58","新北市板橋區大觀路二段174巷172號","121.441965","25.0034633333333","6500100","板橋區"
"220054","741-BX","2019/10/03 18:49:54","新北市板橋區館前東路15號","121.460073333333","25.0072616666667","6500100","板橋區"
"220102","KEA-2699","2019/10/03 18:49:41","新北市板橋區萬板路508號","121.480445","25.0262883333333","6500100","板橋區"
"220055","827-TW","2019/10/03 18:49:58","新北市板橋區忠孝路87號","121.46216","25.0022233333333","6500100","板橋區"
"220067","829-TW","2019/10/03 18:49:48","新北市板橋區中山路二段90巷47弄16號","121.477376666667","25.014905","6500100","板橋區"
"220053","831-TW","2019/10/03 18:49:48","新北市板橋區永豐街75巷15-2號","121.473051666667","25.018835","6500100","板橋區"
"220074","895-R6","2019/10/03 18:49:43","新北市板橋區府中路53號","121.458571666667","25.00944","6500100","板橋區"
"220073","985-R7","2019/10/03 18:49:55","新北市板橋區華興街20號","121.45927","25.0047116666667","6500100","板橋區"
"220097","AAC-210","2019/10/03 18:49:30","新北市板橋區漢生西路183號","121.463283333333","25.0239316666667","6500100","板橋區"
"220064","AAC-253","2019/10/03 18:50:00","新北市板橋區漢生東路117號","121.467411666667","25.0148033333333","6500100","板橋區"
"235068","KEA-2873","2019/10/03 18:49:49","新北市中和區圓通路291巷2號","121.495216666667","24.992595","6500300","中和區"
"235061","KEA-2875","2019/10/03 18:49:57","新北市中和區民治街132巷7號","121.474978333333","25.002285","6500300","中和區"
"235062","KEA-2876","2019/10/03 18:49:57","新北市中和區中山路二段350號","121.493026666667","25.0024066666667","6500300","中和區"
