"lineid","car","time","location","longitude","latitude","cityid","cityname"
"234046","148-BY","2019/10/03 19:19:44","新北市永和區得和路354號","121.523905","24.9994466666667","6500400","永和區"
"234081","298-R6","2019/10/03 19:19:34","新北市永和區福和路59號","121.522986666667","25.0078166666667","6500400","永和區"
"234038","336-UY","2019/10/03 19:19:32","新北市永和區民樂街70號","121.527373333333","24.99845","6500400","永和區"
"234064","337-UY","2019/10/03 19:19:34","新北市永和區永元路17巷15號","121.521311666667","25.0007516666667","6500400","永和區"
"234086","338-UY","2019/10/03 19:19:38","新北市永和區永利路86號","121.52071","25.0039966666667","6500400","永和區"
"234070","552-UM","2019/10/03 19:19:41","新北市永和區豫溪街79號","121.517906666667","25.0099733333333","6500400","永和區"
"234017","745-BX","2019/10/03 19:19:37","新北市永和區文化路144巷19弄12號","121.51239","25.0167216666667","6500400","永和區"
"234030","746-BX","2019/10/03 19:19:42","新北市永和區民生路8-1號","121.522648333333","24.997715","6500400","永和區"
"234054","KEA-2590","2019/10/03 19:19:36","新北市永和區中興街27號","121.516118333333","25.012015","6500400","永和區"
"234007","KED-0605","2019/10/03 19:19:31","新北市永和區永貞路375號","121.50821","25.0082133333333","6500400","永和區"
"234013","KEA-2591","2019/10/03 19:19:45","新北市永和區信義路56號","121.513051666667","25.0125583333333","6500400","永和區"
"234061","AAD-866","2019/10/03 19:19:30","新北市永和區秀朗路一段175號","121.516993333333","25.0037233333333","6500400","永和區"
"234042","862-TW","2019/10/03 19:19:43","新北市永和區保平路151巷6弄11號","121.50981","25.0050066666667","6500400","永和區"
"234050","863-TW","2019/10/03 19:19:34","新北市永和區保福路二段88巷28號","121.511993333333","25.0135983333333","6500400","永和區"
"234026","9371-KE","2019/10/03 19:19:31","新北市永和區安樂路144巷29號","121.515163333333","24.9997883333333","6500400","永和區"
"234011","9373-KE","2019/10/03 19:19:42","新北市永和區保福路二段23巷8號","121.510366666667","25.011265","6500400","永和區"
"249001","173-UM","2019/10/03 19:19:34","新北市八里區文昌七街二段167號","121.409371666667","25.1527983333333","6502300","八里區"
"249003","593-UM","2019/10/03 19:19:33","新北市八里區中山路二段462號","121.39901","25.1472666666667","6502300","八里區"
"248008","KED-0815","2019/10/03 19:19:33","新北市五股區中興路二段63巷17號","121.460183333333","25.075305","6501500","五股區"
"248020","KED-0813","2019/10/03 19:19:33","新北市五股區凌雲路三段57號","121.425266666667","25.1249783333333","6501500","五股區"
"248012","247-BX","2019/10/03 19:19:42","新北市五股區中興路四段48巷16號","121.438575","25.0834266666667","6501500","五股區"
"248014","261-SL","2019/10/03 19:19:40","新北市五股區民義路一段163-2號","121.43206","25.0878166666667","6501500","五股區"
"248004","677-BX","2019/10/03 19:19:34","新北市五股區五福路116號","121.43227","25.0908783333333","6501500","五股區"
"248002","678-BX","2019/10/03 19:19:45","新北市五股區凌雲路一段158巷6號","121.447776666667","25.1029666666667","6501500","五股區"
"234023","9380-KE","2019/10/03 19:19:47","新北市永和區竹林路109巷5號","121.52021","25.012005","6500400","永和區"
"234077","969-R7","2019/10/03 19:19:34","新北市永和區民治街70號","121.517831666667","24.9982866666667","6500400","永和區"
"234074","AAC-211","2019/10/03 19:19:44","新北市永和區竹林路101號","121.519728333333","25.0119566666667","6500400","永和區"
"234067","AAC-212","2019/10/03 19:19:45","新北市永和區保平路38-1號","121.511628333333","25.0071266666667","6500400","永和區"
"234003","AAC-295","2019/10/03 19:19:36","新北市永和區中山路一段101號","121.511096666667","25.010395","6500400","永和區"
"244023","483-VK","2019/10/03 19:19:31","新北市林口區文化三路一段617巷90號","121.370213333333","25.07755","6501700","林口區"
"244025","837-TS","2019/10/03 19:19:41","新北市林口區文化北路一段542巷55弄1號","121.369155","25.0784866666667","6501700","林口區"
"243011","267-VK","2019/10/03 19:19:42","新北市泰山區貴子路15巷3弄1號","121.426446666667","25.0421783333333","6501600","泰山區"
"243012","AAD-798","2019/10/03 19:19:43","新北市泰山區同義街22號","121.431621666667","25.056375","6501600","泰山區"
"243010","297-R6","2019/10/03 19:19:34","新北市泰山區明志路一段494號","121.430193333333","25.05466","6501600","泰山區"
"243014","KEA-2801","2019/10/03 19:19:30","新北市泰山區泰林路二段206號","121.433251666667","25.0613916666667","6501600","泰山區"
"243016","421-VK","2019/10/03 19:19:43","新北市泰山區工專路82巷1號","121.42236","25.0405733333333","6501600","泰山區"
"243009","KEA-2215","2019/10/03 19:19:50","新北市泰山區明志路一段94號","121.433463333333","25.064035","6501600","泰山區"
"243013","646-TV","2019/10/03 19:19:48","新北市泰山區明志路三段145巷2弄14號","121.425076666667","25.03949","6501600","泰山區"
"243015","680-BX","2019/10/03 19:19:47","新北市泰山區公園路27巷2號","121.428781666667","25.05438","6501600","泰山區"
"222003","436-BY","2019/10/03 19:19:40","新北市深坑區深南路91號","121.626568333333","25.016005","6501800","深坑區"
"222002","659-BX","2019/10/03 19:19:42","新北市深坑區北深路一段177號","121.632528333333","25.0108566666667","6501800","深坑區"
"231061","002-UM","2019/10/03 19:19:42","新北市新店區安康路一段46巷4號","121.530585","24.961115","6500600","新店區"
"231044","046-UY","2019/10/03 19:19:33","新北市新店區中興路三段327號","121.541985","24.986385","6500600","新店區"
"231060","106-UY","2019/10/03 19:19:34","新北市新店區安康路二段140號","121.512448333333","24.9618183333333","6500600","新店區"
"231051","107-UY","2019/10/03 19:19:31","新北市新店區中央路109號","121.531006666667","24.9746483333333","6500600","新店區"
"231049","108-UY","2019/10/03 19:19:48","新北市新店區明德路68號","121.54149","24.9796666666667","6500600","新店區"
"231065","110-UY","2019/10/03 19:19:39","新北市新店區安祥路109巷3弄11號","121.478291666667","24.9612883333333","6500600","新店區"
"231062","256-BX","2019/10/03 19:19:41","新北市新店區安康路一段94-3號","121.527591666667","24.9622116666667","6500600","新店區"
"231054","260-TV","2019/10/03 19:19:42","新北市新店區國校路55號","121.538185","24.9543783333333","6500600","新店區"
"231042","268-BY","2019/10/03 19:19:41","新北市新店區北宜路一段3號","121.538388333333","24.9585216666667","6500600","新店區"
"231064","278-BY","2019/10/03 19:19:44","新北市新店區安忠路57巷26弄45號","121.512015","24.9576133333333","6500600","新店區"
"231050","AAD-862","2019/10/03 19:19:29","新北市新店區竹林路30巷1號","121.552288333333","24.9513283333333","6500600","新店區"
"231045","355-BY","2019/10/03 19:19:44","新北市新店區北宜路一段260號","121.54567","24.9527766666667","6500600","新店區"
"231058","3713-VJ","2019/10/03 19:19:44","新北市新店區光明街286巷14號","121.54086","24.9635916666667","6500600","新店區"
"231056","4715-K9","2019/10/03 19:19:31","新北市新店區薏仁坑路自強巷1號","121.497698333333","24.9577366666667","6500600","新店區"
"231052","515-UM","2019/10/03 19:19:45","新北市新店區自強路251號","121.548121666667","24.91964","6500600","新店區"
"231041","619-UM","2019/10/03 19:19:32","新北市新店區溪園路247號","121.525178333333","24.9831783333333","6500600","新店區"
"231063","641-BX","2019/10/03 19:19:39","新北市新店區達觀路14巷1-3號","121.504043333333","24.9425","6500600","新店區"
"231047","KED-0819","2019/10/03 19:19:32","新北市新店區中興路二段79巷10號","121.546406666667","24.9713516666667","6500600","新店區"
"231046","719-UM","2019/10/03 19:19:33","新北市新店區安康路一段35號","121.531631666667","24.9607216666667","6500600","新店區"
"231057","720-UM","2019/10/03 19:19:43","新北市新店區百齡一路12號","121.553098333333","24.9324766666667","6500600","新店區"
"231059","897-TW","2019/10/03 19:19:30","新北市新店區安業街1-1號","121.516721666667","24.97882","6500600","新店區"
"231040","898-TW","2019/10/03 19:19:46","新北市新店區三民路62號","121.535143333333","24.9721833333333","6500600","新店區"
"231043","899-TW","2019/10/03 19:19:43","新北市新店區北新路二段106號","121.543008333333","24.9739183333333","6500600","新店區"
"231066","AKT-0513","2019/10/03 19:19:44","新北市新店區安祥路35-2號","121.490776666667","24.9567583333333","6500600","新店區"
"241031","061-VK","2019/10/03 19:19:30","新北市三重區重新路四段242號","121.485706666667","25.0538333333333","6500200","三重區"
"241017","063-VK","2019/10/03 19:19:47","新北市三重區大同北路158-1號","121.49213","25.0656883333333","6500200","三重區"
"241007","066-VK","2019/10/03 19:19:31","新北市三重區慈愛街81號","121.487135","25.07945","6500200","三重區"
"241009","267-UM","2019/10/03 19:19:29","新北市三重區溪尾街230巷65號","121.486195","25.0811866666667","6500200","三重區"
"241032","269-UM","2019/10/03 19:19:42","新北市三重區新生街82號","121.484051666667","25.0592916666667","6500200","三重區"
"241013","270-UM","2019/10/03 19:19:38","新北市三重區仁愛街96號","121.49542","25.07389","6500200","三重區"
"241025","271-UM","2019/10/03 19:19:41","新北市三重區中正北路406號","121.475355","25.070455","6500200","三重區"
"241030","KED-0822","2019/10/03 19:19:48","新北市三重區環河南路221巷31號","121.491235","25.05299","6500200","三重區"
"241035","462-BY","2019/10/03 19:19:39","新北市三重區大仁街68號","121.492406666667","25.065045","6500200","三重區"
"241020","478-VK","2019/10/03 19:19:42","新北市三重區大智街181號","121.489628333333","25.0727283333333","6500200","三重區"
"241026","480-VK","2019/10/03 19:19:36","新北市三重區正義南路68巷1號","121.498898333333","25.057935","6500200","三重區"
"241022","KED-0820","2019/10/03 19:19:45","新北市三重區重陽路二段50號","121.487161666667","25.06339","6500200","三重區"
"241006","887-TS","2019/10/03 19:19:48","新北市三重區力行路二段151號","121.483546666667","25.0775516666667","6500200","三重區"
"241029","942-UM","2019/10/03 19:19:46","新北市三重區重安街83號","121.492513333333","25.055835","6500200","三重區"
"235066","003-UY","2019/10/03 19:19:42","新北市中和區中和路139號","121.502061666667","24.9997183333333","6500300","中和區"
"235063","006-UY","2019/10/03 19:19:41","新北市中和區連勝街121巷16號","121.495135","24.99448","6500300","中和區"
"235056","096-UM","2019/10/03 19:19:39","新北市中和區員山路460號","121.47994","25.0062933333333","6500300","中和區"
"235039","097-UM","2019/10/03 19:19:46","新北市中和區秀峰街119巷6弄6號","121.519403333333","24.9901033333333","6500300","中和區"
"235065","098-UM","2019/10/03 19:19:35","新北市中和區中山路二段64巷12弄1號","121.503828333333","25.0053283333333","6500300","中和區"
"235040","150-BY","2019/10/03 19:19:40","新北市中和區保健路50巷1-2號","121.510423333333","24.99686","6500300","中和區"
"235058","151-BY","2019/10/03 19:19:37","新北市中和區中正路637巷52弄1號","121.485453333333","24.9933383333333","6500300","中和區"
"235055","183-VK","2019/10/03 19:19:30","新北市中和區德光路103號","121.46832","25.0032916666667","6500300","中和區"
"235038","185-VK","2019/10/03 19:19:42","新北市中和區大仁街108號","121.520553333333","24.9928916666667","6500300","中和區"
"235067","255-BX","2019/10/03 19:19:44","新北市中和區中正路701號","121.484963333333","24.9983266666667","6500300","中和區"
"235044","293-VK","2019/10/03 19:19:36","新北市中和區復興路288號","121.501853333333","24.9903366666667","6500300","中和區"
"235072","301-VK","2019/10/03 19:19:39","新北市中和區連城路265巷3號","121.491416666667","24.9961516666667","6500300","中和區"
"235043","352-BY","2019/10/03 19:19:44","新北市中和區南山路90號","121.502756666667","24.99484","6500300","中和區"
"235042","KEA-2878","2019/10/03 19:19:39","新北市中和區安平路138號","121.512126666667","24.99799","6500300","中和區"
"247016","KEA-2869","2019/10/03 19:19:36","新北市五股區中興路三段163號","121.449218333333","25.0807983333333","6501400","蘆洲區"
"235050","4979-A6","2019/10/03 19:19:33","新北市中和區景安路208巷2號","121.503813333333","24.9910516666667","6500300","中和區"
"235069","4980-A6","2019/10/03 19:19:32","新北市中和區中和路217巷6號","121.504206666667","25.0004216666667","6500300","中和區"
"235070","558-UM","2019/10/03 19:19:32","新北市中和區景平路491號","121.500185","24.9977933333333","6500300","中和區"
"235045","565-BX","2019/10/03 19:19:43","新北市中和區景新街423巷35弄19號","121.513808333333","24.9904466666667","6500300","中和區"
"235060","KED-0823","2019/10/03 19:19:37","新北市中和區中山路二段523巷58號","121.482295","25.00287","6500300","中和區"
"235054","640-BX","2019/10/03 19:19:44","新北市中和區國光街112巷22弄20號","121.470528333333","25.0023083333333","6500300","中和區"
"235047","732-UM","2019/10/03 19:19:46","新北市中和區景平路241巷57號","121.508045","24.9921483333333","6500300","中和區"
"235071","783-BX","2019/10/03 19:19:38","新北市中和區中正路637巷52弄1號","121.485346666667","24.9936966666667","6500300","中和區"
"235057","801-TS","2019/10/03 19:19:37","新北市中和區台新街37號","121.479536666667","25.00503","6500300","中和區"
"235041","802-TS","2019/10/03 19:19:38","新北市中和區中和路324巷3弄4號","121.510143333333","25.0009183333333","6500300","中和區"
"235052","805-TS","2019/10/03 19:19:37","新北市中和區華新街143巷15號","121.506651666667","24.981035","6500300","中和區"
"235048","896-TW","2019/10/03 19:19:35","新北市中和區四維街37巷1號","121.512526666667","24.986955","6500300","中和區"
"235053","900-TW","2019/10/03 19:19:31","新北市中和區華安街16-8號","121.466523333333","24.9981466666667","6500300","中和區"
"235064","911-UM","2019/10/03 19:19:44","新北市中和區南山路127巷8弄2號","121.50257","24.997235","6500300","中和區"
"235051","157-BY","2019/10/03 19:19:32","新北市中和區和平街36號","121.509158333333","24.9904516666667","6500300","中和區"
"235037","AAC-213","2019/10/03 19:19:32","新北市中和區秀朗路三段10巷14弄30號","121.524758333333","24.9965533333333","6500300","中和區"
"235059","AAC-215","2019/10/03 19:19:30","新北市中和區錦和路195巷8號","121.491118333333","24.9908316666667","6500300","中和區"
"220086","073-UY","2019/10/03 19:19:46","新北市板橋區中正路250巷122號","121.460041666667","25.0200916666667","6500100","板橋區"
"220106","075-UY","2019/10/03 19:19:32","新北市板橋區文化路二段417巷40號","121.473715","25.033725","6500100","板橋區"
"220069","AAD-861","2019/10/03 19:19:45","新北市板橋區大明街20巷29弄19號","121.457833333333","25.0034616666667","6500100","板橋區"
"220068","120-SR","2019/10/03 19:19:44","新北市板橋區萬安街121號","121.483456666667","25.0250883333333","6500100","板橋區"
"226004","312-R5","2019/10/03 19:19:41","新北市平溪區南山里南山坪1號","121.777671666667","25.042105","6502400","平溪區"
"235049","251-BX","2019/10/03 19:19:46","新北市中和區景新街295巷1號","121.51007","24.993225","6500300","中和區"
"228003","097-TW","2019/10/03 19:19:38","新北市貢寮區和美里和美街22-1號","121.912866666667","25.0826466666667","6502600","貢寮區"
"228001","212-TW","2019/10/03 19:19:46","新北市貢寮區真理里新港街10號","121.925458333333","25.0542866666667","6502600","貢寮區"
"228002","663-BX","2019/10/03 19:19:52","新北市貢寮區龍門里復興街27號","121.927185","25.0276583333333","6502600","貢寮區"
"224008","273-VK","2019/10/03 19:19:36","新北市瑞芳區一坑路140號","121.802148333333","25.108775","6501200","瑞芳區"
"227002","642-TC","2019/10/03 19:19:38","新北市雙溪區平林里梅竹蹊43號","121.860146666667","25.0358033333333","6502500","雙溪區"
"227001","400-TW","2019/10/03 19:19:32","新北市雙溪區新基里中華路18號","121.866636666667","25.03677","6502500","雙溪區"
"253005","032-BX","2019/10/03 19:19:42","新北市石門區阿里荖6-2號","121.609968333333","25.2797683333333","6502200","石門區"
"253006","295-VK","2019/10/03 19:19:36","新北市石門區楓林17-6號","121.536388333333","25.2921616666667","6502200","石門區"
"222001","KEA-2212","2019/10/03 19:19:48","新北市深坑區北深路二段84號","121.617445","25.0035116666667","6501800","深坑區"
"208002","KEA-2872","2019/10/03 19:19:40","新北市金山區中華路146號","121.632966666667","25.2212316666667","6502700","金山區"
"208003","665-BX","2019/10/03 19:19:42","新北市金山區中山路163號","121.638716666667","25.22053","6502700","金山區"
"251002","012-UM","2019/10/03 19:19:31","新北市淡水區文化路15號","121.439501666667","25.172555","6501000","淡水區"
"251015","KEA-2871","2019/10/03 19:19:32","新北市淡水區山子邊16巷5號","121.485871666667","25.1826633333333","6501000","淡水區"
"251016","179-VK","2019/10/03 19:19:29","新北市淡水區淡金路三段350巷18號","121.450756666667","25.2083366666667","6501000","淡水區"
"251013","182-VK","2019/10/03 19:19:39","新北市淡水區安子內12-1號","121.48151","25.2191016666667","6501000","淡水區"
"251010","413-VK","2019/10/03 19:19:44","新北市淡水區沙崙路181巷27號","121.422881666667","25.1849616666667","6501000","淡水區"
"251007","442-VK","2019/10/03 19:19:38","新北市淡水區民生路143號","121.46567","25.13855","6501000","淡水區"
"251005","443-VK","2019/10/03 19:19:49","新北市淡水區水源街一段34巷2號","121.443171666667","25.1722333333333","6501000","淡水區"
"251001","559-UM","2019/10/03 19:19:31","新北市淡水區民權路92巷35-1號","121.462045","25.12679","6501000","淡水區"
"251009","575-R6","2019/10/03 19:19:47","新北市淡水區清水街178號","121.440653333333","25.17084","6501000","淡水區"
"251014","577-R6","2019/10/03 19:19:31","新北市淡水區小中寮19-7號","121.484726666667","25.2296133333333","6501000","淡水區"
"251003","766-UM","2019/10/03 19:19:29","新北市淡水區重建街225-1號","121.441516666667","25.17511","6501000","淡水區"
"207003","550-UM","2019/10/03 19:19:47","新北市萬里區大鵬里萬里加投21-6號","121.647913333333","25.2112733333333","6502800","萬里區"
"207004","291-VK","2019/10/03 19:19:36","新北市萬里區萬里里成功新村63號","121.688286666667","25.174545","6502800","萬里區"
"252002","178-VK","2019/10/03 19:19:39","新北市三芝區淡金路二段18-1號","121.502676666667","25.2594966666667","6502100","三芝區"
"208001","170-UY","2019/10/03 19:19:48","新北市金山區金包里街38號","121.639578333333","25.2209533333333","6502700","金山區"
"237007","153-BY","2019/10/03 19:19:38","新北市三峽區二鬮路71號","121.359728333333","24.9071533333333","6500900","三峽區"
"237009","210-TH","2019/10/03 19:19:44","新北市三峽區民生街231號","121.37113","24.9347183333333","6500900","三峽區"
"237013","252-BX","2019/10/03 19:19:33","新北市三峽區光明路75巷2號","121.377121666667","24.927795","6500900","三峽區"
"237012","275-BY","2019/10/03 19:19:34","新北市三峽區三樹路222巷236弄8-3號","121.391396666667","24.9429766666667","6500900","三峽區"
"237008","302-VK","2019/10/03 19:19:29","新北市三峽區光明路106巷56號","121.375238333333","24.9268016666667","6500900","三峽區"
"237014","433-BY","2019/10/03 19:19:41","新北市三峽區中山路257巷1號","121.362483333333","24.9372633333333","6500900","三峽區"
"237006","5529-G3","2019/10/03 19:19:40","新北市三峽區溪北街1號","121.395815","24.9363383333333","6500900","三峽區"
"237011","KEA-2596","2019/10/03 19:19:38","新北市三峽區介壽路三段47號","121.395588333333","24.937385","6500900","三峽區"
"237015","649-BX","2019/10/03 19:19:42","新北市三峽區安坑66號","121.470981666667","24.92819","6500900","三峽區"
"237010","706-TV","2019/10/03 19:19:38","新北市三峽區國光街362號","121.370978333333","24.939685","6500900","三峽區"
"237004","756-BX","2019/10/03 19:19:42","新北市三峽區有木205-1號","121.439063333333","24.8515133333333","6500900","三峽區"
"237005","AKY-6261","2019/10/03 19:19:37","新北市三峽區中山路459巷52-1號","121.356455","24.9368866666667","6500900","三峽區"
"236078","166-UM","2019/10/03 19:19:40","新北市土城區中央路四段321巷12號","121.410878333333","24.9511983333333","6501300","土城區"
"236026","269-VK","2019/10/03 19:19:47","新北市土城區中正路11巷5號","121.44289","24.9755383333333","6501300","土城區"
"236014","270-VK","2019/10/03 19:19:32","新北市土城區廣福街74巷31號","121.457845","24.9901783333333","6501300","土城區"
"236070","KEA-2877","2019/10/03 19:19:37","新北市土城區學成路158號","121.448076666667","24.9894266666667","6501300","土城區"
"252001","KED-0821","2019/10/03 19:19:45","新北市三芝區長勤街9巷14號","121.501666666667","25.2550366666667","6502100","三芝區"
"236021","401-BY","2019/10/03 19:19:26","新北市土城區峰廷街3號","121.469031666667","24.9873066666667","6501300","土城區"
"236059","912-UM","2019/10/03 19:19:36","新北市土城區中央路二段252號","121.441738333333","24.9746683333333","6501300","土城區"
"236063","915-UM","2019/10/03 19:19:36","新北市土城區金城路三段202-3號","121.469425","24.9885466666667","6501300","土城區"
"242004","751-BX","2019/10/03 19:19:32","新北市新莊區公園一路75巷5號","121.442488333333","25.0374316666667","6500500","新莊區"
"238015","755-BX","2019/10/03 19:18:08","新北市樹林區光明街51號","121.41296","24.9922716666667","6500700","樹林區"
"238023","601-UM","2019/10/03 19:19:35","桃園市龜山區萬壽路一段251號","121.404488333333","25.0177166666667","6500700","樹林區"
"238019","599-UM","2019/10/03 19:19:46","新北市樹林區東華街39號","121.415206666667","24.9815966666667","6500700","樹林區"
"238024","5061-A6","2019/10/03 19:19:39","新北市樹林區福德街18號","121.400953333333","24.976105","6500700","樹林區"
"238018","KEA-2217","2019/10/03 19:19:38","新北市樹林區太元街2巷7號","121.417143333333","24.9808966666667","6500700","樹林區"
"238022","KEA-2213","2019/10/03 19:19:45","新北市樹林區中山路二段151巷8弄1號","121.406565","24.978005","6500700","樹林區"
"238021","KEA-2539","2019/10/03 19:19:42","新北市樹林區柑園街二段203巷19號","121.377055","24.951255","6500700","樹林區"
"238025","303-VK","2019/10/03 19:19:41","新北市樹林區中山路三段30號","121.395348333333","24.9727166666667","6500700","樹林區"
"238017","283-BY","2019/10/03 19:19:34","新北市樹林區光興街88號","121.407628333333","25.00281","6500700","樹林區"
"238014","282-BY","2019/10/03 19:19:33","新北市樹林區中正路22-1號","121.427743333333","24.9995233333333","6500700","樹林區"
"238020","268-VK","2019/10/03 19:19:39","新北市樹林區俊英街123巷17號","121.423955","25.0105433333333","6500700","樹林區"
"238026","172-UY","2019/10/03 19:19:37","新北市樹林區地政街8巷10弄2號","121.393768333333","24.9711533333333","6500700","樹林區"
"238016","169-UY","2019/10/03 19:19:47","新北市樹林區中山路一段356巷8號","121.41891","24.9864583333333","6500700","樹林區"
"239007","AAC-297","2019/10/03 19:19:41","新北市鶯歌區中山路138巷17號","121.351168333333","24.959305","6500800","鶯歌區"
"239006","891-R6","2019/10/03 19:19:29","新北市鶯歌區鶯桃路296巷84弄7號","121.336978333333","24.9617366666667","6500800","鶯歌區"
"239008","527-UM","2019/10/03 19:19:46","新北市鶯歌區國際二路6巷10號","121.338653333333","24.9737233333333","6500800","鶯歌區"
"239005","526-UM","2019/10/03 19:19:35","新北市鶯歌區東湖路9號","121.351605","24.972215","6500800","鶯歌區"
"239001","417-VK","2019/10/03 19:19:45","新北市鶯歌區永明街71號","121.340938333333","24.9559783333333","6500800","鶯歌區"
"239003","360-BY","2019/10/03 19:19:47","新北市鶯歌區德昌二街95號","121.333241666667","24.9574883333333","6500800","鶯歌區"
"239002","359-BY","2019/10/03 19:19:32","新北市鶯歌區中山路47號","121.351725","24.9569883333333","6500800","鶯歌區"
"239004","193-VK","2019/10/03 19:19:31","新北市鶯歌區中正三路318巷31弄2號","121.327453333333","24.9360816666667","6500800","鶯歌區"
"221008","489-VK","2019/10/03 19:19:39","新北市汐止區康寧街310號","121.626675","25.0672883333333","6501100","汐止區"
"221031","353-TW","2019/10/03 19:19:38","新北市汐止區汐萬路一段312號","121.650665","25.0753183333333","6501100","汐止區"
"221035","622-UM","2019/10/03 19:19:47","新北市汐止區康寧街901號","121.651343333333","25.0750383333333","6501100","汐止區"
"221002","707-TV","2019/10/03 19:19:32","新北市汐止區大同路一段336號","121.637973333333","25.0590016666667","6501100","汐止區"
"220079","145-BY","2019/10/03 19:19:49","新北市板橋區民權路254號","121.458305","25.01503","6500100","板橋區"
"220082","610-BX","2019/10/03 19:19:34","新北市板橋區滿平街84巷78號","121.425923333333","24.98734","6500100","板橋區"
"220080","256-TC","2019/10/03 19:19:48","新北市板橋區大觀路二段19巷78號","121.448765","25.0029316666667","6500100","板橋區"
"220056","276-BY","2019/10/03 19:19:37","新北市土城區青雲路1-1號","121.460451666667","24.9902116666667","6500100","板橋區"
"220072","277-BY","2019/10/03 19:19:32","新北市板橋區金門街295號","121.430305","24.9866166666667","6500100","板橋區"
"220101","280-UM","2019/10/03 19:19:33","新北市板橋區莊敬路208巷4弄1號","121.471601666667","25.0209516666667","6500100","板橋區"
"220071","283-VK","2019/10/03 19:19:45","新北市板橋區重慶路300-2號","121.463831666667","24.998395","6500100","板橋區"
"220094","285-UM","2019/10/03 19:19:49","新北市板橋區吳鳳路38號","121.468531666667","25.0303883333333","6500100","板橋區"
"220083","286-VK","2019/10/03 19:19:26","新北市板橋區大觀路二段174巷196弄1號","121.44248","25.0039183333333","6500100","板橋區"
"220081","287-VK","2019/10/03 19:19:29","新北市板橋區南雅西路二段2-1號","121.45315","25.0087516666667","6500100","板橋區"
"220090","288-VK","2019/10/03 19:19:37","新北市板橋區裕民街72號","121.46092","25.0283866666667","6500100","板橋區"
"220061","293-UM","2019/10/03 19:19:37","新北市板橋區中山路二段309巷12號","121.47855","25.0189966666667","6500100","板橋區"
"220084","296-UM","2019/10/03 19:19:34","新北市板橋區溪北路73巷5號","121.428336666667","24.989925","6500100","板橋區"
"220075","303-R5","2019/10/03 19:19:29","新北市板橋區南雅西路一段116號","121.45243","25.006425","6500100","板橋區"
"220062","305-R5","2019/10/03 19:19:43","新北市板橋區三民路二段153巷36弄2號","121.481106666667","25.0141183333333","6500100","板橋區"
"220092","307-R5","2019/10/03 19:19:36","新北市板橋區文化路一段413號","121.467601666667","25.0223783333333","6500100","板橋區"
"220098","317-R6","2019/10/03 19:19:37","新北市板橋區自由路51巷9-3號","121.46506","25.02344","6500100","板橋區"
"220089","487-VK","2019/10/03 19:19:31","新北市板橋區陽明街259號","121.462623333333","25.0254533333333","6500100","板橋區"
"220088","491-VK","2019/10/03 19:19:36","新北市板橋區雙十路二段18號","121.476341666667","25.026945","6500100","板橋區"
"220035","560-BX","2019/10/03 19:19:39","新北市板橋區新生街89巷36號","121.45658","25.02255","6500100","板橋區"
"220103","561-BX","2019/10/03 19:19:33","新北市板橋區陽明街23巷8弄9號","121.465715","25.0205483333333","6500100","板橋區"
"220065","568-UM","2019/10/03 19:19:38","新北市板橋區民族路131號","121.467436666667","25.0081","6500100","板橋區"
"220063","609-BX","2019/10/03 19:19:33","新北市板橋區三民路一段1巷28號","121.480236666667","25.02447","6500100","板橋區"
"220091","637-BX","2019/10/03 19:19:43","新北市板橋區縣民大道三段235號","121.48107","25.0257583333333","6500100","板橋區"
"220057","686-BX","2019/10/03 19:19:39","新北市板橋區和平路90號","121.461765","24.9945916666667","6500100","板橋區"
"220077","687-BX","2019/10/03 19:19:38","新北市板橋區大觀路二段125號","121.445905","25.0013266666667","6500100","板橋區"
"220054","741-BX","2019/10/03 19:19:37","新北市板橋區四川路一段162號","121.459993333333","25.00324","6500100","板橋區"
"220102","KEA-2699","2019/10/03 19:19:41","新北市板橋區雙十路二段130巷2弄19號","121.474635","25.0288816666667","6500100","板橋區"
"220055","827-TW","2019/10/03 19:19:37","新北市板橋區新民街6巷1號","121.464641666667","25.0105016666667","6500100","板橋區"
"220067","829-TW","2019/10/03 19:19:28","新北市板橋區長安街138巷1弄57號","121.474273333333","25.010485","6500100","板橋區"
"220053","831-TW","2019/10/03 19:19:37","新北市板橋區富山街95號","121.476465","25.0218983333333","6500100","板橋區"
"220074","895-R6","2019/10/03 19:19:43","新北市板橋區中正路自強新村91-1號","121.454823333333","25.0131616666667","6500100","板橋區"
"220073","985-R7","2019/10/03 19:19:35","新北市板橋區中正路362號","121.454366666667","25.0239383333333","6500100","板橋區"
"220097","AAC-210","2019/10/03 19:19:42","新北市板橋區漢生西路89巷2弄12-2號","121.461768333333","25.01959","6500100","板橋區"
"220064","AAC-253","2019/10/03 19:19:41","新北市板橋區重慶路30號","121.461173333333","25.0077683333333","6500100","板橋區"
"235068","KEA-2873","2019/10/03 19:19:48","新北市中和區圓通路158巷3-1號","121.497693333333","24.9961716666667","6500300","中和區"
"235061","KEA-2875","2019/10/03 19:19:27","新北市中和區連城路456巷7號","121.478661666667","24.995165","6500300","中和區"
