"lineid","car","time","location","longitude","latitude","cityid","cityname"
"234046","148-BY","2019/10/03 19:29:24","新北市永和區秀朗路二段188號","121.52647","25.0008866666667","6500400","永和區"
"234081","298-R6","2019/10/03 19:29:14","新北市永和區環河東路三段54號","121.526733333333","25.00621","6500400","永和區"
"234038","336-UY","2019/10/03 19:29:15","新北市永和區民樂街46號","121.527436666667","25.0004483333333","6500400","永和區"
"234064","337-UY","2019/10/03 19:29:19","新北市永和區得和路243巷28弄1號","121.520846666667","25.00136","6500400","永和區"
"234086","338-UY","2019/10/03 19:29:18","新北市永和區林森路39巷1號","121.525573333333","25.00485","6500400","永和區"
"234070","552-UM","2019/10/03 19:29:26","新北市永和區警光街20號","121.51934","25.0094333333333","6500400","永和區"
"234017","745-BX","2019/10/03 19:29:19","新北市永和區環河西路一段87-1號","121.51251","25.0179983333333","6500400","永和區"
"234030","746-BX","2019/10/03 19:29:24","新北市永和區民生路37巷7號","121.52367","24.9980766666667","6500400","永和區"
"234054","KEA-2590","2019/10/03 19:29:16","新北市永和區永和路二段168號","121.515356666667","25.0130233333333","6500400","永和區"
"234007","KED-0605","2019/10/03 19:29:11","新北市永和區永和路一段122號","121.513886666667","25.0078016666667","6500400","永和區"
"234013","KEA-2591","2019/10/03 19:29:24","新北市永和區中山路一段132-1號","121.51045","25.0099283333333","6500400","永和區"
"234061","AAD-866","2019/10/03 19:29:11","新北市永和區中正路512號","121.517346666667","25.00462","6500400","永和區"
"234042","862-TW","2019/10/03 19:29:13","新北市永和區水源街39巷28號","121.510755","25.0031483333333","6500400","永和區"
"234050","863-TW","2019/10/03 19:29:13","新北市永和區仁愛路152號","121.510688333333","25.0129316666667","6500400","永和區"
"234026","9371-KE","2019/10/03 19:29:11","新北市永和區安樂路78號","121.514578333333","24.9984616666667","6500400","永和區"
"249003","593-UM","2019/10/03 19:29:13","新北市八里區商港六路11號","121.397008333333","25.1481266666667","6502300","八里區"
"248008","KED-0815","2019/10/03 19:29:24","新北市五股區中興路一段103號","121.466421666667","25.0731233333333","6501500","五股區"
"248020","KED-0813","2019/10/03 19:29:13","新北市五股區凌雲路三段88號","121.428561666667","25.1186366666667","6501500","五股區"
"248012","247-BX","2019/10/03 19:29:23","新北市五股區成泰路二段91巷9號","121.437558333333","25.084125","6501500","五股區"
"248014","261-SL","2019/10/03 19:29:19","新北市五股區民義路一段176號","121.432868333333","25.087785","6501500","五股區"
"248004","677-BX","2019/10/03 19:29:29","新北市五股區工商路113號","121.436726666667","25.085655","6501500","五股區"
"248002","678-BX","2019/10/03 19:29:25","新北市五股區凌雲路一段158巷1號","121.44773","25.1029583333333","6501500","五股區"
"234023","9380-KE","2019/10/03 19:29:27","新北市永和區竹林路91巷47弄1號","121.52121","25.012765","6500400","永和區"
"234077","969-R7","2019/10/03 19:29:14","新北市永和區民權路33號","121.519893333333","24.9977516666667","6500400","永和區"
"234074","AAC-211","2019/10/03 19:29:24","新北市永和區竹林路39巷35號","121.520516666667","25.0157416666667","6500400","永和區"
"234067","AAC-212","2019/10/03 19:29:28","新北市永和區保平路113號","121.510845","25.0066933333333","6500400","永和區"
"234003","AAC-295","2019/10/03 19:29:16","新北市永和區福和路376號","121.51425","25.00773","6500400","永和區"
"244023","483-VK","2019/10/03 19:29:12","新北市林口區民有街30號","121.372178333333","25.07665","6501700","林口區"
"243011","267-VK","2019/10/03 19:29:22","新北市三重區新北大道六段50-1號","121.42931","25.04015","6501600","泰山區"
"243012","AAD-798","2019/10/03 19:29:14","新北市泰山區仁義路179號","121.432898333333","25.0540916666667","6501600","泰山區"
"243010","297-R6","2019/10/03 19:29:14","新北市泰山區民權街41號","121.429231666667","25.0508883333333","6501600","泰山區"
"243014","KEA-2801","2019/10/03 19:29:23","新北市泰山區中港西路498巷2號","121.432228333333","25.0525833333333","6501600","泰山區"
"243016","421-VK","2019/10/03 19:29:23","新北市泰山區明志路三段308號","121.420945","25.0352183333333","6501600","泰山區"
"243009","KEA-2215","2019/10/03 19:29:28","新北市泰山區半山雅2號","121.431748333333","25.0673783333333","6501600","泰山區"
"243013","646-TV","2019/10/03 19:29:08","新北市泰山區明志路三段145巷5弄17號","121.42561","25.0404483333333","6501600","泰山區"
"243015","680-BX","2019/10/03 19:29:27","新北市泰山區明志路二段136巷1-1號","121.427293333333","25.0511416666667","6501600","泰山區"
"222003","436-BY","2019/10/03 19:29:20","新北市深坑區深南路88巷1號","121.621331666667","25.01057","6501800","深坑區"
"222002","659-BX","2019/10/03 19:29:22","新北市深坑區北深路一段177號","121.632508333333","25.0108683333333","6501800","深坑區"
"231061","002-UM","2019/10/03 19:29:22","新北市新店區安康路一段266巷4號","121.52005","24.964035","6500600","新店區"
"231044","046-UY","2019/10/03 19:29:13","新北市新店區中興路三段137號","121.544493333333","24.97973","6500600","新店區"
"231060","106-UY","2019/10/03 19:29:17","新北市新店區安康路二段64號","121.514813333333","24.9636983333333","6500600","新店區"
"231051","107-UY","2019/10/03 19:29:11","新北市新店區中央五街60號","121.527683333333","24.9754083333333","6500600","新店區"
"231049","108-UY","2019/10/03 19:29:11","新北市新店區北新路三段105巷11號","121.540673333333","24.982115","6500600","新店區"
"231065","110-UY","2019/10/03 19:29:19","新北市新店區安祥路109巷1弄9號","121.475833333333","24.959595","6500600","新店區"
"231062","256-BX","2019/10/03 19:29:22","新北市新店區莒光路97號","121.522533333333","24.954135","6500600","新店區"
"231054","260-TV","2019/10/03 19:29:22","新北市新店區文中路40號","121.539661666667","24.9565466666667","6500600","新店區"
"231042","268-BY","2019/10/03 19:29:21","新北市新店區中興路一段146號","121.542391666667","24.9638016666667","6500600","新店區"
"231064","278-BY","2019/10/03 19:29:24","新北市新店區安忠路2號","121.514421666667","24.963495","6500600","新店區"
"231050","AAD-862","2019/10/03 19:29:29","新北市新店區竹林路97巷12號","121.554303333333","24.9494216666667","6500600","新店區"
"231045","355-BY","2019/10/03 19:29:24","新北市新店區北宜路二段203號","121.553038333333","24.95325","6500600","新店區"
"231058","3713-VJ","2019/10/03 19:29:24","新北市新店區北新路一段96巷23號","121.543025","24.96874","6500600","新店區"
"231056","4715-K9","2019/10/03 19:29:31","新北市新店區安民街121巷12號","121.515395","24.969125","6500600","新店區"
"231052","515-UM","2019/10/03 19:29:25","新北市新店區新烏路二段300號","121.548131666667","24.9141216666667","6500600","新店區"
"231041","619-UM","2019/10/03 19:29:12","新北市新店區中正路669號","121.533911666667","24.9898316666667","6500600","新店區"
"231063","641-BX","2019/10/03 19:29:19","新北市新店區達觀路14巷2號","121.50322","24.9412916666667","6500600","新店區"
"231047","KED-0819","2019/10/03 19:29:12","新北市新店區五峰路157號","121.544906666667","24.965645","6500600","新店區"
"231046","719-UM","2019/10/03 19:29:13","新北市新店區北新路一段38號","121.540971666667","24.96598","6500600","新店區"
"231057","720-UM","2019/10/03 19:29:22","新北市新店區花園一路二段21號","121.550981666667","24.9328233333333","6500600","新店區"
"231059","897-TW","2019/10/03 19:29:10","新北市新店區安和路三段60-1號","121.518091666667","24.9827166666667","6500600","新店區"
"231040","898-TW","2019/10/03 19:29:26","新北市新店區中華路68號","121.53914","24.9690616666667","6500600","新店區"
"231043","899-TW","2019/10/03 19:29:21","新北市新店區北新路二段187號","121.542678333333","24.9776916666667","6500600","新店區"
"231066","AKT-0513","2019/10/03 19:29:24","新北市新店區安康路三段359巷12弄27號","121.48396","24.9493383333333","6500600","新店區"
"241011","013-R5","2019/10/03 19:29:28","新北市三重區介壽路39巷252號","121.503678333333","25.0713033333333","6500200","三重區"
"241028","022-UY","2019/10/03 19:29:15","新北市三重區中寮街22號","121.492446666667","25.05914","6500200","三重區"
"241008","059-VK","2019/10/03 19:29:18","新北市三重區永福街135巷30號","121.47752","25.077085","6500200","三重區"
"241019","060-VK","2019/10/03 19:29:19","新北市三重區力行路一段89巷4-6號","121.486666666667","25.068365","6500200","三重區"
"241031","061-VK","2019/10/03 19:29:10","新北市三重區集美街21-1號","121.487913333333","25.0560366666667","6500200","三重區"
"241017","063-VK","2019/10/03 19:29:27","新北市三重區大智街45-2號","121.493363333333","25.06656","6500200","三重區"
"241007","066-VK","2019/10/03 19:29:11","新北市三重區溪尾街126巷1號","121.489145","25.0793616666667","6500200","三重區"
"241009","267-UM","2019/10/03 19:29:29","新北市三重區溪尾街242巷69號","121.486036666667","25.0814466666667","6500200","三重區"
"241032","269-UM","2019/10/03 19:29:22","新北市三重區三陽路39號","121.485196666667","25.0588283333333","6500200","三重區"
"241013","270-UM","2019/10/03 19:29:18","新北市三重區仁愛街125巷7號","121.496201666667","25.0752733333333","6500200","三重區"
"241025","271-UM","2019/10/03 19:29:12","新北市三重區頂崁街210巷28弄20號","121.475735","25.0671933333333","6500200","三重區"
"241030","KED-0822","2019/10/03 19:29:08","新北市三重區成功路41巷6號","121.490225","25.0514883333333","6500200","三重區"
"241035","462-BY","2019/10/03 19:29:18","新北市三重區信義西街1巷3號","121.498006666667","25.0649366666667","6500200","三重區"
"241020","478-VK","2019/10/03 19:29:22","新北市三重區三和路四段20巷22-1號","121.490238333333","25.0736966666667","6500200","三重區"
"241026","480-VK","2019/10/03 19:29:17","新北市三重區文化南路47巷1號","121.499923333333","25.0613333333333","6500200","三重區"
"241023","545-UM","2019/10/03 19:29:27","新北市三重區頂崁街99號","121.477943333333","25.063855","6500200","三重區"
"241012","743-BX","2019/10/03 19:29:10","新北市三重區河邊北街266號","121.501636666667","25.0764966666667","6500200","三重區"
"241022","KED-0820","2019/10/03 19:29:26","新北市三重區三民街175巷1號","121.483751666667","25.065255","6500200","三重區"
"241006","887-TS","2019/10/03 19:29:28","新北市三重區三和路四段95號","121.48787","25.0759366666667","6500200","三重區"
"241029","942-UM","2019/10/03 19:29:26","新北市三重區重安街144號","121.495471666667","25.0549666666667","6500200","三重區"
"235066","003-UY","2019/10/03 19:29:23","新北市中和區中和路136號","121.503393333333","24.999305","6500300","中和區"
"235063","006-UY","2019/10/03 19:29:21","新北市中和區連城路219巷17號","121.49491","24.9962516666667","6500300","中和區"
"235056","096-UM","2019/10/03 19:29:18","新北市中和區員山路581巷2弄7-2號","121.477811666667","25.0097183333333","6500300","中和區"
"235039","097-UM","2019/10/03 19:29:25","新北市中和區秀峰街127巷1號","121.519711666667","24.9909266666667","6500300","中和區"
"235065","098-UM","2019/10/03 19:29:15","新北市中和區中山路二段2巷45弄12號","121.50199","25.0067116666667","6500300","中和區"
"235040","150-BY","2019/10/03 19:29:20","新北市中和區保健路10巷25弄1號","121.508146666667","24.9965516666667","6500300","中和區"
"235058","151-BY","2019/10/03 19:29:17","新北市中和區員山路124巷17號","121.482153333333","24.9959983333333","6500300","中和區"
"235055","183-VK","2019/10/03 19:29:30","新北市中和區莒光路120巷11號","121.471571666667","25.00164","6500300","中和區"
"235038","185-VK","2019/10/03 19:29:22","新北市中和區立人街9號","121.521696666667","24.9940416666667","6500300","中和區"
"235067","255-BX","2019/10/03 19:29:24","新北市中和區新生街264號","121.483551666667","24.9972116666667","6500300","中和區"
"235044","293-VK","2019/10/03 19:29:16","新北市中和區捷運路100-1號","121.506373333333","24.9912416666667","6500300","中和區"
"235072","301-VK","2019/10/03 19:29:19","新北市中和區連城路265巷10弄1號","121.491685","24.9953133333333","6500300","中和區"
"235043","352-BY","2019/10/03 19:29:23","新北市中和區安樂路49號","121.511791666667","24.9934383333333","6500300","中和區"
"235042","KEA-2878","2019/10/03 19:29:19","新北市中和區中和路262巷43弄6號","121.509606666667","24.9996816666667","6500300","中和區"
"247016","KEA-2869","2019/10/03 19:29:16","新北市五股區中興路三段163號","121.449226666667","25.0807616666667","6501400","蘆洲區"
"235069","4980-A6","2019/10/03 19:29:12","新北市中和區莊敬路33巷2-2號","121.500583333333","25.0049833333333","6500300","中和區"
"235070","558-UM","2019/10/03 19:29:12","新北市中和區景平路511號","121.499338333333","24.998715","6500300","中和區"
"235045","565-BX","2019/10/03 19:29:23","新北市中和區景新街385-3號","121.512696666667","24.9903716666667","6500300","中和區"
"235060","KED-0823","2019/10/03 19:29:17","新北市中和區中山路二段523巷12號","121.481521666667","25.0045433333333","6500300","中和區"
"235054","640-BX","2019/10/03 19:29:24","新北市中和區國光街107巷2弄29號","121.469305","24.9989716666667","6500300","中和區"
"235047","732-UM","2019/10/03 19:29:13","新北市中和區景平路241巷64弄8號","121.507641666667","24.9926416666667","6500300","中和區"
"235071","783-BX","2019/10/03 19:29:18","新北市中和區連城路469巷21弄2號","121.483888333333","24.9950466666667","6500300","中和區"
"235057","801-TS","2019/10/03 19:29:24","新北市中和區員山路200號","121.481291666667","25.0005933333333","6500300","中和區"
"235041","802-TS","2019/10/03 19:29:18","新北市中和區中和路390號","121.51117","25.0025433333333","6500300","中和區"
"235052","805-TS","2019/10/03 19:29:17","新北市中和區華新街143巷67弄27號","121.507413333333","24.9792","6500300","中和區"
"235048","896-TW","2019/10/03 19:29:15","新北市中和區忠孝街104號","121.512088333333","24.9848633333333","6500300","中和區"
"235053","900-TW","2019/10/03 19:29:15","新北市中和區民德路79號","121.468905","25.0012566666667","6500300","中和區"
"235051","157-BY","2019/10/03 19:29:12","新北市中和區景新街132巷1號","121.505153333333","24.9979133333333","6500300","中和區"
"235037","AAC-213","2019/10/03 19:29:12","新北市中和區秀朗路三段10巷29弄11號","121.525088333333","24.99598","6500300","中和區"
"235059","AAC-215","2019/10/03 19:29:30","新北市中和區圓通路252巷29弄10號","121.492708333333","24.9918616666667","6500300","中和區"
"220086","073-UY","2019/10/03 19:29:29","新北市板橋區中正路216巷150弄11號","121.460828333333","25.0189683333333","6500100","板橋區"
"220106","075-UY","2019/10/03 19:29:12","新北市板橋區雙十路三段22-1號","121.47117","25.0307533333333","6500100","板橋區"
"220069","AAD-861","2019/10/03 19:29:25","新北市板橋區縣民大道一段64巷36號","121.45589","25.003335","6500100","板橋區"
"220068","120-SR","2019/10/03 19:29:24","新北市板橋區萬安街103巷12號","121.483053333333","25.02465","6500100","板橋區"
"247010","341-TH","2019/10/03 19:29:21","新北市五股區中興路三段163號","121.449225","25.0809816666667","6501400","蘆洲區"
"247004","336-TH","2019/10/03 19:29:24","新北市蘆洲區長安街154號","121.459621666667","25.0827533333333","6501400","蘆洲區"
"226004","312-R5","2019/10/03 19:29:21","新北市平溪區十分里十分街238號","121.778098333333","25.0441083333333","6502400","平溪區"
"235049","251-BX","2019/10/03 19:29:27","新北市中和區景新街273巷32號","121.510781666667","24.99419","6500300","中和區"
"228003","097-TW","2019/10/03 19:29:19","新北市貢寮區和美里和美街22-1號","121.912841666667","25.08262","6502600","貢寮區"
"228001","212-TW","2019/10/03 19:29:25","新北市貢寮區真理里大澳街21-1號","121.925021666667","25.0561316666667","6502600","貢寮區"
"224008","273-VK","2019/10/03 19:29:13","新北市瑞芳區一坑路99號","121.802175","25.107885","6501200","瑞芳區"
"227002","642-TC","2019/10/03 19:29:18","新北市雙溪區雙溪里光復街22號","121.865223333333","25.0353966666667","6502500","雙溪區"
"227001","400-TW","2019/10/03 19:29:12","新北市雙溪區新基里新基北街43號","121.8682","25.0397283333333","6502500","雙溪區"
"222001","KEA-2212","2019/10/03 19:29:07","新北市深坑區北深路二段130號","121.616055","25.0028466666667","6501800","深坑區"
"208002","KEA-2872","2019/10/03 19:29:27","新北市金山區仁愛路87巷1號","121.63462","25.2215233333333","6502700","金山區"
"208003","665-BX","2019/10/03 19:29:11","新北市金山區中山路263巷14號","121.636376666667","25.2215616666667","6502700","金山區"
"251002","012-UM","2019/10/03 19:29:12","新北市淡水區沙崙路242號","121.425921666667","25.1848183333333","6501000","淡水區"
"251015","KEA-2871","2019/10/03 19:29:12","新北市淡水區山子頂24號","121.49191","25.1878466666667","6501000","淡水區"
"251016","179-VK","2019/10/03 19:29:29","新北市淡水區淡金路三段350巷18號","121.450761666667","25.208315","6501000","淡水區"
"251013","182-VK","2019/10/03 19:29:20","新北市淡水區安子內18號","121.471513333333","25.218825","6501000","淡水區"
"251010","413-VK","2019/10/03 19:29:23","新北市淡水區中正路二段395號","121.426306666667","25.1910816666667","6501000","淡水區"
"251007","442-VK","2019/10/03 19:29:18","新北市淡水區八勢路6號","121.46225","25.1499666666667","6501000","淡水區"
"251005","443-VK","2019/10/03 19:29:08","新北市淡水區水源街一段47巷24號","121.443975","25.1730833333333","6501000","淡水區"
"251001","559-UM","2019/10/03 19:25:52","新北市淡水區民權路68-1號","121.459441666667","25.1345283333333","6501000","淡水區"
"251006","561-UM","2019/10/03 19:29:26","新北市淡水區大信街52巷7弄1號","121.441415","25.17792","6501000","淡水區"
"251009","575-R6","2019/10/03 19:29:27","新北市淡水區中正路28號","121.444246666667","25.16916","6501000","淡水區"
"251014","577-R6","2019/10/03 19:29:11","新北市淡水區小中寮19-7號","121.484693333333","25.2297133333333","6501000","淡水區"
"251003","766-UM","2019/10/03 19:29:29","新北市淡水區濱海路一段53號","121.44383","25.1892266666667","6501000","淡水區"
"207003","550-UM","2019/10/03 19:29:27","新北市萬里區大鵬里萬里加投103-1號","121.646121666667","25.2130233333333","6502800","萬里區"
"207004","291-VK","2019/10/03 19:29:17","新北市萬里區萬里里瑪鋉路87-1號","121.68869","25.1772116666667","6502800","萬里區"
"252002","178-VK","2019/10/03 19:29:19","新北市三芝區淡金路二段18-1號","121.502676666667","25.2595216666667","6502100","三芝區"
"208001","170-UY","2019/10/03 19:29:14","新北市金山區南勢49號","121.627995","25.220675","6502700","金山區"
"237007","153-BY","2019/10/03 19:28:59","新北市三峽區二鬮路136巷18弄27號","121.358815","24.9086066666667","6500900","三峽區"
"237009","210-TH","2019/10/03 19:29:13","新北市三峽區中山路31號","121.36845","24.9344233333333","6500900","三峽區"
"237013","252-BX","2019/10/03 19:29:26","新北市三峽區介壽路一段320號","121.380925","24.9300133333333","6500900","三峽區"
"237012","275-BY","2019/10/03 19:29:14","新北市三峽區三樹路98巷119號","121.382491666667","24.93949","6500900","三峽區"
"237008","302-VK","2019/10/03 19:29:29","新北市三峽區大同路154號","121.373121666667","24.9267616666667","6500900","三峽區"
"237014","433-BY","2019/10/03 19:29:21","新北市三峽區中山路67巷5號","121.366703333333","24.934265","6500900","三峽區"
"237006","5529-G3","2019/10/03 19:29:21","新北市三峽區中正路一段336巷15弄2號","121.369975","24.9249516666667","6500900","三峽區"
"237011","KEA-2596","2019/10/03 19:29:18","新北市三峽區介壽路一段269號","121.380088333333","24.9303033333333","6500900","三峽區"
"237015","649-BX","2019/10/03 19:29:22","新北市三峽區安坑34-6號","121.450068333333","24.9290716666667","6500900","三峽區"
"237010","706-TV","2019/10/03 19:29:18","新北市三峽區國光街36號","121.374815","24.93771","6500900","三峽區"
"237004","756-BX","2019/10/03 19:29:22","新北市三峽區有木206號","121.439113333333","24.8515366666667","6500900","三峽區"
"237005","AKY-6261","2019/10/03 19:29:17","新北市三峽區中山路184巷3號","121.364028333333","24.9369566666667","6500900","三峽區"
"236078","166-UM","2019/10/03 19:29:20","新北市土城區中州路26號","121.414523333333","24.9574616666667","6501300","土城區"
"236030","253-BX","2019/10/03 19:29:12","新北市土城區中央路二段14巷12-31號","121.442441666667","24.98074","6501300","土城區"
"236026","269-VK","2019/10/03 19:29:16","新北市土城區中正路67巷27號","121.444308333333","24.9766083333333","6501300","土城區"
"236070","KEA-2877","2019/10/03 19:29:17","新北市土城區學府路一段155巷2號","121.453378333333","24.9857483333333","6501300","土城區"
"252001","KED-0821","2019/10/03 19:29:25","新北市三芝區長勤街62-1號","121.500166666667","25.2561033333333","6502100","三芝區"
"236021","401-BY","2019/10/03 19:29:26","新北市土城區峰廷街3號","121.469031666667","24.987315","6501300","土城區"
"236059","912-UM","2019/10/03 19:29:15","新北市土城區中央路二段63號","121.442696666667","24.978935","6501300","土城區"
"236049","913-UM","2019/10/03 19:29:23","新北市土城區清水路172號","121.459983333333","24.98161","6501300","土城區"
"236063","915-UM","2019/10/03 19:29:16","新北市土城區金城路三段202-3號","121.469473333333","24.988555","6501300","土城區"
"236055","AAC-216","2019/10/03 19:29:10","新北市土城區學府路一段276號","121.450251666667","24.9833033333333","6501300","土城區"
"242004","751-BX","2019/10/03 19:29:12","新北市新莊區復興路二段192號","121.45924","25.0444616666667","6500500","新莊區"
"242031","175-VK","2019/10/03 19:29:26","新北市新莊區新泰路227號","121.446081666667","25.0392283333333","6500500","新莊區"
"238015","755-BX","2019/10/03 19:29:08","新北市樹林區大安路588號","121.411656666667","24.9833933333333","6500700","樹林區"
"238023","601-UM","2019/10/03 19:29:15","新北市樹林區中正路865號","121.408851666667","25.0181083333333","6500700","樹林區"
"238019","599-UM","2019/10/03 19:29:26","新北市樹林區鎮前街347巷1弄20號","121.417085","24.9839416666667","6500700","樹林區"
"238024","5061-A6","2019/10/03 19:29:19","新北市樹林區福德街3號","121.401681666667","24.975675","6500700","樹林區"
"238018","KEA-2217","2019/10/03 19:29:22","新北市樹林區中華路86號","121.418928333333","24.9810816666667","6500700","樹林區"
"238022","KEA-2213","2019/10/03 19:29:25","新北市樹林區八德街120號","121.421226666667","24.9795383333333","6500700","樹林區"
"238021","KEA-2539","2019/10/03 19:29:22","新北市樹林區大雅路7號","121.380653333333","24.9444133333333","6500700","樹林區"
"238025","303-VK","2019/10/03 19:29:20","新北市樹林區中山路一段332號","121.419705","24.9861133333333","6500700","樹林區"
"238017","283-BY","2019/10/03 19:29:14","新北市樹林區光興街270號","121.406656666667","25.00505","6500700","樹林區"
"238014","282-BY","2019/10/03 19:29:12","新北市樹林區千歲街6巷13號","121.42557","24.9952316666667","6500700","樹林區"
"238020","268-VK","2019/10/03 19:29:19","新北市樹林區俊英街111巷1-3號","121.424483333333","25.0097333333333","6500700","樹林區"
"238026","172-UY","2019/10/03 19:29:21","新北市樹林區佳園路二段138號","121.389498333333","24.9562366666667","6500700","樹林區"
"238016","169-UY","2019/10/03 19:29:27","新北市樹林區中山路二段84號","121.414681666667","24.9836816666667","6500700","樹林區"
"239007","AAC-297","2019/10/03 19:29:21","新北市鶯歌區西湖街53巷21號","121.341483333333","24.9600916666667","6500800","鶯歌區"
"239006","891-R6","2019/10/03 19:29:29","新北市鶯歌區鶯桃路296巷32號","121.335295","24.96082","6500800","鶯歌區"
"239008","527-UM","2019/10/03 19:29:14","新北市鶯歌區大湖路560號","121.336958333333","24.9733033333333","6500800","鶯歌區"
"239005","526-UM","2019/10/03 19:29:26","新北市鶯歌區中湖街287號","121.348438333333","24.976695","6500800","鶯歌區"
"239001","417-VK","2019/10/03 19:29:25","新北市鶯歌區鶯桃路151號","121.337545","24.9549966666667","6500800","鶯歌區"
"239003","360-BY","2019/10/03 19:29:27","新北市鶯歌區中正二路47號","121.350628333333","24.9511866666667","6500800","鶯歌區"
"239002","359-BY","2019/10/03 19:29:12","新北市鶯歌區中正一路280號","121.355505","24.9569016666667","6500800","鶯歌區"
"239004","193-VK","2019/10/03 19:29:12","新北市鶯歌區中正三路335巷16號","121.328645","24.9346316666667","6500800","鶯歌區"
"221008","489-VK","2019/10/03 19:29:19","新北市汐止區康寧街235號","121.624073333333","25.0667383333333","6501100","汐止區"
"221027","281-BY","2019/10/03 19:29:27","新北市汐止區忠孝東路9號","121.658263333333","25.0659266666667","6501100","汐止區"
"221031","353-TW","2019/10/03 19:29:18","新北市汐止區康寧街901號","121.650753333333","25.0753116666667","6501100","汐止區"
"221025","623-UM","2019/10/03 19:29:28","新北市汐止區新台五路二段12號","121.660328333333","25.06504","6501100","汐止區"
"221033","647-BX","2019/10/03 19:29:26","新北市汐止區南勢街3號","121.627066666667","25.03741","6501100","汐止區"
"221002","707-TV","2019/10/03 19:29:20","新北市汐止區大同路一段337巷15弄2號","121.637575","25.0599866666667","6501100","汐止區"
"220079","145-BY","2019/10/03 19:29:24","新北市板橋區民權路202巷18弄2號","121.460743333333","25.016405","6500100","板橋區"
"220082","610-BX","2019/10/03 19:29:30","新北市板橋區金門街319號","121.429756666667","24.986175","6500100","板橋區"
"220080","256-TC","2019/10/03 19:29:27","新北市板橋區大觀路二段37巷306號","121.450066666667","25.0021066666667","6500100","板橋區"
"220056","276-BY","2019/10/03 19:29:17","新北市板橋區信義路76號","121.45762","24.993405","6500100","板橋區"
"220072","277-BY","2019/10/03 19:29:12","新北市板橋區篤行路三段1號","121.429498333333","24.9877466666667","6500100","板橋區"
"220101","280-UM","2019/10/03 19:29:12","新北市板橋區萬板路46巷27號","121.472681666667","25.022505","6500100","板橋區"
"220071","283-VK","2019/10/03 19:29:25","新北市板橋區忠孝路48巷36號","121.460948333333","25.00047","6500100","板橋區"
"220094","285-UM","2019/10/03 19:29:19","新北市板橋區銘傳街58號","121.46864","25.0309583333333","6500100","板橋區"
"220083","286-VK","2019/10/03 19:29:26","新北市板橋區龍興街73巷13號","121.443243333333","25.002395","6500100","板橋區"
"220081","287-VK","2019/10/03 19:29:29","新北市板橋區南雅南路一段106號","121.45491","25.00433","6500100","板橋區"
"220090","288-VK","2019/10/03 19:29:25","新北市板橋區長江路一段48巷6弄2號","121.459218333333","25.0283216666667","6500100","板橋區"
"220061","293-UM","2019/10/03 19:29:17","新北市板橋區成功路2-1號","121.475611666667","25.0168683333333","6500100","板橋區"
"220084","296-UM","2019/10/03 19:29:19","新北市板橋區滿平街138號","121.428783333333","24.9881833333333","6500100","板橋區"
"220075","303-R5","2019/10/03 19:29:09","新北市板橋區中正路275巷93號","121.45078","25.0181483333333","6500100","板橋區"
"220062","305-R5","2019/10/03 19:29:23","新北市板橋區三民路二段153巷4弄2號","121.479628333333","25.0145433333333","6500100","板橋區"
"220092","307-R5","2019/10/03 19:29:16","新北市板橋區陽明街164巷15號","121.464043333333","25.0244966666667","6500100","板橋區"
"220098","317-R6","2019/10/03 19:29:28","新北市板橋區民有街91號","121.464613333333","25.0275866666667","6500100","板橋區"
"220089","487-VK","2019/10/03 19:29:19","新北市板橋區龍泉街71號","121.456475","25.025385","6500100","板橋區"
"220088","491-VK","2019/10/03 19:29:19","新北市板橋區文化路二段560號","121.476416666667","25.03427","6500100","板橋區"
"220035","560-BX","2019/10/03 19:29:21","新北市板橋區中正路433巷21號","121.453428333333","25.0235433333333","6500100","板橋區"
"220103","561-BX","2019/10/03 19:29:13","新北市板橋區陽明街29巷32號","121.463708333333","25.0226783333333","6500100","板橋區"
"220065","568-UM","2019/10/03 19:29:18","新北市板橋區國泰街75巷28弄12號","121.467661666667","25.0052466666667","6500100","板橋區"
"220063","609-BX","2019/10/03 19:29:13","新北市板橋區三民路一段31巷89弄3號","121.481856666667","25.0233733333333","6500100","板橋區"
"220091","637-BX","2019/10/03 19:29:27","新北市板橋區文聖街149巷22號","121.479585","25.0285233333333","6500100","板橋區"
"220057","686-BX","2019/10/03 19:29:19","新北市板橋區國慶路158巷34號","121.460936666667","24.9951066666667","6500100","板橋區"
"220077","687-BX","2019/10/03 19:29:18","新北市板橋區大觀路一段28巷42號","121.449903333333","25.0098133333333","6500100","板橋區"
"220054","741-BX","2019/10/03 19:29:14","新北市板橋區校前街80號","121.462151666667","25.00329","6500100","板橋區"
"220102","KEA-2699","2019/10/03 19:29:21","新北市板橋區松柏街25號","121.474841666667","25.0302116666667","6500100","板橋區"
"220055","827-TW","2019/10/03 19:29:17","新北市板橋區實踐路65巷6-7號","121.464451666667","25.0065333333333","6500100","板橋區"
"220067","829-TW","2019/10/03 19:29:28","新北市板橋區漢生東路313巷2弄34號","121.472466666667","25.0076833333333","6500100","板橋區"
"220053","831-TW","2019/10/03 19:29:28","新北市板橋區懷仁街77巷32號","121.477731666667","25.0192233333333","6500100","板橋區"
"220074","895-R6","2019/10/03 19:29:23","新北市板橋區文化路一段27-1號","121.459858333333","25.0128316666667","6500100","板橋區"
"220073","985-R7","2019/10/03 19:29:15","新北市板橋區新生街14號","121.455443333333","25.0210333333333","6500100","板橋區"
"220097","AAC-210","2019/10/03 19:29:22","新北市板橋區文化路一段285巷1弄2號","121.46426","25.0187066666667","6500100","板橋區"
"220064","AAC-253","2019/10/03 19:29:21","新北市板橋區民權路33號","121.462191666667","25.0109683333333","6500100","板橋區"
"235068","KEA-2873","2019/10/03 19:29:18","新北市中和區景平路493巷3-1號","121.499781666667","24.99753","6500300","中和區"
"235061","KEA-2875","2019/10/03 19:29:01","新北市中和區民利街9巷2弄6號","121.480475","24.9987616666667","6500300","中和區"
