"lineid","car","time","location","longitude","latitude","cityid","cityname"
"234081","298-R6","2019/10/03 20:39:34","新北市永和區永貞路70巷2號","121.5204","25.0053133333333","6500400","永和區"
"234064","337-UY","2019/10/03 20:39:34","新北市永和區永元路138號","121.522925","25.003155","6500400","永和區"
"234054","KEA-2590","2019/10/03 20:39:36","新北市新店區安和路三段1號","121.517408333333","24.979715","6500400","永和區"
"234061","AAD-866","2019/10/03 20:39:30","新北市永和區秀朗路一段175號","121.517103333333","25.003665","6500400","永和區"
"234042","862-TW","2019/10/03 20:39:33","新北市永和區安樂路346號","121.514451666667","25.0063866666667","6500400","永和區"
"249001","173-UM","2019/10/03 20:39:31","新北市八里區中山路三段382號","121.368526666667","25.136085","6502300","八里區"
"249004","303-UY","2019/10/03 20:39:42","新北市八里區中山路一段131號","121.413325","25.1592183333333","6502300","八里區"
"249002","305-UY","2019/10/03 20:39:29","新北市八里區龍米路二段125巷3號","121.446456666667","25.1448816666667","6502300","八里區"
"234074","AAC-211","2019/10/03 20:39:44","新北市永和區竹林路104號","121.519713333333","25.0119216666667","6500400","永和區"
"243011","267-VK","2019/10/03 20:39:42","新北市泰山區明志路二段331號","121.425668333333","25.044875","6501600","泰山區"
"243012","AAD-798","2019/10/03 20:39:33","新北市泰山區忠孝街19巷3-1號","121.427511666667","25.0656983333333","6501600","泰山區"
"222003","436-BY","2019/10/03 20:39:40","新北市深坑區文山路二段30巷31號","121.614731666667","24.9989833333333","6501800","深坑區"
"222002","659-BX","2019/10/03 20:39:42","新北市深坑區萬福路47號","121.599613333333","25.0067716666667","6501800","深坑區"
"231061","002-UM","2019/10/03 20:39:42","新北市新店區新和街36號","121.519296666667","24.9848916666667","6500600","新店區"
"231044","046-UY","2019/10/03 20:39:33","新北市新店區建國路224號","121.537728333333","24.9814266666667","6500600","新店區"
"231060","106-UY","2019/10/03 20:39:34","新北市新店區錦秀路47號","121.479193333333","24.9435616666667","6500600","新店區"
"231051","107-UY","2019/10/03 20:39:31","新北市新店區中央五街86號","121.526283333333","24.9762483333333","6500600","新店區"
"231049","108-UY","2019/10/03 20:39:31","新北市新店區永業路81巷5弄34號","121.531103333333","24.949825","6500600","新店區"
"231065","110-UY","2019/10/03 20:39:39","新北市新店區安祥路102巷27號","121.485203333333","24.9644333333333","6500600","新店區"
"231068","187-VK","2019/10/03 20:39:47","新北市新店區寶元路一段85巷10號","121.543131666667","24.9860183333333","6500600","新店區"
"231062","256-BX","2019/10/03 20:39:21","新北市新店區安泰路60巷108號","121.484058333333","24.9449583333333","6500600","新店區"
"231054","260-TV","2019/10/03 20:39:42","新北市新店區行政街45號","121.543068333333","24.96556","6500600","新店區"
"231042","268-BY","2019/10/03 20:39:41","新北市新店區寶高路120巷1號","121.554566666667","24.9760333333333","6500600","新店區"
"231064","278-BY","2019/10/03 20:39:44","新北市新店區永平街16巷26號","121.517226666667","24.9844","6500600","新店區"
"231050","AAD-862","2019/10/03 20:39:49","新北市新店區中正路261號","121.538758333333","24.9736233333333","6500600","新店區"
"231045","355-BY","2019/10/03 20:39:44","新北市新店區長春路100號","121.551621666667","24.9591516666667","6500600","新店區"
"231058","3713-VJ","2019/10/03 20:39:44","新北市新店區自由街41號","121.534621666667","24.9738983333333","6500600","新店區"
"231055","4716-K9","2019/10/03 20:39:38","新北市新店區薏仁坑路6號","121.500346666667","24.95797","6500600","新店區"
"231056","4715-K9","2019/10/03 20:39:31","新北市新店區光華街38巷7號","121.515681666667","24.9699816666667","6500600","新店區"
"231052","515-UM","2019/10/03 20:39:45","新北市新店區松林路55號","121.544463333333","24.9113083333333","6500600","新店區"
"231041","619-UM","2019/10/03 20:39:32","新北市新店區中正路539-5號","121.533496666667","24.9864316666667","6500600","新店區"
"231063","641-BX","2019/10/03 20:39:39","新北市新店區玫瑰路6號","121.494196666667","24.9508733333333","6500600","新店區"
"231047","KED-0819","2019/10/03 20:39:32","新北市新店區寶慶街6號","121.543936666667","24.9873866666667","6500600","新店區"
"231057","720-UM","2019/10/03 20:39:42","新北市新店區花園二路一段9-5號","121.556323333333","24.932785","6500600","新店區"
"231059","897-TW","2019/10/03 20:39:30","新北市新店區安豐路46號","121.500101666667","24.9549333333333","6500600","新店區"
"231040","898-TW","2019/10/03 20:39:46","新北市新店區中正路265巷21號","121.537718333333","24.9733016666667","6500600","新店區"
"231043","899-TW","2019/10/03 20:39:41","新北市新店區博愛街13巷24號","121.54022","24.9739583333333","6500600","新店區"
"231066","AKT-0513","2019/10/03 20:39:44","新北市新店區安興路83-8號","121.515195","24.9757133333333","6500600","新店區"
"241011","013-R5","2019/10/03 20:39:38","新北市三重區龍門路98號","121.497456666667","25.0728166666667","6500200","三重區"
"241028","022-UY","2019/10/03 20:39:35","新北市三重區中正南路48號","121.49392","25.0599366666667","6500200","三重區"
"241008","059-VK","2019/10/03 20:39:38","新北市三重區下竹圍街42-1號","121.481033333333","25.0749033333333","6500200","三重區"
"241019","060-VK","2019/10/03 20:39:39","新北市三重區忠孝路一段10巷10號","121.491766666667","25.0714866666667","6500200","三重區"
"241031","061-VK","2019/10/03 20:39:30","新北市三重區重陽路一段113巷1弄51號","121.488101666667","25.0584883333333","6500200","三重區"
"241015","062-VK","2019/10/03 20:39:35","新北市三重區文化北路200弄1號","121.497983333333","25.0681016666667","6500200","三重區"
"241017","063-VK","2019/10/03 20:39:47","新北市三重區大同北路255號","121.490981666667","25.067065","6500200","三重區"
"241024","065-VK","2019/10/03 20:39:46","新北市三重區三民街212號","121.480445","25.0669816666667","6500200","三重區"
"241007","066-VK","2019/10/03 20:39:31","新北市三重區三和路四段101巷10號","121.487941666667","25.07685","6500200","三重區"
"241003","091-VK","2019/10/03 20:39:37","新北市三重區五華街141巷58號","121.493535","25.086735","6500200","三重區"
"241016","266-UM","2019/10/03 20:39:41","新北市三重區自強路一段143號","121.494588333333","25.0667616666667","6500200","三重區"
"241009","267-UM","2019/10/03 20:39:49","新北市三重區碧華街57號","121.484748333333","25.081315","6500200","三重區"
"241018","268-UM","2019/10/03 20:39:46","新北市三重區重陽路4段37-1號","121.491613333333","25.0698033333333","6500200","三重區"
"241032","269-UM","2019/10/03 20:39:42","新北市三重區重陽路一段120巷48號","121.485071666667","25.0601416666667","6500200","三重區"
"241013","270-UM","2019/10/03 20:39:38","新北市三重區三和路四段95號","121.488278333333","25.0759216666667","6500200","三重區"
"241025","271-UM","2019/10/03 20:39:47","新北市三重區頂崁街210巷36號","121.475663333333","25.0679066666667","6500200","三重區"
"241030","KED-0822","2019/10/03 20:39:28","新北市三重區環河南路254巷61號","121.487845","25.0523516666667","6500200","三重區"
"241035","462-BY","2019/10/03 20:39:39","新北市三重區正義北路378號","121.493365","25.0715216666667","6500200","三重區"
"241004","475-VK","2019/10/03 20:39:30","新北市三重區仁愛街382號","121.491016666667","25.0808466666667","6500200","三重區"
"241020","478-VK","2019/10/03 20:39:42","新北市三重區忠孝路一段101號","121.489525","25.0721416666667","6500200","三重區"
"241026","480-VK","2019/10/03 20:39:36","新北市三重區文化南路7號","121.500005","25.06231","6500200","三重區"
"241014","543-UM","2019/10/03 20:39:29","新北市三重區三和路二段164號","121.499201666667","25.068565","6500200","三重區"
"241023","545-UM","2019/10/03 20:39:47","新北市三重區自由街18巷21號","121.478838333333","25.0664733333333","6500200","三重區"
"241001","547-UM","2019/10/03 20:39:38","新北市三重區三和路四段160巷87號","121.485436666667","25.074835","6500200","三重區"
"241005","AAD-863","2019/10/03 20:39:43","新北市三重區五華街213號","121.489531666667","25.0857116666667","6500200","三重區"
"241012","743-BX","2019/10/03 20:39:30","新北市三重區秀江街31號","121.502078333333","25.0729116666667","6500200","三重區"
"241022","KED-0820","2019/10/03 20:39:45","新北市三重區貴陽街20號","121.484231666667","25.0619616666667","6500200","三重區"
"241006","887-TS","2019/10/03 20:39:28","新北市三重區力行路二段125號","121.483096666667","25.07672","6500200","三重區"
"241029","942-UM","2019/10/03 20:39:46","新北市三重區集美街126巷27號","121.490108333333","25.0538433333333","6500200","三重區"
"241033","AAC-255","2019/10/03 20:39:36","新北市三重區光復路二段49號","121.472148333333","25.0559783333333","6500200","三重區"
"235055","183-VK","2019/10/03 20:39:30","新北市八里區商港五路99號","121.393443333333","25.149265","6500300","中和區"
"247016","KEA-2869","2019/10/03 20:39:36","新北市蘆洲區中山二路243號","121.470103333333","25.0799866666667","6501400","蘆洲區"
"235069","4980-A6","2019/10/03 20:39:32","新北市中和區中正路446號","121.491036666667","24.9942133333333","6500300","中和區"
"235009","565-BX","2019/10/03 20:26:19","新北市中和區員山路36巷13號","121.48423","24.9909433333333","6500300","中和區"
"247006","893-R6","2019/10/03 20:39:34","新北市蘆洲區和平路149號","121.466863333333","25.080585","6501400","蘆洲區"
"247020","546-UM","2019/10/03 20:39:35","新北市蘆洲區民族路424-1號","121.473858333333","25.0918316666667","6501400","蘆洲區"
"247010","341-TH","2019/10/03 20:39:41","新北市蘆洲區信義路187號","121.479653333333","25.082625","6501400","蘆洲區"
"247012","337-TH","2019/10/03 20:39:35","新北市蘆洲區集賢路224巷46弄32-1號","121.48141","25.0875816666667","6501400","蘆洲區"
"247004","336-TH","2019/10/03 20:39:44","新北市蘆洲區長安街222號","121.45818","25.0849283333333","6501400","蘆洲區"
"247024","057-VK","2019/10/03 20:39:41","新北市蘆洲區長樂路65號","121.462645","25.0866366666667","6501400","蘆洲區"
"247014","056-VK","2019/10/03 20:39:45","新北市蘆洲區中山一路211號","121.47395","25.0808566666667","6501400","蘆洲區"
"247022","007-UY","2019/10/03 20:39:28","新北市蘆洲區中正路243巷18弄1號","121.467415","25.0865016666667","6501400","蘆洲區"
"247008","002-UY","2019/10/03 20:39:40","新北市蘆洲區重陽街68號","121.481696666667","25.0842233333333","6501400","蘆洲區"
"247002","001-UY","2019/10/03 20:39:32","新北市蘆洲區永樂街62號","121.457223333333","25.0885033333333","6501400","蘆洲區"
"222001","KEA-2212","2019/10/03 20:39:28","新北市深坑區北深路三段230號","121.600745","25.0040416666667","6501800","深坑區"
"251002","012-UM","2019/10/03 20:39:31","新北市淡水區中正路36號","121.443796666667","25.1692716666667","6501000","淡水區"
"251015","KEA-2871","2019/10/03 20:39:32","新北市淡水區淡金路三段446號","121.450786666667","25.2143933333333","6501000","淡水區"
"251016","179-VK","2019/10/03 20:39:29","新北市淡水區後洲子8-2號","121.449513333333","25.224025","6501000","淡水區"
"251008","181-VK","2019/10/03 20:39:32","新北市淡水區沙崙路305號","121.427328333333","25.1870883333333","6501000","淡水區"
"251013","182-VK","2019/10/03 20:39:39","新北市淡水區下圭柔山28巷11號","121.457671666667","25.20391","6501000","淡水區"
"251010","413-VK","2019/10/03 20:39:43","新北市淡水區沙崙路181巷15號","121.423911666667","25.1843533333333","6501000","淡水區"
"251012","441-VK","2019/10/03 20:39:48","新北市淡水區興仁路108號","121.451673333333","25.2181183333333","6501000","淡水區"
"251007","442-VK","2019/10/03 20:39:38","新北市淡水區忠愛街3-1號","121.45792","25.1716066666667","6501000","淡水區"
"251001","559-UM","2019/10/03 20:39:31","新北市淡水區水源街二段177巷32弄20號","121.455021666667","25.1782316666667","6501000","淡水區"
"251006","561-UM","2019/10/03 20:39:35","新北市淡水區商工路198巷5號","121.451223333333","25.1872316666667","6501000","淡水區"
"251014","577-R6","2019/10/03 20:39:31","新北市淡水區公埔子36-1號","121.462528333333","25.2322","6501000","淡水區"
"251003","766-UM","2019/10/03 20:39:29","新北市淡水區新民街120巷52號","121.438653333333","25.1783916666667","6501000","淡水區"
"252002","178-VK","2019/10/03 20:39:39","新北市三芝區淡金路二段81號","121.5038","25.2606916666667","6502100","三芝區"
"252001","KED-0821","2019/10/03 20:39:45","新北市三芝區長安街55號","121.501158333333","25.2565666666667","6502100","三芝區"
"242042","AAC-296","2019/10/03 20:39:39","新北市新莊區中正路694巷3弄3號","121.418231666667","25.0281466666667","6500500","新莊區"
"242061","986-R7","2019/10/03 20:39:31","新北市新莊區新樹路258巷3號","121.432105","25.0155333333333","6500500","新莊區"
"242004","751-BX","2019/10/03 20:39:32","新北市新莊區化成路746巷37號","121.466903333333","25.0580516666667","6500500","新莊區"
"242029","615-BX","2019/10/03 20:39:46","新北市新莊區昌隆街10號","121.453143333333","25.0508683333333","6500500","新莊區"
"242027","613-BX","2019/10/03 20:39:35","新北市新莊區思源路285號","121.459755","25.0483166666667","6500500","新莊區"
"242058","612-BX","2019/10/03 20:39:34","新北市新莊區四維路129-1號","121.42287","25.02263","6500500","新莊區"
"242048","442-UM","2019/10/03 20:39:36","新北市新莊區中正路863-3號","121.418761666667","25.02762","6500500","新莊區"
"242002","441-UM","2019/10/03 20:39:26","新北市新莊區中正路92號","121.455338333333","25.0367233333333","6500500","新莊區"
"242007","440-UM","2019/10/03 20:39:46","新北市新莊區福壽街58號","121.458335","25.0488716666667","6500500","新莊區"
"242044","415-TV","2019/10/03 20:39:36","新北市新莊區龍安路66-16號","121.414728333333","25.021225","6500500","新莊區"
"242013","413-TV","2019/10/03 20:39:31","新北市新莊區中和街155巷24弄83號","121.446385","25.0514883333333","6500500","新莊區"
"242051","400-BY","2019/10/03 20:39:40","新北市新莊區西盛街258巷19號","121.42739","25.0158633333333","6500500","新莊區"
"242025","362-BY","2019/10/03 20:39:43","新北市新莊區化成路579巷1號","121.464498333333","25.06608","6500500","新莊區"
"242023","353-BY","2019/10/03 20:39:44","新北市新莊區化成路540-4號","121.466251666667","25.05347","6500500","新莊區"
"242015","132-UY","2019/10/03 20:39:43","新北市新莊區中和街48號","121.448096666667","25.0444066666667","6500500","新莊區"
"242039","135-UY","2019/10/03 20:39:37","新北市新莊區民安路461號","121.43465","25.0224616666667","6500500","新莊區"
"242056","172-VK","2019/10/03 20:39:37","新北市新莊區瓊泰路80巷45號","121.444911666667","25.0291466666667","6500500","新莊區"
"242017","173-VK","2019/10/03 20:39:26","新北市新莊區中港三街99號","121.449175","25.0461283333333","6500500","新莊區"
"242031","175-VK","2019/10/03 20:39:46","新北市新莊區三泰路56-7號","121.435441666667","25.0367216666667","6500500","新莊區"
"242011","346-TH","2019/10/03 20:39:33","新北市新莊區中榮街104巷19號","121.446898333333","25.0538016666667","6500500","新莊區"
"242053","347-TH","2019/10/03 20:39:30","新北市新莊區西盛街324巷39號","121.426693333333","25.0147466666667","6500500","新莊區"
"242036","348-TH","2019/10/03 20:39:40","新北市新莊區建安街10-1號","121.42852","25.0264583333333","6500500","新莊區"
"242009","349-TH","2019/10/03 20:39:41","新北市新莊區福壽街99巷15弄2號","121.45675","25.0504016666667","6500500","新莊區"
"242034","350-TH","2019/10/03 20:39:31","新北市新莊區中正路334巷25弄2號","121.4455","25.03588","6500500","新莊區"
"242019","351-TH","2019/10/03 20:39:45","新北市新莊區中港路五守新村1巷7號","121.455295","25.038065","6500500","新莊區"
"221008","489-VK","2019/10/03 20:39:39","新北市汐止區康寧街469號","121.631891666667","25.0683866666667","6501100","汐止區"
"221036","130-UY","2019/10/03 20:39:43","新北市汐止區忠孝東路211巷8號","121.661846666667","25.0670883333333","6501100","汐止區"
"221012","278-VK","2019/10/03 20:39:27","新北市汐止區保新街155號","121.688318333333","25.0694666666667","6501100","汐止區"
"221023","279-VK","2019/10/03 20:39:41","新北市汐止區湖東街31號","121.634596666667","25.0726366666667","6501100","汐止區"
"221032","280-BY","2019/10/03 20:39:44","新北市汐止區民權街二段28號","121.619336666667","25.0500366666667","6501100","汐止區"
"221029","298-VK","2019/10/03 20:39:32","新北市汐止區大同路一段509號","121.6452","25.0623733333333","6501100","汐止區"
"221021","299-VK","2019/10/03 20:39:30","新北市汐止區水源路一段284號","121.65412","25.0582883333333","6501100","汐止區"
"221031","353-TW","2019/10/03 20:39:38","新北市汐止區中興路110巷36號","121.634338333333","25.0646683333333","6501100","汐止區"
"221015","567-BX","2019/10/03 20:39:29","新北市汐止區建成路37巷1號","121.663666666667","25.0728133333333","6501100","汐止區"
"221035","622-UM","2019/10/03 20:39:47","新北市汐止區長江街101-5號","121.658755","25.0731416666667","6501100","汐止區"
"221025","623-UM","2019/10/03 20:39:48","新北市汐止區水源路二段183號","121.657745","25.0536266666667","6501100","汐止區"
"221038","646-BX","2019/10/03 20:39:46","新北市汐止區龍安路28巷22號","121.654218333333","25.0645833333333","6501100","汐止區"
"221033","647-BX","2019/10/03 20:39:46","新北市汐止區合順街18巷8弄5號","121.620368333333","25.0419183333333","6501100","汐止區"
"221002","707-TV","2019/10/03 20:39:32","新北市汐止區福德二路142號","121.630636666667","25.0651266666667","6501100","汐止區"
"221018","753-BX","2019/10/03 20:39:06","新北市汐止區茄苳路59號","121.666615","25.070715","6501100","汐止區"
"220083","286-VK","2019/10/03 20:39:34","新北市板橋區僑中二街106巷22-2號","121.444943333333","25.0077933333333","6500100","板橋區"
"242046","281-VK","2019/10/03 20:39:31","新北市新莊區中正路新雅巷2弄1號","121.417946666667","25.025375","6500500","新莊區"
