"lineid","car","time","location","longitude","latitude","cityid","cityname"
"234042","862-TW","2019/10/03 20:59:33","新北市新店區薏仁坑路2-1號","121.50056","24.9580766666667","6500400","永和區"
"231061","002-UM","2019/10/03 20:59:42","新北市新店區永安街60號","121.518855","24.9868883333333","6500600","新店區"
"231060","106-UY","2019/10/03 20:59:34","新北市新店區安泰路60巷30號","121.482505","24.9469933333333","6500600","新店區"
"231051","107-UY","2019/10/03 20:59:31","新北市新店區中正路663巷1弄2號","121.533001666667","24.9900616666667","6500600","新店區"
"231049","108-UY","2019/10/03 20:59:11","新北市新店區安康路二段320巷15弄16號","121.502733333333","24.9592116666667","6500600","新店區"
"231065","110-UY","2019/10/03 20:59:39","新北市新店區安祥路67巷50弄15號","121.48427","24.9588916666667","6500600","新店區"
"231068","187-VK","2019/10/03 20:59:47","新北市新店區寶中路49-1號","121.546566666667","24.9799433333333","6500600","新店區"
"231062","256-BX","2019/10/03 20:59:41","新北市新店區和成街19巷39號","121.488261666667","24.9459833333333","6500600","新店區"
"231054","260-TV","2019/10/03 20:59:42","新北市新店區大新街7巷26號","121.54405","24.9678566666667","6500600","新店區"
"231042","268-BY","2019/10/03 20:59:41","新北市新店區寶興路60巷4號","121.549841666667","24.9718183333333","6500600","新店區"
"231064","278-BY","2019/10/03 20:59:44","新北市新店區薏仁坑路6號","121.500461666667","24.9579733333333","6500600","新店區"
"231050","AAD-862","2019/10/03 20:59:49","新北市新店區三民路47號","121.537068333333","24.9709366666667","6500600","新店區"
"231063","641-BX","2019/10/03 20:59:39","新北市新店區如意街80號","121.495546666667","24.9467466666667","6500600","新店區"
"231057","720-UM","2019/10/03 20:59:42","新北市新店區安康路一段3-1號","121.535371666667","24.9610666666667","6500600","新店區"
"231059","897-TW","2019/10/03 20:59:30","新北市新店區僑信路92號","121.49986","24.9477683333333","6500600","新店區"
"231040","898-TW","2019/10/03 20:59:46","新北市新店區中正路146號","121.541815","24.9715816666667","6500600","新店區"
"231043","899-TW","2019/10/03 20:59:41","新北市新店區中央路151號","121.529325","24.9723033333333","6500600","新店區"
"231066","AKT-0513","2019/10/03 20:59:44","新北市新店區柴埕路38-8號","121.513186666667","24.9648933333333","6500600","新店區"
"241011","013-R5","2019/10/03 20:59:38","新北市三重區秀江街119號","121.499705","25.0721516666667","6500200","三重區"
"241028","022-UY","2019/10/03 20:59:35","新北市三重區正義南路60-1號","121.498236666667","25.06065","6500200","三重區"
"241008","059-VK","2019/10/03 20:59:38","新北市三重區車路頭街139巷2號","121.483906666667","25.076345","6500200","三重區"
"241019","060-VK","2019/10/03 20:59:39","新北市三重區自強路二段74巷19號","121.487938333333","25.0699216666667","6500200","三重區"
"241031","061-VK","2019/10/03 20:59:30","新北市三重區重陽路一段113巷2弄2號","121.487516666667","25.0598766666667","6500200","三重區"
"241015","062-VK","2019/10/03 20:59:35","新北市三重區福德北路69號","121.502135","25.0656616666667","6500200","三重區"
"241017","063-VK","2019/10/03 20:59:47","新北市三重區國隆路31號","121.492276666667","25.0645366666667","6500200","三重區"
"241024","065-VK","2019/10/03 20:59:37","新北市三重區國道路一段58巷20號","121.481306666667","25.0720366666667","6500200","三重區"
"241007","066-VK","2019/10/03 20:59:35","新北市三重區慈愛街51號","121.486236666667","25.0790633333333","6500200","三重區"
"241003","091-VK","2019/10/03 20:59:37","新北市三重區五華街141巷58號","121.493546666667","25.0867266666667","6500200","三重區"
"241016","266-UM","2019/10/03 20:59:41","新北市三重區自強路一段95號","121.495936666667","25.066405","6500200","三重區"
"241009","267-UM","2019/10/03 20:59:29","新北市三重區力行路二段121號","121.482966666667","25.0766","6500200","三重區"
"241018","268-UM","2019/10/03 20:59:36","新北市三重區自強路一段155-1號","121.493755","25.067255","6500200","三重區"
"241032","269-UM","2019/10/03 20:59:47","新北市三重區三陽路112號","121.483136666667","25.0588116666667","6500200","三重區"
"241013","270-UM","2019/10/03 20:59:38","新北市三重區仁賢街12-1號","121.495733333333","25.0749266666667","6500200","三重區"
"241025","271-UM","2019/10/03 20:59:32","新北市三重區貴陽街14號","121.484156666667","25.0618466666667","6500200","三重區"
"241030","KED-0822","2019/10/03 20:59:48","新北市三重區中正南路285號","121.493168333333","25.05214","6500200","三重區"
"241004","475-VK","2019/10/03 20:59:30","新北市三重區仁愛街420號","121.490393333333","25.0814266666667","6500200","三重區"
"241020","478-VK","2019/10/03 20:59:42","新北市三重區忠孝路二段34號","121.485818333333","25.071025","6500200","三重區"
"241026","480-VK","2019/10/03 20:59:36","新北市三重區福德南路150號","121.500651666667","25.0582166666667","6500200","三重區"
"241014","543-UM","2019/10/03 20:59:49","新北市三重區長壽街120巷11號","121.502491666667","25.069115","6500200","三重區"
"241023","545-UM","2019/10/03 20:59:47","新北市三重區洛陽街45巷11號","121.482341666667","25.063755","6500200","三重區"
"241001","547-UM","2019/10/03 20:59:38","新北市三重區三和路四段118巷12號","121.488361666667","25.07464","6500200","三重區"
"241005","AAD-863","2019/10/03 20:59:43","新北市三重區五華街180巷19號","121.48814","25.085935","6500200","三重區"
"241012","743-BX","2019/10/03 20:59:30","新北市三重區龍門路274巷45號","121.501201666667","25.0755316666667","6500200","三重區"
"241022","KED-0820","2019/10/03 20:59:45","新北市三重區過圳街27-5號","121.487968333333","25.0624183333333","6500200","三重區"
"241006","887-TS","2019/10/03 20:59:48","新北市三重區力行路二段90號","121.481863333333","25.07429","6500200","三重區"
"241029","942-UM","2019/10/03 20:59:46","新北市三重區正義南路111號","121.498255","25.058535","6500200","三重區"
"241033","AAC-255","2019/10/03 20:59:36","新北市三重區光復路二段28號","121.471993333333","25.0543016666667","6500200","三重區"
"235055","183-VK","2019/10/03 20:59:30","新北市林口區太平里180號","121.368193333333","25.13443","6500300","中和區"
"247016","KEA-2869","2019/10/03 20:59:36","新北市蘆洲區正和街81號","121.468235","25.0807316666667","6501400","蘆洲區"
"235069","4980-A6","2019/10/03 20:59:32","新北市中和區員山路359巷1弄1號","121.481038333333","25.0015633333333","6500300","中和區"
"247006","893-R6","2019/10/03 20:59:34","新北市蘆洲區永安南路二段16巷5號","121.467748333333","25.0772","6501400","蘆洲區"
"247020","546-UM","2019/10/03 20:59:35","新北市蘆洲區民族路371號","121.4711","25.0912716666667","6501400","蘆洲區"
"247010","341-TH","2019/10/03 20:59:41","新北市蘆洲區鷺江街89巷6號","121.476648333333","25.0838483333333","6501400","蘆洲區"
"247012","337-TH","2019/10/03 20:59:35","新北市蘆洲區民權路4號","121.477028333333","25.08538","6501400","蘆洲區"
"247004","336-TH","2019/10/03 20:59:44","新北市蘆洲區永安南路二段268號","121.45866","25.0807066666667","6501400","蘆洲區"
"247024","057-VK","2019/10/03 20:59:41","新北市蘆洲區長興路213號","121.461163333333","25.0863483333333","6501400","蘆洲區"
"247014","056-VK","2019/10/03 20:59:45","新北市蘆洲區中山二路36巷33號","121.474128333333","25.0832733333333","6501400","蘆洲區"
"247018","053-VK","2019/10/03 20:59:48","新北市蘆洲區民權路136-2號","121.473076666667","25.0888483333333","6501400","蘆洲區"
"247008","002-UY","2019/10/03 20:59:40","新北市蘆洲區民生街127號","121.472703333333","25.0791233333333","6501400","蘆洲區"
"247002","001-UY","2019/10/03 20:59:32","新北市蘆洲區永樂街38巷43號","121.4583","25.08967","6501400","蘆洲區"
"251002","012-UM","2019/10/03 20:59:31","新北市淡水區英專路67號","121.445665","25.1711316666667","6501000","淡水區"
"251015","KEA-2871","2019/10/03 20:59:32","新北市淡水區淡金路四段542巷17號","121.452878333333","25.2270566666667","6501000","淡水區"
"251016","179-VK","2019/10/03 20:59:29","新北市淡水區牛埔子11-1號","121.4502","25.2184416666667","6501000","淡水區"
"251013","182-VK","2019/10/03 20:59:39","新北市淡水區番子厝13號","121.461376666667","25.2014183333333","6501000","淡水區"
"251010","413-VK","2019/10/03 20:59:43","新北市淡水區淡海路22號","121.423956666667","25.1786933333333","6501000","淡水區"
"251012","441-VK","2019/10/03 20:59:28","新北市淡水區淡金路五段98號","121.45628","25.2361083333333","6501000","淡水區"
"251007","442-VK","2019/10/03 20:59:38","新北市淡水區仁愛街9號","121.446078333333","25.170545","6501000","淡水區"
"251005","443-VK","2019/10/03 20:59:40","新北市淡水區學府路51巷2弄8號","121.447815","25.169745","6501000","淡水區"
"251001","559-UM","2019/10/03 20:59:35","新北市淡水區新市一路三段101巷2號","121.44643","25.1831883333333","6501000","淡水區"
"251014","577-R6","2019/10/03 20:59:31","新北市淡水區溪口26號","121.455623333333","25.2365516666667","6501000","淡水區"
"251011","650-BX","2019/10/03 20:59:33","新北市淡水區新民街226巷1號","121.436276666667","25.1806283333333","6501000","淡水區"
"251003","766-UM","2019/10/03 20:59:29","新北市淡水區新春街125巷2號","121.441878333333","25.1817483333333","6501000","淡水區"
"242051","400-BY","2019/10/03 20:59:40","新北市新莊區新樹路65-8號","121.43909","25.0303066666667","6500500","新莊區"
"242025","362-BY","2019/10/03 20:59:42","新北市八里區下罟子5-11號","121.385961666667","25.1455033333333","6500500","新莊區"
"242036","348-TH","2019/10/03 20:59:40","新北市新莊區中環路一段299號","121.442026666667","25.0323983333333","6500500","新莊區"
"242009","349-TH","2019/10/03 20:59:41","新北市新莊區思源路41號","121.459996666667","25.03987","6500500","新莊區"
