"lineid","car","time","location","longitude","latitude","cityid","cityname"
"232008","291-BY","2019/10/04 07:49:37","新北市坪林區石43-1號","121.711821666667","24.8989333333333","6502000","坪林區"
"244004","248-BX","2019/10/04 07:49:31","新北市林口區下福里20鄰4號","121.316521666667","25.1089733333333","6501700","林口區"
"222004","289-BY","2019/10/04 07:49:36","新北市深坑區文化街45號","121.616923333333","25.0017366666667","6501800","深坑區"
"231009","192-VK","2019/10/04 07:49:28","新北市新店區安康路一段287號","121.523133333333","24.9636233333333","6500600","新店區"
"231018","KEA-2219","2019/10/04 07:49:39","新北市新店區新和街33號","121.518913333333","24.9846633333333","6500600","新店區"
"226005","5620-A6","2019/10/04 07:49:48","新北市平溪區靜安路二段430號","121.739788333333","25.0247283333333","6502400","平溪區"
"226001","APG-9813","2019/10/04 07:49:42","新北市平溪區平湖里大厝6號","121.779405","25.0374416666667","6502400","平溪區"
"226006","AGD-0702","2019/10/04 07:49:51","新北市平溪區新寮里頂寮子62-1號","121.774683333333","25.0509333333333","6502400","平溪區"
"223003","205-TH","2019/10/04 07:48:51","新北市石碇區樟空子10-2號","121.666988333333","24.9620533333333","6501900","石碇區"
"223008","406-TH","2019/10/04 07:28:48","新北市石碇區靜安路一段337號","121.698855","25.01458","6501900","石碇區"
"223004","437-BY","2019/10/04 07:49:43","新北市石碇區八分寮31-3號","121.643568333333","25.0121383333333","6501900","石碇區"
"223001","592-UM","2019/10/04 07:49:14","新北市石碇區四分子8-1號","121.663933333333","24.9638133333333","6501900","石碇區"
"223007","661-BX","2019/10/04 07:40:42","新北市石碇區靜安路一段337號","121.698905","25.0144716666667","6501900","石碇區"
"227003","282-VK","2019/10/04 07:49:44","新北市雙溪區雙溪里太平路54號","121.86469","25.0354133333333","6502500","雙溪區"
