"lineid","car","time","location","longitude","latitude","cityid","cityname"
"222007","289-BY","2019/12/21 09:43:33","新北市深坑區阿柔洋60-1號","121.608046666667","24.9986366666667","6501800","深坑區"
"231007","189-VK","2019/12/21 09:43:40","新北市新店區新潭路三段160巷7號","121.509666666667","24.908","6500600","新店區"
"231008","192-VK","2019/12/21 09:43:40","新北市新店區小坑一路8號","121.535458333333","24.9122133333333","6500600","新店區"
"223003","205-TH","2019/12/21 09:43:32","新北市石碇區內楒仔腳1-7號","121.633758333333","24.9678716666667","6501900","石碇區"
"223001","592-UM","2019/12/21 09:43:45","新北市新店區北宜路三段327-1號","121.607908333333","24.9580616666667","6501900","石碇區"
"227004","282-VK","2019/12/21 09:43:39","新北市雙溪區長源里柑腳54號","121.794403333333","25.00796","6502500","雙溪區"
"252004","249-BX","2019/12/21 09:43:27","新北市三芝區圓山里石曹子坑64-28號","121.524611666667","25.2108933333333","6502100","三芝區"
"252007","AAC-283","2019/12/21 09:43:30","新北市三芝區新庄里新庄子95-8號","121.51391","25.2744","6502100","三芝區"
