"lineid","car","time","location","longitude","latitude","cityid","cityname"
"222007","289-BY","2019/12/21 09:59:33","新北市深坑區深南路99號","121.625978333333","25.0156666666667","6501800","深坑區"
"231007","189-VK","2019/12/21 09:59:40","新北市新店區新潭路三段76號","121.505843333333","24.91152","6500600","新店區"
"231008","192-VK","2019/12/21 09:49:00","新北市新店區小坑一路21-1號","121.53048","24.911755","6500600","新店區"
"231043","899-TW","2019/12/21 09:56:08","新北市新店區安華路28-1號","121.519266666667","24.9608333333333","6500600","新店區"
"227004","282-VK","2019/12/21 09:59:44","新北市雙溪區長源里盤山坑13號","121.772883333333","24.99611","6502500","雙溪區"
"252004","249-BX","2019/12/21 09:59:27","新北市三芝區福德里土地公埔46-6號","121.512011666667","25.23071","6502100","三芝區"
"252007","AAC-283","2019/12/21 09:59:30","新北市三芝區新庄里新庄子51-14號","121.507371666667","25.27752","6502100","三芝區"
