"lineid","car","time","location","longitude","latitude","cityid","cityname"
"234044","148-BY","2019/12/21 13:29:43","新北市永和區秀朗路二段243號","121.526306666667","24.9996283333333","6500400","永和區"
"234078","298-R6","2019/12/21 13:29:39","新北市永和區福和路1號","121.525198333333","25.0087966666667","6500400","永和區"
"234036","336-UY","2019/12/21 13:29:39","新北市永和區民樂街30巷2號","121.527541666667","25.001245","6500400","永和區"
"234062","337-UY","2019/12/21 13:29:32","新北市永和區中正路428巷30弄61號","121.519868333333","25.0012566666667","6500400","永和區"
"234084","338-UY","2019/12/21 13:29:36","新北市永和區林森路65號","121.524106666667","25.0040816666667","6500400","永和區"
"234068","552-UM","2019/12/21 13:29:46","新北市永和區警光街12號","121.519723333333","25.00954","6500400","永和區"
"234015","745-BX","2019/12/21 13:29:26","新北市永和區環河西路一段1號","121.515265","25.0180466666667","6500400","永和區"
"234028","746-BX","2019/12/21 13:29:29","新北市永和區厚德街65號","121.525108333333","24.99865","6500400","永和區"
"234052","KEA-2590","2019/12/21 13:29:47","新北市永和區永和路二段241號","121.515643333333","25.0145616666667","6500400","永和區"
"234005","KED-0605","2019/12/21 13:29:39","新北市永和區永貞路375號","121.508203333333","25.0081883333333","6500400","永和區"
"234012","KEA-2591","2019/12/21 13:29:32","新北市永和區中山路一段184巷10弄16號","121.509051666667","25.009675","6500400","永和區"
"234060","AAD-866","2019/12/21 13:29:25","新北市永和區永貞路145號","121.516175","25.004135","6500400","永和區"
"234040","862-TW","2019/12/21 13:29:38","新北市永和區水源街39巷28號","121.510721666667","25.0031533333333","6500400","永和區"
"234048","863-TW","2019/12/21 13:29:36","新北市永和區信義路77號","121.51238","25.0131566666667","6500400","永和區"
"234025","9371-KE","2019/12/21 13:29:36","新北市永和區中山路一段17巷4弄16號","121.51308","25.010195","6500400","永和區"
"234010","9373-KE","2019/12/21 13:29:44","新北市永和區仁愛路141巷30弄1號","121.511711666667","25.0117133333333","6500400","永和區"
"248017","KED-0813","2019/12/21 13:29:32","新北市五股區民義路二段52巷15-3號","121.411538333333","25.112795","6501500","五股區"
"234022","9380-KE","2019/12/21 13:29:29","新北市永和區竹林路91巷70號","121.521996666667","25.0136883333333","6500400","永和區"
"234076","969-R7","2019/12/21 13:29:40","新北市永和區智光街32巷1號","121.517801666667","24.9987783333333","6500400","永和區"
"234072","AAC-211","2019/12/21 13:29:25","新北市永和區永和路二段239-2號","121.51575","25.0146216666667","6500400","永和區"
"234066","AAC-212","2019/12/21 13:29:42","新北市永和區保平路188號","121.510516666667","25.0065","6500400","永和區"
"234001","AAC-295","2019/12/21 13:29:30","新北市永和區永和路一段107號","121.51396","25.00794","6500400","永和區"
"244005","248-BX","2019/12/21 13:29:32","新北市林口區頂福51-3號","121.350291666667","25.0848833333333","6501700","林口區"
"231030","002-UM","2019/12/21 13:29:41","新北市新店區安華路30巷3號","121.51898","24.9587716666667","6500600","新店區"
"231024","0291-UT","2019/12/21 13:29:42","新北市新店區北新路二段29巷3弄1號","121.542236666667","24.9729866666667","6500600","新店區"
"231027","0293-UT","2019/12/21 13:29:41","新北市新店區北新路一段41號","121.538078333333","24.9593","6500600","新店區"
"231005","047-UY","2019/12/21 13:29:35","新北市新店區北宜路一段39巷28號","121.540073333333","24.9586083333333","6500600","新店區"
"231029","106-UY","2019/12/21 13:29:39","新北市新店區安忠路57巷11弄14號","121.515325","24.9578866666667","6500600","新店區"
"231018","107-UY","2019/12/21 13:29:23","新北市新店區環河路116號","121.536965","24.9664666666667","6500600","新店區"
"231013","108-UY","2019/12/21 13:29:32","新北市新店區力行路15號","121.537068333333","24.9661733333333","6500600","新店區"
"231036","110-UY","2019/12/21 13:29:28","新北市新店區安祥路190巷19號","121.478113333333","24.9555383333333","6500600","新店區"
"231017","KEA-2219","2019/12/21 13:29:38","新北市新店區新烏路一段11巷7號","121.547315","24.9513333333333","6500600","新店區"
"231033","256-BX","2019/12/21 13:28:59","新北市新店區安忠路57巷26弄62號","121.51208","24.956905","6500600","新店區"
"231023","260-TV","2019/12/21 13:29:36","新北市新店區北新路一段23號","121.537956666667","24.9590433333333","6500600","新店區"
"231042","268-BY","2019/12/21 13:29:27","新北市新店區中興路二段239號","121.547341666667","24.9756816666667","6500600","新店區"
"231035","278-BY","2019/12/21 13:29:39","新北市新店區安康路一段355號","121.519906666667","24.9638566666667","6500600","新店區"
"231006","355-BY","2019/12/21 13:29:38","新北市新店區安華路28-1號","121.519293333333","24.9609033333333","6500600","新店區"
"231025","4715-K9","2019/12/21 13:29:38","新北市新店區中央五街38號","121.528496666667","24.9749833333333","6500600","新店區"
"231020","515-UM","2019/12/21 13:29:39","新北市新店區安一路一段1-1號","121.519515","24.9612183333333","6500600","新店區"
"231002","619-UM","2019/12/21 13:29:34","新北市新店區安康路一段231號","121.525351666667","24.9631316666667","6500600","新店區"
"231034","641-BX","2019/12/21 13:29:32","新北市新店區安華路28-1號","121.519505","24.9607833333333","6500600","新店區"
"231012","KED-0819","2019/12/21 13:29:42","新北市新店區光明街141號","121.539323333333","24.962165","6500600","新店區"
"231010","719-UM","2019/12/21 13:29:31","新北市新店區自由街23號","121.53508","24.9744816666667","6500600","新店區"
"231026","720-UM","2019/12/21 13:29:33","新北市新店區安一路一段1-1號","121.519418333333","24.96117","6500600","新店區"
"231028","897-TW","2019/12/21 13:29:42","新北市新店區安華路28-1號","121.519493333333","24.9608","6500600","新店區"
"231001","898-TW","2019/12/21 13:29:25","新北市新店區安康路一段116號","121.527155","24.962575","6500600","新店區"
"231004","899-TW","2019/12/21 13:29:43","新北市新店區安康路一段323-3號","121.521503333333","24.9637483333333","6500600","新店區"
"231037","AKT-0513","2019/12/21 13:29:27","新北市新店區薏仁坑路57號","121.490695","24.9639716666667","6500600","新店區"
"235030","003-UY","2019/12/21 13:29:40","新北市中和區中山路二段110號","121.502845","25.003975","6500300","中和區"
"235028","005-UY","2019/12/21 13:29:25","新北市中和區連城路96號","121.496555","24.999975","6500300","中和區"
"235027","006-UY","2019/12/21 13:29:25","新北市中和區連城路347巷2弄3-3號","121.487981666667","24.9958016666667","6500300","中和區"
"235036","KEE-1103","2019/12/21 13:29:33","新北市中和區連城路263號","121.491756666667","24.996435","6500300","中和區"
"235020","096-UM","2019/12/21 13:29:41","新北市中和區新民街12號","121.482473333333","25.0060066666667","6500300","中和區"
"235003","097-UM","2019/12/21 13:29:41","新北市中和區大仁街19巷8號","121.517275","24.9933116666667","6500300","中和區"
"235029","098-UM","2019/12/21 13:29:37","新北市中和區中山路二段64巷12號","121.50351","25.0051866666667","6500300","中和區"
"235022","151-BY","2019/12/21 13:29:46","新北市中和區圓通路367巷62-8號","121.493046666667","24.9831466666667","6500300","中和區"
"235019","183-VK","2019/12/21 13:29:26","新北市中和區莒光路120巷58號","121.471611666667","25.0007633333333","6500300","中和區"
"235002","185-VK","2019/12/21 13:29:31","新北市中和區立人街63號","121.520125","24.9942516666667","6500300","中和區"
"235031","255-BX","2019/12/21 13:29:28","新北市中和區新生街220巷15弄4號","121.482918333333","24.997995","6500300","中和區"
"235074","301-VK","2019/12/21 13:29:37","新北市中和區立德街12號","121.490123333333","25.006565","6500300","中和區"
"235007","352-BY","2019/12/21 13:29:31","新北市中和區景平路279-5號","121.507638333333","24.9930383333333","6500300","中和區"
"235006","KEA-2878","2019/12/21 13:29:36","新北市中和區大仁街20巷25弄39號","121.519608333333","24.9936833333333","6500300","中和區"
"235014","4979-A6","2019/12/21 13:29:33","新北市中和區景新街362巷5號","121.51194","24.9900566666667","6500300","中和區"
"235033","4980-A6","2019/12/21 13:29:32","新北市中和區安邦街35號","121.49626","24.9977283333333","6500300","中和區"
"235032","551-UM","2019/12/21 13:29:36","新北市中和區中正路269號","121.495873333333","24.993515","6500300","中和區"
"235034","558-UM","2019/12/21 13:29:36","新北市中和區安和路159號","121.505961666667","24.997295","6500300","中和區"
"235009","565-BX","2019/12/21 13:29:43","新北市中和區景安路200巷9號","121.503215","24.9918533333333","6500300","中和區"
"235024","KED-0823","2019/12/21 13:29:38","新北市中和區中山路三段56號","121.478313333333","25.0057316666667","6500300","中和區"
"235018","640-BX","2019/12/21 13:29:44","新北市中和區民享街32巷6號","121.473696666667","25.0032566666667","6500300","中和區"
"235011","732-UM","2019/12/21 13:29:38","新北市中和區南山路493號","121.507943333333","24.987835","6500300","中和區"
"235010","733-UM","2019/12/21 13:29:41","新北市中和區興南路一段86號","121.509836666667","24.9893216666667","6500300","中和區"
"235073","800-TS","2019/12/21 13:29:38","新北市中和區景平路728號","121.496655","25.0037066666667","6500300","中和區"
"235021","801-TS","2019/12/21 13:29:26","新北市中和區民安街42巷5-2號","121.478381666667","25.0015066666667","6500300","中和區"
"235005","802-TS","2019/12/21 13:29:35","新北市永和區中和路385號","121.508626666667","25.00006","6500300","中和區"
"235016","805-TS","2019/12/21 13:29:39","新北市中和區興南路二段124號","121.50443","24.9836566666667","6500300","中和區"
"235012","896-TW","2019/12/21 13:29:38","新北市中和區中正路637巷52弄1號","121.485621666667","24.9936133333333","6500300","中和區"
"235017","900-TW","2019/12/21 13:29:30","新北市中和區連城路607號","121.478238333333","24.99316","6500300","中和區"
"235015","157-BY","2019/12/21 13:29:40","新北市中和區信義街3號","121.51089","24.9898033333333","6500300","中和區"
"235001","AAC-213","2019/12/21 13:29:31","新北市中和區景平路151巷59號","121.51481","24.9899783333333","6500300","中和區"
"220013","072-UY","2019/12/21 13:29:44","新北市板橋區南雅南路二段66號","121.453768333333","25.00202","6500100","板橋區"
"220017","AAD-861","2019/12/21 13:29:44","新北市板橋區華東街1-10號","121.448368333333","24.9951316666667","6500100","板橋區"
"247005","893-R6","2019/12/21 13:29:25","新北市五股區中興路三段163號","121.449096666667","25.0807616666667","6501400","蘆洲區"
"247013","056-VK","2019/12/21 13:29:35","新北市五股區中興路三段163號","121.449608333333","25.0806016666667","6501400","蘆洲區"
"235013","251-BX","2019/12/21 13:29:42","新北市中和區景安路84號","121.50565","24.996185","6500300","中和區"
"228005","097-TW","2019/12/21 13:29:39","新北市貢寮區美豐里文秀坑8號","121.902556666667","25.0504333333333","6502600","貢寮區"
"228004","212-TW","2019/12/21 13:29:23","新北市貢寮區龍崗里石壁坑街17號","121.910428333333","24.9895466666667","6502600","貢寮區"
"253003","6232-TK","2019/12/21 13:29:27","新北市石門區內石門50-4號","121.571141666667","25.263","6502200","石門區"
"253004","6251-TK","2019/12/21 13:29:36","新北市石門區竹子湖14-1號","121.6151","25.2567483333333","6502200","石門區"
"253002","637-UY","2019/12/21 13:29:38","新北市石門區九芎林6-3號","121.561086666667","25.266975","6502200","石門區"
"253001","KEC-0718","2019/12/21 13:28:47","新北市石門區下員坑21-1號","121.51109","25.2772116666667","6502200","石門區"
"207002","749-BX","2019/12/21 13:29:26","新北市萬里區崁腳里崁腳路166號","121.64507","25.1558816666667","6502800","萬里區"
"207001","662-BX","2019/12/21 13:29:31","新北市萬里區大鵬里頂社24-5號","121.663508333333","25.20595","6502800","萬里區"
"252005","AAC-283","2019/12/21 13:29:23","新北市三芝區福德里土地公埔65號","121.518641666667","25.2253533333333","6502100","三芝區"
"220027","145-BY","2019/12/21 13:29:32","新北市板橋區華東街1-10號","121.448343333333","24.99506","6500100","板橋區"
"220030","610-BX","2019/12/21 13:29:33","新北市板橋區華東街1-9號","121.448228333333","24.9949166666667","6500100","板橋區"
"220004","276-BY","2019/12/21 13:29:32","新北市板橋區華東街1-9號","121.448101666667","24.994935","6500100","板橋區"
"220020","277-BY","2019/12/21 13:29:39","新北市板橋區華東街1-10號","121.448335","24.9950983333333","6500100","板橋區"
"220019","283-VK","2019/12/21 13:29:40","新北市板橋區華東街1-9號","121.448096666667","24.9949233333333","6500100","板橋區"
"220107","286-VK","2019/12/21 13:29:26","新北市板橋區華東街1-10號","121.448351666667","24.9951116666667","6500100","板橋區"
"220029","287-VK","2019/12/21 13:29:41","新北市板橋區華東街1-10號","121.448265","24.99502","6500100","板橋區"
"220032","296-UM","2019/12/21 13:29:32","新北市板橋區華東街1-9號","121.448146666667","24.9949666666667","6500100","板橋區"
"220022","297-UM","2019/12/21 13:29:24","新北市板橋區南雅南路二段140號","121.451761666667","24.9962033333333","6500100","板橋區"
"220104","560-BX","2019/12/21 13:29:34","新北市板橋區南雅南路二段100號","121.453418333333","25.0010433333333","6500100","板橋區"
"220025","687-BX","2019/12/21 13:29:41","新北市板橋區篤行路一段29號","121.432003333333","24.99468","6500100","板橋區"
"220003","827-TW","2019/12/21 13:29:34","新北市板橋區華東街1-10號","121.448765","24.9947566666667","6500100","板橋區"
"220108","985-R7","2019/12/21 13:29:35","新北市板橋區四川路二段247號","121.449961666667","24.9930833333333","6500100","板橋區"
"220012","AAC-253","2019/12/21 13:29:35","新北市板橋區南雅南路二段120-12號","121.452111666667","24.9994516666667","6500100","板橋區"
"235025","KEA-2875","2019/12/21 13:29:29","新北市中和區民享街88巷24號","121.47327","25.0003033333333","6500300","中和區"
