"lineid","car","time","location","longitude","latitude","cityid","cityname"
"234044","148-BY","2019/12/21 13:43:43","新北市永和區永亨路205號","121.526101666667","25.0026616666667","6500400","永和區"
"234078","298-R6","2019/12/21 13:43:39","新北市永和區林森路48巷1號","121.524665","25.004525","6500400","永和區"
"234036","336-UY","2019/12/21 13:43:39","新北市永和區環河東路四段22號","121.528581666667","24.9995416666667","6500400","永和區"
"234062","337-UY","2019/12/21 13:43:32","新北市永和區中正路412巷18號","121.518398333333","25.0021","6500400","永和區"
"234084","338-UY","2019/12/21 13:43:36","新北市永和區永亨路167號","121.525945","25.003795","6500400","永和區"
"234068","552-UM","2019/12/21 13:43:26","新北市永和區永和路二段243號","121.515786666667","25.0146583333333","6500400","永和區"
"234015","745-BX","2019/12/21 13:43:31","新北市永和區永和路二段301巷1號","121.515685","25.0164066666667","6500400","永和區"
"234028","746-BX","2019/12/21 13:43:30","新北市永和區民權路1巷6-1號","121.52056","24.99839","6500400","永和區"
"234052","KEA-2590","2019/12/21 13:43:26","新北市永和區竹林路65號","121.518538333333","25.013665","6500400","永和區"
"234005","KED-0605","2019/12/21 13:43:39","新北市永和區永和路一段107號","121.513866666667","25.0079233333333","6500400","永和區"
"234012","KEA-2591","2019/12/21 13:43:32","新北市永和區仁愛路219號","121.509305","25.01225","6500400","永和區"
"234060","AAD-866","2019/12/21 13:43:27","新北市永和區中正路226號","121.516068333333","24.9979383333333","6500400","永和區"
"234040","862-TW","2019/12/21 13:43:38","新北市永和區中和路305巷16弄2號","121.507315","25.001305","6500400","永和區"
"234048","863-TW","2019/12/21 13:43:41","新北市永和區環河西路一段101號","121.511105","25.0177016666667","6500400","永和區"
"234010","9373-KE","2019/12/21 13:43:43","新北市永和區保安路123號","121.507603333333","25.01378","6500400","永和區"
"248017","KED-0813","2019/12/21 13:43:32","新北市五股區民義路二段22巷30-3號","121.424315","25.10002","6501500","五股區"
"234022","9380-KE","2019/12/21 13:43:28","新北市永和區中正路662巷25號","121.517628333333","25.0088366666667","6500400","永和區"
"234076","969-R7","2019/12/21 13:43:41","新北市永和區民族街45號","121.51864","24.9983933333333","6500400","永和區"
"234072","AAC-211","2019/12/21 13:43:45","新北市永和區豫溪街136巷5號","121.521306666667","25.0099616666667","6500400","永和區"
"234066","AAC-212","2019/12/21 13:43:42","新北市永和區永平路157巷2弄22號","121.510371666667","25.00856","6500400","永和區"
"234001","AAC-295","2019/12/21 13:43:36","新北市永和區自由街69號","121.513506666667","25.0053666666667","6500400","永和區"
"244005","248-BX","2019/12/21 13:43:32","新北市林口區下福里141-4號","121.297893333333","25.11828","6501700","林口區"
"231030","002-UM","2019/12/21 13:43:41","新北市新店區安康路一段126號","121.526781666667","24.9627316666667","6500600","新店區"
"231024","0291-UT","2019/12/21 13:43:42","新北市新店區中華路85號","121.539305","24.9688733333333","6500600","新店區"
"231027","0293-UT","2019/12/21 13:43:41","新北市新店區北宜路一段170號","121.540591666667","24.9529816666667","6500600","新店區"
"231005","047-UY","2019/12/21 13:43:35","新北市新店區寶中路72號","121.547821666667","24.98061","6500600","新店區"
"231029","106-UY","2019/12/21 13:43:39","新北市新店區安康路二段156號","121.512335","24.9609183333333","6500600","新店區"
"231018","107-UY","2019/12/21 13:43:43","新北市新店區百忍街17巷2號","121.534335","24.9755916666667","6500600","新店區"
"231013","108-UY","2019/12/21 13:43:31","新北市新店區二十張路58-1號","121.536881666667","24.980285","6500600","新店區"
"231036","110-UY","2019/12/21 13:43:28","新北市新店區安祥路147巷47號","121.476318333333","24.9562566666667","6500600","新店區"
"231017","KEA-2219","2019/12/21 13:43:38","新北市新店區竹林路2巷23-1號","121.55019","24.9510866666667","6500600","新店區"
"231033","256-BX","2019/12/21 13:43:39","新北市新店區莒光路61巷2號","121.52375","24.957955","6500600","新店區"
"231023","260-TV","2019/12/21 13:43:36","新北市新店區新店路201號","121.537105","24.9563783333333","6500600","新店區"
"231003","268-BY","2019/12/21 13:43:27","新北市新店區中興路一段267-1號","121.544976666667","24.96776","6500600","新店區"
"231035","278-BY","2019/12/21 13:43:39","新北市新店區安忠路56巷2號","121.512826666667","24.9592716666667","6500600","新店區"
"231006","355-BY","2019/12/21 13:43:38","新北市新店區北宜路一段118號","121.539211666667","24.95517","6500600","新店區"
"231038","3712-VJ","2019/12/21 13:43:26","新北市新店區安華路30巷1號","121.5196","24.9592816666667","6500600","新店區"
"231025","4715-K9","2019/12/21 13:43:37","新北市新店區中央五街1號","121.530181666667","24.9741083333333","6500600","新店區"
"231020","515-UM","2019/12/21 13:43:39","新北市新店區新烏路一段100-2號","121.545065","24.9367116666667","6500600","新店區"
"231002","619-UM","2019/12/21 13:43:34","新北市新店區中央三街127號","121.524001666667","24.976835","6500600","新店區"
"231034","641-BX","2019/12/21 13:43:32","新北市新店區達觀路14巷8號","121.503215","24.9432133333333","6500600","新店區"
"231012","KED-0819","2019/12/21 13:43:42","新北市新店區德正街27巷14號","121.545171666667","24.97153","6500600","新店區"
"231010","719-UM","2019/12/21 13:43:31","新北市新店區三民路60巷2號","121.535465","24.972495","6500600","新店區"
"231026","720-UM","2019/12/21 13:43:33","新北市新店區光明街211號","121.540031666667","24.96386","6500600","新店區"
"231028","897-TW","2019/12/21 13:43:42","新北市新店區安和路二段80號","121.518886666667","24.96985","6500600","新店區"
"231001","898-TW","2019/12/21 13:43:25","新北市新店區中正路407號","121.534376666667","24.977555","6500600","新店區"
"231004","899-TW","2019/12/21 13:43:43","新北市新店區北新路二段35號","121.542845","24.9726466666667","6500600","新店區"
"231037","AKT-0513","2019/12/21 13:43:29","新北市新店區安康路三段359巷12弄3號","121.48433","24.9497616666667","6500600","新店區"
"235030","003-UY","2019/12/21 13:43:40","新北市中和區廣福路30號","121.50471","25.0025466666667","6500300","中和區"
"235028","005-UY","2019/12/21 13:43:25","新北市中和區泰和街36號","121.499238333333","25.000175","6500300","中和區"
"235027","006-UY","2019/12/21 13:43:45","新北市中和區錦和路198號","121.49008","24.9948916666667","6500300","中和區"
"235036","KEE-1103","2019/12/21 13:43:33","新北市中和區連城路145號","121.495733333333","24.9984816666667","6500300","中和區"
"235020","096-UM","2019/12/21 13:43:41","新北市中和區中正路1163號","121.481591666667","25.0092166666667","6500300","中和區"
"235003","097-UM","2019/12/21 13:43:41","新北市中和區大勇街29巷21號","121.51562","24.9947133333333","6500300","中和區"
"235029","098-UM","2019/12/21 13:43:37","新北市中和區中山路二段2巷17號","121.50387","25.0068983333333","6500300","中和區"
"235022","151-BY","2019/12/21 13:43:26","新北市中和區圓通路369巷152號","121.488098333333","24.981545","6500300","中和區"
"235019","183-VK","2019/12/21 13:43:46","新北市中和區民生街85巷1弄1號","121.468955","25.0046883333333","6500300","中和區"
"235002","185-VK","2019/12/21 13:43:31","新北市中和區立人街24-5號","121.518791666667","24.9941233333333","6500300","中和區"
"235031","255-BX","2019/12/21 13:43:28","新北市中和區新生街242巷1弄2-1號","121.48333","24.9975533333333","6500300","中和區"
"235008","293-VK","2019/12/21 13:43:41","新北市中和區復興路280巷28號","121.501728333333","24.99177","6500300","中和區"
"235074","301-VK","2019/12/21 13:43:37","新北市中和區建一路66號","121.487976666667","25.00342","6500300","中和區"
"235007","352-BY","2019/12/21 13:43:31","新北市中和區景平路61號","121.520466666667","24.9910316666667","6500300","中和區"
"235006","KEA-2878","2019/12/21 13:43:36","新北市中和區成功路107巷2號","121.526255","24.9912366666667","6500300","中和區"
"235014","4979-A6","2019/12/21 13:43:33","新北市中和區景新街496巷30弄35號","121.512536666667","24.98559","6500300","中和區"
"235033","4980-A6","2019/12/21 13:43:32","新北市中和區連城路87號","121.496908333333","25.0003283333333","6500300","中和區"
"235032","551-UM","2019/12/21 13:43:36","新北市中和區中正路269號","121.495946666667","24.9934816666667","6500300","中和區"
"235034","558-UM","2019/12/21 13:43:36","新北市中和區中和路102-1號","121.502318333333","24.9995666666667","6500300","中和區"
"235009","565-BX","2019/12/21 13:43:23","新北市中和區南山路236巷1號","121.506061666667","24.9891883333333","6500300","中和區"
"235024","KED-0823","2019/12/21 13:43:38","新北市中和區民治街7巷2號","121.475081666667","25.0046466666667","6500300","中和區"
"235018","640-BX","2019/12/21 13:43:24","新北市中和區民享街2巷2號","121.473705","25.0059016666667","6500300","中和區"
"235011","732-UM","2019/12/21 13:43:38","新北市中和區興南路二段74巷8號","121.505238333333","24.9846983333333","6500300","中和區"
"235010","733-UM","2019/12/21 13:43:41","新北市中和區仁愛街36巷44號","121.51129","24.9862933333333","6500300","中和區"
"235073","800-TS","2019/12/21 13:43:38","新北市中和區中山路二段312巷41號","121.495141666667","25.0041916666667","6500300","中和區"
"235021","801-TS","2019/12/21 13:43:26","新北市中和區民利街14巷5弄20號","121.479738333333","24.9994033333333","6500300","中和區"
"235005","802-TS","2019/12/21 13:43:26","新北市中和區永貞路249巷12號","121.512523333333","25.0036483333333","6500300","中和區"
"235016","805-TS","2019/12/21 13:43:39","新北市中和區興南路三段21號","121.496925","24.979365","6500300","中和區"
"235012","896-TW","2019/12/21 13:43:38","新北市中和區板南路100號","121.503923333333","24.9925416666667","6500300","中和區"
"235017","900-TW","2019/12/21 13:43:30","新北市中和區華順街107號","121.46522","24.997215","6500300","中和區"
"235015","157-BY","2019/12/21 13:43:20","新北市中和區興南路二段128巷7弄6號","121.503055","24.98406","6500300","中和區"
"235001","AAC-213","2019/12/21 13:43:38","新北市中和區景平路73號","121.51882","24.9913916666667","6500300","中和區"
"235023","AAC-215","2019/12/21 13:43:37","新北市中和區錦和路406號","121.490946666667","24.98972","6500300","中和區"
"220002","015-TV","2019/12/21 13:43:32","新北市板橋區南雅南路二段120-2號","121.452326666667","24.9998816666667","6500100","板橋區"
"220013","072-UY","2019/12/21 13:43:37","新北市板橋區成都街43號","121.461341666667","25.0049466666667","6500100","板橋區"
"220034","073-UY","2019/12/21 13:43:24","新北市板橋區華東街326號","121.452826666667","25.00316","6500100","板橋區"
"220105","075-UY","2019/12/21 13:43:32","新北市板橋區民生路二段188號","121.470073333333","25.0204483333333","6500100","板橋區"
"220017","AAD-861","2019/12/21 13:43:24","新北市板橋區大華街94號","121.459223333333","25.0055566666667","6500100","板橋區"
"247005","893-R6","2019/12/21 13:43:25","新北市蘆洲區中山二路280號","121.468955","25.0780333333333","6501400","蘆洲區"
"247013","056-VK","2019/12/21 13:43:35","新北市蘆洲區環堤大道136號","121.452753333333","25.0890983333333","6501400","蘆洲區"
"247001","001-UY","2019/12/21 13:43:26","新北市五股區中興路三段163號","121.448465","25.0808116666667","6501400","蘆洲區"
"235013","251-BX","2019/12/21 13:43:42","新北市中和區景安路132巷16號","121.504205","24.9941966666667","6500300","中和區"
"228005","097-TW","2019/12/21 13:43:39","新北市貢寮區美豐里土地公嶺7-2號","121.898816666667","25.05637","6502600","貢寮區"
"228004","212-TW","2019/12/21 13:43:43","新北市貢寮區龍崗里嵩陽街46號","121.904571666667","25.0127216666667","6502600","貢寮區"
"253003","6232-TK","2019/12/21 13:43:27","新北市石門區中山路62-10號","121.5697","25.2887433333333","6502200","石門區"
"253004","6251-TK","2019/12/21 13:43:36","新北市石門區阿里荖58-1號","121.603245","25.27489","6502200","石門區"
"253002","637-UY","2019/12/21 13:43:38","新北市石門區九芎林43號","121.566361666667","25.2512183333333","6502200","石門區"
"253001","KEC-0718","2019/12/21 13:43:27","新北市石門區八甲55號","121.523898333333","25.2735516666667","6502200","石門區"
"207002","749-BX","2019/12/21 13:43:26","新北市萬里區崁腳里崁腳路166號","121.645105","25.1558883333333","6502800","萬里區"
"207001","662-BX","2019/12/21 13:43:31","新北市萬里區大鵬里萬里加投45-1號","121.641871666667","25.2110716666667","6502800","萬里區"
"252005","AAC-283","2019/12/21 13:43:43","新北市三芝區圓山里木屐寮38號","121.529775","25.2259416666667","6502100","三芝區"
"236040","KED-0685","2019/12/21 13:43:36","新北市土城區城林路6巷80號","121.438393333333","24.9796583333333","6501300","土城區"
"236029","253-BX","2019/12/21 13:43:44","新北市土城區城林路6巷80號","121.438485","24.9797983333333","6501300","土城區"
"236013","270-VK","2019/12/21 13:43:26","新北市土城區城林路6巷80號","121.43853","24.979765","6501300","土城區"
"236032","271-VK","2019/12/21 13:43:40","新北市土城區城林路6巷80號","121.438503333333","24.9797633333333","6501300","土城區"
"236068","KEA-2877","2019/12/21 13:43:41","新北市土城區城林路6巷80號","121.438678333333","24.9796716666667","6501300","土城區"
"236017","401-BY","2019/12/21 13:43:38","新北市土城區城林路6巷80號","121.4386","24.9797733333333","6501300","土城區"
"236057","912-UM","2019/12/21 13:43:31","新北市土城區城林路6巷80號","121.438513333333","24.97972","6501300","土城區"
"236045","913-UM","2019/12/21 13:43:30","新北市土城區城林路6巷80號","121.438536666667","24.979775","6501300","土城區"
"236060","915-UM","2019/12/21 13:43:33","新北市土城區城林路6巷80號","121.438583333333","24.9796633333333","6501300","土城區"
"220027","145-BY","2019/12/21 13:43:42","新北市板橋區南雅西路二段147號","121.452026666667","25.0117516666667","6500100","板橋區"
"220028","200-UY","2019/12/21 13:43:38","新北市板橋區大觀路二段265巷128號","121.442288333333","24.9962633333333","6500100","板橋區"
"220030","610-BX","2019/12/21 13:43:33","新北市板橋區篤行路二段92-2號","121.431563333333","24.991675","6500100","板橋區"
"220050","245-BX","2019/12/21 13:43:30","新北市板橋區民生路二段200號","121.46992","25.0211033333333","6500100","板橋區"
"220004","276-BY","2019/12/21 13:43:36","新北市板橋區四川路一段147號","121.459925","25.0042316666667","6500100","板橋區"
"220020","277-BY","2019/12/21 13:43:39","新北市板橋區金門街29號","121.43352","24.9939533333333","6500100","板橋區"
"220019","283-VK","2019/12/21 13:43:40","新北市板橋區四川路一段284號","121.458783333333","25.0007766666667","6500100","板橋區"
"220043","285-UM","2019/12/21 13:43:28","新北市板橋區民生路二段89-6號","121.470586666667","25.0192966666667","6500100","板橋區"
"220001","285-VK","2019/12/21 13:43:40","新北市板橋區民生路二段121號","121.470643333333","25.0184416666667","6500100","板橋區"
"220107","286-VK","2019/12/21 13:43:26","新北市板橋區大觀路二段22巷1號","121.446408333333","25.0032966666667","6500100","板橋區"
"220029","287-VK","2019/12/21 13:43:41","新北市板橋區館前西路162號","121.452746666667","25.008605","6500100","板橋區"
"220039","288-VK","2019/12/21 13:43:39","新北市板橋區民生路三段107號","121.466571666667","25.02524","6500100","板橋區"
"220009","293-UM","2019/12/21 13:43:27","新北市板橋區太和街4巷1號","121.47396","25.019805","6500100","板橋區"
"220041","295-UM","2019/12/21 13:43:37","新北市板橋區漢生東路63巷1號","121.465911666667","25.0164866666667","6500100","板橋區"
"220032","296-UM","2019/12/21 13:43:32","新北市板橋區大觀路二段174巷102弄19號","121.441633333333","25.0012116666667","6500100","板橋區"
"220022","297-UM","2019/12/21 13:43:24","新北市板橋區府中路23號","121.459188333333","25.00906","6500100","板橋區"
"220023","303-R5","2019/12/21 13:43:28","新北市板橋區南雅南路二段120-2號","121.452408333333","24.9999566666667","6500100","板橋區"
"220010","305-R5","2019/12/21 13:43:31","新北市板橋區民生路二段120號","121.470605","25.0194133333333","6500100","板橋區"
"220047","317-R6","2019/12/21 13:43:37","新北市板橋區民生路二段188號","121.470153333333","25.02034","6500100","板橋區"
"220110","487-VK","2019/12/21 13:43:25","新北市板橋區文化路二段181號","121.470863333333","25.0279916666667","6500100","板橋區"
"220037","491-VK","2019/12/21 13:43:27","新北市板橋區民生路二段188號","121.470001666667","25.0205466666667","6500100","板橋區"
"220104","560-BX","2019/12/21 13:43:33","新北市板橋區南雅西路二段145巷6號","121.451598333333","25.0118883333333","6500100","板橋區"
"220052","561-BX","2019/12/21 13:43:42","新北市板橋區民生路二段80號","121.471656666667","25.01849","6500100","板橋區"
"220109","609-BX","2019/12/21 13:43:42","新北市板橋區民生路一段87號","121.474543333333","25.0138983333333","6500100","板橋區"
"220005","686-BX","2019/12/21 13:43:40","新北市板橋區館前東路60號","121.461036666667","25.0073283333333","6500100","板橋區"
"220025","687-BX","2019/12/21 13:43:41","新北市板橋區大觀路三段129號","121.43265","24.9940883333333","6500100","板橋區"
"220111","689-BX","2019/12/21 13:43:43","新北市板橋區民生路二段120號","121.470331666667","25.0198283333333","6500100","板橋區"
"220051","KEA-2699","2019/12/21 13:43:28","新北市板橋區民生路二段161巷1號","121.470125","25.0199366666667","6500100","板橋區"
"220003","827-TW","2019/12/21 13:43:34","新北市板橋區忠孝路168號","121.46435","25.002465","6500100","板橋區"
"220016","830-TW","2019/12/21 13:43:39","新北市板橋區萬板路163號","121.473978333333","25.0234166666667","6500100","板橋區"
"220108","985-R7","2019/12/21 13:43:35","新北市板橋區館前西路60號","121.458026666667","25.00694","6500100","板橋區"
"220046","AAC-210","2019/12/21 13:43:32","新北市板橋區民生路二段120號","121.470461666667","25.01957","6500100","板橋區"
"220012","AAC-253","2019/12/21 13:43:34","新北市板橋區中山路一段293-2號","121.470796666667","25.014375","6500100","板橋區"
"235025","KEA-2875","2019/12/21 13:43:29","新北市中和區民享街49巷1號","121.474351666667","25.0028816666667","6500300","中和區"
