"lineid","car","time","location","longitude","latitude","cityid","cityname"
"234044","148-BY","2019/12/21 14:13:23","新北市永和區得和路295號","121.522781666667","24.9997066666667","6500400","永和區"
"234078","298-R6","2019/12/21 14:13:39","新北市永和區國中路104巷2弄1號","121.524455","25.006755","6500400","永和區"
"234036","336-UY","2019/12/21 14:13:39","新北市永和區成功路一段93巷23弄13號","121.528465","25.003405","6500400","永和區"
"234062","337-UY","2019/12/21 14:13:32","新北市永和區得和路168號","121.519535","24.999995","6500400","永和區"
"234084","338-UY","2019/12/21 14:13:36","新北市永和區福和路287號","121.51729","25.0074133333333","6500400","永和區"
"234068","552-UM","2019/12/21 14:13:30","新北市永和區永亨路39號","121.520003333333","25.0063116666667","6500400","永和區"
"234015","745-BX","2019/12/21 14:13:25","新北市永和區仁愛路97號","121.512885","25.0131183333333","6500400","永和區"
"234028","746-BX","2019/12/21 14:13:29","新北市永和區民權路49巷3號","121.520403333333","24.99731","6500400","永和區"
"234052","KEA-2590","2019/12/21 14:13:26","新北市永和區永和路二段298號","121.51638","25.015785","6500400","永和區"
"234005","KED-0605","2019/12/21 14:13:39","新北市永和區永貞路366號","121.510081666667","25.0067233333333","6500400","永和區"
"234012","KEA-2591","2019/12/21 14:13:43","新北市永和區保生路5巷3號","121.505976666667","25.0070966666667","6500400","永和區"
"234060","AAD-866","2019/12/21 14:13:25","新北市永和區得和路53巷5號","121.516936666667","25.000225","6500400","永和區"
"234040","862-TW","2019/12/21 14:13:38","新北市永和區雙和街10號","121.509646666667","25.0018716666667","6500400","永和區"
"234048","863-TW","2019/12/21 14:13:36","新北市永和區保安路23號","121.510275","25.0167116666667","6500400","永和區"
"234025","9371-KE","2019/12/21 14:13:36","新北市永和區安樂路202號","121.515366666667","25.0018066666667","6500400","永和區"
"248017","KED-0813","2019/12/21 14:13:32","新北市五股區外寮路9-5號","121.419131666667","25.0787633333333","6501500","五股區"
"234022","9380-KE","2019/12/21 14:13:28","新北市永和區竹林路25巷21號","121.518253333333","25.014995","6500400","永和區"
"234076","969-R7","2019/12/21 14:13:41","新北市永和區民有街75巷10弄4號","121.518515","24.9961483333333","6500400","永和區"
"234072","AAC-211","2019/12/21 14:13:25","新北市永和區竹林路222號","121.520778333333","25.0079666666667","6500400","永和區"
"234066","AAC-212","2019/12/21 14:13:42","新北市永和區保平路268巷9號","121.508496666667","25.0053433333333","6500400","永和區"
"234001","AAC-295","2019/12/21 14:13:30","新北市永和區中正路609巷28號","121.515888333333","25.0087566666667","6500400","永和區"
"244005","248-BX","2019/12/21 14:13:32","新北市林口區湖南里70-9號","121.375941666667","25.0898533333333","6501700","林口區"
"231030","002-UM","2019/12/21 14:13:41","新北市新店區安民街65巷21-2號","121.515161666667","24.9675","6500600","新店區"
"231024","0291-UT","2019/12/21 14:13:42","新北市新店區柴埕路52巷1-1號","121.511305","24.9642033333333","6500600","新店區"
"231027","0293-UT","2019/12/21 14:13:41","新北市新店區光明街103號","121.539158333333","24.9611933333333","6500600","新店區"
"231005","047-UY","2019/12/21 14:13:35","新北市新店區中興路三段221-3號","121.543438333333","24.9824666666667","6500600","新店區"
"231029","106-UY","2019/12/21 14:13:39","新北市新店區安康路二段159巷2號","121.510273333333","24.9593233333333","6500600","新店區"
"231018","107-UY","2019/12/21 14:13:23","新北市新店區中央五街46號","121.528146666667","24.97519","6500600","新店區"
"231013","108-UY","2019/12/21 14:13:31","新北市新店區北新路三段49號","121.54185","24.980485","6500600","新店區"
"231036","110-UY","2019/12/21 14:13:28","新北市新店區安祥路109巷1弄97號","121.47888","24.9602333333333","6500600","新店區"
"231017","KEA-2219","2019/12/21 14:13:38","新北市新店區中生路163-1號","121.573133333333","24.9493566666667","6500600","新店區"
"231033","256-BX","2019/12/21 14:13:39","新北市新店區永業路22巷1號","121.533216666667","24.9557983333333","6500600","新店區"
"231023","260-TV","2019/12/21 14:13:36","新北市新店區文中路45號","121.539593333333","24.9566016666667","6500600","新店區"
"231003","268-BY","2019/12/21 14:13:27","新北市新店區中興路一段172巷1號","121.54287","24.964495","6500600","新店區"
"231035","278-BY","2019/12/21 14:13:39","新北市新店區安和路二段115號","121.518631666667","24.970445","6500600","新店區"
"231006","355-BY","2019/12/21 14:13:38","新北市新店區北宜路二段82-13號","121.554701666667","24.95352","6500600","新店區"
"231038","3712-VJ","2019/12/21 14:13:36","新北市新店區溪洲路32-1號","121.53329","24.9610316666667","6500600","新店區"
"231025","4715-K9","2019/12/21 14:13:37","新北市新店區民族路91號","121.53866","24.9777066666667","6500600","新店區"
"231020","515-UM","2019/12/21 14:13:39","新北市新店區櫻花街190號","121.54795","24.9199366666667","6500600","新店區"
"231002","619-UM","2019/12/21 14:13:34","新北市新店區中正路472號","121.533936666667","24.9808083333333","6500600","新店區"
"231034","641-BX","2019/12/21 14:13:31","新北市新店區車子路11號","121.503023333333","24.9520216666667","6500600","新店區"
"231012","KED-0819","2019/12/21 14:13:42","新北市新店區中興路一段222號","121.544286666667","24.9663283333333","6500600","新店區"
"231028","897-TW","2019/12/21 14:13:22","新北市新店區安業街10號","121.51603","24.978605","6500600","新店區"
"231001","898-TW","2019/12/21 14:13:45","新北市新店區中華路38號","121.539998333333","24.968075","6500600","新店區"
"231004","899-TW","2019/12/21 14:13:43","新北市新店區寶橋路2號","121.543065","24.9734216666667","6500600","新店區"
"231037","AKT-0513","2019/12/21 14:13:27","新北市新店區安康路二段341巷32號","121.496875","24.9544366666667","6500600","新店區"
"235030","003-UY","2019/12/21 14:13:40","新北市中和區廣福路55號","121.502833333333","25.0013616666667","6500300","中和區"
"235028","005-UY","2019/12/21 14:13:45","新北市中和區景新街64巷16號","121.503703333333","24.9983833333333","6500300","中和區"
"235027","006-UY","2019/12/21 14:13:45","新北市中和區連勝街125號","121.494988333333","24.99499","6500300","中和區"
"235036","KEE-1103","2019/12/21 14:13:33","新北市中和區中山路二段270號","121.497048333333","25.0025316666667","6500300","中和區"
"235020","096-UM","2019/12/21 14:13:41","新北市中和區員山路503號","121.47988","25.0063716666667","6500300","中和區"
"235003","097-UM","2019/12/21 14:13:41","新北市中和區秀峰街119巷8弄4號","121.51946","24.9897983333333","6500300","中和區"
"235029","098-UM","2019/12/21 14:13:37","新北市中和區中山路二段2巷3弄17號","121.504171666667","25.0055083333333","6500300","中和區"
"235040","150-BY","2019/12/21 14:13:30","新北市中和區宜安路60號","121.511691666667","24.9969166666667","6500300","中和區"
"235022","151-BY","2019/12/21 14:13:26","新北市中和區連城路532巷12號","121.474983333333","24.99258","6500300","中和區"
"235019","183-VK","2019/12/21 14:13:39","新北市中和區莒光路3巷5號","121.472108333333","25.0060783333333","6500300","中和區"
"235002","185-VK","2019/12/21 14:13:31","新北市中和區大仁街108號","121.520546666667","24.9928316666667","6500300","中和區"
"235031","255-BX","2019/12/21 14:13:28","新北市中和區連城路328號","121.483248333333","24.9959616666667","6500300","中和區"
"235008","293-VK","2019/12/21 14:13:41","新北市中和區中興街263-1號","121.500096666667","24.98878","6500300","中和區"
"235074","301-VK","2019/12/21 14:13:37","新北市中和區立德街180號","121.485741666667","25.0087816666667","6500300","中和區"
"235007","352-BY","2019/12/21 14:13:31","新北市中和區景平路290號","121.513205","24.9928083333333","6500300","中和區"
"235006","KEA-2878","2019/12/21 14:13:41","新北市中和區自立路117巷4弄5號","121.522705","24.9943333333333","6500300","中和區"
"247015","KEA-2869","2019/12/21 14:13:41","新北市蘆洲區光華路52號","121.468528333333","25.0829533333333","6501400","蘆洲區"
"247009","KED-0682","2019/12/21 14:13:45","新北市蘆洲區信義路170號","121.479271666667","25.083865","6501400","蘆洲區"
"235014","4979-A6","2019/12/21 14:13:33","新北市中和區復興路280巷18弄30號","121.502253333333","24.9921733333333","6500300","中和區"
"235033","4980-A6","2019/12/21 14:13:32","新北市中和區中和路165巷15號","121.50252","25.0005483333333","6500300","中和區"
"235032","551-UM","2019/12/21 14:13:36","新北市中和區景平路493巷1號","121.4999","24.9976566666667","6500300","中和區"
"235034","558-UM","2019/12/21 14:13:36","新北市中和區中和路12號","121.499696666667","25.0021616666667","6500300","中和區"
"235009","565-BX","2019/12/21 14:13:42","新北市中和區景新街422號","121.513003333333","24.988955","6500300","中和區"
"235024","KED-0823","2019/12/21 14:13:38","新北市中和區新生街47號","121.483371666667","25.0028116666667","6500300","中和區"
"235018","640-BX","2019/12/21 14:13:44","新北市中和區國光街112巷24弄2號","121.470631666667","25.002515","6500300","中和區"
"235011","732-UM","2019/12/21 14:13:38","新北市中和區興南路一段56巷30號","121.51018","24.9914066666667","6500300","中和區"
"235010","733-UM","2019/12/21 14:13:41","新北市中和區工專路111號","121.507548333333","24.9822766666667","6500300","中和區"
"235073","800-TS","2019/12/21 14:13:38","新北市中和區建六路67巷16號","121.486785","25.002835","6500300","中和區"
"235021","801-TS","2019/12/21 14:13:26","新北市中和區台新街43號","121.479713333333","25.0049183333333","6500300","中和區"
"235005","802-TS","2019/12/21 14:13:26","新北市中和區中安街192號","121.511405","24.9993383333333","6500300","中和區"
"235016","805-TS","2019/12/21 14:13:39","新北市中和區興南路二段142巷17弄33號","121.502963333333","24.9827866666667","6500300","中和區"
"235012","896-TW","2019/12/21 14:13:38","新北市中和區華新街109巷24號","121.508373333333","24.9803833333333","6500300","中和區"
"235017","900-TW","2019/12/21 14:13:40","新北市中和區民德路214號","121.468245","24.9981533333333","6500300","中和區"
"235015","157-BY","2019/12/21 14:13:40","新北市中和區忠孝街31巷33弄2號","121.509705","24.984635","6500300","中和區"
"235001","AAC-213","2019/12/21 14:13:31","新北市中和區秀朗路三段50巷10弄1號","121.524481666667","24.9951283333333","6500300","中和區"
"235023","AAC-215","2019/12/21 14:13:37","新北市中和區錦和路197號","121.49077","24.9906366666667","6500300","中和區"
"220002","015-TV","2019/12/21 14:13:32","新北市板橋區四川路一段185-1號","121.460678333333","25.0037466666667","6500100","板橋區"
"220013","072-UY","2019/12/21 14:13:35","新北市板橋區長安街48巷1號","121.468081666667","25.00903","6500100","板橋區"
"220034","073-UY","2019/12/21 14:13:44","新北市板橋區中正路236巷75號","121.459021666667","25.0196116666667","6500100","板橋區"
"220105","075-UY","2019/12/21 14:13:32","新北市板橋區江寧路三段131巷2號","121.473703333333","25.033375","6500100","板橋區"
"220017","AAD-861","2019/12/21 14:13:44","新北市板橋區貴興路59號","121.457336666667","25.0031116666667","6500100","板橋區"
"247005","893-R6","2019/12/21 14:13:45","新北市蘆洲區九芎街71巷9弄14號","121.467136666667","25.0781083333333","6501400","蘆洲區"
"247021","341-TH","2019/12/21 14:13:35","新北市蘆洲區三民路182號","121.469681666667","25.0885","6501400","蘆洲區"
"247003","336-TH","2019/12/21 14:13:44","新北市蘆洲區長安街223號","121.459698333333","25.0824766666667","6501400","蘆洲區"
"247023","057-VK","2019/12/21 14:13:44","新北市蘆洲區長榮路396號","121.459548333333","25.0877316666667","6501400","蘆洲區"
"247013","056-VK","2019/12/21 14:13:35","新北市蘆洲區三民路143號","121.47182","25.0866033333333","6501400","蘆洲區"
"247017","053-VK","2019/12/21 14:13:39","新北市蘆洲區復興路178號","121.477848333333","25.0884983333333","6501400","蘆洲區"
"247007","002-UY","2019/12/21 14:13:32","新北市蘆洲區中山一路234號","121.472845","25.0803116666667","6501400","蘆洲區"
"247001","001-UY","2019/12/21 14:13:25","新北市蘆洲區長榮路309-1號","121.459466666667","25.0898483333333","6501400","蘆洲區"
"235013","251-BX","2019/12/21 14:13:42","新北市中和區景新街230號","121.508238333333","24.9941383333333","6500300","中和區"
"228005","097-TW","2019/12/21 14:13:39","新北市貢寮區美豐里土地公嶺5-2號","121.895438333333","25.059785","6502600","貢寮區"
"228004","212-TW","2019/12/21 14:13:23","新北市貢寮區雙玉里下雙溪街10-3號","121.915435","25.0136616666667","6502600","貢寮區"
"253003","6232-TK","2019/12/21 14:13:27","新北市石門區尖子鹿42號","121.580095","25.266905","6502200","石門區"
"253004","6251-TK","2019/12/21 14:13:36","新北市石門區坪林31號","121.590635","25.2635183333333","6502200","石門區"
"253002","637-UY","2019/12/21 14:13:38","新北市石門區七股33-1號","121.552715","25.2612583333333","6502200","石門區"
"253001","KEC-0718","2019/12/21 14:13:27","新北市石門區八甲20-2號","121.525231666667","25.2804816666667","6502200","石門區"
"207002","749-BX","2019/12/21 14:13:26","新北市萬里區溪底里瑞泉路7號","121.603453333333","25.1406583333333","6502800","萬里區"
"207001","662-BX","2019/12/21 14:13:31","新北市萬里區磺潭里清水18號","121.637876666667","25.1976833333333","6502800","萬里區"
"252005","AAC-283","2019/12/21 14:13:43","新北市三芝區圓山里二坪頂47號","121.536585","25.2456066666667","6502100","三芝區"
"236040","KED-0685","2019/12/21 14:13:36","新北市土城區裕生路84巷1號","121.447303333333","24.9852916666667","6501300","土城區"
"236029","253-BX","2019/12/21 14:13:25","新北市土城區中央路二段246號","121.441915","24.9747333333333","6501300","土城區"
"236024","269-VK","2019/12/21 14:11:18","新北市土城區城林路6巷80號","121.438601666667","24.9797466666667","6501300","土城區"
"236013","270-VK","2019/12/21 14:13:26","新北市土城區青雲路39巷7號","121.460288333333","24.987395","6501300","土城區"
"236032","271-VK","2019/12/21 14:13:40","新北市土城區青雲路453號","121.45884","24.9746216666667","6501300","土城區"
"247011","KED-0683","2019/12/21 14:13:29","新北市蘆洲區信義路298號","121.47759","25.08753","6501400","蘆洲區"
"236068","KEA-2877","2019/12/21 14:13:41","新北市土城區明德路一段128巷7號","121.463273333333","24.97902","6501300","土城區"
"236017","401-BY","2019/12/21 14:13:38","新北市土城區永豐路202巷14號","121.466196666667","24.9833633333333","6501300","土城區"
"236024","752-BX","2019/12/21 14:13:41","新北市土城區城林路6巷80號","121.438426666667","24.979585","6501300","土城區"
"236057","912-UM","2019/12/21 14:13:31","新北市土城區中央路四段159-1號","121.415291666667","24.9569","6501300","土城區"
"236045","913-UM","2019/12/21 14:13:30","新北市土城區明德路一段365-1號","121.453548333333","24.97904","6501300","土城區"
"236060","915-UM","2019/12/21 14:13:33","新北市土城區金城路三段202-3號","121.469655","24.9886616666667","6501300","土城區"
"236054","AAC-216","2019/12/21 14:13:23","新北市土城區中華路二段92號","121.438253333333","24.9747633333333","6501300","土城區"
"220027","145-BY","2019/12/21 14:13:41","新北市板橋區民權路202巷4弄1號","121.45965","25.014295","6500100","板橋區"
"220028","200-UY","2019/12/21 14:13:38","新北市板橋區大觀路二段5號","121.447111666667","25.0038783333333","6500100","板橋區"
"220030","610-BX","2019/12/21 14:13:33","新北市板橋區溪崑二街23號","121.42867","24.9913033333333","6500100","板橋區"
"220050","245-BX","2019/12/21 14:13:38","新北市板橋區縣民大道三段121巷6號","121.476923333333","25.02299","6500100","板橋區"
"220040","267-BY","2019/12/21 14:13:36","新北市板橋區萬板路408號","121.478963333333","25.0255266666667","6500100","板橋區"
"220004","276-BY","2019/12/21 14:13:32","新北市板橋區信義路74巷1弄15號","121.457605","24.99273","6500100","板橋區"
"220020","277-BY","2019/12/21 14:13:40","新北市板橋區金門街280巷6號","121.429218333333","24.9862466666667","6500100","板橋區"
"220019","283-VK","2019/12/21 14:13:40","新北市板橋區重慶路327巷7弄2號","121.464391666667","24.9985833333333","6500100","板橋區"
"220043","285-UM","2019/12/21 14:13:28","新北市板橋區光武街110巷12號","121.466386666667","25.0296","6500100","板橋區"
"220001","285-VK","2019/12/21 14:13:39","新北市板橋區永豐街265號","121.47812","25.0213166666667","6500100","板橋區"
"220107","286-VK","2019/12/21 14:13:26","新北市板橋區大觀路二段174巷186弄11號","121.443003333333","25.0034266666667","6500100","板橋區"
"220029","287-VK","2019/12/21 14:13:41","新北市板橋區南雅西路二段203號","121.451621666667","25.013425","6500100","板橋區"
"220039","288-VK","2019/12/21 14:13:39","新北市板橋區長江路一段106巷12弄14號","121.459726666667","25.0288633333333","6500100","板橋區"
"220009","293-UM","2019/12/21 14:13:30","新北市板橋區中山路二段191號","121.476181666667","25.0172116666667","6500100","板橋區"
"220041","295-UM","2019/12/21 14:13:37","新北市板橋區光武街2巷45-1號","121.468385","25.0260183333333","6500100","板橋區"
"220032","296-UM","2019/12/21 14:13:32","新北市板橋區溪崑二街22巷9號","121.42826","24.9915266666667","6500100","板橋區"
"220023","303-R5","2019/12/21 14:13:28","新北市板橋區中正路35號","121.456228333333","25.0130683333333","6500100","板橋區"
"220010","305-R5","2019/12/21 14:13:31","新北市板橋區三民路二段153巷36弄2號","121.48108","25.0141483333333","6500100","板橋區"
"220047","317-R6","2019/12/21 14:13:44","新北市板橋區四維路137巷1弄21號","121.46528","25.0244783333333","6500100","板橋區"
"220110","487-VK","2019/12/21 14:13:45","新北市板橋區國光路194號","121.461486666667","25.0183966666667","6500100","板橋區"
"220037","491-VK","2019/12/21 14:13:26","新北市板橋區雙十路二段239號","121.472778333333","25.0289916666667","6500100","板橋區"
"220104","560-BX","2019/12/21 14:13:33","新北市板橋區中正路411號","121.454038333333","25.0225733333333","6500100","板橋區"
"220052","561-BX","2019/12/21 14:13:45","新北市板橋區介壽街9號","121.467303333333","25.020415","6500100","板橋區"
"220109","609-BX","2019/12/21 14:13:42","新北市板橋區三民路二段204號","121.478836666667","25.0121983333333","6500100","板橋區"
"220022","630-UY","2019/12/21 14:13:29","新北市板橋區林園街85號","121.4536","25.0106683333333","6500100","板橋區"
"220005","686-BX","2019/12/21 14:13:29","新北市中和區華福街6號","121.465311666667","24.9967616666667","6500100","板橋區"
"220025","687-BX","2019/12/21 14:13:41","新北市板橋區龍興街2號","121.442781666667","24.99932","6500100","板橋區"
"220111","689-BX","2019/12/21 14:13:43","新北市板橋區雨農路21號","121.461311666667","25.024225","6500100","板橋區"
"220051","KEA-2699","2019/12/21 14:13:28","新北市板橋區松柏街3號","121.473771666667","25.02951","6500100","板橋區"
"220003","827-TW","2019/12/21 14:13:36","新北市板橋區新民街4巷9號","121.464666666667","25.01003","6500100","板橋區"
"220016","830-TW","2019/12/21 14:13:39","新北市板橋區三民路一段1巷49號","121.480808333333","25.0248183333333","6500100","板橋區"
"220014","831-TW","2019/12/21 14:13:27","新北市板橋區長安街224巷8號","121.474855","25.0120766666667","6500100","板橋區"
"220108","985-R7","2019/12/21 14:13:35","新北市板橋區中正路191號","121.456453333333","25.0169416666667","6500100","板橋區"
"220046","AAC-210","2019/12/21 14:13:33","新北市板橋區幸福路60巷67號","121.460106666667","25.021775","6500100","板橋區"
"220012","AAC-253","2019/12/21 14:13:34","新北市板橋區民權路45號","121.461935","25.0114566666667","6500100","板橋區"
"235025","KEA-2875","2019/12/21 14:13:32","新北市中和區民安街4號","121.480808333333","25.001155","6500300","中和區"
