"lineid","car","time","location","longitude","latitude","cityid","cityname"
"234078","298-R6","2019/12/21 14:29:44","新北市永和區永貞路70巷2號","121.52043","25.00536","6500400","永和區"
"234062","337-UY","2019/12/21 14:29:32","新北市永和區中正路485號","121.517023333333","25.0065033333333","6500400","永和區"
"234084","338-UY","2019/12/21 14:29:36","新北市永和區永和路二段233號","121.515598333333","25.0142366666667","6500400","永和區"
"234068","552-UM","2019/12/21 14:29:26","新北市永和區永亨路7號","121.519433333333","25.0057216666667","6500400","永和區"
"234028","746-BX","2019/12/21 14:29:29","新北市永和區民權路55號","121.519981666667","24.9968516666667","6500400","永和區"
"234052","KEA-2590","2019/12/21 14:29:26","新北市永和區環河東路一段82號","121.519651666667","25.0164166666667","6500400","永和區"
"234005","KED-0605","2019/12/21 14:29:39","新北市永和區永貞路131號","121.516725","25.00419","6500400","永和區"
"234060","AAD-866","2019/12/21 14:29:45","新北市永和區得和路29號","121.515648333333","25.0003066666667","6500400","永和區"
"234040","862-TW","2019/12/21 14:29:38","新北市永和區安樂路336號","121.514346666667","25.005915","6500400","永和區"
"234048","863-TW","2019/12/21 14:29:36","新北市永和區保安路134號","121.508641666667","25.015435","6500400","永和區"
"234025","9371-KE","2019/12/21 14:29:36","新北市中和區安平路222號","121.514043333333","25.0001466666667","6500400","永和區"
"248017","KED-0813","2019/12/21 14:29:32","新北市五股區外寮路13-1號","121.42485","25.08123","6501500","五股區"
"234072","AAC-211","2019/12/21 14:29:45","新北市永和區環河東路一段124號","121.520691666667","25.0154216666667","6500400","永和區"
"234001","AAC-295","2019/12/21 14:29:30","新北市永和區永和路一段168號","121.514461666667","25.0085983333333","6500400","永和區"
"244005","248-BX","2019/12/21 14:29:32","新北市林口區中山路1號","121.39701","25.07789","6501700","林口區"
"231030","002-UM","2019/12/21 14:29:41","新北市新店區安民街82號","121.516648333333","24.9670916666667","6500600","新店區"
"231027","0293-UT","2019/12/21 14:29:41","新北市新店區北新路一段96巷29號","121.543028333333","24.969125","6500600","新店區"
"231005","047-UY","2019/12/21 14:29:35","新北市新店區北新路三段210號","121.541183333333","24.984275","6500600","新店區"
"231029","106-UY","2019/12/21 14:29:39","新北市新店區安康路二段382號","121.500506666667","24.9570433333333","6500600","新店區"
"231018","107-UY","2019/12/21 14:29:43","新北市新店區中央二街66號","121.526513333333","24.9747083333333","6500600","新店區"
"231013","108-UY","2019/12/21 14:29:31","新北市新店區民權路108-4號","121.536021666667","24.9833566666667","6500600","新店區"
"231036","110-UY","2019/12/21 14:29:28","新北市新店區安祥路109巷90弄28號","121.477141666667","24.9592466666667","6500600","新店區"
"231017","KEA-2219","2019/12/21 14:29:37","新北市新店區北宜路三段140號","121.584983333333","24.950025","6500600","新店區"
"231033","256-BX","2019/12/21 14:29:39","新北市新店區溪洲路187-2號","121.529216666667","24.96454","6500600","新店區"
"231023","260-TV","2019/12/21 14:29:36","新北市新店區光明街185號","121.540025","24.9631416666667","6500600","新店區"
"231003","268-BY","2019/12/21 14:29:28","新北市新店區中興路一段268-3號","121.545333333333","24.9679033333333","6500600","新店區"
"231035","278-BY","2019/12/21 14:29:39","新北市新店區安光路10-1號","121.513805","24.96415","6500600","新店區"
"231006","355-BY","2019/12/21 14:29:38","新北市新店區北宜路二段581巷1號","121.566066666667","24.9539166666667","6500600","新店區"
"231038","3712-VJ","2019/12/21 14:29:26","新北市新店區溪洲路181號","121.529641666667","24.9651983333333","6500600","新店區"
"231020","515-UM","2019/12/21 14:29:39","新北市新店區新烏路三段69號","121.555331666667","24.9038516666667","6500600","新店區"
"231002","619-UM","2019/12/21 14:29:34","新北市新店區中央路13號","121.533371666667","24.97839","6500600","新店區"
"231034","641-BX","2019/12/21 14:29:32","新北市新店區車子路11號","121.503003333333","24.951945","6500600","新店區"
"231012","KED-0819","2019/12/21 14:29:42","新北市新店區寶興路65巷2號","121.550861666667","24.9717016666667","6500600","新店區"
"231028","897-TW","2019/12/21 14:29:42","新北市新店區吉安街2號","121.517313333333","24.9656316666667","6500600","新店區"
"231001","898-TW","2019/12/21 14:29:44","新北市新店區中正路75巷71號","121.543073333333","24.968835","6500600","新店區"
"231004","899-TW","2019/12/21 14:29:31","新北市新店區中正路263-3號","121.538395","24.9738183333333","6500600","新店區"
"231037","AKT-0513","2019/12/21 14:29:28","新北市新店區車子路1-1號","121.504711666667","24.958035","6500600","新店區"
"235030","003-UY","2019/12/21 14:29:40","新北市中和區中和路132號","121.503656666667","24.99927","6500300","中和區"
"235028","005-UY","2019/12/21 14:29:25","新北市中和區圓通路29號","121.501038333333","24.9978033333333","6500300","中和區"
"235027","006-UY","2019/12/21 14:29:45","新北市中和區連勝街78號","121.495653333333","24.9963816666667","6500300","中和區"
"235036","KEE-1103","2019/12/21 14:29:33","新北市中和區莊敬路33巷16號","121.500278333333","25.0053666666667","6500300","中和區"
"235020","096-UM","2019/12/21 14:29:41","新北市中和區員山路581巷2弄26號","121.477458333333","25.0099383333333","6500300","中和區"
"235003","097-UM","2019/12/21 14:29:41","新北市中和區景德街1號","121.519218333333","24.9912466666667","6500300","中和區"
"235029","098-UM","2019/12/21 14:29:37","新北市中和區莊敬路4號","121.499553333333","25.0043166666667","6500300","中和區"
"235040","150-BY","2019/12/21 14:29:30","新北市中和區安樂路83號","121.51268","24.9944633333333","6500300","中和區"
"235022","151-BY","2019/12/21 14:29:26","新北市中和區連城路469巷79弄2號","121.483516666667","24.99374","6500300","中和區"
"235019","183-VK","2019/12/21 14:29:45","新北市中和區德光路15巷21號","121.471428333333","25.0033783333333","6500300","中和區"
"235002","185-VK","2019/12/21 14:29:31","新北市中和區自立路117巷4弄7號","121.52278","24.9944783333333","6500300","中和區"
"235031","255-BX","2019/12/21 14:29:28","新北市中和區員山路148巷34號","121.482255","24.9971416666667","6500300","中和區"
"235008","293-VK","2019/12/21 14:29:41","新北市中和區捷運路100-1號","121.505991666667","24.9914433333333","6500300","中和區"
"235074","301-VK","2019/12/21 14:29:37","新北市中和區連城路469巷73號","121.483498333333","24.994165","6500300","中和區"
"235007","352-BY","2019/12/21 14:29:31","新北市中和區景平路426號","121.50743","24.99331","6500300","中和區"
"235006","KEA-2878","2019/12/21 14:29:36","新北市中和區中安街188號","121.511291666667","24.99941","6500300","中和區"
"247015","KEA-2869","2019/12/21 14:29:41","新北市蘆洲區中正路185巷78弄50號","121.465598333333","25.0853866666667","6501400","蘆洲區"
"247009","KED-0682","2019/12/21 14:29:25","新北市蘆洲區信義路154號","121.47941","25.0833916666667","6501400","蘆洲區"
"235014","4979-A6","2019/12/21 14:29:33","新北市中和區中正路571巷2弄11號","121.486078333333","24.9937533333333","6500300","中和區"
"235033","4980-A6","2019/12/21 14:29:32","新北市中和區中山路二段220號","121.499556666667","25.00281","6500300","中和區"
"235032","551-UM","2019/12/21 14:29:36","新北市中和區莊敬路14號","121.49992","25.0042633333333","6500300","中和區"
"235034","558-UM","2019/12/21 14:29:36","新北市中和區景平路521號","121.499181666667","24.99897","6500300","中和區"
"235009","565-BX","2019/12/21 14:29:42","新北市中和區景新街500號","121.51389","24.9870316666667","6500300","中和區"
"235024","KED-0823","2019/12/21 14:29:39","新北市中和區新生街30巷28號","121.482253333333","25.0037983333333","6500300","中和區"
"235018","640-BX","2019/12/21 14:29:23","新北市中和區莒光路260-1號","121.467418333333","24.9937083333333","6500300","中和區"
"235011","732-UM","2019/12/21 14:29:38","新北市中和區景平路259巷44號","121.50655","24.99284","6500300","中和區"
"235010","733-UM","2019/12/21 14:29:41","新北市中和區忠孝街37巷52號","121.511093333333","24.9849033333333","6500300","中和區"
"235073","800-TS","2019/12/21 14:29:38","新北市中和區立德街26巷18弄6號","121.490116666667","25.0073283333333","6500300","中和區"
"235021","801-TS","2019/12/21 14:29:26","新北市中和區員山路150-2號","121.481305","24.9973433333333","6500300","中和區"
"235005","802-TS","2019/12/21 14:29:26","新北市中和區宜安路157號","121.508903333333","24.99878","6500300","中和區"
"235016","805-TS","2019/12/21 14:29:39","新北市中和區華新街143巷67弄7號","121.506998333333","24.978935","6500300","中和區"
"235012","896-TW","2019/12/21 14:29:38","新北市中和區忠孝街66號","121.51192","24.98398","6500300","中和區"
"235017","900-TW","2019/12/21 14:29:30","新北市中和區民德路189巷7號","121.468915","24.9987816666667","6500300","中和區"
"235015","157-BY","2019/12/21 14:29:40","新北市中和區景平路239巷15號","121.509395","24.9923566666667","6500300","中和區"
"235001","AAC-213","2019/12/21 14:29:31","新北市中和區秀朗路三段50巷7-1號","121.525771666667","24.9954016666667","6500300","中和區"
"235023","AAC-215","2019/12/21 14:29:37","新北市中和區圓通路339號","121.491511666667","24.9905033333333","6500300","中和區"
"220002","015-TV","2019/12/21 14:29:32","新北市板橋區光明街15號","121.460426666667","25.002545","6500100","板橋區"
"220013","072-UY","2019/12/21 14:29:40","新北市板橋區實踐路93巷85號","121.467568333333","25.0056016666667","6500100","板橋區"
"220034","073-UY","2019/12/21 14:29:45","新北市板橋區中正路250巷23號","121.456648333333","25.0194716666667","6500100","板橋區"
"220105","075-UY","2019/12/21 14:29:32","新北市板橋區文化路二段319號","121.472301666667","25.0299683333333","6500100","板橋區"
"220017","AAD-861","2019/12/21 14:29:24","新北市板橋區貴興路106巷3號","121.455303333333","25.0025966666667","6500100","板橋區"
"247005","893-R6","2019/12/21 14:29:25","新北市蘆洲區中華街103號","121.461368333333","25.07975","6501400","蘆洲區"
"247019","546-UM","2019/12/21 14:29:34","新北市蘆洲區水湳街281號","121.469503333333","25.09295","6501400","蘆洲區"
"247021","341-TH","2019/12/21 14:29:35","新北市蘆洲區中正路491號","121.462035","25.0962616666667","6501400","蘆洲區"
"247003","336-TH","2019/12/21 14:29:24","新北市蘆洲區永康街118號","121.458045","25.0852666666667","6501400","蘆洲區"
"247023","057-VK","2019/12/21 14:29:25","新北市蘆洲區中正路263巷2號","121.46721","25.08758","6501400","蘆洲區"
"247013","056-VK","2019/12/21 14:29:35","新北市蘆洲區中山二路225號","121.47033","25.080165","6501400","蘆洲區"
"247017","053-VK","2019/12/21 14:29:39","新北市蘆洲區復興路227巷27號","121.47934","25.0911883333333","6501400","蘆洲區"
"247007","002-UY","2019/12/21 14:29:32","新北市蘆洲區民生街12號","121.475553333333","25.0790566666667","6501400","蘆洲區"
"247001","001-UY","2019/12/21 14:29:25","新北市蘆洲區永樂街38巷33弄18號","121.45736","25.0897383333333","6501400","蘆洲區"
"235013","251-BX","2019/12/21 14:29:42","新北市中和區安平路14號","121.509196666667","24.994125","6500300","中和區"
"228005","097-TW","2019/12/21 14:29:39","新北市貢寮區美豐里巫里岸9-1號","121.901966666667","25.0700916666667","6502600","貢寮區"
"228004","212-TW","2019/12/21 14:29:43","新北市貢寮區雙玉里田寮洋街33-1號","121.93386","25.014455","6502600","貢寮區"
"253003","6232-TK","2019/12/21 14:29:27","新北市石門區尖子鹿89號","121.577856666667","25.290145","6502200","石門區"
"253004","6251-TK","2019/12/21 14:29:36","新北市石門區內阿里磅31-2號","121.585695","25.2404333333333","6502200","石門區"
"253002","637-UY","2019/12/21 14:29:38","新北市石門區大溪墘2-4號","121.548593333333","25.28928","6502200","石門區"
"253001","KEC-0718","2019/12/21 14:29:27","新北市石門區崁子腳91號","121.530068333333","25.279145","6502200","石門區"
"207002","749-BX","2019/12/21 14:28:06","新北市萬里區溪底里福德坑路6-2號","121.624636666667","25.158705","6502800","萬里區"
"207001","662-BX","2019/12/21 14:29:31","新北市萬里區磺潭里清水9號","121.640165","25.1997216666667","6502800","萬里區"
"252005","AAC-283","2019/12/21 14:29:43","新北市三芝區橫山里橫山23-6號","121.540958333333","25.2627366666667","6502100","三芝區"
"236040","KED-0685","2019/12/21 14:29:36","新北市土城區學成路99巷11號","121.450041666667","24.9882783333333","6501300","土城區"
"236029","253-BX","2019/12/21 14:29:25","新北市土城區水源街30號","121.440916666667","24.97555","6501300","土城區"
"236024","269-VK","2019/12/21 14:11:18","新北市土城區城林路6巷80號","121.438601666667","24.9797466666667","6501300","土城區"
"236013","270-VK","2019/12/21 14:29:26","新北市土城區青雲路39巷7號","121.460295","24.9874166666667","6501300","土城區"
"236032","271-VK","2019/12/21 14:29:40","新北市土城區明德路一段303號","121.459838333333","24.9771966666667","6501300","土城區"
"247011","KED-0683","2019/12/21 14:29:29","新北市蘆洲區中興街132號","121.48218","25.0894083333333","6501400","蘆洲區"
"236068","KEA-2877","2019/12/21 14:29:41","新北市土城區永豐路342-1號","121.474406666667","24.9765466666667","6501300","土城區"
"236017","401-BY","2019/12/21 14:29:38","新北市土城區永豐路202巷14號","121.466253333333","24.98343","6501300","土城區"
"236024","752-BX","2019/12/21 14:29:41","新北市土城區承天路43巷6號","121.439253333333","24.9639816666667","6501300","土城區"
"236057","912-UM","2019/12/21 14:29:31","新北市土城區中央路四段133-1號","121.415971666667","24.9574033333333","6501300","土城區"
"236045","913-UM","2019/12/21 14:29:38","新北市土城區青雲路463號","121.45869","24.9743366666667","6501300","土城區"
"236060","915-UM","2019/12/21 14:29:33","新北市土城區延壽路109巷20號","121.46838","24.993325","6501300","土城區"
"236054","AAC-216","2019/12/21 14:29:44","新北市土城區福祥街101巷1號","121.440988333333","24.9817333333333","6501300","土城區"
"220027","145-BY","2019/12/21 14:29:32","新北市板橋區公館街27號","121.461125","25.015315","6500100","板橋區"
"220028","200-UY","2019/12/21 14:29:38","新北市板橋區大觀路二段3巷102號","121.450455","25.0030883333333","6500100","板橋區"
"220030","610-BX","2019/12/21 14:29:33","新北市板橋區溪城路123號","121.427823333333","24.98215","6500100","板橋區"
"220050","245-BX","2019/12/21 14:29:39","新北市板橋區萬板路36號","121.471878333333","25.0226083333333","6500100","板橋區"
"220040","267-BY","2019/12/21 14:29:37","新北市板橋區文聖街149巷25號","121.479521666667","25.0286233333333","6500100","板橋區"
"220004","276-BY","2019/12/21 14:29:32","新北市板橋區信義路68-1號","121.457358333333","24.9935966666667","6500100","板橋區"
"220020","277-BY","2019/12/21 14:29:39","新北市板橋區金門街208-1號","121.432335","24.99011","6500100","板橋區"
"220019","283-VK","2019/12/21 14:29:40","新北市板橋區忠孝路48巷2弄10號","121.460243333333","25.0010416666667","6500100","板橋區"
"220043","285-UM","2019/12/21 14:29:28","新北市板橋區銘傳街37號","121.468673333333","25.0310766666667","6500100","板橋區"
"220001","285-VK","2019/12/21 14:29:39","新北市板橋區富山街53巷1弄7號","121.477651666667","25.020685","6500100","板橋區"
"220107","286-VK","2019/12/21 14:29:25","新北市板橋區龍興街71巷29號","121.442586666667","25.0023483333333","6500100","板橋區"
"220029","287-VK","2019/12/21 14:29:41","新北市板橋區南雅西路一段19巷8號","121.45405","25.0038716666667","6500100","板橋區"
"220039","288-VK","2019/12/21 14:29:39","新北市板橋區長江路一段48巷19弄1號","121.459463333333","25.02801","6500100","板橋區"
"220009","293-UM","2019/12/21 14:29:27","新北市板橋區漢生東路117號","121.46721","25.014895","6500100","板橋區"
"220041","295-UM","2019/12/21 14:29:37","新北市板橋區四維路251號","121.463605","25.0277516666667","6500100","板橋區"
"220032","296-UM","2019/12/21 14:29:32","新北市板橋區篤行路三段玉平巷76弄2號","121.427935","24.98552","6500100","板橋區"
"220023","303-R5","2019/12/21 14:29:28","新北市板橋區南雅西路一段44號","121.453801666667","25.0047666666667","6500100","板橋區"
"220010","305-R5","2019/12/21 14:29:31","新北市板橋區三民路二段109巷24號","121.480528333333","25.0159716666667","6500100","板橋區"
"220047","317-R6","2019/12/21 14:29:37","新北市板橋區四維路204號","121.464173333333","25.0272716666667","6500100","板橋區"
"220110","487-VK","2019/12/21 14:29:25","新北市板橋區龍泉街137號","121.45774","25.0239183333333","6500100","板橋區"
"220037","491-VK","2019/12/21 14:29:32","新北市板橋區雙十路二段148號","121.473415","25.0292266666667","6500100","板橋區"
"220104","560-BX","2019/12/21 14:29:34","新北市板橋區中正路413巷2弄16號","121.453503333333","25.023205","6500100","板橋區"
"220052","561-BX","2019/12/21 14:29:42","新北市板橋區陽明街29巷11號","121.4649","25.0218833333333","6500100","板橋區"
"220109","609-BX","2019/12/21 14:29:42","新北市板橋區三民路一段31巷13號","121.479826666667","25.0232133333333","6500100","板橋區"
"220022","630-UY","2019/12/21 14:29:29","新北市板橋區北門街60號","121.456565","25.0114783333333","6500100","板橋區"
"220005","686-BX","2019/12/21 14:29:30","新北市板橋區廣和街60號","121.461993333333","24.993845","6500100","板橋區"
"220025","687-BX","2019/12/21 14:29:41","新北市板橋區大觀路一段51號","121.447843333333","25.0072666666667","6500100","板橋區"
"220111","689-BX","2019/12/21 14:29:38","新北市板橋區長江路一段123號","121.460171666667","25.029945","6500100","板橋區"
"220051","KEA-2699","2019/12/21 14:29:28","新北市板橋區雙十路二段70巷2號","121.475516666667","25.0282866666667","6500100","板橋區"
"220003","827-TW","2019/12/21 14:29:34","新北市板橋區重慶路278巷3-2號","121.462756666667","24.9996616666667","6500100","板橋區"
"220016","830-TW","2019/12/21 14:29:39","新北市板橋區中山路二段525號","121.483131666667","25.021265","6500100","板橋區"
"220014","831-TW","2019/12/21 14:29:27","新北市板橋區長安街138巷16號","121.472925","25.0091516666667","6500100","板橋區"
"220108","985-R7","2019/12/21 14:29:35","新北市板橋區英士路190巷2號","121.458078333333","25.0223766666667","6500100","板橋區"
"220046","AAC-210","2019/12/21 14:29:32","新北市板橋區文化路一段285巷1弄2號","121.464218333333","25.018695","6500100","板橋區"
"220012","AAC-253","2019/12/21 14:29:34","新北市板橋區中山路一段50-3號","121.460991666667","25.009255","6500100","板橋區"
"235025","KEA-2875","2019/12/21 14:29:29","新北市中和區新生街166巷18號","121.482581666667","25.0003583333333","6500300","中和區"
