"lineid","car","time","location","longitude","latitude","cityid","cityname"
"249002","305-UY","2019/12/21 15:43:38","新北市八里區挖子尾街10號","121.415478333333","25.1643966666667","6502300","八里區"
"231030","002-UM","2019/12/21 15:43:42","新北市新店區新和街116巷1號","121.521141666667","24.9863966666667","6500600","新店區"
"231005","047-UY","2019/12/21 15:43:35","新北市新店區北新路一段142號","121.542485","24.970545","6500600","新店區"
"231029","106-UY","2019/12/21 15:43:39","新北市新店區安康路二段391號","121.494478333333","24.95424","6500600","新店區"
"231018","107-UY","2019/12/21 15:43:43","新北市新店區中正路663巷1弄17號","121.532718333333","24.9897783333333","6500600","新店區"
"231013","108-UY","2019/12/21 15:43:33","新北市新店區永業路81巷9弄12號","121.531365","24.9508066666667","6500600","新店區"
"231036","110-UY","2019/12/21 15:43:28","新北市新店區安康路二段317號","121.499291666667","24.95667","6500600","新店區"
"231017","KEA-2219","2019/12/21 15:43:37","新北市新店區北宜路一段127巷4號","121.54149","24.9528916666667","6500600","新店區"
"231033","256-BX","2019/12/21 15:43:39","新北市新店區雙城路212號","121.497793333333","24.93983","6500600","新店區"
"231023","260-TV","2019/12/21 15:43:42","新北市新店區大新街9巷6號","121.543678333333","24.9677116666667","6500600","新店區"
"231003","268-BY","2019/12/21 15:43:26","新北市新店區寶興路60巷4號","121.549853333333","24.971885","6500600","新店區"
"231035","278-BY","2019/12/21 15:43:39","新北市新店區安民街365巷7弄2號","121.515863333333","24.975345","6500600","新店區"
"231038","3712-VJ","2019/12/21 15:43:46","新北市新店區安康路二段226號","121.50951","24.9592833333333","6500600","新店區"
"231020","515-UM","2019/12/21 15:43:39","新北市新店區新烏路一段247號","121.546988333333","24.930155","6500600","新店區"
"231034","641-BX","2019/12/21 15:43:31","新北市新店區玫瑰路60巷1號","121.495606666667","24.946235","6500600","新店區"
"231026","720-UM","2019/12/21 15:43:31","新北市新店區三民路155號","121.533851666667","24.97353","6500600","新店區"
"231028","897-TW","2019/12/21 15:43:42","新北市新店區安豐路30-1號","121.500718333333","24.95688","6500600","新店區"
"231037","AKT-0513","2019/12/21 15:43:27","新北市新店區安民街365巷1弄8號","121.516261666667","24.9751233333333","6500600","新店區"
"241011","013-R5","2019/12/21 15:43:36","新北市三重區文化北路244號","121.497491666667","25.069775","6500200","三重區"
"241028","022-UY","2019/12/21 15:43:31","新北市三重區重新路三段130號","121.491838333333","25.0598683333333","6500200","三重區"
"241015","062-VK","2019/12/21 15:43:27","新北市三重區重新路四段121號","121.485228333333","25.05231","6500200","三重區"
"241017","063-VK","2019/12/21 15:43:36","新北市三重區大仁街1號","121.4916","25.0635983333333","6500200","三重區"
"241024","065-VK","2019/12/21 15:43:24","新北市三重區重新路四段121號","121.48527","25.0522816666667","6500200","三重區"
"241007","066-VK","2019/12/21 15:43:29","新北市三重區重新路四段121號","121.484963333333","25.051965","6500200","三重區"
"241016","266-UM","2019/12/21 15:43:30","新北市三重區重新路四段121號","121.485285","25.0521166666667","6500200","三重區"
"241013","270-UM","2019/12/21 15:43:43","新北市三重區正義北路291號","121.494843333333","25.0706616666667","6500200","三重區"
"241020","478-VK","2019/12/21 15:43:31","新北市三重區忠孝路二段63號","121.484986666667","25.070505","6500200","三重區"
"241014","543-UM","2019/12/21 15:43:40","新北市三重區重新路四段121號","121.48514","25.05206","6500200","三重區"
"241023","545-UM","2019/12/21 15:43:39","新北市三重區忠孝路三段84巷16-1號","121.480758333333","25.0646983333333","6500200","三重區"
"241005","AAD-863","2019/12/21 15:43:27","新北市三重區重新路四段121號","121.48515","25.0519116666667","6500200","三重區"
"241012","743-BX","2019/12/21 15:43:14","新北市三重區自強路一段68號","121.497058333333","25.066525","6500200","三重區"
"241029","942-UM","2019/12/21 15:43:36","新北市三重區同安東街39號","121.49797","25.0572233333333","6500200","三重區"
"241033","AAC-255","2019/12/21 15:43:31","新北市三重區重新路五段493號","121.472528333333","25.046685","6500200","三重區"
"235019","183-VK","2019/12/21 15:43:25","新北市五股區五工一路101號","121.459053333333","25.0690133333333","6500300","中和區"
"235033","4980-A6","2019/12/21 15:43:32","新北市中和區民樂路47號","121.48346","25.0016216666667","6500300","中和區"
"235023","AAC-215","2019/12/21 15:43:37","新北市中和區員山路66-4號","121.481948333333","24.991765","6500300","中和區"
"224007","285-BY","2019/12/21 15:43:41","新北市瑞芳區大寮路356-1號","121.784851666667","25.1032483333333","6501200","瑞芳區"
"227002","642-TC","2019/12/21 15:43:24","新北市雙溪區牡丹里頂坪5-1號","121.862756666667","25.038605","6502500","雙溪區"
"227001","400-TW","2019/12/21 15:43:36","新北市雙溪區新基里自強路7號","121.86616","25.039155","6502500","雙溪區"
"236013","270-VK","2019/12/21 15:43:26","新北市土城區四川路31號","121.455105","24.9956166666667","6501300","土城區"
"236068","KEA-2877","2019/12/21 15:43:39","新北市土城區大安路14號","121.432638333333","24.966075","6501300","土城區"
"236017","401-BY","2019/12/21 15:43:38","新北市土城區和城路二段156號","121.472848333333","24.9882866666667","6501300","土城區"
"236024","752-BX","2019/12/21 15:42:01","新北市土城區裕生路83巷27號","121.448066666667","24.98394","6501300","土城區"
"236057","912-UM","2019/12/21 15:43:31","新北市土城區中央路一段324號","121.443235","24.9816433333333","6501300","土城區"
"236045","913-UM","2019/12/21 15:43:32","新北市土城區金城路三段215號","121.470711666667","24.989385","6501300","土城區"
"236054","AAC-216","2019/12/21 15:43:44","新北市土城區中華路一段301號","121.439751666667","24.9796716666667","6501300","土城區"
"220022","630-UY","2019/12/21 15:43:29","新北市八里區中山路三段386號","121.368506666667","25.1359183333333","6500100","板橋區"
