"lineid","car","time","location","longitude","latitude","cityid","cityname"
"234007","KED-0605","2019/12/21 18:13:42","新北市永和區仁愛路306巷20號","121.502156666667","25.0086116666667","6500400","永和區"
"234026","9371-KE","2019/12/21 18:13:47","新北市永和區自強街8巷5弄1號","121.51477","25.0076733333333","6500400","永和區"
"249005","172-UM","2019/12/21 18:13:29","新北市八里區荖阡坑路15-40號","121.401726666667","25.1398616666667","6502300","八里區"
"249001","173-UM","2019/12/21 18:13:24","新北市八里區龍米路一段245號","121.451018333333","25.13327","6502300","八里區"
"249004","303-UY","2019/12/21 18:13:26","新北市八里區龍米路二段200巷3號","121.433653333333","25.1587433333333","6502300","八里區"
"249002","305-UY","2019/12/21 18:13:37","新北市八里區龍形一街3號","121.450703333333","25.1306783333333","6502300","八里區"
"249003","593-UM","2019/12/21 18:13:30","新北市八里區文昌路101號","121.408635","25.158895","6502300","八里區"
"248014","025-BX","2019/12/21 18:13:44","新北市五股區自強路19巷5-1號","121.434541666667","25.0738883333333","6501500","五股區"
"248016","026-BX","2019/12/21 18:13:26","新北市五股區成泰路三段221巷16號","121.445753333333","25.0934333333333","6501500","五股區"
"248006","077-UY","2019/12/21 18:13:36","新北市五股區中興路一段158號","121.464366666667","25.0738966666667","6501500","五股區"
"248008","KED-0815","2019/12/21 18:13:26","新北市五股區更洲路32巷8弄14號","121.459238333333","25.0796233333333","6501500","五股區"
"248020","KED-0813","2019/12/21 18:13:31","新北市五股區成泰路四段2號","121.452831666667","25.1060633333333","6501500","五股區"
"248010","272-BY","2019/12/21 18:13:38","新北市五股區成泰路一段189巷32弄25號","121.433153333333","25.0767883333333","6501500","五股區"
"248004","677-BX","2019/12/21 18:13:36","新北市五股區中興路四段54號","121.438068333333","25.082995","6501500","五股區"
"232011","375-UM","2019/12/21 18:13:35","新北市坪林區下坑子口5-9號","121.713146666667","24.942745","6502000","坪林區"
"244007","080-UY","2019/12/21 18:13:42","新北市林口區竹林路548號","121.387561666667","25.0847166666667","6501700","林口區"
"244019","402-UM","2019/12/21 18:13:27","新北市林口區麗園路52巷10號","121.373698333333","25.069845","6501700","林口區"
"244013","KEA-2802","2019/12/21 18:13:43","新北市林口區佳林路101巷26號","121.386775","25.07989","6501700","林口區"
"244023","483-VK","2019/12/21 18:13:33","新北市林口區東湖路153巷123號","121.382323333333","25.0731716666667","6501700","林口區"
"244017","485-VK","2019/12/21 18:13:34","新北市林口區八德路56號","121.366226666667","25.0658283333333","6501700","林口區"
"244009","657-BX","2019/12/21 18:13:28","新北市林口區中山路256-1號","121.385483333333","25.0798633333333","6501700","林口區"
"244011","701-TV","2019/12/21 18:13:37","新北市林口區仁愛路一段288-1號","121.392878333333","25.0764","6501700","林口區"
"244025","837-TS","2019/12/21 18:13:26","新北市林口區南勢二街152-5號","121.3588","25.0731833333333","6501700","林口區"
"244021","838-TS","2019/12/21 18:13:42","新北市林口區自強八街1號","121.400603333333","25.0765216666667","6501700","林口區"
"208001","267-VK","2019/12/21 18:13:32","新北市金山區民生路151-2號","121.644785","25.2230883333333","6502700","金山區"
"222003","436-BY","2019/12/21 18:13:39","新北市深坑區文山路一段79號","121.626881666667","25.0019","6501800","深坑區"
"222002","659-BX","2019/12/21 18:13:27","新北市深坑區文化街18號","121.620135","25.0013533333333","6501800","深坑區"
"231058","0293-UT","2019/12/21 18:13:31","新北市新店區安一路一段1-1號","121.519653333333","24.9615133333333","6500600","新店區"
"231060","106-UY","2019/12/21 18:13:25","新北市新店區安華路28-1號","121.519561666667","24.9610283333333","6500600","新店區"
"231050","KEA-2219","2019/12/21 18:13:30","新北市新店區安一路一段1-1號","121.519835","24.9611366666667","6500600","新店區"
"231054","260-TV","2019/12/21 18:13:36","新北市新店區安一路一段1-1號","121.519281666667","24.9612783333333","6500600","新店區"
"231042","268-BY","2019/12/21 18:13:33","新北市新店區安一路一段1-1號","121.519613333333","24.9613816666667","6500600","新店區"
"231056","4715-K9","2019/12/21 18:13:34","新北市新店區安康路一段107-2號","121.5288","24.9616416666667","6500600","新店區"
"231052","515-UM","2019/12/21 18:13:31","新北市新店區安一路一段1-1號","121.519286666667","24.9611733333333","6500600","新店區"
"231063","616-UM","2019/12/21 18:13:30","新北市新店區安華路28-1號","121.519333333333","24.96056","6500600","新店區"
"231041","619-UM","2019/12/21 18:13:40","新北市新店區安華路28-1號","121.519473333333","24.9609933333333","6500600","新店區"
"231048","KED-0819","2019/12/21 18:13:44","新北市新店區安一路一段1-1號","121.51974","24.96126","6500600","新店區"
"231046","719-UM","2019/12/21 18:13:29","新北市新店區直潭七街60號","121.532268333333","24.9397683333333","6500600","新店區"
"231057","720-UM","2019/12/21 18:13:39","新北市新店區安一路一段1-1號","121.519248333333","24.96143","6500600","新店區"
"231040","898-TW","2019/12/21 18:13:33","新北市新店區安華路28-1號","121.519451666667","24.9608433333333","6500600","新店區"
"231043","899-TW","2019/12/21 18:13:36","新北市新店區安華路28-1號","121.519163333333","24.9609083333333","6500600","新店區"
"231066","AKT-0513","2019/12/21 18:13:40","新北市新店區安華路28-1號","121.519401666667","24.9605866666667","6500600","新店區"
"241033","AAC-255","2019/12/21 18:13:30","新北市三重區光復路一段54巷1號","121.47202","25.04855","6500200","三重區"
"235064","005-UY","2019/12/21 18:13:35","新北市中和區圓通路167巷6號","121.497986666667","24.9950716666667","6500300","中和區"
"235063","006-UY","2019/12/21 18:13:31","新北市中和區中正路585號","121.485978333333","24.994465","6500300","中和區"
"235072","KEE-1103","2019/12/21 18:13:28","新北市中和區連城路261-2號","121.492425","24.99661","6500300","中和區"
"235056","096-UM","2019/12/21 18:13:43","新北市中和區新生街7號","121.483215","25.0045233333333","6500300","中和區"
"235039","097-UM","2019/12/21 18:13:30","新北市中和區中正路190-1號","121.497728333333","24.9938066666667","6500300","中和區"
"235065","098-UM","2019/12/21 18:13:36","新北市中和區莊敬路49巷27號","121.50157","25.0061516666667","6500300","中和區"
"235040","150-BY","2019/12/21 18:12:34","新北市中和區景平路488號","121.504546666667","24.9937716666667","6500300","中和區"
"235058","151-BY","2019/12/21 18:13:40","新北市中和區圓通路403號","121.489426666667","24.9892316666667","6500300","中和區"
"235055","183-VK","2019/12/21 18:13:41","新北市中和區連城路518巷1號","121.476558333333","24.9918616666667","6500300","中和區"
"235038","185-VK","2019/12/21 18:13:42","新北市中和區大智街57號","121.52112","24.9920916666667","6500300","中和區"
"235043","352-BY","2019/12/21 18:13:33","新北市中和區景平路381號","121.503923333333","24.99348","6500300","中和區"
"235042","KEA-2878","2019/12/21 18:13:32","新北市中和區景平路159巷58號","121.512866666667","24.9911166666667","6500300","中和區"
"235050","4979-A6","2019/12/21 18:13:34","新北市中和區中正路161巷2號","121.498275","24.9937083333333","6500300","中和區"
"235069","4980-A6","2019/12/21 18:13:37","新北市中和區連城路224號","121.490941666667","24.99642","6500300","中和區"
"235070","558-UM","2019/12/21 18:13:35","新北市中和區景平路624號","121.500391666667","24.9974616666667","6500300","中和區"
"235045","565-BX","2019/12/21 18:13:37","新北市中和區復興路40號","121.50481","24.99005","6500300","中和區"
"235060","KED-0823","2019/12/21 18:13:42","新北市中和區員山路417號","121.480896666667","25.0032066666667","6500300","中和區"
"235054","640-BX","2019/12/21 18:13:32","新北市中和區民享街93號","121.474651666667","25.000595","6500300","中和區"
"235047","732-UM","2019/12/21 18:13:28","新北市中和區景平路183號","121.511685","24.9924233333333","6500300","中和區"
"235046","733-UM","2019/12/21 18:13:33","新北市中和區員山路36巷16-2號","121.485123333333","24.9915566666667","6500300","中和區"
"235062","800-TS","2019/12/21 18:13:41","新北市中和區景平路999巷1號","121.495405","25.0059666666667","6500300","中和區"
"235057","801-TS","2019/12/21 18:13:43","新北市中和區民享街97巷19號","121.475426666667","24.9995716666667","6500300","中和區"
"235041","802-TS","2019/12/21 18:13:39","新北市中和區中正路637巷60弄61號","121.485466666667","24.99252","6500300","中和區"
"235052","805-TS","2019/12/21 18:13:34","新北市中和區興南路二段55號","121.507045","24.9853633333333","6500300","中和區"
"235051","157-BY","2019/12/21 18:13:29","新北市中和區興南路二段172號","121.503593333333","24.982625","6500300","中和區"
"235037","AAC-213","2019/12/21 18:13:42","新北市中和區景平路151巷39號","121.514646666667","24.99063","6500300","中和區"
"207004","KEE-1107","2019/12/21 18:13:25","新北市萬里區中幅里中福路161號","121.673543333333","25.1661866666667","6502800","萬里區"
"226004","312-R5","2019/12/21 18:13:32","新北市平溪區薯榔里薯榔寮26-1號","121.714421666667","25.0196383333333","6502400","平溪區"
"235049","251-BX","2019/12/21 18:13:26","新北市中和區員山路36巷13號","121.48411","24.9909416666667","6500300","中和區"
"228003","097-TW","2019/12/21 18:13:42","新北市貢寮區真理里美艷山街28號","121.92557","25.065995","6502600","貢寮區"
"228001","212-TW","2019/12/21 18:13:40","新北市貢寮區真理里新港街26巷55弄2-1號","121.92741","25.05287","6502600","貢寮區"
"228002","663-BX","2019/12/21 18:13:23","新北市貢寮區福連里馬崗街1號","121.998345","25.015035","6502600","貢寮區"
"224006","676-BX","2019/12/21 18:13:39","新北市瑞芳區三爪子坑路106巷1-11號","121.80817","25.1049933333333","6501200","瑞芳區"
"224007","285-BY","2019/12/21 18:13:41","新北市瑞芳區頂埔巷1弄2號","121.766101666667","25.1024616666667","6501200","瑞芳區"
"224009","275-VK","2019/12/21 18:13:42","新北市瑞芳區新山路43號","121.85593","25.1083383333333","6501200","瑞芳區"
"224008","272-VK","2019/12/21 18:13:43","新北市瑞芳區員山子路3-3號","121.81932","25.104505","6501200","瑞芳區"
"224005","271-BY","2019/12/21 18:13:10","新北市瑞芳區建基路二段5號","121.809296666667","25.132435","6501200","瑞芳區"
"227002","642-TC","2019/12/21 18:13:25","新北市雙溪區雙溪里太平路13號","121.864226666667","25.0352033333333","6502500","雙溪區"
"227001","400-TW","2019/12/21 18:13:36","新北市雙溪區三貂里政光路4號","121.852136666667","25.0625733333333","6502500","雙溪區"
"253005","032-BX","2019/12/21 18:13:36","新北市石門區中央路37-2號","121.5686","25.29499","6502200","石門區"
"253006","295-VK","2019/12/21 18:13:43","新北市石門區老梅路52巷21號","121.546406666667","25.2885983333333","6502200","石門區"
"222001","KEA-2212","2019/12/21 18:13:35","新北市深坑區北深路二段115號","121.616908333333","25.003235","6501800","深坑區"
"208002","KEA-2872","2019/12/21 18:13:34","新北市金山區三界壇路1-8號","121.61881","25.2330266666667","6502700","金山區"
"208003","665-BX","2019/12/21 18:13:36","新北市金山區民生路78號","121.648701666667","25.2238733333333","6502700","金山區"
"251004","009-UM","2019/12/21 18:13:31","新北市淡水區民族路110巷4號","121.462256666667","25.13542","6501000","淡水區"
"251005","010-UM","2019/12/21 18:13:38","新北市淡水區水源街一段124號","121.447275","25.1716233333333","6501000","淡水區"
"251001","011-UM","2019/12/21 18:13:27","新北市淡水區自立路1巷29號","121.462188333333","25.129355","6501000","淡水區"
"251015","KEA-2871","2019/12/21 18:13:39","新北市淡水區興福寮88巷1號","121.485453333333","25.1649816666667","6501000","淡水區"
"251016","180-VK","2019/12/21 18:13:36","新北市淡水區淡金路三段70巷10號","121.448986666667","25.2000116666667","6501000","淡水區"
"251008","181-VK","2019/12/21 18:13:42","新北市淡水區淡金路8-1號","121.457163333333","25.1597","6501000","淡水區"
"251013","182-VK","2019/12/21 18:13:41","新北市淡水區破瓦厝子1-12號","121.475993333333","25.1987466666667","6501000","淡水區"
"251010","413-VK","2019/12/21 18:13:24","新北市淡水區中正路二段50巷10號","121.419883333333","25.18331","6501000","淡水區"
"251012","441-VK","2019/12/21 18:13:45","新北市淡水區北新路三段173號","121.492513333333","25.19229","6501000","淡水區"
"251006","561-UM","2019/12/21 18:13:40","新北市淡水區新民街80號","121.438578333333","25.176445","6501000","淡水區"
"251014","577-R6","2019/12/21 18:13:36","新北市淡水區北勢子8-3號","121.48472","25.2238566666667","6501000","淡水區"
"251011","650-BX","2019/12/21 18:13:26","新北市淡水區坪頂路762號","121.484508333333","25.15746","6501000","淡水區"
"251002","672-BX","2019/12/21 18:13:38","新北市淡水區中正東路一段105巷3號","121.453198333333","25.1606","6501000","淡水區"
"251003","766-UM","2019/12/21 18:13:37","新北市淡水區北新路182巷33號","121.448578333333","25.1774816666667","6501000","淡水區"
"252003","249-BX","2019/12/21 18:13:38","新北市三芝區古庄里四棧橋18-3號","121.48969","25.26114","6502100","三芝區"
"252001","292-VK","2019/12/21 18:13:39","新北市三芝區中興街二段2號","121.498361666667","25.2566533333333","6502100","三芝區"
"237004","KEA-2597","2019/12/21 18:13:26","新北市三峽區大埔路347號","121.370493333333","24.8972783333333","6500900","三峽區"
"237007","153-BY","2019/12/21 18:13:34","新北市三峽區中正路二段412巷8號","121.364748333333","24.9083966666667","6500900","三峽區"
"237009","210-TH","2019/12/21 18:13:29","新北市三峽區大仁路50巷4號","121.365431666667","24.9378283333333","6500900","三峽區"
"237013","252-BX","2019/12/21 18:13:40","新北市三峽區永安街5號","121.377838333333","24.930005","6500900","三峽區"
"237012","275-BY","2019/12/21 18:13:31","新北市三峽區民生街1巷5-17號","121.37876","24.9359633333333","6500900","三峽區"
"237008","302-VK","2019/12/21 18:13:41","新北市三峽區白雞64-2號","121.38544","24.9126983333333","6500900","三峽區"
"237014","433-BY","2019/12/21 18:13:27","新北市三峽區復興路110巷4弄9號","121.373326666667","24.9384366666667","6500900","三峽區"
"237006","5529-G3","2019/12/21 18:13:47","新北市三峽區溪東路182號","121.406776666667","24.9325733333333","6500900","三峽區"
"237011","KEA-2596","2019/12/21 18:13:28","新北市三峽區橫溪路1號","121.396018333333","24.936185","6500900","三峽區"
"237015","649-BX","2019/12/21 18:13:36","新北市三峽區紫新路32巷1號","121.422371666667","24.921885","6500900","三峽區"
"237010","706-TV","2019/12/21 18:13:36","新北市三峽區民族街158號","121.368983333333","24.9282233333333","6500900","三峽區"
"237005","AKY-6261","2019/12/21 18:13:30","新北市三峽區忠孝街9號","121.370828333333","24.9344866666667","6500900","三峽區"
"236042","KED-0685","2019/12/21 18:13:39","新北市土城區裕生路65-1號","121.447468333333","24.9854766666667","6501300","土城區"
"233002","762-BX","2019/12/21 18:13:31","新北市烏來區金堰49-1號","121.549568333333","24.88341","6502900","烏來區"
"236030","253-BX","2019/12/21 18:13:39","新北市土城區中央路二段93號","121.442185","24.97811","6501300","土城區"
"236026","269-VK","2019/12/21 18:13:26","新北市土城區承天路43巷4號","121.439023333333","24.9642233333333","6501300","土城區"
"236014","270-VK","2019/12/21 18:13:27","新北市土城區青雲路39巷7號","121.460303333333","24.98742","6501300","土城區"
"236038","271-VK","2019/12/21 18:13:42","新北市土城區青雲路453號","121.458785","24.9745583333333","6501300","土城區"
"236070","KEA-2877","2019/12/21 18:13:28","新北市土城區明德路一段321號","121.459168333333","24.97706","6501300","土城區"
"252002","KED-0821","2019/12/21 18:13:38","新北市三芝區中山路二段39號","121.502941666667","25.25515","6502100","三芝區"
"236021","401-BY","2019/12/21 18:13:33","新北市土城區明德路一段169號","121.46431","24.97925","6501300","土城區"
"236059","912-UM","2019/12/21 18:13:45","新北市土城區中央路四段358號","121.41321","24.954965","6501300","土城區"
"236049","913-UM","2019/12/21 18:13:37","新北市土城區明德路一段365-1號","121.453531666667","24.9790633333333","6501300","土城區"
"236063","915-UM","2019/12/21 18:13:32","新北市土城區青雲路145號","121.45851","24.9841866666667","6501300","土城區"
"236055","AAC-216","2019/12/21 18:13:23","新北市土城區中華路二段92號","121.438246666667","24.974775","6501300","土城區"
"242061","986-R7","2019/12/21 18:13:34","新北市新莊區新樹路267號","121.434281666667","25.0209366666667","6500500","新莊區"
"242004","751-BX","2019/12/21 18:13:35","新北市新莊區自由街22號","121.455731666667","25.0470433333333","6500500","新莊區"
"242029","615-BX","2019/12/21 18:13:37","新北市新莊區幸福路914號","121.442158333333","25.0490466666667","6500500","新莊區"
"242027","613-BX","2019/12/21 18:13:31","新北市新莊區幸福路509號","121.45578","25.0493416666667","6500500","新莊區"
"242058","612-BX","2019/12/21 18:13:43","新北市新莊區新北大道七段490號","121.412993333333","25.02987","6500500","新莊區"
"242048","566-BX","2019/12/21 18:13:42","新北市新莊區萬安街26號","121.421415","25.024495","6500500","新莊區"
"242053","497-BY","2019/12/21 18:13:34","新北市新莊區西盛街417巷23號","121.428256666667","25.01178","6500500","新莊區"
"242044","442-UM","2019/12/21 18:13:45","新北市新莊區中正路力行巷34號","121.41635","25.0266516666667","6500500","新莊區"
"242002","441-UM","2019/12/21 18:13:36","新北市新莊區新莊路90號","121.456706666667","25.0362633333333","6500500","新莊區"
"242007","440-UM","2019/12/21 18:13:33","新北市新莊區中華路二段40號","121.454088333333","25.0455766666667","6500500","新莊區"
"242013","413-TV","2019/12/21 18:13:41","新北市新莊區瓊林路108號","121.442253333333","25.026415","6500500","新莊區"
"242051","400-BY","2019/12/21 18:13:33","新北市新莊區民本街25巷17號","121.429148333333","25.019525","6500500","新莊區"
"242025","362-BY","2019/12/21 18:13:36","新北市新莊區五權一路112號","121.459871666667","25.0680083333333","6500500","新莊區"
"242015","132-UY","2019/12/21 18:13:30","新北市新莊區中平路152巷46號","121.446685","25.0473933333333","6500500","新莊區"
"242039","135-UY","2019/12/21 18:13:40","新北市新莊區民安東路185號","121.433071666667","25.0206433333333","6500500","新莊區"
"242017","173-VK","2019/12/21 18:13:24","新北市新莊區中港路303號","121.452763333333","25.0445933333333","6500500","新莊區"
"242031","175-VK","2019/12/21 18:13:30","新北市新莊區新泰路253號","121.44612","25.0398866666667","6500500","新莊區"
"242056","176-VK","2019/12/21 18:13:30","新北市新莊區豐年街豐1巷7號","121.446948333333","25.0311683333333","6500500","新莊區"
"242021","KED-0687","2019/12/21 18:13:33","新北市新莊區新興街106號","121.450668333333","25.0390083333333","6500500","新莊區"
"242042","347-TH","2019/12/21 18:13:37","新北市新莊區天祥街92巷51號","121.415028333333","25.030385","6500500","新莊區"
"242036","348-TH","2019/12/21 18:13:30","新北市新莊區後港一路33號","121.425221666667","25.026235","6500500","新莊區"
"242009","349-TH","2019/12/21 18:13:30","新北市新莊區昌平街41巷2號","121.45453","25.0526583333333","6500500","新莊區"
"242034","350-TH","2019/12/21 18:13:40","新北市新莊區景德路223號","121.44902","25.03375","6500500","新莊區"
"242019","351-TH","2019/12/21 18:13:38","新北市新莊區公園路129-1號","121.45705","25.04086","6500500","新莊區"
"238015","755-BX","2019/12/21 18:13:34","新北市樹林區大安路323巷10弄13號","121.417198333333","24.9908383333333","6500700","樹林區"
"238023","601-UM","2019/12/21 18:13:26","新北市樹林區三福街47巷20號","121.407626666667","25.0152916666667","6500700","樹林區"
"238019","599-UM","2019/12/21 18:13:37","新北市樹林區水源街11號","121.424986666667","24.9835133333333","6500700","樹林區"
"238018","KEA-2217","2019/12/21 18:13:39","新北市樹林區博愛街119號","121.426308333333","24.9906583333333","6500700","樹林區"
"238022","KEA-2213","2019/12/21 18:13:28","新北市樹林區太平路150巷1號","121.418413333333","24.9779516666667","6500700","樹林區"
"238021","KEA-2539","2019/12/21 18:13:30","新北市樹林區柑園街二段22號","121.387553333333","24.9555883333333","6500700","樹林區"
"238025","303-VK","2019/12/21 18:13:33","新北市樹林區保安街二段65號","121.416026666667","25.0004966666667","6500700","樹林區"
"238017","283-BY","2019/12/21 18:13:24","新北市樹林區保安街二段339-23號","121.41254","25.00908","6500700","樹林區"
"238014","282-BY","2019/12/21 18:13:32","新北市樹林區潭興街103號","121.424768333333","24.998555","6500700","樹林區"
"238020","268-VK","2019/12/21 18:13:34","新北市樹林區三龍街41號","121.414255","25.0187216666667","6500700","樹林區"
"238026","172-UY","2019/12/21 18:13:34","新北市樹林區育德街12號","121.390848333333","24.9701783333333","6500700","樹林區"
"238016","169-UY","2019/12/21 18:13:41","新北市樹林區文化街33號","121.418711666667","24.9880133333333","6500700","樹林區"
"239007","AAC-297","2019/12/21 18:13:36","新北市鶯歌區尖山埔路64號","121.348501666667","24.9510383333333","6500800","鶯歌區"
"239006","891-R6","2019/12/21 18:13:42","新北市鶯歌區鶯桃路365巷74號","121.33137","24.9623266666667","6500800","鶯歌區"
"239008","527-UM","2019/12/21 18:13:37","新北市鶯歌區朝陽街1號","121.33643","24.9767566666667","6500800","鶯歌區"
"239005","526-UM","2019/12/21 18:13:46","新北市鶯歌區鶯桃路668巷74-1號","121.330111666667","24.9719183333333","6500800","鶯歌區"
"239001","417-VK","2019/12/21 18:13:38","新北市鶯歌區中正三路236號","121.330916666667","24.9372","6500800","鶯歌區"
"239003","360-BY","2019/12/21 18:13:24","新北市鶯歌區福安街58號","121.33561","24.9651883333333","6500800","鶯歌區"
"239002","359-BY","2019/12/21 18:13:33","新北市鶯歌區中山路329巷16弄2號","121.344008333333","24.9565383333333","6500800","鶯歌區"
"239004","193-VK","2019/12/21 18:13:36","新北市鶯歌區尖山路88號","121.34867","24.9494683333333","6500800","鶯歌區"
"221036","130-UY","2019/12/21 18:13:40","新北市汐止區大同路三段116號","121.672063333333","25.07677","6501100","汐止區"
"221015","131-UY","2019/12/21 18:13:36","新北市汐止區長江街341號","121.667078333333","25.0819533333333","6501100","汐止區"
"221010","269-BY","2019/12/21 18:13:39","新北市汐止區汐萬路二段267號","121.646148333333","25.08884","6501100","汐止區"
"221012","278-VK","2019/12/21 18:13:40","新北市汐止區保一街107號","121.674848333333","25.080365","6501100","汐止區"
"221023","279-VK","2019/12/21 18:13:36","新北市汐止區民族五街74-1號","121.627805","25.07021","6501100","汐止區"
"221032","280-BY","2019/12/21 18:13:39","新北市汐止區橫科路73巷1號","121.619383333333","25.0506216666667","6501100","汐止區"
"221027","281-BY","2019/12/21 18:13:35","新北市汐止區和平街6巷1弄2號","121.663423333333","25.07118","6501100","汐止區"
"221029","298-VK","2019/12/21 18:13:37","新北市汐止區樟樹二路320號","121.6414","25.07","6501100","汐止區"
"221021","299-VK","2019/12/21 18:13:35","新北市汐止區龍安路16號","121.655805","25.0643183333333","6501100","汐止區"
"207003","KEE-1020","2019/12/21 18:13:37","新北市萬里區野柳里港東路153號","121.689453333333","25.2050866666667","6502800","萬里區"
"221031","567-BX","2019/12/21 18:13:40","新北市汐止區中興路181巷16弄12號","121.629573333333","25.0667216666667","6501100","汐止區"
"221035","622-UM","2019/12/21 18:13:25","新北市汐止區新江北路19號","121.652916666667","25.0704483333333","6501100","汐止區"
"221025","623-UM","2019/12/21 18:13:35","新北市汐止區勤進路3巷27號","121.661046666667","25.0618083333333","6501100","汐止區"
"221038","646-BX","2019/12/21 18:13:40","新北市汐止區仁愛路97-1號","121.661778333333","25.0630483333333","6501100","汐止區"
"221033","647-BX","2019/12/21 18:13:25","新北市汐止區宜興街40巷22弄2號","121.622555","25.0410866666667","6501100","汐止區"
"221002","707-TV","2019/12/21 18:13:29","新北市汐止區福德一路188號","121.635356666667","25.0657783333333","6501100","汐止區"
"221018","753-BX","2019/12/21 18:13:36","新北市汐止區忠孝東路351號","121.665551666667","25.0704383333333","6501100","汐止區"
"224002","257-TC","2019/12/21 18:13:29","新北市瑞芳區三爪子坑路149巷8號","121.810993333333","25.10642","6501200","瑞芳區"
"242046","281-VK","2019/12/21 18:13:43","新北市新莊區福營路311號","121.426548333333","25.0289816666667","6500500","新莊區"
"242011","280-VK","2019/12/21 18:13:43","新北市新莊區中信街82號","121.447903333333","25.0531816666667","6500500","新莊區"
"235061","KEA-2875","2019/12/21 18:13:19","新北市中和區國光街116號","121.469831666667","25.00081","6500300","中和區"
