"lineid","car","time","location","longitude","latitude","cityid","cityname"
"234046","148-BY","2019/12/21 19:13:29","新北市永和區秀朗路二段150號","121.525446666667","25.00149","6500400","永和區"
"234081","298-R6","2019/12/21 19:13:39","新北市永和區永貞路39巷9弄1號","121.521955","25.006575","6500400","永和區"
"234038","336-UY","2019/12/21 19:13:26","新北市永和區環河東路四段86號","121.528271666667","24.9977133333333","6500400","永和區"
"234064","337-UY","2019/12/21 19:13:39","新北市永和區永元路71號","121.522201666667","25.001055","6500400","永和區"
"234086","338-UY","2019/12/21 19:13:46","新北市永和區永利路6號","121.517483333333","25.005825","6500400","永和區"
"234070","552-UM","2019/12/21 19:13:29","新北市永和區豫溪街137號","121.519763333333","25.0104316666667","6500400","永和區"
"234017","745-BX","2019/12/21 19:13:43","新北市永和區文化路90巷36號","121.513433333333","25.0164116666667","6500400","永和區"
"234030","746-BX","2019/12/21 19:13:31","新北市永和區厚德街79號","121.524531666667","24.998725","6500400","永和區"
"234054","KEA-2590","2019/12/21 19:13:32","新北市永和區中興街107號","121.51816","25.0121033333333","6500400","永和區"
"234007","KED-0605","2019/12/21 19:13:42","新北市中和區中山路二段60號","121.504038333333","25.00468","6500400","永和區"
"234013","KEA-2591","2019/12/21 19:13:43","新北市永和區保福路二段20號","121.510963333333","25.011495","6500400","永和區"
"234061","AAD-866","2019/12/21 19:13:44","新北市永和區秀朗路一段147號","121.51627","25.0046383333333","6500400","永和區"
"234042","862-TW","2019/12/21 19:13:34","新北市永和區保平路203巷23號","121.509098333333","25.0047683333333","6500400","永和區"
"234050","863-TW","2019/12/21 19:13:38","新北市永和區仁愛路104巷7弄62號","121.510923333333","25.0141166666667","6500400","永和區"
"234026","9371-KE","2019/12/21 19:13:46","新北市永和區安樂路198號","121.515191666667","25.00162","6500400","永和區"
"234011","9373-KE","2019/12/21 19:13:34","新北市永和區保福路二段9巷15弄5號","121.510408333333","25.0108633333333","6500400","永和區"
"249001","173-UM","2019/12/21 19:13:46","新北市八里區龍米路三段58號","121.424501666667","25.1591116666667","6502300","八里區"
"249003","593-UM","2019/12/21 19:13:43","新北市八里區博物館路555號","121.404093333333","25.155305","6502300","八里區"
"248008","KED-0815","2019/12/21 19:13:26","新北市五股區中興路二段63巷17號","121.460286666667","25.07532","6501500","五股區"
"248020","KED-0813","2019/12/21 19:13:31","新北市五股區凌雲路三段57號","121.425278333333","25.12497","6501500","五股區"
"248010","272-BY","2019/12/21 19:13:38","新北市五股區自強路90巷72號","121.430703333333","25.0713033333333","6501500","五股區"
"248004","677-BX","2019/12/21 19:13:37","新北市五股區五福路25號","121.433918333333","25.0891233333333","6501500","五股區"
"248002","678-BX","2019/12/21 19:12:51","新北市五股區凌雲路一段158巷6號","121.447795","25.1029683333333","6501500","五股區"
"234023","9380-KE","2019/12/21 19:13:39","新北市永和區竹林路124巷41號","121.518213333333","25.0111883333333","6500400","永和區"
"234077","969-R7","2019/12/21 19:13:32","新北市永和區民權路20號","121.52017","24.9994133333333","6500400","永和區"
"234074","AAC-211","2019/12/21 19:13:43","新北市永和區竹林路155號","121.520408333333","25.010295","6500400","永和區"
"234067","AAC-212","2019/12/21 19:13:39","新北市永和區保平路18巷5號","121.512201666667","25.007805","6500400","永和區"
"234003","AAC-295","2019/12/21 19:13:43","新北市永和區保福路一段47巷18號","121.51191","25.00912","6500400","永和區"
"244019","402-UM","2019/12/21 19:13:31","新北市林口區文化二路一段579號","121.376065","25.0784883333333","6501700","林口區"
"244023","483-VK","2019/12/21 19:13:33","新北市林口區文林六街62巷16號","121.372013333333","25.081645","6501700","林口區"
"244025","837-TS","2019/12/21 19:13:26","新北市林口區民族路151號","121.366556666667","25.07603","6501700","林口區"
"208001","267-VK","2019/12/21 19:13:33","新北市金山區慈護街11號","121.639848333333","25.2203416666667","6502700","金山區"
"243012","AAD-798","2019/12/21 19:13:35","新北市泰山區辭修路36巷8弄5號","121.427903333333","25.0585566666667","6501600","泰山區"
"243010","297-R6","2019/12/21 19:13:32","新北市泰山區明志路一段458巷9號","121.430076666667","25.0557633333333","6501600","泰山區"
"243014","KEA-2801","2019/12/21 19:13:35","新北市泰山區泰林路二段308號","121.43069","25.0628616666667","6501600","泰山區"
"243016","421-VK","2019/12/21 19:13:41","新北市泰山區明志路三段45號","121.424966666667","25.0423216666667","6501600","泰山區"
"243011","KEA-2216","2019/12/21 19:13:43","新北市泰山區明志路二段358號","121.425473333333","25.045235","6501600","泰山區"
"243013","646-TV","2019/12/21 19:13:42","新北市泰山區台麗街13巷1號","121.424493333333","25.0383083333333","6501600","泰山區"
"243015","680-BX","2019/12/21 19:13:41","新北市泰山區明志路一段509號","121.43056","25.0543983333333","6501600","泰山區"
"222003","436-BY","2019/12/21 19:13:39","新北市深坑區深南路204號","121.626625","25.0160283333333","6501800","深坑區"
"222002","659-BX","2019/12/21 19:13:27","新北市深坑區紅葉街47號","121.632866666667","25.01326","6501800","深坑區"
"231061","002-UM","2019/12/21 19:13:42","新北市新店區安康路一段113號","121.52855","24.961715","6500600","新店區"
"231058","0293-UT","2019/12/21 19:13:31","新北市新店區光明街99號","121.53906","24.9611116666667","6500600","新店區"
"231044","047-UY","2019/12/21 19:13:41","新北市新店區中興路三段238號","121.54316","24.9834533333333","6500600","新店區"
"231060","106-UY","2019/12/21 19:13:37","新北市新店區安康路二段214號","121.509883333333","24.959405","6500600","新店區"
"231051","107-UY","2019/12/21 19:13:23","新北市新店區中正路382巷22號","121.535371666667","24.9777666666667","6500600","新店區"
"231049","108-UY","2019/12/21 19:13:29","新北市新店區北新路三段66號","121.542016666667","24.980385","6500600","新店區"
"231065","110-UY","2019/12/21 19:13:34","新北市新店區安祥路110巷19號","121.473858333333","24.955985","6500600","新店區"
"231050","KEA-2219","2019/12/21 19:13:30","新北市新店區竹林路26巷48號","121.55183","24.9504133333333","6500600","新店區"
"231062","256-BX","2019/12/21 19:13:40","新北市新店區安平路35巷2-1號","121.52097","24.9682933333333","6500600","新店區"
"231054","260-TV","2019/12/21 19:13:39","新北市新店區新店後街113-1號","121.5378","24.95606","6500600","新店區"
"231042","268-BY","2019/12/21 19:13:33","新北市新店區中興路一段115號","121.54143","24.9627283333333","6500600","新店區"
"231064","278-BY","2019/12/21 19:13:46","新北市新店區安忠路57巷2號","121.51343","24.9592583333333","6500600","新店區"
"231045","355-BY","2019/12/21 19:13:28","新北市新店區北宜路一段144-2號","121.54017","24.9541016666667","6500600","新店區"
"231056","4715-K9","2019/12/21 19:13:14","新北市新店區柴埕路52巷12號","121.51211","24.9645033333333","6500600","新店區"
"231067","4772-VM","2019/12/21 19:13:45","新北市新店區安康路一段195巷3號","121.52638","24.962635","6500600","新店區"
"231052","515-UM","2019/12/21 19:13:31","新北市新店區自強路106巷5號","121.545596666667","24.9230916666667","6500600","新店區"
"231063","616-UM","2019/12/21 19:13:30","新北市新店區達觀路8巷5號","121.504356666667","24.944375","6500600","新店區"
"231041","619-UM","2019/12/21 19:13:42","新北市新店區溪園路253號","121.523376666667","24.981215","6500600","新店區"
"231048","KED-0819","2019/12/21 19:13:45","新北市新店區德正街27巷29弄143號","121.545631666667","24.973595","6500600","新店區"
"231046","719-UM","2019/12/21 19:13:29","新北市新店區華城路12-1號","121.529173333333","24.957825","6500600","新店區"
"231057","720-UM","2019/12/21 19:13:39","新北市新店區百齡一路12號","121.553043333333","24.932495","6500600","新店區"
"231059","897-TW","2019/12/21 19:13:26","新北市新店區安和路二段68號","121.51847","24.96852","6500600","新店區"
"231040","898-TW","2019/12/21 19:13:33","新北市新店區三民路98-4號","121.534033333333","24.9733833333333","6500600","新店區"
"231043","899-TW","2019/12/21 19:13:36","新北市新店區寶橋路45號","121.544786666667","24.9744933333333","6500600","新店區"
"231066","AKT-0513","2019/12/21 19:13:40","新北市新店區安祥路35-2號","121.49076","24.956785","6500600","新店區"
"241031","061-VK","2019/12/21 19:13:38","新北市三重區重新路四段85巷12號","121.485558333333","25.0555666666667","6500200","三重區"
"241017","063-VK","2019/12/21 19:13:36","新北市三重區大仁街78-1號","121.492521666667","25.0653683333333","6500200","三重區"
"241035","KEA-2210","2019/12/21 19:13:36","新北市三重區信義西街138號","121.495476666667","25.0642316666667","6500200","三重區"
"241020","478-VK","2019/12/21 19:13:31","新北市三重區後竹圍街140號","121.487986666667","25.0725716666667","6500200","三重區"
"241026","480-VK","2019/12/21 19:13:23","新北市三重區中正南路262號","121.49327","25.0526716666667","6500200","三重區"
"241022","KED-0820","2019/12/21 19:13:34","新北市三重區中正北路111-1號","121.485506666667","25.06533","6500200","三重區"
"241029","942-UM","2019/12/21 19:13:42","新北市三重區集美街257號","121.492416666667","25.0557133333333","6500200","三重區"
"235066","003-UY","2019/12/21 19:13:40","新北市中和區廣福路60號","121.503695","25.00176","6500300","中和區"
"235064","005-UY","2019/12/21 19:13:35","新北市中和區中和路131號","121.501743333333","24.9999533333333","6500300","中和區"
"235063","006-UY","2019/12/21 19:13:30","新北市中和區連城路249巷28弄1號","121.494791666667","24.9949266666667","6500300","中和區"
"235072","KEE-1103","2019/12/21 19:13:27","新北市中和區連城路207號","121.494556666667","24.997975","6500300","中和區"
"235056","096-UM","2019/12/21 19:13:43","新北市中和區員山路565號","121.47946","25.0077516666667","6500300","中和區"
"235039","097-UM","2019/12/21 19:13:33","新北市中和區秀峰街81巷1號","121.52163","24.9902183333333","6500300","中和區"
"235065","098-UM","2019/12/21 19:13:36","新北市中和區中山路二段64巷7弄27號","121.502496666667","25.0044733333333","6500300","中和區"
"235040","150-BY","2019/12/21 19:13:34","新北市中和區宜安路67號","121.51122","24.997185","6500300","中和區"
"235058","151-BY","2019/12/21 19:13:40","新北市中和區連城路523巷13弄14號","121.482003333333","24.9937866666667","6500300","中和區"
"235055","183-VK","2019/12/21 19:13:42","新北市中和區莒光路97-2號","121.472345","25.0029416666667","6500300","中和區"
"235038","185-VK","2019/12/21 19:13:42","新北市中和區大仁街10巷34號","121.518946666667","24.9924966666667","6500300","中和區"
"235067","255-BX","2019/12/21 19:13:31","新北市中和區民樂路36號","121.482993333333","25.001215","6500300","中和區"
"235044","293-VK","2019/12/21 19:13:31","新北市中和區中興街266巷2號","121.498521666667","24.9874916666667","6500300","中和區"
"235071","301-VK","2019/12/21 19:13:28","新北市中和區連城路479號","121.483056666667","24.9956883333333","6500300","中和區"
"235043","352-BY","2019/12/21 19:13:33","新北市中和區景平路408-2號","121.508481666667","24.9932333333333","6500300","中和區"
"235042","KEA-2878","2019/12/21 19:13:32","新北市中和區大勇街60巷17號","121.518645","24.9947533333333","6500300","中和區"
"235050","4979-A6","2019/12/21 19:13:34","新北市中和區復興路280巷18弄20號","121.50183","24.9922933333333","6500300","中和區"
"235069","4980-A6","2019/12/21 19:13:37","新北市中和區中山路二段183號","121.50056","25.002565","6500300","中和區"
"235070","558-UM","2019/12/21 19:13:34","新北市中和區中和路44號","121.500408333333","25.00108","6500300","中和區"
"235045","565-BX","2019/12/21 19:13:36","新北市中和區景新街423巷33弄1號","121.513803333333","24.9898366666667","6500300","中和區"
"235060","KED-0823","2019/12/21 19:13:42","新北市中和區員山路266巷37號","121.482825","25.001775","6500300","中和區"
"235054","640-BX","2019/12/21 19:13:32","新北市中和區國光街112巷24弄2號","121.470628333333","25.0023933333333","6500300","中和區"
"235047","732-UM","2019/12/21 19:13:31","新北市中和區和平街38巷8號","121.509348333333","24.9907616666667","6500300","中和區"
"235046","733-UM","2019/12/21 19:13:33","新北市中和區華新街98號","121.508581666667","24.9828283333333","6500300","中和區"
"235062","800-TS","2019/12/21 19:13:41","新北市中和區中山路二段550號","121.484126666667","25.0053333333333","6500300","中和區"
"235057","801-TS","2019/12/21 19:13:42","新北市中和區員山路423巷15號","121.480436666667","25.0028216666667","6500300","中和區"
"235041","802-TS","2019/12/21 19:13:39","新北市中和區中和路294號","121.508691666667","24.999715","6500300","中和區"
"235052","805-TS","2019/12/21 19:13:34","新北市中和區興南路二段142巷17弄32號","121.502761666667","24.98273","6500300","中和區"
"235048","896-TW","2019/12/21 19:13:29","新北市中和區忠孝街39-11號","121.51199","24.9842316666667","6500300","中和區"
"235053","900-TW","2019/12/21 19:13:29","新北市中和區華安街30巷2號","121.466991666667","24.9977716666667","6500300","中和區"
"235051","157-BY","2019/12/21 19:13:29","新北市中和區和平街7-2號","121.509256666667","24.9903316666667","6500300","中和區"
"235037","AAC-213","2019/12/21 19:13:42","新北市中和區秀朗路三段10巷14弄63號","121.522973333333","24.9966016666667","6500300","中和區"
"235059","AAC-215","2019/12/21 19:13:40","新北市中和區圓通路433巷1號","121.488178333333","24.9886566666667","6500300","中和區"
"207004","KEE-1107","2019/12/21 19:13:25","新北市萬里區萬里里瑪鋉路30巷1弄13號","121.689958333333","25.1766683333333","6502800","萬里區"
"220054","015-TV","2019/12/21 19:13:25","新北市板橋區重慶路76巷8號","121.461128333333","25.006295","6500100","板橋區"
"220065","072-UY","2019/12/21 19:13:32","新北市板橋區民族路129巷26號","121.46801","25.0087966666667","6500100","板橋區"
"220086","073-UY","2019/12/21 19:13:31","新北市板橋區幸福路70巷1號","121.460621666667","25.0199683333333","6500100","板橋區"
"220106","075-UY","2019/12/21 19:13:36","新北市板橋區江寧路三段119號","121.473323333333","25.0332133333333","6500100","板橋區"
"220069","AAD-861","2019/12/21 19:13:40","新北市板橋區貴興路49號","121.457265","25.0032216666667","6500100","板橋區"
"226004","312-R5","2019/12/21 19:13:32","新北市平溪區望古里灰3-1號","121.754841666667","25.0288266666667","6502400","平溪區"
"235049","251-BX","2019/12/21 19:13:46","新北市中和區景新街239號","121.508161666667","24.9944983333333","6500300","中和區"
"228003","097-TW","2019/12/21 19:13:21","新北市貢寮區和美里和美街27-1號","121.913305","25.082745","6502600","貢寮區"
"228001","212-TW","2019/12/21 19:13:40","新北市貢寮區真理里新港街10號","121.92544","25.0543116666667","6502600","貢寮區"
"228002","663-BX","2019/12/21 19:13:23","新北市貢寮區福隆里興隆街36號","121.941098333333","25.0174533333333","6502600","貢寮區"
"224010","AGQ-8101","2019/12/21 19:13:35","新北市瑞芳區基山街123號","121.844148333333","25.108535","6501200","瑞芳區"
"224006","676-BX","2019/12/21 19:13:39","新北市瑞芳區傑魚坑路20-6號","121.794995","25.098845","6501200","瑞芳區"
"224008","272-VK","2019/12/21 19:13:43","新北市瑞芳區瑞芳街82-1號","121.802875","25.1099933333333","6501200","瑞芳區"
"227002","642-TC","2019/12/21 19:13:25","新北市雙溪區平林里梅竹蹊56-4號","121.860603333333","25.0368233333333","6502500","雙溪區"
"227001","400-TW","2019/12/21 19:13:36","新北市雙溪區牡丹里中正路46-4號","121.865041666667","25.0390083333333","6502500","雙溪區"
"253005","032-BX","2019/12/21 19:13:38","新北市石門區阿里荖35-2號","121.606528333333","25.2807183333333","6502200","石門區"
"253006","295-VK","2019/12/21 19:13:43","新北市石門區崁子腳61-1號","121.532371666667","25.2876133333333","6502200","石門區"
"222001","KEA-2212","2019/12/21 19:13:35","新北市深坑區北深路二段48號","121.619403333333","25.0042716666667","6501800","深坑區"
"208002","KEA-2872","2019/12/21 19:13:34","新北市金山區環金路376巷1號","121.632011666667","25.222225","6502700","金山區"
"208003","665-BX","2019/12/21 19:13:35","新北市金山區中山路192號","121.637776666667","25.22146","6502700","金山區"
"251009","008-UM","2019/12/21 19:13:23","新北市淡水區重建街68號","121.440051666667","25.1719766666667","6501000","淡水區"
"251005","010-UM","2019/12/21 19:13:38","新北市淡水區水源街一段2號","121.442408333333","25.1722616666667","6501000","淡水區"
"251001","011-UM","2019/12/21 19:13:46","新北市淡水區自強路201巷39號","121.462108333333","25.1268183333333","6501000","淡水區"
"251015","KEA-2871","2019/12/21 19:13:39","新北市淡水區南勢埔5-1號","121.482105","25.1801833333333","6501000","淡水區"
"251016","180-VK","2019/12/21 19:13:36","新北市淡水區淡金路三段352號","121.449276666667","25.2089433333333","6501000","淡水區"
"251013","182-VK","2019/12/21 19:13:41","新北市淡水區安子內12-1號","121.481508333333","25.2190916666667","6501000","淡水區"
"251010","413-VK","2019/12/21 19:13:43","新北市淡水區沙崙路28號","121.421456666667","25.181435","6501000","淡水區"
"243009","549-UM","2019/12/21 19:13:40","新北市泰山區楓江路49號","121.435196666667","25.0629866666667","6501600","泰山區"
"251007","442-VK","2019/12/21 19:13:33","新北市淡水區民生路145巷58號","121.467978333333","25.1386766666667","6501000","淡水區"
"251014","577-R6","2019/12/21 19:13:29","新北市淡水區小中寮19-7號","121.484708333333","25.2296383333333","6501000","淡水區"
"251002","672-BX","2019/12/21 19:13:38","新北市淡水區中山路89號","121.442453333333","25.1704333333333","6501000","淡水區"
"251003","766-UM","2019/12/21 19:13:37","新北市淡水區中山北路一段22號","121.441613333333","25.1750966666667","6501000","淡水區"
"252001","292-VK","2019/12/21 19:13:39","新北市三芝區長勤街24號","121.501093333333","25.2557533333333","6502100","三芝區"
"237004","KEA-2597","2019/12/21 19:13:26","新北市三峽區有木205-1號","121.439025","24.8515416666667","6500900","三峽區"
"237007","153-BY","2019/12/21 19:13:34","新北市三峽區麻園13號","121.362633333333","24.9157733333333","6500900","三峽區"
"237009","210-TH","2019/12/21 19:13:29","新北市三峽區民生街121號","121.373341666667","24.93516","6500900","三峽區"
"237013","252-BX","2019/12/21 19:13:40","新北市三峽區大同路39巷49號","121.378496666667","24.9275783333333","6500900","三峽區"
"237012","275-BY","2019/12/21 19:13:31","新北市三峽區三樹路222巷236弄23號","121.391396666667","24.94304","6500900","三峽區"
"237008","302-VK","2019/12/21 19:13:41","新北市三峽區光明路106巷39號","121.375571666667","24.9269433333333","6500900","三峽區"
"237014","433-BY","2019/12/21 19:13:27","新北市三峽區中山路257巷39號","121.36211","24.93651","6500900","三峽區"
"237006","5529-G3","2019/12/21 19:13:27","新北市三峽區介壽路三段22號","121.395888333333","24.936235","6500900","三峽區"
"237011","KEA-2596","2019/12/21 19:13:28","新北市三峽區介壽路三段107號","121.39549","24.9392766666667","6500900","三峽區"
"237015","649-BX","2019/12/21 19:13:36","新北市三峽區安坑38號","121.454786666667","24.9321216666667","6500900","三峽區"
"237010","706-TV","2019/12/21 19:13:36","新北市三峽區國光街97號","121.373316666667","24.9388683333333","6500900","三峽區"
"237005","AKY-6261","2019/12/21 19:13:30","新北市三峽區中山路459巷135號","121.3493","24.9331233333333","6500900","三峽區"
"236026","269-VK","2019/12/21 19:13:38","新北市土城區中正路65號","121.444558333333","24.975695","6501300","土城區"
"236014","270-VK","2019/12/21 19:13:39","新北市土城區學府路一段23巷39號","121.457303333333","24.9865383333333","6501300","土城區"
"236070","KEA-2877","2019/12/21 19:13:28","新北市土城區中央路一段80號","121.447055","24.989085","6501300","土城區"
"252002","KED-0821","2019/12/21 19:13:38","新北市三芝區中正路一段74號","121.503953333333","25.257495","6502100","三芝區"
"236021","401-BY","2019/12/21 19:13:32","新北市土城區延峰街21號","121.469008333333","24.9859983333333","6501300","土城區"
"236059","912-UM","2019/12/21 19:13:45","新北市土城區中央路三段37號","121.439161666667","24.970075","6501300","土城區"
"242002","441-UM","2019/12/21 19:13:36","新北市新莊區新樹路513號","121.432691666667","25.0105083333333","6500500","新莊區"
"238015","755-BX","2019/12/21 19:13:30","新北市樹林區備內街158巷56號","121.408273333333","24.9898883333333","6500700","樹林區"
"238023","601-UM","2019/12/21 19:13:26","桃園市龜山區萬壽路一段429號","121.399265","25.01621","6500700","樹林區"
"238019","599-UM","2019/12/21 19:13:16","新北市樹林區鎮前街425巷2弄2號","121.413858333333","24.9825616666667","6500700","樹林區"
"238018","KEA-2217","2019/12/21 19:13:39","新北市樹林區八德街37-3號","121.418995","24.98293","6500700","樹林區"
"238022","KEA-2213","2019/12/21 19:13:28","新北市樹林區中山路二段151巷8弄3號","121.406553333333","24.97787","6500700","樹林區"
"238021","KEA-2539","2019/12/21 19:13:40","新北市樹林區柑園街二段303巷1號","121.371295","24.9505433333333","6500700","樹林區"
"238025","303-VK","2019/12/21 19:13:35","新北市樹林區中山路三段96號","121.392965","24.9721916666667","6500700","樹林區"
"238017","283-BY","2019/12/21 19:13:24","新北市樹林區光興街146巷1號","121.407986666667","25.0042266666667","6500700","樹林區"
"238014","282-BY","2019/12/21 19:13:31","新北市樹林區千歲街94號","121.426513333333","24.99792","6500700","樹林區"
"238020","268-VK","2019/12/21 19:13:43","新北市樹林區俊英街133巷18號","121.423701666667","25.0111266666667","6500700","樹林區"
"238026","172-UY","2019/12/21 19:13:41","新北市樹林區地政街1號","121.393685","24.9716166666667","6500700","樹林區"
"238016","169-UY","2019/12/21 19:13:41","新北市樹林區文化街45號","121.418103333333","24.9882366666667","6500700","樹林區"
"239007","AAC-297","2019/12/21 19:13:36","新北市鶯歌區中正一路225號","121.354095","24.957495","6500800","鶯歌區"
"239006","891-R6","2019/12/21 19:13:42","新北市鶯歌區鶯桃路296巷75號","121.336366666667","24.96136","6500800","鶯歌區"
"239008","527-UM","2019/12/21 19:13:46","新北市鶯歌區國際二路20巷6號","121.336975","24.9751316666667","6500800","鶯歌區"
"239005","526-UM","2019/12/21 19:13:26","新北市鶯歌區大湖路361巷24弄6號","121.330256666667","24.9779633333333","6500800","鶯歌區"
"239001","417-VK","2019/12/21 19:13:40","新北市鶯歌區永明街55號","121.339601666667","24.956105","6500800","鶯歌區"
"239003","360-BY","2019/12/21 19:13:24","新北市鶯歌區鶯桃路658巷49-2號","121.330846666667","24.970255","6500800","鶯歌區"
"239002","359-BY","2019/12/21 19:13:33","新北市鶯歌區中正一路339號","121.357431666667","24.9570933333333","6500800","鶯歌區"
"239004","193-VK","2019/12/21 19:13:36","新北市鶯歌區中正三路256號","121.329713333333","24.9363966666667","6500800","鶯歌區"
"221008","489-VK","2019/12/21 19:13:40","新北市汐止區康寧街380號","121.629151666667","25.0676516666667","6501100","汐止區"
"221036","130-UY","2019/12/21 19:13:40","新北市汐止區忠孝東路314巷19弄4號","121.664521666667","25.0684133333333","6501100","汐止區"
"207003","KEE-1020","2019/12/21 19:13:37","新北市萬里區大鵬里萬里加投9號","121.652731666667","25.20889","6502800","萬里區"
"221031","567-BX","2019/12/21 19:13:40","新北市汐止區中興路181巷29弄8號","121.629906666667","25.065795","6501100","汐止區"
"221035","622-UM","2019/12/21 19:13:45","新北市汐止區汐萬路一段229號","121.651613333333","25.07281","6501100","汐止區"
"221002","707-TV","2019/12/21 19:13:29","新北市汐止區大同路一段335號","121.638535","25.0593916666667","6501100","汐止區"
"220079","145-BY","2019/12/21 19:13:34","新北市板橋區民權路204號","121.459191666667","25.0139616666667","6500100","板橋區"
"220080","200-UY","2019/12/21 19:13:39","新北市板橋區大觀路二段5-1號","121.44715","25.0038716666667","6500100","板橋區"
"220082","610-BX","2019/12/21 19:13:44","新北市板橋區溪崑二街111巷1號","121.426653333333","24.9887816666667","6500100","板橋區"
"220101","245-BX","2019/12/21 19:13:33","新北市板橋區縣民大道三段121巷14號","121.47674","25.0231566666667","6500100","板橋區"
"220091","267-BY","2019/12/21 19:13:31","新北市板橋區萬板路468號","121.47982","25.025905","6500100","板橋區"
"220056","276-BY","2019/12/21 19:13:43","新北市板橋區信義路110巷2弄3號","121.457886666667","24.9923233333333","6500100","板橋區"
"220072","277-BY","2019/12/21 19:13:34","新北市板橋區金門街280號","121.42905","24.98634","6500100","板橋區"
"220071","283-VK","2019/12/21 19:13:31","新北市板橋區重慶路353巷1號","121.464496666667","24.99799","6500100","板橋區"
"220094","285-UM","2019/12/21 19:13:43","新北市板橋區光武街110巷14號","121.466591666667","25.0295883333333","6500100","板橋區"
"220053","285-VK","2019/12/21 19:13:37","新北市板橋區永豐街146號","121.478066666667","25.0212416666667","6500100","板橋區"
"220083","286-VK","2019/12/21 19:13:25","新北市板橋區大觀路二段174巷173弄11號","121.441205","25.00379","6500100","板橋區"
"220081","287-VK","2019/12/21 19:13:24","新北市板橋區南雅西路二段160號","121.451755","25.0134466666667","6500100","板橋區"
"220090","288-VK","2019/12/21 19:13:33","新北市板橋區長江路一段106巷12弄3號","121.459948333333","25.0289416666667","6500100","板橋區"
"220061","293-UM","2019/12/21 19:13:27","新北市板橋區光復街18號","121.4814","25.0188983333333","6500100","板橋區"
"220092","295-UM","2019/12/21 19:13:44","新北市板橋區光武街2巷47-3號","121.46846","25.025995","6500100","板橋區"
"220084","296-UM","2019/12/21 19:13:45","新北市板橋區溪崑二街22巷9號","121.428226666667","24.991495","6500100","板橋區"
"220075","303-R5","2019/12/21 19:13:31","新北市板橋區南雅南路一段5巷19號","121.456336666667","25.005385","6500100","板橋區"
"220062","305-R5","2019/12/21 19:13:38","新北市板橋區三民路二段居仁巷2弄9號","121.479575","25.0128716666667","6500100","板橋區"
"220098","317-R6","2019/12/21 19:13:43","新北市板橋區四維路103巷1-4號","121.46541","25.024435","6500100","板橋區"
"220089","487-VK","2019/12/21 19:13:41","新北市板橋區國光路214-2號","121.462251666667","25.0185666666667","6500100","板橋區"
"220088","491-VK","2019/12/21 19:13:42","新北市板橋區雙十路二段4號","121.477168333333","25.0254716666667","6500100","板橋區"
"220035","560-BX","2019/12/21 19:13:31","新北市板橋區中正路330號","121.45468","25.0216833333333","6500100","板橋區"
"220103","561-BX","2019/12/21 19:13:37","新北市板橋區文化路一段220號","121.466736666667","25.020565","6500100","板橋區"
"220063","609-BX","2019/12/21 19:13:40","新北市板橋區三民路一段107號","121.479456666667","25.0213966666667","6500100","板橋區"
"220074","630-UY","2019/12/21 19:13:41","新北市板橋區中正路自強新村28號","121.455078333333","25.0139533333333","6500100","板橋區"
"220057","686-BX","2019/12/21 19:13:36","新北市板橋區和平路174巷1弄1號","121.464048333333","24.995165","6500100","板橋區"
"220077","687-BX","2019/12/21 19:13:35","新北市板橋區大觀路二段145號","121.445666666667","25.0009816666667","6500100","板橋區"
"220093","689-BX","2019/12/21 19:13:44","新北市板橋區漢生西路79巷2號","121.46275","25.0192466666667","6500100","板橋區"
"220102","KEA-2699","2019/12/21 19:13:42","新北市板橋區松柏街66號","121.47627","25.0305433333333","6500100","板橋區"
"220055","827-TW","2019/12/21 19:13:24","新北市板橋區新民街6巷20號","121.465276666667","25.0100333333333","6500100","板橋區"
"220068","830-TW","2019/12/21 19:13:33","新北市板橋區翠華街6巷16號","121.481021666667","25.0242666666667","6500100","板橋區"
"220067","831-TW","2019/12/21 19:13:36","新北市板橋區長安街138巷1弄67號","121.474481666667","25.0107266666667","6500100","板橋區"
"220073","985-R7","2019/12/21 19:13:42","新北市板橋區中正路360巷31號","121.455625","25.0235316666667","6500100","板橋區"
"220097","AAC-210","2019/12/21 19:13:42","新北市板橋區新海路93號","121.461703333333","25.0219066666667","6500100","板橋區"
"220064","AAC-253","2019/12/21 19:13:32","新北市板橋區縣民大道二段７號","121.464648333333","25.0139483333333","6500100","板橋區"
"235061","KEA-2875","2019/12/21 19:13:39","新北市中和區員山路143巷48號","121.478595","24.99532","6500300","中和區"
"235068","KEA-2876","2019/12/21 19:13:17","新北市中和區圓通路158巷1弄9號","121.497235","24.9960366666667","6500300","中和區"
