"lineid","car","time","location","longitude","latitude","cityid","cityname"
"251004","009-UM","2019/12/21 21:59:26","新北市淡水區民權路177號","121.459833333333","25.1353966666667","6501000","淡水區"
"251005","010-UM","2019/12/21 21:59:38","新北市淡水區鄧公路30巷1弄65號","121.45444","25.169635","6501000","淡水區"
"251008","181-VK","2019/12/21 21:59:42","新北市淡水區水源街二段4號","121.449135","25.1735283333333","6501000","淡水區"
"251010","413-VK","2019/12/21 21:59:43","新北市淡水區中正路二段211號","121.426195","25.1891366666667","6501000","淡水區"
"251007","442-VK","2019/12/21 21:59:33","新北市淡水區北新路184巷19號","121.450323333333","25.1780866666667","6501000","淡水區"
"251006","561-UM","2019/12/21 21:59:39","新北市淡水區中正路11巷3號","121.43787","25.1707516666667","6501000","淡水區"
"251011","650-BX","2019/12/21 21:59:33","新北市淡水區水碓街3號","121.443021666667","25.1769766666667","6501000","淡水區"
