"lineid","car","time","location","longitude","latitude","cityid","cityname"
"222004","289-BY","2019/07/02 09:39:31","新北市深坑區向天湖12號","121.619926666667","24.9915233333333","6501800","深坑區"
"231007","189-VK","2019/07/02 09:39:40","新北市新店區新潭路三段256號","121.508141666667","24.90394","6500600","新店區"
"231009","512-UM","2019/07/02 09:39:45","新北市新店區平廣路一段182-2號","121.518243333333","24.88958","6500600","新店區"
"223001","592-UM","2019/07/02 09:39:33","新北市石碇區北宜路四段9號","121.61503","24.961135","6501900","石碇區"
"227004","282-VK","2019/07/02 09:39:44","新北市雙溪區長源里土地公山2號","121.797286666667","25.0117716666667","6502500","雙溪區"
"252004","249-BX","2019/07/02 09:39:38","新北市三芝區圓山里石曹子坑68-2號","121.523638333333","25.2161883333333","6502100","三芝區"
"252007","AAC-283","2019/07/02 09:39:35","新北市三芝區新庄里新庄子101-7號","121.516381666667","25.2664883333333","6502100","三芝區"
"237014","760-BX","2019/07/02 09:39:46","新北市土城區龍泉路89號","121.447515","24.9431533333333","6500900","三峽區"
