"lineid","car","time","location","longitude","latitude","cityid","cityname"
"231007","189-VK","2019/07/02 09:59:40","新北市新店區新潭路三段256號","121.508111666667","24.9039533333333","6500600","新店區"
"231009","512-UM","2019/07/02 09:58:26","新北市新店區小坑一路88-1號","121.52999","24.9065416666667","6500600","新店區"
"227004","282-VK","2019/07/02 09:59:30","新北市雙溪區長源里盤山坑17號","121.775776666667","24.9980433333333","6502500","雙溪區"
"252004","249-BX","2019/07/02 09:59:38","新北市三芝區福德里土地公埔62號","121.516281666667","25.2242816666667","6502100","三芝區"
"252007","AAC-283","2019/07/02 09:59:35","新北市三芝區新庄里新庄子51-13號","121.50737","25.276635","6502100","三芝區"
"237014","760-BX","2019/07/02 09:59:46","新北市三峽區安坑2號","121.437721666667","24.9268533333333","6500900","三峽區"
