"lineid","car","time","location","longitude","latitude","cityid","cityname"
"234044","148-BY","2019/07/02 12:49:13","新北市永和區秀朗路二段124-3號","121.524795","25.00151","6500400","永和區"
"234078","298-R6","2019/07/02 12:49:09","新北市永和區永利路97號","121.521748333333","25.0030866666667","6500400","永和區"
"234036","336-UY","2019/07/02 12:49:20","新北市永和區成功路二段95號","121.526753333333","24.9991116666667","6500400","永和區"
"234062","337-UY","2019/07/02 12:49:20","新北市永和區福和路1號","121.526146666667","25.0097283333333","6500400","永和區"
"234084","338-UY","2019/07/02 12:49:19","新北市永和區中正路91號","121.515331666667","24.9971833333333","6500400","永和區"
"234068","552-UM","2019/07/02 12:49:08","新北市永和區豫溪街191巷3弄2號","121.523573333333","25.0104166666667","6500400","永和區"
"234028","746-BX","2019/07/02 12:49:05","新北市永和區得和路328號","121.523296666667","24.99957","6500400","永和區"
"234052","KEA-2590","2019/07/02 12:49:07","新北市永和區豫溪街217巷7號","121.525305","25.0100366666667","6500400","永和區"
"234005","KED-0605","2019/07/02 12:49:17","新北市永和區保安路46號","121.51035","25.01685","6500400","永和區"
"234012","KEA-2591","2019/07/02 12:49:19","新北市永和區保福路二段133巷2號","121.509546666667","25.0138433333333","6500400","永和區"
"234060","AAD-866","2019/07/02 12:49:20","新北市永和區福和路309巷3號","121.516328333333","25.0069633333333","6500400","永和區"
"234040","862-TW","2019/07/02 12:49:11","新北市永和區永貞路308號","121.511853333333","25.0048816666667","6500400","永和區"
"234048","863-TW","2019/07/02 12:49:21","新北市永和區環河東路二段56號","121.523533333333","25.01153","6500400","永和區"
"234025","9371-KE","2019/07/02 12:49:11","新北市永和區中正路651號","121.515096666667","25.010175","6500400","永和區"
"234010","9373-KE","2019/07/02 12:49:15","新北市永和區保福路二段158巷1號","121.50914","25.0150316666667","6500400","永和區"
"248017","KED-0813","2019/07/02 12:49:20","新北市五股區中興路二段63巷17號","121.460298333333","25.075345","6501500","五股區"
"234022","9380-KE","2019/07/02 12:49:13","新北市永和區竹林路119巷45號","121.521956666667","25.0117683333333","6500400","永和區"
"234076","969-R7","2019/07/02 12:49:22","新北市永和區中正路8號","121.512548333333","24.9937216666667","6500400","永和區"
"234072","AAC-211","2019/07/02 12:49:09","新北市永和區福和路1號","121.52655","25.00989","6500400","永和區"
"234066","AAC-212","2019/07/02 12:49:19","新北市永和區永和路一段22號","121.513045","25.004815","6500400","永和區"
"234001","AAC-295","2019/07/02 12:49:18","新北市永和區中正路612號","121.517006666667","25.0073583333333","6500400","永和區"
"231029","106-UY","2019/07/02 12:49:22","新北市新店區安華路28-1號","121.519573333333","24.9607833333333","6500600","新店區"
"231023","260-TV","2019/07/02 12:49:19","新北市新店區安一路一段1-1號","121.519288333333","24.9612016666667","6500600","新店區"
"231003","268-BY","2019/07/02 12:49:07","新北市新店區安華路30巷1號","121.519321666667","24.9594866666667","6500600","新店區"
"231035","278-BY","2019/07/02 12:49:02","新北市新店區安一路一段1-1號","121.519453333333","24.9611883333333","6500600","新店區"
"231015","AAD-862","2019/07/02 12:49:04","新北市新店區安華路28-1號","121.519638333333","24.9609733333333","6500600","新店區"
"231020","513-UM","2019/07/02 12:49:17","新北市新店區安一路一段1-1號","121.519605","24.9612016666667","6500600","新店區"
"231002","619-UM","2019/07/02 12:49:02","新北市新店區安華路28-1號","121.519533333333","24.9606916666667","6500600","新店區"
"231034","641-BX","2019/07/02 12:49:10","新北市新店區安華路1-1號","121.519536666667","24.9605116666667","6500600","新店區"
"231012","KED-0819","2019/07/02 12:49:14","新北市新店區安一路一段1-1號","121.519611666667","24.9613266666667","6500600","新店區"
"231010","719-UM","2019/07/02 12:49:10","新北市新店區安一路一段1-1號","121.519526666667","24.9612833333333","6500600","新店區"
"231026","720-UM","2019/07/02 12:49:18","新北市新店區安康路一段359-27號","121.518721666667","24.9612133333333","6500600","新店區"
"231004","899-TW","2019/07/02 12:49:13","新北市新店區安華路28-1號","121.519283333333","24.9608233333333","6500600","新店區"
"235030","003-UY","2019/07/02 12:49:08","新北市中和區員山路36巷16-3號","121.484966666667","24.99132","6500300","中和區"
"235029","098-UM","2019/07/02 12:49:06","新北市中和區錦和路111-1號","121.490168333333","24.9951183333333","6500300","中和區"
"235022","151-BY","2019/07/02 12:49:09","新北市中和區中正路545巷1號","121.487261666667","24.993555","6500300","中和區"
"235002","185-VK","2019/07/02 12:49:08","新北市中和區中正路537號","121.487535","24.994305","6500300","中和區"
"235031","255-BX","2019/07/02 12:49:17","新北市中和區中正路1155號","121.48186","25.0082416666667","6500300","中和區"
"235005","802-TS","2019/07/02 12:49:17","新北市中和區和城路一段271巷1號","121.485666666667","24.9917433333333","6500300","中和區"
"235023","AAC-215","2019/07/02 12:49:19","新北市中和區員山路36巷16-3號","121.48509","24.991375","6500300","中和區"
"220013","072-UY","2019/07/02 12:49:07","新北市板橋區華東街1-9號","121.44821","24.9949416666667","6500100","板橋區"
"228004","212-TW","2019/07/02 12:49:04","新北市貢寮區吉林里枋腳街42-6號","121.888823333333","24.9976316666667","6502600","貢寮區"
"228005","828-UM","2019/07/02 12:49:20","新北市貢寮區福連里福連街37號","121.988811666667","25.0110683333333","6502600","貢寮區"
"207002","749-BX","2019/07/02 12:49:18","新北市萬里區雙興里二坪路31-2號","121.651048333333","25.17089","6502800","萬里區"
"207001","662-BX","2019/07/02 12:49:05","新北市萬里區萬里里瑪鋉路261-1號","121.689836666667","25.179475","6502800","萬里區"
"235025","KEA-2875","2019/07/02 12:49:12","新北市中和區員山路36巷16-2號","121.485181666667","24.9917016666667","6500300","中和區"
"235018","KEA-2876","2019/07/02 12:49:08","新北市中和區員山路36巷16-2號","121.485308333333","24.9916466666667","6500300","中和區"
