"lineid","car","time","location","longitude","latitude","cityid","cityname"
"234044","148-BY","2019/07/02 13:49:13","新北市永和區永利路324號","121.524901666667","25.0032616666667","6500400","永和區"
"234078","298-R6","2019/07/02 13:49:09","新北市永和區永亨路98號","121.522968333333","25.004865","6500400","永和區"
"234036","336-UY","2019/07/02 13:49:20","新北市永和區民樂街55巷16號","121.528093333333","24.9986366666667","6500400","永和區"
"234062","337-UY","2019/07/02 13:48:52","新北市永和區中正路368巷1弄15號","121.518016666667","25.0012","6500400","永和區"
"234084","338-UY","2019/07/02 13:48:59","新北市永和區福和路286號","121.517545","25.0074716666667","6500400","永和區"
"234068","552-UM","2019/07/02 13:49:08","新北市永和區竹林路77號","121.519438333333","25.0127483333333","6500400","永和區"
"234015","745-BX","2019/07/02 13:49:09","新北市永和區文化路67巷3弄1號","121.513913333333","25.0149633333333","6500400","永和區"
"234028","746-BX","2019/07/02 13:49:25","新北市永和區民生路67巷6號","121.522991666667","24.997155","6500400","永和區"
"234052","KEA-2590","2019/07/02 13:49:07","新北市永和區竹林路75巷25弄7號","121.52003","25.0144633333333","6500400","永和區"
"234005","KED-0605","2019/07/02 13:49:17","新北市永和區中和路603號","121.51237","25.0041533333333","6500400","永和區"
"234012","KEA-2591","2019/07/02 13:49:19","新北市永和區保安路244號","121.50662","25.012655","6500400","永和區"
"234060","AAD-866","2019/07/02 13:49:20","新北市永和區中正路199號","121.517413333333","24.99944","6500400","永和區"
"234040","862-TW","2019/07/02 13:49:11","新北市永和區中和路389巷2-1號","121.508396666667","25.0003566666667","6500400","永和區"
"234048","863-TW","2019/07/02 13:49:21","新北市永和區保安路125巷2弄3號","121.507636666667","25.013545","6500400","永和區"
"234025","9371-KE","2019/07/02 13:49:11","新北市永和區自由街58號","121.513871666667","25.0059116666667","6500400","永和區"
"234010","9373-KE","2019/07/02 13:49:15","新北市永和區仁愛路335號","121.503133333333","25.0075033333333","6500400","永和區"
"248017","KED-0813","2019/07/02 13:49:20","新北市五股區民義路二段22巷35-1號","121.424206666667","25.100665","6501500","五股區"
"234022","9380-KE","2019/07/02 13:49:13","新北市永和區中正路627號","121.515546666667","25.00986","6500400","永和區"
"234076","969-R7","2019/07/02 13:49:04","新北市永和區民權路36巷17號","121.51902","24.9990266666667","6500400","永和區"
"234072","AAC-211","2019/07/02 13:49:09","新北市永和區豫溪街215巷14號","121.524101666667","25.0096566666667","6500400","永和區"
"234066","AAC-212","2019/07/02 13:49:19","新北市永和區永貞路418-3號","121.508678333333","25.0080716666667","6500400","永和區"
"234001","AAC-295","2019/07/02 13:49:26","新北市永和區永和路一段51號","121.51285","25.0067166666667","6500400","永和區"
"244002","248-BX","2019/07/02 13:49:18","新北市林口區南勢里34-8號","121.35232","25.0703833333333","6501700","林口區"
"231030","002-UM","2019/07/02 13:49:10","新北市新店區安康路一段20號","121.530978333333","24.9610633333333","6500600","新店區"
"231027","0293-UT","2019/07/02 13:49:04","新北市新店區北宜路一段105巷4弄3-1號","121.54015","24.9557383333333","6500600","新店區"
"231005","046-UY","2019/07/02 13:49:13","新北市新店區寶中路99號","121.548896666667","24.9802866666667","6500600","新店區"
"231029","106-UY","2019/07/02 13:49:22","新北市新店區安康路二段125-1號","121.512366666667","24.960985","6500600","新店區"
"231018","107-UY","2019/07/02 13:49:11","新北市新店區中正路382巷1號","121.534968333333","24.9773083333333","6500600","新店區"
"231013","108-UY","2019/07/02 13:49:14","新北市新店區二十張路25巷18弄1號","121.539266666667","24.981755","6500600","新店區"
"231036","KEA-2219","2019/07/02 13:49:23","新北市新店區安祥路145巷42號","121.47576","24.9569416666667","6500600","新店區"
"231023","260-TV","2019/07/02 13:49:19","新北市新店區文中路40-5號","121.540015","24.9564416666667","6500600","新店區"
"231003","268-BY","2019/07/02 13:49:07","新北市新店區中興路一段191號","121.543291666667","24.9650266666667","6500600","新店區"
"231035","278-BY","2019/07/02 13:49:26","新北市新店區安忠路57巷17號","121.513245","24.9585033333333","6500600","新店區"
"231015","AAD-862","2019/07/02 13:49:24","新北市新店區竹林路63-1號","121.552923333333","24.9511933333333","6500600","新店區"
"231006","355-BY","2019/07/02 13:49:23","新北市新店區北宜路一段224號","121.544551666667","24.9531116666667","6500600","新店區"
"231038","3712-VJ","2019/07/02 13:49:22","新北市新店區安華路30巷3號","121.519626666667","24.9592383333333","6500600","新店區"
"231024","4716-K9","2019/07/02 13:49:13","新北市新店區新生街13巷34號","121.539218333333","24.9667983333333","6500600","新店區"
"231025","4715-K9","2019/07/02 13:49:15","新北市新店區中正路367號","121.534926666667","24.9763933333333","6500600","新店區"
"231020","513-UM","2019/07/02 13:49:17","新北市新店區新烏路一段171號","121.544728333333","24.934615","6500600","新店區"
"231002","619-UM","2019/07/02 13:49:02","新北市新店區溪園路363號","121.523138333333","24.9808333333333","6500600","新店區"
"231034","641-BX","2019/07/02 13:49:10","新北市新店區達觀路14巷3號","121.503251666667","24.9417583333333","6500600","新店區"
"231012","KED-0819","2019/07/02 13:49:14","新北市新店區德正街27巷29弄17號","121.544965","24.9718016666667","6500600","新店區"
"231032","718-UY","2019/07/02 13:49:06","新北市新店區莒光路44巷21弄11-6號","121.518733333333","24.952565","6500600","新店區"
"231010","719-UM","2019/07/02 13:49:09","新北市新店區中正路309號","121.536603333333","24.9747216666667","6500600","新店區"
"231026","720-UM","2019/07/02 13:49:18","新北市新店區中正路114號","121.542538333333","24.9710816666667","6500600","新店區"
"231028","897-TW","2019/07/02 13:49:24","新北市新店區安和路二段155號","121.518986666667","24.97425","6500600","新店區"
"231001","898-TW","2019/07/02 13:49:07","新北市新店區三民路165號","121.534573333333","24.97465","6500600","新店區"
"231004","899-TW","2019/07/02 13:49:13","新北市新店區中興路二段252號","121.547428333333","24.975935","6500600","新店區"
"231037","AKT-0513","2019/07/02 13:49:17","新北市新店區安康路三段359巷10弄1號","121.484353333333","24.9503433333333","6500600","新店區"
"235030","003-UY","2019/07/02 13:49:08","新北市中和區中山路二段131巷2弄1號","121.502726666667","25.0027516666667","6500300","中和區"
"235028","005-UY","2019/07/02 13:49:17","新北市中和區泰和街44巷23號","121.498296666667","25.0009466666667","6500300","中和區"
"235027","006-UY","2019/07/02 13:49:26","新北市中和區連城路319巷5弄1號","121.489191666667","24.99544","6500300","中和區"
"235020","096-UM","2019/07/02 13:49:16","新北市中和區中正路1212號","121.479938333333","25.0107016666667","6500300","中和區"
"235003","097-UM","2019/07/02 13:49:13","新北市中和區景平路64巷13弄22號","121.521451666667","24.9915","6500300","中和區"
"235029","098-UM","2019/07/02 13:49:06","新北市中和區勝利路35巷9弄16號","121.499756666667","25.0072933333333","6500300","中和區"
"235004","150-BY","2019/07/02 13:49:17","新北市中和區保健路48巷2號","121.509921666667","24.997015","6500300","中和區"
"235022","151-BY","2019/07/02 13:49:09","新北市中和區連城路518巷2號","121.476651666667","24.9925633333333","6500300","中和區"
"235019","183-VK","2019/07/02 13:49:13","新北市中和區中山路三段229巷31號","121.469931666667","25.0060083333333","6500300","中和區"
"235002","185-VK","2019/07/02 13:49:08","新北市中和區大勇街43巷8號","121.517436666667","24.99478","6500300","中和區"
"235013","186-VK","2019/07/02 13:49:15","新北市中和區景新街210巷15號","121.507016666667","24.9945833333333","6500300","中和區"
"235031","255-BX","2019/07/02 13:49:17","新北市中和區中正路711號","121.484455","24.9985133333333","6500300","中和區"
"235008","293-VK","2019/07/02 13:49:16","新北市中和區中興街163號","121.499841666667","24.9908283333333","6500300","中和區"
"235036","301-VK","2019/07/02 13:49:08","新北市中和區中山路二段146-1號","121.501836666667","25.00302","6500300","中和區"
"235006","KEA-2878","2019/07/02 13:49:14","新北市中和區秀朗路三段70巷14號","121.525873333333","24.9945383333333","6500300","中和區"
"247013","KEA-2869","2019/07/02 13:49:22","新北市蘆洲區三民路165號","121.471333333333","25.087015","6501400","蘆洲區"
"247007","KED-0682","2019/07/02 13:49:18","新北市蘆洲區重陽街48號","121.48139","25.08326","6501400","蘆洲區"
"235014","4979-A6","2019/07/02 13:49:20","新北市中和區忠孝街62巷9弄12號","121.513116666667","24.9839683333333","6500300","中和區"
"235033","4980-A6","2019/07/02 13:49:09","新北市中和區南山路13號","121.502135","24.9992983333333","6500300","中和區"
"235034","558-UM","2019/07/02 13:49:06","新北市中和區中和路265號","121.50547","24.999715","6500300","中和區"
"235009","565-BX","2019/07/02 13:49:20","新北市中和區景新街467巷6號","121.513808333333","24.9882","6500300","中和區"
"235024","KED-0823","2019/07/02 13:49:08","新北市中和區民治街128巷1號","121.47521","25.002855","6500300","中和區"
"235011","732-UM","2019/07/02 13:49:08","新北市中和區興南路二段34巷56弄2號","121.504885","24.985325","6500300","中和區"
"235010","733-UM","2019/07/02 13:49:15","新北市中和區興南路一段83號","121.509956666667","24.9888216666667","6500300","中和區"
"235035","783-BX","2019/07/02 13:49:16","新北市中和區立德街26巷5弄28號","121.48959","25.00829","6500300","中和區"
"235026","800-TS","2019/07/02 13:49:15","新北市中和區中山路二段340巷26號","121.493548333333","25.003405","6500300","中和區"
"235021","801-TS","2019/07/02 13:49:07","新北市中和區民安街63號","121.47873","24.99957","6500300","中和區"
"235005","802-TS","2019/07/02 13:49:17","新北市中和區永貞路274-5號","121.513236666667","25.0037833333333","6500300","中和區"
"235016","805-TS","2019/07/02 13:49:05","新北市中和區興南路二段399巷35-2號","121.500285","24.97819","6500300","中和區"
"235012","896-TW","2019/07/02 13:49:22","新北市中和區南山路399巷1號","121.506743333333","24.9902316666667","6500300","中和區"
"235017","900-TW","2019/07/02 13:49:20","新北市中和區民德路290巷7號","121.467011666667","24.9958033333333","6500300","中和區"
"235007","911-UM","2019/07/02 13:49:22","新北市中和區秀朗路三段117號","121.526088333333","24.99329","6500300","中和區"
"235015","157-BY","2019/07/02 13:49:08","新北市中和區忠孝街106巷9弄1號","121.512446666667","24.9845","6500300","中和區"
"235001","AAC-213","2019/07/02 13:49:13","新北市中和區秀朗路三段10巷14弄104號","121.52313","24.9966216666667","6500300","中和區"
"235023","AAC-215","2019/07/02 13:49:19","新北市中和區圓通路395號","121.489633333333","24.9890016666667","6500300","中和區"
"220013","072-UY","2019/07/02 13:49:07","新北市板橋區館前東路74號","121.461411666667","25.0073333333333","6500100","板橋區"
"220034","073-UY","2019/07/02 13:49:14","新北市板橋區南雅西路二段145巷3號","121.451736666667","25.0114516666667","6500100","板橋區"
"220105","075-UY","2019/07/02 13:49:19","新北市板橋區文化路二段124巷24號","121.47114","25.0257066666667","6500100","板橋區"
"220017","AAD-861","2019/07/02 13:49:14","新北市板橋區華興街87號","121.456773333333","25.0051883333333","6500100","板橋區"
"247003","893-R6","2019/07/02 13:49:10","新北市蘆洲區長榮路98號","121.462058333333","25.0838883333333","6501400","蘆洲區"
"247011","056-VK","2019/07/02 13:49:14","新北市蘆洲區中正路520巷9號","121.462098333333","25.0992966666667","6501400","蘆洲區"
"247005","002-UY","2019/07/02 13:49:21","新北市蘆洲區和平路77號","121.469308333333","25.0789983333333","6501400","蘆洲區"
"228004","212-TW","2019/07/02 13:45:44","新北市貢寮區龍崗里嵩陽街10號","121.90176","25.01028","6502600","貢寮區"
"228005","828-UM","2019/07/02 13:49:20","新北市雙溪區三港里雙澳路100號","121.8894","25.0560683333333","6502600","貢寮區"
"207002","749-BX","2019/07/02 13:49:18","新北市萬里區崁腳里崁腳路166號","121.645111666667","25.1558483333333","6502800","萬里區"
"207001","662-BX","2019/07/02 13:49:25","新北市金山區月眉21-2號","121.637038333333","25.215275","6502800","萬里區"
"252005","AAC-283","2019/07/02 13:49:14","新北市三芝區圓山里二坪頂47號","121.53897","25.2436566666667","6502100","三芝區"
"236040","KED-0685","2019/07/02 13:49:18","新北市土城區城林路6巷80號","121.438501666667","24.9797033333333","6501300","土城區"
"220038","KED-0812","2019/07/02 13:49:13","新北市板橋區仁化街66號","121.475823333333","25.031825","6500100","板橋區"
"236074","166-UM","2019/07/02 13:49:04","新北市土城區中央路三段112號","121.435295","24.966235","6501300","土城區"
"236029","253-BX","2019/07/02 13:49:19","新北市土城區城林路6巷80號","121.438581666667","24.97974","6501300","土城區"
"236024","269-VK","2019/07/02 13:49:18","新北市土城區城林路6巷80號","121.438581666667","24.979795","6501300","土城區"
"236013","270-VK","2019/07/02 13:49:08","新北市土城區中華路二段2號","121.439603333333","24.9795516666667","6501300","土城區"
"236032","271-VK","2019/07/02 13:49:06","新北市土城區城林路6巷80號","121.43851","24.979795","6501300","土城區"
"247009","KED-0683","2019/07/02 13:49:06","新北市五股區成洲五路22號","121.45319","25.1011666666667","6501400","蘆洲區"
"236065","KEA-2877","2019/07/02 13:49:14","新北市土城區中華路二段2號","121.438958333333","24.9798133333333","6501300","土城區"
"236017","401-BY","2019/07/02 13:49:08","新北市土城區城林路6巷80號","121.438543333333","24.9798383333333","6501300","土城區"
"236057","912-UM","2019/07/02 13:49:23","新北市土城區中央路三段119-1號","121.434148333333","24.965695","6501300","土城區"
"236045","913-UM","2019/07/02 13:49:24","新北市土城區城林路6巷80號","121.43847","24.979755","6501300","土城區"
"236060","915-UM","2019/07/02 13:49:10","新北市土城區城林路6巷80號","121.438218333333","24.97935","6501300","土城區"
"220027","145-BY","2019/07/02 13:49:10","新北市板橋區大智街71巷42弄16號","121.452213333333","25.0147983333333","6500100","板橋區"
"220028","200-UY","2019/07/02 13:49:15","新北市板橋區大觀路二段265巷72弄1號","121.44242","24.9967283333333","6500100","板橋區"
"220030","610-BX","2019/07/02 13:49:17","新北市板橋區篤行路三段47號","121.428083333333","24.9863383333333","6500100","板橋區"
"220050","245-BX","2019/07/02 13:49:18","新北市板橋區莊敬路115號","121.472188333333","25.0256766666667","6500100","板橋區"
"220004","276-BY","2019/07/02 13:49:15","新北市板橋區四川路一段268號","121.458998333333","25.0010016666667","6500100","板橋區"
"220020","277-BY","2019/07/02 13:49:21","新北市板橋區金門街27號","121.433526666667","24.99431","6500100","板橋區"
"220043","283-UM","2019/07/02 13:49:18","新北市板橋區文化路二段28號","121.469353333333","25.024905","6500100","板橋區"
"220019","283-VK","2019/07/02 13:49:26","新北市板橋區館前東路25號","121.460415","25.0073066666667","6500100","板橋區"
"220001","285-VK","2019/07/02 13:49:13","新北市板橋區永豐街57號","121.473955","25.0182383333333","6500100","板橋區"
"220031","286-VK","2019/07/02 13:49:20","新北市板橋區大觀路二段20巷22號","121.444775","25.0040583333333","6500100","板橋區"
"220029","287-VK","2019/07/02 13:49:12","新北市板橋區南雅西路二段42號","121.452873333333","25.0100816666667","6500100","板橋區"
"220039","288-VK","2019/07/02 13:49:17","新北市板橋區四維路177巷2弄1號","121.464035","25.0262833333333","6500100","板橋區"
"220009","295-UM","2019/07/02 13:49:21","新北市板橋區富山街109巷63弄38號","121.475066666667","25.02049","6500100","板橋區"
"220032","296-UM","2019/07/02 13:49:22","新北市板橋區大觀路二段148巷1-2號","121.441691666667","24.9992033333333","6500100","板橋區"
"220023","303-R5","2019/07/02 13:49:07","新北市板橋區大觀路一段26號","121.450018333333","25.0086033333333","6500100","板橋區"
"220010","305-R5","2019/07/02 13:49:24","新北市板橋區中山路二段26號","121.472575","25.0151233333333","6500100","板橋區"
"220041","307-R5","2019/07/02 13:49:11","新北市板橋區文化路一段104巷1弄3號","121.465231666667","25.01793","6500100","板橋區"
"220047","317-R6","2019/07/02 13:49:13","新北市板橋區民生路二段234巷67號","121.470085","25.0226383333333","6500100","板橋區"
"220037","491-VK","2019/07/02 13:49:21","新北市板橋區文化路二段16-2號","121.46882","25.024425","6500100","板橋區"
"220104","560-BX","2019/07/02 13:49:06","新北市板橋區中正路275巷77號","121.452365","25.0181166666667","6500100","板橋區"
"220052","561-BX","2019/07/02 13:49:15","新北市板橋區文化路一段188巷9弄66號","121.468048333333","25.01901","6500100","板橋區"
"220011","609-BX","2019/07/02 13:49:20","新北市板橋區民生路一段44號","121.47435","25.014715","6500100","板橋區"
"220040","637-BX","2019/07/02 13:49:07","新北市板橋區莒光路158-2號","121.474028333333","25.0239283333333","6500100","板橋區"
"220005","686-BX","2019/07/02 13:49:10","新北市板橋區重慶路141號","121.462253333333","25.0046483333333","6500100","板橋區"
"220025","687-BX","2019/07/02 13:49:11","新北市板橋區金門街94-2號","121.433041666667","24.992505","6500100","板橋區"
"220042","689-BX","2019/07/02 13:49:03","新北市板橋區民生路三段146號","121.46619","25.0272333333333","6500100","板橋區"
"220002","741-BX","2019/07/02 13:49:19","新北市板橋區館前東路26-4號","121.460396666667","25.0069233333333","6500100","板橋區"
"220051","KEA-2699","2019/07/02 13:49:21","新北市板橋區田單街2巷24號","121.481426666667","25.027925","6500100","板橋區"
"220003","827-TW","2019/07/02 13:49:21","新北市板橋區忠孝路147號","121.463428333333","25.0023233333333","6500100","板橋區"
"220014","829-TW","2019/07/02 13:49:17","新北市板橋區民生路二段5號","121.472863333333","25.0157766666667","6500100","板橋區"
"220016","831-TW","2019/07/02 13:49:23","新北市板橋區大同街21巷14號","121.477303333333","25.0275083333333","6500100","板橋區"
"220022","895-R6","2019/07/02 13:49:21","新北市板橋區南門街53號","121.457168333333","25.0083616666667","6500100","板橋區"
"220021","985-R7","2019/07/02 13:49:23","新北市板橋區府中路32號","121.458128333333","25.0097016666667","6500100","板橋區"
"220046","AAC-210","2019/07/02 13:49:21","新北市板橋區四維路137巷5號","121.464373333333","25.024975","6500100","板橋區"
"220012","AAC-253","2019/07/02 13:49:18","新北市板橋區漢生東路123號","121.467535","25.0144883333333","6500100","板橋區"
"235032","KEA-2873","2019/07/02 13:49:25","新北市中和區圓通路162巷37弄1號","121.496265","24.9954666666667","6500300","中和區"
"235025","KEA-2875","2019/07/02 13:49:12","新北市中和區中山路三段63巷13弄23號","121.476938333333","25.003655","6500300","中和區"
"235018","KEA-2876","2019/07/02 13:49:08","新北市中和區民享街34號","121.474021666667","25.0031683333333","6500300","中和區"
