"lineid","car","time","location","longitude","latitude","cityid","cityname"
"249003","593-UM","2019/07/02 16:39:22","新北市八里區中山路二段283號","121.401578333333","25.14866","6502300","八里區"
"244007","080-UY","2019/07/02 16:39:18","新北市林口區粉寮69號","121.404963333333","25.090945","6501700","林口區"
"231046","719-UM","2019/07/02 16:39:14","新北市新店區灣潭路3-3號","121.538128333333","24.9508133333333","6500600","新店區"
"241011","013-R5","2019/07/02 16:39:23","新北市三重區仁愛街43巷16號","121.497355","25.07184","6500200","三重區"
"241028","022-UY","2019/07/02 16:39:21","新北市三重區重新路三段40號","121.494488333333","25.0614383333333","6500200","三重區"
"241008","059-VK","2019/07/02 16:39:21","新北市三重區永安北路一段27巷25號","121.477236666667","25.0755","6500200","三重區"
"241029","060-VK","2019/07/02 16:39:20","新北市三重區集美街112巷39號","121.490711666667","25.05432","6500200","三重區"
"241031","061-VK","2019/07/02 16:39:15","新北市三重區重陽路一段43巷27號","121.487733333333","25.0579816666667","6500200","三重區"
"241015","062-VK","2019/07/02 16:39:22","新北市三重區文化北路41號","121.498895","25.0651666666667","6500200","三重區"
"241017","063-VK","2019/07/02 16:39:15","新北市三重區中正北路25巷9號","121.492653333333","25.0621766666667","6500200","三重區"
"241024","065-VK","2019/07/02 16:39:13","新北市三重區中正北路315巷6弄36號","121.476488333333","25.072235","6500200","三重區"
"241001","066-VK","2019/07/02 16:39:18","新北市三重區仁政街86巷18號","121.491695","25.0773416666667","6500200","三重區"
"241002","090-VK","2019/07/02 16:39:07","新北市三重區仁義街241巷47號","121.497458333333","25.0832366666667","6500200","三重區"
"241030","742-BX","2019/07/02 16:39:13","新北市三重區環河南路286號","121.488933333333","25.0489666666667","6500200","三重區"
"241005","262-UM","2019/07/02 16:39:18","新北市三重區仁華街117號","121.486876666667","25.08303","6500200","三重區"
"241016","266-UM","2019/07/02 16:39:22","新北市三重區大智街5號","121.49475","25.0649733333333","6500200","三重區"
"241009","267-UM","2019/07/02 16:39:25","新北市三重區三和路四段203巷114號","121.485146666667","25.0803283333333","6500200","三重區"
"241018","268-UM","2019/07/02 16:39:26","新北市三重區六張街85-1號","121.492988333333","25.0703033333333","6500200","三重區"
"241032","269-UM","2019/07/02 16:39:12","新北市三重區新北大道一段57巷1號","121.485458333333","25.0611816666667","6500200","三重區"
"241013","270-UM","2019/07/02 16:39:27","新北市三重區仁愛街75號","121.496158333333","25.0729716666667","6500200","三重區"
"241007","398-BY","2019/07/02 16:39:26","新北市三重區仁美街83號","121.486121666667","25.0794516666667","6500200","三重區"
"241004","475-VK","2019/07/02 16:39:08","新北市三重區五福街36號","121.492233333333","25.0811316666667","6500200","三重區"
"241020","478-VK","2019/07/02 16:39:27","新北市三重區忠孝路二段34號","121.485768333333","25.0709983333333","6500200","三重區"
"241026","480-VK","2019/07/02 16:39:23","新北市三重區中央南路17號","121.501156666667","25.0625283333333","6500200","三重區"
"241014","543-UM","2019/07/02 16:39:26","新北市三重區龍濱路40號","121.50278","25.0684133333333","6500200","三重區"
"241023","545-UM","2019/07/02 16:39:25","新北市三重區忠孝路三段50巷47號","121.482983333333","25.0644516666667","6500200","三重區"
"241019","KEA-2593","2019/07/02 16:39:14","新北市三重區力行路一段139號","121.485758333333","25.0684816666667","6500200","三重區"
"241006","AAD-863","2019/07/02 16:39:16","新北市三重區力行路二段182-3號","121.483351666667","25.0774483333333","6500200","三重區"
"241022","743-BX","2019/07/02 16:39:27","新北市三重區新北大道一段116號","121.484741666667","25.06152","6500200","三重區"
"241025","887-TS","2019/07/02 16:39:17","新北市三重區中正北路430-5號","121.474565","25.0705533333333","6500200","三重區"
"241012","941-UM","2019/07/02 16:39:13","新北市三重區仁興街4巷33號","121.49918","25.07363","6500200","三重區"
"241033","AAC-255","2019/07/02 16:39:17","新北市三重區光復路二段131號","121.47215","25.0588483333333","6500200","三重區"
"235066","003-UY","2019/07/02 16:17:49","新北市中和區員山路36巷16-3號","121.484921666667","24.9913383333333","6500300","中和區"
"235062","800-TS","2019/07/02 16:31:48","新北市中和區員山路36巷16-3號","121.485125","24.9913766666667","6500300","中和區"
"228002","663-BX","2019/07/02 16:39:10","新北市貢寮區貢寮里朝陽街1-2號","121.912318333333","25.02123","6502600","貢寮區"
"224006","676-BX","2019/07/02 16:39:15","新北市瑞芳區大寮路356-1號","121.784685","25.1031166666667","6501200","瑞芳區"
"224007","285-BY","2019/07/02 16:39:13","新北市瑞芳區瑞竹路134號","121.761441666667","25.10405","6501200","瑞芳區"
"224009","275-VK","2019/07/02 16:39:15","新北市瑞芳區民權街3-1號","121.809351666667","25.1082966666667","6501200","瑞芳區"
"224008","273-VK","2019/07/02 16:39:27","新北市瑞芳區大寮路356-1號","121.78475","25.103215","6501200","瑞芳區"
"224005","271-BY","2019/07/02 16:39:24","新北市瑞芳區洞頂路210-4號","121.861351666667","25.124625","6501200","瑞芳區"
"227001","642-TC","2019/07/02 16:39:13","新北市雙溪區牡丹里聖南31號","121.853906666667","25.05571","6502500","雙溪區"
"227002","400-TW","2019/07/02 16:39:22","新北市雙溪區長源里土地公山1-1號","121.799451666667","25.0130316666667","6502500","雙溪區"
"251015","KEA-2871","2019/07/02 16:39:18","新北市淡水區中正路382號","121.42935","25.17528","6501000","淡水區"
"251016","179-VK","2019/07/02 16:39:21","新北市淡水區中山北路一段261號","121.444521666667","25.18086","6501000","淡水區"
"251008","181-VK","2019/07/02 16:39:08","新北市淡水區樹梅坑3號","121.471835","25.1464283333333","6501000","淡水區"
"251013","182-VK","2019/07/02 16:39:25","新北市淡水區楓樹湖3-6號","121.497166666667","25.189025","6501000","淡水區"
"251014","577-R6","2019/07/02 16:39:15","新北市淡水區淡金路四段476號","121.452011666667","25.22386","6501000","淡水區"
"251011","650-BX","2019/07/02 16:39:15","新北市淡水區中正路二段31號","121.41938","25.1817283333333","6501000","淡水區"
"252002","178-VK","2019/07/02 16:39:18","新北市三芝區晴光街2號","121.510591666667","25.25772","6502100","三芝區"
"252001","KED-0821","2019/07/02 16:39:08","新北市三芝區埔坪里埔頭坑61-1號","121.506936666667","25.2640733333333","6502100","三芝區"
"239007","AAC-297","2019/07/02 16:39:19","新北市鶯歌區二甲路13-16號","121.345065","24.9352016666667","6500800","鶯歌區"
"239008","527-UM","2019/07/02 16:39:10","新北市鶯歌區二甲路13-16號","121.34511","24.9350566666667","6500800","鶯歌區"
"233001","KEA-2870","2019/07/02 16:39:14","新北市烏來區啦卡路70-1號","121.565173333333","24.8560533333333","6502900","烏來區"
