"lineid","car","time","location","longitude","latitude","cityid","cityname"
"249005","172-UM","2019/07/02 16:49:11","新北市八里區大堀湖2-3號","121.422365","25.153665","6502300","八里區"
"249004","303-UY","2019/07/02 16:49:19","新北市八里區博物館路202巷92號","121.408571666667","25.1626433333333","6502300","八里區"
"249002","305-UY","2019/07/02 16:49:12","新北市八里區牛寮埔31號","121.429881666667","25.1457366666667","6502300","八里區"
"249003","593-UM","2019/07/02 16:49:22","新北市八里區中山路二段283號","121.40158","25.1486516666667","6502300","八里區"
"244007","080-UY","2019/07/02 16:49:18","新北市林口區林口路187巷31弄23號","121.387906666667","25.08114","6501700","林口區"
"244021","838-TS","2019/07/02 16:49:21","新北市林口區粉寮路二段160巷28號","121.405185","25.0907433333333","6501700","林口區"
"231046","719-UM","2019/07/02 16:47:54","新北市新店區灣潭路48-1號","121.542908333333","24.9450883333333","6500600","新店區"
"241011","013-R5","2019/07/02 16:49:23","新北市三重區仁愛街53巷158號","121.49977","25.072825","6500200","三重區"
"241028","022-UY","2019/07/02 16:49:20","新北市三重區光興街123號","121.496721666667","25.05984","6500200","三重區"
"241008","059-VK","2019/07/02 16:49:20","新北市三重區永安北路一段17巷17號","121.477626666667","25.0751033333333","6500200","三重區"
"241029","060-VK","2019/07/02 16:49:20","新北市三重區集美街257號","121.492391666667","25.0556583333333","6500200","三重區"
"241031","061-VK","2019/07/02 16:49:15","新北市三重區過圳街42-1號","121.48834","25.05969","6500200","三重區"
"241015","062-VK","2019/07/02 16:49:22","新北市三重區長元西街1號","121.498798333333","25.06573","6500200","三重區"
"241017","063-VK","2019/07/02 16:49:16","新北市三重區國隆路8巷39號","121.492551666667","25.063515","6500200","三重區"
"241024","065-VK","2019/07/02 16:49:13","新北市三重區中正北路317巷36號","121.476215","25.073165","6500200","三重區"
"241001","066-VK","2019/07/02 16:49:18","新北市三重區仁愛街192巷15號","121.493538333333","25.077025","6500200","三重區"
"241002","090-VK","2019/07/02 16:49:29","新北市三重區仁義街143巷116號","121.49937","25.08177","6500200","三重區"
"241030","742-BX","2019/07/02 16:49:13","新北市三重區中正南路261號","121.493128333333","25.0531766666667","6500200","三重區"
"241005","262-UM","2019/07/02 16:49:18","新北市三重區仁安街37號","121.48426","25.0840933333333","6500200","三重區"
"241016","266-UM","2019/07/02 16:49:22","新北市三重區大同北路115巷27號","121.49384","25.0649866666667","6500200","三重區"
"241009","267-UM","2019/07/02 16:49:25","新北市三重區溪尾街218巷28號","121.486908333333","25.0811333333333","6500200","三重區"
"241018","268-UM","2019/07/02 16:49:06","新北市三重區安樂街62號","121.495211666667","25.0693866666667","6500200","三重區"
"241032","269-UM","2019/07/02 16:49:13","新北市三重區三光街30巷1號","121.484811666667","25.0604733333333","6500200","三重區"
"241013","270-UM","2019/07/02 16:49:27","新北市三重區仁壽街36號","121.497271666667","25.07357","6500200","三重區"
"241007","398-BY","2019/07/02 16:49:19","新北市三重區三和路四段181巷140號","121.485603333333","25.0798683333333","6500200","三重區"
"241004","475-VK","2019/07/02 16:49:28","新北市三重區仁愛街397巷21號","121.492136666667","25.0815316666667","6500200","三重區"
"241020","478-VK","2019/07/02 16:49:27","新北市三重區忠孝路二段34號","121.485765","25.07099","6500200","三重區"
"241026","480-VK","2019/07/02 16:49:23","新北市三重區福和街33號","121.50148","25.0617366666667","6500200","三重區"
"241014","543-UM","2019/07/02 16:49:26","新北市三重區長榮路75號","121.502566666667","25.06911","6500200","三重區"
"241023","545-UM","2019/07/02 16:49:25","新北市三重區新北大道一段206巷15號","121.482466666667","25.0625666666667","6500200","三重區"
"241019","KEA-2593","2019/07/02 16:49:14","新北市三重區三張街149巷10弄3號","121.48629","25.0699883333333","6500200","三重區"
"241006","AAD-863","2019/07/02 16:49:16","新北市三重區車路頭街117巷26號","121.485003333333","25.0755516666667","6500200","三重區"
"241022","743-BX","2019/07/02 16:39:47","新北市三重區貴陽街14號","121.4842","25.0617233333333","6500200","三重區"
"241025","887-TS","2019/07/02 16:49:17","新北市三重區中正北路530巷27號","121.471988333333","25.0702866666667","6500200","三重區"
"241012","941-UM","2019/07/02 16:49:13","新北市三重區仁興街11巷70號","121.501731666667","25.07477","6500200","三重區"
"241033","AAC-255","2019/07/02 16:49:17","新北市三重區新北大道二段65號","121.469093333333","25.06101","6500200","三重區"
"247014","KEA-2869","2019/07/02 16:49:25","新北市蘆洲區三民路91-1號","121.473685","25.084455","6501400","蘆洲區"
"247008","KED-0682","2019/07/02 16:49:21","新北市蘆洲區中山一路174號","121.474383333333","25.0812516666667","6501400","蘆洲區"
"235062","800-TS","2019/07/02 16:31:48","新北市中和區員山路36巷16-3號","121.485125","24.9913766666667","6500300","中和區"
"247006","002-UY","2019/07/02 16:49:11","新北市蘆洲區永安南路二段132-1號","121.462585","25.078565","6501400","蘆洲區"
"228002","663-BX","2019/07/02 16:49:30","新北市貢寮區貢寮里長泰路28號","121.901033333333","25.0241133333333","6502600","貢寮區"
"228003","828-UM","2019/07/02 16:49:17","新北市貢寮區貢寮里朝陽街1-2號","121.912391666667","25.0212233333333","6502600","貢寮區"
"224006","676-BX","2019/07/02 16:49:15","新北市瑞芳區大寮路356-1號","121.784731666667","25.103105","6501200","瑞芳區"
"224007","285-BY","2019/07/02 16:49:13","新北市瑞芳區中央路48巷吉祥園8號","121.759516666667","25.1036816666667","6501200","瑞芳區"
"224009","275-VK","2019/07/02 16:49:15","新北市瑞芳區民權街3-1號","121.809346666667","25.1083183333333","6501200","瑞芳區"
"224008","273-VK","2019/07/02 16:49:27","新北市瑞芳區傑魚坑路81號","121.79288","25.1104366666667","6501200","瑞芳區"
"224005","271-BY","2019/07/02 16:49:24","新北市瑞芳區洞頂路157號","121.861348333333","25.122945","6501200","瑞芳區"
"227001","642-TC","2019/07/02 16:49:13","新北市雙溪區三貂里子崙坑1-6號","121.849916666667","25.05746","6502500","雙溪區"
"227002","400-TW","2019/07/02 16:49:22","新北市雙溪區長源里柑腳8號","121.804675","25.014575","6502500","雙溪區"
"251004","009-UM","2019/07/02 16:49:07","新北市淡水區中正路二段28號","121.4198","25.1817033333333","6501000","淡水區"
"251015","KEA-2871","2019/07/02 16:49:18","新北市淡水區學府路102巷33-5號","121.451883333333","25.17169","6501000","淡水區"
"251016","179-VK","2019/07/02 16:49:21","新北市淡水區水頭41號","121.478175","25.185055","6501000","淡水區"
"251008","181-VK","2019/07/02 16:49:28","新北市淡水區樹梅坑9號","121.473096666667","25.1425983333333","6501000","淡水區"
"251013","182-VK","2019/07/02 16:45:05","新北市淡水區泉洲厝32號","121.48921","25.1925083333333","6501000","淡水區"
"251012","441-VK","2019/07/02 16:49:28","新北市淡水區中正路二段31號","121.419278333333","25.1817783333333","6501000","淡水區"
"251007","442-VK","2019/07/02 16:49:12","新北市淡水區中正路一段156巷1號","121.420851666667","25.179995","6501000","淡水區"
"251014","577-R6","2019/07/02 16:49:15","新北市淡水區淡金路四段472巷22號","121.452465","25.2239216666667","6501000","淡水區"
"251011","650-BX","2019/07/02 16:49:15","新北市淡水區中正路一段1號","121.426848333333","25.175995","6501000","淡水區"
"252002","178-VK","2019/07/02 16:49:18","新北市三芝區忠孝街37號","121.506133333333","25.2557466666667","6502100","三芝區"
"252001","KED-0821","2019/07/02 16:49:28","新北市三芝區淡金路二段89號","121.503918333333","25.2607816666667","6502100","三芝區"
"242058","612-BX","2019/07/02 16:49:23","新北市新莊區新泰路357巷3弄57號","121.442135","25.039285","6500500","新莊區"
"242025","362-BY","2019/07/02 16:49:28","新北市新莊區三和路18-21號","121.441621666667","25.0386966666667","6500500","新莊區"
"242009","176-VK","2019/07/02 16:49:28","新北市新莊區三和路12-21號","121.442016666667","25.0385433333333","6500500","新莊區"
"239007","AAC-297","2019/07/02 16:49:19","新北市鶯歌區二甲路13-16號","121.34506","24.9351366666667","6500800","鶯歌區"
"239008","527-UM","2019/07/02 16:49:10","新北市鶯歌區二甲路13-16號","121.34502","24.935175","6500800","鶯歌區"
"239001","417-VK","2019/07/02 16:49:12","新北市鶯歌區二甲路12-2號","121.345593333333","24.93518","6500800","鶯歌區"
"233001","KEA-2870","2019/07/02 16:49:20","新北市烏來區啦卡路28號","121.55559","24.86046","6502900","烏來區"
