"lineid","car","time","location","longitude","latitude","cityid","cityname"
"249005","172-UM","2019/07/02 17:09:11","新北市八里區華富山8號","121.420911666667","25.141275","6502300","八里區"
"249001","173-UM","2019/07/02 17:09:21","新北市八里區中華路二段249-1號","121.403985","25.1483783333333","6502300","八里區"
"249004","303-UY","2019/07/02 17:09:19","新北市八里區忠孝路181號","121.422905","25.1607816666667","6502300","八里區"
"249002","305-UY","2019/07/02 17:09:12","新北市八里區米倉18號","121.440965","25.1497683333333","6502300","八里區"
"249003","593-UM","2019/07/02 17:09:22","新北市八里區中山路二段405號","121.397836666667","25.1466533333333","6502300","八里區"
"244007","080-UY","2019/07/02 17:09:18","新北市林口區菁埔路16鄰3號","121.379463333333","25.0958","6501700","林口區"
"244019","402-UM","2019/07/02 17:09:18","新北市林口區文化一路一段190巷7弄2-1號","121.380306666667","25.0749133333333","6501700","林口區"
"244013","KEA-2802","2019/07/02 17:09:30","新北市林口區粉寮69號","121.404793333333","25.0907933333333","6501700","林口區"
"244023","483-VK","2019/07/02 17:09:18","新北市林口區仁愛路一段665號","121.387776666667","25.0764733333333","6501700","林口區"
"244009","656-BX","2019/07/02 17:09:21","新北市林口區中湖43-6號","121.381425","25.0924983333333","6501700","林口區"
"244025","837-TS","2019/07/02 17:09:18","新北市林口區中山路250-1號","121.38589","25.0794466666667","6501700","林口區"
"244021","838-TS","2019/07/02 17:09:01","新北市林口區粉寮路二段46號","121.403583333333","25.0868716666667","6501700","林口區"
"231046","719-UM","2019/07/02 17:02:14","新北市新店區灣潭路15-2號","121.542605","24.9426866666667","6500600","新店區"
"241011","013-R5","2019/07/02 17:09:23","新北市三重區龍濱路251號","121.501545","25.0727366666667","6500200","三重區"
"241028","022-UY","2019/07/02 17:09:20","新北市三重區重新路三段108號","121.49236","25.060345","6500200","三重區"
"241008","059-VK","2019/07/02 17:09:20","新北市三重區力行路二段136巷17弄2號","121.4817","25.075695","6500200","三重區"
"241029","060-VK","2019/07/02 17:09:20","新北市三重區重新路三段150號","121.490918333333","25.059345","6500200","三重區"
"241031","061-VK","2019/07/02 17:09:22","新北市三重區重陽路一段113巷1弄1號","121.487265","25.059895","6500200","三重區"
"241015","062-VK","2019/07/02 17:09:22","新北市三重區長生街2-4號","121.498945","25.0662883333333","6500200","三重區"
"241017","063-VK","2019/07/02 17:09:15","新北市三重區國隆路26號","121.4924","25.0643033333333","6500200","三重區"
"241024","065-VK","2019/07/02 17:09:13","新北市三重區大勇街82巷24號","121.479393333333","25.0722433333333","6500200","三重區"
"241001","066-VK","2019/07/02 17:09:18","新北市三重區仁愛街269巷34號","121.493973333333","25.0793566666667","6500200","三重區"
"241002","090-VK","2019/07/02 17:09:23","新北市三重區自強路五段43號","121.494203333333","25.0813183333333","6500200","三重區"
"241003","091-VK","2019/07/02 17:09:23","新北市三重區富福街108號","121.493368333333","25.08557","6500200","三重區"
"241030","742-BX","2019/07/02 17:09:13","新北市三重區集成路32巷1號","121.48861","25.052745","6500200","三重區"
"241005","262-UM","2019/07/02 17:09:18","新北市三重區仁愛街705號","121.482633333333","25.080635","6500200","三重區"
"241016","266-UM","2019/07/02 17:09:14","新北市三重區中正北路25巷2號","121.49331","25.0627783333333","6500200","三重區"
"241009","267-UM","2019/07/02 17:09:25","新北市三重區仁愛街652號","121.482776666667","25.0804733333333","6500200","三重區"
"241018","268-UM","2019/07/02 17:09:26","新北市三重區大智街109號","121.491716666667","25.0695416666667","6500200","三重區"
"241032","269-UM","2019/07/02 17:09:12","新北市三重區興華街44號","121.485193333333","25.05974","6500200","三重區"
"241013","270-UM","2019/07/02 17:09:27","新北市三重區仁愛街88號","121.495456666667","25.073865","6500200","三重區"
"241007","398-BY","2019/07/02 17:09:19","新北市三重區三和路四段163巷14號","121.484385","25.07899","6500200","三重區"
"241004","475-VK","2019/07/02 17:09:28","新北市三重區五華街122巷3號","121.491636666667","25.0830383333333","6500200","三重區"
"241020","478-VK","2019/07/02 17:09:27","新北市三重區後竹圍街175巷5號","121.48583","25.0723616666667","6500200","三重區"
"241026","480-VK","2019/07/02 17:09:23","新北市三重區重新路一段51-2號","121.501853333333","25.0638833333333","6500200","三重區"
"241014","543-UM","2019/07/02 17:09:26","新北市三重區介壽路39巷168號","121.50207","25.0708733333333","6500200","三重區"
"241023","545-UM","2019/07/02 17:09:25","新北市三重區忠孝路三段84巷5號","121.480243333333","25.0644766666667","6500200","三重區"
"241019","KEA-2593","2019/07/02 17:09:17","新北市三重區三張街106號","121.487686666667","25.0700033333333","6500200","三重區"
"241022","743-BX","2019/07/02 17:09:07","新北市三重區重陽路二段22號","121.486608333333","25.0626483333333","6500200","三重區"
"241025","887-TS","2019/07/02 17:09:17","新北市三重區中正北路560巷39號","121.470901666667","25.070715","6500200","三重區"
"241012","941-UM","2019/07/02 17:09:13","新北市三重區仁壽街198號","121.500846666667","25.0748166666667","6500200","三重區"
"241033","AAC-255","2019/07/02 17:09:17","新北市三重區中興北街271號","121.469125","25.0606333333333","6500200","三重區"
"235064","005-UY","2019/07/02 17:09:25","新北市中和區員山路36巷16-3號","121.48513","24.9913033333333","6500300","中和區"
"247014","KEA-2869","2019/07/02 17:09:25","新北市蘆洲區中央路37巷15-17號","121.473166666667","25.0825133333333","6501400","蘆洲區"
"247008","KED-0682","2019/07/02 17:09:21","新北市蘆洲區信義路30巷28號","121.474385","25.0785466666667","6501400","蘆洲區"
"247004","893-R6","2019/07/02 17:09:16","新北市蘆洲區長安街193巷22號","121.459625","25.0814616666667","6501400","蘆洲區"
"247018","546-UM","2019/07/02 17:09:30","新北市蘆洲區復興路101-1號","121.476718333333","25.0877183333333","6501400","蘆洲區"
"247015","337-TH","2019/07/02 17:09:14","新北市蘆洲區長興路35號","121.463335","25.0836383333333","6501400","蘆洲區"
"247002","336-TH","2019/07/02 17:09:13","新北市蘆洲區永樂街77號","121.456078333333","25.0886283333333","6501400","蘆洲區"
"247022","057-VK","2019/07/02 17:09:22","新北市蘆洲區水湳街97號","121.470183333333","25.0903333333333","6501400","蘆洲區"
"247012","056-VK","2019/07/02 17:09:17","新北市蘆洲區信義路286號","121.47777","25.0873516666667","6501400","蘆洲區"
"247016","053-VK","2019/07/02 17:09:14","新北市蘆洲區光華路73巷27號","121.468468333333","25.0820366666667","6501400","蘆洲區"
"247020","007-UY","2019/07/02 17:09:22","新北市蘆洲區仁愛街62巷22號","121.472225","25.0942716666667","6501400","蘆洲區"
"247006","002-UY","2019/07/02 17:09:20","新北市蘆洲區中華街6巷40號","121.462631666667","25.0823816666667","6501400","蘆洲區"
"228001","212-TW","2019/07/02 17:09:25","新北市貢寮區仁理村研海街45號","121.925876666667","25.0424383333333","6502600","貢寮區"
"228002","663-BX","2019/07/02 17:09:10","新北市貢寮區雙玉里下雙溪街1號","121.91102","25.017325","6502600","貢寮區"
"228003","828-UM","2019/07/02 17:09:17","新北市貢寮區福隆里東興街10-6號","121.951186666667","25.0193133333333","6502600","貢寮區"
"224006","676-BX","2019/07/02 17:09:15","新北市瑞芳區大寮路101-2號","121.77862","25.09912","6501200","瑞芳區"
"224009","275-VK","2019/07/02 17:09:15","新北市瑞芳區濱二路30號","121.841183333333","25.1153216666667","6501200","瑞芳區"
"224008","273-VK","2019/07/02 17:09:27","新北市瑞芳區侯硐路45號","121.829793333333","25.088915","6501200","瑞芳區"
"224005","271-BY","2019/07/02 17:09:24","新北市瑞芳區鼻頭路247號","121.911561666667","25.12302","6501200","瑞芳區"
"227001","642-TC","2019/07/02 17:09:13","新北市雙溪區三貂里政光路13-8號","121.850446666667","25.068975","6502500","雙溪區"
"227002","400-TW","2019/07/02 17:09:22","新北市雙溪區上林里新寮子6號","121.838948333333","25.03112","6502500","雙溪區"
"251004","009-UM","2019/07/02 17:09:07","新北市淡水區中正東路二段88巷15號","121.45907","25.150495","6501000","淡水區"
"251015","KEA-2871","2019/07/02 17:09:18","新北市淡水區鄧公路36巷9號","121.456485","25.1691433333333","6501000","淡水區"
"251016","179-VK","2019/07/02 17:09:21","新北市淡水區社厝坑3-11號","121.475098333333","25.18878","6501000","淡水區"
"251008","181-VK","2019/07/02 17:09:28","新北市淡水區樹梅坑6號","121.47249","25.1454883333333","6501000","淡水區"
"251013","182-VK","2019/07/02 17:09:25","新北市淡水區桂花樹1-3號","121.482683333333","25.196325","6501000","淡水區"
"251010","413-VK","2019/07/02 17:09:15","新北市淡水區中正路二段31號","121.419488333333","25.1814766666667","6501000","淡水區"
"251012","441-VK","2019/07/02 17:09:08","新北市淡水區中山北路一段158號","121.44419","25.1778633333333","6501000","淡水區"
"251007","442-VK","2019/07/02 17:09:28","新北市淡水區中正東路二段88巷37-28號","121.45963","25.1432016666667","6501000","淡水區"
"251005","443-VK","2019/07/02 17:09:20","新北市淡水區水源街一段147號","121.447501666667","25.1717833333333","6501000","淡水區"
"251006","561-UM","2019/07/02 17:09:12","新北市淡水區真理街6號","121.43845","25.1745533333333","6501000","淡水區"
"251009","575-R6","2019/07/02 17:09:07","新北市淡水區中正路一段156巷1號","121.420898333333","25.1799266666667","6501000","淡水區"
"251014","577-R6","2019/07/02 17:09:15","新北市淡水區八里堆9-1號","121.463323333333","25.2236783333333","6501000","淡水區"
"251011","650-BX","2019/07/02 17:09:15","新北市淡水區坪頂路51巷2號","121.457983333333","25.1626516666667","6501000","淡水區"
"252002","178-VK","2019/07/02 17:09:18","新北市三芝區忠孝街1-37號","121.505806666667","25.2533916666667","6502100","三芝區"
"233002","762-BX","2019/07/02 17:09:10","新北市烏來區環山路171號","121.548738333333","24.8569783333333","6502900","烏來區"
"247010","KED-0683","2019/07/02 17:09:21","新北市蘆洲區民族路10號","121.47573","25.083955","6501400","蘆洲區"
"252001","KED-0821","2019/07/02 17:09:28","新北市三芝區埔頭里埔頭37號","121.498405","25.26028","6502100","三芝區"
"242039","AAC-296","2019/07/02 17:09:28","新北市新莊區新泰路357巷3弄51號","121.442326666667","25.0400183333333","6500500","新莊區"
"242002","751-BX","2019/07/02 17:09:26","新北市新莊區新泰路357巷3弄1號","121.442281666667","25.041325","6500500","新莊區"
"242029","615-BX","2019/07/02 17:09:19","新北市新莊區三和路18-25號","121.441735","25.039305","6500500","新莊區"
"242027","613-BX","2019/07/02 17:09:16","新北市新莊區三和路12-21號","121.44199","25.0386133333333","6500500","新莊區"
"242058","612-BX","2019/07/02 17:09:23","新北市新莊區新泰路357巷3弄57號","121.442046666667","25.03917","6500500","新莊區"
"242046","566-BX","2019/07/02 17:09:14","新北市新莊區三和路12-21號","121.442368333333","25.03854","6500500","新莊區"
"242051","497-BY","2019/07/02 17:09:18","新北市新莊區中正路473-1號","121.441978333333","25.0331116666667","6500500","新莊區"
"242011","413-TV","2019/07/02 17:09:15","新北市新莊區新泰路357巷3弄57號","121.441986666667","25.0391516666667","6500500","新莊區"
"242048","400-BY","2019/07/02 17:09:22","新北市新莊區中正路408號","121.441238333333","25.0338666666667","6500500","新莊區"
"242025","362-BY","2019/07/02 17:09:28","新北市新莊區三和路18-21號","121.441728333333","25.038835","6500500","新莊區"
"242023","353-BY","2019/07/02 17:09:05","新北市新莊區新泰路357巷3弄57號","121.441808333333","25.0392266666667","6500500","新莊區"
"242013","132-UY","2019/07/02 17:09:18","新北市新莊區三和路12-21號","121.441915","25.0388533333333","6500500","新莊區"
"242015","173-VK","2019/07/02 17:09:11","新北市新莊區三和路12-21號","121.442088333333","25.03846","6500500","新莊區"
"242021","175-VK","2019/07/02 17:09:28","新北市新莊區三和路12-21號","121.441943333333","25.0385783333333","6500500","新莊區"
"242009","176-VK","2019/07/02 17:09:28","新北市新莊區三和路12-21號","121.441945","25.038465","6500500","新莊區"
"242019","KED-0687","2019/07/02 17:09:21","新北市新莊區公園一路75巷13號","121.442471666667","25.0383233333333","6500500","新莊區"
"242034","348-TH","2019/07/02 17:09:19","新北市新莊區三和路12-21號","121.441821666667","25.038795","6500500","新莊區"
"242007","349-TH","2019/07/02 17:09:10","新北市新莊區三和路12-21號","121.442378333333","25.0383166666667","6500500","新莊區"
"242032","350-TH","2019/07/02 17:09:21","新北市新莊區新泰路255巷83號","121.44206","25.0389383333333","6500500","新莊區"
"242017","351-TH","2019/07/02 17:09:17","新北市新莊區新泰路357巷3弄57號","121.44195","25.03955","6500500","新莊區"
"238023","601-UM","2019/07/02 17:09:28","新北市樹林區中山路二段204號","121.411075","24.9820783333333","6500700","樹林區"
"238018","KEA-2217","2019/07/02 17:09:20","新北市樹林區博愛街215號","121.424001666667","24.9870483333333","6500700","樹林區"
"238017","283-BY","2019/07/02 17:09:08","新北市樹林區大安路415號","121.415441666667","24.98877","6500700","樹林區"
"238014","282-BY","2019/07/02 17:09:20","新北市樹林區中山路二段237號","121.4022","24.9758966666667","6500700","樹林區"
"238020","268-VK","2019/07/02 17:09:25","新北市樹林區千歲街101-2號","121.428531666667","25.0008883333333","6500700","樹林區"
"238016","169-UY","2019/07/02 17:09:14","新北市樹林區鎮前街299號","121.417985","24.985045","6500700","樹林區"
"239007","AAC-297","2019/07/02 17:09:19","新北市鶯歌區文化路134號","121.351925","24.9513783333333","6500800","鶯歌區"
"239006","891-R6","2019/07/02 17:09:28","新北市鶯歌區中正二路190號","121.340021666667","24.9480283333333","6500800","鶯歌區"
"239008","527-UM","2019/07/02 17:09:10","新北市鶯歌區尖山路68號","121.348938333333","24.9494033333333","6500800","鶯歌區"
"239001","417-VK","2019/07/02 17:09:12","新北市鶯歌區尖山路140巷6弄1號","121.346631666667","24.9489466666667","6500800","鶯歌區"
"239002","359-BY","2019/07/02 17:09:12","新北市鶯歌區建國路136號","121.351318333333","24.9539716666667","6500800","鶯歌區"
"239004","193-VK","2019/07/02 17:09:24","新北市鶯歌區文化路300號","121.35245","24.946785","6500800","鶯歌區"
"233001","KEA-2870","2019/07/02 17:09:14","新北市烏來區環山路32號","121.54892","24.8635033333333","6502900","烏來區"
"242044","281-VK","2019/07/02 17:09:29","新北市新莊區新泰路357巷3弄45號","121.441833333333","25.0401733333333","6500500","新莊區"
