"lineid","car","time","location","longitude","latitude","cityid","cityname"
"234026","9371-KE","2019/07/02 17:49:24","新北市永和區永平路180巷7號","121.510976666667","25.0096133333333","6500400","永和區"
"249005","172-UM","2019/07/02 17:49:11","新北市八里區荖阡坑路34-2號","121.402548333333","25.1303833333333","6502300","八里區"
"249001","173-UM","2019/07/02 17:49:21","新北市八里區龍米路二段147-1號","121.442983333333","25.1503266666667","6502300","八里區"
"249004","303-UY","2019/07/02 17:49:19","新北市八里區中華路一段81巷18號","121.419613333333","25.1556183333333","6502300","八里區"
"249002","305-UY","2019/07/02 17:49:12","新北市八里區龍形五街37巷6號","121.448953333333","25.1326766666667","6502300","八里區"
"249003","593-UM","2019/07/02 17:49:22","新北市八里區文昌二街37號","121.409523333333","25.15575","6502300","八里區"
"248020","KED-0813","2019/07/02 17:49:16","新北市五股區中興路二段57-6號","121.460396666667","25.07552","6501500","五股區"
"248004","677-BX","2019/07/02 17:49:15","新北市五股區中興路二段37巷26號","121.460478333333","25.0751166666667","6501500","五股區"
"232011","375-UM","2019/07/02 17:49:08","新北市坪林區北宜路八段29號","121.703558333333","24.9359466666667","6502000","坪林區"
"244007","080-UY","2019/07/02 17:49:19","新北市林口區林口路127號","121.388746666667","25.0810516666667","6501700","林口區"
"244019","402-UM","2019/07/02 17:49:18","新北市林口區忠孝路563-6號","121.373388333333","25.0680366666667","6501700","林口區"
"244013","KEA-2802","2019/07/02 17:49:16","新北市林口區中山路135號","121.388521666667","25.0790116666667","6501700","林口區"
"244023","483-VK","2019/07/02 17:49:18","新北市林口區東湖路10號","121.388908333333","25.0741333333333","6501700","林口區"
"244017","485-VK","2019/07/02 17:49:20","新北市林口區文化二路一段230巷15號","121.370831666667","25.0724516666667","6501700","林口區"
"244009","656-BX","2019/07/02 17:49:21","新北市林口區竹林路582巷7號","121.386173333333","25.08327","6501700","林口區"
"244011","701-TV","2019/07/02 17:49:22","新北市林口區仁愛路一段386巷2號","121.38791","25.0772","6501700","林口區"
"244025","837-TS","2019/07/02 17:49:18","新北市林口區忠孝三路一段110號","121.359675","25.0714166666667","6501700","林口區"
"244021","838-TS","2019/07/02 17:49:21","新北市林口區新寮29號","121.399135","25.066725","6501700","林口區"
"222003","436-BY","2019/07/02 17:49:28","新北市深坑區阿柔洋60-1號","121.608245","24.99878","6501800","深坑區"
"222002","659-BX","2019/07/02 17:49:16","新北市深坑區平埔街22巷17弄1號","121.614908333333","25.0008633333333","6501800","深坑區"
"241024","065-VK","2019/07/02 17:49:13","新北市三重區力行路二段9巷12號","121.482998333333","25.0723833333333","6500200","三重區"
"241016","266-UM","2019/07/02 17:49:14","新北市三重區新北大道一段56號","121.487483333333","25.0615766666667","6500200","三重區"
"241025","887-TS","2019/07/02 17:49:17","新北市五股區天乙路101-6號","121.444866666667","25.1070133333333","6500200","三重區"
"241033","AAC-255","2019/07/02 17:49:17","新北市三重區光復路一段5號","121.472096666667","25.04701","6500200","三重區"
"235064","005-UY","2019/07/02 17:49:11","新北市中和區員山路36巷16-3號","121.485006666667","24.9912683333333","6500300","中和區"
"235063","006-UY","2019/07/02 17:49:26","新北市中和區員山路36巷16-3號","121.485078333333","24.9912316666667","6500300","中和區"
"235065","098-UM","2019/07/02 17:49:26","新北市中和區連城路469巷79弄8號","121.483651666667","24.9936266666667","6500300","中和區"
"235058","151-BY","2019/07/02 17:49:26","新北市中和區錦和路350-1號","121.490218333333","24.99357","6500300","中和區"
"247014","KEA-2869","2019/07/02 17:49:25","新北市蘆洲區保和街69巷16號","121.469613333333","25.08547","6501400","蘆洲區"
"247008","KED-0682","2019/07/02 17:49:21","新北市蘆洲區中山一路285號","121.471926666667","25.07951","6501400","蘆洲區"
"235053","900-TW","2019/07/02 17:49:29","新北市中和區員山路36巷16-2號","121.485201666667","24.9914266666667","6500300","中和區"
"235054","911-UM","2019/07/02 17:49:25","新北市中和區員山路36巷16-2號","121.485306666667","24.991845","6500300","中和區"
"235037","AAC-213","2019/07/02 17:49:21","新北市中和區中正路395號","121.489805","24.9935683333333","6500300","中和區"
"247004","893-R6","2019/07/02 17:49:16","新北市蘆洲區長榮路211巷8號","121.46046","25.0848433333333","6501400","蘆洲區"
"247018","546-UM","2019/07/02 17:49:10","新北市蘆洲區復興路227巷2弄11號","121.480488333333","25.090255","6501400","蘆洲區"
"247015","337-TH","2019/07/02 17:49:14","新北市蘆洲區光榮路61巷20號","121.461235","25.088955","6501400","蘆洲區"
"247002","336-TH","2019/07/02 17:49:13","新北市蘆洲區永平街32巷21弄31號","121.458128333333","25.0921366666667","6501400","蘆洲區"
"247022","057-VK","2019/07/02 17:49:22","新北市蘆洲區中正路491號","121.461993333333","25.0963366666667","6501400","蘆洲區"
"247012","056-VK","2019/07/02 17:49:17","新北市蘆洲區復興路170號","121.477611666667","25.0883633333333","6501400","蘆洲區"
"247016","053-VK","2019/07/02 17:49:14","新北市蘆洲區中正路185巷23弄7號","121.467228333333","25.0844333333333","6501400","蘆洲區"
"247020","007-UY","2019/07/02 17:49:22","新北市蘆洲區民義街71巷17號","121.472585","25.09058","6501400","蘆洲區"
"247006","002-UY","2019/07/02 17:49:31","新北市蘆洲區九芎街141號","121.465471666667","25.079375","6501400","蘆洲區"
"228001","212-TW","2019/07/02 17:49:25","新北市貢寮區仁理村仁愛路95-1號","121.927738333333","25.05545","6502600","貢寮區"
"228002","663-BX","2019/07/02 17:49:09","新北市貢寮區福隆里龜壽谷街26號","121.952691666667","25.0083783333333","6502600","貢寮區"
"228003","828-UM","2019/07/02 17:49:17","新北市貢寮區真理里延平街72-5號","121.925256666667","25.0584216666667","6502600","貢寮區"
"224006","676-BX","2019/07/02 17:49:15","新北市瑞芳區瑞興新村12巷1號","121.788415","25.1082983333333","6501200","瑞芳區"
"224009","275-VK","2019/07/02 17:49:14","新北市瑞芳區新山路197號","121.850783333333","25.1089083333333","6501200","瑞芳區"
"224008","273-VK","2019/07/02 17:49:27","新北市瑞芳區明燈路一段220號","121.818271666667","25.10863","6501200","瑞芳區"
"224005","271-BY","2019/07/02 17:49:24","新北市瑞芳區瑞濱路5號","121.827303333333","25.121675","6501200","瑞芳區"
"253006","032-BX","2019/07/02 17:49:14","新北市石門區老崩山2-1號","121.554043333333","25.29193","6502200","石門區"
"251004","009-UM","2019/07/02 17:49:11","新北市淡水區民權一街17巷1號","121.4587","25.1367283333333","6501000","淡水區"
"251002","012-UM","2019/07/02 17:49:16","新北市淡水區中山路98號","121.442546666667","25.170715","6501000","淡水區"
"251015","KEA-2871","2019/07/02 17:48:38","新北市淡水區興福寮1-8號","121.489475","25.1648883333333","6501000","淡水區"
"251016","179-VK","2019/07/02 17:49:21","新北市淡水區埤島39-15號","121.45274","25.1958783333333","6501000","淡水區"
"251008","181-VK","2019/07/02 17:49:28","新北市淡水區八勢路一段123巷10號","121.466593333333","25.157155","6501000","淡水區"
"251013","182-VK","2019/07/02 17:47:45","新北市淡水區泉洲厝31號","121.479366666667","25.1910216666667","6501000","淡水區"
"251010","413-VK","2019/07/02 17:49:15","新北市淡水區淡海路252號","121.420135","25.1871316666667","6501000","淡水區"
"251012","441-VK","2019/07/02 17:49:28","新北市淡水區北新路一段337號","121.4662","25.1822083333333","6501000","淡水區"
"251007","442-VK","2019/07/02 17:49:28","新北市淡水區民生路16巷27號","121.461661666667","25.1375516666667","6501000","淡水區"
"251005","443-VK","2019/07/02 17:49:28","新北市淡水區學府路104號","121.449965","25.1718633333333","6501000","淡水區"
"251006","561-UM","2019/07/02 17:49:12","新北市淡水區大信街1巷25號","121.440103333333","25.17676","6501000","淡水區"
"251009","575-R6","2019/07/02 17:49:27","新北市淡水區長興街8號","121.443911666667","25.1706783333333","6501000","淡水區"
"251014","577-R6","2019/07/02 17:49:15","新北市淡水區公埔子16-6號","121.481065","25.224555","6501000","淡水區"
"251011","650-BX","2019/07/02 17:49:15","新北市淡水區小坪頂13-3號","121.486618333333","25.1561766666667","6501000","淡水區"
"251003","673-BX","2019/07/02 17:49:24","新北市淡水區大忠街8號","121.44311","25.176275","6501000","淡水區"
"207003","550-UM","2019/07/02 17:49:25","新北市萬里區野柳里東澳路66號","121.692815","25.2009533333333","6502800","萬里區"
"207004","225-TW","2019/07/02 17:49:27","新北市萬里區萬里里瑪鋉頂街61號","121.688386666667","25.180475","6502800","萬里區"
"252002","178-VK","2019/07/02 17:49:18","新北市三芝區智成街43號","121.504103333333","25.2563416666667","6502100","三芝區"
"208001","170-UY","2019/07/02 17:49:17","新北市金山區磺清路121號","121.639485","25.2279283333333","6502700","金山區"
"237004","KEA-2597","2019/07/02 17:49:28","新北市三峽區中山路124號","121.365563333333","24.9359916666667","6500900","三峽區"
"237009","210-TH","2019/07/02 17:49:25","新北市三峽區大勇路27號","121.3672","24.9363266666667","6500900","三峽區"
"237013","252-BX","2019/07/02 17:49:29","新北市三峽區愛國路33-9號","121.374865","24.932855","6500900","三峽區"
"237014","433-BY","2019/07/02 17:49:28","新北市三峽區文化路120巷3號","121.37099","24.93646","6500900","三峽區"
"237012","280-TH","2019/07/02 17:49:24","新北市三峽區文化路117號","121.37021","24.9360616666667","6500900","三峽區"
"237006","5529-G3","2019/07/02 17:49:28","新北市三峽區介壽路二段38巷10-3號","121.391573333333","24.9350816666667","6500900","三峽區"
"237011","KEA-2596","2019/07/02 17:49:18","新北市三峽區民權街132號","121.368588333333","24.931915","6500900","三峽區"
"237010","706-TV","2019/07/02 17:49:18","新北市三峽區復興路235號","121.368241666667","24.9387","6500900","三峽區"
"237005","AKY-6261","2019/07/02 17:49:19","新北市三峽區中山路240號","121.362421666667","24.93746","6500900","三峽區"
"236042","KED-0685","2019/07/02 17:49:22","新北市土城區城林路6巷80號","121.438461666667","24.9795533333333","6501300","土城區"
"233002","762-BX","2019/07/02 17:49:10","新北市烏來區烏來街29號","121.551323333333","24.8653216666667","6502900","烏來區"
"236079","166-UM","2019/07/02 17:49:12","新北市土城區中華路二段90號","121.438375","24.97484","6501300","土城區"
"236030","253-BX","2019/07/02 17:49:20","新北市土城區城林路6巷80號","121.438576666667","24.97959","6501300","土城區"
"236014","270-VK","2019/07/02 17:49:27","新北市土城區城林路6巷80號","121.438505","24.9797783333333","6501300","土城區"
"236038","271-VK","2019/07/02 17:49:25","新北市土城區城林路6巷80號","121.438458333333","24.9797666666667","6501300","土城區"
"247010","KED-0683","2019/07/02 17:49:21","新北市蘆洲區民族路48號","121.476938333333","25.0845033333333","6501400","蘆洲區"
"236070","KEA-2877","2019/07/02 17:49:25","新北市土城區裕生路83巷16弄14號","121.447195","24.9835183333333","6501300","土城區"
"252001","KED-0821","2019/07/02 17:49:08","新北市三芝區中興街一段37號","121.497646666667","25.25785","6502100","三芝區"
"236021","401-BY","2019/07/02 17:49:23","新北市土城區城林路6巷80號","121.438518333333","24.9795983333333","6501300","土城區"
"236059","912-UM","2019/07/02 17:49:24","新北市土城區中華路二段221號","121.43753","24.97284","6501300","土城區"
"236049","913-UM","2019/07/02 17:49:18","新北市土城區城林路6巷80號","121.438536666667","24.9795566666667","6501300","土城區"
"236063","915-UM","2019/07/02 17:49:09","新北市土城區城林路6巷80號","121.438661666667","24.97962","6501300","土城區"
"242039","AAC-296","2019/07/02 17:49:27","新北市新莊區民安路162號","121.424783333333","25.0245133333333","6500500","新莊區"
"242061","986-R7","2019/07/02 17:49:18","新北市新莊區瓊林南路103巷8弄21號","121.435201666667","25.0113433333333","6500500","新莊區"
"242002","751-BX","2019/07/02 17:49:26","新北市新莊區景德路119號","121.451405","25.0342733333333","6500500","新莊區"
"242029","615-BX","2019/07/02 17:49:19","新北市新莊區復興路一段31號","121.446393333333","25.0418733333333","6500500","新莊區"
"242027","613-BX","2019/07/02 17:49:16","新北市新莊區福壽街146號","121.457895","25.0520483333333","6500500","新莊區"
"242058","612-BX","2019/07/02 17:49:23","新北市新莊區中正路698號","121.418808333333","25.0278366666667","6500500","新莊區"
"242046","566-BX","2019/07/02 17:49:14","新北市新莊區建國一路48號","121.434078333333","25.031145","6500500","新莊區"
"242051","497-BY","2019/07/02 17:49:18","新北市新莊區西盛街232巷16號","121.427331666667","25.0164583333333","6500500","新莊區"
"242005","440-UM","2019/07/02 17:49:24","新北市新莊區自立街258號","121.459281666667","25.0454933333333","6500500","新莊區"
"242042","415-TV","2019/07/02 17:49:12","新北市泰山區新北大道六段369號","121.422475","25.0328316666667","6500500","新莊區"
"242011","413-TV","2019/07/02 17:49:19","新北市新莊區中港路689號","121.450735","25.0566116666667","6500500","新莊區"
"242048","400-BY","2019/07/02 17:49:22","新北市新莊區萬安街78號","121.42084","25.0230683333333","6500500","新莊區"
"242025","362-BY","2019/07/02 17:49:28","新北市新莊區思源路601號","121.460106666667","25.0604533333333","6500500","新莊區"
"242023","353-BY","2019/07/02 17:49:25","新北市新莊區民樂街109號","121.457823333333","25.044155","6500500","新莊區"
"242013","132-UY","2019/07/02 17:49:18","新北市新莊區中誠街166巷8號","121.44806","25.047905","6500500","新莊區"
"242037","135-UY","2019/07/02 17:49:21","新北市新莊區後港一路87號","121.427546666667","25.02675","6500500","新莊區"
"242054","172-VK","2019/07/02 17:49:13","新北市新莊區民安西路468-1號","121.43168","25.00797","6500500","新莊區"
"242015","173-VK","2019/07/02 17:49:11","新北市新莊區新泰路462號","121.443356666667","25.0447966666667","6500500","新莊區"
"242021","175-VK","2019/07/02 17:49:28","新北市新莊區中港路141號","121.455173333333","25.0406483333333","6500500","新莊區"
"242009","176-VK","2019/07/02 17:49:08","新北市新莊區昌明街30巷5弄1號","121.456721666667","25.0527916666667","6500500","新莊區"
"242019","KED-0687","2019/07/02 17:49:21","新北市新莊區中港路264號","121.453515","25.0437666666667","6500500","新莊區"
"242056","346-TH","2019/07/02 17:49:25","新北市新莊區瓊林路40巷34號","121.44653","25.0302483333333","6500500","新莊區"
"242034","348-TH","2019/07/02 17:49:19","新北市新莊區新莊路692號","121.440636666667","25.03274","6500500","新莊區"
"242007","349-TH","2019/07/02 17:49:10","新北市新莊區福樂街63號","121.457373333333","25.0476383333333","6500500","新莊區"
"242032","350-TH","2019/07/02 17:49:28","新北市新莊區新泰路305巷37號","121.443621666667","25.0409683333333","6500500","新莊區"
"242017","351-TH","2019/07/02 17:49:24","新北市新莊區永安街46號","121.451466666667","25.044845","6500500","新莊區"
"238015","755-BX","2019/07/02 17:49:22","新北市樹林區復興路61號","121.42195","24.9932933333333","6500700","樹林區"
"238023","601-UM","2019/07/02 17:49:29","新北市樹林區龍興街35號","121.403206666667","25.015835","6500700","樹林區"
"238019","599-UM","2019/07/02 17:49:24","新北市樹林區太順街5巷1號","121.420191666667","24.9800233333333","6500700","樹林區"
"238024","5061-A6","2019/07/02 17:49:13","新北市樹林區保安二街8-1號","121.42527","24.9942033333333","6500700","樹林區"
"238018","KEA-2217","2019/07/02 17:49:21","新北市樹林區鎮前街142號","121.424628333333","24.9904783333333","6500700","樹林區"
"238022","KEA-2213","2019/07/02 17:49:20","新北市樹林區太順街62巷2號","121.41793","24.9794116666667","6500700","樹林區"
"238021","KEA-2539","2019/07/02 17:49:22","新北市樹林區田尾街48-5號","121.409263333333","24.9615433333333","6500700","樹林區"
"238025","303-VK","2019/07/02 17:49:14","新北市樹林區三俊街81巷2號","121.415708333333","25.0155033333333","6500700","樹林區"
"238017","283-BY","2019/07/02 17:49:28","新北市樹林區三德街64號","121.41631","25.0144083333333","6500700","樹林區"
"238014","282-BY","2019/07/02 17:49:20","新北市樹林區保安街一段220號","121.420661666667","24.9962083333333","6500700","樹林區"
"238020","268-VK","2019/07/02 17:49:25","新北市樹林區俊英街168號","121.426583333333","25.0069683333333","6500700","樹林區"
"238026","172-UY","2019/07/02 17:49:28","新北市樹林區新興街19巷6號","121.400448333333","24.9728766666667","6500700","樹林區"
"238016","169-UY","2019/07/02 17:49:14","新北市樹林區工興街10號","121.40101","25.013705","6500700","樹林區"
"239007","AAC-297","2019/07/02 17:49:19","新北市鶯歌區鶯桃路170巷4號","121.337398333333","24.955495","6500800","鶯歌區"
"239006","891-R6","2019/07/02 17:49:28","新北市鶯歌區福昌街30號","121.332796666667","24.9609966666667","6500800","鶯歌區"
"239008","527-UM","2019/07/02 17:49:10","新北市鶯歌區大湖路590巷11號","121.336091666667","24.9742216666667","6500800","鶯歌區"
"239005","526-UM","2019/07/02 17:49:13","新北市鶯歌區鶯桃路434號","121.332985","24.9645716666667","6500800","鶯歌區"
"239001","417-VK","2019/07/02 17:49:12","新北市鶯歌區中正三路412號","121.32455","24.9347033333333","6500800","鶯歌區"
"239003","360-BY","2019/07/02 17:49:11","新北市鶯歌區鶯桃路260號","121.335806666667","24.9597333333333","6500800","鶯歌區"
"239002","359-BY","2019/07/02 17:49:12","新北市鶯歌區育賢街50號","121.343791666667","24.954495","6500800","鶯歌區"
"239004","193-VK","2019/07/02 17:49:24","新北市鶯歌區文化路138-5號","121.352088333333","24.95111","6500800","鶯歌區"
"221008","489-VK","2019/07/02 17:49:29","新北市汐止區康寧街901號","121.651403333333","25.07506","6501100","汐止區"
"221010","269-BY","2019/07/02 17:49:11","新北市汐止區汐萬路二段50號","121.64954","25.08185","6501100","汐止區"
"221029","298-VK","2019/07/02 17:49:26","新北市汐止區康寧街901號","121.651698333333","25.074955","6501100","汐止區"
"221031","353-TW","2019/07/02 17:49:17","新北市汐止區康寧街901號","121.650928333333","25.07521","6501100","汐止區"
"233001","KEA-2870","2019/07/02 17:49:14","新北市烏來區瀑布路4號","121.551525","24.849575","6502900","烏來區"
"242044","281-VK","2019/07/02 17:49:09","新北市新莊區富國路87號","121.420481666667","25.0260033333333","6500500","新莊區"
