"lineid","car","time","location","longitude","latitude","cityid","cityname"
"234007","KED-0605","2019/07/02 18:19:14","新北市永和區環河西路二段219號","121.50124","25.0101966666667","6500400","永和區"
"234026","9371-KE","2019/07/02 18:19:16","新北市永和區豫溪街42巷6號","121.515456666667","25.0094866666667","6500400","永和區"
"249005","172-UM","2019/07/02 18:19:31","新北市八里區荖阡坑路15-16號","121.400256666667","25.1404833333333","6502300","八里區"
"249001","173-UM","2019/07/02 18:19:21","新北市八里區龍米路一段198號","121.451918333333","25.1277616666667","6502300","八里區"
"249004","303-UY","2019/07/02 18:19:19","新北市八里區龍米路二段232巷3號","121.431571666667","25.158965","6502300","八里區"
"249002","305-UY","2019/07/02 18:19:12","新北市八里區龍形三街9巷2號","121.450631666667","25.1317483333333","6502300","八里區"
"248016","026-BX","2019/07/02 18:19:17","新北市五股區成泰路三段477巷18號","121.44987","25.0988583333333","6501500","五股區"
"248006","077-UY","2019/07/02 18:19:22","新北市五股區中興路一段94號","121.466481666667","25.0732116666667","6501500","五股區"
"248008","KED-0815","2019/07/02 18:19:29","新北市五股區更洲路32巷26號","121.459236666667","25.0800766666667","6501500","五股區"
"248020","KED-0813","2019/07/02 18:19:17","新北市五股區孝義路47巷7-4號","121.453861666667","25.11033","6501500","五股區"
"248012","247-BX","2019/07/02 18:19:09","新北市五股區御史路2號","121.442305","25.0901783333333","6501500","五股區"
"248014","261-SL","2019/07/02 18:19:24","新北市五股區自強路19巷11號","121.434638333333","25.0736933333333","6501500","五股區"
"248010","272-BY","2019/07/02 18:19:17","新北市五股區成泰路一段187號","121.434898333333","25.07651","6501500","五股區"
"248004","677-BX","2019/07/02 18:19:15","新北市五股區成泰路二段222-2號","121.439083333333","25.08543","6501500","五股區"
"234074","AAC-211","2019/07/02 18:19:30","新北市永和區福和路1號","121.526545","25.0099183333333","6500400","永和區"
"232011","375-UM","2019/07/02 18:19:28","新北市坪林區坪雙路一段41號","121.71171","24.942435","6502000","坪林區"
"244007","080-UY","2019/07/02 18:19:18","新北市林口區後湖11-63號","121.387051666667","25.0975933333333","6501700","林口區"
"244019","402-UM","2019/07/02 18:19:18","新北市林口區忠孝路580巷19號","121.37523","25.0671783333333","6501700","林口區"
"244013","KEA-2802","2019/07/02 18:19:30","新北市林口區中山路258號","121.38519","25.0797683333333","6501700","林口區"
"244023","483-VK","2019/07/02 18:19:18","新北市林口區仁愛路二段119號","121.383683333333","25.0749133333333","6501700","林口區"
"244017","485-VK","2019/07/02 18:19:20","新北市林口區八德路56號","121.36633","25.0660066666667","6501700","林口區"
"244009","656-BX","2019/07/02 18:19:21","新北市林口區文林一街115巷11號","121.37881","25.0877216666667","6501700","林口區"
"244011","701-TV","2019/07/02 18:19:22","新北市林口區竹林路35號","121.386506666667","25.0776466666667","6501700","林口區"
"244025","837-TS","2019/07/02 18:19:18","新北市林口區南勢七街51號","121.3557","25.0690416666667","6501700","林口區"
"244021","838-TS","2019/07/02 18:19:21","新北市林口區自強一街20號","121.398363333333","25.0782233333333","6501700","林口區"
"243012","AAD-798","2019/07/02 18:19:25","新北市泰山區黎明路33號","121.421848333333","25.0605816666667","6501600","泰山區"
"222003","436-BY","2019/07/02 18:19:28","新北市深坑區旺耽路67號","121.62628","25.0030066666667","6501800","深坑區"
"222002","659-BX","2019/07/02 18:19:16","新北市深坑區雲鄉路1號","121.621028333333","24.9999616666667","6501800","深坑區"
"231061","002-UM","2019/07/02 18:19:23","新北市新店區安華路28-1號","121.519581666667","24.9608283333333","6500600","新店區"
"231058","0293-UT","2019/07/02 18:19:31","新北市新店區安康路一段35-5號","121.531893333333","24.9606266666667","6500600","新店區"
"231044","046-UY","2019/07/02 18:19:29","新北市新店區安華路28-1號","121.519636666667","24.9608566666667","6500600","新店區"
"231060","106-UY","2019/07/02 18:19:23","新北市新店區安華路28-1號","121.519618333333","24.960835","6500600","新店區"
"231051","107-UY","2019/07/02 18:19:16","新北市新店區安一路一段1-1號","121.519538333333","24.9613566666667","6500600","新店區"
"231065","KEA-2219","2019/07/02 18:19:24","新北市新店區安一路一段1-1號","121.519805","24.9612316666667","6500600","新店區"
"221025","KEA-2785","2019/07/02 18:19:14","新北市汐止區勤進路12巷15號","121.659375","25.06201","6501100","汐止區"
"231054","260-TV","2019/07/02 18:19:17","新北市新店區安一路一段1-1號","121.519233333333","24.9611883333333","6500600","新店區"
"231042","268-BY","2019/07/02 18:19:16","新北市新店區安一路一段1-1號","121.519748333333","24.9611783333333","6500600","新店區"
"231050","AAD-862","2019/07/02 18:19:27","新北市新店區安一路一段1-1號","121.519686666667","24.9612033333333","6500600","新店區"
"231045","355-BY","2019/07/02 18:19:15","新北市新店區安華路28-1號","121.519413333333","24.9609133333333","6500600","新店區"
"231055","4716-K9","2019/07/02 18:19:17","新北市新店區安康路一段110巷2號","121.527296666667","24.9626366666667","6500600","新店區"
"231056","4715-K9","2019/07/02 18:19:31","新北市新店區中央路232號","121.529458333333","24.972635","6500600","新店區"
"231067","4772-VM","2019/07/02 18:19:17","新北市新店區安華路1-1號","121.519188333333","24.960545","6500600","新店區"
"231053","513-UM","2019/07/02 18:19:25","新北市新店區安一路一段1-1號","121.519695","24.9611616666667","6500600","新店區"
"231041","619-UM","2019/07/02 18:19:17","新北市新店區安華路28-1號","121.519528333333","24.96087","6500600","新店區"
"231063","641-BX","2019/07/02 18:19:25","新北市新店區安華路28-1號","121.519496666667","24.9605733333333","6500600","新店區"
"231048","KED-0819","2019/07/02 18:19:25","新北市新店區安一路一段1-1號","121.519621666667","24.96123","6500600","新店區"
"231057","720-UM","2019/07/02 18:19:18","新北市新店區安一路一段1-1號","121.519398333333","24.9613133333333","6500600","新店區"
"231040","898-TW","2019/07/02 18:19:21","新北市新店區安華路28-1號","121.519453333333","24.9608966666667","6500600","新店區"
"231043","899-TW","2019/07/02 18:19:21","新北市新店區安華路28-1號","121.519323333333","24.9608666666667","6500600","新店區"
"231066","AKT-0513","2019/07/02 18:19:13","新北市新店區安一路一段1-1號","121.519666666667","24.9614333333333","6500600","新店區"
"241025","887-TS","2019/07/02 18:18:57","新北市八里區荖阡坑路34-2號","121.40116","25.13022","6500200","三重區"
"241033","AAC-255","2019/07/02 18:19:17","新北市三重區中興北街42巷13號","121.469003333333","25.0493633333333","6500200","三重區"
"235066","003-UY","2019/07/02 18:19:10","新北市中和區中山路二段122號","121.502611666667","25.0036333333333","6500300","中和區"
"235064","005-UY","2019/07/02 18:19:31","新北市中和區中正路158號","121.498655","24.9940266666667","6500300","中和區"
"235063","006-UY","2019/07/02 18:19:26","新北市中和區中正路540號","121.48745","24.994365","6500300","中和區"
"235056","096-UM","2019/07/02 18:19:25","新北市中和區員山路568號","121.478795","25.01078","6500300","中和區"
"235039","097-UM","2019/07/02 18:19:24","新北市中和區景平路353號","121.504838333333","24.993515","6500300","中和區"
"235065","098-UM","2019/07/02 18:19:26","新北市中和區莊敬路49巷18號","121.501691666667","25.0060833333333","6500300","中和區"
"235040","150-BY","2019/07/02 18:19:22","新北市中和區景安路72號","121.505786666667","24.9965766666667","6500300","中和區"
"235058","151-BY","2019/07/02 18:19:27","新北市中和區圓通路369巷35號","121.489211666667","24.986595","6500300","中和區"
"235055","183-VK","2019/07/02 18:19:19","新北市中和區莒光路222-7號","121.46916","24.9948333333333","6500300","中和區"
"235038","185-VK","2019/07/02 18:19:20","新北市中和區大智街42巷32號","121.522766666667","24.992055","6500300","中和區"
"235049","186-VK","2019/07/02 18:19:21","新北市中和區中正路395號","121.489891666667","24.9935533333333","6500300","中和區"
"235072","301-VK","2019/07/02 18:19:16","新北市中和區連城路249巷2號","121.493346666667","24.9969416666667","6500300","中和區"
"235042","KEA-2878","2019/07/02 18:19:28","新北市中和區大仁街20巷25弄39號","121.519565","24.993705","6500300","中和區"
"235050","4979-A6","2019/07/02 18:19:16","新北市中和區捷運路12-1號","121.509116666667","24.9899233333333","6500300","中和區"
"235069","4980-A6","2019/07/02 18:19:15","新北市中和區連城路133-1號","121.49597","24.998945","6500300","中和區"
"235070","558-UM","2019/07/02 18:19:22","新北市中和區景平路445號","121.500838333333","24.9961816666667","6500300","中和區"
"235045","565-BX","2019/07/02 18:19:13","新北市中和區景安路247號","121.504015","24.99072","6500300","中和區"
"235060","KED-0823","2019/07/02 18:19:30","新北市中和區員山路395號","121.48114","25.0029716666667","6500300","中和區"
"235047","732-UM","2019/07/02 18:19:12","新北市中和區中正路175號","121.497545","24.9935683333333","6500300","中和區"
"235062","800-TS","2019/07/02 18:19:23","新北市中和區景平路989巷4號","121.4954","25.0052533333333","6500300","中和區"
"235057","801-TS","2019/07/02 18:19:27","新北市中和區民享街97巷16號","121.475258333333","24.9997333333333","6500300","中和區"
"235041","802-TS","2019/07/02 18:19:16","新北市中和區中正路19號","121.50284","24.9934083333333","6500300","中和區"
"235052","805-TS","2019/07/02 18:19:27","新北市中和區捷運路100-1號","121.50616","24.9913283333333","6500300","中和區"
"235048","896-TW","2019/07/02 18:19:27","新北市中和區錦和路350-1號","121.49021","24.9935233333333","6500300","中和區"
"235053","900-TW","2019/07/02 18:19:09","新北市中和區員山路36巷16-8號","121.485408333333","24.9922266666667","6500300","中和區"
"235054","911-UM","2019/07/02 18:19:25","新北市中和區民享街116號","121.474428333333","24.9988833333333","6500300","中和區"
"235051","157-BY","2019/07/02 18:19:14","新北市中和區信義街2-7號","121.51074","24.9897316666667","6500300","中和區"
"235037","AAC-213","2019/07/02 18:19:21","新北市中和區景德街95-2號","121.515483333333","24.9911133333333","6500300","中和區"
"235059","AAC-215","2019/07/02 18:19:20","新北市中和區員山路36巷16-3號","121.485041666667","24.991315","6500300","中和區"
"220069","AAD-861","2019/07/02 18:19:17","新北市板橋區華東街1-10號","121.448361666667","24.9950616666667","6500100","板橋區"
"247015","337-TH","2019/07/02 18:11:55","新北市五股區中興路三段163號","121.449136666667","25.0808516666667","6501400","蘆洲區"
"226004","312-R5","2019/07/02 18:19:18","新北市平溪區薯榔里雙菁路101號","121.711508333333","25.0197266666667","6502400","平溪區"
"228001","212-TW","2019/07/02 18:19:25","新北市貢寮區真理里新港街26巷55弄2-1號","121.927038333333","25.0525866666667","6502600","貢寮區"
"228002","663-BX","2019/07/02 18:19:29","新北市貢寮區福連里福興街24-1號","121.990981666667","25.0120583333333","6502600","貢寮區"
"228003","828-UM","2019/07/02 18:19:17","新北市貢寮區真理里美艷山街63號","121.92078","25.0721","6502600","貢寮區"
"224006","676-BX","2019/07/02 18:19:15","新北市瑞芳區民權街3-2號","121.808028333333","25.1073933333333","6501200","瑞芳區"
"224007","285-BY","2019/07/02 18:19:13","新北市瑞芳區大埔路67巷21號","121.764228333333","25.1017533333333","6501200","瑞芳區"
"224009","275-VK","2019/07/02 18:19:14","新北市瑞芳區祈堂路184號","121.857681666667","25.1096116666667","6501200","瑞芳區"
"224008","273-VK","2019/07/02 18:19:27","新北市瑞芳區逢甲路34號","121.811403333333","25.1083666666667","6501200","瑞芳區"
"224005","271-BY","2019/07/02 18:19:24","新北市瑞芳區建基新村7-4號","121.812196666667","25.1314883333333","6501200","瑞芳區"
"227001","642-TC","2019/07/02 18:19:19","新北市雙溪區牡丹里牡丹73號","121.851778333333","25.0593433333333","6502500","雙溪區"
"227002","400-TW","2019/07/02 18:19:26","新北市雙溪區共和里泰和街31號","121.860908333333","25.0333283333333","6502500","雙溪區"
"253006","032-BX","2019/07/02 18:19:14","新北市石門區老梅路67號","121.545918333333","25.2892733333333","6502200","石門區"
"253005","295-VK","2019/07/02 18:19:20","新北市石門區中央路46號","121.567978333333","25.2930466666667","6502200","石門區"
"222001","KEA-2212","2019/07/02 18:19:28","新北市深坑區北深路二段54號","121.619203333333","25.00441","6501800","深坑區"
"208002","KEA-2872","2019/07/02 18:19:14","新北市金山區磺清路121號","121.639675","25.2279033333333","6502700","金山區"
"208003","665-BX","2019/07/02 18:19:23","新北市金山區民生路88號","121.648246666667","25.2237766666667","6502700","金山區"
"251004","009-UM","2019/07/02 18:19:11","新北市淡水區民族路152號","121.462556666667","25.13377","6501000","淡水區"
"251002","012-UM","2019/07/02 18:19:16","新北市淡水區中正東路一段125號","121.455155","25.15944","6501000","淡水區"
"251015","KEA-2871","2019/07/02 18:18:57","新北市淡水區興福寮88巷1號","121.485131666667","25.1647816666667","6501000","淡水區"
"251016","179-VK","2019/07/02 18:19:21","新北市淡水區下圭柔山34-3號","121.450501666667","25.20492","6501000","淡水區"
"251008","181-VK","2019/07/02 18:19:08","新北市淡水區淡金路57號","121.456286666667","25.1613533333333","6501000","淡水區"
"251013","182-VK","2019/07/02 18:17:45","新北市淡水區破瓦厝子1-10號","121.47534","25.1999033333333","6501000","淡水區"
"251010","413-VK","2019/07/02 18:19:15","新北市淡水區淡海路180巷12-3號","121.420463333333","25.1847266666667","6501000","淡水區"
"251012","441-VK","2019/07/02 18:19:28","新北市淡水區北新路二段77-5號","121.480601666667","25.18557","6501000","淡水區"
"251005","443-VK","2019/07/02 18:19:20","新北市淡水區水源街一段122巷37號","121.447078333333","25.1704366666667","6501000","淡水區"
"251001","559-UM","2019/07/02 18:19:21","新北市淡水區自強路108-19號","121.461643333333","25.131365","6501000","淡水區"
"251006","561-UM","2019/07/02 18:19:12","新北市淡水區新民街76巷36弄2號","121.43934","25.1778483333333","6501000","淡水區"
"251009","575-R6","2019/07/02 18:19:27","新北市淡水區中山北路二段375號","121.44408","25.18712","6501000","淡水區"
"251014","577-R6","2019/07/02 18:19:23","新北市淡水區崙頂16號","121.491911666667","25.2215116666667","6501000","淡水區"
"251011","650-BX","2019/07/02 18:19:15","新北市淡水區三空泉9-2號","121.4741","25.1635383333333","6501000","淡水區"
"251003","673-BX","2019/07/02 18:19:24","新北市淡水區北新路180號","121.449405","25.1785966666667","6501000","淡水區"
"207003","550-UM","2019/07/02 18:19:25","新北市萬里區野柳里港東路8號","121.686828333333","25.2034183333333","6502800","萬里區"
"207004","225-TW","2019/07/02 18:19:26","新北市萬里區中幅里中福路185號","121.673876666667","25.1655066666667","6502800","萬里區"
"252002","178-VK","2019/07/02 18:19:18","新北市三芝區中山路二段38號","121.502983333333","25.255165","6502100","三芝區"
"252003","249-BX","2019/07/02 18:19:08","新北市三芝區錫板里南勢崗5-5號","121.480736666667","25.2631266666667","6502100","三芝區"
"208001","170-UY","2019/07/02 18:19:17","新北市金山區自強路13號","121.640405","25.216445","6502700","金山區"
"237004","KEA-2597","2019/07/02 18:19:28","新北市三峽區五寮6號","121.375836666667","24.8714766666667","6500900","三峽區"
"237007","153-BY","2019/07/02 18:19:14","新北市三峽區中正路二段582號","121.359281666667","24.9059733333333","6500900","三峽區"
"237009","210-TH","2019/07/02 18:19:25","新北市三峽區中山路106巷18-7號","121.366136666667","24.937065","6500900","三峽區"
"237013","252-BX","2019/07/02 18:19:13","新北市三峽區永安街46-2號","121.37668","24.9305066666667","6500900","三峽區"
"237008","302-VK","2019/07/02 18:19:15","新北市三峽區白雞68-303號","121.391536666667","24.90993","6500900","三峽區"
"237014","433-BY","2019/07/02 18:19:08","新北市三峽區復興路110巷2弄7號","121.373058333333","24.9379966666667","6500900","三峽區"
"237012","280-TH","2019/07/02 18:19:24","新北市三峽區民生街1巷3-18號","121.37816","24.9364283333333","6500900","三峽區"
"237006","5529-G3","2019/07/02 18:19:08","新北市三峽區溪東路240號","121.408393333333","24.9316333333333","6500900","三峽區"
"237011","KEA-2596","2019/07/02 18:19:18","新北市三峽區溪東路209號","121.404606666667","24.933425","6500900","三峽區"
"237015","649-BX","2019/07/02 18:19:20","新北市三峽區竹崙路10號","121.426621666667","24.92272","6500900","三峽區"
"237010","706-TV","2019/07/02 18:19:18","新北市三峽區民權街147號","121.368801666667","24.9316966666667","6500900","三峽區"
"237005","AKY-6261","2019/07/02 18:19:19","新北市三峽區長福街10號","121.37036","24.9337383333333","6500900","三峽區"
"236042","KED-0685","2019/07/02 18:19:22","新北市土城區樂利街3巷32號","121.448573333333","24.9864766666667","6501300","土城區"
"233002","762-BX","2019/07/02 18:19:30","新北市烏來區金堰23號","121.55176","24.8837766666667","6502900","烏來區"
"236079","166-UM","2019/07/02 18:19:12","新北市土城區永平街15巷8號","121.428638333333","24.96265","6501300","土城區"
"236030","253-BX","2019/07/02 18:19:20","新北市土城區順風路24號","121.440733333333","24.97671","6501300","土城區"
"236026","269-VK","2019/07/02 18:19:22","新北市土城區承天路18號","121.439496666667","24.9634116666667","6501300","土城區"
"236014","270-VK","2019/07/02 18:19:27","新北市土城區青雲路39巷5號","121.460305","24.9876066666667","6501300","土城區"
"236038","271-VK","2019/07/02 18:19:25","新北市土城區青雲路521巷5號","121.459263333333","24.9731666666667","6501300","土城區"
"236070","KEA-2877","2019/07/02 18:19:25","新北市土城區明德路一段307號","121.45967","24.9771766666667","6501300","土城區"
"252001","KED-0821","2019/07/02 18:19:28","新北市三芝區中興街二段2號","121.498373333333","25.25659","6502100","三芝區"
"236021","401-BY","2019/07/02 18:19:23","新北市土城區明德路一段219號","121.463251666667","24.9784383333333","6501300","土城區"
"236059","912-UM","2019/07/02 18:19:23","新北市土城區中央路四段426-2號","121.410921666667","24.95179","6501300","土城區"
"236049","913-UM","2019/07/02 18:19:18","新北市土城區明德路一段375-1號","121.45471","24.9782266666667","6501300","土城區"
"236063","915-UM","2019/07/02 18:19:29","新北市土城區金城路三段115號","121.467718333333","24.9877683333333","6501300","土城區"
"236055","AAC-216","2019/07/02 18:19:30","新北市土城區中華路二段98號","121.438185","24.97443","6501300","土城區"
"242039","AAC-296","2019/07/02 18:19:27","新北市新莊區新樹路419號","121.432665","25.01414","6500500","新莊區"
"242061","986-R7","2019/07/02 18:19:18","新北市新莊區新樹路194號","121.434215","25.0209183333333","6500500","新莊區"
"242002","751-BX","2019/07/02 18:19:25","新北市新莊區碧江街18-7號","121.455388333333","25.034585","6500500","新莊區"
"242029","615-BX","2019/07/02 18:19:19","新北市泰山區泰林路一段2-1號","121.44205","25.0479233333333","6500500","新莊區"
"242027","613-BX","2019/07/02 18:19:16","新北市新莊區幸福路599號","121.453383333333","25.049145","6500500","新莊區"
"242058","612-BX","2019/07/02 18:19:23","新北市新莊區新北大道七段626號","121.412111666667","25.028465","6500500","新莊區"
"242046","566-BX","2019/07/02 18:19:14","新北市新莊區福營路338號","121.42161","25.0268066666667","6500500","新莊區"
"242051","497-BY","2019/07/02 18:19:22","新北市新莊區民安西路39號","121.42754","25.02089","6500500","新莊區"
"242042","415-TV","2019/07/02 18:19:12","新北市新莊區天祥街121巷19號","121.414153333333","25.028905","6500500","新莊區"
"242011","413-TV","2019/07/02 18:19:15","新北市新莊區中港路591巷13號","121.450516666667","25.0524366666667","6500500","新莊區"
"242048","400-BY","2019/07/02 18:19:22","新北市新莊區萬安街67巷9號","121.42183","25.0239483333333","6500500","新莊區"
"242025","362-BY","2019/07/02 18:19:28","新北市新莊區五權一路92號","121.459416666667","25.067525","6500500","新莊區"
"242013","132-UY","2019/07/02 18:19:18","新北市新莊區環漢路三段1號","121.442305","25.0242833333333","6500500","新莊區"
"242054","172-VK","2019/07/02 18:19:13","新北市新莊區民安西路410巷12弄2號","121.427875","25.009035","6500500","新莊區"
"242015","173-VK","2019/07/02 18:19:11","新北市新莊區中平路184巷10弄3號","121.44547","25.048205","6500500","新莊區"
"242021","175-VK","2019/07/02 18:19:28","新北市新莊區新興街14號","121.450713333333","25.0362916666667","6500500","新莊區"
"242009","176-VK","2019/07/02 18:19:28","新北市新莊區中華路二段212號","121.452951666667","25.05239","6500500","新莊區"
"242056","346-TH","2019/07/02 18:19:18","新北市新莊區豐年街豐2巷23號","121.447471666667","25.0308433333333","6500500","新莊區"
"242007","349-TH","2019/07/02 18:19:18","新北市新莊區自治街38號","121.454121666667","25.0478966666667","6500500","新莊區"
"242032","350-TH","2019/07/02 18:19:28","新北市新莊區新泰路255巷36號","121.444695","25.0396533333333","6500500","新莊區"
"242017","351-TH","2019/07/02 18:19:17","新北市新莊區新泰路357巷3弄57號","121.442036666667","25.0394983333333","6500500","新莊區"
"238015","755-BX","2019/07/02 18:19:21","新北市樹林區文化街112巷31號","121.417228333333","24.9907166666667","6500700","樹林區"
"238023","601-UM","2019/07/02 18:19:28","新北市樹林區三福街114號","121.406475","25.0163566666667","6500700","樹林區"
"238019","599-UM","2019/07/02 18:19:24","新北市樹林區國凱街140巷18號","121.424056666667","24.9801316666667","6500700","樹林區"
"238024","5061-A6","2019/07/02 18:19:27","新北市樹林區中山路一段137巷7號","121.42278","24.98958","6500700","樹林區"
"238018","KEA-2217","2019/07/02 18:19:20","新北市樹林區保安街一段20巷26號","121.42821","24.9943116666667","6500700","樹林區"
"238025","303-VK","2019/07/02 18:19:24","新北市樹林區保安街一段122號","121.423363333333","24.995025","6500700","樹林區"
"238017","283-BY","2019/07/02 18:19:28","新北市樹林區保安街二段337巷8弄2號","121.411246666667","25.008275","6500700","樹林區"
"238014","282-BY","2019/07/02 18:19:20","新北市樹林區大安路117號","121.422521666667","24.997705","6500700","樹林區"
"238020","268-VK","2019/07/02 18:19:25","新北市樹林區三俊街65巷18弄40號","121.415283333333","25.0171783333333","6500700","樹林區"
"238026","172-UY","2019/07/02 18:19:28","新北市樹林區佳園路一段94號","121.393648333333","24.96875","6500700","樹林區"
"238016","169-UY","2019/07/02 17:54:14","新北市樹林區工興街10號","121.40101","25.013705","6500700","樹林區"
"239007","AAC-297","2019/07/02 18:19:19","新北市鶯歌區尖山埔路64號","121.348461666667","24.9510733333333","6500800","鶯歌區"
"239006","891-R6","2019/07/02 18:19:28","新北市鶯歌區鶯桃路524-1號","121.331533333333","24.9667083333333","6500800","鶯歌區"
"239008","527-UM","2019/07/02 18:19:10","新北市鶯歌區明圓街21號","121.336208333333","24.9772666666667","6500800","鶯歌區"
"239005","526-UM","2019/07/02 18:19:13","新北市鶯歌區福隆二街5號","121.325368333333","24.9721333333333","6500800","鶯歌區"
"239001","417-VK","2019/07/02 18:19:32","新北市鶯歌區國中街197號","121.338245","24.9391466666667","6500800","鶯歌區"
"239003","360-BY","2019/07/02 18:19:11","新北市鶯歌區永吉街18號","121.336031666667","24.9578233333333","6500800","鶯歌區"
"239002","359-BY","2019/07/02 18:19:32","新北市鶯歌區中山路202-1號","121.346295","24.9571233333333","6500800","鶯歌區"
"239004","193-VK","2019/07/02 18:19:24","新北市鶯歌區黃厝街7巷10號","121.343741666667","24.9464033333333","6500800","鶯歌區"
"221036","130-UY","2019/07/02 18:19:24","新北市汐止區大同路三段203號","121.6715","25.0771833333333","6501100","汐止區"
"221015","131-UY","2019/07/02 18:19:29","新北市汐止區長江街367-1號","121.668171666667","25.0824566666667","6501100","汐止區"
"221010","269-BY","2019/07/02 18:19:11","新北市汐止區祥雲街18巷1號","121.646488333333","25.0899233333333","6501100","汐止區"
"221012","278-VK","2019/07/02 18:19:30","新北市汐止區保一街81-1號","121.67461","25.0802416666667","6501100","汐止區"
"221023","279-VK","2019/07/02 18:19:21","新北市汐止區中興路201號","121.629228333333","25.0684416666667","6501100","汐止區"
"221032","280-BY","2019/07/02 18:19:23","新北市汐止區力行街40號","121.616381666667","25.0501766666667","6501100","汐止區"
"221027","281-BY","2019/07/02 18:19:18","新北市汐止區和平街11號","121.663118333333","25.0706783333333","6501100","汐止區"
"221033","297-VK","2019/07/02 18:19:13","新北市汐止區宜興街50巷2號","121.622511666667","25.0423683333333","6501100","汐止區"
"221021","299-VK","2019/07/02 18:19:23","新北市汐止區龍安路21號","121.655486666667","25.0639766666667","6501100","汐止區"
"221031","353-TW","2019/07/02 18:19:17","新北市汐止區中興路194號","121.631565","25.0658416666667","6501100","汐止區"
"221035","622-UM","2019/07/02 18:19:18","新北市汐止區汐萬路一段10號","121.656113333333","25.0673633333333","6501100","汐止區"
"221038","646-BX","2019/07/02 18:19:21","新北市汐止區仁愛路202號","121.664906666667","25.0659033333333","6501100","汐止區"
"221002","707-TV","2019/07/02 18:19:18","新北市汐止區福德一路201巷32號","121.635856666667","25.0648966666667","6501100","汐止區"
"221018","753-BX","2019/07/02 18:19:25","新北市汐止區茄苳路88巷6弄1號","121.666713333333","25.0700466666667","6501100","汐止區"
"224002","257-TC","2019/07/02 18:19:14","新北市瑞芳區三爪子坑路91巷2號","121.811596666667","25.1072566666667","6501200","瑞芳區"
"242044","281-VK","2019/07/02 18:19:25","新北市新莊區中正路726-17號","121.41497","25.0239966666667","6500500","新莊區"
"220073","985-R7","2019/07/02 18:19:20","新北市板橋區華東街1-10號","121.448231666667","24.9950133333333","6500100","板橋區"
"235068","KEA-2873","2019/07/02 18:19:20","新北市中和區員山路36巷16-3號","121.485095","24.9912316666667","6500300","中和區"
"235061","KEA-2875","2019/07/02 18:19:13","新北市中和區民享街116巷22號","121.473685","24.9990516666667","6500300","中和區"
"235043","KEA-2876","2019/07/02 18:19:21","新北市中和區景平路377號","121.504071666667","24.9932216666667","6500300","中和區"
