"lineid","car","time","location","longitude","latitude","cityid","cityname"
"234046","148-BY","2019/07/02 19:09:31","新北市永和區永元路18巷9號","121.523051666667","25.0002466666667","6500400","永和區"
"234081","298-R6","2019/07/02 19:09:28","新北市永和區福和路57巷9號","121.52305","25.0074083333333","6500400","永和區"
"234038","336-UY","2019/07/02 19:09:29","新北市永和區民樂街90巷1號","121.52731","24.9973533333333","6500400","永和區"
"234064","337-UY","2019/07/02 19:09:28","新北市永和區秀朗路二段33號","121.521265","25.00241","6500400","永和區"
"234086","338-UY","2019/07/02 19:09:25","新北市永和區永貞路114號","121.518816666667","25.0045116666667","6500400","永和區"
"234070","552-UM","2019/07/02 19:09:13","新北市永和區豫溪街95巷8號","121.518176666667","25.01076","6500400","永和區"
"234017","745-BX","2019/07/02 19:09:15","新北市永和區文化路90巷3弄2號","121.513908333333","25.0155716666667","6500400","永和區"
"234030","746-BX","2019/07/02 19:09:20","新北市永和區民生路23號","121.522841666667","24.9988383333333","6500400","永和區"
"234054","KEA-2590","2019/07/02 19:09:22","新北市永和區中興街133巷8號","121.518621666667","25.012625","6500400","永和區"
"234007","KED-0605","2019/07/02 19:09:14","新北市永和區中山路一段170號","121.509313333333","25.0090866666667","6500400","永和區"
"234013","KEA-2591","2019/07/02 19:09:28","新北市永和區永和路二段85號","121.514818333333","25.0113333333333","6500400","永和區"
"234061","AAD-866","2019/07/02 19:09:15","新北市永和區安樂路336號","121.514436666667","25.0059716666667","6500400","永和區"
"234042","862-TW","2019/07/02 19:09:30","新北市永和區永貞路334號","121.511205","25.0054866666667","6500400","永和區"
"234050","863-TW","2019/07/02 19:09:21","新北市永和區保福路二段94巷6號","121.510565","25.01371","6500400","永和區"
"234026","9371-KE","2019/07/02 19:09:16","新北市永和區安樂路272巷9弄7號","121.515063333333","25.00461","6500400","永和區"
"234011","9373-KE","2019/07/02 19:09:11","新北市永和區保福路二段44巷2弄10號","121.51163","25.0119266666667","6500400","永和區"
"249005","172-UM","2019/07/02 19:09:31","新北市八里區中華路三段27號","121.39644","25.1429716666667","6502300","八里區"
"249001","173-UM","2019/07/02 19:09:21","新北市八里區龍米路二段230-1號","121.431866666667","25.158505","6502300","八里區"
"249003","593-UM","2019/07/02 19:09:23","新北市八里區博物館路29號","121.413805","25.1626233333333","6502300","八里區"
"248016","026-BX","2019/07/02 19:09:17","新北市五股區成泰路三段543巷52-1號","121.449731666667","25.1030433333333","6501500","五股區"
"248006","077-UY","2019/07/02 19:09:30","新北市五股區四維路117號","121.467565","25.0736816666667","6501500","五股區"
"248008","KED-0815","2019/07/02 19:09:29","新北市五股區中興路一段118巷6弄33號","121.466336666667","25.07534","6501500","五股區"
"248020","KED-0813","2019/07/02 19:09:17","新北市五股區凌雲路三段57號","121.425303333333","25.1250133333333","6501500","五股區"
"248012","247-BX","2019/07/02 19:09:29","新北市五股區中興路四段48巷16號","121.438608333333","25.08341","6501500","五股區"
"248010","272-BY","2019/07/02 19:09:17","新北市五股區自強路90巷72號","121.430665","25.0712383333333","6501500","五股區"
"248004","677-BX","2019/07/02 19:09:15","新北市五股區六合街2號","121.432118333333","25.08834","6501500","五股區"
"248002","678-BX","2019/07/02 19:09:16","新北市五股區凌雲路一段158巷6號","121.447798333333","25.10297","6501500","五股區"
"234023","9380-KE","2019/07/02 19:09:20","新北市永和區勵行街72巷21號","121.51635","25.0125066666667","6500400","永和區"
"234077","969-R7","2019/07/02 19:09:15","新北市永和區民族街45號","121.518648333333","24.9984266666667","6500400","永和區"
"234074","AAC-211","2019/07/02 19:09:09","新北市永和區福和路39號","121.523575","25.007905","6500400","永和區"
"234067","AAC-212","2019/07/02 19:09:31","新北市永和區保平路39號","121.51203","25.00727","6500400","永和區"
"234003","AAC-295","2019/07/02 19:09:16","新北市永和區保福路一段96號","121.511988333333","25.01047","6500400","永和區"
"244019","402-UM","2019/07/02 19:09:26","新北市林口區文化二路一段498號","121.376176666667","25.07849","6501700","林口區"
"244013","KEA-2802","2019/07/02 19:09:30","新北市林口區麗園一街4巷2號","121.376396666667","25.0706733333333","6501700","林口區"
"244023","483-VK","2019/07/02 19:09:18","新北市林口區文林六街20號","121.371115","25.0805516666667","6501700","林口區"
"244017","485-VK","2019/07/02 19:09:20","新北市林口區公園路90號","121.369496666667","25.0705083333333","6501700","林口區"
"244011","701-TV","2019/07/02 19:09:22","新北市林口區林口路7號","121.391693333333","25.0776933333333","6501700","林口區"
"244025","837-TS","2019/07/02 19:09:18","新北市林口區文化三路一段447巷55-1號","121.366681666667","25.0748966666667","6501700","林口區"
"243012","AAD-798","2019/07/02 19:09:25","新北市泰山區辭修路10-11號","121.429643333333","25.0580266666667","6501600","泰山區"
"243010","297-R6","2019/07/02 19:09:23","新北市泰山區明志路一段408號","121.430691666667","25.0570766666667","6501600","泰山區"
"243014","KEA-2801","2019/07/02 19:09:30","新北市泰山區泰林路二段480號","121.425101666667","25.0640816666667","6501600","泰山區"
"243016","421-VK","2019/07/02 19:09:32","新北市泰山區明志路二段341號","121.425565","25.04459","6501600","泰山區"
"243009","KEA-2215","2019/07/02 19:09:15","新北市泰山區福德街11號","121.43218","25.0626566666667","6501600","泰山區"
"243011","KEA-2216","2019/07/02 19:09:20","新北市泰山區明志路二段318號","121.42618","25.0460266666667","6501600","泰山區"
"243013","646-TV","2019/07/02 19:09:25","新北市泰山區明志路三段277號","121.423163333333","25.036795","6501600","泰山區"
"243015","680-BX","2019/07/02 19:09:27","新北市泰山區明志路一段350號","121.430968333333","25.058505","6501600","泰山區"
"222003","436-BY","2019/07/02 19:09:28","新北市深坑區深南路162號","121.626098333333","25.0149716666667","6501800","深坑區"
"222002","659-BX","2019/07/02 19:09:16","新北市深坑區紅葉街61號","121.632273333333","25.0138566666667","6501800","深坑區"
"231061","002-UM","2019/07/02 19:09:23","新北市新店區安康路一段267號","121.524146666667","24.9634116666667","6500600","新店區"
"231058","0293-UT","2019/07/02 19:09:31","新北市新店區光明街98號","121.539068333333","24.960315","6500600","新店區"
"231044","046-UY","2019/07/02 19:09:29","新北市新店區寶中路45-2號","121.544915","24.9794583333333","6500600","新店區"
"231060","106-UY","2019/07/02 19:09:23","新北市新店區安康路二段310號","121.505916666667","24.9581083333333","6500600","新店區"
"231051","107-UY","2019/07/02 19:09:16","新北市新店區中正路409巷46號","121.533376666667","24.9766733333333","6500600","新店區"
"231049","108-UY","2019/07/02 19:09:12","新北市新店區二十張路25巷3號","121.538946666667","24.9820933333333","6500600","新店區"
"231065","KEA-2219","2019/07/02 19:09:24","新北市新店區安祥路147巷5號","121.475186666667","24.9556133333333","6500600","新店區"
"231054","260-TV","2019/07/02 19:09:17","新北市新店區新店路139號","121.537026666667","24.954705","6500600","新店區"
"231042","268-BY","2019/07/02 19:09:16","新北市新店區中興路一段193號","121.543323333333","24.9650683333333","6500600","新店區"
"231064","278-BY","2019/07/02 19:09:16","新北市新店區安忠路56巷6號","121.512933333333","24.9594833333333","6500600","新店區"
"231050","AAD-862","2019/07/02 19:09:26","新北市新店區竹林路2巷19號","121.550433333333","24.9512583333333","6500600","新店區"
"231045","355-BY","2019/07/02 19:09:15","新北市新店區北宜路一段98號","121.538891666667","24.955395","6500600","新店區"
"231055","4716-K9","2019/07/02 19:09:17","新北市新店區環河路116號","121.537401666667","24.9669316666667","6500600","新店區"
"231056","4715-K9","2019/07/02 19:09:11","新北市新店區民生路149巷22號","121.529316666667","24.9799483333333","6500600","新店區"
"231067","4772-VM","2019/07/02 19:09:17","新北市新店區安康路一段263巷36弄1號","121.523635","24.9618116666667","6500600","新店區"
"231053","513-UM","2019/07/02 19:09:25","新北市新店區自強路23巷1號","121.546113333333","24.9266716666667","6500600","新店區"
"231041","619-UM","2019/07/02 19:09:17","新北市新店區中央一街8號","121.528666666667","24.9725016666667","6500600","新店區"
"231063","641-BX","2019/07/02 19:09:25","新北市新店區車子路117號","121.505356666667","24.951795","6500600","新店區"
"231048","KED-0819","2019/07/02 19:09:25","新北市新店區德正街27巷36號","121.545653333333","24.971525","6500600","新店區"
"231062","718-UY","2019/07/02 19:09:17","新北市新店區安平路20號","121.524048333333","24.9671466666667","6500600","新店區"
"231046","719-UM","2019/07/02 19:09:14","新北市新店區華城路36號","121.528465","24.9557183333333","6500600","新店區"
"231057","720-UM","2019/07/02 19:09:18","新北市新店區百齡一路12號","121.553016666667","24.93246","6500600","新店區"
"231059","897-TW","2019/07/02 19:09:18","新北市新店區安康路一段351-1號","121.51932","24.9640916666667","6500600","新店區"
"231040","898-TW","2019/07/02 19:09:21","新北市新店區三民路124號","121.534526666667","24.9744716666667","6500600","新店區"
"231043","899-TW","2019/07/02 19:09:21","新北市新店區寶橋路56號","121.546031666667","24.975315","6500600","新店區"
"231066","AKT-0513","2019/07/02 19:09:13","新北市新店區安康路二段458號","121.494086666667","24.95418","6500600","新店區"
"241029","060-VK","2019/07/02 19:09:20","新北市三重區重安街75巷20號","121.491545","25.055575","6500200","三重區"
"241035","KEA-2210","2019/07/02 19:09:28","新北市三重區三寧街50號","121.490128333333","25.0606133333333","6500200","三重區"
"241026","480-VK","2019/07/02 19:09:25","新北市三重區泉州街57號","121.494635","25.0549316666667","6500200","三重區"
"241025","887-TS","2019/07/02 19:09:16","新北市三重區中正北路335號","121.47334","25.0715233333333","6500200","三重區"
"235066","003-UY","2019/07/02 19:06:30","新北市中和區水源路102號","121.506053333333","25.0034483333333","6500300","中和區"
"235064","005-UY","2019/07/02 19:09:11","新北市中和區連城路47巷2號","121.498195","25.00167","6500300","中和區"
"235063","006-UY","2019/07/02 19:09:26","新北市中和區連城路249巷2號","121.493635","24.9968566666667","6500300","中和區"
"235056","096-UM","2019/07/02 19:09:25","新北市中和區員山路526號","121.478868333333","25.00972","6500300","中和區"
"235039","097-UM","2019/07/02 19:09:24","新北市中和區秀朗路三段179號","121.524381666667","24.9907233333333","6500300","中和區"
"235065","098-UM","2019/07/02 19:09:26","新北市中和區中山路二段136巷25號","121.501376666667","25.0042816666667","6500300","中和區"
"235040","150-BY","2019/07/02 19:09:22","新北市中和區宜安路11巷11號","121.512843333333","24.995175","6500300","中和區"
"235058","151-BY","2019/07/02 19:09:26","新北市中和區員山路90號","121.480925","24.9944233333333","6500300","中和區"
"235055","183-VK","2019/07/02 19:09:19","新北市中和區德光路113號","121.468115","25.00318","6500300","中和區"
"235038","185-VK","2019/07/02 19:09:20","新北市中和區大仁街20巷34號","121.519276666667","24.9931","6500300","中和區"
"235049","186-VK","2019/07/02 19:09:21","新北市中和區景新街204號","121.506545","24.9956316666667","6500300","中和區"
"235067","255-BX","2019/07/02 19:09:33","新北市中和區中正路803號","121.484823333333","25.0010316666667","6500300","中和區"
"235044","293-VK","2019/07/02 19:09:15","新北市中和區中興街214號","121.499475","24.9898766666667","6500300","中和區"
"235072","301-VK","2019/07/02 19:09:16","新北市中和區連城路110號","121.49619","24.9996816666667","6500300","中和區"
"235042","KEA-2878","2019/07/02 19:09:29","新北市中和區自強路13巷5號","121.520696666667","24.9936266666667","6500300","中和區"
"235050","4979-A6","2019/07/02 19:09:16","新北市中和區復興路50號","121.504161666667","24.9901533333333","6500300","中和區"
"235069","4980-A6","2019/07/02 19:09:15","新北市中和區中和路165巷20號","121.50345","25.0004466666667","6500300","中和區"
"235070","558-UM","2019/07/02 19:09:29","新北市中和區連城路76號","121.497355","25.0012333333333","6500300","中和區"
"235045","565-BX","2019/07/02 19:09:13","新北市中和區景新街467巷26號","121.51444","24.9885066666667","6500300","中和區"
"235060","KED-0823","2019/07/02 19:09:30","新北市中和區員山路370號","121.480838333333","25.0038983333333","6500300","中和區"
"235047","732-UM","2019/07/02 19:09:12","新北市中和區興南路一段162號","121.508143333333","24.98675","6500300","中和區"
"235046","733-UM","2019/07/02 19:09:12","新北市中和區忠孝街2號","121.50882","24.9829166666667","6500300","中和區"
"235071","783-BX","2019/07/02 19:09:31","新北市中和區連城路372號","121.481866666667","24.9953783333333","6500300","中和區"
"235057","801-TS","2019/07/02 19:09:27","新北市中和區員山路275號","121.481291666667","24.9996033333333","6500300","中和區"
"235041","802-TS","2019/07/02 19:09:16","新北市中和區中和路294號","121.508503333333","24.9997833333333","6500300","中和區"
"235052","805-TS","2019/07/02 19:09:27","新北市中和區興南路二段142巷31弄81號","121.501578333333","24.9835883333333","6500300","中和區"
"235048","896-TW","2019/07/02 19:09:27","新北市中和區忠孝街4號","121.510098333333","24.9826816666667","6500300","中和區"
"235053","900-TW","2019/07/02 19:09:29","新北市中和區華福街71巷2號","121.467288333333","24.9968716666667","6500300","中和區"
"235054","911-UM","2019/07/02 19:09:25","新北市中和區國光街107巷2弄30號","121.469526666667","24.9992783333333","6500300","中和區"
"235051","157-BY","2019/07/02 19:09:14","新北市中和區忠孝街19巷58號","121.509383333333","24.9855616666667","6500300","中和區"
"235037","AAC-213","2019/07/02 19:09:22","新北市中和區秀朗路三段10巷37弄13號","121.524078333333","24.995735","6500300","中和區"
"235059","AAC-215","2019/07/02 19:09:19","新北市中和區圓通路296巷31弄1號","121.488583333333","24.99044","6500300","中和區"
"220065","072-UY","2019/07/02 19:09:03","新北市中和區中山路三段218號","121.471203333333","25.0065616666667","6500100","板橋區"
"220086","073-UY","2019/07/02 19:09:18","新北市板橋區中正路250巷10號","121.455995","25.0193166666667","6500100","板橋區"
"220106","075-UY","2019/07/02 19:09:25","新北市板橋區雙十路三段66巷1號","121.470535","25.031925","6500100","板橋區"
"220069","AAD-861","2019/07/02 19:09:17","新北市板橋區華興街31巷4號","121.458265","25.0043616666667","6500100","板橋區"
"226004","312-R5","2019/07/02 19:09:18","新北市平溪區嶺腳里嶺腳寮9-1號","121.747723333333","25.0297866666667","6502400","平溪區"
"228001","212-TW","2019/07/02 19:09:05","新北市貢寮區真理里新港街10號","121.92551","25.0543716666667","6502600","貢寮區"
"228002","663-BX","2019/07/02 19:09:29","新北市貢寮區福隆里福隆街36號","121.945115","25.0174933333333","6502600","貢寮區"
"228003","828-UM","2019/07/02 19:09:17","新北市貢寮區和美里和美街36號","121.912205","25.085485","6502600","貢寮區"
"224010","AGQ-8101","2019/07/02 19:09:23","新北市瑞芳區基山街148號","121.843396666667","25.1081416666667","6501200","瑞芳區"
"224009","275-VK","2019/07/02 19:09:14","新北市瑞芳區洞頂路205號","121.860496666667","25.1219633333333","6501200","瑞芳區"
"224008","273-VK","2019/07/02 19:09:27","新北市瑞芳區瑞芳街112巷1號","121.80148","25.1107466666667","6501200","瑞芳區"
"227001","642-TC","2019/07/02 19:09:19","新北市雙溪區牡丹里中正路46-3號","121.865025","25.0389916666667","6502500","雙溪區"
"227002","400-TW","2019/07/02 19:09:22","新北市雙溪區平林里外平林9-4號","121.859191666667","25.038035","6502500","雙溪區"
"253006","032-BX","2019/07/02 19:09:14","新北市石門區海灣新城17號","121.525778333333","25.284825","6502200","石門區"
"253005","295-VK","2019/07/02 19:09:20","新北市石門區阿里荖42號","121.605325","25.2802783333333","6502200","石門區"
"222001","KEA-2212","2019/07/02 19:09:28","新北市深坑區北深路一段300號","121.624295","25.0056983333333","6501800","深坑區"
"208002","KEA-2872","2019/07/02 19:09:25","新北市金山區中正路75號","121.633686666667","25.2215733333333","6502700","金山區"
"208003","665-BX","2019/07/02 19:09:23","新北市金山區中正路59號","121.634246666667","25.2219216666667","6502700","金山區"
"251002","012-UM","2019/07/02 19:09:19","新北市淡水區中山路26-1號","121.444365","25.1696783333333","6501000","淡水區"
"251015","KEA-2871","2019/07/02 19:09:17","新北市淡水區南勢埔32巷2號","121.484288333333","25.1800633333333","6501000","淡水區"
"251016","179-VK","2019/07/02 19:09:21","新北市淡水區淡金路三段352號","121.449248333333","25.2089583333333","6501000","淡水區"
"251013","182-VK","2019/07/02 19:09:25","新北市淡水區安子內12-1號","121.481436666667","25.21911","6501000","淡水區"
"251010","413-VK","2019/07/02 19:09:15","新北市淡水區中正路一段156巷3號","121.421093333333","25.1803283333333","6501000","淡水區"
"251007","442-VK","2019/07/02 19:09:28","新北市淡水區民生路135巷18號","121.46629","25.1390333333333","6501000","淡水區"
"251005","443-VK","2019/07/02 19:09:26","新北市淡水區原德路11號","121.44206","25.171195","6501000","淡水區"
"251001","559-UM","2019/07/02 19:09:21","新北市淡水區自強路201巷39號","121.462111666667","25.12679","6501000","淡水區"
"251009","575-R6","2019/07/02 19:09:27","新北市淡水區重建街38號","121.439953333333","25.171285","6501000","淡水區"
"251014","577-R6","2019/07/02 19:09:15","新北市淡水區小中寮19-9號","121.485363333333","25.2281583333333","6501000","淡水區"
"251003","673-BX","2019/07/02 19:09:24","新北市淡水區大義街3號","121.443646666667","25.178085","6501000","淡水區"
"207003","550-UM","2019/07/02 19:09:25","新北市萬里區大鵬里萬里加投24-2號","121.649083333333","25.207305","6502800","萬里區"
"207004","225-TW","2019/07/02 19:09:26","新北市萬里區萬里里瑪鋉下街50-1號","121.691543333333","25.1794066666667","6502800","萬里區"
"252002","178-VK","2019/07/02 19:09:18","新北市三芝區埔坪里埔頭坑78號","121.509265","25.254405","6502100","三芝區"
"252003","249-BX","2019/07/02 19:09:28","新北市三芝區錫板里南勢崗6號","121.479581666667","25.2619933333333","6502100","三芝區"
"208001","170-UY","2019/07/02 19:09:17","新北市金山區金包里街70號","121.63897","25.2215083333333","6502700","金山區"
"237004","KEA-2597","2019/07/02 19:09:28","新北市三峽區有木205-1號","121.439025","24.851495","6500900","三峽區"
"237007","153-BY","2019/07/02 19:09:14","新北市三峽區中正路二段42巷50號","121.364321666667","24.92052","6500900","三峽區"
"237013","252-BX","2019/07/02 19:09:13","新北市三峽區光明路69巷24號","121.376581666667","24.92911","6500900","三峽區"
"237008","302-VK","2019/07/02 19:09:15","新北市三峽區光明路106巷2號","121.376515","24.9275","6500900","三峽區"
"237014","433-BY","2019/07/02 19:09:28","新北市鶯歌區三鶯路5號","121.356916666667","24.9406616666667","6500900","三峽區"
"237012","280-TH","2019/07/02 19:09:24","新北市三峽區三樹路222巷196-40號","121.390353333333","24.9427666666667","6500900","三峽區"
"237006","5529-G3","2019/07/02 19:09:28","新北市三峽區橫溪路95號","121.398493333333","24.9354483333333","6500900","三峽區"
"237011","KEA-2596","2019/07/02 19:09:18","新北市三峽區介壽路三段107號","121.395486666667","24.9392616666667","6500900","三峽區"
"237015","649-BX","2019/07/02 19:09:20","新北市三峽區安坑46-2號","121.456905","24.932225","6500900","三峽區"
"237010","706-TV","2019/07/02 19:09:18","新北市三峽區國光街69號","121.374266666667","24.9382333333333","6500900","三峽區"
"237005","AKY-6261","2019/07/02 19:09:19","新北市三峽區中山路459巷131號","121.351176666667","24.9349","6500900","三峽區"
"236042","KED-0685","2019/07/02 19:09:22","新北市土城區學府路一段239號","121.450383333333","24.98338","6501300","土城區"
"220089","KED-0812","2019/07/02 19:09:28","新北市板橋區文化路一段325號","121.466331666667","25.0204816666667","6500100","板橋區"
"236079","166-UM","2019/07/02 19:09:32","新北市土城區龍泉路22號","121.410318333333","24.948315","6501300","土城區"
"236026","269-VK","2019/07/02 19:09:22","新北市土城區中正路56巷2號","121.44387","24.9753283333333","6501300","土城區"
"236014","270-VK","2019/07/02 19:09:27","新北市土城區學府路一段39號","121.457873333333","24.9883166666667","6501300","土城區"
"236038","271-VK","2019/07/02 19:09:25","新北市土城區清水路32巷16號","121.457316666667","24.9811233333333","6501300","土城區"
"236070","KEA-2877","2019/07/02 19:09:25","新北市土城區裕生路84巷5-2號","121.446988333333","24.9854933333333","6501300","土城區"
"252001","KED-0821","2019/07/02 19:09:28","新北市三芝區長勤街82號","121.500303333333","25.2550683333333","6502100","三芝區"
"236021","401-BY","2019/07/02 19:09:23","新北市土城區延峰街36巷2號","121.469643333333","24.9847283333333","6501300","土城區"
"236059","912-UM","2019/07/02 19:09:23","新北市土城區金城路一段37號","121.44021","24.9693216666667","6501300","土城區"
"236049","913-UM","2019/07/02 19:09:18","新北市土城區明德路一段365-1號","121.453676666667","24.9790866666667","6501300","土城區"
"236063","915-UM","2019/07/02 19:09:09","新北市土城區延和路88巷10弄3號","121.466748333333","24.9887383333333","6501300","土城區"
"236055","AAC-216","2019/07/02 19:09:30","新北市土城區學成路8號","121.453438333333","24.9865266666667","6501300","土城區"
"238015","755-BX","2019/07/02 19:09:12","新北市樹林區備內街150-2號","121.407783333333","24.9892933333333","6500700","樹林區"
"238023","601-UM","2019/07/02 19:09:28","新北市樹林區三興路29號","121.396433333333","25.0148","6500700","樹林區"
"238022","KEA-2213","2019/07/02 19:09:20","新北市樹林區中山路二段151巷8弄41號","121.40587","24.9774533333333","6500700","樹林區"
"238021","KEA-2539","2019/07/02 19:09:12","新北市鶯歌區三鶯路135-1號","121.3614","24.9455833333333","6500700","樹林區"
"238025","303-VK","2019/07/02 19:09:14","新北市樹林區中山路三段311號","121.391133333333","24.9716733333333","6500700","樹林區"
"238017","283-BY","2019/07/02 19:09:28","新北市樹林區光興街50號","121.409838333333","25.0027383333333","6500700","樹林區"
"238014","282-BY","2019/07/02 19:09:20","新北市樹林區千歲街92巷7弄1號","121.42701","24.9976016666667","6500700","樹林區"
"238020","268-VK","2019/07/02 19:09:25","新北市樹林區俊英街133巷26號","121.423346666667","25.01105","6500700","樹林區"
"238026","172-UY","2019/07/02 19:09:30","新北市樹林區佳園路一段41巷28弄5號","121.394711666667","24.9707","6500700","樹林區"
"238016","169-UY","2019/07/02 19:09:14","新北市樹林區復興路335巷8號","121.418315","24.9875583333333","6500700","樹林區"
"239007","AAC-297","2019/07/02 19:09:19","新北市鶯歌區中山路138巷5號","121.349905","24.9585966666667","6500800","鶯歌區"
"239006","891-R6","2019/07/02 19:09:28","新北市鶯歌區鶯桃路365巷6號","121.333351666667","24.9629333333333","6500800","鶯歌區"
"239008","527-UM","2019/07/02 19:09:29","新北市鶯歌區國際二路20巷45號","121.337691666667","24.9758016666667","6500800","鶯歌區"
"239005","526-UM","2019/07/02 19:09:13","新北市鶯歌區鶯桃路二段48號","121.3255","24.9725916666667","6500800","鶯歌區"
"239001","417-VK","2019/07/02 19:09:12","新北市鶯歌區鶯桃路95巷76號","121.33715","24.95284","6500800","鶯歌區"
"239003","360-BY","2019/07/02 19:09:31","新北市鶯歌區鶯桃路599號","121.329376666667","24.968965","6500800","鶯歌區"
"239002","359-BY","2019/07/02 19:09:31","新北市鶯歌區中山路313號","121.344123333333","24.9569533333333","6500800","鶯歌區"
"239004","193-VK","2019/07/02 19:09:23","新北市鶯歌區鶯華新村40號","121.330315","24.93409","6500800","鶯歌區"
"221008","489-VK","2019/07/02 19:09:33","新北市汐止區康寧街429-6號","121.630485","25.068085","6501100","汐止區"
"221036","130-UY","2019/07/02 19:09:24","新北市汐止區南昌街33號","121.662966666667","25.069175","6501100","汐止區"
"221031","353-TW","2019/07/02 19:09:17","新北市汐止區中興路181巷12弄1號","121.630145","25.066495","6501100","汐止區"
"221035","622-UM","2019/07/02 19:09:18","新北市汐止區汐萬路一段121號","121.654131666667","25.0710833333333","6501100","汐止區"
"221002","707-TV","2019/07/02 19:09:18","新北市汐止區大同路一段122號","121.630716666667","25.0546616666667","6501100","汐止區"
"220079","145-BY","2019/07/02 19:09:30","新北市板橋區中正路15號","121.45617","25.0123166666667","6500100","板橋區"
"220080","200-UY","2019/07/02 19:09:13","新北市板橋區合宜路185-1號","121.447256666667","24.9991066666667","6500100","板橋區"
"220082","610-BX","2019/07/02 19:09:20","新北市板橋區大觀路三段265號","121.4291","24.9923366666667","6500100","板橋區"
"220101","245-BX","2019/07/02 19:09:18","新北市板橋區雙十路二段167號","121.474031666667","25.02841","6500100","板橋區"
"220056","276-BY","2019/07/02 19:09:24","新北市板橋區信義路74巷4弄2號","121.456973333333","24.9930166666667","6500100","板橋區"
"220072","277-BY","2019/07/02 19:09:27","新北市板橋區溪北路111號","121.4301","24.9887433333333","6500100","板橋區"
"220094","283-UM","2019/07/02 19:09:27","新北市板橋區吳鳳路82號","121.466955","25.0312583333333","6500100","板橋區"
"220071","283-VK","2019/07/02 19:09:25","新北市板橋區忠孝路154巷20號","121.464055","25.0020166666667","6500100","板橋區"
"220053","285-VK","2019/07/02 19:09:28","新北市板橋區富山街53巷3弄1號","121.477338333333","25.0201933333333","6500100","板橋區"
"220083","286-VK","2019/07/02 19:09:21","新北市板橋區龍興街97巷6號","121.443901666667","25.0027466666667","6500100","板橋區"
"220081","287-VK","2019/07/02 19:09:22","新北市板橋區光華街19巷7號","121.453435","25.0119966666667","6500100","板橋區"
"220090","288-VK","2019/07/02 19:09:27","新北市板橋區長江路一段106巷13弄19號","121.460765","25.0294483333333","6500100","板橋區"
"220061","295-UM","2019/07/02 19:09:28","新北市板橋區三民路二段21巷45號","121.480593333333","25.018235","6500100","板橋區"
"220084","296-UM","2019/07/02 19:09:27","新北市板橋區溪崑一街45號","121.430228333333","24.9909616666667","6500100","板橋區"
"220075","303-R5","2019/07/02 19:09:27","新北市板橋區南雅南路一段1巷29號","121.457338333333","25.0066633333333","6500100","板橋區"
"220062","305-R5","2019/07/02 19:09:13","新北市板橋區三民路二段245巷69弄2號","121.4811","25.01288","6500100","板橋區"
"220092","307-R5","2019/07/02 19:09:28","新北市板橋區松江街35號","121.468486666667","25.0269683333333","6500100","板橋區"
"220098","317-R6","2019/07/02 19:09:21","新北市板橋區民有街49號","121.46552","25.0259433333333","6500100","板橋區"
"220088","491-VK","2019/07/02 19:09:32","新北市板橋區雙十路二段217號","121.473366666667","25.0290533333333","6500100","板橋區"
"220035","560-BX","2019/07/02 19:09:28","新北市板橋區中正路413巷15號","121.453508333333","25.0224866666667","6500100","板橋區"
"220103","561-BX","2019/07/02 19:09:32","新北市板橋區文化路一段210號","121.466471666667","25.0201716666667","6500100","板橋區"
"220063","609-BX","2019/07/02 19:09:13","新北市中和區員山路570號","121.47875","25.0111766666667","6500100","板橋區"
"220091","637-BX","2019/07/02 19:09:28","新北市板橋區縣民大道三段201號","121.479823333333","25.0248416666667","6500100","板橋區"
"220057","686-BX","2019/07/02 19:09:21","新北市板橋區國慶路212號","121.463735","24.99717","6500100","板橋區"
"220077","687-BX","2019/07/02 19:09:30","新北市板橋區龍興街9號","121.442713333333","24.9995566666667","6500100","板橋區"
"220093","689-BX","2019/07/02 19:09:21","新北市板橋區文化路一段383號","121.467196666667","25.021735","6500100","板橋區"
"220054","741-BX","2019/07/02 19:09:12","新北市板橋區實踐路29號","121.463731666667","25.00718","6500100","板橋區"
"220102","KEA-2699","2019/07/02 19:09:29","新北市板橋區田單街20號","121.48234","25.02863","6500100","板橋區"
"220055","827-TW","2019/07/02 19:09:17","新北市板橋區新民街6巷2號","121.4643","25.0105066666667","6500100","板橋區"
"220067","829-TW","2019/07/02 19:09:18","新北市板橋區三民路二段正隆巷75號","121.475851666667","25.0130366666667","6500100","板橋區"
"220068","831-TW","2019/07/02 19:09:27","新北市板橋區中山路二段443巷72號","121.480896666667","25.02207","6500100","板橋區"
"220074","895-R6","2019/07/02 19:09:16","新北市板橋區北門街3巷3號","121.456343333333","25.0110866666667","6500100","板橋區"
"220073","985-R7","2019/07/02 19:09:22","新北市板橋區中正路235號","121.455915","25.0179816666667","6500100","板橋區"
"220097","AAC-210","2019/07/02 19:09:32","新北市板橋區幸福路58號","121.461131666667","25.0200916666667","6500100","板橋區"
"220064","AAC-253","2019/07/02 19:09:25","新北市板橋區中山路二段40巷2弄10號","121.472671666667","25.01482","6500100","板橋區"
"235068","KEA-2873","2019/07/02 19:09:20","新北市中和區圓通路169號","121.497596666667","24.9952966666667","6500300","中和區"
"235061","KEA-2875","2019/07/02 19:09:12","新北市中和區員山路333號","121.48124","25.0013583333333","6500300","中和區"
"235043","KEA-2876","2019/07/02 19:09:21","新北市中和區景平路24號","121.523605","24.990665","6500300","中和區"
