"lineid","car","time","location","longitude","latitude","cityid","cityname"
"234046","148-BY","2019/07/02 19:49:31","新北市永和區永利路326號","121.525191666667","25.00341","6500400","永和區"
"234081","298-R6","2019/07/02 19:49:21","新北市永和區國中路2號","121.524293333333","25.0042283333333","6500400","永和區"
"234038","336-UY","2019/07/02 19:49:23","新北市永和區民樂街59巷20號","121.528135","24.99825","6500400","永和區"
"234064","337-UY","2019/07/02 19:49:28","新北市永和區中正路368巷16號","121.518293333333","25.000795","6500400","永和區"
"234086","338-UY","2019/07/02 19:49:25","新北市永和區永利路6-1號","121.517648333333","25.00597","6500400","永和區"
"234070","552-UM","2019/07/02 19:49:33","新北市永和區竹林路81號","121.519576666667","25.0125816666667","6500400","永和區"
"234017","745-BX","2019/07/02 19:49:15","新北市永和區永和路二段297號","121.516016666667","25.0160766666667","6500400","永和區"
"234030","746-BX","2019/07/02 19:49:20","新北市永和區民生路67巷41號","121.524931666667","24.9974683333333","6500400","永和區"
"234054","KEA-2590","2019/07/02 19:49:22","新北市永和區竹林路75巷17號","121.520071666667","25.0140216666667","6500400","永和區"
"234007","KED-0605","2019/07/02 19:49:14","新北市中和區中和路265號","121.50537","24.9997716666667","6500400","永和區"
"234013","KEA-2591","2019/07/02 19:49:28","新北市永和區仁愛路219號","121.50928","25.0121766666667","6500400","永和區"
"234061","AAD-866","2019/07/02 19:49:33","新北市永和區中正路102號","121.514306666667","24.995785","6500400","永和區"
"234042","862-TW","2019/07/02 19:49:30","新北市永和區中和路389巷44弄2號","121.508051666667","25.0021383333333","6500400","永和區"
"234050","863-TW","2019/07/02 19:49:21","新北市永和區保安路150號","121.508316666667","25.0146666666667","6500400","永和區"
"234026","9371-KE","2019/07/02 19:49:16","新北市永和區雙和街52巷1-1號","121.509111666667","25.0031583333333","6500400","永和區"
"249005","172-UM","2019/07/02 19:49:31","新北市八里區中華路三段186號","121.390771666667","25.1273633333333","6502300","八里區"
"249001","173-UM","2019/07/02 19:49:17","新北市八里區中華路二段248號","121.40568","25.1499066666667","6502300","八里區"
"249004","303-UY","2019/07/02 19:49:18","新北市八里區中山路一段268巷5弄25號","121.414235","25.1608883333333","6502300","八里區"
"249002","305-UY","2019/07/02 19:49:32","新北市八里區頂寮五街17號","121.451556666667","25.1259616666667","6502300","八里區"
"249003","593-UM","2019/07/02 19:49:23","新北市八里區中華路二段560巷17號","121.398441666667","25.1452116666667","6502300","八里區"
"248016","026-BX","2019/07/02 19:49:17","新北市五股區成泰路四段22巷25號","121.454971666667","25.10781","6501500","五股區"
"248008","KED-0815","2019/07/02 19:49:29","新北市五股區四維路140號","121.46825","25.07527","6501500","五股區"
"248020","KED-0813","2019/07/02 19:49:17","新北市五股區中直路37-3號","121.419771666667","25.1157466666667","6501500","五股區"
"248012","247-BX","2019/07/02 19:49:29","新北市五股區蓬萊路8號","121.435513333333","25.079445","6501500","五股區"
"248014","261-SL","2019/07/02 19:49:31","新北市五股區五福路15號","121.434181666667","25.0888433333333","6501500","五股區"
"248010","272-BY","2019/07/02 19:49:17","新北市五股區登林路貿商巷3弄15號","121.429723333333","25.0699116666667","6501500","五股區"
"248004","677-BX","2019/07/02 19:49:15","新北市五股區成泰路一段152-1號","121.435063333333","25.0763083333333","6501500","五股區"
"248002","678-BX","2019/07/02 19:49:15","新北市五股區成泰路三段621號","121.4529","25.1037233333333","6501500","五股區"
"234023","9380-KE","2019/07/02 19:49:20","新北市永和區保生路55-1號","121.504476666667","25.0109133333333","6500400","永和區"
"234077","969-R7","2019/07/02 19:49:15","新北市永和區智光街48號","121.516948333333","24.99794","6500400","永和區"
"234074","AAC-211","2019/07/02 19:49:29","新北市永和區竹林路213巷19號","121.521955","25.0089516666667","6500400","永和區"
"234067","AAC-212","2019/07/02 19:49:10","新北市永和區中山路一段149號","121.5102","25.0094283333333","6500400","永和區"
"234003","AAC-295","2019/07/02 19:49:16","新北市永和區福和路352號","121.51486","25.007335","6500400","永和區"
"244023","483-VK","2019/07/02 19:49:18","新北市林口區文化北路二段234號","121.372951666667","25.0855416666667","6501700","林口區"
"244011","701-TV","2019/07/02 19:49:22","新北市林口區中正路294號","121.388495","25.0778116666667","6501700","林口區"
"243012","AAD-798","2019/07/02 19:49:25","新北市泰山區仁愛路100巷31號","121.43368","25.05496","6501600","泰山區"
"243016","421-VK","2019/07/02 19:49:32","新北市泰山區貴陽街32號","121.423088333333","25.0325366666667","6501600","泰山區"
"243009","KEA-2215","2019/07/02 19:49:15","新北市泰山區美寧街58號","121.430845","25.0646533333333","6501600","泰山區"
"243011","KEA-2216","2019/07/02 19:49:30","新北市泰山區明志路三段196巷21弄24號","121.422626666667","25.0385233333333","6501600","泰山區"
"243015","680-BX","2019/07/02 19:49:33","新北市泰山區文程路18巷39號","121.428188333333","25.0482133333333","6501600","泰山區"
"222003","436-BY","2019/07/02 19:49:28","新北市深坑區深南路51-1號","121.621255","25.0098833333333","6501800","深坑區"
"222002","659-BX","2019/07/02 19:49:16","新北市深坑區北深路二段2巷1號","121.621401666667","25.004665","6501800","深坑區"
"231061","002-UM","2019/07/02 19:49:23","新北市新店區安民街204號","121.517213333333","24.971915","6500600","新店區"
"231058","0293-UT","2019/07/02 19:49:31","新北市新店區北新路一段150號","121.542863333333","24.9706616666667","6500600","新店區"
"231044","046-UY","2019/07/02 19:49:29","新北市新店區復興路44-2號","121.538531666667","24.9867166666667","6500600","新店區"
"231060","106-UY","2019/07/02 19:49:23","新北市新店區安康路二段159巷6號","121.510121666667","24.9591433333333","6500600","新店區"
"231051","107-UY","2019/07/02 19:49:16","新北市新店區中央三街68號","121.526656666667","24.9750833333333","6500600","新店區"
"231049","108-UY","2019/07/02 19:49:12","新北市新店區民權路98-1號","121.536416666667","24.9831483333333","6500600","新店區"
"231068","187-VK","2019/07/02 19:49:18","新北市新店區安華路28-1號","121.519605","24.9610266666667","6500600","新店區"
"231065","KEA-2219","2019/07/02 19:49:24","新北市新店區安祥路109巷108號","121.477251666667","24.9587783333333","6500600","新店區"
"221025","KEA-2785","2019/07/02 19:49:14","新北市汐止區新台五路二段70巷25號","121.661868333333","25.0647283333333","6501100","汐止區"
"231054","260-TV","2019/07/02 19:49:17","新北市新店區北宜路一段41號","121.538281666667","24.95735","6500600","新店區"
"231042","268-BY","2019/07/02 19:48:56","新北市新店區中興路一段268-3號","121.545191666667","24.9678833333333","6500600","新店區"
"231064","278-BY","2019/07/02 19:49:33","新北市新店區光華街8巷17號","121.518005","24.9693833333333","6500600","新店區"
"231050","AAD-862","2019/07/02 19:49:26","新北市新店區北宜路二段250號","121.56026","24.9543183333333","6500600","新店區"
"231045","355-BY","2019/07/02 19:49:15","新北市新店區北宜路二段270號","121.560811666667","24.9542216666667","6500600","新店區"
"231067","4772-VM","2019/07/02 19:49:17","新北市新店區精忠路10-1號","121.532565","24.9591116666667","6500600","新店區"
"231053","513-UM","2019/07/02 19:49:25","新北市新店區新烏路三段92號","121.553261666667","24.9036533333333","6500600","新店區"
"231041","619-UM","2019/07/02 19:49:17","新北市新店區中央路129號","121.530578333333","24.9740166666667","6500600","新店區"
"231063","641-BX","2019/07/02 19:49:25","新北市新店區車子路11號","121.502941666667","24.9519683333333","6500600","新店區"
"231048","KED-0819","2019/07/02 19:49:25","新北市新店區五峰路61巷2號","121.547351666667","24.9701516666667","6500600","新店區"
"231062","718-UY","2019/07/02 19:49:17","新北市新店區永業路46號","121.531793333333","24.9539066666667","6500600","新店區"
"231046","719-UM","2019/07/02 19:42:34","新北市新店區自由街41-1號","121.53486","24.9738066666667","6500600","新店區"
"231057","720-UM","2019/07/02 19:49:18","新北市新店區梅崗三路1號","121.558255","24.9312266666667","6500600","新店區"
"231059","897-TW","2019/07/02 19:49:18","新北市新店區安和路三段21巷3號","121.517165","24.9809116666667","6500600","新店區"
"231040","898-TW","2019/07/02 19:49:21","新北市新店區中正路75巷71號","121.543101666667","24.9688333333333","6500600","新店區"
"231043","899-TW","2019/07/02 19:49:21","新北市新店區中正路237號","121.539295","24.973105","6500600","新店區"
"231066","AKT-0513","2019/07/02 19:49:32","新北市新店區安康路三段165巷2弄3號","121.489285","24.9513033333333","6500600","新店區"
"241011","013-R5","2019/07/02 19:49:23","新北市三重區介壽路39巷6號","121.498975","25.07014","6500200","三重區"
"241028","022-UY","2019/07/02 19:49:15","新北市三重區中正南路117號","121.494043333333","25.0573533333333","6500200","三重區"
"241008","059-VK","2019/07/02 19:49:20","新北市三重區永福街96號","121.478821666667","25.0760083333333","6500200","三重區"
"241029","060-VK","2019/07/02 19:49:20","新北市三重區光明路38號","121.491361666667","25.0583983333333","6500200","三重區"
"241031","061-VK","2019/07/02 19:49:15","新北市三重區重新路四段101-1號","121.48572","25.0544033333333","6500200","三重區"
"241015","062-VK","2019/07/02 19:49:16","新北市三重區三和路一段12-1號","121.503526666667","25.0647433333333","6500200","三重區"
"241017","063-VK","2019/07/02 19:49:15","新北市三重區重陽路三段27巷2弄4號","121.489568333333","25.0667766666667","6500200","三重區"
"241024","065-VK","2019/07/02 19:49:13","新北市三重區大勇街82巷17號","121.479583333333","25.0718583333333","6500200","三重區"
"241001","066-VK","2019/07/02 19:49:14","新北市三重區仁愛街327巷37號","121.493166666667","25.0800416666667","6500200","三重區"
"241003","091-VK","2019/07/02 19:49:21","新北市三重區五華街93巷56號","121.493846666667","25.0849783333333","6500200","三重區"
"241030","742-BX","2019/07/02 19:49:33","新北市三重區集成路7號","121.488548333333","25.05182","6500200","三重區"
"241016","266-UM","2019/07/02 19:49:34","新北市三重區正德街53號","121.495706666667","25.0629566666667","6500200","三重區"
"241009","267-UM","2019/07/02 19:49:25","新北市三重區三和路四段396巷29號","121.480225","25.0789216666667","6500200","三重區"
"241018","268-UM","2019/07/02 19:49:26","新北市三重區雙園街57巷32號","121.494506666667","25.0683916666667","6500200","三重區"
"241032","269-UM","2019/07/02 19:49:27","新北市三重區重陽路一段68號","121.486375","25.058715","6500200","三重區"
"241013","270-UM","2019/07/02 19:49:22","新北市三重區仁愛街112巷14號","121.49475","25.0740216666667","6500200","三重區"
"241007","398-BY","2019/07/02 19:49:19","新北市三重區慈愛街10號","121.484533333333","25.0784033333333","6500200","三重區"
"241035","KEA-2210","2019/07/02 19:49:28","新北市三重區文化北路10-3號","121.499176666667","25.06361","6500200","三重區"
"241020","478-VK","2019/07/02 19:49:26","新北市三重區大智街161號","121.48987","25.0722766666667","6500200","三重區"
"241026","480-VK","2019/07/02 19:49:25","新北市三重區文化南路67號","121.500236666667","25.0608983333333","6500200","三重區"
"241014","543-UM","2019/07/02 19:49:26","新北市三重區長安街77號","121.501653333333","25.0673433333333","6500200","三重區"
"241023","545-UM","2019/07/02 19:49:24","新北市三重區頂崁街168號","121.477586666667","25.0659116666667","6500200","三重區"
"241019","KEA-2593","2019/07/02 19:49:13","新北市三重區自強路二段67巷25號","121.489551666667","25.0701816666667","6500200","三重區"
"241006","AAD-863","2019/07/02 19:49:22","新北市三重區力行路二段80號","121.481605","25.0738116666667","6500200","三重區"
"241022","743-BX","2019/07/02 19:49:21","新北市三重區中正北路109號","121.484915","25.0658966666667","6500200","三重區"
"241025","887-TS","2019/07/02 19:49:16","新北市三重區忠孝路三段52號","121.480656666667","25.0656566666667","6500200","三重區"
"241012","941-UM","2019/07/02 19:49:14","新北市三重區仁興街40號","121.498891666667","25.0756683333333","6500200","三重區"
"241033","AAC-255","2019/07/02 19:49:13","新北市三重區中興南街66號","121.47074","25.0439733333333","6500200","三重區"
"235066","003-UY","2019/07/02 19:49:30","新北市中和區南工路26號","121.50553","25.0008433333333","6500300","中和區"
"235056","096-UM","2019/07/02 19:49:25","新北市板橋區漢生東路344號","121.471913333333","25.007455","6500300","中和區"
"235039","097-UM","2019/07/02 19:49:24","新北市中和區大勇街25巷38弄9號","121.516035","24.9939183333333","6500300","中和區"
"235065","098-UM","2019/07/02 19:49:26","新北市中和區莊敬路31巷36-1號","121.499765","25.0056483333333","6500300","中和區"
"235040","150-BY","2019/07/02 19:49:22","新北市中和區安平路38號","121.509703333333","24.9949533333333","6500300","中和區"
"235058","151-BY","2019/07/02 19:49:26","新北市中和區員山路150巷2弄3號","121.481823333333","24.9982183333333","6500300","中和區"
"235055","183-VK","2019/07/02 19:49:19","新北市中和區德光路15巷14號","121.471331666667","25.0036566666667","6500300","中和區"
"235038","185-VK","2019/07/02 19:49:20","新北市中和區自立路11號","121.522506666667","24.9964","6500300","中和區"
"235049","186-VK","2019/07/02 19:49:21","新北市中和區景平路385巷55號","121.501485","24.994345","6500300","中和區"
"235067","255-BX","2019/07/02 19:49:14","新北市中和區連城路340巷14弄1號","121.48333","24.99715","6500300","中和區"
"235044","293-VK","2019/07/02 19:49:15","新北市中和區景安路211號","121.504583333333","24.99173","6500300","中和區"
"235072","301-VK","2019/07/02 19:49:15","新北市中和區環河西路三段198號","121.487056666667","25.01576","6500300","中和區"
"235042","KEA-2878","2019/07/02 19:49:28","新北市永和區中正路26號","121.512843333333","24.9940733333333","6500300","中和區"
"247014","KEA-2869","2019/07/02 19:49:22","新北市蘆洲區中央路176號","121.471658333333","25.0842216666667","6501400","蘆洲區"
"235050","4979-A6","2019/07/02 19:49:16","新北市中和區景平路241巷84弄54號","121.506065","24.9924116666667","6500300","中和區"
"235070","558-UM","2019/07/02 19:49:29","新北市中和區圓通路120-2號","121.499076666667","24.9959933333333","6500300","中和區"
"235045","565-BX","2019/07/02 19:49:13","新北市中和區興南路一段2號","121.511613333333","24.9914933333333","6500300","中和區"
"235047","732-UM","2019/07/02 19:49:32","新北市中和區南山路150號","121.504188333333","24.9921283333333","6500300","中和區"
"235046","733-UM","2019/07/02 19:49:32","新北市中和區仁愛街22號","121.510833333333","24.9887766666667","6500300","中和區"
"235041","802-TS","2019/07/02 19:49:16","新北市中和區中安街96-1號","121.511865","25.0012316666667","6500300","中和區"
"235052","805-TS","2019/07/02 19:49:27","新北市中和區華新街30巷16號","121.506893333333","24.9844366666667","6500300","中和區"
"235048","896-TW","2019/07/02 19:49:27","新北市中和區捷運路6號","121.510195","24.9897366666667","6500300","中和區"
"235053","900-TW","2019/07/02 19:49:28","新北市中和區民德路105號","121.468938333333","25.0008133333333","6500300","中和區"
"235054","911-UM","2019/07/02 19:49:25","新北市中和區民享街87號","121.474313333333","25.0015483333333","6500300","中和區"
"235051","157-BY","2019/07/02 19:49:13","新北市中和區中興街180巷52弄3號","121.498513333333","24.98829","6500300","中和區"
"235037","AAC-213","2019/07/02 19:49:21","新北市中和區自立路20巷1號","121.522295","24.9934266666667","6500300","中和區"
"235059","AAC-215","2019/07/02 19:49:19","新北市中和區圓通路305巷22號","121.495173333333","24.988915","6500300","中和區"
"220065","072-UY","2019/07/02 19:49:22","新北市板橋區國泰街39巷2弄2號","121.468388333333","25.0063966666667","6500100","板橋區"
"220086","073-UY","2019/07/02 19:49:22","新北市板橋區中正路236巷47號","121.4579","25.0194216666667","6500100","板橋區"
"220106","075-UY","2019/07/02 19:49:25","新北市板橋區民治街52巷20號","121.478861666667","25.0328833333333","6500100","板橋區"
"220069","AAD-861","2019/07/02 19:49:16","新北市板橋區大明街21號","121.45875","25.0025933333333","6500100","板橋區"
"247004","893-R6","2019/07/02 19:49:20","新北市蘆洲區中原路63-1號","121.458673333333","25.082045","6501400","蘆洲區"
"247002","500-BY","2019/07/02 19:49:14","新北市蘆洲區永平街27號","121.458691666667","25.09076","6501400","蘆洲區"
"247015","337-TH","2019/07/02 19:49:16","新北市蘆洲區光復路9號","121.462375","25.0842983333333","6501400","蘆洲區"
"226004","312-R5","2019/07/02 19:49:18","新北市平溪區靜安路三段392巷3號","121.784515","25.0495633333333","6502400","平溪區"
"228001","212-TW","2019/07/02 19:49:25","新北市貢寮區真理里新港街56號","121.925923333333","25.0565233333333","6502600","貢寮區"
"228003","828-UM","2019/07/02 19:49:17","新北市貢寮區真理里美艷山街5-1號","121.926523333333","25.0596883333333","6502600","貢寮區"
"227001","642-TC","2019/07/02 19:49:19","新北市雙溪區新基里中華路74號","121.865881666667","25.0382516666667","6502500","雙溪區"
"227002","400-TW","2019/07/02 19:49:22","新北市雙溪區雙溪里內挖路47號","121.863206666667","25.0367933333333","6502500","雙溪區"
"222001","KEA-2212","2019/07/02 19:49:28","新北市深坑區北深路三段114號","121.606683333333","25.00165","6501800","深坑區"
"208002","KEA-2872","2019/07/02 19:49:14","新北市金山區中正路145號","121.632015","25.2214383333333","6502700","金山區"
"208003","665-BX","2019/07/02 19:49:23","新北市金山區海興路112-1號","121.63118","25.238645","6502700","金山區"
"251004","009-UM","2019/07/02 19:49:13","新北市淡水區民權路177巷55號","121.460461666667","25.1337833333333","6501000","淡水區"
"251002","012-UM","2019/07/02 19:49:16","新北市淡水區下圭柔山91-3號","121.430905","25.2098433333333","6501000","淡水區"
"251015","KEA-2871","2019/07/02 19:49:17","新北市淡水區山子頂24-1號","121.49147","25.1873066666667","6501000","淡水區"
"251016","179-VK","2019/07/02 19:49:21","新北市淡水區三塊厝3-2號","121.455221666667","25.2094216666667","6501000","淡水區"
"251008","181-VK","2019/07/02 19:49:28","新北市淡水區中正路一段24巷2-4號","121.426755","25.17702","6501000","淡水區"
"251013","182-VK","2019/07/02 19:49:25","新北市淡水區頂田寮路109號","121.458641666667","25.21617","6501000","淡水區"
"251012","441-VK","2019/07/02 19:49:28","新北市淡水區淡金路三段30號","121.447696666667","25.19848","6501000","淡水區"
"251007","442-VK","2019/07/02 19:49:28","新北市淡水區中正東路一段3巷25號","121.451576666667","25.1653566666667","6501000","淡水區"
"251005","443-VK","2019/07/02 19:49:26","新北市淡水區中正東路63號","121.44664","25.1674333333333","6501000","淡水區"
"251001","559-UM","2019/07/02 19:49:21","新北市淡水區淡金路42-1號","121.456378333333","25.16118","6501000","淡水區"
"251006","561-UM","2019/07/02 19:49:31","新北市淡水區水碓街3號","121.443146666667","25.1768733333333","6501000","淡水區"
"251009","575-R6","2019/07/02 19:49:27","新北市淡水區中正路46號","121.443443333333","25.16946","6501000","淡水區"
"251014","577-R6","2019/07/02 19:49:15","新北市淡水區石頭厝17-5號","121.46816","25.2370033333333","6501000","淡水區"
"251011","650-BX","2019/07/02 19:49:31","新北市淡水區中正東路二段5巷31號","121.460596666667","25.15849","6501000","淡水區"
"207003","550-UM","2019/07/02 19:49:25","新北市萬里區磺潭里公館崙4號","121.642191666667","25.2145616666667","6502800","萬里區"
"207004","225-TW","2019/07/02 19:49:26","新北市萬里區萬里里瑪鋉路124號","121.690581666667","25.1790716666667","6502800","萬里區"
"252002","178-VK","2019/07/02 19:49:18","新北市三芝區三民街27巷7號","121.504705","25.2584183333333","6502100","三芝區"
"208001","170-UY","2019/07/02 19:49:17","新北市金山區重和里六股林口25號","121.603335","25.2192316666667","6502700","金山區"
"237004","KEA-2597","2019/07/02 19:49:28","新北市三峽區添福295號","121.37736","24.88605","6500900","三峽區"
"237007","153-BY","2019/07/02 19:49:14","新北市三峽區二鬮路136巷20弄101號","121.358341666667","24.9087466666667","6500900","三峽區"
"237009","210-TH","2019/07/02 19:49:25","新北市三峽區清水街428號","121.368713333333","24.9259566666667","6500900","三峽區"
"237013","252-BX","2019/07/02 19:49:13","","121.397166666667","24.9358933333333","6500900","三峽區"
"237008","302-VK","2019/07/02 19:49:15","新北市三峽區中華路138號","121.370686666667","24.9271033333333","6500900","三峽區"
"237014","433-BY","2019/07/02 19:49:28","新北市三峽區添福27-1號","121.37283","24.9041333333333","6500900","三峽區"
"237012","280-TH","2019/07/02 19:49:24","新北市三峽區光明路26號","121.373573333333","24.9308066666667","6500900","三峽區"
"237006","5529-G3","2019/07/02 19:49:28","新北市三峽區中正路一段336巷15弄2號","121.370166666667","24.9249483333333","6500900","三峽區"
"237015","649-BX","2019/07/02 19:49:20","新北市三峽區橫溪路99巷3號","121.399633333333","24.9360816666667","6500900","三峽區"
"237005","AKY-6261","2019/07/02 19:49:19","新北市三峽區長泰街57號","121.377245","24.932865","6500900","三峽區"
"236042","KED-0685","2019/07/02 19:49:22","新北市土城區裕民路259巷12號","121.455035","24.9834116666667","6501300","土城區"
"220089","KED-0812","2019/07/02 19:49:27","新北市板橋區互助街56號","121.46146","25.0268533333333","6500100","板橋區"
"236079","166-UM","2019/07/02 19:49:32","新北市土城區民權街17號","121.414","24.9637166666667","6501300","土城區"
"236030","253-BX","2019/07/02 19:49:20","新北市土城區中央路一段294號","121.443338333333","24.9823566666667","6501300","土城區"
"236026","269-VK","2019/07/02 19:49:22","新北市土城區中央路二段61巷28號","121.443428333333","24.9786533333333","6501300","土城區"
"236038","271-VK","2019/07/02 19:49:24","新北市土城區國際路158巷24弄1號","121.468355","24.9758016666667","6501300","土城區"
"236070","KEA-2877","2019/07/02 19:49:26","新北市土城區中央路二段346巷13號","121.439491666667","24.9722533333333","6501300","土城區"
"252001","KED-0821","2019/07/02 19:49:28","新北市三芝區公正街66號","121.499795","25.2574916666667","6502100","三芝區"
"236021","401-BY","2019/07/02 19:49:23","新北市土城區延吉街137巷9號","121.470906666667","24.985845","6501300","土城區"
"236059","912-UM","2019/07/02 19:49:23","新北市土城區中央路一段159號","121.446438333333","24.987755","6501300","土城區"
"236049","913-UM","2019/07/02 19:49:18","新北市土城區青雲路237號","121.459045","24.98126","6501300","土城區"
"236063","915-UM","2019/07/02 19:49:30","新北市土城區金城路三段149巷4弄14號","121.468466666667","24.9892416666667","6501300","土城區"
"236055","AAC-216","2019/07/02 19:49:30","新北市土城區延和路117號","121.46805","24.990485","6501300","土城區"
"242039","AAC-296","2019/07/02 19:49:19","新北市新莊區民安路299巷52號","121.429663333333","25.0237633333333","6500500","新莊區"
"242002","751-BX","2019/07/02 19:49:25","新北市新莊區新泰路2-11號","121.45014","25.032545","6500500","新莊區"
"242029","615-BX","2019/07/02 19:49:24","新北市新莊區中平路280-1號","121.444968333333","25.050545","6500500","新莊區"
"242005","440-UM","2019/07/02 19:49:19","新北市新莊區化成路63巷24號","121.463278333333","25.04589","6500500","新莊區"
"242048","400-BY","2019/07/02 19:49:21","新北市新莊區建安街92巷17號","121.4258","25.0245","6500500","新莊區"
"242025","362-BY","2019/07/02 19:49:24","新北市新莊區五權一路12巷22號","121.45761","25.064375","6500500","新莊區"
"242023","353-BY","2019/07/02 19:49:15","新北市新莊區化成路154號","121.46545","25.0452083333333","6500500","新莊區"
"242013","132-UY","2019/07/02 19:49:29","新北市新莊區中泰街51號","121.450246666667","25.0468316666667","6500500","新莊區"
"242037","135-UY","2019/07/02 19:49:23","新北市新莊區民安路207巷27號","121.427245","25.023575","6500500","新莊區"
"242015","173-VK","2019/07/02 19:49:23","新北市新莊區新泰路502巷48號","121.444131666667","25.0463783333333","6500500","新莊區"
"242034","348-TH","2019/07/02 19:49:23","新北市新莊區仁愛街73號","121.444165","25.0377733333333","6500500","新莊區"
"242032","350-TH","2019/07/02 19:49:21","新北市新莊區公園一路104號","121.443783333333","25.0375366666667","6500500","新莊區"
"238015","755-BX","2019/07/02 19:49:12","新北市樹林區中山路一段149-2號","121.422125","24.9892266666667","6500700","樹林區"
"238024","5061-A6","2019/07/02 19:49:19","新北市樹林區中山路三段210-2號","121.381198333333","24.9657116666667","6500700","樹林區"
"238021","KEA-2539","2019/07/02 19:49:32","新北市樹林區佳園路三段181巷105號","121.39216","24.9484483333333","6500700","樹林區"
"238025","303-VK","2019/07/02 19:49:34","新北市樹林區中山路二段162號","121.4121","24.9829483333333","6500700","樹林區"
"238017","283-BY","2019/07/02 19:49:28","新北市樹林區保安街二段105號","121.415536666667","25.00132","6500700","樹林區"
"238014","282-BY","2019/07/02 19:49:20","新北市樹林區千歲街70巷6弄6號","121.42678","24.99686","6500700","樹林區"
"239006","891-R6","2019/07/02 19:49:28","新北市鶯歌區鶯桃路294-1號","121.334878333333","24.960285","6500800","鶯歌區"
"239005","526-UM","2019/07/02 19:49:33","新北市鶯歌區大湖路253號","121.345746666667","24.9728783333333","6500800","鶯歌區"
"239001","417-VK","2019/07/02 19:49:12","新北市鶯歌區中正一路460號","121.364288333333","24.95638","6500800","鶯歌區"
"239002","359-BY","2019/07/02 19:49:31","新北市鶯歌區湖山路42號","121.339961666667","24.9749633333333","6500800","鶯歌區"
"221008","489-VK","2019/07/02 19:49:13","新北市汐止區康寧街61巷22弄7號","121.61971","25.06697","6501100","汐止區"
"221010","269-BY","2019/07/02 19:49:31","新北市汐止區汐萬路一段411號","121.649241666667","25.079435","6501100","汐止區"
"221012","278-VK","2019/07/02 19:49:30","新北市汐止區大同路三段334號","121.679763333333","25.071035","6501100","汐止區"
"221023","279-VK","2019/07/02 19:49:26","新北市汐止區中興路284號","121.628326666667","25.0694466666667","6501100","汐止區"
"221029","298-VK","2019/07/02 19:49:26","新北市汐止區康寧街901號","121.651526666667","25.074965","6501100","汐止區"
"221021","299-VK","2019/07/02 19:49:23","新北市汐止區復興路58巷11弄10號","121.656248333333","25.0616033333333","6501100","汐止區"
"221031","353-TW","2019/07/02 19:49:24","新北市汐止區伯爵街1巷16號","121.641216666667","25.0751283333333","6501100","汐止區"
"221038","646-BX","2019/07/02 19:49:30","新北市汐止區忠孝東路414號","121.665901666667","25.07121","6501100","汐止區"
"220079","145-BY","2019/07/02 19:49:09","新北市板橋區民權路202巷17-1號","121.460771666667","25.016635","6500100","板橋區"
"220080","200-UY","2019/07/02 19:49:13","新北市板橋區大觀路二段37巷282號","121.449858333333","25.0011433333333","6500100","板橋區"
"220082","610-BX","2019/07/02 19:49:20","新北市板橋區大觀路三段191號","121.432008333333","24.9937633333333","6500100","板橋區"
"220101","245-BX","2019/07/02 19:49:24","新北市板橋區萬板路118號","121.474968333333","25.02343","6500100","板橋區"
"224002","257-TC","2019/07/02 19:49:14","新北市瑞芳區民享新村8號","121.816986666667","25.1055033333333","6501200","瑞芳區"
"220056","276-BY","2019/07/02 19:49:24","新北市板橋區信義路1巷4號","121.4573","24.9970166666667","6500100","板橋區"
"220072","277-BY","2019/07/02 19:49:27","新北市板橋區金門街215巷79號","121.434075","24.9893683333333","6500100","板橋區"
"220094","283-UM","2019/07/02 19:49:27","新北市板橋區雨農路17巷1號","121.462066666667","25.0246333333333","6500100","板橋區"
"220071","283-VK","2019/07/02 19:49:25","新北市板橋區和平路174巷28號","121.464635","24.9944733333333","6500100","板橋區"
"220053","285-VK","2019/07/02 19:49:11","新北市板橋區中山路二段90巷24號","121.475645","25.0156166666667","6500100","板橋區"
"220083","286-VK","2019/07/02 19:49:23","新北市板橋區龍興街63巷37號","121.44197","25.0016383333333","6500100","板橋區"
"220081","287-VK","2019/07/02 19:49:20","新北市板橋區大觀路一段29巷133弄2號","121.450306666667","25.0054333333333","6500100","板橋區"
"220090","288-VK","2019/07/02 19:49:26","新北市板橋區漢生西路165巷1號","121.462831666667","25.0233016666667","6500100","板橋區"
"220061","295-UM","2019/07/02 19:49:31","新北市板橋區觀光街1巷14號","121.471648333333","25.0152933333333","6500100","板橋區"
"220084","296-UM","2019/07/02 19:49:31","新北市板橋區溪崑二街118巷1號","121.425786666667","24.9885216666667","6500100","板橋區"
"220075","303-R5","2019/07/02 19:49:26","新北市板橋區大勇街3巷1號","121.455056666667","25.01745","6500100","板橋區"
"220062","305-R5","2019/07/02 19:49:32","新北市板橋區中山路二段416巷38弄36號","121.481746666667","25.0194916666667","6500100","板橋區"
"220092","307-R5","2019/07/02 19:49:28","新北市板橋區新海路109巷1弄2號","121.460715","25.0224383333333","6500100","板橋區"
"220098","317-R6","2019/07/02 19:49:31","新北市板橋區四維路279巷61號","121.46063","25.0274416666667","6500100","板橋區"
"220088","491-VK","2019/07/02 19:49:32","新北市板橋區懷德街181巷5號","121.479463333333","25.02999","6500100","板橋區"
"220035","560-BX","2019/07/02 19:49:32","新北市板橋區新生街86號","121.458128333333","25.0215016666667","6500100","板橋區"
"220103","561-BX","2019/07/02 19:49:11","新北市板橋區陽明街105號","121.463886666667","25.0233666666667","6500100","板橋區"
"220063","609-BX","2019/07/02 19:49:34","新北市板橋區三民路一段3巷1號","121.478795","25.02367","6500100","板橋區"
"220091","637-BX","2019/07/02 19:49:28","新北市板橋區懷德街127巷23弄9號","121.479396666667","25.0315633333333","6500100","板橋區"
"220057","686-BX","2019/07/02 19:49:19","新北市板橋區信義路19號","121.45697","24.996575","6500100","板橋區"
"220077","687-BX","2019/07/02 19:49:26","新北市板橋區僑中二街108巷1號","121.445836666667","25.007095","6500100","板橋區"
"220093","689-BX","2019/07/02 19:49:21","新北市板橋區長江路三段31號","121.472828333333","25.0338283333333","6500100","板橋區"
"220054","741-BX","2019/07/02 19:49:31","新北市板橋區忠孝路196-2號","121.465505","25.002715","6500100","板橋區"
"220102","KEA-2699","2019/07/02 19:49:29","新北市板橋區松柏街40號","121.475283333333","25.0301","6500100","板橋區"
"220055","827-TW","2019/07/02 19:49:17","新北市板橋區信義路1巷26弄50號","121.459961666667","24.9966366666667","6500100","板橋區"
"220067","829-TW","2019/07/02 19:49:18","新北市板橋區長安街138巷1弄294號","121.47493","25.01123","6500100","板橋區"
"220068","831-TW","2019/07/02 19:49:16","新北市板橋區中山路二段412巷29弄8-6號","121.484428333333","25.019735","6500100","板橋區"
"220074","895-R6","2019/07/02 19:49:16","新北市板橋區館前西路126號","121.45651","25.007785","6500100","板橋區"
"220073","985-R7","2019/07/02 19:49:20","新北市板橋區國光路49巷2號","121.458108333333","25.0181516666667","6500100","板橋區"
"220097","AAC-210","2019/07/02 19:49:12","新北市板橋區光正街45巷20號","121.46164","25.0166433333333","6500100","板橋區"
"220064","AAC-253","2019/07/02 19:49:21","新北市板橋區實踐路114號","121.464133333333","25.004295","6500100","板橋區"
"235068","KEA-2873","2019/07/02 19:49:20","新北市中和區中山路二段136巷3弄4號","121.501481666667","25.00367","6500300","中和區"
"235043","KEA-2876","2019/07/02 19:49:21","新北市中和區華新街232巷1號","121.505973333333","24.981625","6500300","中和區"
