"lineid","car","time","location","longitude","latitude","cityid","cityname"
"234081","298-R6","2019/07/02 20:39:21","新北市永和區永貞路80號","121.520175","25.00508","6500400","永和區"
"234064","337-UY","2019/07/02 20:39:28","新北市永和區林森路101巷4號","121.523206666667","25.0035283333333","6500400","永和區"
"234061","AAD-866","2019/07/02 20:39:15","新北市永和區秀朗路一段175號","121.517031666667","25.0036716666667","6500400","永和區"
"234042","862-TW","2019/07/02 20:39:30","新北市永和區安樂路348號","121.514505","25.006425","6500400","永和區"
"249001","173-UM","2019/07/02 20:39:33","新北市八里區中山路三段382號","121.368578333333","25.136195","6502300","八里區"
"249004","303-UY","2019/07/02 20:39:27","新北市八里區中山路一段332號","121.412616666667","25.15906","6502300","八里區"
"234023","9380-KE","2019/07/02 20:39:20","新北市永和區竹林路25巷34號","121.518135","25.014945","6500400","永和區"
"234074","AAC-211","2019/07/02 20:39:29","新北市永和區竹林路119巷30弄2號","121.522031666667","25.01155","6500400","永和區"
"243010","297-R6","2019/07/02 20:38:02","新北市泰山區明志路二段177號","121.427573333333","25.05009","6501600","泰山區"
"243011","KEA-2216","2019/07/02 20:09:20","新北市泰山區貴陽街3號","121.420961666667","25.0336316666667","6501600","泰山區"
"222003","436-BY","2019/07/02 20:39:28","新北市深坑區文山路二段30巷31號","121.615593333333","24.9986833333333","6501800","深坑區"
"222002","659-BX","2019/07/02 20:39:16","新北市深坑區萬福路43號","121.599391666667","25.0068716666667","6501800","深坑區"
"231061","002-UM","2019/07/02 20:39:23","新北市新店區新和街34號","121.519118333333","24.98475","6500600","新店區"
"231058","0293-UT","2019/07/02 20:39:31","新北市新店區自由街5號","121.53556","24.9752233333333","6500600","新店區"
"231044","046-UY","2019/07/02 20:39:29","新北市新店區建國路293巷1號","121.536678333333","24.9861866666667","6500600","新店區"
"231060","106-UY","2019/07/02 20:39:23","新北市新店區錦秀路61號","121.479063333333","24.9430616666667","6500600","新店區"
"231051","107-UY","2019/07/02 20:39:16","新北市新店區中央八街128號","121.525045","24.9784633333333","6500600","新店區"
"231049","108-UY","2019/07/02 20:39:32","新北市新店區永業路81巷7弄1號","121.530371666667","24.9487983333333","6500600","新店區"
"231068","187-VK","2019/07/02 20:39:18","新北市新店區中興路三段330號","121.542228333333","24.986575","6500600","新店區"
"231065","KEA-2219","2019/07/02 20:39:24","新北市新店區安祥路102巷118號","121.486796666667","24.9641233333333","6500600","新店區"
"221025","KEA-2785","2019/07/02 20:39:34","新北市汐止區水源路二段167號","121.657641666667","25.05418","6501100","汐止區"
"231054","260-TV","2019/07/02 20:39:17","新北市新店區行政街45號","121.543063333333","24.9655716666667","6500600","新店區"
"231042","268-BY","2019/07/02 20:39:16","新北市新店區寶高路120巷1號","121.55457","24.9760933333333","6500600","新店區"
"231064","278-BY","2019/07/02 20:39:16","新北市新店區安和路三段111巷7弄3號","121.516761666667","24.9846983333333","6500600","新店區"
"231050","AAD-862","2019/07/02 20:39:26","新北市新店區中正路263-5號","121.538191666667","24.9739683333333","6500600","新店區"
"231045","355-BY","2019/07/02 20:39:15","新北市新店區長春路211號","121.559166666667","24.96197","6500600","新店區"
"231055","4716-K9","2019/07/02 20:39:17","新北市新店區柴埕路52巷1-3號","121.512423333333","24.9645933333333","6500600","新店區"
"231056","4715-K9","2019/07/02 20:39:31","新北市新店區溪園路397號","121.523571666667","24.9778666666667","6500600","新店區"
"231067","4772-VM","2019/07/02 20:39:17","新北市新店區安華路28-1號","121.519765","24.960815","6500600","新店區"
"231053","513-UM","2019/07/02 20:39:25","新北市新店區松林路51號","121.544441666667","24.9113583333333","6500600","新店區"
"231041","619-UM","2019/07/02 20:39:17","新北市新店區中正路546號","121.533573333333","24.9864516666667","6500600","新店區"
"231063","641-BX","2019/07/02 20:39:25","新北市新店區玫瑰路4-2號","121.494028333333","24.95122","6500600","新店區"
"231048","KED-0819","2019/07/02 20:39:25","新北市新店區寶元路一段63巷48號","121.542481666667","24.9865333333333","6500600","新店區"
"231062","718-UY","2019/07/02 20:39:17","新北市新店區安泰路60巷55弄117號","121.48451","24.9463983333333","6500600","新店區"
"231057","720-UM","2019/07/02 20:39:22","新北市新店區花園六路二段20號","121.555263333333","24.9331833333333","6500600","新店區"
"231059","897-TW","2019/07/02 20:39:18","新北市新店區安豐路39號","121.500395","24.9558133333333","6500600","新店區"
"231040","898-TW","2019/07/02 20:39:21","新北市新店區中正路265巷1號","121.537978333333","24.97366","6500600","新店區"
"231043","899-TW","2019/07/02 20:39:21","新北市新店區建國路2號","121.539803333333","24.9732766666667","6500600","新店區"
"231066","AKT-0513","2019/07/02 20:39:33","新北市新店區安興路83-3號","121.515283333333","24.9754816666667","6500600","新店區"
"241011","013-R5","2019/07/02 20:39:23","新北市三重區龍濱路190號","121.50108","25.0732716666667","6500200","三重區"
"241028","022-UY","2019/07/02 20:39:15","新北市三重區光興街24號","121.497528333333","25.0598866666667","6500200","三重區"
"241008","059-VK","2019/07/02 20:39:20","新北市三重區下竹圍街36號","121.481001666667","25.0749683333333","6500200","三重區"
"241029","060-VK","2019/07/02 20:39:20","新北市三重區集美街126巷24號","121.489951666667","25.0539283333333","6500200","三重區"
"241031","061-VK","2019/07/02 20:39:15","新北市三重區重陽路一段113巷1弄42號","121.488228333333","25.0587683333333","6500200","三重區"
"241015","062-VK","2019/07/02 20:39:16","新北市三重區雙園街1號","121.497755","25.068495","6500200","三重區"
"241017","063-VK","2019/07/02 20:39:15","新北市三重區大同北路271巷4號","121.4909","25.0674283333333","6500200","三重區"
"241024","065-VK","2019/07/02 20:39:13","新北市三重區三民街206巷2號","121.480791666667","25.0666583333333","6500200","三重區"
"241001","066-VK","2019/07/02 20:39:34","新北市三重區自強路三段110巷7號","121.486485","25.0746283333333","6500200","三重區"
"241002","090-VK","2019/07/02 20:39:27","新北市三重區仁義街167巷55號","121.498876666667","25.0826016666667","6500200","三重區"
"241003","091-VK","2019/07/02 20:39:21","新北市三重區五華街141巷58號","121.493571666667","25.08677","6500200","三重區"
"241030","742-BX","2019/07/02 20:39:13","新北市三重區成功路73巷6號","121.489186666667","25.0516266666667","6500200","三重區"
"241005","262-UM","2019/07/02 20:39:26","新北市三重區碧華街325號","121.491433333333","25.0845566666667","6500200","三重區"
"241016","266-UM","2019/07/02 20:39:14","新北市三重區長壽西街126號","121.49512","25.0669333333333","6500200","三重區"
"241009","267-UM","2019/07/02 20:39:25","新北市三重區碧華街51號","121.484628333333","25.0813883333333","6500200","三重區"
"241018","268-UM","2019/07/02 20:39:25","新北市三重區自強路一段316號","121.491066666667","25.068425","6500200","三重區"
"241032","269-UM","2019/07/02 20:39:27","新北市三重區重陽路一段120巷48號","121.485043333333","25.0601066666667","6500200","三重區"
"241013","270-UM","2019/07/02 20:39:31","新北市三重區三和路四段5號","121.491506666667","25.0739983333333","6500200","三重區"
"241007","398-BY","2019/07/02 20:39:19","新北市三重區三和路四段97-13號","121.488356666667","25.0768366666667","6500200","三重區"
"241035","KEA-2210","2019/07/02 20:39:27","新北市三重區正義北路328號","121.494773333333","25.070655","6500200","三重區"
"241004","475-VK","2019/07/02 20:39:28","新北市三重區仁愛街467號","121.489361666667","25.0821133333333","6500200","三重區"
"241020","478-VK","2019/07/02 20:39:26","新北市三重區忠孝路一段101號","121.489471666667","25.0721733333333","6500200","三重區"
"241026","480-VK","2019/07/02 20:39:25","新北市三重區和平街1號","121.500178333333","25.0622633333333","6500200","三重區"
"241014","543-UM","2019/07/02 20:39:26","新北市三重區萬壽街14號","121.49937","25.0693816666667","6500200","三重區"
"241023","545-UM","2019/07/02 20:39:24","新北市三重區自由街53號","121.478661666667","25.0666066666667","6500200","三重區"
"241019","KEA-2593","2019/07/02 20:39:33","新北市三重區三張街28號","121.491766666667","25.071165","6500200","三重區"
"241006","AAD-863","2019/07/02 20:39:22","新北市三重區車路頭街139巷14號","121.484361666667","25.0761366666667","6500200","三重區"
"241022","743-BX","2019/07/02 20:38:00","新北市三重區民生街61巷6弄14號","121.488688333333","25.0619833333333","6500200","三重區"
"241025","887-TS","2019/07/02 20:39:16","新北市三重區大有街1-32號","121.476771666667","25.0652683333333","6500200","三重區"
"241012","941-UM","2019/07/02 20:39:34","新北市三重區龍濱路243巷20號","121.502118333333","25.0728933333333","6500200","三重區"
"241033","AAC-255","2019/07/02 20:39:33","新北市三重區光復路二段1號","121.472296666667","25.0532866666667","6500200","三重區"
"235055","183-VK","2019/07/02 20:39:19","新北市八里區中山路三段409號","121.368386666667","25.1348966666667","6500300","中和區"
"235067","255-BX","2019/07/02 20:39:33","新北市八里區下罟子1-7號","121.391466666667","25.1415916666667","6500300","中和區"
"247014","KEA-2869","2019/07/02 20:39:24","新北市蘆洲區中山一路247號","121.473146666667","25.080505","6501400","蘆洲區"
"247008","KED-0682","2019/07/02 20:39:34","新北市蘆洲區集賢路403號","121.48055","25.0813966666667","6501400","蘆洲區"
"235069","4980-A6","2019/07/02 20:39:35","新北市中和區連城路343號","121.488215","24.9958883333333","6500300","中和區"
"235018","911-UM","2019/07/02 20:38:10","新北市中和區員山路36巷16-2號","121.485278333333","24.9918716666667","6500300","中和區"
"247004","893-R6","2019/07/02 20:39:19","新北市蘆洲區長安街222號","121.458325","25.08483","6501400","蘆洲區"
"247002","500-BY","2019/07/02 20:39:14","新北市蘆洲區永樂街45號","121.457176666667","25.088475","6501400","蘆洲區"
"247015","337-TH","2019/07/02 20:39:16","新北市蘆洲區光復路59號","121.463651666667","25.0852883333333","6501400","蘆洲區"
"247022","057-VK","2019/07/02 20:39:20","新北市蘆洲區中正路263巷5號","121.466948333333","25.0871133333333","6501400","蘆洲區"
"247012","056-VK","2019/07/02 20:39:26","新北市蘆洲區集賢路224巷46弄50-1號","121.48115","25.0877916666667","6501400","蘆洲區"
"247016","053-VK","2019/07/02 20:39:13","新北市蘆洲區中山二路288號","121.468876666667","25.077765","6501400","蘆洲區"
"247006","002-UY","2019/07/02 20:39:31","新北市蘆洲區和平路136號","121.467088333333","25.0805233333333","6501400","蘆洲區"
"222001","KEA-2212","2019/07/02 20:39:28","新北市深坑區北深路三段211號","121.600546666667","25.0038583333333","6501800","深坑區"
"251002","012-UM","2019/07/02 20:39:16","新北市淡水區中正路38-1號","121.443686666667","25.1692933333333","6501000","淡水區"
"251015","KEA-2871","2019/07/02 20:39:17","新北市淡水區淡金路三段446號","121.450886666667","25.21441","6501000","淡水區"
"251016","179-VK","2019/07/02 20:39:21","新北市淡水區後洲子8-2號","121.449505","25.224015","6501000","淡水區"
"251008","181-VK","2019/07/02 20:39:28","新北市淡水區沙崙路181巷27號","121.423211666667","25.1846533333333","6501000","淡水區"
"251013","182-VK","2019/07/02 20:39:29","新北市淡水區下圭柔山28巷3號","121.457116666667","25.204695","6501000","淡水區"
"251010","413-VK","2019/07/02 20:39:14","新北市淡水區沙崙路181巷15號","121.424003333333","25.1843733333333","6501000","淡水區"
"251012","441-VK","2019/07/02 20:39:28","新北市淡水區興仁路108號","121.451703333333","25.2181383333333","6501000","淡水區"
"251007","442-VK","2019/07/02 20:39:28","新北市淡水區忠愛街3-1號","121.457286666667","25.1717533333333","6501000","淡水區"
"251001","559-UM","2019/07/02 20:39:21","新北市淡水區水源街二段177巷32弄20號","121.455018333333","25.1782366666667","6501000","淡水區"
"251006","561-UM","2019/07/02 20:39:31","新北市淡水區商工路192號","121.450786666667","25.1881566666667","6501000","淡水區"
"251014","577-R6","2019/07/02 20:39:15","新北市淡水區公埔子38號","121.464775","25.23276","6501000","淡水區"
"251003","673-BX","2019/07/02 20:39:24","新北市淡水區新民街120巷17號","121.438245","25.17807","6501000","淡水區"
"252002","178-VK","2019/07/02 20:39:18","新北市三芝區淡金路二段89-1號","121.504066666667","25.2608583333333","6502100","三芝區"
"247010","KED-0683","2019/07/02 20:39:30","新北市蘆洲區集賢路226號","121.482378333333","25.0865716666667","6501400","蘆洲區"
"252001","KED-0821","2019/07/02 20:39:28","新北市三芝區育英街29-1號","121.50131","25.2573416666667","6502100","三芝區"
"242039","AAC-296","2019/07/02 20:39:19","新北市新莊區瓊林路204-13號","121.43742","25.02127","6500500","新莊區"
"242061","986-R7","2019/07/02 20:39:18","新北市新莊區新樹路258巷3號","121.432128333333","25.01557","6500500","新莊區"
"242002","751-BX","2019/07/02 20:39:25","新北市新莊區中正路72號","121.458795","25.03816","6500500","新莊區"
"242029","615-BX","2019/07/02 20:39:24","新北市新莊區中華路二段26-1號","121.453583333333","25.0451066666667","6500500","新莊區"
"242027","613-BX","2019/07/02 20:39:26","新北市新莊區思源路233號","121.45987","25.046605","6500500","新莊區"
"242058","612-BX","2019/07/02 20:39:23","新北市新莊區四維路117號","121.423103333333","25.0232333333333","6500500","新莊區"
"242046","566-BX","2019/07/02 20:39:34","新北市新莊區裕民街27號","121.419125","25.02537","6500500","新莊區"
"242051","497-BY","2019/07/02 20:39:34","新北市新莊區民安西路165號","121.426108333333","25.0162133333333","6500500","新莊區"
"242005","440-UM","2019/07/02 20:39:29","新北市新莊區化成路403巷19號","121.46402","25.0586333333333","6500500","新莊區"
"242042","415-TV","2019/07/02 20:39:32","新北市新莊區中正路694巷3弄22號","121.417945","25.02817","6500500","新莊區"
"242011","413-TV","2019/07/02 20:39:15","新北市新莊區中榮街122巷18號","121.446613333333","25.05352","6500500","新莊區"
"242048","400-BY","2019/07/02 20:39:21","新北市新莊區中正路723-8號","121.423095","25.0290183333333","6500500","新莊區"
"242025","362-BY","2019/07/02 20:39:24","新北市新莊區化成路579巷1號","121.4643","25.0660783333333","6500500","新莊區"
"242023","353-BY","2019/07/02 20:39:15","新北市新莊區化成路488-3號","121.46614","25.05198","6500500","新莊區"
"242013","132-UY","2019/07/02 20:39:29","新北市新莊區中和街191巷71號","121.446671666667","25.0514533333333","6500500","新莊區"
"242037","135-UY","2019/07/02 20:39:23","新北市新莊區建安街10-1號","121.42848","25.0265366666667","6500500","新莊區"
"242054","172-VK","2019/07/02 20:39:13","新北市新莊區民安西路215號","121.426023333333","25.0145533333333","6500500","新莊區"
"242015","173-VK","2019/07/02 20:39:22","新北市新莊區中和街32號","121.448211666667","25.043845","6500500","新莊區"
"242021","175-VK","2019/07/02 20:39:28","新北市新莊區中華路一段60號","121.45202","25.0385566666667","6500500","新莊區"
"242009","176-VK","2019/07/02 20:39:28","新北市新莊區幸福路64巷4弄5號","121.457373333333","25.0500516666667","6500500","新莊區"
"242019","KED-0687","2019/07/02 20:39:18","新北市新莊區銘德街102號","121.455758333333","25.043385","6500500","新莊區"
"242056","346-TH","2019/07/02 20:39:30","新北市新莊區瓊泰路161號","121.443203333333","25.0312033333333","6500500","新莊區"
"242034","348-TH","2019/07/02 20:39:19","新北市新莊區中正路423-2號","121.444391666667","25.034345","6500500","新莊區"
"242007","349-TH","2019/07/02 20:39:32","新北市新莊區思源路287巷2弄6號","121.459398333333","25.0483483333333","6500500","新莊區"
"242017","351-TH","2019/07/02 20:39:30","新北市新莊區中港三街120號","121.447866666667","25.04611","6500500","新莊區"
"221008","489-VK","2019/07/02 20:39:13","新北市汐止區康寧街487號","121.632343333333","25.06848","6501100","汐止區"
"221036","130-UY","2019/07/02 20:39:24","新北市汐止區新昌路9號","121.662016666667","25.0672483333333","6501100","汐止區"
"221015","131-UY","2019/07/02 20:39:28","新北市汐止區建成路58號","121.663583333333","25.0730266666667","6501100","汐止區"
"221010","269-BY","2019/07/02 20:39:31","新北市汐止區八連路二段636-3號","121.62567","25.110415","6501100","汐止區"
"221012","278-VK","2019/07/02 20:39:30","新北市汐止區保新街159號","121.688488333333","25.06909","6501100","汐止區"
"221023","279-VK","2019/07/02 20:39:25","新北市汐止區湖東街9號","121.63476","25.0723166666667","6501100","汐止區"
"221032","280-BY","2019/07/02 20:39:23","新北市汐止區橫科路322巷24弄6-1號","121.620761666667","25.0499083333333","6501100","汐止區"
"221033","297-VK","2019/07/02 20:39:33","新北市汐止區合順街18巷8弄5號","121.620306666667","25.041905","6501100","汐止區"
"221029","298-VK","2019/07/02 20:39:26","新北市汐止區大同路一段505號","121.645038333333","25.0624816666667","6501100","汐止區"
"221021","299-VK","2019/07/02 20:39:30","新北市汐止區水源路一段282巷1號","121.654076666667","25.058235","6501100","汐止區"
"221031","353-TW","2019/07/02 20:39:24","新北市汐止區福德一路237號","121.634276666667","25.0647066666667","6501100","汐止區"
"221035","622-UM","2019/07/02 20:39:26","新北市汐止區長江街101-5號","121.65869","25.0732283333333","6501100","汐止區"
"221038","646-BX","2019/07/02 20:39:30","新北市汐止區大同路二段236-5號","121.654185","25.064955","6501100","汐止區"
"221002","707-TV","2019/07/02 20:39:18","新北市汐止區福德二路132巷3號","121.630658333333","25.065525","6501100","汐止區"
"221018","753-BX","2019/07/02 20:39:25","新北市汐止區茄苳路70號","121.666701666667","25.0706516666667","6501100","汐止區"
"220101","245-BX","2019/07/02 20:39:17","新北市八里區中山路三段409號","121.368295","25.134805","6500100","板橋區"
"220083","286-VK","2019/07/02 20:39:21","新北市板橋區僑中二街104巷34號","121.444711666667","25.0081066666667","6500100","板橋區"
"220081","287-VK","2019/07/02 20:39:18","新北市板橋區大觀路二段62號","121.445231666667","25.000615","6500100","板橋區"
"242044","281-VK","2019/07/02 20:39:30","新北市新莊區龍安路65號","121.41554","25.0215216666667","6500500","新莊區"
