"lineid","car","time","location","longitude","latitude","cityid","cityname"
"247015","337-TH","2019/07/02 22:18:56","新北市五股區中興路三段163號","121.449451666667","25.080765","6501400","蘆洲區"
"251004","009-UM","2019/07/02 22:19:28","新北市淡水區民族路33號","121.462313333333","25.1358566666667","6501000","淡水區"
"251008","181-VK","2019/07/02 22:19:28","新北市淡水區學府路104號","121.449863333333","25.17177","6501000","淡水區"
"251010","413-VK","2019/07/02 22:19:35","新北市淡水區沙崙路200號","121.42466","25.18387","6501000","淡水區"
"251007","442-VK","2019/07/02 22:19:27","新北市淡水區北新路180號","121.449438333333","25.1787533333333","6501000","淡水區"
"251011","650-BX","2019/07/02 22:19:31","新北市淡水區水碓街15-1號","121.443231666667","25.177255","6501000","淡水區"
