"lineid","car","time","location","longitude","latitude","cityid","cityname"
"232018","290-BY","2019/10/10 06:59:24","新北市坪林區坪雙路一段119號","121.734558333333","24.9516883333333","6502000","坪林區"
"232007","291-BY","2019/10/10 06:59:16","新北市坪林區魚堀17號","121.703753333333","24.9175433333333","6502000","坪林區"
"232010","375-UM","2019/10/10 06:59:26","新北市坪林區水聳淒坑16-1號","121.722891666667","24.928495","6502000","坪林區"
"232014","705-BZ","2019/10/10 06:59:26","新北市坪林區仁里2號","121.69144","24.9329233333333","6502000","坪林區"
"232001","758-BX","2019/10/10 06:59:15","新北市坪林區下坑子口15-1號","121.717238333333","24.9490766666667","6502000","坪林區"
"244003","248-BX","2019/10/10 06:59:24","新北市林口區富貴路85號","121.378341666667","25.0833916666667","6501700","林口區"
"222006","289-BY","2019/10/10 06:59:20","新北市深坑區深坑街87號","121.614576666667","25.0012133333333","6501800","深坑區"
"226007","APG-9813","2019/10/10 06:59:22","新北市平溪區石底里公園街18-3號","121.733446666667","25.0256283333333","6502400","平溪區"
"226003","AGD-0702","2019/10/10 06:59:20","新北市平溪區石底里公園街18-3號","121.734381666667","25.0254633333333","6502400","平溪區"
"223002","KEA-2673","2019/10/10 06:59:30","新北市石碇區員山子1號","121.652326666667","24.967265","6501900","石碇區"
"223003","205-TH","2019/10/10 06:59:21","新北市石碇區石崁31號","121.658783333333","24.9914333333333","6501900","石碇區"
"223008","406-TH","2019/10/10 06:59:21","新北市石碇區十八重溪61號","121.674945","25.013945","6501900","石碇區"
"223001","592-UM","2019/10/10 06:59:33","新北市石碇區石碇西街18號","121.658968333333","24.9908166666667","6501900","石碇區"
"223004","660-BX","2019/10/10 06:59:30","新北市石碇區石碇西街65-1號","121.656645","24.9907166666667","6501900","石碇區"
"223007","661-BX","2019/10/10 06:59:25","新北市石碇區十八重溪45號","121.675518333333","25.0124616666667","6501900","石碇區"
"227005","282-VK","2019/10/10 06:59:15","新北市雙溪區新基里自強路5號","121.86634","25.03905","6502500","雙溪區"
"252004","249-BX","2019/10/10 06:59:31","新北市三芝區埔坪里埔頭坑41號","121.504635","25.264575","6502100","三芝區"
"252007","AAC-283","2019/10/10 06:59:15","新北市三芝區淡金路一段4-5號","121.498001666667","25.25993","6502100","三芝區"
