"lineid","car","time","location","longitude","latitude","cityid","cityname"
"232007","291-BY","2019/10/10 07:39:16","新北市坪林區魚堀49號","121.701446666667","24.9299233333333","6502000","坪林區"
"232010","375-UM","2019/10/10 07:39:26","新北市坪林區磨壁潭1號","121.718213333333","24.9410283333333","6502000","坪林區"
"232014","705-BZ","2019/10/10 07:37:06","新北市坪林區金瓜寮34-1號","121.675818333333","24.9034733333333","6502000","坪林區"
"232001","758-BX","2019/10/10 07:39:16","新北市坪林區上坑子口20號","121.697596666667","24.9534966666667","6502000","坪林區"
"244003","248-BX","2019/10/10 07:39:24","新北市林口區頂福里16鄰79號","121.335006666667","25.09332","6501700","林口區"
"222006","289-BY","2019/10/10 07:39:20","新北市深坑區深坑街75號","121.614723333333","25.00121","6501800","深坑區"
"231008","192-VK","2019/10/10 07:39:14","新北市新店區安一路一段1-1號","121.519681666667","24.9614266666667","6500600","新店區"
"226005","5620-A6","2019/10/10 07:39:28","新北市平溪區嶺腳里中華街40號","121.739088333333","25.025215","6502400","平溪區"
"226007","APG-9813","2019/10/10 07:39:22","新北市平溪區平湖里大湖9號","121.781143333333","25.0250283333333","6502400","平溪區"
"226003","AGD-0702","2019/10/10 07:36:40","新北市平溪區嶺腳里嶺腳寮83-2號","121.750033333333","25.0351283333333","6502400","平溪區"
"223003","205-TH","2019/10/10 07:39:01","新北市石碇區蓬菜寮17號","121.649203333333","24.9721833333333","6501900","石碇區"
"223008","406-TH","2019/10/10 07:21:19","新北市石碇區靜安路一段337號","121.698791666667","25.0145483333333","6501900","石碇區"
"223001","592-UM","2019/10/10 07:39:13","新北市石碇區烏塗窟14-1號","121.655945","24.9751083333333","6501900","石碇區"
"223004","660-BX","2019/10/10 07:39:30","新北市石碇區八分寮56號","121.644565","25.0176733333333","6501900","石碇區"
"223007","661-BX","2019/10/10 07:38:18","新北市石碇區靜安路一段337號","121.698766666667","25.0146366666667","6501900","石碇區"
"227005","282-VK","2019/10/10 07:39:15","新北市雙溪區雙溪里太平路54號","121.864775","25.0355366666667","6502500","雙溪區"
"252004","249-BX","2019/10/10 07:39:30","新北市三芝區店子里菜公坑77-1號","121.511101666667","25.20612","6502100","三芝區"
"252007","AAC-283","2019/10/10 07:39:14","新北市三芝區車新路16號","121.483273333333","25.264395","6502100","三芝區"
"237014","760-BX","2019/10/10 07:39:22","新北市三峽區五寮136號","121.355348333333","24.8597333333333","6500900","三峽區"
"242040","AAC-296","2019/10/10 07:39:18","新北市泰山區磚雅厝3號","121.442098333333","25.0416083333333","6500500","新莊區"
"242003","751-BX","2019/10/10 07:39:26","新北市新莊區三和路12-21號","121.442188333333","25.03859","6500500","新莊區"
"242028","615-BX","2019/10/10 07:39:20","新北市新莊區新泰路486號","121.442535","25.0457083333333","6500500","新莊區"
"242026","613-BX","2019/10/10 07:39:26","新北市新莊區新泰路255巷83號","121.442181666667","25.0390866666667","6500500","新莊區"
"242057","612-BX","2019/10/10 07:39:21","新北市新莊區新泰路357巷3弄57號","121.44219","25.039245","6500500","新莊區"
"242047","566-BX","2019/10/10 07:39:12","新北市新莊區三和路12-10號","121.442295","25.036805","6500500","新莊區"
"242052","497-BY","2019/10/10 07:39:27","新北市新莊區瓊泰路77巷16號","121.442228333333","25.0290533333333","6500500","新莊區"
"242001","441-UM","2019/10/10 07:39:25","新北市新莊區新泰路255巷83號","121.442258333333","25.039135","6500500","新莊區"
"242006","440-UM","2019/10/10 07:39:19","新北市新莊區新泰路255巷83號","121.442175","25.038735","6500500","新莊區"
"242012","413-TV","2019/10/10 07:39:25","新北市新莊區三和路12-21號","121.442176666667","25.0381166666667","6500500","新莊區"
"242049","400-BY","2019/10/10 07:39:29","新北市新莊區新泰路357巷3弄17號","121.441975","25.0408083333333","6500500","新莊區"
"242024","362-BY","2019/10/10 07:39:29","新北市新莊區三和路12-16號","121.442151666667","25.0374366666667","6500500","新莊區"
"242022","353-BY","2019/10/10 07:39:21","新北市新莊區新泰路357巷3弄57號","121.442095","25.03908","6500500","新莊區"
"242038","135-UY","2019/10/10 07:39:29","新北市新莊區新泰路255巷83號","121.442231666667","25.0388816666667","6500500","新莊區"
"242016","173-VK","2019/10/10 07:39:24","新北市新莊區三和路12-21號","121.442076666667","25.0386033333333","6500500","新莊區"
"242030","175-VK","2019/10/10 07:39:27","新北市新莊區三和路12-21號","121.442081666667","25.0386183333333","6500500","新莊區"
"242020","KED-0687","2019/10/10 07:39:13","新北市新莊區三和路12-21號","121.442233333333","25.038045","6500500","新莊區"
"242035","347-TH","2019/10/10 07:39:24","新北市新莊區三和路12-21號","121.4423","25.0381566666667","6500500","新莊區"
"242033","350-TH","2019/10/10 07:39:12","新北市新莊區三和路12-21號","121.441961666667","25.03889","6500500","新莊區"
"242018","351-TH","2019/10/10 07:39:24","新北市新莊區新泰路357巷3弄57號","121.442063333333","25.039585","6500500","新莊區"
"242045","281-VK","2019/10/10 07:39:21","新北市新莊區新泰路401巷28-1號","121.44228","25.0441966666667","6500500","新莊區"
"242010","280-VK","2019/10/10 07:39:28","新北市新莊區三和路12-21號","121.442271666667","25.0384366666667","6500500","新莊區"
