"lineid","car","time","location","longitude","latitude","cityid","cityname"
"234026","9371-KE","2019/12/27 17:43:32","新北市永和區永和路一段202號","121.51426","25.0091866666667","6500400","永和區"
"249005","172-UM","2019/12/27 17:43:28","新北市八里區荖阡坑路34-1號","121.402765","25.1297583333333","6502300","八里區"
"249001","173-UM","2019/12/27 17:43:32","新北市八里區龍米路二段153-8號","121.44019","25.15353","6502300","八里區"
"249004","303-UY","2019/12/27 17:43:41","新北市八里區中華路一段81巷15號","121.420535","25.156605","6502300","八里區"
"249002","305-UY","2019/12/27 17:43:30","新北市八里區龍形三街9巷2號","121.450628333333","25.1317383333333","6502300","八里區"
"249003","593-UM","2019/12/27 17:43:25","新北市八里區中山路二段212號","121.405405","25.151835","6502300","八里區"
"248002","678-BX","2019/12/27 17:43:37","新北市五股區中興路二段37巷26號","121.460406666667","25.074895","6501500","五股區"
"232011","375-UM","2019/12/27 17:43:33","新北市坪林區北宜路八段66號","121.705046666667","24.93533","6502000","坪林區"
"244007","080-UY","2019/12/27 17:43:34","新北市林口區林口路197號","121.387475","25.0825616666667","6501700","林口區"
"244019","402-UM","2019/12/27 17:43:28","新北市林口區文化一路一段89-5號","121.371721666667","25.0704833333333","6501700","林口區"
"244013","KEA-2802","2019/12/27 17:43:34","新北市林口區中山路151號","121.386936666667","25.0791983333333","6501700","林口區"
"244023","483-VK","2019/12/27 17:43:12","新北市林口區東明二街101號","121.388745","25.07064","6501700","林口區"
"244017","485-VK","2019/12/27 17:43:23","新北市林口區文化二路一段230巷68號","121.371661666667","25.072665","6501700","林口區"
"244009","656-BX","2019/12/27 17:43:33","新北市林口區中山路270號","121.383276666667","25.081045","6501700","林口區"
"244011","701-TV","2019/12/27 17:43:31","新北市林口區中正路224號","121.390351666667","25.0777016666667","6501700","林口區"
"244025","837-TS","2019/12/27 17:43:40","新北市林口區文化三路一段181號","121.362296666667","25.0700133333333","6501700","林口區"
"244021","838-TS","2019/12/27 17:43:23","新北市林口區仁愛路一段83巷38號","121.397673333333","25.070615","6501700","林口區"
"222003","KEE-1106","2019/12/27 17:43:42","新北市深坑區北深路二段155-3號","121.613458333333","25.00188","6501800","深坑區"
"222002","659-BX","2019/12/27 17:43:23","新北市深坑區平埔街22巷8號","121.61492","25.0008933333333","6501800","深坑區"
"231046","719-UM","2019/12/27 17:43:41","新北市新店區直潭路92號","121.530943333333","24.9375616666667","6500600","新店區"
"241024","065-VK","2019/12/27 17:43:08","新北市三重區車路頭街62巷28號","121.483141666667","25.072195","6500200","三重區"
"241007","066-VK","2019/12/27 17:43:33","新北市蘆洲區中山二路320號","121.468381666667","25.0763516666667","6500200","三重區"
"241016","266-UM","2019/12/27 17:43:23","新北市三重區重新路二段102號","121.496793333333","25.0616766666667","6500200","三重區"
"241033","AAC-255","2019/12/27 17:43:34","新北市三重區光復路一段7號","121.472086666667","25.0471433333333","6500200","三重區"
"247010","KED-0682","2019/12/27 17:43:29","新北市蘆洲區民族路62號","121.477213333333","25.084685","6501400","蘆洲區"
"235045","565-BX","2019/12/27 17:43:26","新北市中和區員山路36巷13號","121.484181666667","24.9910016666667","6500300","中和區"
"235057","801-TS","2019/12/27 17:43:27","新北市中和區員山路36巷16-2號","121.485121666667","24.9916333333333","6500300","中和區"
"207004","KEE-1107","2019/12/27 17:43:28","新北市萬里區中幅里中福路5號","121.686903333333","25.1647283333333","6502800","萬里區"
"247006","893-R6","2019/12/27 17:40:49","新北市蘆洲區長安街64號","121.462823333333","25.0799433333333","6501400","蘆洲區"
"247020","546-UM","2019/12/27 17:43:41","新北市蘆洲區民義街99號","121.473683333333","25.0906716666667","6501400","蘆洲區"
"247016","341-TH","2019/12/27 17:43:31","新北市蘆洲區中正路185巷76號","121.466265","25.0843233333333","6501400","蘆洲區"
"247004","336-TH","2019/12/27 17:43:35","新北市蘆洲區中原路12巷27號","121.460363333333","25.083865","6501400","蘆洲區"
"247024","057-VK","2019/12/27 17:43:25","新北市蘆洲區光榮路101巷2號","121.46431","25.0898","6501400","蘆洲區"
"247014","056-VK","2019/12/27 17:43:30","新北市蘆洲區中正路131號","121.469418333333","25.0845933333333","6501400","蘆洲區"
"247022","007-UY","2019/12/27 17:43:44","新北市蘆洲區中正路264巷7號","121.466001666667","25.0900266666667","6501400","蘆洲區"
"247008","002-UY","2019/12/27 17:43:32","新北市蘆洲區和平路19巷17號","121.472226666667","25.0783466666667","6501400","蘆洲區"
"247002","001-UY","2019/12/27 17:43:42","新北市蘆洲區永平街32巷12弄1號","121.459146666667","25.0914933333333","6501400","蘆洲區"
"226004","312-R5","2019/12/27 17:43:37","新北市平溪區石底里公園街18-3號","121.73327","25.0259183333333","6502400","平溪區"
"228002","663-BX","2019/12/27 17:43:27","新北市貢寮區福隆里外隆林街14-1號","121.959143333333","25.0036216666667","6502600","貢寮區"
"228001","670-TC","2019/12/27 17:43:29","新北市貢寮區真理里新港街26巷28-6號","121.9277","25.055395","6502600","貢寮區"
"228003","828-UM","2019/12/27 17:43:34","新北市貢寮區真理里延平街22-9號","121.92468","25.0558","6502600","貢寮區"
"224006","676-BX","2019/12/27 17:43:33","新北市瑞芳區傑魚坑路183號","121.788445","25.1082983333333","6501200","瑞芳區"
"224009","275-VK","2019/12/27 17:43:34","新北市瑞芳區金光路374號","121.849863333333","25.1110166666667","6501200","瑞芳區"
"224008","273-VK","2019/12/27 17:43:35","新北市瑞芳區明燈路一段206號","121.818421666667","25.10874","6501200","瑞芳區"
"224005","271-BY","2019/12/27 17:43:40","新北市瑞芳區海濱路29號","121.830975","25.124285","6501200","瑞芳區"
"227002","642-TC","2019/12/27 17:23:27","新北市雙溪區共和里東榮街42號","121.866251666667","25.033665","6502500","雙溪區"
"227001","400-TW","2019/12/27 17:43:39","新北市雙溪區三貂里定福路1-2號","121.85076","25.06339","6502500","雙溪區"
"251004","009-UM","2019/12/27 17:43:37","新北市淡水區民權路39號","121.459333333333","25.14121","6501000","淡水區"
"251005","010-UM","2019/12/27 17:43:40","新北市淡水區學府路102巷28號","121.451581666667","25.1713833333333","6501000","淡水區"
"251008","181-VK","2019/12/27 17:43:41","新北市淡水區八勢路一段118號","121.466796666667","25.1566483333333","6501000","淡水區"
"251010","413-VK","2019/12/27 17:43:33","新北市淡水區淡海路280巷33弄34-2號","121.418715","25.1885966666667","6501000","淡水區"
"251012","441-VK","2019/12/27 17:43:37","新北市淡水區北新路一段2號","121.453555","25.180935","6501000","淡水區"
"251007","442-VK","2019/12/27 17:43:29","新北市淡水區民生路124巷30號","121.464186666667","25.1375983333333","6501000","淡水區"
"251006","561-UM","2019/12/27 17:43:29","新北市淡水區大信街24巷2號","121.441896666667","25.1766833333333","6501000","淡水區"
"251009","575-R6","2019/12/27 17:43:38","新北市淡水區中正路36號","121.443801666667","25.1692633333333","6501000","淡水區"
"251011","650-BX","2019/12/27 17:43:28","新北市淡水區坪頂路718號","121.482535","25.1584833333333","6501000","淡水區"
"251002","672-BX","2019/12/27 17:43:40","新北市淡水區中山路135號","121.441091666667","25.1715083333333","6501000","淡水區"
"251003","766-UM","2019/12/27 17:43:39","新北市淡水區大忠街8號","121.443053333333","25.176325","6501000","淡水區"
"252001","292-VK","2019/12/27 17:43:25","新北市三芝區育英街23號","121.501458333333","25.2580966666667","6502100","三芝區"
"237004","KEA-2597","2019/12/27 17:43:37","新北市三峽區中山路459巷66號","121.355513333333","24.9363983333333","6500900","三峽區"
"237009","210-TH","2019/12/27 17:43:42","新北市三峽區中山路240號","121.362425","24.937475","6500900","三峽區"
"237012","275-BY","2019/12/27 17:43:34","新北市三峽區中山路286號","121.361091666667","24.937965","6500900","三峽區"
"237006","5530-G3","2019/12/27 17:43:24","新北市三峽區介壽路一段151號","121.376516666667","24.93138","6500900","三峽區"
"237013","280-TH","2019/12/27 17:43:25","新北市三峽區愛國路12號","121.37421","24.9337483333333","6500900","三峽區"
"237011","KEA-2596","2019/12/27 17:43:26","新北市三峽區大智路55號","121.360476666667","24.93628","6500900","三峽區"
"237010","706-TV","2019/12/27 17:43:31","新北市三峽區中山路126號","121.3655","24.9360416666667","6500900","三峽區"
"237005","AKY-6261","2019/12/27 17:43:34","新北市三峽區中山路459巷135號","121.34874","24.9329116666667","6500900","三峽區"
"236042","KED-0685","2019/12/27 17:43:29","新北市土城區城林路6巷80號","121.438536666667","24.9795633333333","6501300","土城區"
"233002","762-BX","2019/12/27 17:43:38","新北市烏來區烏來街6號","121.551428333333","24.8650483333333","6502900","烏來區"
"236079","166-UM","2019/12/27 17:43:37","新北市土城區中央路二段128號","121.442028333333","24.9776016666667","6501300","土城區"
"236030","253-BX","2019/12/27 17:43:30","新北市土城區城林路6巷80號","121.438648333333","24.9796166666667","6501300","土城區"
"236026","269-VK","2019/12/27 17:43:43","新北市土城區城林路6巷80號","121.438536666667","24.9796083333333","6501300","土城區"
"236014","270-VK","2019/12/27 17:43:24","新北市土城區城林路6巷80號","121.438533333333","24.9796083333333","6501300","土城區"
"236039","271-VK","2019/12/27 17:43:31","新北市土城區城林路6巷80號","121.438565","24.9796083333333","6501300","土城區"
"247012","KED-0683","2019/12/27 17:43:39","新北市蘆洲區復興路60巷1弄7號","121.475021666667","25.086215","6501400","蘆洲區"
"252002","KED-0821","2019/12/27 17:43:25","新北市三芝區中正路二段3號","121.504653333333","25.2556983333333","6502100","三芝區"
"236020","401-BY","2019/12/27 17:43:43","新北市土城區城林路6巷80號","121.438725","24.9796166666667","6501300","土城區"
"236063","915-UM","2019/12/27 17:43:31","新北市土城區城林路6巷80號","121.438528333333","24.9795816666667","6501300","土城區"
"242041","AAC-296","2019/12/27 17:43:26","新北市新莊區中正路514巷105弄2號","121.427741666667","25.03516","6500500","新莊區"
"242060","986-R7","2019/12/27 17:43:38","新北市新莊區瓊林南路42巷1-2號","121.43605","25.0179866666667","6500500","新莊區"
"242005","751-BX","2019/12/27 17:43:23","新北市新莊區自立街216號","121.457198333333","25.045345","6500500","新莊區"
"242025","705-TV","2019/12/27 17:43:27","新北市新莊區思源路116號","121.46009","25.0468516666667","6500500","新莊區"
"242029","615-BX","2019/12/27 17:43:32","新北市新莊區復興路一段123號","121.449631666667","25.0431483333333","6500500","新莊區"
"242027","613-BX","2019/12/27 17:43:38","新北市新莊區福壽街98號","121.458223333333","25.05014","6500500","新莊區"
"242058","612-BX","2019/12/27 17:43:41","新北市新莊區中正路606號","121.426613333333","25.0302433333333","6500500","新莊區"
"242048","566-BX","2019/12/27 17:43:36","新北市新莊區萬安街163號","121.420198333333","25.0211766666667","6500500","新莊區"
"242054","497-BY","2019/12/27 17:43:29","新北市新莊區新樹路653號","121.43271","25.0031516666667","6500500","新莊區"
"242002","441-UM","2019/12/27 17:43:39","新北市新莊區新莊路421號","121.450671666667","25.033625","6500500","新莊區"
"242007","440-UM","2019/12/27 17:43:42","新北市新莊區福樂街116號","121.457228333333","25.0479116666667","6500500","新莊區"
"242044","415-TV","2019/12/27 17:43:27","新北市新莊區中正路871巷9弄30號","121.419451666667","25.026765","6500500","新莊區"
"242013","413-TV","2019/12/27 17:43:28","新北市新莊區幸福路715巷21號","121.448658333333","25.0486033333333","6500500","新莊區"
"242050","400-BY","2019/12/27 17:43:27","新北市新莊區西盛街221號","121.428163333333","25.0165666666667","6500500","新莊區"
"242023","353-BY","2019/12/27 17:43:25","新北市新莊區公園路129-11號","121.457666666667","25.041025","6500500","新莊區"
"242039","135-UY","2019/12/27 17:43:26","新北市新莊區民全街19號","121.428998333333","25.02172","6500500","新莊區"
"242017","173-VK","2019/12/27 17:43:39","新北市新莊區復興路一段147號","121.450421666667","25.0433216666667","6500500","新莊區"
"242032","175-VK","2019/12/27 17:43:32","新北市新莊區新泰路374號","121.44414","25.043165","6500500","新莊區"
"242056","176-VK","2019/12/27 17:43:25","新北市新莊區瓊林路13-7號","121.448295","25.0303866666667","6500500","新莊區"
"242021","KED-0687","2019/12/27 17:43:34","新北市新莊區中華路一段120號","121.452578333333","25.0406383333333","6500500","新莊區"
"242019","346-TH","2019/12/27 17:43:40","新北市新莊區中港路229號","121.454176666667","25.0427233333333","6500500","新莊區"
"242015","347-TH","2019/12/27 17:43:30","新北市新莊區新泰路384號","121.444035","25.0434033333333","6500500","新莊區"
"242037","348-TH","2019/12/27 17:43:26","新北市新莊區後港一路138號","121.429761666667","25.0274233333333","6500500","新莊區"
"242009","349-TH","2019/12/27 17:43:43","新北市新莊區福壽街169巷3號","121.457238333333","25.0536866666667","6500500","新莊區"
"242034","350-TH","2019/12/27 17:43:38","新北市新莊區新莊路650號","121.442671666667","25.0327983333333","6500500","新莊區"
"238015","755-BX","2019/12/27 17:43:27","新北市樹林區復興路67號","121.421546666667","24.9929633333333","6500700","樹林區"
"238023","601-UM","2019/12/27 17:43:42","新北市樹林區福興街13巷7號","121.404325","25.0167783333333","6500700","樹林區"
"238019","599-UM","2019/12/27 17:43:35","新北市樹林區太平路127巷10號","121.419753333333","24.980615","6500700","樹林區"
"238020","571-TV","2019/12/27 17:43:44","新北市樹林區俊英街116巷2號","121.427746666667","25.005755","6500700","樹林區"
"238018","KEA-2217","2019/12/27 17:43:37","新北市樹林區博愛街91號","121.426771666667","24.9915216666667","6500700","樹林區"
"238022","KEA-2213","2019/12/27 17:43:43","新北市樹林區太順街50號","121.418195","24.9794633333333","6500700","樹林區"
"238021","KEA-2539","2019/12/27 17:43:23","新北市樹林區柑園街一段35號","121.403656666667","24.960195","6500700","樹林區"
"238012","303-VK","2019/12/27 17:43:34","新北市樹林區三俊街50號","121.412225","25.0155766666667","6500700","樹林區"
"238017","283-BY","2019/12/27 17:43:27","新北市樹林區三德街15號","121.413338333333","25.0130066666667","6500700","樹林區"
"238014","282-BY","2019/12/27 17:43:35","新北市樹林區保安街一段313巷3號","121.417698333333","24.997715","6500700","樹林區"
"238026","172-UY","2019/12/27 17:43:32","新北市樹林區新興街19巷36弄25號","121.402563333333","24.9729983333333","6500700","樹林區"
"238016","169-UY","2019/12/27 17:43:36","新北市樹林區復興路260號","121.418243333333","24.9889333333333","6500700","樹林區"
"239007","AAC-297","2019/12/27 17:43:22","新北市鶯歌區鶯桃路182巷4號","121.337115","24.9556816666667","6500800","鶯歌區"
"239006","891-R6","2019/12/27 17:43:40","新北市鶯歌區鳳鳴路160號","121.334706666667","24.9677916666667","6500800","鶯歌區"
"239008","527-UM","2019/12/27 17:43:37","新北市鶯歌區大湖路734號","121.332443333333","24.9771183333333","6500800","鶯歌區"
"239005","526-UM","2019/12/27 17:43:31","新北市鶯歌區鳳吉四街49號","121.327466666667","24.973285","6500800","鶯歌區"
"239001","417-VK","2019/12/27 17:43:31","新北市鶯歌區中正三路215號","121.33503","24.9392533333333","6500800","鶯歌區"
"239003","360-BY","2019/12/27 17:43:36","新北市鶯歌區永吉街27巷27弄6號","121.337156666667","24.9568333333333","6500800","鶯歌區"
"239002","359-BY","2019/12/27 17:43:35","新北市鶯歌區育樂街61號","121.343548333333","24.9548116666667","6500800","鶯歌區"
"239004","193-VK","2019/12/27 17:43:38","新北市鶯歌區三鶯路121-3號","121.360415","24.94492","6500800","鶯歌區"
"221008","489-VK","2019/12/27 17:43:35","新北市汐止區康寧街901號","121.651483333333","25.07503","6501100","汐止區"
"221010","269-BY","2019/12/27 17:43:31","新北市汐止區汐萬路一段418巷33號","121.650461666667","25.078945","6501100","汐止區"
"221029","298-VK","2019/12/27 17:43:38","新北市汐止區康寧街901號","121.651668333333","25.0748733333333","6501100","汐止區"
"207003","KEE-1020","2019/12/27 17:43:40","新北市萬里區龜吼里漁澳路62-1號","121.687356666667","25.195365","6502800","萬里區"
"233001","KEA-2870","2019/12/27 17:43:30","新北市烏來區信福路6巷6號","121.526886666667","24.8404583333333","6502900","烏來區"
"242046","281-VK","2019/12/27 17:43:34","新北市新莊區福營路103號","121.433876666667","25.0322816666667","6500500","新莊區"
"242011","280-VK","2019/12/27 17:43:27","新北市新莊區榮華路二段2號","121.45085","25.0557933333333","6500500","新莊區"
