"lineid","car","time","location","longitude","latitude","cityid","cityname"
"234026","9371-KE","2019/12/27 18:13:32","新北市永和區豫溪街28巷19號","121.515065","25.008955","6500400","永和區"
"249005","172-UM","2019/12/27 18:13:28","新北市八里區荖阡坑路15號","121.401551666667","25.1400133333333","6502300","八里區"
"249001","173-UM","2019/12/27 18:13:32","新北市八里區龍米路一段442號","121.450671666667","25.1340716666667","6502300","八里區"
"249004","303-UY","2019/12/27 18:13:41","新北市八里區龍米路二段200巷3號","121.433723333333","25.1588","6502300","八里區"
"249002","305-UY","2019/12/27 18:13:30","新北市八里區龍形一街3號","121.450721666667","25.1306766666667","6502300","八里區"
"249003","593-UM","2019/12/27 18:13:25","新北市八里區中華路一段333-1號","121.413216666667","25.1540916666667","6502300","八里區"
"248014","025-BX","2019/12/27 18:13:43","新北市五股區自強路19巷11號","121.434583333333","25.073695","6501500","五股區"
"248016","026-BX","2019/12/27 18:13:37","新北市五股區成泰路三段221巷18號","121.445723333333","25.093445","6501500","五股區"
"248006","077-UY","2019/12/27 18:13:31","新北市五股區中興路一段169號","121.464733333333","25.0737416666667","6501500","五股區"
"248008","KED-0815","2019/12/27 18:13:30","新北市五股區更洲路32巷8弄13號","121.459558333333","25.0798733333333","6501500","五股區"
"248018","KED-0813","2019/12/27 18:13:40","新北市五股區成泰路三段101-1號","121.444215","25.090165","6501500","五股區"
"248004","677-BX","2019/12/27 18:13:42","新北市五股區成泰路二段101號","121.438386666667","25.0842633333333","6501500","五股區"
"248002","678-BX","2019/12/27 18:13:37","新北市五股區新五路三段9號","121.444335","25.089605","6501500","五股區"
"248010","682-TV","2019/12/27 18:13:26","新北市五股區成泰路一段189巷30-1號","121.432886666667","25.0767983333333","6501500","五股區"
"232011","375-UM","2019/12/27 18:13:33","新北市坪林區坪雙路一段53號","121.712675","24.9432633333333","6502000","坪林區"
"244007","080-UY","2019/12/27 18:13:34","新北市林口區竹林路361號","121.38803","25.0847566666667","6501700","林口區"
"244019","402-UM","2019/12/27 18:13:28","新北市林口區文化一路一段100巷35號","121.37448","25.069915","6501700","林口區"
"244013","KEA-2802","2019/12/27 18:13:34","新北市林口區佳林路101巷34號","121.386896666667","25.0799916666667","6501700","林口區"
"244023","483-VK","2019/12/27 18:13:33","新北市林口區東湖路153巷2號","121.382776666667","25.0728083333333","6501700","林口區"
"244017","485-VK","2019/12/27 18:13:23","新北市林口區八德路20巷11號","121.367661666667","25.0676833333333","6501700","林口區"
"244009","656-BX","2019/12/27 18:13:33","新北市林口區福林路113號","121.377666666667","25.0892883333333","6501700","林口區"
"244011","701-TV","2019/12/27 18:13:31","新北市林口區仁愛路一段274號","121.393545","25.0760316666667","6501700","林口區"
"244025","837-TS","2019/12/27 18:13:40","新北市林口區文化北路一段301-1號","121.36025","25.07282","6501700","林口區"
"244021","838-TS","2019/12/27 18:13:43","新北市林口區自強一街38號","121.399015","25.0776933333333","6501700","林口區"
"208001","267-VK","2019/12/27 18:13:41","新北市金山區民生路51巷1-2號","121.641841666667","25.2191816666667","6502700","金山區"
"243013","646-TV","2019/12/27 18:11:25","新北市泰山區犁頭窠18號","121.419391666667","25.050145","6501600","泰山區"
"222003","KEE-1106","2019/12/27 18:13:42","新北市深坑區文山路二段3號","121.622921666667","25.0003166666667","6501800","深坑區"
"222002","659-BX","2019/12/27 18:13:43","新北市深坑區文化街10號","121.620355","25.0013316666667","6501800","深坑區"
"231061","002-UM","2019/12/27 18:13:38","新北市新店區安華路28-1號","121.519636666667","24.9607516666667","6500600","新店區"
"231065","110-UY","2019/12/27 18:13:37","新北市新店區安一路一段1-1號","121.519331666667","24.961215","6500600","新店區"
"231053","189-VK","2019/12/27 18:13:21","新北市新店區安一路一段1-1號","121.519608333333","24.961235","6500600","新店區"
"231054","260-TV","2019/12/27 18:13:33","新北市新店區安一路一段1-1號","121.519326666667","24.9613533333333","6500600","新店區"
"231064","278-BY","2019/12/27 18:13:33","新北市新店區安一路一段1-1號","121.519683333333","24.9611366666667","6500600","新店區"
"231045","355-BY","2019/12/27 18:13:25","新北市新店區安華路28-1號","121.519088333333","24.96095","6500600","新店區"
"231055","4716-K9","2019/12/27 18:13:34","新北市新店區安華路28-1號","121.519628333333","24.960665","6500600","新店區"
"231048","KED-0819","2019/12/27 18:13:27","新北市新店區安一路一段1-1號","121.519696666667","24.9611183333333","6500600","新店區"
"231046","719-UM","2019/12/27 18:13:41","新北市新店區直潭七街60號","121.53225","24.93993","6500600","新店區"
"231057","720-UM","2019/12/27 18:13:29","新北市新店區安一路一段1-1號","121.51929","24.9612916666667","6500600","新店區"
"231040","898-TW","2019/12/27 18:13:34","新北市新店區安華路28-1號","121.519456666667","24.9609333333333","6500600","新店區"
"231043","899-TW","2019/12/27 18:13:42","新北市新店區安華路28-1號","121.519366666667","24.9608566666667","6500600","新店區"
"231066","AKT-0513","2019/12/27 18:13:28","新北市新店區安華路28-1號","121.519503333333","24.960655","6500600","新店區"
"241033","AAC-255","2019/12/27 18:13:34","新北市三重區中興北街42巷17號","121.468941666667","25.049345","6500200","三重區"
"235064","005-UY","2019/12/27 18:13:37","新北市中和區圓通路167巷16號","121.497918333333","24.9948383333333","6500300","中和區"
"235072","KEE-1103","2019/12/27 18:13:31","新北市中和區錦和路105號","121.490101666667","24.99527","6500300","中和區"
"235039","097-UM","2019/12/27 18:13:34","新北市中和區中正路152號","121.498856666667","24.99369","6500300","中和區"
"235065","098-UM","2019/12/27 18:13:37","新北市中和區莊敬路49巷18號","121.501591666667","25.00613","6500300","中和區"
"235040","150-BY","2019/12/27 18:13:33","新北市中和區中正路221號","121.496308333333","24.9937383333333","6500300","中和區"
"235055","183-VK","2019/12/27 18:13:37","新北市中和區新生街215號","121.48384","24.9995516666667","6500300","中和區"
"235038","185-VK","2019/12/27 18:13:39","新北市中和區大智街30號","121.521355","24.99208","6500300","中和區"
"235043","352-BY","2019/12/27 18:13:29","新北市中和區景平路381號","121.503938333333","24.9934716666667","6500300","中和區"
"235042","KEA-2878","2019/12/27 18:13:33","新北市中和區景平路280號","121.513648333333","24.992995","6500300","中和區"
"235050","4979-A6","2019/12/27 18:13:29","新北市中和區中正路271-1號","121.495788333333","24.9936316666667","6500300","中和區"
"235069","4980-A6","2019/12/27 18:13:27","新北市中和區連城路169號","121.495448333333","24.9983083333333","6500300","中和區"
"235070","558-UM","2019/12/27 18:13:35","新北市中和區圓通路102號","121.499516666667","24.9967216666667","6500300","中和區"
"235045","565-BX","2019/12/27 18:13:26","新北市中和區景安路200巷2弄2號","121.50392","24.9914066666667","6500300","中和區"
"235060","KED-0823","2019/12/27 18:13:25","新北市中和區員山路160號","121.481331666667","24.9996433333333","6500300","中和區"
"235054","640-BX","2019/12/27 18:13:30","新北市中和區莒光路175-4號","121.472773333333","24.9994183333333","6500300","中和區"
"235047","732-UM","2019/12/27 18:13:29","新北市中和區連城路263-2號","121.491588333333","24.9963566666667","6500300","中和區"
"235046","733-UM","2019/12/27 18:13:40","新北市中和區員山路36巷16-3號","121.484795","24.9913766666667","6500300","中和區"
"235062","800-TS","2019/12/27 18:13:23","新北市中和區橋和路121號","121.492035","25.0058233333333","6500300","中和區"
"235057","801-TS","2019/12/27 18:13:27","新北市中和區民享街97巷19號","121.475385","24.999565","6500300","中和區"
"235041","802-TS","2019/12/27 18:13:45","新北市中和區中正路571巷2弄1號","121.486451666667","24.9935016666667","6500300","中和區"
"235052","805-TS","2019/12/27 18:13:29","新北市中和區南山路391號","121.506535","24.990265","6500300","中和區"
"235048","896-TW","2019/12/27 18:13:31","新北市中和區員山路36巷16-2號","121.48523","24.9915133333333","6500300","中和區"
"235051","157-BY","2019/12/27 18:13:41","新北市中和區興南路一段156號","121.508313333333","24.986885","6500300","中和區"
"235037","AAC-213","2019/12/27 18:13:32","新北市中和區景德街88號","121.516121666667","24.9914616666667","6500300","中和區"
"235059","AAC-215","2019/12/27 18:13:33","新北市中和區員山路36巷16-3號","121.485091666667","24.9912983333333","6500300","中和區"
"207004","KEE-1107","2019/12/27 18:13:28","新北市萬里區中幅里中福路136號","121.674491666667","25.16629","6502800","萬里區"
"226004","312-R5","2019/12/27 18:13:36","新北市平溪區薯榔里雙菁路101號","121.71223","25.0191833333333","6502400","平溪區"
"235049","251-BX","2019/12/27 18:13:25","新北市中和區員山路36巷13號","121.484128333333","24.9908916666667","6500300","中和區"
"228002","663-BX","2019/12/27 18:13:27","新北市貢寮區福連里馬崗街25-2號","122.00371","25.0135116666667","6502600","貢寮區"
"228001","670-TC","2019/12/27 18:13:29","新北市貢寮區真理里新港街26巷55弄2-1號","121.927336666667","25.0528516666667","6502600","貢寮區"
"228003","828-UM","2019/12/27 18:13:34","新北市貢寮區真理里美艷山街22-1號","121.926515","25.0653216666667","6502600","貢寮區"
"224006","676-BX","2019/12/27 18:13:33","新北市瑞芳區三爪子坑路106巷182號","121.809431666667","25.1035116666667","6501200","瑞芳區"
"224009","275-VK","2019/12/27 18:13:34","新北市瑞芳區新山路43號","121.85592","25.1083266666667","6501200","瑞芳區"
"224008","273-VK","2019/12/27 18:13:35","新北市瑞芳區明燈路二段56號","121.80994","25.1075683333333","6501200","瑞芳區"
"224005","271-BY","2019/12/27 18:13:40","新北市瑞芳區建基新村8號","121.81228","25.1320466666667","6501200","瑞芳區"
"227001","400-TW","2019/12/27 18:13:39","新北市雙溪區三貂里政光路2-5號","121.852335","25.0623916666667","6502500","雙溪區"
"253005","032-BX","2019/12/27 18:13:36","新北市石門區福安街7號","121.568466666667","25.2928516666667","6502200","石門區"
"253006","295-VK","2019/12/27 18:13:37","新北市石門區老梅路52巷21號","121.546411666667","25.288585","6502200","石門區"
"222001","KEA-2212","2019/12/27 18:13:41","新北市深坑區北深路二段109號","121.617151666667","25.0032816666667","6501800","深坑區"
"208002","KEA-2872","2019/12/27 18:13:38","新北市金山區清泉里清水路60巷20號","121.634755","25.23401","6502700","金山區"
"208003","665-BX","2019/12/27 18:13:33","新北市金山區民生路196號","121.645476666667","25.2217883333333","6502700","金山區"
"251004","009-UM","2019/12/27 18:13:44","新北市淡水區民族路102號","121.462443333333","25.1353433333333","6501000","淡水區"
"251005","010-UM","2019/12/27 18:13:40","新北市淡水區水源街一段124號","121.44725","25.1715783333333","6501000","淡水區"
"251001","011-UM","2019/12/27 18:13:25","新北市淡水區自強路293號","121.462093333333","25.12933","6501000","淡水區"
"251008","181-VK","2019/12/27 18:13:41","新北市淡水區淡金路2號","121.457845","25.158645","6501000","淡水區"
"251010","413-VK","2019/12/27 18:13:33","新北市淡水區中正路二段50巷16號","121.420098333333","25.1833966666667","6501000","淡水區"
"251012","441-VK","2019/12/27 18:13:29","新北市淡水區北新路三段165號","121.48976","25.19061","6501000","淡水區"
"251007","442-VK","2019/12/27 18:13:29","新北市淡水區中正東路二段143巷2弄1號","121.46064","25.1473033333333","6501000","淡水區"
"251006","561-UM","2019/12/27 18:13:42","新北市淡水區新民街73號","121.438341666667","25.176615","6501000","淡水區"
"251011","650-BX","2019/12/27 18:13:28","新北市淡水區坪頂路698號","121.481365","25.159175","6501000","淡水區"
"251002","672-BX","2019/12/27 18:13:41","新北市淡水區中正東路一段80號","121.453025","25.1610166666667","6501000","淡水區"
"251003","766-UM","2019/12/27 18:13:39","新北市淡水區北新路182巷37號","121.448461666667","25.1774333333333","6501000","淡水區"
"252003","249-BX","2019/12/27 18:13:29","新北市三芝區埔頭里埔頭23-1號","121.490436666667","25.2608333333333","6502100","三芝區"
"252001","292-VK","2019/12/27 18:13:25","新北市三芝區中興街二段2號","121.498348333333","25.256645","6502100","三芝區"
"237004","KEA-2597","2019/12/27 18:13:37","新北市三峽區大埔1-3號","121.374758333333","24.8904","6500900","三峽區"
"237007","153-BY","2019/12/27 18:13:39","新北市三峽區中正路二段370巷24號","121.364861666667","24.91081","6500900","三峽區"
"237009","210-TH","2019/12/27 18:13:42","新北市三峽區大仁路50巷4號","121.365415","24.9378366666667","6500900","三峽區"
"237012","275-BY","2019/12/27 18:13:34","新北市三峽區民生街1巷5-15號","121.378803333333","24.9360766666667","6500900","三峽區"
"237008","302-VK","2019/12/27 18:13:34","新北市三峽區白雞68-349號","121.392705","24.9088316666667","6500900","三峽區"
"237006","5530-G3","2019/12/27 18:13:24","新北市三峽區溪東路178巷13弄10號","121.406151666667","24.932195","6500900","三峽區"
"237013","280-TH","2019/12/27 18:13:26","新北市三峽區長泰街41巷7號","121.377546666667","24.93222","6500900","三峽區"
"237011","KEA-2596","2019/12/27 18:13:26","新北市三峽區大同路10號","121.37831","24.9299683333333","6500900","三峽區"
"237015","649-BX","2019/12/27 18:13:37","新北市三峽區紫新路25巷6號","121.422801666667","24.9212383333333","6500900","三峽區"
"237010","706-TV","2019/12/27 18:13:31","新北市三峽區民族街147號","121.369016666667","24.9281933333333","6500900","三峽區"
"237005","AKY-6261","2019/12/27 18:13:34","新北市三峽區忠孝街13號","121.370831666667","24.9343783333333","6500900","三峽區"
"236042","KED-0685","2019/12/27 18:13:29","新北市土城區裕生路90號","121.447226666667","24.984965","6501300","土城區"
"233002","762-BX","2019/12/27 18:13:38","新北市烏來區紅河16號","121.538553333333","24.884485","6502900","烏來區"
"236079","166-UM","2019/12/27 18:13:28","新北市土城區永安街53號","121.432775","24.964185","6501300","土城區"
"236030","253-BX","2019/12/27 18:13:30","新北市土城區員福街38號","121.440816666667","24.97891","6501300","土城區"
"236026","269-VK","2019/12/27 18:13:23","新北市土城區承天路67號","121.439555","24.9635316666667","6501300","土城區"
"236014","270-VK","2019/12/27 18:13:44","新北市土城區青雲路39巷7號","121.460331666667","24.9875516666667","6501300","土城區"
"236039","271-VK","2019/12/27 18:13:31","新北市土城區青雲路453號","121.45878","24.9745566666667","6501300","土城區"
"236069","KEA-2877","2019/12/27 18:13:39","新北市土城區明德路一段128巷9號","121.463235","24.9789983333333","6501300","土城區"
"252002","KED-0821","2019/12/27 18:13:25","新北市三芝區中山路二段41號","121.50293","25.25506","6502100","三芝區"
"236020","401-BY","2019/12/27 18:13:43","新北市土城區明德路一段375-1號","121.45468","24.9782483333333","6501300","土城區"
"236048","752-BX","2019/12/27 18:13:42","新北市土城區明德路一段365-1號","121.453586666667","24.9790383333333","6501300","土城區"
"236059","912-UM","2019/12/27 18:13:38","新北市土城區中央路四段273-1號","121.412778333333","24.95434","6501300","土城區"
"236063","915-UM","2019/12/27 18:13:31","新北市土城區金城路三段202-3號","121.469448333333","24.9885216666667","6501300","土城區"
"236055","AAC-216","2019/12/27 18:13:26","新北市土城區中華路二段100號","121.438103333333","24.9743933333333","6501300","土城區"
"242041","AAC-296","2019/12/27 18:13:29","新北市新莊區天祥街114號","121.414685","25.0297283333333","6500500","新莊區"
"242060","986-R7","2019/12/27 18:13:38","新北市新莊區新樹路399號","121.432848333333","25.0161466666667","6500500","新莊區"
"242005","751-BX","2019/12/27 18:13:43","新北市新莊區中華路二段13號","121.453691666667","25.04563","6500500","新莊區"
"242025","705-TV","2019/12/27 18:13:27","新北市新莊區五工路96號","121.456768333333","25.064415","6500500","新莊區"
"242029","615-BX","2019/12/27 18:13:35","新北市新莊區幸福路914號","121.442551666667","25.0490216666667","6500500","新莊區"
"242027","613-BX","2019/12/27 18:13:38","新北市新莊區幸福路81號","121.456646666667","25.0492716666667","6500500","新莊區"
"242058","612-BX","2019/12/27 18:13:43","新北市新莊區雙鳳路134巷5號","121.412675","25.0280983333333","6500500","新莊區"
"242048","566-BX","2019/12/27 18:13:36","新北市新莊區萬安街67巷12號","121.421773333333","25.0238416666667","6500500","新莊區"
"242054","497-BY","2019/12/27 18:13:29","新北市新莊區民安西路410巷1弄1號","121.428703333333","25.0096816666667","6500500","新莊區"
"242002","441-UM","2019/12/27 18:13:39","新北市新莊區新莊路90號","121.456655","25.0362916666667","6500500","新莊區"
"242007","440-UM","2019/12/27 18:13:27","新北市新莊區自強街37巷1號","121.454421666667","25.0464283333333","6500500","新莊區"
"242044","415-TV","2019/12/27 18:13:43","新北市新莊區中正路力行巷16號","121.416876666667","25.0264066666667","6500500","新莊區"
"242013","413-TV","2019/12/27 18:10:30","新北市新莊區新泰路357巷3弄57號","121.44185","25.0394916666667","6500500","新莊區"
"242050","400-BY","2019/12/27 18:13:27","新北市新莊區民本街5巷7號","121.427993333333","25.020265","6500500","新莊區"
"242039","135-UY","2019/12/27 18:13:23","新北市新莊區民安東路185號","121.433078333333","25.0204133333333","6500500","新莊區"
"242032","175-VK","2019/12/27 18:13:32","新北市新莊區新泰路277巷11號","121.445265","25.040185","6500500","新莊區"
"242056","176-VK","2019/12/27 18:13:25","新北市新莊區豐年街55-9號","121.44647","25.0308116666667","6500500","新莊區"
"242021","KED-0687","2019/12/27 18:13:34","新北市新莊區新興街106號","121.450631666667","25.0390366666667","6500500","新莊區"
"242019","346-TH","2019/12/27 18:13:40","新北市新莊區中港路128號","121.455423333333","25.0405066666667","6500500","新莊區"
"242015","347-TH","2019/12/27 18:13:30","新北市新莊區中平路152巷36號","121.44626","25.047305","6500500","新莊區"
"242037","348-TH","2019/12/27 18:13:26","新北市新莊區後港一路49巷1弄15號","121.425225","25.02625","6500500","新莊區"
"242009","349-TH","2019/12/27 18:13:43","新北市新莊區昌平街59巷34號","121.453778333333","25.0533366666667","6500500","新莊區"
"242034","350-TH","2019/12/27 18:13:38","新北市新莊區瓊林路13-3號","121.448736666667","25.0309133333333","6500500","新莊區"
"238015","755-BX","2019/12/27 18:13:27","新北市樹林區文化街79巷1號","121.416823333333","24.9890983333333","6500700","樹林區"
"238023","601-UM","2019/12/27 18:13:37","新北市樹林區忠信街13號","121.408155","25.0149716666667","6500700","樹林區"
"238019","599-UM","2019/12/27 18:13:35","新北市樹林區水源街32巷49號","121.425363333333","24.9803466666667","6500700","樹林區"
"238020","571-TV","2019/12/27 18:13:44","新北市樹林區三俊街135巷52號","121.41873","25.017255","6500700","樹林區"
"238018","KEA-2217","2019/12/27 18:13:37","新北市樹林區博愛街119號","121.426281666667","24.9906716666667","6500700","樹林區"
"238012","303-VK","2019/12/27 18:13:33","新北市樹林區保安街二段2號","121.416823333333","24.999405","6500700","樹林區"
"238017","283-BY","2019/12/27 18:13:33","新北市樹林區中正路648號","121.409748333333","25.0163366666667","6500700","樹林區"
"238014","282-BY","2019/12/27 18:13:35","新北市樹林區大安路109號","121.42243","24.9977516666667","6500700","樹林區"
"238026","172-UY","2019/12/27 18:13:32","新北市樹林區育德街87號","121.390653333333","24.9700416666667","6500700","樹林區"
"238016","169-UY","2019/12/27 18:13:25","新北市樹林區文化街6號","121.420243333333","24.9871516666667","6500700","樹林區"
"239007","AAC-297","2019/12/27 18:13:42","新北市鶯歌區育英街67號","121.347233333333","24.952155","6500800","鶯歌區"
"239006","891-R6","2019/12/27 18:13:40","新北市鶯歌區鶯桃路365巷72號","121.331445","24.9622733333333","6500800","鶯歌區"
"239008","527-UM","2019/12/27 18:13:32","新北市鶯歌區朝陽街61巷1號","121.338436666667","24.978395","6500800","鶯歌區"
"239005","526-UM","2019/12/27 18:13:31","新北市鶯歌區鶯桃路668巷73號","121.329945","24.97179","6500800","鶯歌區"
"239001","417-VK","2019/12/27 18:13:31","新北市鶯歌區中正三路121號","121.33775","24.9407066666667","6500800","鶯歌區"
"239003","360-BY","2019/12/27 18:13:36","新北市鶯歌區鶯桃路324號","121.333995","24.9620333333333","6500800","鶯歌區"
"239002","359-BY","2019/12/27 18:13:26","新北市鶯歌區中正一路300號","121.355668333333","24.957065","6500800","鶯歌區"
"239004","193-VK","2019/12/27 18:13:43","新北市鶯歌區尖山路88號","121.348661666667","24.9495016666667","6500800","鶯歌區"
"221036","130-UY","2019/12/27 18:13:32","新北市汐止區大同路三段116號","121.672061666667","25.0767583333333","6501100","汐止區"
"221015","131-UY","2019/12/27 18:13:26","新北市汐止區長江街329號","121.666728333333","25.0817566666667","6501100","汐止區"
"221010","269-BY","2019/12/27 18:13:31","新北市汐止區汐萬路二段273號","121.646055","25.0889583333333","6501100","汐止區"
"221012","278-VK","2019/12/27 18:13:42","新北市汐止區長興街二段50巷46號","121.67528","25.0807766666667","6501100","汐止區"
"221023","279-VK","2019/12/27 18:13:31","新北市汐止區民族五街74-1號","121.627861666667","25.0702216666667","6501100","汐止區"
"221032","280-BY","2019/12/27 18:13:25","新北市汐止區橫科路25號","121.61799","25.0511716666667","6501100","汐止區"
"221027","281-BY","2019/12/27 18:13:31","新北市汐止區和平街6巷8-1號","121.66346","25.071505","6501100","汐止區"
"221029","298-VK","2019/12/27 18:13:38","新北市汐止區樟樹二路320號","121.641495","25.069985","6501100","汐止區"
"221021","299-VK","2019/12/27 18:13:35","新北市汐止區復興路24號","121.655978333333","25.0638366666667","6501100","汐止區"
"207003","KEE-1020","2019/12/27 18:13:40","新北市萬里區野柳里港東路74-5號","121.688936666667","25.2050983333333","6502800","萬里區"
"221031","567-BX","2019/12/27 18:13:36","新北市汐止區中興路130-1號","121.632998333333","25.0640916666667","6501100","汐止區"
"221035","622-UM","2019/12/27 18:13:28","新北市汐止區汐萬路一段115巷50號","121.652981666667","25.0702116666667","6501100","汐止區"
"221025","623-UM","2019/12/27 18:13:30","新北市汐止區秀峰路145號","121.66048","25.0621916666667","6501100","汐止區"
"221038","646-BX","2019/12/27 18:13:24","新北市汐止區秀峰路135號","121.660248333333","25.0624483333333","6501100","汐止區"
"221033","647-BX","2019/12/27 18:13:28","新北市汐止區宜興街40巷22弄2號","121.622465","25.0411","6501100","汐止區"
"221002","707-TV","2019/12/27 18:13:34","新北市汐止區福德一路240號","121.633715","25.0648716666667","6501100","汐止區"
"221018","753-BX","2019/12/27 18:13:38","新北市汐止區忠孝東路347號","121.665496666667","25.07029","6501100","汐止區"
"233001","KEA-2870","2019/12/27 18:13:30","新北市烏來區新烏路五段36號","121.542398333333","24.8793383333333","6502900","烏來區"
"224002","257-TC","2019/12/27 18:13:25","新北市瑞芳區三爪子坑路109號","121.810726666667","25.107145","6501200","瑞芳區"
"242046","281-VK","2019/12/27 18:13:34","新北市新莊區福營路226號","121.427351666667","25.02937","6500500","新莊區"
"242011","280-VK","2019/12/27 18:13:27","新北市新莊區中榮街24號","121.450258333333","25.052795","6500500","新莊區"
"235061","KEA-2875","2019/12/27 18:13:16","新北市中和區民德路188號","121.468328333333","24.9992716666667","6500300","中和區"
