"lineid","car","time","location","longitude","latitude","cityid","cityname"
"234046","148-BY","2019/12/27 18:29:31","新北市永和區環河東路二段92號","121.524405","25.0106166666667","6500400","永和區"
"234081","298-R6","2019/12/27 18:29:27","新北市永和區福和路7巷5弄7號","121.525616666667","25.0082166666667","6500400","永和區"
"234038","336-UY","2019/12/27 18:29:35","新北市永和區福和路1號","121.526636666667","25.0102583333333","6500400","永和區"
"234086","338-UY","2019/12/27 18:29:41","新北市永和區福和路14號","121.524355","25.0085183333333","6500400","永和區"
"234017","745-BX","2019/12/27 18:29:39","新北市永和區福和路1號","121.526096666667","25.009125","6500400","永和區"
"234007","KED-0605","2019/12/27 18:29:38","新北市永和區環河西路二段185號","121.502445","25.0113316666667","6500400","永和區"
"234042","862-TW","2019/12/27 18:29:35","新北市永和區福和路1號","121.526215","25.0098133333333","6500400","永和區"
"234026","9371-KE","2019/12/27 18:29:32","新北市永和區永和路二段28號","121.514635","25.0103833333333","6500400","永和區"
"234011","9373-KE","2019/12/27 18:29:41","新北市永和區保安路69號","121.509006666667","25.01539","6500400","永和區"
"249005","172-UM","2019/12/27 18:29:27","新北市八里區長坑口47-1號","121.389206666667","25.1339583333333","6502300","八里區"
"249001","173-UM","2019/12/27 18:29:32","新北市八里區龍米路一段142號","121.452946666667","25.1256566666667","6502300","八里區"
"249004","303-UY","2019/12/27 18:29:41","新北市八里區忠孝路70號","121.426371666667","25.1603466666667","6502300","八里區"
"249002","305-UY","2019/12/27 18:29:30","新北市八里區龍形三街8號","121.449976666667","25.1316783333333","6502300","八里區"
"249003","593-UM","2019/12/27 18:17:11","新北市八里區博物館路10-1號","121.415085","25.163955","6502300","八里區"
"248014","025-BX","2019/12/27 18:29:43","新北市五股區成泰路一段104號","121.435746666667","25.07159","6501500","五股區"
"248016","026-BX","2019/12/27 18:29:37","新北市五股區凌雲路一段83巷10弄1號","121.450481666667","25.10093","6501500","五股區"
"248008","KED-0815","2019/12/27 18:29:30","新北市五股區中興路二段78-5號","121.461275","25.07863","6501500","五股區"
"248018","KED-0813","2019/12/27 18:29:40","新北市五股區御史路300號","121.416833333333","25.1098166666667","6501500","五股區"
"248012","247-BX","2019/12/27 18:29:38","新北市五股區御史路31號","121.442045","25.0915266666667","6501500","五股區"
"248004","677-BX","2019/12/27 18:29:35","新北市五股區六合街3號","121.431886666667","25.0885316666667","6501500","五股區"
"248002","678-BX","2019/12/27 18:29:37","新北市五股區西雲路116-6號","121.444683333333","25.0936366666667","6501500","五股區"
"248010","682-TV","2019/12/27 18:29:42","新北市五股區明德路6號","121.433603333333","25.07131","6501500","五股區"
"234077","969-R7","2019/12/27 18:29:30","新北市永和區福和路8巷3號","121.524855","25.0090216666667","6500400","永和區"
"234003","AAC-295","2019/12/27 18:29:38","新北市永和區福和路1號","121.526623333333","25.0100416666667","6500400","永和區"
"232011","375-UM","2019/12/27 18:29:33","新北市坪林區坪雙路一段41號","121.71168","24.94249","6502000","坪林區"
"244007","080-UY","2019/12/27 18:29:34","新北市林口區後湖19-6號","121.387706666667","25.098845","6501700","林口區"
"244019","402-UM","2019/12/27 18:29:28","新北市林口區忠孝路616巷21號","121.37724","25.06746","6501700","林口區"
"244013","KEA-2802","2019/12/27 18:29:34","新北市林口區中正路514巷4弄1號","121.382131666667","25.0778866666667","6501700","林口區"
"244023","483-VK","2019/12/27 18:29:33","新北市林口區仁愛路二段50號","121.384806666667","25.0757633333333","6501700","林口區"
"244017","485-VK","2019/12/27 18:29:43","新北市林口區文化二路一段62-6號","121.365473333333","25.068535","6501700","林口區"
"244009","656-BX","2019/12/27 18:29:33","新北市林口區寶林路123號","121.382985","25.085425","6501700","林口區"
"244011","701-TV","2019/12/27 18:29:31","新北市林口區新寮1-84號","121.392726666667","25.0767566666667","6501700","林口區"
"244025","837-TS","2019/12/27 18:29:40","新北市林口區南勢四街185號","121.355371666667","25.0710716666667","6501700","林口區"
"244021","838-TS","2019/12/27 18:29:23","新北市林口區自強二街24號","121.398023333333","25.0780016666667","6501700","林口區"
"208001","267-VK","2019/12/27 18:29:41","新北市金山區文化二路6號","121.636801666667","25.22461","6502700","金山區"
"243016","421-VK","2019/12/27 18:29:22","新北市泰山區泰林路二段437號","121.426011666667","25.0640916666667","6501600","泰山區"
"243015","680-BX","2019/12/27 18:29:40","新北市泰山區黎明路2-5號","121.420865","25.0627","6501600","泰山區"
"222003","KEE-1106","2019/12/27 18:29:22","新北市深坑區文山路一段28-1號","121.630798333333","25.0053683333333","6501800","深坑區"
"222002","659-BX","2019/12/27 18:29:23","新北市深坑區雲鄉路111號","121.623458333333","24.99827","6501800","深坑區"
"231061","002-UM","2019/12/27 18:29:38","新北市新店區安華路28-1號","121.51971","24.9608433333333","6500600","新店區"
"231060","106-UY","2019/12/27 18:29:38","新北市新店區安華路28-1號","121.519611666667","24.960755","6500600","新店區"
"231065","110-UY","2019/12/27 18:29:38","新北市新店區安一路一段1-1號","121.519333333333","24.961295","6500600","新店區"
"231053","189-VK","2019/12/27 18:29:41","新北市新店區北宜路一段123-1號","121.540458333333","24.9534466666667","6500600","新店區"
"231050","KEA-2219","2019/12/27 18:29:38","新北市新店區安華路28-1號","121.52017","24.9609966666667","6500600","新店區"
"231054","260-TV","2019/12/27 18:29:33","新北市新店區安一路一段1-1號","121.519275","24.9612483333333","6500600","新店區"
"231042","268-BY","2019/12/27 18:29:28","新北市新店區安一路一段1-1號","121.519693333333","24.9613466666667","6500600","新店區"
"231064","278-BY","2019/12/27 18:29:34","新北市新店區安華路28-1號","121.519711666667","24.9610466666667","6500600","新店區"
"231045","355-BY","2019/12/27 18:29:25","新北市新店區安華路28-1號","121.519106666667","24.96094","6500600","新店區"
"231055","4716-K9","2019/12/27 18:29:34","新北市新店區光明街223號","121.540118333333","24.96426","6500600","新店區"
"231056","4715-K9","2019/12/27 18:29:42","新北市新店區中央路13號","121.533361666667","24.978375","6500600","新店區"
"231063","616-UM","2019/12/27 18:29:34","新北市新店區安華路1-1號","121.519436666667","24.9604966666667","6500600","新店區"
"231048","KED-0819","2019/12/27 18:29:27","新北市新店區安一路一段1-1號","121.519905","24.9610866666667","6500600","新店區"
"231046","719-UM","2019/12/27 18:29:41","新北市新店區直潭七街60號","121.53224","24.9399183333333","6500600","新店區"
"231057","720-UM","2019/12/27 18:29:29","新北市新店區安一路一段1-1號","121.519211666667","24.9613233333333","6500600","新店區"
"231040","898-TW","2019/12/27 18:29:33","新北市新店區安華路28-1號","121.519458333333","24.96089","6500600","新店區"
"231043","899-TW","2019/12/27 18:29:42","新北市新店區安一路一段1-1號","121.519396666667","24.96104","6500600","新店區"
"231066","AKT-0513","2019/12/27 18:29:28","新北市新店區安華路28-1號","121.519655","24.96055","6500600","新店區"
"235066","003-UY","2019/12/27 18:29:40","新北市中和區中山路二段120號","121.502685","25.003755","6500300","中和區"
"235064","005-UY","2019/12/27 18:29:37","新北市中和區連城路109巷39號","121.496998333333","24.9984416666667","6500300","中和區"
"235063","006-UY","2019/12/27 18:29:36","新北市中和區連城路347巷6弄38號","121.486633333333","24.995455","6500300","中和區"
"235072","KEE-1103","2019/12/27 18:29:31","新北市中和區連城路4號","121.49922","25.0023383333333","6500300","中和區"
"235056","096-UM","2019/12/27 18:29:37","新北市中和區員山路611巷1號","121.4779","25.0112","6500300","中和區"
"235039","097-UM","2019/12/27 18:29:34","新北市永和區安樂路92號","121.514281666667","24.9989566666667","6500300","中和區"
"235065","098-UM","2019/12/27 18:29:37","新北市中和區莊敬路49巷20弄14號","121.502333333333","25.0058833333333","6500300","中和區"
"235040","150-BY","2019/12/27 18:29:33","新北市中和區安平路59號","121.509611666667","24.9951733333333","6500300","中和區"
"235055","183-VK","2019/12/27 18:29:37","新北市中和區中山路三段229巷57-1號","121.469041666667","25.00524","6500300","中和區"
"235038","185-VK","2019/12/27 18:29:39","新北市中和區自強路6-2號","121.519891666667","24.99601","6500300","中和區"
"235067","255-BX","2019/12/27 18:29:38","新北市中和區新生街40號","121.483193333333","25.0034733333333","6500300","中和區"
"235043","352-BY","2019/12/27 18:29:30","新北市中和區景平路253號","121.508753333333","24.9929133333333","6500300","中和區"
"235042","KEA-2878","2019/12/27 18:29:33","新北市中和區成功路88號","121.525915","24.9912733333333","6500300","中和區"
"235050","4979-A6","2019/12/27 18:29:29","新北市中和區景新街362巷3號","121.512051666667","24.9901233333333","6500300","中和區"
"235069","4980-A6","2019/12/27 18:29:27","新北市中和區連城路125號","121.496176666667","24.99927","6500300","中和區"
"235070","558-UM","2019/12/27 18:29:38","新北市中和區景平路588巷28號","121.50126","24.9960833333333","6500300","中和區"
"235045","565-BX","2019/12/27 18:29:26","新北市中和區南山路236巷26號","121.505636666667","24.98874","6500300","中和區"
"235060","KED-0823","2019/12/27 18:29:25","新北市中和區中山路二段577號","121.480436666667","25.005735","6500300","中和區"
"235054","640-BX","2019/12/27 18:29:30","新北市中和區民享街86巷25號","121.47311","25.00052","6500300","中和區"
"235047","732-UM","2019/12/27 18:29:29","新北市中和區南山路252號","121.507875","24.9884833333333","6500300","中和區"
"235046","733-UM","2019/12/27 18:29:40","新北市中和區仁愛街95號","121.51182","24.9867366666667","6500300","中和區"
"235062","800-TS","2019/12/27 18:29:23","新北市中和區景平路728號","121.49658","25.00377","6500300","中和區"
"235057","801-TS","2019/12/27 18:29:27","新北市中和區員山路327巷46號","121.48039","25.0016983333333","6500300","中和區"
"235041","802-TS","2019/12/27 18:29:25","新北市中和區中和路260-1號","121.50816","24.99933","6500300","中和區"
"235052","805-TS","2019/12/27 18:29:29","新北市中和區興南路二段133號","121.505213333333","24.9841733333333","6500300","中和區"
"235048","896-TW","2019/12/27 18:29:31","新北市中和區中正路45號","121.50196","24.9934233333333","6500300","中和區"
"235051","157-BY","2019/12/27 18:29:41","新北市中和區華新街143巷11弄10號","121.506898333333","24.9813166666667","6500300","中和區"
"235037","AAC-213","2019/12/27 18:29:32","新北市中和區景德街72號","121.516761666667","24.9914466666667","6500300","中和區"
"235059","AAC-215","2019/12/27 18:29:33","新北市中和區員山路36巷16-3號","121.485101666667","24.9912733333333","6500300","中和區"
"207004","KEE-1107","2019/12/27 18:29:28","新北市萬里區中幅里中福路52-1號","121.68225","25.1730016666667","6502800","萬里區"
"220069","AAD-861","2019/12/27 18:29:28","新北市板橋區華東街1-10號","121.448335","24.9950483333333","6500100","板橋區"
"226004","312-R5","2019/12/27 18:29:36","新北市平溪區靜安路二段292號","121.730593333333","25.0223666666667","6502400","平溪區"
"235049","251-BX","2019/12/27 18:29:25","新北市中和區景安路149號","121.50559","24.99529","6500300","中和區"
"228002","663-BX","2019/12/27 18:29:27","新北市貢寮區福連里香蘭街34號","121.98723","25.0197083333333","6502600","貢寮區"
"228001","670-TC","2019/12/27 18:29:29","新北市貢寮區仁理村仁義街6號","121.923728333333","25.052075","6502600","貢寮區"
"228003","828-UM","2019/12/27 18:29:33","新北市貢寮區和美里和美街36號","121.912388333333","25.085255","6502600","貢寮區"
"224006","676-BX","2019/12/27 18:29:33","新北市瑞芳區明燈路三段35號","121.807105","25.1078883333333","6501200","瑞芳區"
"224007","285-BY","2019/12/27 18:29:31","新北市瑞芳區大埔路台北新城6號","121.764553333333","25.1004866666667","6501200","瑞芳區"
"224009","275-VK","2019/12/27 18:29:38","新北市瑞芳區五號路243號","121.856641666667","25.1112133333333","6501200","瑞芳區"
"224008","273-VK","2019/12/27 18:29:35","新北市瑞芳區岳王路1巷31號","121.805896666667","25.1103733333333","6501200","瑞芳區"
"224005","271-BY","2019/12/27 18:29:40","新北市瑞芳區瑞濱路161號","121.817891666667","25.1183883333333","6501200","瑞芳區"
"227002","642-TC","2019/12/27 18:29:33","新北市雙溪區魚行里坤溪23號","121.870401666667","25.0295","6502500","雙溪區"
"227001","400-TW","2019/12/27 18:29:39","新北市雙溪區牡丹里牡丹139號","121.85123","25.0589766666667","6502500","雙溪區"
"253005","032-BX","2019/12/27 18:29:36","新北市石門區老崩山11-1號","121.552438333333","25.29087","6502200","石門區"
"253006","295-VK","2019/12/27 18:29:37","新北市石門區公地16號","121.545743333333","25.2902066666667","6502200","石門區"
"222001","KEA-2212","2019/12/27 18:29:41","新北市深坑區北深路一段177號","121.632273333333","25.010605","6501800","深坑區"
"208002","KEA-2872","2019/12/27 18:29:38","新北市金山區民生路51巷13號","121.642505","25.2212033333333","6502700","金山區"
"208003","665-BX","2019/12/27 18:29:33","新北市金山區中山路256號","121.635615","25.223915","6502700","金山區"
"251004","009-UM","2019/12/27 18:29:37","新北市淡水區民族路31巷2號","121.462465","25.1364116666667","6501000","淡水區"
"251001","011-UM","2019/12/27 18:29:25","新北市淡水區自強路355號","121.464175","25.13301","6501000","淡水區"
"251008","181-VK","2019/12/27 18:29:41","新北市淡水區北投子93號","121.466176666667","25.1766383333333","6501000","淡水區"
"251010","413-VK","2019/12/27 18:29:33","新北市淡水區沙崙路181巷1號","121.42408","25.1842116666667","6501000","淡水區"
"251012","441-VK","2019/12/27 18:29:36","新北市淡水區北新路一段163號","121.458923333333","25.1822833333333","6501000","淡水區"
"251006","561-UM","2019/12/27 18:29:29","新北市淡水區新生街51巷9號","121.44054","25.1752833333333","6501000","淡水區"
"251011","650-BX","2019/12/27 18:29:28","新北市淡水區坪頂路41號","121.457268333333","25.1622166666667","6501000","淡水區"
"251002","672-BX","2019/12/27 18:29:40","新北市淡水區竿蓁二街34巷2號","121.453716666667","25.162825","6501000","淡水區"
"251003","766-UM","2019/12/27 18:29:39","新北市淡水區北新路169巷12號","121.449665","25.1802133333333","6501000","淡水區"
"252003","249-BX","2019/12/27 18:29:29","新北市三芝區後厝里北勢子45-33號","121.470385","25.2514483333333","6502100","三芝區"
"252001","292-VK","2019/12/27 18:29:45","新北市三芝區中興街二段2號","121.498366666667","25.25665","6502100","三芝區"
"237004","KEA-2597","2019/12/27 18:29:37","新北市三峽區五寮104號","121.363335","24.8611216666667","6500900","三峽區"
"237007","153-BY","2019/12/27 18:29:39","新北市三峽區中正路三段70巷61號","121.35504","24.905165","6500900","三峽區"
"237009","210-TH","2019/12/27 18:29:42","新北市三峽區大同路283號","121.365893333333","24.92532","6500900","三峽區"
"237012","275-BY","2019/12/27 18:29:34","新北市三峽區三樹路226號","121.379255","24.9428316666667","6500900","三峽區"
"237008","302-VK","2019/12/27 18:29:34","新北市三峽區白雞77-1號","121.40128","24.9105083333333","6500900","三峽區"
"237006","5530-G3","2019/12/27 18:29:24","新北市三峽區溪東路473巷59號","121.41533","24.9287283333333","6500900","三峽區"
"237013","280-TH","2019/12/27 18:29:25","新北市三峽區光明路69巷25號","121.376535","24.9291733333333","6500900","三峽區"
"237011","KEA-2596","2019/12/27 18:29:26","新北市三峽區溪東路218巷1號","121.40743","24.9316433333333","6500900","三峽區"
"237015","649-BX","2019/12/27 18:29:37","新北市三峽區竹崙路109號","121.433426666667","24.91371","6500900","三峽區"
"237010","706-TV","2019/12/27 18:29:31","新北市三峽區中山路286號","121.361075","24.9379783333333","6500900","三峽區"
"237005","AKY-6261","2019/12/27 18:29:34","新北市三峽區民族街5巷68號","121.369978333333","24.9326833333333","6500900","三峽區"
"236042","KED-0685","2019/12/27 18:29:35","新北市土城區學成路91巷20號","121.450258333333","24.9878166666667","6501300","土城區"
"236079","166-UM","2019/12/27 18:29:28","新北市土城區大暖路57號","121.422351666667","24.9585683333333","6501300","土城區"
"236030","253-BX","2019/12/27 18:29:30","新北市土城區順風路8號","121.440121666667","24.9762883333333","6501300","土城區"
"236026","269-VK","2019/12/27 18:29:43","新北市土城區南天母路135巷14號","121.448056666667","24.954515","6501300","土城區"
"236014","270-VK","2019/12/27 18:29:24","新北市土城區青雲路39巷7號","121.460325","24.9875466666667","6501300","土城區"
"236039","271-VK","2019/12/27 18:29:31","新北市土城區明德路一段311號","121.45955","24.97714","6501300","土城區"
"236069","KEA-2877","2019/12/27 18:29:39","新北市土城區永豐路255巷12號","121.47535","24.97316","6501300","土城區"
"252002","KED-0821","2019/12/27 18:29:45","新北市三芝區中山路二段41號","121.502933333333","25.25507","6502100","三芝區"
"236020","401-BY","2019/12/27 18:29:23","新北市土城區永豐路202巷5號","121.4665","24.983095","6501300","土城區"
"236048","752-BX","2019/12/27 18:26:22","新北市土城區青雲路480號","121.458761666667","24.9732266666667","6501300","土城區"
"236059","912-UM","2019/12/27 18:29:38","新北市土城區中央路四段129號","121.416143333333","24.9575466666667","6501300","土城區"
"236063","915-UM","2019/12/27 18:29:44","新北市土城區延壽路75巷6號","121.468651666667","24.992285","6501300","土城區"
"236055","AAC-216","2019/12/27 18:29:26","新北市土城區中華路二段1號","121.439648333333","24.9790733333333","6501300","土城區"
"242041","AAC-296","2019/12/27 18:29:27","新北市新莊區天祥街81巷28號","121.415036666667","25.028565","6500500","新莊區"
"242060","986-R7","2019/12/27 18:29:38","新北市新莊區新樹路83號","121.437745","25.0273666666667","6500500","新莊區"
"242025","705-TV","2019/12/27 18:29:40","新北市新莊區五權一路12巷9弄20號","121.457898333333","25.0651716666667","6500500","新莊區"
"242058","612-BX","2019/12/27 18:29:43","新北市新莊區新北大道七段780號","121.412968333333","25.0249016666667","6500500","新莊區"
"242054","497-BY","2019/12/27 18:29:31","新北市新莊區樹新路120巷51號","121.43001","24.99587","6500500","新莊區"
"242002","441-UM","2019/12/27 18:29:39","新北市新莊區瓊林路46-9號","121.44709","25.02927","6500500","新莊區"
"242044","415-TV","2019/12/27 18:29:27","新北市新莊區鳳山街56巷27號","121.413835","25.0264633333333","6500500","新莊區"
"242013","413-TV","2019/12/27 18:10:30","新北市新莊區新泰路357巷3弄57號","121.44185","25.0394916666667","6500500","新莊區"
"242056","176-VK","2019/12/27 18:29:25","新北市新莊區瓊林路13-3號","121.448788333333","25.030915","6500500","新莊區"
"242015","347-TH","2019/12/27 18:29:30","新北市新莊區新泰路528號","121.442036666667","25.04715","6500500","新莊區"
"242009","349-TH","2019/12/27 18:29:43","新北市新莊區中港一街135號","121.448163333333","25.0451166666667","6500500","新莊區"
"238023","601-UM","2019/12/27 18:29:37","新北市樹林區三福街114號","121.406355","25.01622","6500700","樹林區"
"238020","571-TV","2019/12/27 18:29:24","新北市樹林區中正路714號","121.409161666667","25.0178066666667","6500700","樹林區"
"238024","5061-A6","2019/12/27 18:29:39","新北市樹林區育英街2巷32號","121.42333","24.9900133333333","6500700","樹林區"
"238018","KEA-2217","2019/12/27 18:29:37","新北市樹林區保安街一段20巷40號","121.428325","24.9950916666667","6500700","樹林區"
"238012","303-VK","2019/12/27 18:29:33","新北市樹林區保安街一段204號","121.42116","24.9958816666667","6500700","樹林區"
"238017","283-BY","2019/12/27 18:29:27","新北市樹林區光榮街20號","121.411966666667","25.00374","6500700","樹林區"
"238014","282-BY","2019/12/27 18:29:35","新北市樹林區大安路111巷2號","121.42302","24.9975383333333","6500700","樹林區"
"238026","172-UY","2019/12/27 18:29:32","新北市樹林區佳園路一段75巷196號","121.39705","24.9706583333333","6500700","樹林區"
"238016","169-UY","2019/12/27 18:29:25","新北市樹林區中山路一段412號","121.417388333333","24.98516","6500700","樹林區"
"239007","AAC-297","2019/12/27 18:29:42","新北市鶯歌區建國路158號","121.350601666667","24.9536416666667","6500800","鶯歌區"
"239006","891-R6","2019/12/27 18:29:40","新北市鶯歌區鶯桃路285巷6號","121.334591666667","24.9593","6500800","鶯歌區"
"239008","527-UM","2019/12/27 18:29:32","新北市鶯歌區朝陽街1號","121.336275","24.9765916666667","6500800","鶯歌區"
"239005","526-UM","2019/12/27 18:29:31","新北市鶯歌區鶯桃路668巷73號","121.329883333333","24.97173","6500800","鶯歌區"
"239001","417-VK","2019/12/27 18:29:31","新北市鶯歌區國中街106號","121.340213333333","24.9403983333333","6500800","鶯歌區"
"239003","360-BY","2019/12/27 18:29:36","新北市鶯歌區福安街58號","121.335591666667","24.9651816666667","6500800","鶯歌區"
"239002","359-BY","2019/12/27 18:29:26","新北市鶯歌區中正一路236號","121.3542","24.956965","6500800","鶯歌區"
"239004","193-VK","2019/12/27 18:29:23","新北市鶯歌區尖山路166巷46號","121.34484","24.94935","6500800","鶯歌區"
"221036","130-UY","2019/12/27 18:29:32","新北市汐止區大同路三段143號","121.669326666667","25.0777133333333","6501100","汐止區"
"221015","131-UY","2019/12/27 18:29:26","新北市汐止區鄉長路二段23巷13號","121.667678333333","25.0826566666667","6501100","汐止區"
"221010","269-BY","2019/12/27 18:29:31","新北市汐止區汐萬路35號","121.644186666667","25.0915583333333","6501100","汐止區"
"221012","278-VK","2019/12/27 18:29:42","新北市汐止區保長路35巷15弄2號","121.673261666667","25.08014","6501100","汐止區"
"221023","279-VK","2019/12/27 18:29:31","新北市汐止區康寧街474巷7-2號","121.632288333333","25.067885","6501100","汐止區"
"221032","280-BY","2019/12/27 18:29:37","新北市汐止區民權街二段97巷4弄9號","121.618818333333","25.0471116666667","6501100","汐止區"
"221029","298-VK","2019/12/27 18:29:38","新北市汐止區樟樹二路342巷1號","121.64184","25.0710266666667","6501100","汐止區"
"221021","299-VK","2019/12/27 18:29:35","新北市汐止區連興街120號","121.653675","25.0624833333333","6501100","汐止區"
"207003","KEE-1020","2019/12/27 18:29:40","新北市萬里區野柳里港東新村1-1號","121.686135","25.203025","6502800","萬里區"
"221031","567-BX","2019/12/27 18:29:40","新北市汐止區中興路200號","121.631418333333","25.06593","6501100","汐止區"
"221035","622-UM","2019/12/27 18:29:28","新北市汐止區大同路二段196號","121.65294","25.0646433333333","6501100","汐止區"
"221025","623-UM","2019/12/27 18:29:30","新北市汐止區仁愛路119巷1號","121.662483333333","25.0635966666667","6501100","汐止區"
"221038","646-BX","2019/12/27 18:29:24","新北市汐止區新台五路二段4號","121.660015","25.0652416666667","6501100","汐止區"
"221033","647-BX","2019/12/27 18:29:37","新北市汐止區宜興街22號","121.621528333333","25.04169","6501100","汐止區"
"221002","707-TV","2019/12/27 18:29:34","新北市汐止區福德一路168號","121.636038333333","25.0662916666667","6501100","汐止區"
"221018","753-BX","2019/12/27 18:29:38","新北市汐止區茄苳路88巷32號","121.66765","25.0699183333333","6501100","汐止區"
"233001","KEA-2870","2019/12/27 18:28:33","新北市新店區新烏路二段202號","121.547466666667","24.9163216666667","6502900","烏來區"
"220082","610-BX","2019/12/27 18:29:38","新北市板橋區華東街1-9號","121.448225","24.9949","6500100","板橋區"
"224002","257-TC","2019/12/27 18:29:25","新北市瑞芳區國中新村34號","121.816481666667","25.10789","6501200","瑞芳區"
"220056","276-BY","2019/12/27 18:29:41","新北市板橋區四川路二段130巷27號","121.449385","24.99425","6500100","板橋區"
"220094","285-UM","2019/12/27 18:29:25","新北市板橋區民生路二段161巷3號","121.470065","25.0197783333333","6500100","板橋區"
"220081","287-VK","2019/12/27 18:29:29","新北市板橋區華東街1-10號","121.44832","24.995","6500100","板橋區"
"242046","281-VK","2019/12/27 18:29:34","新北市新莊區中正路803巷38號","121.421716666667","25.0279466666667","6500500","新莊區"
"220092","307-R5","2019/12/27 18:29:31","新北市板橋區民生路二段89-6號","121.47049","25.01937","6500100","板橋區"
"220035","560-BX","2019/12/27 18:29:26","新北市板橋區南雅南路二段3號","121.454458333333","25.00312","6500100","板橋區"
"220063","609-BX","2019/12/27 18:29:26","新北市板橋區民生路二段171號","121.469816666667","25.0200933333333","6500100","板橋區"
"220057","686-BX","2019/12/27 18:29:36","新北市板橋區四川路二段130巷25弄8-1號","121.449068333333","24.99447","6500100","板橋區"
"220077","687-BX","2019/12/27 18:29:27","新北市板橋區華東街1-10號","121.448293333333","24.9950516666667","6500100","板橋區"
"220055","827-TW","2019/12/27 18:29:30","新北市板橋區四川路二段140巷20號","121.449193333333","24.9933966666667","6500100","板橋區"
"220073","985-R7","2019/12/27 18:29:36","新北市板橋區四川路二段140巷6號","121.449623333333","24.9931883333333","6500100","板橋區"
"220097","AAC-210","2019/12/27 18:29:35","新北市板橋區民生路二段161巷1號","121.470258333333","25.0199116666667","6500100","板橋區"
"220064","AAC-253","2019/12/27 18:29:26","新北市板橋區南雅南路二段4巷16號","121.453706666667","25.00368","6500100","板橋區"
"235061","KEA-2875","2019/12/27 18:29:16","新北市中和區民享街90巷8號","121.47425","25.0002483333333","6500300","中和區"
"235068","KEA-2876","2019/12/27 18:29:37","新北市中和區圓通路222號","121.495463333333","24.9930466666667","6500300","中和區"
