"lineid","car","time","location","longitude","latitude","cityid","cityname"
"234046","148-BY","2019/12/27 19:13:31","新北市永和區得和路373巷12號","121.525088333333","25.0000733333333","6500400","永和區"
"234081","298-R6","2019/12/27 19:13:27","新北市永和區永貞路39巷6弄2號","121.521773333333","25.0065783333333","6500400","永和區"
"234038","336-UY","2019/12/27 19:13:35","新北市永和區民樂街69巷16號","121.528118333333","24.9976616666667","6500400","永和區"
"234064","337-UY","2019/12/27 19:13:31","新北市永和區永元路33號","121.522196666667","25.00098","6500400","永和區"
"234086","338-UY","2019/12/27 19:13:41","新北市永和區永貞路118號","121.518736666667","25.00445","6500400","永和區"
"234070","552-UM","2019/12/27 19:13:44","新北市永和區豫溪街101號","121.51876","25.0100816666667","6500400","永和區"
"234017","745-BX","2019/12/27 19:13:39","新北市永和區文化路90巷46號","121.513056666667","25.0165866666667","6500400","永和區"
"234030","746-BX","2019/12/27 19:13:34","新北市永和區民生路21號","121.522968333333","24.998955","6500400","永和區"
"234054","KEA-2590","2019/12/27 19:13:30","新北市永和區中興街80號","121.51801","25.0119883333333","6500400","永和區"
"234007","KED-0605","2019/12/27 19:13:38","新北市中和區中山路二段55巷2號","121.504436666667","25.00467","6500400","永和區"
"234013","KEA-2591","2019/12/27 19:13:41","新北市永和區保福路二段85號","121.510586666667","25.0128166666667","6500400","永和區"
"234061","AAD-866","2019/12/27 19:13:43","新北市永和區秀朗路一段141號","121.516205","25.004735","6500400","永和區"
"234042","862-TW","2019/12/27 19:13:35","新北市永和區水源街43巷2號","121.509725","25.00414","6500400","永和區"
"234050","863-TW","2019/12/27 19:13:39","新北市永和區保福路二段94巷2號","121.510393333333","25.0136416666667","6500400","永和區"
"234026","9371-KE","2019/12/27 19:13:32","新北市永和區安樂路198巷4弄2號","121.51556","25.0019883333333","6500400","永和區"
"234011","9373-KE","2019/12/27 19:13:41","新北市永和區保福路二段9巷4號","121.510343333333","25.01091","6500400","永和區"
"249005","172-UM","2019/12/27 19:13:27","新北市八里區中華路三段27號","121.396468333333","25.1430483333333","6502300","八里區"
"249001","173-UM","2019/12/27 19:13:40","新北市八里區大崁腳48-53號","121.424948333333","25.1592683333333","6502300","八里區"
"249003","593-UM","2019/12/27 19:13:44","新北市八里區博物館路555號","121.403946666667","25.1551733333333","6502300","八里區"
"248008","KED-0815","2019/12/27 19:13:30","新北市五股區中興路二段37巷26號","121.460343333333","25.0749583333333","6501500","五股區"
"248018","KED-0813","2019/12/27 19:13:40","新北市五股區民義路一段255-6號","121.426001666667","25.09144","6501500","五股區"
"248004","677-BX","2019/12/27 19:13:35","新北市五股區五福路69號","121.432673333333","25.0901333333333","6501500","五股區"
"248010","682-TV","2019/12/27 19:13:26","新北市五股區水碓一路23號","121.430653333333","25.071315","6501500","五股區"
"234023","9380-KE","2019/12/27 19:13:35","新北市永和區竹林路124巷34號","121.5181","25.0112233333333","6500400","永和區"
"234077","969-R7","2019/12/27 19:13:30","新北市永和區民族街27巷15號","121.519728333333","24.9994866666667","6500400","永和區"
"234074","AAC-211","2019/12/27 19:13:39","新北市永和區竹林路153號","121.520378333333","25.0104066666667","6500400","永和區"
"234067","AAC-212","2019/12/27 19:13:41","新北市永和區保平路18巷19號","121.511896666667","25.0080683333333","6500400","永和區"
"234003","AAC-295","2019/12/27 19:13:38","新北市永和區永平路152巷4號","121.511536666667","25.00882","6500400","永和區"
"244013","KEA-2802","2019/12/27 19:13:34","新北市林口區仁愛路二段73號","121.384811666667","25.0755916666667","6501700","林口區"
"244023","483-VK","2019/12/27 19:13:32","新北市林口區民權路17號","121.371128333333","25.0801016666667","6501700","林口區"
"244025","837-TS","2019/12/27 19:13:40","新北市林口區民族路67-1號","121.365698333333","25.0752766666667","6501700","林口區"
"208001","267-VK","2019/12/27 19:13:41","新北市金山區慈護街35號","121.639446666667","25.219805","6502700","金山區"
"243012","AAD-798","2019/12/27 19:13:41","新北市泰山區辭修路10號","121.43024","25.057665","6501600","泰山區"
"243010","297-R6","2019/12/27 19:13:40","新北市泰山區明志路一段458巷9號","121.430068333333","25.0557766666667","6501600","泰山區"
"243014","KEA-2801","2019/12/27 19:13:34","新北市泰山區泰林路二段257號","121.431015","25.0625233333333","6501600","泰山區"
"243016","421-VK","2019/12/27 19:13:42","新北市泰山區明志路三段52號","121.42495","25.0423083333333","6501600","泰山區"
"243009","KEA-2215","2019/12/27 19:13:24","新北市泰山區楓樹街15巷5號","121.434753333333","25.063015","6501600","泰山區"
"243011","KEA-2216","2019/12/27 19:13:31","新北市泰山區明志路二段368號","121.425461666667","25.04494","6501600","泰山區"
"243013","646-TV","2019/12/27 19:13:36","新北市泰山區明志路三段209號","121.424123333333","25.038405","6501600","泰山區"
"243015","680-BX","2019/12/27 19:13:40","新北市泰山區明志路一段493-1號","121.430636666667","25.0550333333333","6501600","泰山區"
"222003","KEE-1106","2019/12/27 19:13:22","新北市深坑區深南路204號","121.626621666667","25.0160033333333","6501800","深坑區"
"222002","659-BX","2019/12/27 19:13:43","新北市深坑區北深路一段210號","121.633063333333","25.0109916666667","6501800","深坑區"
"231061","002-UM","2019/12/27 19:13:38","新北市新店區安康路一段129號","121.52804","24.961815","6500600","新店區"
"231058","0291-UT","2019/12/27 19:13:40","新北市新店區光明街97號","121.539095","24.9610833333333","6500600","新店區"
"231044","046-UY","2019/12/27 19:13:40","新北市新店區中興路三段221-2號","121.543338333333","24.9825083333333","6500600","新店區"
"231041","047-UY","2019/12/27 19:13:31","新北市新店區溪園路363號","121.52315","24.9808016666667","6500600","新店區"
"231060","106-UY","2019/12/27 19:13:38","新北市新店區安康路二段156號","121.512368333333","24.96084","6500600","新店區"
"231051","107-UY","2019/12/27 19:13:38","新北市新店區中正路407號","121.534321666667","24.9776716666667","6500600","新店區"
"231049","108-UY","2019/12/27 19:13:30","新北市新店區北新路三段70號","121.542048333333","24.9804483333333","6500600","新店區"
"231065","110-UY","2019/12/27 19:13:38","新北市新店區安祥路110巷30弄1號","121.473716666667","24.9563466666667","6500600","新店區"
"231053","189-VK","2019/12/27 19:13:41","新北市新店區自強路106巷5號","121.54562","24.9230516666667","6500600","新店區"
"231050","KEA-2219","2019/12/27 19:13:38","新北市新店區竹林路26巷26-1號","121.551993333333","24.9500566666667","6500600","新店區"
"231062","256-BX","2019/12/27 19:13:29","新北市新店區安和路二段70-1號","121.51898","24.9686333333333","6500600","新店區"
"231054","260-TV","2019/12/27 19:13:33","新北市新店區國校路59號","121.538245","24.9542483333333","6500600","新店區"
"231042","268-BY","2019/12/27 19:13:27","新北市新店區中興路一段121號","121.541578333333","24.9630583333333","6500600","新店區"
"231064","278-BY","2019/12/27 19:13:34","新北市新店區安忠路76號","121.51235","24.9587833333333","6500600","新店區"
"231045","355-BY","2019/12/27 19:13:25","新北市新店區北宜路一段136號","121.539721666667","24.9547216666667","6500600","新店區"
"231055","4716-K9","2019/12/27 19:13:34","新北市新店區中央一街22號","121.527653333333","24.9731483333333","6500600","新店區"
"231067","4772-VM","2019/12/27 19:13:39","新北市新店區安康路一段247巷7號","121.525093333333","24.9627466666667","6500600","新店區"
"231063","616-UM","2019/12/27 19:13:34","新北市新店區車子路139號","121.50515","24.94791","6500600","新店區"
"231048","KED-0819","2019/12/27 19:13:27","新北市新店區德正街27巷29弄135號","121.54574","24.9732133333333","6500600","新店區"
"231046","719-UM","2019/12/27 19:13:41","新北市新店區華城路12號","121.52918","24.957795","6500600","新店區"
"231057","720-UM","2019/12/27 19:13:29","新北市新店區百齡一路12號","121.553071666667","24.9324466666667","6500600","新店區"
"231059","897-TW","2019/12/27 19:13:35","新北市新店區安和路二段3-5號","121.518158333333","24.9672833333333","6500600","新店區"
"231040","898-TW","2019/12/27 19:13:33","新北市新店區三民路155-1號","121.533888333333","24.9734316666667","6500600","新店區"
"231043","899-TW","2019/12/27 19:13:42","新北市新店區寶橋路10號","121.545786666667","24.9746866666667","6500600","新店區"
"231066","AKT-0513","2019/12/27 19:13:28","新北市新店區安祥路72-1號","121.489806666667","24.958","6500600","新店區"
"241031","061-VK","2019/12/27 19:13:29","新北市三重區重新路四段85巷10號","121.485628333333","25.055535","6500200","三重區"
"241035","462-BY","2019/12/27 19:13:37","新北市三重區信義西街138號","121.495506666667","25.06451","6500200","三重區"
"241020","478-VK","2019/12/27 19:13:42","新北市三重區後竹圍街126號","121.488193333333","25.072615","6500200","三重區"
"241026","480-VK","2019/12/27 19:13:40","新北市三重區中正南路203巷1號","121.493346666667","25.0543633333333","6500200","三重區"
"241022","KED-0820","2019/12/27 19:13:27","新北市三重區中正北路111-1號","121.485373333333","25.065445","6500200","三重區"
"241029","942-UM","2019/12/27 19:13:35","新北市三重區重安街83號","121.492541666667","25.0558166666667","6500200","三重區"
"235066","003-UY","2019/12/27 19:13:40","新北市中和區景新街2號","121.502631666667","24.999645","6500300","中和區"
"235064","005-UY","2019/12/27 19:13:37","新北市中和區南山路81巷61-1號","121.504216666667","24.9977983333333","6500300","中和區"
"235063","006-UY","2019/12/27 19:13:36","新北市中和區中正路600號","121.485626666667","24.99526","6500300","中和區"
"235072","KEE-1103","2019/12/27 19:13:31","新北市中和區連城路261-3號","121.49225","24.996685","6500300","中和區"
"235056","096-UM","2019/12/27 19:13:36","新北市中和區員山路527號","121.479708333333","25.0069266666667","6500300","中和區"
"235039","097-UM","2019/12/27 19:13:34","新北市中和區景平路3號","121.523671666667","24.9902116666667","6500300","中和區"
"235065","098-UM","2019/12/27 19:13:37","新北市中和區中山路二段2巷3弄2號","121.504818333333","25.00615","6500300","中和區"
"235040","150-BY","2019/12/27 19:13:33","新北市中和區保健路48巷2號","121.509933333333","24.9969616666667","6500300","中和區"
"235055","183-VK","2019/12/27 19:13:37","新北市中和區莒光路60-4號","121.472211666667","25.0033233333333","6500300","中和區"
"235038","185-VK","2019/12/27 19:13:38","新北市中和區大仁街10巷4號","121.518106666667","24.9925883333333","6500300","中和區"
"235067","255-BX","2019/12/27 19:13:38","新北市中和區民樂路81號","121.484533333333","25.0013083333333","6500300","中和區"
"235044","293-VK","2019/12/27 19:13:43","新北市中和區中興街266巷2號","121.498593333333","24.9874166666667","6500300","中和區"
"235071","301-VK","2019/12/27 19:13:31","新北市中和區連城路344-1號","121.482685","24.995705","6500300","中和區"
"235043","352-BY","2019/12/27 19:13:29","新北市中和區景平路384號","121.510705","24.9929633333333","6500300","中和區"
"235042","KEA-2878","2019/12/27 19:13:33","新北市中和區立人街14巷7弄23號","121.518756666667","24.9949116666667","6500300","中和區"
"235050","4979-A6","2019/12/27 19:13:29","新北市中和區復興路280巷36弄8號","121.501695","24.9921466666667","6500300","中和區"
"235069","4980-A6","2019/12/27 19:13:27","新北市中和區中山路二段131-6號","121.502306666667","25.003195","6500300","中和區"
"235070","558-UM","2019/12/27 19:13:35","新北市中和區景平路626巷1號","121.500321666667","24.9977516666667","6500300","中和區"
"235045","565-BX","2019/12/27 19:13:26","新北市中和區景新街423巷33弄2號","121.513856666667","24.9898316666667","6500300","中和區"
"235060","KED-0823","2019/12/27 19:13:44","新北市中和區員山路266巷37號","121.482816666667","25.0018933333333","6500300","中和區"
"235054","640-BX","2019/12/27 19:13:30","新北市中和區國光街112巷10號","121.469936666667","25.0012433333333","6500300","中和區"
"235047","732-UM","2019/12/27 19:13:29","新北市中和區和平街54巷1弄2號","121.508651666667","24.9910766666667","6500300","中和區"
"235046","733-UM","2019/12/27 19:13:40","新北市中和區忠孝街1號","121.508843333333","24.982955","6500300","中和區"
"235057","801-TS","2019/12/27 19:13:27","新北市中和區中山路三段37巷47號","121.479995","25.0046566666667","6500300","中和區"
"235041","802-TS","2019/12/27 19:13:25","新北市中和區中和路294號","121.508516666667","24.9998166666667","6500300","中和區"
"235052","805-TS","2019/12/27 19:13:28","新北市中和區興南路二段242巷2號","121.502661666667","24.9828616666667","6500300","中和區"
"235048","896-TW","2019/12/27 19:13:31","新北市中和區忠孝街122-2號","121.51211","24.9859933333333","6500300","中和區"
"235053","900-TW","2019/12/27 19:13:29","新北市中和區華安街19巷10號","121.467428333333","24.9978566666667","6500300","中和區"
"235051","157-BY","2019/12/27 19:13:41","新北市中和區和平街32號","121.509275","24.9903433333333","6500300","中和區"
"235037","AAC-213","2019/12/27 19:13:32","新北市中和區秀朗路三段10巷14弄108號","121.52288","24.99665","6500300","中和區"
"235059","AAC-215","2019/12/27 19:13:33","新北市中和區錦和路193號","121.490761666667","24.9907033333333","6500300","中和區"
"207004","KEE-1107","2019/12/27 19:13:28","新北市萬里區萬里里瑪鋉路30巷29號","121.68994","25.1766866666667","6502800","萬里區"
"220054","015-TV","2019/12/27 19:13:39","新北市板橋區四川路一段157巷15號","121.46082","25.0042533333333","6500100","板橋區"
"220065","072-UY","2019/12/27 19:13:36","新北市板橋區民族路247巷1弄15號","121.469898333333","25.0074733333333","6500100","板橋區"
"220086","073-UY","2019/12/27 19:13:35","新北市板橋區中正路216巷131號","121.460545","25.01999","6500100","板橋區"
"220106","075-UY","2019/12/27 19:13:33","新北市板橋區江寧路三段125號","121.473421666667","25.033165","6500100","板橋區"
"220069","AAD-861","2019/12/27 19:13:41","新北市板橋區大明街20巷29弄5-1號","121.45838","25.0035016666667","6500100","板橋區"
"226004","312-R5","2019/12/27 19:13:36","新北市平溪區望古里灰3-1號","121.755428333333","25.0290266666667","6502400","平溪區"
"235049","251-BX","2019/12/27 19:13:25","新北市中和區景新街241號","121.508206666667","24.994435","6500300","中和區"
"228002","663-BX","2019/12/27 19:13:47","新北市貢寮區福隆里興隆街36號","121.941275","25.017315","6502600","貢寮區"
"228001","670-TC","2019/12/27 19:13:29","新北市貢寮區真理里新港街10號","121.925435","25.054305","6502600","貢寮區"
"228003","828-UM","2019/12/27 19:13:35","新北市貢寮區和美里和美街19-2號","121.912733333333","25.082615","6502600","貢寮區"
"224008","273-VK","2019/12/27 19:13:35","新北市瑞芳區瑞芳街118號","121.801395","25.1108083333333","6501200","瑞芳區"
"227002","642-TC","2019/12/27 19:13:33","新北市雙溪區平林里梅竹蹊56-4號","121.860645","25.0367533333333","6502500","雙溪區"
"227001","400-TW","2019/12/27 19:13:38","新北市雙溪區牡丹里中正路29號","121.864485","25.0380283333333","6502500","雙溪區"
"253005","032-BX","2019/12/27 19:13:43","新北市石門區阿里荖33-1號","121.606851666667","25.280945","6502200","石門區"
"253006","295-VK","2019/12/27 19:13:37","新北市石門區崁子腳12號","121.53306","25.287445","6502200","石門區"
"222001","KEA-2212","2019/12/27 19:13:41","新北市深坑區北深路二段46號","121.61946","25.004345","6501800","深坑區"
"208002","KEA-2872","2019/12/27 19:13:38","新北市金山區中正路112號","121.632753333333","25.2218183333333","6502700","金山區"
"208003","665-BX","2019/12/27 19:13:33","新北市金山區中山路161號","121.638748333333","25.22053","6502700","金山區"
"251005","010-UM","2019/12/27 19:13:36","新北市淡水區原德路71號","121.442418333333","25.172395","6501000","淡水區"
"251001","011-UM","2019/12/27 19:13:25","新北市淡水區民權路92巷35-1號","121.462078333333","25.1267716666667","6501000","淡水區"
"251010","413-VK","2019/12/27 19:13:33","新北市淡水區沙崙路28號","121.421451666667","25.1813816666667","6501000","淡水區"
"251007","442-VK","2019/12/27 19:13:29","新北市淡水區民生路145巷58號","121.468013333333","25.1387716666667","6501000","淡水區"
"251009","575-R6","2019/12/27 19:13:38","新北市淡水區清水街222號","121.440278333333","25.1714783333333","6501000","淡水區"
"251002","672-BX","2019/12/27 19:13:40","新北市淡水區中山路87巷1號","121.442558333333","25.1705333333333","6501000","淡水區"
"251003","766-UM","2019/12/27 19:13:39","新北市淡水區重建街224號","121.441463333333","25.1748083333333","6501000","淡水區"
"252001","292-VK","2019/12/27 19:13:27","新北市三芝區長勤街10號","121.501441666667","25.2557766666667","6502100","三芝區"
"237004","KEA-2597","2019/12/27 19:13:37","新北市三峽區有木206號","121.439141666667","24.8514833333333","6500900","三峽區"
"237007","153-BY","2019/12/27 19:13:39","新北市三峽區中正路二段42巷12-1號","121.364186666667","24.9206333333333","6500900","三峽區"
"237009","210-TH","2019/12/27 19:13:42","新北市三峽區文化路131號","121.369535","24.935995","6500900","三峽區"
"237012","275-BY","2019/12/27 19:13:34","新北市三峽區三樹路222巷254弄68-21號","121.393858333333","24.94444","6500900","三峽區"
"237008","302-VK","2019/12/27 19:13:34","新北市三峽區永安街183號","121.373156666667","24.9267966666667","6500900","三峽區"
"237006","5530-G3","2019/12/27 19:13:44","新北市三峽區介壽路二段167號","121.394741666667","24.93606","6500900","三峽區"
"237013","280-TH","2019/12/27 19:13:25","新北市三峽區大同路39巷23號","121.377421666667","24.927435","6500900","三峽區"
"237011","KEA-2596","2019/12/27 19:13:06","新北市三峽區介壽路三段107號","121.395496666667","24.9392666666667","6500900","三峽區"
"237015","649-BX","2019/12/27 19:13:37","新北市三峽區安坑40-2號","121.455065","24.93223","6500900","三峽區"
"237010","706-TV","2019/12/27 19:13:31","新北市三峽區國光街57號","121.374525","24.9380066666667","6500900","三峽區"
"237005","AKY-6261","2019/12/27 19:13:33","新北市三峽區復興路553號","121.356803333333","24.9403066666667","6500900","三峽區"
"236079","166-UM","2019/12/27 19:13:28","新北市土城區中央路四段219號","121.41378","24.955715","6501300","土城區"
"236026","269-VK","2019/12/27 19:13:43","新北市土城區中正路61號","121.444383333333","24.9755783333333","6501300","土城區"
"236014","270-VK","2019/12/27 19:13:44","新北市土城區學府路一段23巷25弄36號","121.457855","24.9864016666667","6501300","土城區"
"236069","KEA-2877","2019/12/27 19:13:39","新北市土城區中央路一段170號","121.44578","24.98676","6501300","土城區"
"252002","KED-0821","2019/12/27 19:13:25","新北市三芝區淡金路二段8號","121.502586666667","25.2594466666667","6502100","三芝區"
"236020","401-BY","2019/12/27 19:13:23","新北市土城區明峰街83號","121.468971666667","24.9873966666667","6501300","土城區"
"236048","752-BX","2019/12/27 19:13:42","新北市土城區明德路一段365-1號","121.453665","24.979075","6501300","土城區"
"236059","912-UM","2019/12/27 19:13:38","新北市土城區中央路三段67號","121.438771666667","24.9693516666667","6501300","土城區"
"236055","AAC-216","2019/12/27 19:13:26","新北市土城區學府路一段276號","121.44995","24.9829783333333","6501300","土城區"
"242005","751-BX","2019/12/27 19:13:23","新北市新莊區三和路12-21號","121.442256666667","25.0385916666667","6500500","新莊區"
"238015","755-BX","2019/12/27 19:13:24","新北市樹林區備內街154號","121.407151666667","24.9895883333333","6500700","樹林區"
"238023","601-UM","2019/12/27 19:13:17","新北市樹林區三興路25號","121.397213333333","25.0151983333333","6500700","樹林區"
"238019","599-UM","2019/12/27 19:13:36","新北市樹林區東榮街91巷4弄2號","121.416265","24.981995","6500700","樹林區"
"238020","571-TV","2019/12/27 19:13:44","新北市樹林區俊英街133巷4號","121.423913333333","25.0114016666667","6500700","樹林區"
"238022","KEA-2213","2019/12/27 19:13:38","新北市樹林區中山路二段151巷8弄41號","121.405868333333","24.9774466666667","6500700","樹林區"
"238021","KEA-2539","2019/12/27 19:13:39","新北市樹林區柑園街二段303巷18-1號","121.372595","24.949365","6500700","樹林區"
"238012","303-VK","2019/12/27 19:13:33","新北市樹林區中山路三段116號","121.392655","24.9721283333333","6500700","樹林區"
"238017","283-BY","2019/12/27 19:13:27","新北市樹林區光興街146巷1號","121.407916666667","25.00428","6500700","樹林區"
"238014","282-BY","2019/12/27 19:13:35","新北市樹林區千歲街90號","121.426583333333","24.9978133333333","6500700","樹林區"
"238026","172-UY","2019/12/27 19:13:32","新北市樹林區地政街8巷10弄2號","121.393663333333","24.971495","6500700","樹林區"
"238016","169-UY","2019/12/27 19:13:43","新北市樹林區中山路一段310號","121.419946666667","24.9865683333333","6500700","樹林區"
"239007","AAC-297","2019/12/27 19:13:42","新北市鶯歌區中正一路225號","121.35412","24.9574583333333","6500800","鶯歌區"
"239006","891-R6","2019/12/27 19:13:40","新北市鶯歌區鶯桃路296巷94弄26號","121.337535","24.9616033333333","6500800","鶯歌區"
"239008","527-UM","2019/12/27 19:13:32","新北市鶯歌區國際二路60號","121.335215","24.9759866666667","6500800","鶯歌區"
"239005","526-UM","2019/12/27 19:13:31","新北市鶯歌區大湖路361巷36弄19號","121.330206666667","24.97734","6500800","鶯歌區"
"239001","417-VK","2019/12/27 19:13:31","新北市鶯歌區永明街15號","121.33854","24.9554416666667","6500800","鶯歌區"
"239003","360-BY","2019/12/27 19:13:36","新北市鶯歌區鶯桃路658巷113號","121.332336666667","24.9710983333333","6500800","鶯歌區"
"239002","359-BY","2019/12/27 19:13:26","新北市鶯歌區中正一路258號","121.354706666667","24.9569183333333","6500800","鶯歌區"
"239004","193-VK","2019/12/27 19:13:28","新北市鶯歌區中正三路282巷12弄1號","121.328421666667","24.9370366666667","6500800","鶯歌區"
"221008","489-VK","2019/12/27 19:13:35","新北市汐止區康寧街374號","121.628876666667","25.067665","6501100","汐止區"
"221036","130-UY","2019/12/27 19:13:32","新北市汐止區忠孝東路314巷17號","121.66453","25.068505","6501100","汐止區"
"221029","298-VK","2019/12/27 19:13:38","新北市汐止區康寧街901號","121.651656666667","25.07498","6501100","汐止區"
"207003","KEE-1020","2019/12/27 19:13:40","新北市萬里區大鵬里萬里加投19-7號","121.64907","25.2105883333333","6502800","萬里區"
"221031","567-BX","2019/12/27 19:13:36","新北市汐止區中興路181巷1號","121.630216666667","25.066705","6501100","汐止區"
"221035","622-UM","2019/12/27 19:13:28","新北市汐止區汐萬路一段188號","121.65215","25.07208","6501100","汐止區"
"221002","707-TV","2019/12/27 19:13:34","新北市汐止區大同路一段398-1號","121.639866666667","25.059895","6501100","汐止區"
"220079","145-BY","2019/12/27 19:13:40","新北市板橋區公館街18號","121.456871666667","25.01228","6500100","板橋區"
"220080","200-UY","2019/12/27 19:13:40","新北市板橋區大觀路二段3巷3號","121.447468333333","25.0039","6500100","板橋區"
"220082","610-BX","2019/12/27 19:13:38","新北市板橋區溪崑二街89號","121.427268333333","24.989485","6500100","板橋區"
"220101","245-BX","2019/12/27 19:13:26","新北市板橋區縣民大道三段127巷19號","121.476741666667","25.02349","6500100","板橋區"
"220091","267-BY","2019/12/27 19:13:34","新北市板橋區萬板路562號","121.481051666667","25.026665","6500100","板橋區"
"220056","276-BY","2019/12/27 19:13:41","新北市板橋區信義路152號","121.459005","24.991695","6500100","板橋區"
"220072","277-BY","2019/12/27 19:13:45","新北市板橋區金門街369巷50號","121.428363333333","24.9823683333333","6500100","板橋區"
"220094","285-UM","2019/12/27 19:13:44","新北市板橋區光武街110巷14號","121.466578333333","25.0296683333333","6500100","板橋區"
"220053","285-VK","2019/12/27 19:13:32","新北市板橋區富山街5號","121.478561666667","25.0215916666667","6500100","板橋區"
"220083","286-VK","2019/12/27 19:13:31","新北市板橋區大觀路二段174巷196弄10號","121.442833333333","25.0037366666667","6500100","板橋區"
"220081","287-VK","2019/12/27 19:13:29","新北市板橋區南雅東路89號","121.453191666667","25.0087083333333","6500100","板橋區"
"220090","288-VK","2019/12/27 19:13:37","新北市板橋區長江路一段106巷20弄11號","121.460146666667","25.0282666666667","6500100","板橋區"
"220061","293-UM","2019/12/27 19:13:27","新北市板橋區中山路二段309巷12號","121.478576666667","25.0189816666667","6500100","板橋區"
"220084","296-UM","2019/12/27 19:13:41","新北市板橋區溪崑二街66巷32號","121.427208333333","24.9909633333333","6500100","板橋區"
"220075","303-R5","2019/12/27 19:13:40","新北市板橋區南雅南路一段1巷38號","121.4573","25.0065383333333","6500100","板橋區"
"220062","305-R5","2019/12/27 19:13:36","新北市板橋區三民路二段153巷36弄2號","121.481143333333","25.0140933333333","6500100","板橋區"
"220092","307-R5","2019/12/27 19:13:32","新北市板橋區光武街2巷43號","121.46828","25.0259416666667","6500100","板橋區"
"220098","317-R6","2019/12/27 19:13:40","新北市板橋區四維路103巷9號","121.46506","25.02423","6500100","板橋區"
"220089","487-VK","2019/12/27 19:13:23","新北市板橋區國光路208號","121.462016666667","25.0185633333333","6500100","板橋區"
"220088","491-VK","2019/12/27 19:13:32","新北市板橋區雙十路一段30號","121.477758333333","25.0245566666667","6500100","板橋區"
"220035","560-BX","2019/12/27 19:13:35","新北市板橋區瑞安街49號","121.45536","25.02232","6500100","板橋區"
"220103","561-BX","2019/12/27 19:13:43","新北市板橋區文化路一段220號","121.466716666667","25.020565","6500100","板橋區"
"220063","609-BX","2019/12/27 19:13:46","新北市板橋區三民路二段37-2號","121.479285","25.0173933333333","6500100","板橋區"
"220057","686-BX","2019/12/27 19:13:35","新北市板橋區和平路90號","121.46177","24.99466","6500100","板橋區"
"220077","687-BX","2019/12/27 19:13:27","新北市板橋區大觀路二段145號","121.44563","25.0010116666667","6500100","板橋區"
"220102","KEA-2699","2019/12/27 19:13:39","新北市板橋區松柏街1巷25號","121.473226666667","25.029985","6500100","板橋區"
"220055","827-TW","2019/12/27 19:13:36","新北市板橋區新民街6巷6號","121.464596666667","25.0103316666667","6500100","板橋區"
"220068","830-TW","2019/12/27 19:13:37","新北市板橋區翠華街6巷59號","121.481281666667","25.0249716666667","6500100","板橋區"
"220067","831-TW","2019/12/27 19:13:31","新北市板橋區長安街138巷3弄37號","121.473963333333","25.00965","6500100","板橋區"
"220074","895-R6","2019/12/27 19:13:30","新北市板橋區中正路自強新村43-2號","121.455033333333","25.013885","6500100","板橋區"
"220073","985-R7","2019/12/27 19:13:36","新北市板橋區新生街89巷18號","121.45751","25.0224316666667","6500100","板橋區"
"220097","AAC-210","2019/12/27 19:13:35","新北市板橋區新海路135巷27號","121.4602","25.02307","6500100","板橋區"
"220064","AAC-253","2019/12/27 19:13:38","新北市板橋區公園街16號","121.462893333333","25.009035","6500100","板橋區"
"235061","KEA-2875","2019/12/27 19:13:15","新北市中和區員山路143巷22號","121.480143333333","24.9959383333333","6500300","中和區"
"235068","KEA-2876","2019/12/27 19:13:36","新北市中和區圓通路158巷1弄9號","121.497233333333","24.9960783333333","6500300","中和區"
