"lineid","car","time","location","longitude","latitude","cityid","cityname"
"234046","148-BY","2019/12/27 19:59:31","新北市永和區成功路一段107號","121.526915","25.0023883333333","6500400","永和區"
"234081","298-R6","2019/12/27 19:59:34","新北市永和區永利路81巷2弄1號","121.521813333333","25.00369","6500400","永和區"
"234038","336-UY","2019/12/27 19:59:34","新北市永和區成功路二段147號","121.526691666667","24.9977266666667","6500400","永和區"
"234064","337-UY","2019/12/27 19:59:41","新北市永和區中正路412巷18號","121.51851","25.002035","6500400","永和區"
"234086","338-UY","2019/12/27 19:59:41","新北市永和區永利路3號","121.517415","25.0060783333333","6500400","永和區"
"234070","552-UM","2019/12/27 19:59:34","新北市永和區國光路51號","121.519018333333","25.0082366666667","6500400","永和區"
"234017","745-BX","2019/12/27 19:59:39","新北市永和區文化路76號","121.514131666667","25.0151316666667","6500400","永和區"
"234030","746-BX","2019/12/27 19:59:33","新北市永和區民權路49巷37號","121.521976666667","24.99759","6500400","永和區"
"234054","KEA-2590","2019/12/27 19:59:30","新北市永和區環河東路一段122號","121.520626666667","25.01544","6500400","永和區"
"234007","KED-0605","2019/12/27 19:59:38","新北市永和區保生路22巷10號","121.507355","25.0080616666667","6500400","永和區"
"234013","KEA-2591","2019/12/27 19:59:41","新北市永和區保生路55號","121.50471","25.0106016666667","6500400","永和區"
"234061","AAD-866","2019/12/27 19:59:43","新北市永和區中正路283巷55弄1號","121.515765","24.99908","6500400","永和區"
"234042","862-TW","2019/12/27 19:59:35","新北市永和區雙和街17巷15號","121.509125","25.001405","6500400","永和區"
"234050","863-TW","2019/12/27 19:59:39","新北市永和區保安路254號","121.506255","25.0125533333333","6500400","永和區"
"234026","9371-KE","2019/12/27 19:59:32","新北市永和區水源街21巷14弄3號","121.51142","25.0037683333333","6500400","永和區"
"234011","9373-KE","2019/12/27 19:59:41","新北市永和區仁愛路352巷120號","121.500241666667","25.0084683333333","6500400","永和區"
"249005","172-UM","2019/12/27 19:59:38","新北市八里區楓林路1號","121.384768333333","25.1309616666667","6502300","八里區"
"249001","173-UM","2019/12/27 19:59:36","新北市八里區中華路二段249-1號","121.403931666667","25.1482566666667","6502300","八里區"
"249004","303-UY","2019/12/27 19:59:37","新北市八里區中華路一段333-1號","121.413433333333","25.153735","6502300","八里區"
"249002","305-UY","2019/12/27 19:59:30","新北市八里區頂寮一街40號","121.450711666667","25.12375","6502300","八里區"
"249003","593-UM","2019/12/27 19:59:44","新北市八里區訊塘路3號","121.398186666667","25.144645","6502300","八里區"
"248016","026-BX","2019/12/27 19:59:37","新北市五股區成泰路三段577巷80弄7號","121.449491666667","25.1042683333333","6501500","五股區"
"248008","KED-0815","2019/12/27 19:59:30","新北市五股區四維路153號","121.46777","25.074495","6501500","五股區"
"248018","KED-0813","2019/12/27 19:59:40","新北市五股區登林路99-9號","121.415403333333","25.0756","6501500","五股區"
"248012","247-BX","2019/12/27 19:59:38","新北市五股區民義路一段211號","121.430501666667","25.0889516666667","6501500","五股區"
"248004","677-BX","2019/12/27 19:59:35","新北市五股區成泰路一段153號","121.435295","25.0738683333333","6501500","五股區"
"248002","678-BX","2019/12/27 19:59:37","新北市五股區成泰路三段495-1號","121.451033333333","25.099745","6501500","五股區"
"248010","682-TV","2019/12/27 19:59:30","新北市五股區水碓五路1號","121.427501666667","25.0705216666667","6501500","五股區"
"234023","9380-KE","2019/12/27 19:59:35","新北市永和區中正路702巷18號","121.5164","25.0105583333333","6500400","永和區"
"234077","969-R7","2019/12/27 19:59:30","新北市永和區民有街10巷1號","121.516021666667","24.9970633333333","6500400","永和區"
"234074","AAC-211","2019/12/27 19:59:39","新北市永和區豫溪街185號","121.522463333333","25.01042","6500400","永和區"
"234067","AAC-212","2019/12/27 19:59:41","新北市永和區永貞路358號","121.510143333333","25.0065433333333","6500400","永和區"
"234003","AAC-295","2019/12/27 19:59:38","新北市永和區永和路二段8號","121.5146","25.01018","6500400","永和區"
"243012","AAD-798","2019/12/27 19:59:41","新北市泰山區全興路20號","121.432385","25.0588433333333","6501600","泰山區"
"243014","KEA-2801","2019/12/27 19:59:34","新北市泰山區泰林路二段33-1號","121.435965","25.0568783333333","6501600","泰山區"
"243016","421-VK","2019/12/27 19:59:22","新北市泰山區貴陽街3號","121.421021666667","25.0335933333333","6501600","泰山區"
"243009","KEA-2215","2019/12/27 19:59:24","新北市泰山區楓江路16巷32號","121.434013333333","25.0614616666667","6501600","泰山區"
"243011","KEA-2216","2019/12/27 19:59:31","新北市泰山區明志路三段182巷50號","121.422931666667","25.0396916666667","6501600","泰山區"
"222003","KEE-1106","2019/12/27 19:59:22","新北市深坑區埔新街14號","121.620735","25.0039333333333","6501800","深坑區"
"222002","659-BX","2019/12/27 19:59:23","新北市深坑區北深路二段81巷10號","121.618336666667","25.002915","6501800","深坑區"
"231061","002-UM","2019/12/27 19:59:38","新北市新店區安民街369號","121.516528333333","24.9760016666667","6500600","新店區"
"231044","046-UY","2019/12/27 19:59:30","新北市新店區復興路27號","121.538991666667","24.9867183333333","6500600","新店區"
"231041","047-UY","2019/12/27 19:59:34","新北市新店區中正路366號","121.535358333333","24.9759866666667","6500600","新店區"
"231060","106-UY","2019/12/27 19:59:38","新北市新店區安康路二段341巷1號","121.496996666667","24.955325","6500600","新店區"
"231051","107-UY","2019/12/27 19:59:38","新北市新店區中央二街21號","121.528688333333","24.97348","6500600","新店區"
"231049","108-UY","2019/12/27 19:59:30","新北市新店區民族路9號","121.541698333333","24.9787883333333","6500600","新店區"
"231065","110-UY","2019/12/27 19:59:38","新北市新店區安祥路104-10號","121.479073333333","24.9620383333333","6500600","新店區"
"231053","189-VK","2019/12/27 19:59:41","新北市新店區新烏路三段寶島巷2弄3號","121.551958333333","24.8985733333333","6500600","新店區"
"231050","KEA-2219","2019/12/27 19:59:38","新北市新店區北宜路二段60號","121.549358333333","24.9514216666667","6500600","新店區"
"231062","256-BX","2019/12/27 19:59:34","新北市新店區華潭街26巷1弄11號","121.529615","24.95418","6500600","新店區"
"231054","260-TV","2019/12/27 19:59:33","新北市新店區光明街222號","121.54003","24.962965","6500600","新店區"
"231042","268-BY","2019/12/27 19:59:27","新北市新店區中正路7號","121.545803333333","24.9692866666667","6500600","新店區"
"231064","278-BY","2019/12/27 19:59:34","新北市新店區安光路10-1號","121.513833333333","24.964145","6500600","新店區"
"231045","355-BY","2019/12/27 19:59:32","新北市新店區北宜路二段361-3號","121.558581666667","24.9542283333333","6500600","新店區"
"231055","4716-K9","2019/12/27 19:59:33","新北市新店區力行路44號","121.538823333333","24.9653016666667","6500600","新店區"
"231056","4715-K9","2019/12/27 19:59:27","新北市新店區北新路二段35號","121.542693333333","24.9724366666667","6500600","新店區"
"231067","4772-VM","2019/12/27 19:59:41","新北市新店區秀山路45巷23號","121.53098","24.95975","6500600","新店區"
"231068","512-UM","2019/12/27 19:59:38","新北市新店區安平路35巷4號","121.521566666667","24.96734","6500600","新店區"
"231063","616-UM","2019/12/27 19:59:34","新北市新店區車子路11號","121.503023333333","24.9520183333333","6500600","新店區"
"231048","KED-0819","2019/12/27 19:59:27","新北市新店區寶宏路3-5號","121.549335","24.976495","6500600","新店區"
"231057","720-UM","2019/12/27 19:59:29","新北市新店區花園二路一段11號","121.555491666667","24.9325116666667","6500600","新店區"
"231059","897-TW","2019/12/27 19:59:35","新北市新店區安和路一段15號","121.516898333333","24.9641833333333","6500600","新店區"
"231040","898-TW","2019/12/27 19:59:33","新北市新店區中正路75巷71號","121.543206666667","24.96883","6500600","新店區"
"231043","899-TW","2019/12/27 19:59:42","新北市新店區中正路263-3號","121.538373333333","24.9738616666667","6500600","新店區"
"241011","013-R5","2019/12/27 19:59:38","新北市三重區三和路二段167號","121.497881666667","25.0696783333333","6500200","三重區"
"241028","022-UY","2019/12/27 19:59:36","新北市三重區中正南路182號","121.494106666667","25.0564983333333","6500200","三重區"
"241008","059-VK","2019/12/27 19:59:28","新北市三重區永福街197巷8號","121.47814","25.07459","6500200","三重區"
"241031","061-VK","2019/12/27 19:59:29","新北市三重區重新路四段184巷11-1號","121.48713","25.0548666666667","6500200","三重區"
"241015","062-VK","2019/12/27 19:59:42","新北市三重區三和路二段37-6號","121.501205","25.0673916666667","6500200","三重區"
"241017","063-VK","2019/12/27 19:59:23","新北市三重區重陽路四段1號","121.491036666667","25.0686766666667","6500200","三重區"
"241024","065-VK","2019/12/27 19:59:28","新北市三重區大勇街38號","121.48142","25.071685","6500200","三重區"
"241007","066-VK","2019/12/27 19:59:34","新北市三重區溪尾街100號","121.489506666667","25.0786716666667","6500200","三重區"
"241002","090-VK","2019/12/27 19:59:22","新北市三重區仁愛街245巷25號","121.494768333333","25.077905","6500200","三重區"
"241003","091-VK","2019/12/27 19:59:26","新北市三重區仁愛街445巷65號","121.491621666667","25.0832766666667","6500200","三重區"
"241009","742-BX","2019/12/27 19:59:34","新北市三重區三和路四段388-1號","121.482061666667","25.07898","6500200","三重區"
"241016","266-UM","2019/12/27 19:59:43","新北市三重區正義北路23號","121.497563333333","25.063415","6500200","三重區"
"241018","268-UM","2019/12/27 19:59:33","新北市三重區正義北路216巷21號","121.495411666667","25.06743","6500200","三重區"
"241032","269-UM","2019/12/27 19:59:41","新北市三重區朝陽街26巷1弄5號","121.483173333333","25.05668","6500200","三重區"
"241013","270-UM","2019/12/27 19:59:32","新北市三重區三和路三段139巷3號","121.492768333333","25.0736166666667","6500200","三重區"
"241025","271-UM","2019/12/27 19:59:38","新北市三重區頂崁街210巷16號","121.47648","25.0676816666667","6500200","三重區"
"241030","KED-0822","2019/12/27 19:59:40","新北市三重區重新路四段244巷7弄6號","121.486326666667","25.053255","6500200","三重區"
"241035","462-BY","2019/12/27 19:59:37","新北市三重區重新路二段13巷17號","121.498323333333","25.0630366666667","6500200","三重區"
"241004","475-VK","2019/12/27 19:59:40","新北市三重區仁愛街425巷89號","121.492248333333","25.082615","6500200","三重區"
"241020","478-VK","2019/12/27 19:59:42","新北市三重區忠孝路一段101號","121.48947","25.0721466666667","6500200","三重區"
"241026","480-VK","2019/12/27 19:59:40","新北市三重區福德南路15號","121.502666666667","25.0632666666667","6500200","三重區"
"241014","543-UM","2019/12/27 19:59:34","新北市三重區三和路二段164號","121.49927","25.06865","6500200","三重區"
"241023","545-UM","2019/12/27 19:59:44","新北市三重區頂崁街172號","121.477543333333","25.0659333333333","6500200","三重區"
"241001","547-UM","2019/12/27 19:59:40","新北市三重區福隆路33號","121.490078333333","25.0772033333333","6500200","三重區"
"241019","KEA-2593","2019/12/27 19:59:24","新北市三重區自強路二段18-1號","121.489873333333","25.0690533333333","6500200","三重區"
"241005","AAD-863","2019/12/27 19:59:37","新北市三重區碧華街253號","121.489488333333","25.0830733333333","6500200","三重區"
"241012","743-BX","2019/12/27 19:59:28","新北市三重區仁興街52號","121.498956666667","25.07588","6500200","三重區"
"241006","KED-0670","2019/12/27 19:59:42","新北市三重區力行路二段89號","121.482565","25.0757","6500200","三重區"
"241029","942-UM","2019/12/27 19:59:35","新北市三重區重安街1號","121.48979","25.058425","6500200","三重區"
"241033","AAC-255","2019/12/27 19:59:41","新北市三重區光復路一段68巷58號","121.469955","25.0492233333333","6500200","三重區"
"235066","003-UY","2019/12/27 19:59:40","新北市中和區中山路二段59號","121.504205","25.0047766666667","6500300","中和區"
"235039","097-UM","2019/12/27 19:59:34","新北市中和區大勇街25巷39弄13號","121.514488333333","24.9940516666667","6500300","中和區"
"235065","098-UM","2019/12/27 19:59:37","新北市中和區永和路63號","121.496913333333","25.005505","6500300","中和區"
"235040","150-BY","2019/12/27 19:59:33","新北市中和區保健路10巷1弄10號","121.508068333333","24.9976966666667","6500300","中和區"
"235055","183-VK","2019/12/27 19:59:37","新北市中和區中山路三段3號","121.47982","25.0059983333333","6500300","中和區"
"235044","293-VK","2019/12/27 19:59:42","新北市中和區復興路260-1號","121.503478333333","24.9903066666667","6500300","中和區"
"235050","4979-A6","2019/12/27 19:59:29","新北市中和區景平路239巷1號","121.509915","24.99266","6500300","中和區"
"235046","733-UM","2019/12/27 19:59:40","新北市中和區興南路一段105巷20弄9號","121.510315","24.9854783333333","6500300","中和區"
"235052","805-TS","2019/12/27 19:59:28","新北市中和區忠孝街79號","121.512186666667","24.9851816666667","6500300","中和區"
"235051","157-BY","2019/12/27 19:59:41","新北市中和區景安路220巷20號","121.502751666667","24.9913683333333","6500300","中和區"
"235059","AAC-215","2019/12/27 19:59:33","新北市中和區圓通路335巷13號","121.493311666667","24.9895533333333","6500300","中和區"
"207004","KEE-1107","2019/12/27 19:59:28","新北市萬里區北基里忠一街1號","121.6868","25.1762966666667","6502800","萬里區"
"220054","015-TV","2019/12/27 19:59:39","新北市板橋區忠孝路忠義巷15弄26號","121.465851666667","25.0042383333333","6500100","板橋區"
"220065","072-UY","2019/12/27 19:59:36","新北市板橋區海山路27號","121.46771","25.0090366666667","6500100","板橋區"
"220086","073-UY","2019/12/27 19:59:35","新北市板橋區林園街7-1號","121.454151666667","25.00904","6500100","板橋區"
"220106","075-UY","2019/12/27 19:59:25","新北市板橋區民治街132號","121.477791666667","25.03089","6500100","板橋區"
"220069","AAD-861","2019/12/27 19:59:35","新北市板橋區貴興路123號","121.455501666667","25.0022683333333","6500100","板橋區"
"247006","893-R6","2019/12/27 19:59:27","新北市蘆洲區九芎街115號","121.46553","25.07944","6501400","蘆洲區"
"247020","546-UM","2019/12/27 19:59:27","新北市蘆洲區民義街66號","121.472913333333","25.0897816666667","6501400","蘆洲區"
"247004","336-TH","2019/12/27 19:59:40","新北市蘆洲區長安街222號","121.458043333333","25.08503","6501400","蘆洲區"
"247012","335-TH","2019/12/27 19:59:26","新北市蘆洲區光華路119巷9號","121.467291666667","25.081925","6501400","蘆洲區"
"247024","057-VK","2019/12/27 19:59:43","新北市蘆洲區光復路42號","121.463648333333","25.085045","6501400","蘆洲區"
"247014","056-VK","2019/12/27 19:59:34","新北市蘆洲區成功路115號","121.472471666667","25.08211","6501400","蘆洲區"
"247018","053-VK","2019/12/27 19:59:25","新北市蘆洲區民族路290巷13號","121.478446666667","25.0900966666667","6501400","蘆洲區"
"247022","007-UY","2019/12/27 19:59:37","新北市蘆洲區中正路174巷4號","121.467426666667","25.0879216666667","6501400","蘆洲區"
"247008","002-UY","2019/12/27 19:59:34","新北市蘆洲區信義路99號","121.477955","25.0800733333333","6501400","蘆洲區"
"247002","001-UY","2019/12/27 19:59:42","新北市蘆洲區長安街349號","121.457146666667","25.0871233333333","6501400","蘆洲區"
"226004","312-R5","2019/12/27 19:59:36","新北市平溪區十分里十分街88號","121.777208333333","25.04173","6502400","平溪區"
"228003","828-UM","2019/12/27 19:59:34","新北市貢寮區仁理村仁和路124號","121.92298","25.05125","6502600","貢寮區"
"227002","642-TC","2019/12/27 19:59:33","新北市雙溪區雙溪里長安街16號","121.865025","25.0346633333333","6502500","雙溪區"
"222001","KEA-2212","2019/12/27 19:59:40","新北市深坑區北深路三段164號","121.602248333333","25.0033416666667","6501800","深坑區"
"208003","665-BX","2019/12/27 19:59:33","新北市金山區海興路1-3號","121.633903333333","25.244085","6502700","金山區"
"251004","009-UM","2019/12/27 19:59:40","新北市淡水區民權路177巷11號","121.460875","25.1352","6501000","淡水區"
"251005","010-UM","2019/12/27 19:59:36","新北市淡水區學府路136巷33號","121.451676666667","25.17277","6501000","淡水區"
"251001","011-UM","2019/12/27 19:59:25","新北市淡水區淡金路二段270-1號","121.447","25.1889716666667","6501000","淡水區"
"251008","181-VK","2019/12/27 19:59:41","新北市淡水區淡海路72巷20號","121.424","25.18096","6501000","淡水區"
"251012","441-VK","2019/12/27 19:59:41","新北市淡水區下圭柔山93-3號","121.436206666667","25.209145","6501000","淡水區"
"251006","561-UM","2019/12/27 19:59:29","新北市淡水區水碓街12號","121.443741666667","25.1771716666667","6501000","淡水區"
"251009","575-R6","2019/12/27 19:59:38","新北市淡水區英專路21巷13號","121.445025","25.16973","6501000","淡水區"
"251011","650-BX","2019/12/27 19:59:40","新北市淡水區埤島3-18號","121.447085","25.19109","6501000","淡水區"
"251002","672-BX","2019/12/27 19:59:40","新北市淡水區沙崙路214號","121.424936666667","25.1841466666667","6501000","淡水區"
"252001","292-VK","2019/12/27 19:59:45","新北市三芝區公正街9號","121.499743333333","25.2575116666667","6502100","三芝區"
"237004","KEA-2597","2019/12/27 19:59:37","新北市三峽區添福2-1號","121.370396666667","24.9095483333333","6500900","三峽區"
"237007","153-BY","2019/12/27 19:59:39","新北市三峽區麻園37-3號","121.362623333333","24.9189916666667","6500900","三峽區"
"237009","210-TH","2019/12/27 19:59:44","新北市三峽區民族街36號","121.369415","24.93073","6500900","三峽區"
"237012","275-BY","2019/12/27 19:59:34","新北市三峽區中華路91號","121.37168","24.9295","6500900","三峽區"
"237006","5530-G3","2019/12/27 19:59:44","新北市三峽區中正路二段168號","121.365985","24.91572","6500900","三峽區"
"237015","649-BX","2019/12/27 19:59:40","新北市三峽區介壽路二段138巷1弄5-2號","121.396135","24.9341266666667","6500900","三峽區"
"237005","AKY-6261","2019/12/27 19:59:33","新北市三峽區民生街1巷3號","121.383046666667","24.9325933333333","6500900","三峽區"
"236042","KED-0685","2019/12/27 19:59:29","新北市土城區學府路一段98巷15號","121.455751666667","24.9885533333333","6501300","土城區"
"236079","166-UM","2019/12/27 19:59:28","新北市土城區福安街2-1號","121.42018","24.9651183333333","6501300","土城區"
"236030","253-BX","2019/12/27 19:59:30","新北市土城區中央路一段252號","121.44427","24.9846433333333","6501300","土城區"
"236026","269-VK","2019/12/27 19:59:43","新北市土城區中央路一段303號","121.443873333333","24.9835366666667","6501300","土城區"
"236014","270-VK","2019/12/27 19:59:44","新北市土城區廣福街123號","121.456243333333","24.99292","6501300","土城區"
"236039","271-VK","2019/12/27 19:59:43","新北市土城區國際路29巷1號","121.465833333333","24.9794766666667","6501300","土城區"
"247012","KED-0683","2019/12/27 19:59:38","新北市蘆洲區民族路226號","121.479611666667","25.088045","6501400","蘆洲區"
"236069","KEA-2877","2019/12/27 19:59:39","新北市土城區忠義路92號","121.444331666667","24.9623066666667","6501300","土城區"
"252002","KED-0821","2019/12/27 19:59:25","新北市三芝區忠孝街116-3號","121.505525","25.2575166666667","6502100","三芝區"
"236020","401-BY","2019/12/27 19:59:43","新北市土城區延吉街85號","121.471885","24.98703","6501300","土城區"
"236048","752-BX","2019/12/27 19:59:21","新北市土城區金城路三段190號","121.468311666667","24.9880516666667","6501300","土城區"
"236059","912-UM","2019/12/27 19:59:41","新北市土城區中央路二段55號","121.442641666667","24.979385","6501300","土城區"
"236063","915-UM","2019/12/27 19:59:31","新北市土城區立德路135巷5弄9號","121.464535","24.9873466666667","6501300","土城區"
"236055","AAC-216","2019/12/27 19:59:26","新北市土城區學府路一段125號","121.454948333333","24.9869533333333","6501300","土城區"
"242060","986-R7","2019/12/27 19:59:41","新北市新莊區瓊林路59-4號","121.444565","25.02766","6500500","新莊區"
"242005","751-BX","2019/12/27 19:59:23","新北市新莊區化成路314巷9號","121.466383333333","25.048365","6500500","新莊區"
"242025","705-TV","2019/12/27 19:59:27","新北市新莊區五工二路86巷50號","121.460883333333","25.0674783333333","6500500","新莊區"
"242029","615-BX","2019/12/27 19:59:32","新北市新莊區中平路332號","121.444751666667","25.0524116666667","6500500","新莊區"
"242027","613-BX","2019/12/27 19:59:43","新北市新莊區立信五街12巷1號","121.443986666667","25.0517016666667","6500500","新莊區"
"242058","612-BX","2019/12/27 19:59:38","新北市新莊區八德街89號","121.424558333333","25.02148","6500500","新莊區"
"242048","566-BX","2019/12/27 19:59:35","新北市新莊區民安路209號","121.426323333333","25.0223333333333","6500500","新莊區"
"242054","497-BY","2019/12/27 19:59:29","新北市新莊區民安西路332號","121.426795","25.01161","6500500","新莊區"
"242002","441-UM","2019/12/27 19:59:39","新北市新莊區中正路219號","121.450958333333","25.0357816666667","6500500","新莊區"
"242007","440-UM","2019/12/27 19:59:41","新北市新莊區中原路2號","121.4587","25.0562933333333","6500500","新莊區"
"242013","413-TV","2019/12/27 19:59:29","新北市新莊區中港路380號","121.452485","25.0478783333333","6500500","新莊區"
"242050","400-BY","2019/12/27 19:59:36","新北市新莊區民本街27巷2號","121.428255","25.019115","6500500","新莊區"
"242023","353-BY","2019/12/27 19:59:29","新北市新莊區化成路384號","121.465946666667","25.050175","6500500","新莊區"
"242039","135-UY","2019/12/27 19:59:23","新北市新莊區民安路274號","121.427706666667","25.0213783333333","6500500","新莊區"
"242017","173-VK","2019/12/27 19:59:39","新北市新莊區中安街1號","121.452841666667","25.0452816666667","6500500","新莊區"
"242032","175-VK","2019/12/27 19:59:32","新北市新莊區公園一路36號","121.443403333333","25.0354333333333","6500500","新莊區"
"242056","176-VK","2019/12/27 19:59:32","新北市新莊區中正路347巷15號","121.44732","25.03443","6500500","新莊區"
"242021","KED-0687","2019/12/27 19:59:27","新北市新莊區建中街16巷18號","121.449383333333","25.0384416666667","6500500","新莊區"
"242019","346-TH","2019/12/27 19:59:37","新北市新莊區明智街6號","121.454676666667","25.0414166666667","6500500","新莊區"
"242015","347-TH","2019/12/27 19:59:34","新北市新莊區復興路一段47巷10號","121.446873333333","25.0426883333333","6500500","新莊區"
"242037","348-TH","2019/12/27 19:59:29","新北市新莊區建安街27號","121.429095","25.0259816666667","6500500","新莊區"
"242034","350-TH","2019/12/27 19:59:40","新北市新莊區建中街91號","121.446758333333","25.03644","6500500","新莊區"
"238020","571-TV","2019/12/27 19:59:24","新北市樹林區中山路三段210-2號","121.380513333333","24.9678583333333","6500700","樹林區"
"239007","AAC-297","2019/12/27 19:59:42","新北市鶯歌區中山路129號","121.349493333333","24.956955","6500800","鶯歌區"
"239006","891-R6","2019/12/27 19:59:39","新北市鶯歌區文化路149號","121.356461666667","24.9543283333333","6500800","鶯歌區"
"221008","489-VK","2019/12/27 19:59:35","新北市汐止區康寧街141巷1弄1號","121.621456666667","25.067025","6501100","汐止區"
"221015","131-UY","2019/12/27 19:59:26","新北市汐止區大同路三段27號","121.666656666667","25.0763333333333","6501100","汐止區"
"221010","269-BY","2019/12/27 19:59:31","新北市汐止區汐萬路一段418巷3號","121.649636666667","25.078575","6501100","汐止區"
"221012","278-VK","2019/12/27 19:59:34","新北市汐止區保長路273巷4號","121.681313333333","25.0740216666667","6501100","汐止區"
"221023","279-VK","2019/12/27 19:59:41","新北市汐止區民族六街3巷1號","121.629468333333","25.0703666666667","6501100","汐止區"
"221027","281-BY","2019/12/27 19:59:31","新北市汐止區中正路100號","121.661158333333","25.0695166666667","6501100","汐止區"
"221029","298-VK","2019/12/27 19:59:38","新北市汐止區樟樹一路139巷23號","121.641081666667","25.0660266666667","6501100","汐止區"
"221021","299-VK","2019/12/27 19:59:35","新北市汐止區莊敬街128號","121.654875","25.0613033333333","6501100","汐止區"
"207003","KEE-1020","2019/12/27 19:59:39","新北市萬里區大鵬里萬里加投51-1號","121.642031666667","25.2117116666667","6502800","萬里區"
"221031","567-BX","2019/12/27 19:59:36","新北市汐止區福德二路55巷6弄1號","121.634601666667","25.066505","6501100","汐止區"
"221035","622-UM","2019/12/27 19:59:28","新北市汐止區長江街11號","121.65469","25.0712133333333","6501100","汐止區"
"221025","623-UM","2019/12/27 19:59:36","新北市汐止區仁愛路77巷2弄15號","121.661298333333","25.0635","6501100","汐止區"
"221038","646-BX","2019/12/27 19:59:36","新北市汐止區忠孝東路526號","121.66708","25.0762066666667","6501100","汐止區"
"221033","647-BX","2019/12/27 19:59:29","新北市汐止區東勢街201巷98號","121.63374","25.04307","6501100","汐止區"
"220079","145-BY","2019/12/27 19:59:40","新北市板橋區中正路142號","121.457018333333","25.0160983333333","6500100","板橋區"
"220080","200-UY","2019/12/27 19:59:35","新北市板橋區大觀路二段153巷15號","121.446153333333","25.0006633333333","6500100","板橋區"
"220082","610-BX","2019/12/27 19:59:42","新北市板橋區篤行路二段105號","121.431685","24.9911766666667","6500100","板橋區"
"220101","245-BX","2019/12/27 19:59:43","新北市板橋區雙十路二段47巷8弄2號","121.474765","25.0255666666667","6500100","板橋區"
"224002","257-TC","2019/12/27 19:59:25","新北市瑞芳區員山子路員山巷3-1號","121.817225","25.1036383333333","6501200","瑞芳區"
"220091","267-BY","2019/12/27 19:59:34","新北市板橋區文聖街111號","121.47792","25.0293133333333","6500100","板橋區"
"220056","276-BY","2019/12/27 19:59:41","新北市板橋區南雅南路二段49號","121.451516666667","24.9944216666667","6500100","板橋區"
"220072","277-BY","2019/12/27 19:59:31","新北市板橋區篤行路二段74號","121.431658333333","24.9920783333333","6500100","板橋區"
"220094","285-UM","2019/12/27 19:59:25","新北市板橋區文化路一段160號","121.465585","25.019225","6500100","板橋區"
"220053","285-VK","2019/12/27 19:59:32","新北市板橋區中山路2段267-1號","121.477543333333","25.0180583333333","6500100","板橋區"
"220083","286-VK","2019/12/27 19:59:30","新北市板橋區僑中一街125巷8弄1號","121.445133333333","25.01088","6500100","板橋區"
"220081","287-VK","2019/12/27 19:59:37","新北市板橋區僑中一街80巷8號","121.447938333333","25.01256","6500100","板橋區"
"220090","288-VK","2019/12/27 19:59:27","新北市板橋區雨農路50號","121.461093333333","25.0241783333333","6500100","板橋區"
"220061","293-UM","2019/12/27 19:59:27","新北市板橋區中山路一段40號","121.46071","25.0086766666667","6500100","板橋區"
"220084","296-UM","2019/12/27 19:59:41","新北市板橋區板林路158號","121.424438333333","24.9877683333333","6500100","板橋區"
"220075","303-R5","2019/12/27 19:59:40","新北市板橋區中正路250巷57號","121.457928333333","25.0198016666667","6500100","板橋區"
"220062","305-R5","2019/12/27 19:59:36","新北市板橋區中山路二段412號","121.482835","25.02083","6500100","板橋區"
"220092","307-R5","2019/12/27 19:59:32","新北市板橋區文化路一段45巷10號","121.460273333333","25.0137283333333","6500100","板橋區"
"220098","317-R6","2019/12/27 19:59:40","新北市板橋區新海路385巷24號","121.457961666667","25.025555","6500100","板橋區"
"220089","487-VK","2019/12/27 19:59:43","新北市板橋區四維路347號","121.462316666667","25.0299083333333","6500100","板橋區"
"242011","280-VK","2019/12/27 19:59:27","新北市新莊區中港路531巷118號","121.449855","25.0516566666667","6500500","新莊區"
"220088","491-VK","2019/12/27 19:59:32","新北市板橋區懷德街127巷23弄9號","121.479351666667","25.03165","6500100","板橋區"
"220035","560-BX","2019/12/27 19:59:30","新北市板橋區金華街66號","121.457338333333","25.0205883333333","6500100","板橋區"
"220103","561-BX","2019/12/27 19:59:43","新北市板橋區漢生東路31號","121.465303333333","25.0169","6500100","板橋區"
"220063","609-BX","2019/12/27 19:59:29","新北市板橋區中山路二段113號","121.474775","25.016275","6500100","板橋區"
"220077","687-BX","2019/12/27 19:59:40","新北市板橋區僑中一街112號","121.446281666667","25.0117366666667","6500100","板橋區"
"220102","KEA-2699","2019/12/27 19:59:39","新北市板橋區莒光路40巷17弄7號","121.470506666667","25.0236816666667","6500100","板橋區"
"220055","827-TW","2019/12/27 19:59:30","新北市板橋區仁愛路62巷15弄2號","121.460083333333","24.9983866666667","6500100","板橋區"
"220068","830-TW","2019/12/27 19:59:37","新北市板橋區中山路二段362號","121.481643333333","25.0200666666667","6500100","板橋區"
"220067","831-TW","2019/12/27 19:59:44","新北市板橋區中山路一段206巷43號","121.470703333333","25.012825","6500100","板橋區"
"220074","895-R6","2019/12/27 19:59:23","新北市板橋區民權路69號","121.461508333333","25.0116533333333","6500100","板橋區"
"220073","985-R7","2019/12/27 19:59:36","新北市板橋區南雅西路二段186號","121.45166","25.0142083333333","6500100","板橋區"
"220097","AAC-210","2019/12/27 19:59:35","新北市板橋區建國街127號","121.460971666667","25.017785","6500100","板橋區"
"220064","AAC-253","2019/12/27 19:59:39","新北市板橋區中山路一段206巷131號","121.472796666667","25.013135","6500100","板橋區"
"235068","KEA-2876","2019/12/27 19:59:36","新北市中和區福美路301巷21號","121.497608333333","25.0039983333333","6500300","中和區"
