"lineid","car","time","location","longitude","latitude","cityid","cityname"
"234064","337-UY","2019/12/27 20:43:31","新北市永和區福和路1號","121.526078333333","25.009815","6500400","永和區"
"249001","173-UM","2019/12/27 20:43:36","新北市八里區中山路三段227號","121.381986666667","25.1403983333333","6502300","八里區"
"249004","303-UY","2019/12/27 20:43:37","新北市八里區中山路一段157巷32號","121.41276","25.1580716666667","6502300","八里區"
"234074","AAC-211","2019/12/27 20:43:39","新北市永和區竹林路75巷25弄34號","121.521053333333","25.0149766666667","6500400","永和區"
"222003","KEE-1106","2019/12/27 20:43:42","新北市深坑區阿柔洋40號","121.610323333333","24.998465","6501800","深坑區"
"222002","659-BX","2019/12/27 20:43:43","新北市深坑區北深路三段105號","121.605366666667","25.0017183333333","6501800","深坑區"
"231061","002-UM","2019/12/27 20:43:38","新北市新店區新和街77號","121.520583333333","24.986085","6500600","新店區"
"231058","0291-UT","2019/12/27 20:43:40","新北市新店區自由街56號","121.534383333333","24.9736033333333","6500600","新店區"
"231044","046-UY","2019/12/27 20:43:30","新北市新店區建國路178號","121.538026666667","24.9799016666667","6500600","新店區"
"231041","047-UY","2019/12/27 20:43:31","新北市新店區中正路700巷1號","121.533873333333","24.99121","6500600","新店區"
"231060","106-UY","2019/12/27 20:43:38","新北市新店區安康路三段740號","121.473805","24.9419616666667","6500600","新店區"
"231051","107-UY","2019/12/27 20:43:38","新北市新店區溪園路511號","121.52394","24.97701","6500600","新店區"
"231049","108-UY","2019/12/27 20:43:30","新北市新店區永業路81巷1弄17號","121.530441666667","24.9504033333333","6500600","新店區"
"231065","110-UY","2019/12/27 20:43:37","新北市新店區安祥路104巷6弄38號","121.48303","24.963275","6500600","新店區"
"231053","189-VK","2019/12/27 20:43:41","新北市新店區新烏路二段300號","121.548565","24.9133016666667","6500600","新店區"
"231050","KEA-2219","2019/12/27 20:43:38","新北市新店區中正路247巷3號","121.538875","24.9729816666667","6500600","新店區"
"231062","256-BX","2019/12/27 20:43:29","新北市新店區安泰路60巷55弄2號","121.484266666667","24.9455333333333","6500600","新店區"
"231054","260-TV","2019/12/27 20:43:33","新北市新店區北新路一段88巷1-1號","121.542073333333","24.9676766666667","6500600","新店區"
"231042","268-BY","2019/12/27 20:43:27","新北市新店區寶高路120巷1號","121.554566666667","24.9760883333333","6500600","新店區"
"231064","278-BY","2019/12/27 20:43:34","新北市新店區安民街379巷12號","121.515923333333","24.9762316666667","6500600","新店區"
"231045","355-BY","2019/12/27 20:43:25","新北市新店區長春路21巷14號","121.549135","24.9577666666667","6500600","新店區"
"231056","4715-K9","2019/12/27 20:43:27","新北市新店區安興路108號","121.515243333333","24.9769316666667","6500600","新店區"
"231067","4772-VM","2019/12/27 20:43:39","新北市新店區安康路一段355-4號","121.51738","24.963965","6500600","新店區"
"231068","512-UM","2019/12/27 20:43:38","新北市新店區寶元路一段95-1號","121.543681666667","24.984915","6500600","新店區"
"231063","616-UM","2019/12/27 20:43:34","新北市新店區如意街3巷2號","121.495573333333","24.949235","6500600","新店區"
"231048","KED-0819","2019/12/27 20:43:26","新北市新店區寶元路一段109號","121.545733333333","24.9831483333333","6500600","新店區"
"231057","720-UM","2019/12/27 20:43:29","新北市新店區花園六路二段9-2號","121.555683333333","24.9329016666667","6500600","新店區"
"231059","897-TW","2019/12/27 20:43:35","新北市新店區安豐路54-1號","121.499793333333","24.9540766666667","6500600","新店區"
"231040","898-TW","2019/12/27 20:43:33","新北市新店區中正路272號","121.538953333333","24.9736333333333","6500600","新店區"
"231043","899-TW","2019/12/27 20:43:41","新北市新店區建國路29號","121.540256666667","24.9740933333333","6500600","新店區"
"231066","AKT-0513","2019/12/27 20:43:28","新北市新店區安民街365巷1弄8號","121.516356666667","24.9751966666667","6500600","新店區"
"241011","013-R5","2019/12/27 20:43:38","新北市三重區龍濱路205巷22號","121.503078333333","25.0720066666667","6500200","三重區"
"241028","022-UY","2019/12/27 20:43:36","新北市三重區中正南路48號","121.49393","25.0599466666667","6500200","三重區"
"241008","059-VK","2019/12/27 20:43:28","新北市三重區下竹圍街42-1號","121.481048333333","25.0748233333333","6500200","三重區"
"241031","061-VK","2019/12/27 20:43:29","新北市三重區重陽路一段113巷1弄49號","121.488133333333","25.05864","6500200","三重區"
"241015","062-VK","2019/12/27 20:43:42","新北市三重區文化北路149-1號","121.497511666667","25.0695","6500200","三重區"
"241017","063-VK","2019/12/27 20:43:43","新北市三重區民生街36號","121.491831666667","25.0669683333333","6500200","三重區"
"241024","065-VK","2019/12/27 20:43:28","新北市三重區忠孝路三段38號","121.481055","25.06647","6500200","三重區"
"241007","066-VK","2019/12/27 20:43:35","新北市三重區慈愛街8號","121.484408333333","25.0784083333333","6500200","三重區"
"241002","090-VK","2019/12/27 20:43:42","新北市三重區仁義街157巷44號","121.498101666667","25.0814983333333","6500200","三重區"
"241003","091-VK","2019/12/27 20:43:26","新北市三重區五華街141巷58號","121.49352","25.0867383333333","6500200","三重區"
"241009","742-BX","2019/12/27 20:43:34","新北市三重區仁愛街705號","121.482683333333","25.0806516666667","6500200","三重區"
"241016","266-UM","2019/12/27 20:43:43","新北市三重區正義北路198號","121.496256666667","25.0670516666667","6500200","三重區"
"241018","268-UM","2019/12/27 20:43:31","新北市三重區正義北路339號","121.493568333333","25.071605","6500200","三重區"
"241032","269-UM","2019/12/27 20:43:41","新北市三重區重陽路一段120巷35號","121.485088333333","25.060165","6500200","三重區"
"241013","270-UM","2019/12/27 20:43:32","新北市三重區三和路三段65號","121.494943333333","25.0718583333333","6500200","三重區"
"241025","271-UM","2019/12/27 20:43:38","新北市三重區洛陽街9號","121.483053333333","25.0631816666667","6500200","三重區"
"241030","KED-0822","2019/12/27 20:43:40","新北市三重區成功路73巷11號","121.489516666667","25.051895","6500200","三重區"
"241035","462-BY","2019/12/27 20:43:37","新北市三重區文化北路248號","121.497348333333","25.0700083333333","6500200","三重區"
"241004","475-VK","2019/12/27 20:43:40","新北市三重區仁愛街406巷3號","121.49064","25.0812666666667","6500200","三重區"
"241020","478-VK","2019/12/27 20:43:22","新北市三重區忠孝路一段101號","121.489578333333","25.0721666666667","6500200","三重區"
"241026","480-VK","2019/12/27 20:43:39","新北市三重區文化南路7號","121.499951666667","25.0623","6500200","三重區"
"241014","543-UM","2019/12/27 20:43:34","新北市三重區萬壽街46號","121.500323333333","25.069605","6500200","三重區"
"241023","545-UM","2019/12/27 20:43:44","新北市三重區忠孝路三段84巷1號","121.480396666667","25.06483","6500200","三重區"
"241001","547-UM","2019/12/27 20:43:38","新北市三重區自強路三段76巷12號","121.4863","25.07414","6500200","三重區"
"241019","KEA-2593","2019/12/27 20:43:24","新北市三重區大智街190號","121.490323333333","25.0707233333333","6500200","三重區"
"241005","AAD-863","2019/12/27 20:43:33","新北市三重區集賢路162-6號","121.485486666667","25.0895433333333","6500200","三重區"
"241012","743-BX","2019/12/27 20:43:28","新北市三重區仁信街29號","121.50124","25.075535","6500200","三重區"
"241022","KED-0820","2019/12/27 20:43:27","新北市三重區重陽路二段19巷12號","121.48806","25.06244","6500200","三重區"
"241006","KED-0670","2019/12/27 20:43:42","新北市三重區車路頭街135-1號","121.48428","25.0761283333333","6500200","三重區"
"241029","942-UM","2019/12/27 20:43:35","新北市三重區泉州街84巷20號","121.496043333333","25.0544883333333","6500200","三重區"
"241033","AAC-255","2019/12/27 20:43:41","新北市三重區光復路二段49號","121.472396666667","25.05582","6500200","三重區"
"235055","183-VK","2019/12/27 20:43:37","新北市八里區中華路三段62號","121.394306666667","25.14084","6500300","中和區"
"247010","KED-0682","2019/12/27 20:43:43","新北市蘆洲區三民路33號","121.475345","25.0831916666667","6501400","蘆洲區"
"235069","4980-A6","2019/12/27 20:43:26","新北市中和區新生街213號","121.48402","24.9996916666667","6500300","中和區"
"247006","893-R6","2019/12/27 20:43:35","新北市蘆洲區和平路121巷14號","121.466863333333","25.0796683333333","6501400","蘆洲區"
"247016","341-TH","2019/12/27 20:40:42","新北市蘆洲區中山一路310號","121.469531666667","25.07743","6501400","蘆洲區"
"247004","336-TH","2019/12/27 20:43:27","新北市蘆洲區長安街222號","121.458221666667","25.084875","6501400","蘆洲區"
"247024","057-VK","2019/12/27 20:43:43","新北市蘆洲區長樂路152號","121.4625","25.0906966666667","6501400","蘆洲區"
"247014","056-VK","2019/12/27 20:43:34","新北市蘆洲區中山二路68號","121.473445","25.082055","6501400","蘆洲區"
"247022","007-UY","2019/12/27 20:43:37","新北市蘆洲區中正路185巷46弄14號","121.467063333333","25.0852566666667","6501400","蘆洲區"
"247008","002-UY","2019/12/27 20:43:31","新北市三重區永安北路二段5巷1號","121.481535","25.0809066666667","6501400","蘆洲區"
"247002","001-UY","2019/12/27 20:43:42","新北市蘆洲區長榮路394號","121.459651666667","25.0875","6501400","蘆洲區"
"228001","670-TC","2019/12/27 20:22:53","新北市貢寮區貢寮里朝陽街1-2號","121.912285","25.0212316666667","6502600","貢寮區"
"222001","KEA-2212","2019/12/27 20:43:40","新北市深坑區北深路三段228號","121.600801666667","25.003945","6501800","深坑區"
"251001","011-UM","2019/12/27 20:43:28","新北市淡水區淡金路一段8號","121.460786666667","25.1690033333333","6501000","淡水區"
"251010","413-VK","2019/12/27 20:43:38","新北市淡水區沙崙路133號","121.422726666667","25.1827316666667","6501000","淡水區"
"251012","441-VK","2019/12/27 20:43:28","新北市淡水區興仁路103巷19號","121.450313333333","25.2175416666667","6501000","淡水區"
"251007","442-VK","2019/12/27 20:43:29","新北市淡水區學府路102巷62號","121.453443333333","25.17111","6501000","淡水區"
"251006","561-UM","2019/12/27 20:43:29","新北市淡水區商工路30號","121.447216666667","25.1882433333333","6501000","淡水區"
"251011","650-BX","2019/12/27 20:43:40","新北市淡水區新市一路一段281巷2號","121.434658333333","25.186765","6501000","淡水區"
"251002","672-BX","2019/12/27 20:43:40","新北市淡水區中山路8號","121.444618333333","25.168785","6501000","淡水區"
"251003","766-UM","2019/12/27 20:43:39","新北市淡水區新民街152巷6弄22號","121.438861666667","25.1786416666667","6501000","淡水區"
"247012","KED-0683","2019/12/27 20:43:38","新北市蘆洲區中興街72號","121.482258333333","25.0880966666667","6501400","蘆洲區"
"252002","KED-0821","2019/12/27 20:43:25","新北市三芝區淡金路二段91號","121.504103333333","25.26087","6502100","三芝區"
"242041","AAC-296","2019/12/27 20:43:34","新北市新莊區天祥街15巷7號","121.416776666667","25.0275","6500500","新莊區"
"242060","986-R7","2019/12/27 20:43:44","新北市新莊區新樹路258巷3號","121.43212","25.015605","6500500","新莊區"
"242005","751-BX","2019/12/27 20:43:23","新北市新莊區化成路403巷32號","121.463916666667","25.0587083333333","6500500","新莊區"
"242025","705-TV","2019/12/27 20:43:27","新北市三重區光復路二段178號","121.471623333333","25.0621783333333","6500500","新莊區"
"242029","615-BX","2019/12/27 20:43:32","新北市新莊區中華路二段95號","121.452663333333","25.0495016666667","6500500","新莊區"
"242027","613-BX","2019/12/27 20:43:23","新北市新莊區思源路161號","121.459848333333","25.044725","6500500","新莊區"
"242058","612-BX","2019/12/27 20:43:38","新北市新莊區民安路138號","121.424211666667","25.0253666666667","6500500","新莊區"
"242048","566-BX","2019/12/27 20:43:37","新北市新莊區中正路745號","121.422425","25.0287933333333","6500500","新莊區"
"242054","497-BY","2019/12/27 20:43:28","新北市新莊區民安西路217號","121.425998333333","25.0145033333333","6500500","新莊區"
"242002","441-UM","2019/12/27 20:43:18","新北市新莊區中港路五守新村16巷2號","121.454705","25.0389333333333","6500500","新莊區"
"242007","440-UM","2019/12/27 20:43:41","新北市新莊區思源路287巷15號","121.45893","25.0481533333333","6500500","新莊區"
"242044","415-TV","2019/12/27 20:43:29","新北市新莊區龍安路100號","121.418111666667","25.02067","6500500","新莊區"
"242013","413-TV","2019/12/27 20:43:29","新北市新莊區中榮街90號","121.447803333333","25.0527966666667","6500500","新莊區"
"242050","400-BY","2019/12/27 20:43:36","新北市新莊區民安西路137號","121.426291666667","25.0173216666667","6500500","新莊區"
"242023","353-BY","2019/12/27 20:43:29","新北市新莊區化成路366號","121.465873333333","25.0495966666667","6500500","新莊區"
"242039","135-UY","2019/12/27 20:43:23","新北市新莊區瓊林路59-38號","121.441178333333","25.023525","6500500","新莊區"
"242017","173-VK","2019/12/27 20:43:39","新北市新莊區中港一街161號","121.44723","25.0449883333333","6500500","新莊區"
"242032","175-VK","2019/12/27 20:43:32","新北市新莊區中正路508巷5弄19號","121.435125","25.0337233333333","6500500","新莊區"
"242056","176-VK","2019/12/27 20:43:32","新北市新莊區瓊泰路2巷8號","121.445045","25.02913","6500500","新莊區"
"242019","346-TH","2019/12/27 20:43:41","新北市新莊區銘德街73號","121.45651","25.0435716666667","6500500","新莊區"
"242015","347-TH","2019/12/27 20:43:34","新北市新莊區中和街16號","121.44844","25.04333","6500500","新莊區"
"242037","348-TH","2019/12/27 20:43:29","新北市新莊區建安街1號","121.42863","25.0269216666667","6500500","新莊區"
"242009","349-TH","2019/12/27 20:43:43","新北市新莊區福壽街99巷15弄1號","121.456781666667","25.0504116666667","6500500","新莊區"
"242034","350-TH","2019/12/27 20:43:40","新北市新莊區中正路437號","121.443415","25.0341366666667","6500500","新莊區"
"238025","303-VK","2019/12/27 20:14:01","新北市樹林區育德街78號","121.387503333333","24.9684516666667","6500700","樹林區"
"221008","489-VK","2019/12/27 20:43:35","新北市汐止區康寧街680-1號","121.636406666667","25.0711133333333","6501100","汐止區"
"221036","130-UY","2019/12/27 20:43:32","新北市汐止區新昌路25號","121.662058333333","25.0677116666667","6501100","汐止區"
"221015","131-UY","2019/12/27 20:43:26","新北市汐止區大同路二段645號","121.664616666667","25.07143","6501100","汐止區"
"221012","278-VK","2019/12/27 20:43:34","新北市汐止區保新街283號","121.692723333333","25.0683133333333","6501100","汐止區"
"221023","279-VK","2019/12/27 20:43:41","新北市汐止區湖東街58號","121.6353","25.07267","6501100","汐止區"
"221027","281-BY","2019/12/27 20:43:31","新北市汐止區大同路二段435號","121.659293333333","25.0674716666667","6501100","汐止區"
"221029","298-VK","2019/12/27 20:43:38","新北市汐止區大同路一段421號","121.642633333333","25.06123","6501100","汐止區"
"221021","299-VK","2019/12/27 20:43:35","新北市汐止區水源路一段284號","121.654153333333","25.0582283333333","6501100","汐止區"
"221031","567-BX","2019/12/27 20:43:36","新北市汐止區中興路27巷21號","121.634085","25.060875","6501100","汐止區"
"221035","622-UM","2019/12/27 20:43:28","新北市汐止區長江街101-5號","121.658703333333","25.0731916666667","6501100","汐止區"
"221025","623-UM","2019/12/27 20:43:30","新北市汐止區水源路二段236號","121.658596666667","25.0513216666667","6501100","汐止區"
"221033","647-BX","2019/12/27 20:43:28","新北市汐止區合順街18巷8弄5號","121.620336666667","25.041935","6501100","汐止區"
"221002","707-TV","2019/12/27 20:43:34","新北市汐止區福德二路136號","121.6308","25.06525","6501100","汐止區"
"220079","145-BY","2019/12/27 20:43:40","新北市樹林區中山路三段210-2號","121.380568333333","24.9676416666667","6500100","板橋區"
"242046","281-VK","2019/12/27 20:43:29","新北市新莊區中正路857-4號","121.419115","25.02785","6500500","新莊區"
