"lineid","car","time","location","longitude","latitude","cityid","cityname"
"241017","063-VK","2019/12/27 21:29:23","新北市三重區中正北路25巷23號","121.493091666667","25.0626016666667","6500200","三重區"
"241024","065-VK","2019/12/27 21:29:28","新北市三重區中正北路145巷14號","121.484133333333","25.06778","6500200","三重區"
"241007","066-VK","2019/12/27 21:29:34","新北市三重區中正北路25巷1號","121.492441666667","25.0620283333333","6500200","三重區"
"241003","091-VK","2019/12/27 21:29:26","新北市三重區五華街141巷58號","121.493473333333","25.08671","6500200","三重區"
"241018","268-UM","2019/12/27 21:28:30","新北市五股區中直路13-7號","121.424728333333","25.110475","6500200","三重區"
"241005","AAD-863","2019/12/27 21:29:33","新北市三重區碧華街1號","121.483468333333","25.081205","6500200","三重區"
"247006","893-R6","2019/12/27 21:29:07","新北市五股區中直路17-3號","121.422201666667","25.1115833333333","6501400","蘆洲區"
"251004","009-UM","2019/12/27 21:29:35","新北市淡水區民權路119號","121.460135","25.1369666666667","6501000","淡水區"
"251005","010-UM","2019/12/27 21:29:36","新北市淡水區長興街65號","121.444203333333","25.1722133333333","6501000","淡水區"
"251001","011-UM","2019/12/27 21:29:25","新北市淡水區新市二路三段18號","121.433208333333","25.193625","6501000","淡水區"
"251008","181-VK","2019/12/27 21:29:41","新北市淡水區水源街二段106號","121.452343333333","25.17452","6501000","淡水區"
"251010","413-VK","2019/12/27 21:29:33","新北市淡水區淡海路147號","121.420956666667","25.1829883333333","6501000","淡水區"
"251012","441-VK","2019/12/27 21:29:29","新北市淡水區淡金路五段35巷46號","121.452501666667","25.2347416666667","6501000","淡水區"
"251006","561-UM","2019/12/27 21:29:30","新北市淡水區公明街70號","121.44377","25.168475","6501000","淡水區"
"251009","575-R6","2019/12/27 21:29:38","新北市淡水區民族路31巷90號","121.463443333333","25.13686","6501000","淡水區"
"251011","650-BX","2019/12/27 21:29:40","新北市淡水區新民街164號","121.436973333333","25.1783633333333","6501000","淡水區"
"251002","672-BX","2019/12/27 21:29:40","新北市淡水區學府路172巷21號","121.448313333333","25.1749233333333","6501000","淡水區"
"251003","766-UM","2019/12/27 21:29:39","新北市淡水區新春街85巷19弄8-5號","121.437871666667","25.1831533333333","6501000","淡水區"
"242060","986-R7","2019/12/27 21:29:44","新北市林口區太平里180號","121.368381666667","25.13436","6500500","新莊區"
