"lineid","car","time","location","longitude","latitude","cityid","cityname"
"244004","248-BX","2019/11/15 08:29:29","新北市林口區太平里11鄰38號","121.360048333333","25.1318166666667","6501700","林口區"
"222004","289-BY","2019/11/15 08:29:22","新北市深坑區萬福路116號","121.616516666667","25.0150483333333","6501800","深坑區"
"231007","189-VK","2019/11/15 08:29:07","新北市新店區新潭路一段230號","121.528741666667","24.9281933333333","6500600","新店區"
"231009","192-VK","2019/11/15 08:29:18","新北市新店區新烏路二段329號","121.55006","24.910515","6500600","新店區"
"220034","073-UY","2019/11/15 08:29:21","新北市鶯歌區鶯桃路182巷96弄17號","121.34066","24.9579","6500100","板橋區"
"223002","KEA-2673","2019/11/15 08:29:22","新北市石碇區八分寮45-1號","121.641915","25.0128016666667","6501900","石碇區"
"223003","205-TH","2019/11/15 08:29:23","新北市石碇區北宜路六段直潭巷6號","121.658783333333","24.93505","6501900","石碇區"
"223008","406-TH","2019/11/15 08:29:28","新北市石碇區石碇子埔97-4號","121.668453333333","25.005395","6501900","石碇區"
"223004","437-BY","2019/11/15 08:29:26","新北市石碇區湳窟19-1號","121.66044","24.991215","6501900","石碇區"
"223001","592-UM","2019/11/15 08:29:30","新北市石碇區北宜路六段直潭巷6號","121.659051666667","24.9350033333333","6501900","石碇區"
"223007","661-BX","2019/11/15 08:29:19","新北市石碇區靜安路一段186號","121.671253333333","25.0054116666667","6501900","石碇區"
"223005","677-TV","2019/11/15 08:29:31","新北市石碇區湳窟19-1號","121.660436666667","24.991255","6501900","石碇區"
"227003","282-VK","2019/11/15 08:29:32","新北市雙溪區外柑里三叉坑6號","121.82581","25.0127933333333","6502500","雙溪區"
"237013","760-BX","2019/11/15 08:29:26","新北市三峽區建安16-3號","121.444701666667","24.92461","6500900","三峽區"
