"lineid","car","time","location","longitude","latitude","cityid","cityname"
"244004","248-BX","2019/11/15 08:43:28","新北市林口區太平里11鄰38號","121.360038333333","25.1318133333333","6501700","林口區"
"222004","289-BY","2019/11/15 08:43:22","新北市深坑區深南路125號","121.62398","25.0168066666667","6501800","深坑區"
"231007","189-VK","2019/11/15 08:43:27","新北市新店區小坑二路120號","121.51705","24.9121816666667","6500600","新店區"
"231009","192-VK","2019/11/15 08:43:28","新北市新店區新烏路三段165巷22號","121.55226","24.90101","6500600","新店區"
"220034","073-UY","2019/11/15 08:43:35","新北市鶯歌區鶯桃路98號","121.33928","24.9539266666667","6500100","板橋區"
"223002","KEA-2673","2019/11/15 08:31:14","新北市石碇區八分寮45號","121.643011666667","25.0133216666667","6501900","石碇區"
"223003","205-TH","2019/11/15 08:43:23","新北市石碇區北宜路六段柑腳巷2號","121.659535","24.9381183333333","6501900","石碇區"
"223008","406-TH","2019/11/15 08:43:28","新北市石碇區碇南路二段松柏崎巷27號","121.67547","25.0212766666667","6501900","石碇區"
"223004","437-BY","2019/11/15 08:43:26","新北市石碇區崩山3號","121.675798333333","24.97524","6501900","石碇區"
"223001","592-UM","2019/11/15 08:43:20","新北市石碇區北宜路六段柑腳巷2號","121.659613333333","24.9380433333333","6501900","石碇區"
"223007","661-BX","2019/11/15 08:43:19","新北市石碇區碇南路二段5-1號","121.670418333333","25.02503","6501900","石碇區"
"223005","677-TV","2019/11/15 08:43:31","新北市石碇區崩山33-1號","121.677006666667","24.9656233333333","6501900","石碇區"
"227003","282-VK","2019/11/15 08:43:31","新北市雙溪區外柑里四分子3-1號","121.83813","25.0021383333333","6502500","雙溪區"
"237013","760-BX","2019/11/15 08:43:26","新北市三峽區建安139-7號","121.466625","24.9139","6500900","三峽區"
