"lineid","car","time","location","longitude","latitude","cityid","cityname"
"244004","248-BX","2019/11/15 09:13:48","新北市林口區嘉溪雅坑16-1號","121.340016666667","25.1070466666667","6501700","林口區"
"222004","289-BY","2019/11/15 09:13:42","新北市深坑區土庫尖路75-1號","121.631343333333","25.0181633333333","6501800","深坑區"
"231007","189-VK","2019/11/15 09:13:47","新北市新店區平廣路二段235號","121.497788333333","24.9015","6500600","新店區"
"231009","192-VK","2019/11/15 09:13:58","新北市新店區廣興路136號","121.535431666667","24.9105566666667","6500600","新店區"
"220034","073-UY","2019/11/15 09:13:55","新北市板橋區溪城路90-2號","121.428551666667","24.9794516666667","6500100","板橋區"
"223003","205-TH","2019/11/15 09:13:43","新北市石碇區北宜路五段80號","121.646133333333","24.95178","6501900","石碇區"
"223008","406-TH","2019/11/15 08:52:51","新北市石碇區光明路13號","121.679696666667","25.0337466666667","6501900","石碇區"
"223004","437-BY","2019/11/15 09:13:46","新北市石碇區磨石坑24-6號","121.690681666667","24.97207","6501900","石碇區"
"223001","592-UM","2019/11/15 09:14:00","新北市石碇區北宜路五段77號","121.645696666667","24.9520766666667","6501900","石碇區"
"223007","661-BX","2019/11/15 09:13:59","新北市石碇區光明路13號","121.679826666667","25.033205","6501900","石碇區"
"223005","677-TV","2019/11/15 09:13:51","新北市石碇區磨石坑24-1號","121.689885","24.97227","6501900","石碇區"
"227003","282-VK","2019/11/15 09:12:11","新北市雙溪區泰平里料角坑22號","121.81165","24.9704833333333","6502500","雙溪區"
"237013","760-BX","2019/11/15 09:13:46","新北市三峽區安坑77號","121.455595","24.933505","6500900","三峽區"
