"lineid","car","time","location","longitude","latitude","cityid","cityname"
"234044","148-BY","2019/11/15 13:59:19","新北市永和區成功路一段20號","121.52705","25.0050583333333","6500400","永和區"
"234078","298-R6","2019/11/15 13:59:24","新北市永和區林森路112巷12弄34號","121.522843333333","25.004595","6500400","永和區"
"234036","336-UY","2019/11/15 13:59:22","新北市永和區成功路二段126號","121.526568333333","24.9976833333333","6500400","永和區"
"234062","337-UY","2019/11/15 13:59:28","新北市永和區中正路368巷1弄18號","121.518945","25.000995","6500400","永和區"
"234084","338-UY","2019/11/15 13:59:30","新北市永和區福和路135號","121.521295","25.0077933333333","6500400","永和區"
"234068","552-UM","2019/11/15 13:59:20","新北市永和區國光路37號","121.519246666667","25.0082466666667","6500400","永和區"
"234015","745-BX","2019/11/15 13:59:12","新北市永和區文化路69號","121.513983333333","25.015075","6500400","永和區"
"234028","746-BX","2019/11/15 13:59:23","新北市永和區四維街103巷16號","121.52374","24.9971","6500400","永和區"
"234052","KEA-2590","2019/11/15 13:59:29","新北市永和區竹林路39巷46號","121.520218333333","25.015255","6500400","永和區"
"234005","KED-0605","2019/11/15 13:59:19","新北市中和區中和路306-1號","121.50891","25.00013","6500400","永和區"
"234012","KEA-2591","2019/11/15 13:59:26","新北市永和區保生路55號","121.504651666667","25.0106033333333","6500400","永和區"
"234060","AAD-866","2019/11/15 13:59:15","新北市永和區中正路151巷14號","121.51561","24.9988033333333","6500400","永和區"
"234040","862-TW","2019/11/15 13:59:32","新北市永和區中和路421巷5弄29號","121.508341666667","25.00053","6500400","永和區"
"234048","863-TW","2019/11/15 13:59:12","新北市永和區保安路250號","121.50632","25.0127416666667","6500400","永和區"
"234025","9371-KE","2019/11/15 13:59:27","新北市永和區自由街36號","121.513878333333","25.0062233333333","6500400","永和區"
"234010","9373-KE","2019/11/15 13:59:26","新北市永和區仁愛路352巷116號","121.50042","25.0084183333333","6500400","永和區"
"248019","KED-0813","2019/11/15 13:59:17","新北市五股區凌雲路三段85-3號","121.4231","25.1244716666667","6501500","五股區"
"234022","9380-KE","2019/11/15 13:59:17","新北市永和區永和路二段243號","121.515813333333","25.014705","6500400","永和區"
"234076","969-R7","2019/11/15 13:59:26","新北市永和區民族街55號","121.518338333333","24.9981633333333","6500400","永和區"
"234072","AAC-211","2019/11/15 13:59:26","新北市永和區豫溪街136巷1號","121.521296666667","25.0102716666667","6500400","永和區"
"234066","AAC-212","2019/11/15 13:59:27","新北市永和區永貞路364號","121.510128333333","25.0066683333333","6500400","永和區"
"234001","AAC-295","2019/11/15 13:59:26","新北市永和區福和路343號","121.515526666667","25.007045","6500400","永和區"
"244004","248-BX","2019/11/15 13:59:16","新北市林口區頂福21-21號","121.352845","25.0869383333333","6501700","林口區"
"243011","267-VK","2019/11/15 13:59:21","新北市泰山區新五路一段26號","121.440728333333","25.0605483333333","6501600","泰山區"
"231030","002-UM","2019/11/15 13:59:30","新北市新店區安康路一段266巷4號","121.52009","24.96402","6500600","新店區"
"231005","046-UY","2019/11/15 13:59:19","新北市新店區中興路三段218號","121.543703333333","24.9827033333333","6500600","新店區"
"231029","106-UY","2019/11/15 13:59:25","新北市新店區安康路二段5號","121.51525","24.9635983333333","6500600","新店區"
"231018","107-UY","2019/11/15 13:59:13","新北市新店區中央路192號","121.530821666667","24.9746533333333","6500600","新店區"
"231013","108-UY","2019/11/15 13:59:15","新北市新店區明德路111號","121.541481666667","24.9793916666667","6500600","新店區"
"231036","110-UY","2019/11/15 13:59:21","新北市新店區安祥路112號","121.47503","24.9568266666667","6500600","新店區"
"231032","256-BX","2019/11/15 13:59:30","新北市新店區莒光路44巷21弄11-6號","121.518575","24.9524783333333","6500600","新店區"
"231023","260-TV","2019/11/15 13:59:17","新北市新店區文中路40號","121.539686666667","24.95656","6500600","新店區"
"231003","268-BY","2019/11/15 13:59:28","新北市新店區北宜路一段3號","121.53842","24.9584116666667","6500600","新店區"
"231035","278-BY","2019/11/15 13:59:16","新北市新店區安和路二段115號","121.518673333333","24.97043","6500600","新店區"
"231016","AAD-862","2019/11/15 13:59:12","新北市新店區北宜路二段106號","121.555655","24.9536683333333","6500600","新店區"
"231006","355-BY","2019/11/15 13:59:13","新北市新店區北宜路二段64號","121.549541666667","24.9514616666667","6500600","新店區"
"231038","3712-VJ","2019/11/15 13:59:17","新北市新店區安華路30巷1號","121.519553333333","24.9592483333333","6500600","新店區"
"231027","3713-VJ","2019/11/15 13:59:12","新北市新店區中興路一段12號","121.538675","24.9579316666667","6500600","新店區"
"231024","4716-K9","2019/11/15 13:59:27","新北市新店區新生街13巷13號","121.539493333333","24.9658966666667","6500600","新店區"
"231025","4715-K9","2019/11/15 13:59:24","新北市新店區中正路273號","121.53769","24.9743483333333","6500600","新店區"
"231022","513-UM","2019/11/15 13:59:14","新北市新店區新烏路二段50巷3號","121.547505","24.9277333333333","6500600","新店區"
"231034","616-UM","2019/11/15 13:59:20","新北市新店區達觀路30號","121.502025","24.940305","6500600","新店區"
"231002","619-UM","2019/11/15 13:59:20","新北市新店區中正路674號","121.53399","24.989735","6500600","新店區"
"231012","KED-0819","2019/11/15 13:59:19","新北市新店區中興路二段65號","121.546718333333","24.97074","6500600","新店區"
"231010","719-UM","2019/11/15 13:59:14","新北市新店區安康路一段351-1號","121.519656666667","24.963585","6500600","新店區"
"231026","720-UM","2019/11/15 13:59:16","新北市新店區三民路159巷19弄46號","121.532186666667","24.9732183333333","6500600","新店區"
"231028","897-TW","2019/11/15 13:59:20","新北市新店區安和路三段59號","121.517961666667","24.983035","6500600","新店區"
"231001","898-TW","2019/11/15 13:59:13","新北市新店區三民路47號","121.537066666667","24.9709383333333","6500600","新店區"
"231004","899-TW","2019/11/15 13:59:30","新北市新店區北新路二段156-1號","121.542965","24.975545","6500600","新店區"
"231037","AKT-0513","2019/11/15 13:59:17","新北市新店區安康路三段355巷41號","121.484958333333","24.9495116666667","6500600","新店區"
"235030","003-UY","2019/11/15 13:59:31","新北市中和區廣福路2號","121.506018333333","25.0031916666667","6500300","中和區"
"235028","005-UY","2019/11/15 13:59:26","新北市中和區泰和街1號","121.499986666667","25.00079","6500300","中和區"
"235027","006-UY","2019/11/15 13:59:18","新北市中和區中正路606號","121.485635","24.99547","6500300","中和區"
"235020","096-UM","2019/11/15 13:59:19","新北市中和區員山路506巷2號","121.479375","25.008535","6500300","中和區"
"235003","097-UM","2019/11/15 13:59:13","新北市中和區秀朗路三段179號","121.524283333333","24.9908933333333","6500300","中和區"
"235029","098-UM","2019/11/15 13:59:20","新北市中和區中山路二段136巷37號","121.501196666667","25.00438","6500300","中和區"
"235004","150-BY","2019/11/15 13:59:24","新北市中和區保健路67巷3弄3號","121.509725","24.997415","6500300","中和區"
"235022","151-BY","2019/11/15 13:59:22","新北市中和區員山路75號","121.480648333333","24.9942833333333","6500300","中和區"
"235019","183-VK","2019/11/15 13:59:13","新北市中和區德光路53號","121.47008","25.0039383333333","6500300","中和區"
"235031","255-BX","2019/11/15 13:59:11","新北市中和區中正路681號","121.48521","24.99763","6500300","中和區"
"235008","293-VK","2019/11/15 13:59:31","新北市中和區中興街180巷45號","121.498241666667","24.9897516666667","6500300","中和區"
"235036","301-VK","2019/11/15 13:59:24","新北市中和區中山路二段187號","121.50042","25.0027116666667","6500300","中和區"
"235007","352-BY","2019/11/15 13:59:29","新北市中和區成功路53號","121.526166666667","24.9928016666667","6500300","中和區"
"235006","KEA-2878","2019/11/15 13:59:28","新北市中和區自立路141巷3號","121.52247","24.9936366666667","6500300","中和區"
"247015","KEA-2869","2019/11/15 13:59:19","新北市蘆洲區光華路44號","121.468836666667","25.0830783333333","6501400","蘆洲區"
"247009","KED-0682","2019/11/15 13:59:14","新北市蘆洲區集賢路222-6號","121.482493333333","25.0866183333333","6501400","蘆洲區"
"235014","4979-A6","2019/11/15 13:59:02","新北市中和區忠孝街58巷9號","121.512131666667","24.98331","6500300","中和區"
"235033","4980-A6","2019/11/15 13:59:20","新北市中和區景平路459巷1弄6號","121.500295","24.996215","6500300","中和區"
"235002","551-UM","2019/11/15 13:59:22","新北市中和區立人街24-5號","121.518868333333","24.9940866666667","6500300","中和區"
"235034","558-UM","2019/11/15 13:59:23","新北市中和區中和路24號","121.49981","25.0018483333333","6500300","中和區"
"235009","565-BX","2019/11/15 13:59:29","新北市中和區景新街467巷35弄1號","121.514678333333","24.98901","6500300","中和區"
"235024","KED-0823","2019/11/15 13:59:12","新北市中和區中山路三段120號","121.475301666667","25.006195","6500300","中和區"
"235018","640-BX","2019/11/15 13:59:13","新北市中和區國光街109巷13號","121.469736666667","24.9998866666667","6500300","中和區"
"235035","647-TV","2019/11/15 13:59:23","新北市中和區立德街32號","121.488901666667","25.007175","6500300","中和區"
"235011","732-UM","2019/11/15 13:59:21","新北市中和區興南路二段92號","121.505221666667","24.984365","6500300","中和區"
"235010","733-UM","2019/11/15 13:59:22","新北市中和區興南路二段31巷17號","121.508105","24.9851983333333","6500300","中和區"
"235026","800-TS","2019/11/15 13:59:13","新北市中和區橋安街8號","121.492645","25.00428","6500300","中和區"
"235021","801-TS","2019/11/15 13:59:12","新北市中和區民利街53號","121.47939","24.9987233333333","6500300","中和區"
"235005","802-TS","2019/11/15 13:59:12","新北市中和區中安街85號","121.513201666667","25.00196","6500300","中和區"
"235016","805-TS","2019/11/15 13:59:24","新北市中和區興南路二段131-15號","121.504185","24.98016","6500300","中和區"
"235012","896-TW","2019/11/15 13:59:14","新北市中和區華新街45號","121.507761666667","24.984625","6500300","中和區"
"235017","900-TW","2019/11/15 13:59:23","新北市板橋區和平路165號","121.463783333333","24.9960766666667","6500300","中和區"
"235015","157-BY","2019/11/15 13:59:22","新北市中和區忠孝街19巷51號","121.509356666667","24.9853466666667","6500300","中和區"
"235001","AAC-213","2019/11/15 13:59:30","新北市中和區秀朗路三段60巷37號","121.525113333333","24.9948983333333","6500300","中和區"
"235023","AAC-215","2019/11/15 13:59:21","新北市中和區圓通路369巷14弄20號","121.490395","24.9878966666667","6500300","中和區"
"220013","072-UY","2019/11/15 13:59:20","新北市板橋區漢生東路321號","121.471858333333","25.0079016666667","6500100","板橋區"
"220034","073-UY","2019/11/15 13:59:13","新北市板橋區大智街22號","121.455648333333","25.01486","6500100","板橋區"
"220105","075-UY","2019/11/15 13:59:19","新北市板橋區雙十路三段9號","121.471661666667","25.0302816666667","6500100","板橋區"
"220017","AAD-861","2019/11/15 13:59:25","新北市板橋區四川路一段127號","121.459845","25.0047383333333","6500100","板橋區"
"247005","893-R6","2019/11/15 13:59:29","新北市蘆洲區中山二路309號","121.469043333333","25.0769516666667","6501400","蘆洲區"
"247019","546-UM","2019/11/15 13:59:17","新北市蘆洲區民族路422巷82弄2號","121.473616666667","25.093725","6501400","蘆洲區"
"247003","341-TH","2019/11/15 13:59:20","新北市蘆洲區中華街42巷4號","121.462305","25.08116","6501400","蘆洲區"
"247013","056-VK","2019/11/15 13:59:19","新北市蘆洲區保和街69巷2弄1號","121.469516666667","25.0857733333333","6501400","蘆洲區"
"247017","053-VK","2019/11/15 13:59:29","新北市蘆洲區民族路255巷13號","121.476498333333","25.0900366666667","6501400","蘆洲區"
"247021","007-UY","2019/11/15 13:59:21","新北市蘆洲區中正路263巷2號","121.46732","25.0874216666667","6501400","蘆洲區"
"247007","002-UY","2019/11/15 13:59:23","新北市蘆洲區重陽一街3號","121.48175","25.0814716666667","6501400","蘆洲區"
"247001","001-UY","2019/11/15 13:59:27","新北市蘆洲區三民路605號","121.460613333333","25.09374","6501400","蘆洲區"
"235013","251-BX","2019/11/15 13:59:14","新北市中和區明仁街4號","121.505865","24.9954733333333","6500300","中和區"
"207002","749-BX","2019/11/15 13:59:15","新北市萬里區溪底里溪底路9-1號","121.620336666667","25.1490316666667","6502800","萬里區"
"207001","662-BX","2019/11/15 13:59:24","新北市萬里區磺潭里磺溪12-1號","121.633076666667","25.202325","6502800","萬里區"
"236040","KED-0685","2019/11/15 13:59:13","新北市土城區城林路6巷80號","121.438541666667","24.9797383333333","6501300","土城區"
"236077","166-UM","2019/11/15 13:59:14","新北市土城區永寧路32巷10弄1號","121.428943333333","24.9609666666667","6501300","土城區"
"236029","253-BX","2019/11/15 13:59:26","新北市土城區城林路6巷80號","121.438593333333","24.9797133333333","6501300","土城區"
"236024","269-VK","2019/11/15 13:59:27","新北市土城區中華路二段26號","121.439271666667","24.9785033333333","6501300","土城區"
"236013","270-VK","2019/11/15 13:59:25","新北市土城區中華路二段2號","121.439041666667","24.9798316666667","6501300","土城區"
"236032","271-VK","2019/11/15 13:59:26","新北市土城區城林路6巷80號","121.438311666667","24.9794566666667","6501300","土城區"
"247011","KED-0683","2019/11/15 13:59:27","新北市蘆洲區復興路276號","121.480493333333","25.0896966666667","6501400","蘆洲區"
"236067","KEA-2877","2019/11/15 13:59:14","新北市土城區和平路54號","121.445171666667","24.9689733333333","6501300","土城區"
"236016","401-BY","2019/11/15 13:59:23","新北市土城區城林路6巷80號","121.438348333333","24.9795616666667","6501300","土城區"
"236045","752-BX","2019/11/15 13:59:27","新北市土城區中華路一段301號","121.439845","24.979325","6501300","土城區"
"236057","912-UM","2019/11/15 13:59:22","新北市土城區中央路三段204號","121.430158333333","24.9647816666667","6501300","土城區"
"236060","915-UM","2019/11/15 13:59:18","新北市土城區城林路6巷80號","121.438491666667","24.97983","6501300","土城區"
"236054","AAC-216","2019/11/15 13:59:24","新北市土城區中華路二段102號","121.438113333333","24.9743583333333","6501300","土城區"
"220027","145-BY","2019/11/15 13:59:19","新北市板橋區大仁街75-1號","121.453825","25.0161633333333","6500100","板橋區"
"220028","200-UY","2019/11/15 13:59:21","新北市板橋區大觀路二段文和巷70號","121.443768333333","24.99861","6500100","板橋區"
"220030","610-BX","2019/11/15 13:59:31","新北市板橋區溪北路134號","121.429248333333","24.9888966666667","6500100","板橋區"
"220040","267-BY","2019/11/15 13:59:19","新北市板橋區大同街22號","121.477591666667","25.026995","6500100","板橋區"
"220004","276-BY","2019/11/15 13:59:13","新北市板橋區信義路148號","121.458915","24.9917666666667","6500100","板橋區"
"220020","277-BY","2019/11/15 13:59:17","新北市板橋區大觀路三段50巷79號","121.431373333333","24.9963916666667","6500100","板橋區"
"220050","280-UM","2019/11/15 13:59:26","新北市板橋區莊敬路220巷3號","121.472548333333","25.0211866666667","6500100","板橋區"
"220043","283-UM","2019/11/15 13:59:33","新北市板橋區光武街130號","121.465536666667","25.029755","6500100","板橋區"
"220019","283-VK","2019/11/15 13:59:27","新北市板橋區重慶路245巷66號","121.465481666667","25.0009733333333","6500100","板橋區"
"220001","285-VK","2019/11/15 13:59:26","新北市板橋區中山路二段89巷51號","121.473555","25.017425","6500100","板橋區"
"220107","286-VK","2019/11/15 13:59:15","新北市板橋區大觀路一段38巷164號","121.442053333333","25.0045316666667","6500100","板橋區"
"220029","287-VK","2019/11/15 13:59:24","新北市板橋區光華街44巷2-1號","121.453715","25.0129483333333","6500100","板橋區"
"220039","288-VK","2019/11/15 13:59:13","新北市板橋區裕民街21號","121.462163333333","25.0289183333333","6500100","板橋區"
"220009","293-UM","2019/11/15 13:59:23","新北市板橋區三民路二段21巷8號","121.479851666667","25.0181533333333","6500100","板橋區"
"220032","296-UM","2019/11/15 13:59:29","新北市板橋區篤行路一段16-1號","121.431273333333","24.9955833333333","6500100","板橋區"
"220023","303-R5","2019/11/15 13:59:32","新北市板橋區南雅西路二段91號","121.452651666667","25.0103883333333","6500100","板橋區"
"220010","305-R5","2019/11/15 13:59:28","新北市板橋區三民路二段245巷30弄8號","121.480365","25.01249","6500100","板橋區"
"220041","307-R5","2019/11/15 13:59:21","新北市板橋區文化路二段225巷60弄43號","121.469118333333","25.0294666666667","6500100","板橋區"
"220047","317-R6","2019/11/15 13:59:24","新北市板橋區民生路二段234巷77號","121.470291666667","25.0226116666667","6500100","板橋區"
"220038","487-VK","2019/11/15 13:59:26","新北市板橋區文化路二段347號","121.472535","25.03061","6500100","板橋區"
"220037","491-VK","2019/11/15 13:59:27","新北市板橋區莊敬路58號","121.472656666667","25.0268583333333","6500100","板橋區"
"220104","560-BX","2019/11/15 13:59:25","新北市板橋區中正路294號","121.454926666667","25.02041","6500100","板橋區"
"220052","561-BX","2019/11/15 13:59:28","新北市板橋區介壽街68號","121.46941","25.0192766666667","6500100","板橋區"
"220011","609-BX","2019/11/15 13:59:19","新北市板橋區三民路二段113號","121.479353333333","25.01586","6500100","板橋區"
"220005","686-BX","2019/11/15 13:59:23","新北市板橋區重慶路368號","121.464601666667","24.9971966666667","6500100","板橋區"
"220025","687-BX","2019/11/15 13:59:24","新北市板橋區龍興街71巷52號","121.441621666667","25.0028783333333","6500100","板橋區"
"220042","689-BX","2019/11/15 13:59:14","新北市板橋區民生路三段185號","121.465425","25.0274466666667","6500100","板橋區"
"220002","741-BX","2019/11/15 13:59:30","新北市板橋區重慶路139巷19號","121.463658333333","25.00474","6500100","板橋區"
"220051","KEA-2699","2019/11/15 13:59:28","新北市板橋區田單街2巷38號","121.482275","25.0276483333333","6500100","板橋區"
"220003","827-TW","2019/11/15 13:59:15","新北市板橋區民安街18號","121.466803333333","25.0115916666667","6500100","板橋區"
"220014","829-TW","2019/11/15 13:59:31","新北市板橋區三民路二段正隆巷16號","121.47784","25.01294","6500100","板橋區"
"220016","830-TW","2019/11/15 13:59:12","新北市板橋區中山路二段465巷92-1號","121.481188333333","25.022535","6500100","板橋區"
"220022","895-R6","2019/11/15 13:59:15","新北市板橋區林園街2號","121.454341666667","25.0091633333333","6500100","板橋區"
"220021","985-R7","2019/11/15 13:59:31","新北市板橋區西門街14號","121.455275","25.0114166666667","6500100","板橋區"
"220046","AAC-210","2019/11/15 13:59:24","新北市板橋區幸福路70巷1號","121.460796666667","25.0200783333333","6500100","板橋區"
"220012","AAC-253","2019/11/15 13:59:18","新北市板橋區板新路3號","121.475483333333","25.01234","6500100","板橋區"
"235032","KEA-2873","2019/11/15 13:59:24","新北市中和區景平路545巷1弄18號","121.498823333333","24.9987733333333","6500300","中和區"
"235025","KEA-2875","2019/11/15 13:59:22","新北市中和區員山路469巷1號","121.480325","25.0044966666667","6500300","中和區"
