"lineid","car","time","location","longitude","latitude","cityid","cityname"
"249005","172-UM","2019/11/15 17:29:30","新北市八里區荖阡坑路32-1號","121.40433","25.127965","6502300","八里區"
"249001","173-UM","2019/11/15 17:29:17","新北市八里區中華路一段3號","121.422976666667","25.1584966666667","6502300","八里區"
"249004","303-UY","2019/11/15 17:29:23","新北市八里區賢一街248號","121.414785","25.1553633333333","6502300","八里區"
"249002","305-UY","2019/11/15 17:29:20","新北市八里區龍米路一段263-2號","121.449758333333","25.1365666666667","6502300","八里區"
"249003","593-UM","2019/11/15 17:29:18","新北市八里區中山路二段398號","121.400561666667","25.1477683333333","6502300","八里區"
"232011","375-UM","2019/11/15 17:29:24","新北市坪林區鶯子瀨12-1號","121.713613333333","24.913905","6502000","坪林區"
"244007","080-UY","2019/11/15 17:29:18","新北市林口區菁埔48-8號","121.383113333333","25.0931383333333","6501700","林口區"
"244019","402-UM","2019/11/15 17:29:25","新北市林口區文化一路一段83巷14弄46號","121.372308333333","25.07168","6501700","林口區"
"244013","KEA-2802","2019/11/15 17:29:29","新北市林口區中山路202-1號","121.387618333333","25.0791633333333","6501700","林口區"
"244023","483-VK","2019/11/15 17:29:26","新北市林口區東明一街55巷23號","121.39269","25.0710733333333","6501700","林口區"
"244017","485-VK","2019/11/15 17:29:32","新北市林口區文化一路二段202號","121.383358333333","25.0806366666667","6501700","林口區"
"244009","656-BX","2019/11/15 17:29:11","新北市林口區中北三街290號","121.382368333333","25.0827816666667","6501700","林口區"
"244011","701-TV","2019/11/15 17:29:25","新北市林口區佳林路267號","121.382391666667","25.0759566666667","6501700","林口區"
"244025","837-TS","2019/11/15 17:29:28","新北市林口區文化二路一段241巷28號","121.366211666667","25.0717533333333","6501700","林口區"
"244021","838-TS","2019/11/15 17:29:12","新北市林口區中山路2-2號","121.396738333333","25.0787066666667","6501700","林口區"
"222002","659-BX","2019/11/15 17:29:18","新北市深坑區深南路88巷1號","121.621225","25.0112083333333","6501800","深坑區"
"231046","719-UM","2019/11/15 17:00:15","新北市新店區灣潭路15-2號","121.542673333333","24.94297","6500600","新店區"
"241011","013-R5","2019/11/15 17:28:45","新北市三重區河邊北街124巷39號","121.502845","25.071275","6500200","三重區"
"241008","059-VK","2019/11/15 17:29:21","新北市三重區力行路二段125號","121.48313","25.0765066666667","6500200","三重區"
"241015","062-VK","2019/11/15 17:29:23","新北市三重區三和路一段47巷13號","121.503903333333","25.0654483333333","6500200","三重區"
"241017","063-VK","2019/11/15 17:29:11","新北市三重區大同北路34巷40號","121.493978333333","25.0621","6500200","三重區"
"241024","065-VK","2019/11/15 17:29:26","新北市三重區大勇街82巷15弄11號","121.480256666667","25.0718483333333","6500200","三重區"
"241007","066-VK","2019/11/15 17:29:27","新北市三重區溪尾街106號","121.489506666667","25.0789283333333","6500200","三重區"
"241014","316-R6","2019/11/15 17:29:14","新北市三重區安和路13號","121.50128","25.06839","6500200","三重區"
"241016","266-UM","2019/11/15 17:29:28","新北市三重區信義西街104號","121.495933333333","25.06443","6500200","三重區"
"241018","268-UM","2019/11/15 17:29:17","新北市三重區過圳街31巷2號","121.4889","25.0605816666667","6500200","三重區"
"241013","270-UM","2019/11/15 17:29:17","新北市三重區仁愛街125巷32號","121.497746666667","25.076135","6500200","三重區"
"241030","KED-0822","2019/11/15 17:29:16","新北市三重區中正南路269號","121.493265","25.052225","6500200","三重區"
"241020","478-VK","2019/11/15 17:29:15","新北市三重區忠孝路三段28號","121.481301666667","25.0669183333333","6500200","三重區"
"241023","545-UM","2019/11/15 17:29:26","新北市三重區三民街148號","121.48257","25.0651633333333","6500200","三重區"
"241033","557-UM","2019/11/15 17:29:14","新北市三重區興德路141巷29號","121.469451666667","25.05392","6500200","三重區"
"241019","KEA-2593","2019/11/15 17:29:11","新北市三重區六張街173號","121.48931","25.0688483333333","6500200","三重區"
"241012","743-BX","2019/11/15 17:29:18","新北市三重區仁興街41號","121.499138333333","25.0757616666667","6500200","三重區"
"247016","KEA-2869","2019/11/15 17:29:16","新北市蘆洲區光華路22巷45號","121.468253333333","25.08475","6501400","蘆洲區"
"247010","KED-0682","2019/11/15 17:29:33","新北市蘆洲區中山一路74巷55號","121.47986","25.0817","6501400","蘆洲區"
"247006","893-R6","2019/11/15 17:29:20","新北市蘆洲區光華路185-1號","121.465","25.0811666666667","6501400","蘆洲區"
"247004","341-TH","2019/11/15 17:29:16","新北市蘆洲區中原路38號","121.459753333333","25.0825983333333","6501400","蘆洲區"
"247024","057-VK","2019/11/15 17:29:18","新北市蘆洲區光榮路47號","121.460398333333","25.0884683333333","6501400","蘆洲區"
"247014","056-VK","2019/11/15 17:29:26","新北市蘆洲區三民路33號","121.475395","25.08307","6501400","蘆洲區"
"247018","053-VK","2019/11/15 17:29:17","新北市蘆洲區水湳街19號","121.472353333333","25.0881716666667","6501400","蘆洲區"
"247022","007-UY","2019/11/15 17:29:23","新北市蘆洲區三民路339號","121.465083333333","25.09089","6501400","蘆洲區"
"247008","002-UY","2019/11/15 17:29:24","新北市蘆洲區民生街53號","121.474828333333","25.0787733333333","6501400","蘆洲區"
"247002","001-UY","2019/11/15 17:29:13","新北市蘆洲區永樂街38巷57弄1號","121.458376666667","25.090125","6501400","蘆洲區"
"228001","212-TW","2019/11/15 17:29:20","新北市貢寮區仁理村仁愛路66巷3號","121.925991666667","25.0535616666667","6502600","貢寮區"
"228002","663-BX","2019/11/15 17:29:14","新北市貢寮區福隆里興隆街100號","121.937888333333","25.0182816666667","6502600","貢寮區"
"228003","828-UM","2019/11/15 17:29:27","新北市貢寮區仁理村尖山腳街2號","121.925238333333","25.0463516666667","6502600","貢寮區"
"224010","AGQ-8101","2019/11/15 17:29:24","新北市瑞芳區逢甲路72號","121.810571666667","25.1083233333333","6501200","瑞芳區"
"224006","676-BX","2019/11/15 17:29:13","新北市瑞芳區傑魚坑路73號","121.793186666667","25.110365","6501200","瑞芳區"
"224009","275-VK","2019/11/15 17:29:12","新北市瑞芳區街頂巷36號","121.843588333333","25.1101183333333","6501200","瑞芳區"
"224008","273-VK","2019/11/15 17:29:28","新北市瑞芳區九芎橋路16號","121.832366666667","25.0917433333333","6501200","瑞芳區"
"224005","271-BY","2019/11/15 17:29:19","新北市瑞芳區明里路122號","121.86548","25.1220316666667","6501200","瑞芳區"
"227001","642-TC","2019/11/15 17:23:06","新北市雙溪區三貂里定福路1-2號","121.850766666667","25.0633916666667","6502500","雙溪區"
"227002","400-TW","2019/11/15 17:29:20","新北市雙溪區共和里東榮街52號","121.866295","25.0336383333333","6502500","雙溪區"
"251004","009-UM","2019/11/15 17:19:54","新北市淡水區中正東路二段88巷15號","121.459016666667","25.1504833333333","6501000","淡水區"
"251005","010-UM","2019/11/15 17:29:17","新北市淡水區鄧公路33巷2號","121.451311666667","25.1710666666667","6501000","淡水區"
"251008","181-VK","2019/11/15 17:29:13","新北市淡水區大同路122巷18號","121.463395","25.1397516666667","6501000","淡水區"
"251010","413-VK","2019/11/15 17:29:17","新北市淡水區中正路二段211號","121.426225","25.18911","6501000","淡水區"
"251012","441-VK","2019/11/15 17:29:13","新北市淡水區北新路114號","121.447775","25.178465","6501000","淡水區"
"251007","442-VK","2019/11/15 17:29:17","新北市淡水區民生路56號","121.462021666667","25.1379283333333","6501000","淡水區"
"251006","561-UM","2019/11/15 17:29:21","新北市淡水區大仁街17號","121.442413333333","25.1750166666667","6501000","淡水區"
"251009","575-R6","2019/11/15 17:29:22","新北市淡水區建設街1巷1號","121.438913333333","25.1729933333333","6501000","淡水區"
"251011","650-BX","2019/11/15 17:29:18","新北市淡水區三空泉7-1號","121.475958333333","25.161245","6501000","淡水區"
"251002","672-BX","2019/11/15 17:29:15","新北市淡水區中正路一段156巷1號","121.421035","25.1797133333333","6501000","淡水區"
"251003","766-UM","2019/11/15 17:29:17","新北市淡水區真理街1號","121.438213333333","25.17293","6501000","淡水區"
"207003","681-TV","2019/11/15 17:29:22","新北市萬里區龜吼里美崙路38號","121.68643","25.184625","6502800","萬里區"
"207004","291-VK","2019/11/15 17:29:18","新北市萬里區萬里里瑪鋉路30巷2弄6號","121.69046","25.1760933333333","6502800","萬里區"
"252002","178-VK","2019/11/15 17:29:16","新北市三芝區忠孝街1-15號","121.505543333333","25.2539166666667","6502100","三芝區"
"233002","762-BX","2019/11/15 17:29:15","新北市烏來區環山路82巷48號","121.547906666667","24.8637","6502900","烏來區"
"247012","KED-0683","2019/11/15 17:29:27","新北市蘆洲區三民路88號","121.473463333333","25.0854533333333","6501400","蘆洲區"
"252001","KED-0821","2019/11/15 17:29:17","新北市三芝區長安街119號","121.498003333333","25.2596383333333","6502100","三芝區"
"242041","AAC-296","2019/11/15 17:29:29","新北市新莊區新樹路113巷25號","121.439501666667","25.0263816666667","6500500","新莊區"
"242060","986-R7","2019/11/15 17:29:23","新北市新莊區瓊林北路6號","121.440845","25.0229633333333","6500500","新莊區"
"242005","751-BX","2019/11/15 17:29:22","新北市新莊區中港路282號","121.453033333333","25.0441516666667","6500500","新莊區"
"242027","705-TV","2019/11/15 17:29:24","新北市新莊區思源路41號","121.459955","25.0398316666667","6500500","新莊區"
"242029","615-BX","2019/11/15 17:29:14","新北市新莊區復興路二段174號","121.458658333333","25.0443416666667","6500500","新莊區"
"242058","612-BX","2019/11/15 17:29:18","新北市新莊區中正路384號","121.441921666667","25.0347216666667","6500500","新莊區"
"242048","566-BX","2019/11/15 17:29:19","新北市新莊區龍安路249巷1號","121.41894","25.0205116666667","6500500","新莊區"
"242054","497-BY","2019/11/15 17:29:16","新北市新莊區瓊林南路301巷13號","121.436018333333","25.0058816666667","6500500","新莊區"
"242002","441-UM","2019/11/15 17:29:11","新北市新莊區碧江街11號","121.455811666667","25.0349","6500500","新莊區"
"242044","415-TV","2019/11/15 17:29:20","新北市新莊區富國路101-1號","121.421381666667","25.0255066666667","6500500","新莊區"
"242013","413-TV","2019/11/15 17:29:11","新北市新莊區中誠街14號","121.452","25.0482033333333","6500500","新莊區"
"242050","400-BY","2019/11/15 17:29:11","新北市新莊區瓊林南路75-8號","121.434783333333","25.0141716666667","6500500","新莊區"
"242025","362-BY","2019/11/15 17:29:21","新北市新莊區中港路276號","121.453168333333","25.04407","6500500","新莊區"
"242023","353-BY","2019/11/15 17:29:19","新北市新莊區公園路148號","121.453118333333","25.0401116666667","6500500","新莊區"
"242015","132-UY","2019/11/15 17:29:09","新北市新莊區建中街92號","121.44686","25.036545","6500500","新莊區"
"242039","135-UY","2019/11/15 17:29:21","新北市新莊區民安路278號","121.427791666667","25.0214166666667","6500500","新莊區"
"242056","172-VK","2019/11/15 17:29:24","新北市新莊區景德路256號","121.448761666667","25.0337033333333","6500500","新莊區"
"242017","173-VK","2019/11/15 17:29:29","新北市新莊區中港路293號","121.452816666667","25.0441266666667","6500500","新莊區"
"242032","175-VK","2019/11/15 17:29:18","新北市新莊區新泰路464號","121.443325","25.0449466666667","6500500","新莊區"
"242007","346-TH","2019/11/15 17:29:21","新北市新莊區中港路297號","121.452933333333","25.0443866666667","6500500","新莊區"
"242021","347-TH","2019/11/15 17:29:13","新北市新莊區中港路50號","121.455376666667","25.0383666666667","6500500","新莊區"
"242037","348-TH","2019/11/15 17:29:18","新北市新莊區建國二路5-3號","121.434781666667","25.02369","6500500","新莊區"
"242009","349-TH","2019/11/15 17:29:28","新北市新莊區中原路189號","121.452615","25.054365","6500500","新莊區"
"242034","350-TH","2019/11/15 17:29:28","新北市新莊區瓊林路38-4號","121.448496666667","25.03058","6500500","新莊區"
"242019","351-TH","2019/11/15 17:29:13","新北市新莊區中港路50號","121.455426666667","25.0384416666667","6500500","新莊區"
"238015","755-BX","2019/11/15 17:29:12","新北市樹林區保安街一段198號","121.421403333333","24.9956716666667","6500700","樹林區"
"238023","601-UM","2019/11/15 17:29:19","新北市樹林區三福街114號","121.406401666667","25.01632","6500700","樹林區"
"238019","599-UM","2019/11/15 17:29:29","新北市樹林區國凱街82號","121.421305","24.979245","6500700","樹林區"
"238024","5061-A6","2019/11/15 17:29:28","新北市樹林區鎮前街169巷21號","121.423671666667","24.9885616666667","6500700","樹林區"
"238018","KEA-2217","2019/11/15 17:29:20","新北市樹林區博愛街226巷3號","121.424128333333","24.9888083333333","6500700","樹林區"
"238022","KEA-2213","2019/11/15 17:29:31","新北市樹林區仁愛街51號","121.422591666667","24.9822333333333","6500700","樹林區"
"238021","KEA-2539","2019/11/15 17:29:25","新北市樹林區佳園路二段47號","121.391938333333","24.9624816666667","6500700","樹林區"
"238025","303-VK","2019/11/15 17:29:28","新北市樹林區保安街二段2號","121.416778333333","24.9994183333333","6500700","樹林區"
"238017","283-BY","2019/11/15 17:29:22","新北市樹林區三德街12號","121.413328333333","25.0128366666667","6500700","樹林區"
"238014","282-BY","2019/11/15 17:29:26","新北市樹林區保安街一段358號","121.417738333333","24.9983966666667","6500700","樹林區"
"238020","268-VK","2019/11/15 17:29:22","新北市樹林區千歲街111-1號","121.42926","25.0016433333333","6500700","樹林區"
"238026","172-UY","2019/11/15 17:29:16","新北市樹林區味王街46巷17號","121.40356","24.973695","6500700","樹林區"
"238016","169-UY","2019/11/15 17:29:26","新北市樹林區中山路一段2巷7號","121.42428","24.99375","6500700","樹林區"
"239007","AAC-297","2019/11/15 17:29:12","新北市鶯歌區仁愛路7號","121.353596666667","24.9565233333333","6500800","鶯歌區"
"239006","891-R6","2019/11/15 17:29:22","新北市鶯歌區鳳鳴路29號","121.333775","24.9653266666667","6500800","鶯歌區"
"239008","527-UM","2019/11/15 17:29:20","新北市鶯歌區西湖街243巷25號","121.339225","24.9651266666667","6500800","鶯歌區"
"239005","526-UM","2019/11/15 17:29:17","新北市鶯歌區福德五街19號","121.32917","24.96785","6500800","鶯歌區"
"239001","417-VK","2019/11/15 17:29:17","新北市鶯歌區中正三路68號","121.338666666667","24.941345","6500800","鶯歌區"
"239003","360-BY","2019/11/15 17:29:21","新北市鶯歌區德昌街201號","121.330051666667","24.96024","6500800","鶯歌區"
"239002","359-BY","2019/11/15 17:29:23","新北市鶯歌區南雅路396號","121.34807","24.954015","6500800","鶯歌區"
"239004","193-VK","2019/11/15 17:29:21","新北市鶯歌區文化路260號","121.352825","24.9476133333333","6500800","鶯歌區"
"233001","KEA-2870","2019/11/15 17:29:29","新北市烏來區信福路2巷2號","121.533538333333","24.8391566666667","6502900","烏來區"
"242046","281-VK","2019/11/15 17:29:15","新北市新莊區新樹路65-4號","121.43964","25.0311683333333","6500500","新莊區"
"242011","280-VK","2019/11/15 17:29:19","新北市新莊區中華路二段87號","121.452418333333","25.0490783333333","6500500","新莊區"
