"lineid","car","time","location","longitude","latitude","cityid","cityname"
"234026","9371-KE","2019/11/15 17:43:11","新北市永和區永和路184-1號","121.51428","25.0091416666667","6500400","永和區"
"249005","172-UM","2019/11/15 17:43:30","新北市八里區荖阡坑路34-1號","121.40279","25.12975","6502300","八里區"
"249001","173-UM","2019/11/15 17:43:16","新北市八里區龍米路二段153-8號","121.4401","25.1534733333333","6502300","八里區"
"249004","303-UY","2019/11/15 17:43:23","新北市八里區大崁一街9號","121.420236666667","25.158315","6502300","八里區"
"249002","305-UY","2019/11/15 17:43:20","新北市八里區龍形三街9巷2號","121.450646666667","25.13174","6502300","八里區"
"249003","593-UM","2019/11/15 17:43:18","新北市八里區中山路二段212號","121.40542","25.1517766666667","6502300","八里區"
"232011","375-UM","2019/11/15 17:43:24","新北市坪林區北宜路八段103號","121.7061","24.9348266666667","6502000","坪林區"
"244007","080-UY","2019/11/15 17:43:18","新北市林口區林口路272巷19號","121.386771666667","25.0846133333333","6501700","林口區"
"244019","402-UM","2019/11/15 17:43:25","新北市林口區忠孝路552巷17-1號","121.374106666667","25.0672366666667","6501700","林口區"
"244013","KEA-2802","2019/11/15 17:43:29","新北市林口區中山路151號","121.38695","25.07916","6501700","林口區"
"244023","483-VK","2019/11/15 17:43:26","新北市林口區興林路366號","121.388901666667","25.0693916666667","6501700","林口區"
"244017","485-VK","2019/11/15 17:43:24","新北市林口區文化二路一段260巷1-1號","121.371266666667","25.073305","6501700","林口區"
"244009","656-BX","2019/11/15 17:43:11","新北市林口區寶林路40-1號","121.385426666667","25.0843666666667","6501700","林口區"
"244011","701-TV","2019/11/15 17:43:25","新北市林口區中正路265號","121.390218333333","25.07767","6501700","林口區"
"244025","837-TS","2019/11/15 17:43:28","新北市林口區忠孝三路42號","121.35994","25.069875","6501700","林口區"
"244021","838-TS","2019/11/15 17:43:12","新北市林口區仁愛路一段61巷15號","121.397856666667","25.0695766666667","6501700","林口區"
"222003","436-BY","2019/11/15 17:43:21","新北市深坑區北深路二段128號","121.616176666667","25.002985","6501800","深坑區"
"222002","659-BX","2019/11/15 17:43:18","新北市深坑區北深路二段130號","121.61609","25.00288","6501800","深坑區"
"241011","013-R5","2019/11/15 17:43:25","新北市三重區環河北路三段580號","121.489753333333","25.0916483333333","6500200","三重區"
"241008","059-VK","2019/11/15 17:34:57","","121.479641666667","25.0767216666667","6500200","三重區"
"241015","062-VK","2019/11/15 17:43:23","新北市三重區新北大道一段7號","121.489595","25.0613816666667","6500200","三重區"
"241024","065-VK","2019/11/15 17:43:26","新北市三重區力行路二段9巷12號","121.483005","25.0722016666667","6500200","三重區"
"241016","266-UM","2019/11/15 17:43:28","新北市三重區新北大道一段7號","121.489695","25.06136","6500200","三重區"
"241033","557-UM","2019/11/15 17:43:14","新北市三重區重新路五段557號","121.470516666667","25.04599","6500200","三重區"
"247016","KEA-2869","2019/11/15 17:43:16","新北市蘆洲區中正路185巷31弄16號","121.466628333333","25.0838616666667","6501400","蘆洲區"
"247010","KED-0682","2019/11/15 17:43:13","新北市蘆洲區民族路31-1號","121.477548333333","25.0849","6501400","蘆洲區"
"235045","565-BX","2019/11/15 17:39:03","新北市中和區員山路36巷13號","121.484385","24.991205","6500300","中和區"
"235057","801-TS","2019/11/15 17:43:30","新北市中和區員山路36巷16-3號","121.485123333333","24.9913616666667","6500300","中和區"
"247006","893-R6","2019/11/15 17:43:20","新北市蘆洲區長安街2號","121.464735","25.0786883333333","6501400","蘆洲區"
"247020","546-UM","2019/11/15 17:43:24","新北市蘆洲區民義街99號","121.473715","25.0908","6501400","蘆洲區"
"247004","341-TH","2019/11/15 17:43:18","新北市蘆洲區長安街249巷4號","121.458745","25.08313","6501400","蘆洲區"
"247024","057-VK","2019/11/15 17:43:18","新北市蘆洲區光榮路101巷28號","121.464053333333","25.0901666666667","6501400","蘆洲區"
"247014","056-VK","2019/11/15 17:43:26","新北市蘆洲區中正路116號","121.469413333333","25.0847083333333","6501400","蘆洲區"
"247022","007-UY","2019/11/15 17:43:23","新北市蘆洲區中正路264巷3號","121.465825","25.0898566666667","6501400","蘆洲區"
"247008","002-UY","2019/11/15 17:43:24","新北市蘆洲區和平路19巷13號","121.472341666667","25.0785516666667","6501400","蘆洲區"
"247002","001-UY","2019/11/15 17:43:13","新北市蘆洲區永平街32巷11弄6號","121.458776666667","25.0914133333333","6501400","蘆洲區"
"228002","663-BX","2019/11/15 17:43:34","新北市貢寮區福隆里外隆林街15號","121.958848333333","25.00356","6502600","貢寮區"
"228003","828-UM","2019/11/15 17:43:26","新北市貢寮區真理里延平街47號","121.92466","25.0553833333333","6502600","貢寮區"
"224006","676-BX","2019/11/15 17:43:14","新北市瑞芳區傑魚坑路266-1號","121.788636666667","25.10851","6501200","瑞芳區"
"224009","275-VK","2019/11/15 17:43:12","新北市瑞芳區汽車路123號","121.839173333333","25.1102233333333","6501200","瑞芳區"
"224008","273-VK","2019/11/15 17:43:28","新北市瑞芳區明燈路一段41號","121.821638333333","25.1070383333333","6501200","瑞芳區"
"224005","271-BY","2019/11/15 17:43:19","新北市瑞芳區籠山路26號","121.832245","25.1230066666667","6501200","瑞芳區"
"227001","642-TC","2019/11/15 17:23:06","新北市雙溪區三貂里定福路1-2號","121.850766666667","25.0633916666667","6502500","雙溪區"
"227002","400-TW","2019/11/15 17:43:20","新北市雙溪區共和里東榮街52號","121.866318333333","25.0336316666667","6502500","雙溪區"
"253006","295-VK","2019/11/15 17:43:30","新北市石門區中山路64-1號","121.56763","25.2902766666667","6502200","石門區"
"251004","009-UM","2019/11/15 17:43:14","新北市淡水區中正東路二段88巷39號","121.459356666667","25.1430333333333","6501000","淡水區"
"251005","010-UM","2019/11/15 17:43:11","新北市淡水區鄧公路35巷2號","121.451541666667","25.1712433333333","6501000","淡水區"
"251008","181-VK","2019/11/15 17:43:13","新北市淡水區八勢路一段123巷10號","121.46655","25.1571","6501000","淡水區"
"251010","413-VK","2019/11/15 17:43:17","新北市淡水區淡海路280巷33弄34-2號","121.41872","25.1885866666667","6501000","淡水區"
"251012","441-VK","2019/11/15 17:43:13","新北市淡水區淡金路一段571號","121.452778333333","25.180595","6501000","淡水區"
"251007","442-VK","2019/11/15 17:43:17","新北市淡水區民生路52巷50號","121.463303333333","25.1377583333333","6501000","淡水區"
"251006","561-UM","2019/11/15 17:43:21","新北市淡水區大信街24巷4號","121.442018333333","25.1766016666667","6501000","淡水區"
"251009","575-R6","2019/11/15 17:43:22","新北市淡水區中正路32號","121.443981666667","25.1692216666667","6501000","淡水區"
"251011","650-BX","2019/11/15 17:43:21","新北市淡水區小坪頂74號","121.484688333333","25.158955","6501000","淡水區"
"251002","672-BX","2019/11/15 17:43:15","新北市淡水區中山路141號","121.440801666667","25.17203","6501000","淡水區"
"251003","766-UM","2019/11/15 17:43:17","新北市淡水區中山北路一段85號","121.44222","25.1760783333333","6501000","淡水區"
"207003","681-TV","2019/11/15 17:43:17","新北市萬里區龜吼里漁澳路79-2號","121.686758333333","25.19589","6502800","萬里區"
"207004","291-VK","2019/11/15 17:43:32","新北市萬里區中幅里中福路11號","121.686411666667","25.1649933333333","6502800","萬里區"
"252002","178-VK","2019/11/15 17:43:16","新北市三芝區智成街73號","121.504465","25.2559083333333","6502100","三芝區"
"237013","252-BX","2019/11/15 17:43:19","新北市三峽區愛國路12號","121.374158333333","24.9337666666667","6500900","三峽區"
"237012","275-BY","2019/11/15 17:43:22","新北市三峽區中山路323號","121.36049","24.93804","6500900","三峽區"
"237014","433-BY","2019/11/15 17:43:16","新北市三峽區中山路269號","121.362183333333","24.937445","6500900","三峽區"
"237011","KEA-2596","2019/11/15 17:43:16","新北市三峽區中山路107巷10號","121.36496","24.9355","6500900","三峽區"
"237010","706-TV","2019/11/15 17:43:25","新北市三峽區中山路147號","121.36495","24.9362333333333","6500900","三峽區"
"237004","756-BX","2019/11/15 17:43:09","新北市三峽區中山路459巷121號","121.352321666667","24.9353383333333","6500900","三峽區"
"237005","AKY-6261","2019/11/15 17:43:11","新北市三峽區中山路459巷135號","121.348643333333","24.93293","6500900","三峽區"
"236042","KED-0685","2019/11/15 17:43:27","新北市土城區城林路6巷80號","121.438521666667","24.9796133333333","6501300","土城區"
"233002","762-BX","2019/11/15 17:43:15","新北市烏來區烏來街3-2號","121.551181666667","24.8653966666667","6502900","烏來區"
"236079","166-UM","2019/11/15 17:43:27","新北市土城區中華路二段171號","121.438523333333","24.97517","6501300","土城區"
"236014","270-VK","2019/11/15 17:43:21","新北市土城區城林路6巷80號","121.43847","24.9795683333333","6501300","土城區"
"236039","271-VK","2019/11/15 17:43:15","新北市土城區城林路6巷80號","121.438488333333","24.9796883333333","6501300","土城區"
"247012","KED-0683","2019/11/15 17:43:27","新北市蘆洲區復興路60巷1弄12號","121.475188333333","25.0862516666667","6501400","蘆洲區"
"252001","KED-0821","2019/11/15 17:43:17","新北市三芝區中山路一段12號","121.500818333333","25.2584766666667","6502100","三芝區"
"236020","401-BY","2019/11/15 17:43:20","新北市土城區城林路6巷80號","121.438778333333","24.979685","6501300","土城區"
"236048","752-BX","2019/11/15 17:43:17","新北市土城區城林路6巷80號","121.438778333333","24.9796066666667","6501300","土城區"
"236059","912-UM","2019/11/15 17:43:25","新北市土城區城林路6巷80號","121.43849","24.9796833333333","6501300","土城區"
"236063","915-UM","2019/11/15 17:43:18","新北市土城區城林路6巷80號","121.438775","24.9796016666667","6501300","土城區"
"242041","AAC-296","2019/11/15 17:43:19","新北市新莊區中正路514號","121.429743333333","25.0352633333333","6500500","新莊區"
"242060","986-R7","2019/11/15 17:43:32","新北市新莊區瓊林南路75-19號","121.434715","25.013915","6500500","新莊區"
"242005","751-BX","2019/11/15 17:43:22","新北市新莊區自立街214巷9弄2號","121.457241666667","25.04498","6500500","新莊區"
"242027","705-TV","2019/11/15 17:43:24","新北市新莊區福壽街111號","121.457835","25.0510033333333","6500500","新莊區"
"242029","615-BX","2019/11/15 17:43:15","新北市新莊區復興路一段85號","121.448515","25.04267","6500500","新莊區"
"242058","612-BX","2019/11/15 17:43:18","新北市新莊區中正路654號","121.421298333333","25.02857","6500500","新莊區"
"242048","566-BX","2019/11/15 17:43:19","新北市新莊區萬安街125號","121.420786666667","25.0223766666667","6500500","新莊區"
"242054","497-BY","2019/11/15 17:43:17","新北市新莊區新樹路699巷8號","121.432413333333","25.002015","6500500","新莊區"
"242002","441-UM","2019/11/15 17:43:31","新北市新莊區新莊路435號","121.45012","25.0334866666667","6500500","新莊區"
"242044","415-TV","2019/11/15 17:43:20","新北市新莊區中正路871巷19號","121.419165","25.0266183333333","6500500","新莊區"
"242013","413-TV","2019/11/15 17:43:14","新北市新莊區幸福路753巷1號","121.448595","25.0486","6500500","新莊區"
"242050","400-BY","2019/11/15 17:43:31","新北市新莊區西盛街201巷13號","121.429006666667","25.0170866666667","6500500","新莊區"
"242025","362-BY","2019/11/15 17:43:21","新北市新莊區福美街92號","121.460186666667","25.05636","6500500","新莊區"
"242023","353-BY","2019/11/15 17:43:19","新北市新莊區民樂街66號","121.457955","25.042155","6500500","新莊區"
"242015","132-UY","2019/11/15 17:43:29","新北市新莊區新泰路394號","121.444018333333","25.0434766666667","6500500","新莊區"
"242039","135-UY","2019/11/15 17:43:21","新北市新莊區民安西路1號","121.42667","25.0219416666667","6500500","新莊區"
"242056","172-VK","2019/11/15 17:43:24","新北市新莊區瓊林路40巷2號","121.44805","25.0302766666667","6500500","新莊區"
"242017","173-VK","2019/11/15 17:43:29","新北市新莊區復興路一段147號","121.450433333333","25.0432766666667","6500500","新莊區"
"242032","175-VK","2019/11/15 17:43:18","新北市新莊區新泰路325號","121.44501","25.0415433333333","6500500","新莊區"
"242007","346-TH","2019/11/15 17:43:21","新北市新莊區福樂街118巷2號","121.457311666667","25.0479766666667","6500500","新莊區"
"242021","347-TH","2019/11/15 17:43:13","新北市新莊區中華路一段118號","121.452551666667","25.0405416666667","6500500","新莊區"
"242037","348-TH","2019/11/15 17:43:18","新北市新莊區建福路69巷43號","121.428766666667","25.027555","6500500","新莊區"
"242009","349-TH","2019/11/15 17:43:28","新北市新莊區昌明街14巷7弄16號","121.456816666667","25.053505","6500500","新莊區"
"242034","350-TH","2019/11/15 17:43:28","新北市新莊區新莊路677號","121.444576666667","25.0328333333333","6500500","新莊區"
"242019","351-TH","2019/11/15 17:43:13","新北市新莊區中港路263號","121.45373","25.0433483333333","6500500","新莊區"
"238015","755-BX","2019/11/15 17:43:12","新北市樹林區長壽街25巷1弄1號","121.42047","24.994665","6500700","樹林區"
"238023","601-UM","2019/11/15 17:43:21","新北市樹林區福興街3號","121.404261666667","25.01689","6500700","樹林區"
"238019","599-UM","2019/11/15 17:43:29","新北市樹林區太平路93號","121.41907","24.9812933333333","6500700","樹林區"
"238018","KEA-2217","2019/11/15 17:43:20","新北市樹林區博愛街29巷10號","121.427406666667","24.9925033333333","6500700","樹林區"
"238022","KEA-2213","2019/11/15 17:43:13","新北市樹林區太元街29號","121.418351666667","24.9797433333333","6500700","樹林區"
"238021","KEA-2539","2019/11/15 17:43:25","新北市樹林區柑園街一段115號","121.401145","24.9598766666667","6500700","樹林區"
"238025","303-VK","2019/11/15 17:43:28","新北市樹林區三俊街50號","121.412236666667","25.0155966666667","6500700","樹林區"
"238017","283-BY","2019/11/15 17:43:29","新北市樹林區俊德街51號","121.415668333333","25.0132783333333","6500700","樹林區"
"238014","282-BY","2019/11/15 17:43:26","新北市樹林區大安路147號","121.421858333333","24.996895","6500700","樹林區"
"238020","268-VK","2019/11/15 17:43:21","新北市樹林區俊英街116巷2號","121.427733333333","25.0057383333333","6500700","樹林區"
"238026","172-UY","2019/11/15 17:43:16","新北市樹林區新興街19巷36弄14號","121.40246","24.973015","6500700","樹林區"
"238016","169-UY","2019/11/15 17:43:26","新北市樹林區啟智街129-1號","121.418056666667","24.9893766666667","6500700","樹林區"
"239007","AAC-297","2019/11/15 17:43:12","新北市鶯歌區鶯桃路168號","121.337301666667","24.955335","6500800","鶯歌區"
"239006","891-R6","2019/11/15 17:43:22","新北市鶯歌區永和街52號","121.333521666667","24.9679016666667","6500800","鶯歌區"
"239008","527-UM","2019/11/15 17:43:20","新北市鶯歌區宏德司法新村1號","121.33342","24.9783366666667","6500800","鶯歌區"
"239005","526-UM","2019/11/15 17:43:31","新北市鶯歌區鳳吉四街10號","121.32654","24.9725866666667","6500800","鶯歌區"
"239001","417-VK","2019/11/15 17:43:17","新北市鶯歌區中正三路220號","121.33159","24.93755","6500800","鶯歌區"
"239003","360-BY","2019/11/15 17:43:21","新北市鶯歌區鶯桃路184-1號","121.337975","24.9578666666667","6500800","鶯歌區"
"239002","359-BY","2019/11/15 17:43:23","新北市鶯歌區建國路280號","121.346361666667","24.9538933333333","6500800","鶯歌區"
"239004","193-VK","2019/11/15 17:43:21","新北市鶯歌區三鶯路57號","121.357113333333","24.9422983333333","6500800","鶯歌區"
"221008","489-VK","2019/11/15 17:43:30","新北市汐止區康寧街901號","121.651488333333","25.0750366666667","6501100","汐止區"
"221010","269-BY","2019/11/15 17:43:31","新北市汐止區汐萬路一段418巷39號","121.650841666667","25.0789","6501100","汐止區"
"233001","KEA-2870","2019/11/15 17:43:29","新北市烏來區信福路79號","121.526248333333","24.8369533333333","6502900","烏來區"
"242046","281-VK","2019/11/15 17:43:14","新北市新莊區建國一路33號","121.434175","25.0310916666667","6500500","新莊區"
"242011","280-VK","2019/11/15 17:43:19","新北市新莊區榮華路二段2號","121.450775","25.0557816666667","6500500","新莊區"
