"lineid","car","time","location","longitude","latitude","cityid","cityname"
"234026","9371-KE","2019/11/15 17:59:31","新北市永和區永和路一段41號","121.512733333333","25.0062116666667","6500400","永和區"
"249005","172-UM","2019/11/15 17:59:09","新北市八里區荖阡坑路22號","121.399143333333","25.1357783333333","6502300","八里區"
"249001","173-UM","2019/11/15 17:59:16","新北市八里區龍米路二段36號","121.448515","25.1400633333333","6502300","八里區"
"249004","303-UY","2019/11/15 17:59:23","新北市八里區中山路一段1號","121.42318","25.1589516666667","6502300","八里區"
"249002","305-UY","2019/11/15 17:59:20","新北市八里區龍形五街15號","121.450053333333","25.1334583333333","6502300","八里區"
"249003","593-UM","2019/11/15 17:59:17","新北市八里區中華路二段201-20號","121.405655","25.1491766666667","6502300","八里區"
"248008","KED-0815","2019/11/15 17:59:22","新北市五股區中興路二段148號","121.458808333333","25.078345","6501500","五股區"
"248018","KED-0813","2019/11/15 17:59:28","新北市五股區中興路二段83巷26-3號","121.46016","25.0753266666667","6501500","五股區"
"248004","677-BX","2019/11/15 17:59:21","新北市五股區中興路二段83巷26-6號","121.459901666667","25.07525","6501500","五股區"
"248002","678-BX","2019/11/15 17:59:20","新北市五股區中興路二段83巷26-6號","121.460025","25.0752983333333","6501500","五股區"
"232011","375-UM","2019/11/15 17:59:24","新北市坪林區水柳腳39號","121.709703333333","24.9351433333333","6502000","坪林區"
"244007","080-UY","2019/11/15 17:59:18","新北市林口區竹林路267號","121.38942","25.0809033333333","6501700","林口區"
"244019","402-UM","2019/11/15 17:59:25","新北市林口區文化一路一段100巷8弄6號","121.373598333333","25.0704783333333","6501700","林口區"
"244013","KEA-2802","2019/11/15 17:59:29","新北市林口區中山路138-1號","121.39171","25.0786933333333","6501700","林口區"
"244023","483-VK","2019/11/15 17:59:26","新北市林口區東湖一街71號","121.385243333333","25.0725216666667","6501700","林口區"
"244017","485-VK","2019/11/15 17:59:12","新北市林口區忠孝路382號","121.369605","25.0711066666667","6501700","林口區"
"244009","656-BX","2019/11/15 17:59:31","新北市林口區佳林路97號","121.385958333333","25.0805683333333","6501700","林口區"
"244011","701-TV","2019/11/15 17:59:25","新北市林口區中山路1號","121.396793333333","25.078","6501700","林口區"
"244025","837-TS","2019/11/15 17:59:28","新北市林口區八德路408號","121.358456666667","25.0659833333333","6501700","林口區"
"244021","838-TS","2019/11/15 17:59:12","新北市林口區粉寮路一段7號","121.396363333333","25.0761933333333","6501700","林口區"
"222003","436-BY","2019/11/15 17:59:21","新北市深坑區炮子崙23號","121.607208333333","24.99091","6501800","深坑區"
"222002","659-BX","2019/11/15 17:59:29","新北市深坑區文化街102號","121.616663333333","25.00188","6501800","深坑區"
"231040","898-TW","2019/11/15 17:59:18","新北市新店區安一路一段1-1號","121.519476666667","24.961125","6500600","新店區"
"241011","013-R5","2019/11/15 17:59:25","新北市五股區中直路15-2號","121.423576666667","25.110975","6500200","三重區"
"241008","059-VK","2019/11/15 17:34:57","","121.479641666667","25.0767216666667","6500200","三重區"
"241024","065-VK","2019/11/15 17:59:28","新北市三重區力行路二段2號","121.481813333333","25.0718433333333","6500200","三重區"
"241016","266-UM","2019/11/15 17:59:28","新北市五股區四維路1巷1號","121.466335","25.0679116666667","6500200","三重區"
"241033","557-UM","2019/11/15 17:59:14","新北市三重區中興北街62號","121.468995","25.0515716666667","6500200","三重區"
"235064","005-UY","2019/11/15 17:59:26","新北市中和區錦和路350-1號","121.490471666667","24.9935216666667","6500300","中和區"
"235065","098-UM","2019/11/15 17:59:20","新北市中和區橋和路284號","121.496368333333","25.0068583333333","6500300","中和區"
"235040","150-BY","2019/11/15 17:59:22","新北市中和區和城路一段271巷1號","121.485413333333","24.9916116666667","6500300","中和區"
"235058","151-BY","2019/11/15 17:59:31","新北市中和區圓通路367巷20弄7號","121.491921666667","24.9884883333333","6500300","中和區"
"235043","352-BY","2019/11/15 17:59:14","新北市中和區員山路36巷16-3號","121.485058333333","24.99146","6500300","中和區"
"235042","KEA-2878","2019/11/15 17:59:26","新北市中和區景平路430巷4號","121.507363333333","24.99364","6500300","中和區"
"247016","KEA-2869","2019/11/15 17:59:16","新北市蘆洲區中正路185巷78弄2號","121.46614","25.0844433333333","6501400","蘆洲區"
"235069","4980-A6","2019/11/15 17:59:20","新北市中和區中正路395號","121.489743333333","24.9940433333333","6500300","中和區"
"235038","551-UM","2019/11/15 17:59:18","新北市中和區景平路361號","121.504523333333","24.9933933333333","6500300","中和區"
"235070","558-UM","2019/11/15 17:59:17","新北市中和區錦和路350-1號","121.49044","24.9935366666667","6500300","中和區"
"235045","565-BX","2019/11/15 17:59:14","新北市中和區中正路637巷60弄61號","121.485551666667","24.993085","6500300","中和區"
"235054","640-BX","2019/11/15 17:59:10","新北市中和區連城路523巷13弄2號","121.481713333333","24.9935333333333","6500300","中和區"
"235062","800-TS","2019/11/15 17:59:28","新北市中和區中正路756號","121.485275","24.9990266666667","6500300","中和區"
"235057","801-TS","2019/11/15 17:59:30","新北市中和區連城路469-1號","121.48354","24.9956983333333","6500300","中和區"
"235051","157-BY","2019/11/15 17:59:26","新北市中和區中正路637巷52弄1號","121.485473333333","24.993425","6500300","中和區"
"235037","AAC-213","2019/11/15 17:59:28","新北市中和區景平路279-5號","121.507545","24.99306","6500300","中和區"
"235059","AAC-215","2019/11/15 17:59:27","新北市中和區員山路36巷16-3號","121.485055","24.9912833333333","6500300","中和區"
"247004","341-TH","2019/11/15 17:59:16","新北市蘆洲區永康街63號","121.45631","25.0852166666667","6501400","蘆洲區"
"247014","056-VK","2019/11/15 17:59:26","新北市蘆洲區忠孝路98號","121.471348333333","25.0860933333333","6501400","蘆洲區"
"247018","053-VK","2019/11/15 17:59:29","新北市蘆洲區復興路322號","121.481926666667","25.0902416666667","6501400","蘆洲區"
"247002","001-UY","2019/11/15 17:59:13","新北市蘆洲區永平街32巷57弄12號","121.459375","25.0930483333333","6501400","蘆洲區"
"228001","212-TW","2019/11/15 17:59:16","新北市貢寮區真理里新港街26巷55弄2號","121.927573333333","25.0529733333333","6502600","貢寮區"
"228002","663-BX","2019/11/15 17:59:14","新北市貢寮區福隆里桂安街17號","121.96621","25.0223566666667","6502600","貢寮區"
"228003","828-UM","2019/11/15 17:59:26","新北市貢寮區真理里美艷山街6-2號","121.928863333333","25.06072","6502600","貢寮區"
"224006","676-BX","2019/11/15 17:59:32","新北市瑞芳區傑魚坑路183號","121.788573333333","25.108215","6501200","瑞芳區"
"224009","275-VK","2019/11/15 17:59:12","新北市瑞芳區汽車路99號","121.842425","25.1085216666667","6501200","瑞芳區"
"224008","273-VK","2019/11/15 17:59:28","新北市瑞芳區明燈路一段45巷100號","121.821051666667","25.10415","6501200","瑞芳區"
"224005","271-BY","2019/11/15 17:59:19","新北市瑞芳區深澳路129號","121.819696666667","25.1315683333333","6501200","瑞芳區"
"227002","400-TW","2019/11/15 17:59:20","新北市雙溪區共和里東榮街52號","121.866336666667","25.03363","6502500","雙溪區"
"253005","032-BX","2019/11/15 17:59:26","新北市石門區中山路62-11號","121.567523333333","25.2897033333333","6502200","石門區"
"253006","295-VK","2019/11/15 17:59:30","新北市石門區大丘田45-1號","121.549806666667","25.2750966666667","6502200","石門區"
"222001","KEA-2212","2019/11/15 17:59:22","新北市深坑區北深路三段10號","121.610295","25.00096","6501800","深坑區"
"208002","KEA-2872","2019/11/15 17:59:20","新北市金山區三界壇路31號","121.627635","25.2278866666667","6502700","金山區"
"208003","665-BX","2019/11/15 17:59:15","新北市金山區中山路324號","121.633963333333","25.2250216666667","6502700","金山區"
"251004","009-UM","2019/11/15 17:59:14","新北市淡水區民權路82號","121.459206666667","25.1335966666667","6501000","淡水區"
"251005","010-UM","2019/11/15 17:59:11","新北市淡水區英專路133號","121.446465","25.1726816666667","6501000","淡水區"
"251001","011-UM","2019/11/15 17:59:25","新北市淡水區民權路94巷1號","121.463098333333","25.1248883333333","6501000","淡水區"
"251008","181-VK","2019/11/15 17:59:26","新北市淡水區八勢一街38-1號","121.461781666667","25.1554916666667","6501000","淡水區"
"251010","413-VK","2019/11/15 17:59:17","新北市淡水區淡海路46號","121.42308","25.1799833333333","6501000","淡水區"
"251012","441-VK","2019/11/15 17:59:13","新北市淡水區北新路三段30號","121.483745","25.1865766666667","6501000","淡水區"
"251007","442-VK","2019/11/15 17:59:17","新北市淡水區民權路3號","121.459778333333","25.14225","6501000","淡水區"
"251006","561-UM","2019/11/15 17:59:21","新北市淡水區新生街20-4號","121.438915","25.1737083333333","6501000","淡水區"
"251009","575-R6","2019/11/15 17:59:22","新北市淡水區原德路1號","121.44185","25.171005","6501000","淡水區"
"251011","650-BX","2019/11/15 17:56:58","新北市淡水區吳(仔)厝37號","121.479528333333","25.1495366666667","6501000","淡水區"
"251002","672-BX","2019/11/15 17:59:15","新北市淡水區中山路18-1號","121.444485","25.16939","6501000","淡水區"
"251003","766-UM","2019/11/15 17:59:17","新北市淡水區大忠街47號","121.444738333333","25.1763416666667","6501000","淡水區"
"207003","681-TV","2019/11/15 17:59:22","新北市萬里區野柳里東澳路66號","121.692655","25.2009033333333","6502800","萬里區"
"207004","291-VK","2019/11/15 17:59:18","新北市萬里區萬里里瑪鋉路5號","121.685988333333","25.1748816666667","6502800","萬里區"
"252002","178-VK","2019/11/15 17:59:16","新北市三芝區中山路二段41號","121.502963333333","25.2550833333333","6502100","三芝區"
"208001","170-UY","2019/11/15 17:59:26","新北市金山區磺港里磺港路248號","121.643853333333","25.2250216666667","6502700","金山區"
"237007","153-BY","2019/11/15 17:59:21","新北市三峽區中園街155號","121.367216666667","24.9223216666667","6500900","三峽區"
"237009","210-TH","2019/11/15 17:59:16","新北市三峽區中山路106巷29號","121.36602","24.93655","6500900","三峽區"
"237013","252-BX","2019/11/15 17:59:19","新北市三峽區介壽路一段53號","121.375611666667","24.9329166666667","6500900","三峽區"
"237012","275-BY","2019/11/15 17:59:22","新北市三峽區民生街27巷2號","121.376001666667","24.9362083333333","6500900","三峽區"
"237008","302-VK","2019/11/15 17:59:13","新北市三峽區白雞30號","121.369038333333","24.912405","6500900","三峽區"
"237014","433-BY","2019/11/15 17:59:16","新北市三峽區復興路101巷1弄79號","121.371095","24.9376333333333","6500900","三峽區"
"237006","5529-G3","2019/11/15 17:59:14","新北市三峽區介壽路二段136巷83-6號","121.393326666667","24.93118","6500900","三峽區"
"237011","KEA-2596","2019/11/15 17:59:16","新北市三峽區中正路一段57號","121.375393333333","24.9303066666667","6500900","三峽區"
"237015","649-BX","2019/11/15 17:59:13","新北市三峽區紫微路84號","121.409746666667","24.9142216666667","6500900","三峽區"
"237010","706-TV","2019/11/15 17:59:25","新北市三峽區仁愛街1號","121.368425","24.9342633333333","6500900","三峽區"
"237004","756-BX","2019/11/15 17:59:29","新北市三峽區中正路二段168號","121.366081666667","24.9158033333333","6500900","三峽區"
"237005","AKY-6261","2019/11/15 17:59:31","新北市三峽區復興路235號","121.368425","24.9388566666667","6500900","三峽區"
"236042","KED-0685","2019/11/15 17:59:27","新北市土城區城林路6巷80號","121.438493333333","24.9795633333333","6501300","土城區"
"233002","762-BX","2019/11/15 17:59:15","新北市烏來區烏來街14號","121.551501666667","24.86393","6502900","烏來區"
"236079","166-UM","2019/11/15 17:59:27","新北市土城區永寧路32巷10弄1號","121.428988333333","24.9609983333333","6501300","土城區"
"236029","253-BX","2019/11/15 17:59:27","新北市土城區城林路6巷80號","121.438698333333","24.979535","6501300","土城區"
"236026","269-VK","2019/11/15 17:59:15","新北市土城區中央路三段42號","121.43758","24.9680983333333","6501300","土城區"
"236014","270-VK","2019/11/15 17:59:21","新北市土城區城林路6巷80號","121.438438333333","24.9795666666667","6501300","土城區"
"236039","271-VK","2019/11/15 17:59:15","新北市土城區城林路6巷80號","121.43845","24.979705","6501300","土城區"
"247012","KED-0683","2019/11/15 17:59:27","新北市蘆洲區民族路220號","121.479608333333","25.0879083333333","6501400","蘆洲區"
"252001","KED-0821","2019/11/15 17:59:17","新北市三芝區中興街二段2號","121.498348333333","25.2566183333333","6502100","三芝區"
"236020","401-BY","2019/11/15 17:59:20","新北市土城區城林路6巷80號","121.438615","24.97965","6501300","土城區"
"236048","752-BX","2019/11/15 17:59:17","新北市土城區城林路6巷80號","121.43833","24.9795466666667","6501300","土城區"
"236059","912-UM","2019/11/15 17:59:26","新北市土城區中央路三段238-6號","121.428191666667","24.9641983333333","6501300","土城區"
"236063","915-UM","2019/11/15 17:59:18","新北市土城區中央路二段278巷11-2號","121.4398","24.9749516666667","6501300","土城區"
"236055","AAC-216","2019/11/15 17:59:28","新北市土城區城林路6巷80號","121.43845","24.9795966666667","6501300","土城區"
"242041","AAC-296","2019/11/15 17:59:19","新北市新莊區丹鳳街40號","121.421651666667","25.02961","6500500","新莊區"
"242060","986-R7","2019/11/15 17:59:25","新北市新莊區新樹路583號","121.432921666667","25.0068216666667","6500500","新莊區"
"242005","751-BX","2019/11/15 17:59:22","新北市新莊區福樂街72巷8號","121.45822","25.0465983333333","6500500","新莊區"
"242027","705-TV","2019/11/15 17:59:23","新北市新莊區思源路451號","121.459808333333","25.0533766666667","6500500","新莊區"
"242029","615-BX","2019/11/15 17:59:14","新北市新莊區中平路110巷22號","121.445763333333","25.0457566666667","6500500","新莊區"
"242058","612-BX","2019/11/15 17:59:18","新北市新莊區雙鳳路134巷22號","121.412745","25.0282016666667","6500500","新莊區"
"242048","566-BX","2019/11/15 17:59:19","新北市新莊區萬安街28號","121.421393333333","25.0243966666667","6500500","新莊區"
"242054","497-BY","2019/11/15 17:59:15","新北市新莊區民安西路412-1號","121.429063333333","25.00996","6500500","新莊區"
"242002","441-UM","2019/11/15 17:59:31","新北市新莊區中正路153-1號","121.455981666667","25.0367616666667","6500500","新莊區"
"242044","415-TV","2019/11/15 17:59:20","新北市新莊區雙鳳路15號","121.41693","25.0268283333333","6500500","新莊區"
"242013","413-TV","2019/11/15 17:59:31","新北市新莊區中和街123號","121.44724","25.0485583333333","6500500","新莊區"
"242050","400-BY","2019/11/15 17:59:31","新北市新莊區民安西路155巷7弄17號","121.426826666667","25.0168916666667","6500500","新莊區"
"242025","362-BY","2019/11/15 17:59:21","新北市三重區新北大道二段69號","121.468558333333","25.06137","6500500","新莊區"
"242023","353-BY","2019/11/15 17:59:19","新北市新莊區福壽街51號","121.458218333333","25.0488916666667","6500500","新莊區"
"242015","132-UY","2019/11/15 17:59:29","新北市新莊區中平路87巷3號","121.444335","25.0456","6500500","新莊區"
"242039","135-UY","2019/11/15 17:59:25","新北市新莊區民安西路24巷14號","121.426316666667","25.02094","6500500","新莊區"
"242056","172-VK","2019/11/15 17:59:24","新北市新莊區豐年街124巷12號","121.445733333333","25.02978","6500500","新莊區"
"242017","173-VK","2019/11/15 17:59:29","新北市新莊區中和街60巷41號","121.449688333333","25.044985","6500500","新莊區"
"242032","175-VK","2019/11/15 17:59:18","新北市新莊區新泰路305巷13號","121.44482","25.0409183333333","6500500","新莊區"
"242007","346-TH","2019/11/15 17:59:21","新北市新莊區自信街75巷14號","121.455831666667","25.0488166666667","6500500","新莊區"
"242021","347-TH","2019/11/15 17:59:26","新北市新莊區中華路一段10號","121.452008333333","25.0369066666667","6500500","新莊區"
"242037","348-TH","2019/11/15 17:59:18","新北市新莊區建福路8號","121.425991666667","25.02947","6500500","新莊區"
"242009","349-TH","2019/11/15 17:59:28","新北市新莊區中原路189-1號","121.452438333333","25.0542966666667","6500500","新莊區"
"242034","350-TH","2019/11/15 17:59:28","新北市新莊區福海街12號","121.445301666667","25.03361","6500500","新莊區"
"242019","351-TH","2019/11/15 17:59:32","新北市新莊區明中街51巷4號","121.456473333333","25.0393716666667","6500500","新莊區"
"238015","755-BX","2019/11/15 17:59:23","新北市樹林區啟智街156巷9號","121.414805","24.9877466666667","6500700","樹林區"
"238023","601-UM","2019/11/15 17:59:19","新北市樹林區龍興街46巷21號","121.402288333333","25.015205","6500700","樹林區"
"238019","599-UM","2019/11/15 17:59:29","新北市樹林區太平路120號","121.418556666667","24.9784583333333","6500700","樹林區"
"238018","KEA-2217","2019/11/15 17:59:20","新北市樹林區中正路7-1號","121.430196666667","24.9975933333333","6500700","樹林區"
"238022","KEA-2213","2019/11/15 17:59:13","新北市樹林區太平路150巷5號","121.418205","24.9778216666667","6500700","樹林區"
"238021","KEA-2539","2019/11/15 17:59:32","新北市樹林區柑園街一段230號","121.392518333333","24.9562983333333","6500700","樹林區"
"238025","303-VK","2019/11/15 17:59:28","新北市樹林區三俊街14號","121.411288333333","25.01537","6500700","樹林區"
"238017","283-BY","2019/11/15 17:59:22","新北市樹林區中正路825號","121.4093","25.0172683333333","6500700","樹林區"
"238014","282-BY","2019/11/15 17:59:26","新北市樹林區潭興街22號","121.42521","24.9988966666667","6500700","樹林區"
"238020","268-VK","2019/11/15 17:59:21","新北市樹林區三俊街201號","121.42016","25.0155533333333","6500700","樹林區"
"238026","172-UY","2019/11/15 17:59:16","新北市樹林區中洲街30巷4號","121.397401666667","24.9715633333333","6500700","樹林區"
"238016","169-UY","2019/11/15 17:59:26","新北市樹林區復興路293號","121.418758333333","24.9888283333333","6500700","樹林區"
"239007","AAC-297","2019/11/15 17:59:12","新北市鶯歌區鶯桃路25號","121.34359","24.95044","6500800","鶯歌區"
"239006","891-R6","2019/11/15 17:59:22","新北市鶯歌區鶯桃路455巷6弄4號","121.331868333333","24.9647333333333","6500800","鶯歌區"
"239008","527-UM","2019/11/15 17:59:20","新北市鶯歌區香賓街17號","121.337285","24.9797083333333","6500800","鶯歌區"
"239005","526-UM","2019/11/15 17:59:17","新北市鶯歌區鶯桃路658巷87號","121.331776666667","24.9707216666667","6500800","鶯歌區"
"239001","417-VK","2019/11/15 17:59:17","新北市鶯歌區中正三路248號","121.329856666667","24.936515","6500800","鶯歌區"
"239003","360-BY","2019/11/15 17:59:21","新北市鶯歌區德昌二街75號","121.33381","24.957915","6500800","鶯歌區"
"239002","359-BY","2019/11/15 17:59:23","新北市鶯歌區國華路71-1號","121.34294","24.954375","6500800","鶯歌區"
"239004","193-VK","2019/11/15 17:59:21","新北市鶯歌區文化路228號","121.352756666667","24.9486466666667","6500800","鶯歌區"
"221008","489-VK","2019/11/15 17:59:09","新北市汐止區翠峰街21巷3弄8號","121.643611666667","25.0756833333333","6501100","汐止區"
"221010","269-BY","2019/11/15 17:59:31","新北市汐止區汐萬路二段247號","121.646463333333","25.0882816666667","6501100","汐止區"
"221023","279-VK","2019/11/15 17:59:23","新北市汐止區明峰街72號","121.631515","25.07117","6501100","汐止區"
"221031","353-TW","2019/11/15 17:59:18","新北市汐止區中興路96巷1-3號","121.63526","25.0625333333333","6501100","汐止區"
"221035","622-UM","2019/11/15 17:59:26","新北市汐止區汐萬路一段225號","121.651895","25.0725616666667","6501100","汐止區"
"221025","623-UM","2019/11/15 17:59:21","新北市汐止區仁愛路13號","121.659168333333","25.06401","6501100","汐止區"
"221038","646-BX","2019/11/15 17:59:29","新北市汐止區新台五路一段140號","121.653078333333","25.061885","6501100","汐止區"
"221033","647-BX","2019/11/15 17:59:18","新北市汐止區合順街32號","121.619988333333","25.043105","6501100","汐止區"
"221018","753-BX","2019/11/15 17:59:25","新北市汐止區忠孝東路339巷7號","121.664591666667","25.0701683333333","6501100","汐止區"
"233001","KEA-2870","2019/11/15 17:59:09","新北市烏來區西羅岸路22號","121.549351666667","24.8673466666667","6502900","烏來區"
"242046","281-VK","2019/11/15 17:59:14","新北市新莊區福營路167號","121.431791666667","25.0312","6500500","新莊區"
"242011","280-VK","2019/11/15 17:59:20","新北市新莊區中榮街56巷13弄2號","121.449186666667","25.0534116666667","6500500","新莊區"
"235061","KEA-2875","2019/11/15 17:59:19","新北市中和區員山路82巷10弄7號","121.481498333333","24.993535","6500300","中和區"
