"lineid","car","time","location","longitude","latitude","cityid","cityname"
"234046","148-BY","2019/11/15 19:43:10","新北市永和區永亨路203號","121.526188333333","25.0026583333333","6500400","永和區"
"234081","298-R6","2019/11/15 19:43:26","新北市永和區林森路20巷7號","121.525906666667","25.0056266666667","6500400","永和區"
"234038","336-UY","2019/11/15 19:43:10","新北市永和區民樂街39巷16號","121.528261666667","25.0003316666667","6500400","永和區"
"234064","337-UY","2019/11/15 19:43:21","新北市永和區中正路412巷18號","121.518515","25.0020766666667","6500400","永和區"
"234086","338-UY","2019/11/15 19:43:27","新北市永和區永亨路114號","121.5238","25.004385","6500400","永和區"
"234070","552-UM","2019/11/15 19:43:23","新北市永和區永和路二段233號","121.515526666667","25.0141883333333","6500400","永和區"
"234017","745-BX","2019/11/15 19:43:24","新北市永和區環河西路一段3號","121.51512","25.0178183333333","6500400","永和區"
"234030","746-BX","2019/11/15 19:43:23","新北市永和區民生路67巷51號","121.525383333333","24.9975566666667","6500400","永和區"
"234054","KEA-2590","2019/11/15 19:43:26","新北市永和區竹林路39巷28弄1號","121.51937","25.0148433333333","6500400","永和區"
"234007","KED-0605","2019/11/15 19:43:19","新北市中和區中和路232號","121.506705","24.9995866666667","6500400","永和區"
"234013","KEA-2591","2019/11/15 19:43:20","新北市永和區仁愛路222號","121.50891","25.0120333333333","6500400","永和區"
"234061","AAD-866","2019/11/15 19:43:31","新北市永和區中正路350號","121.517705","25.000475","6500400","永和區"
"234042","862-TW","2019/11/15 19:43:22","新北市永和區中和路305巷16弄1號","121.507416666667","25.00146","6500400","永和區"
"234050","863-TW","2019/11/15 19:43:26","新北市永和區環河西路一段107號","121.511","25.01746","6500400","永和區"
"234026","9371-KE","2019/11/15 19:43:19","","121.510716666667","25.0023983333333","6500400","永和區"
"234011","9373-KE","2019/11/15 19:43:14","新北市永和區仁愛路352巷92弄22號","121.501521666667","25.0082566666667","6500400","永和區"
"249004","303-UY","2019/11/15 19:43:20","新北市八里區中山路一段268巷50號","121.41479","25.1609316666667","6502300","八里區"
"249002","305-UY","2019/11/15 19:43:20","新北市八里區頂寮二街33-1號","121.450348333333","25.12515","6502300","八里區"
"249003","593-UM","2019/11/15 19:43:25","新北市八里區中華路二段532號","121.39923","25.1457466666667","6502300","八里區"
"248014","025-BX","2019/11/15 19:43:21","新北市五股區五福路32巷26號","121.43503","25.089715","6501500","五股區"
"248016","026-BX","2019/11/15 19:43:21","","121.45575","25.109725","6501500","五股區"
"248008","KED-0815","2019/11/15 19:43:21","","121.468195","25.0753083333333","6501500","五股區"
"248018","KED-0813","2019/11/15 19:43:27","","121.425881666667","25.0768416666667","6501500","五股區"
"248012","247-BX","2019/11/15 19:43:13","新北市五股區蓬萊路24號","121.433888333333","25.079915","6501500","五股區"
"248004","677-BX","2019/11/15 19:43:30","新北市五股區成泰路一段149-7號","121.435296666667","25.073785","6501500","五股區"
"248002","678-BX","2019/11/15 19:43:19","新北市五股區成泰路三段577巷16號","121.45176","25.1027716666667","6501500","五股區"
"248010","682-TV","2019/11/15 19:43:21","新北市五股區登林路74-3號","121.431053333333","25.069385","6501500","五股區"
"234023","9380-KE","2019/11/15 19:43:23","新北市永和區中山路一段10號","121.514185","25.0106483333333","6500400","永和區"
"234077","969-R7","2019/11/15 19:43:19","新北市永和區民權路29巷9號","121.520671666667","24.9979116666667","6500400","永和區"
"234074","AAC-211","2019/11/15 19:43:17","新北市永和區竹林路213巷44號","121.523308333333","25.0091283333333","6500400","永和區"
"234067","AAC-212","2019/11/15 19:43:22","新北市永和區中山路一段149號","121.510093333333","25.0093966666667","6500400","永和區"
"234003","AAC-295","2019/11/15 19:43:29","新北市永和區永和路一段112-1號","121.51351","25.0073616666667","6500400","永和區"
"244023","483-VK","2019/11/15 19:43:26","新北市林口區文林五街28巷16號","121.373128333333","25.0840216666667","6501700","林口區"
"243012","AAD-798","2019/11/15 19:43:21","新北市泰山區中港西路412號","121.43413","25.05421","6501600","泰山區"
"243010","297-R6","2019/11/15 19:18:26","","121.43047","25.0545433333333","6501600","泰山區"
"243016","421-VK","2019/11/15 19:43:15","新北市泰山區新北大道七段21號","121.420508333333","25.03202","6501600","泰山區"
"243009","KEA-2215","2019/11/15 19:43:23","新北市泰山區美寧街60號","121.430946666667","25.06471","6501600","泰山區"
"243011","KEA-2216","2019/11/15 19:43:27","新北市泰山區明志路三段196巷21弄26號","121.422516666667","25.0385316666667","6501600","泰山區"
"243015","680-BX","2019/11/15 19:43:31","新北市泰山區明志路二段237巷21號","121.428113333333","25.04808","6501600","泰山區"
"222003","436-BY","2019/11/15 19:34:24","新北市深坑區深南路51-1號","121.621136666667","25.0098883333333","6501800","深坑區"
"222002","659-BX","2019/11/15 19:43:18","新北市深坑區北深路一段177號","121.632505","25.0108433333333","6501800","深坑區"
"231061","002-UM","2019/11/15 19:43:20","新北市新店區安民街135號","121.516455","24.9693033333333","6500600","新店區"
"231044","046-UY","2019/11/15 19:43:23","新北市新店區北新路三段99號","121.54148","24.9819816666667","6500600","新店區"
"231060","106-UY","2019/11/15 19:43:23","新北市新店區安康路二段161號","121.510218333333","24.9593966666667","6500600","新店區"
"231051","107-UY","2019/11/15 19:43:32","新北市新店區中央四街29號","121.528725","24.974385","6500600","新店區"
"231049","108-UY","2019/11/15 19:43:23","新北市新店區民權路100-1號","121.536145","24.9833166666667","6500600","新店區"
"231065","110-UY","2019/11/15 19:43:28","新北市新店區安祥路109巷151弄5號","121.478308333333","24.9587866666667","6500600","新店區"
"231062","256-BX","2019/11/15 19:43:11","新北市新店區碧潭路19號","121.534458333333","24.9562183333333","6500600","新店區"
"231054","260-TV","2019/11/15 19:43:14","新北市新店區文中路40號","121.539721666667","24.9565783333333","6500600","新店區"
"231042","268-BY","2019/11/15 19:43:16","新北市新店區中興路一段202號","121.543696666667","24.9653866666667","6500600","新店區"
"231064","278-BY","2019/11/15 19:43:21","新北市新店區安和路二段115號","121.51865","24.9704083333333","6500600","新店區"
"231050","AAD-862","2019/11/15 19:43:12","新北市新店區郵政路93號","121.554636666667","24.9514333333333","6500600","新店區"
"231045","355-BY","2019/11/15 19:43:17","新北市新店區北宜路二段112號","121.556328333333","24.9537666666667","6500600","新店區"
"231058","3713-VJ","2019/11/15 19:43:16","新北市新店區中正路76巷11弄10號","121.543958333333","24.9713983333333","6500600","新店區"
"231067","4772-VM","2019/11/15 19:43:23","新北市新店區精忠路10-1號","121.53258","24.9591316666667","6500600","新店區"
"231053","513-UM","2019/11/15 19:43:20","新北市新店區新烏路二段489號","121.552241666667","24.9086933333333","6500600","新店區"
"231063","616-UM","2019/11/15 19:43:23","新北市新店區車子路134號","121.504771666667","24.94851","6500600","新店區"
"231041","619-UM","2019/11/15 19:43:33","新北市新店區中正路500-1號","121.534231666667","24.9820133333333","6500600","新店區"
"231048","KED-0819","2019/11/15 19:43:16","新北市新店區中興路一段306號","121.546676666667","24.9697033333333","6500600","新店區"
"231046","719-UM","2019/11/15 19:43:15","新北市新店區三民路84巷8號","121.534713333333","24.9729233333333","6500600","新店區"
"231057","720-UM","2019/11/15 19:43:32","新北市新店區百齡一路8號","121.554031666667","24.9323233333333","6500600","新店區"
"231059","897-TW","2019/11/15 19:43:26","新北市新店區安業街1號","121.516631666667","24.978905","6500600","新店區"
"231040","898-TW","2019/11/15 19:43:18","新北市新店區北新路一段96巷23號","121.543058333333","24.9688116666667","6500600","新店區"
"231043","899-TW","2019/11/15 19:43:12","新北市新店區中正路228號","121.540033333333","24.9727633333333","6500600","新店區"
"231066","AKT-0513","2019/11/15 19:43:28","新北市新店區安康路三段165巷2弄2號","121.489636666667","24.9514233333333","6500600","新店區"
"241011","013-R5","2019/11/15 19:43:29","新北市三重區仁愛街10號","121.496883333333","25.071035","6500200","三重區"
"241028","022-UY","2019/11/15 19:43:28","新北市三重區中正南路210號","121.493943333333","25.05572","6500200","三重區"
"241008","059-VK","2019/11/15 19:43:25","新北市三重區永福街111巷15號","121.478801666667","25.0776966666667","6500200","三重區"
"241031","061-VK","2019/11/15 19:43:18","新北市三重區重新路四段101號","121.485696666667","25.0546666666667","6500200","三重區"
"241015","062-VK","2019/11/15 19:43:22","新北市三重區三和路一段42號","121.502828333333","25.0653383333333","6500200","三重區"
"241017","063-VK","2019/11/15 19:43:31","新北市三重區重陽路三段5巷6號","121.48933","25.0660966666667","6500200","三重區"
"241007","066-VK","2019/11/15 19:43:25","新北市三重區三和路四段133號","121.484576666667","25.077925","6500200","三重區"
"241032","742-BX","2019/11/15 19:43:12","新北市三重區三陽路14巷14號","121.486226666667","25.0581866666667","6500200","三重區"
"241006","262-UM","2019/11/15 19:43:18","新北市三重區永福街297號","121.483761666667","25.0746233333333","6500200","三重區"
"241014","316-R6","2019/11/15 19:43:18","新北市三重區長元街98巷21弄42號","121.503613333333","25.068005","6500200","三重區"
"241016","266-UM","2019/11/15 19:43:28","新北市三重區正義北路22號","121.49759","25.0631483333333","6500200","三重區"
"241009","267-UM","2019/11/15 19:43:24","新北市三重區三和路四段400巷6號","121.480973333333","25.0793966666667","6500200","三重區"
"241013","270-UM","2019/11/15 19:43:30","新北市三重區仁愛街127號","121.49554","25.074835","6500200","三重區"
"241025","271-UM","2019/11/15 19:43:25","新北市三重區忠孝路三段52號","121.48068","25.0656533333333","6500200","三重區"
"241030","KED-0822","2019/11/15 19:43:16","新北市三重區環河南路225號","121.492401666667","25.0516883333333","6500200","三重區"
"241035","462-BY","2019/11/15 19:43:15","新北市三重區文化北路33-3號","121.49932","25.0643416666667","6500200","三重區"
"241020","478-VK","2019/11/15 19:43:14","新北市三重區後竹圍街1號","121.49157","25.073625","6500200","三重區"
"241026","480-VK","2019/11/15 19:43:23","新北市三重區文化南路46號","121.500386666667","25.0599866666667","6500200","三重區"
"241023","545-UM","2019/11/15 19:43:13","新北市三重區頂崁街172號","121.477611666667","25.0659333333333","6500200","三重區"
"241001","547-UM","2019/11/15 19:43:12","新北市三重區五華街33-1號","121.494593333333","25.080875","6500200","三重區"
"241019","KEA-2593","2019/11/15 19:43:24","新北市三重區力行路一段89巷2號","121.486501666667","25.0681666666667","6500200","三重區"
"241012","743-BX","2019/11/15 19:43:17","新北市三重區仁興街28巷37號","121.498316666667","25.0751416666667","6500200","三重區"
"241005","KED-0670","2019/11/15 19:43:16","新北市三重區碧華街294巷17號","121.488595","25.0840733333333","6500200","三重區"
"241029","942-UM","2019/11/15 19:43:13","新北市三重區光明路55號","121.491648333333","25.0578866666667","6500200","三重區"
"235066","003-UY","2019/11/15 19:43:14","新北市中和區安和路213號","121.505938333333","24.999015","6500300","中和區"
"235056","096-UM","2019/11/15 19:43:11","新北市中和區中山路三段136巷10弄19號","121.473953333333","25.00764","6500300","中和區"
"235039","097-UM","2019/11/15 19:43:25","新北市中和區景平路172號","121.517023333333","24.9926983333333","6500300","中和區"
"235065","098-UM","2019/11/15 19:43:29","新北市中和區福祥路107號","121.498876666667","25.00643","6500300","中和區"
"235040","150-BY","2019/11/15 19:43:22","新北市中和區安平路30號","121.509625","24.9948866666667","6500300","中和區"
"235058","151-BY","2019/11/15 19:43:30","新北市中和區員山路146巷17號","121.482365","24.9968166666667","6500300","中和區"
"235055","183-VK","2019/11/15 19:43:16","新北市中和區德光路18號","121.471086666667","25.00445","6500300","中和區"
"235067","255-BX","2019/11/15 19:43:11","新北市中和區新生街268號","121.483618333333","24.9971583333333","6500300","中和區"
"235044","293-VK","2019/11/15 19:43:14","新北市中和區南山路397號","121.50678","24.9900833333333","6500300","中和區"
"235072","301-VK","2019/11/15 19:43:29","新北市中和區中正路432巷9號","121.490781666667","24.995715","6500300","中和區"
"235043","352-BY","2019/11/15 19:43:13","新北市中和區華新街232巷8號","121.50584","24.9819916666667","6500300","中和區"
"235042","KEA-2878","2019/11/15 19:43:26","新北市中和區景安路79巷29號","121.507103333333","24.996475","6500300","中和區"
"235038","551-UM","2019/11/15 19:43:18","新北市中和區自強路21號","121.520501666667","24.993145","6500300","中和區"
"235070","558-UM","2019/11/15 19:43:17","新北市中和區圓通路118號","121.499163333333","24.9962016666667","6500300","中和區"
"235071","647-TV","2019/11/15 19:43:15","新北市中和區中山路二段544巷3號","121.484601666667","25.006555","6500300","中和區"
"235047","732-UM","2019/11/15 19:43:18","新北市中和區捷運路52號","121.5079","24.9904616666667","6500300","中和區"
"235046","733-UM","2019/11/15 19:43:27","新北市中和區仁愛街91號","121.5117","24.986925","6500300","中和區"
"235041","802-TS","2019/11/15 19:43:31","新北市中和區新興街17巷28號","121.51276","25.00288","6500300","中和區"
"235052","805-TS","2019/11/15 19:43:22","新北市中和區興南路二段121號","121.505553333333","24.9842083333333","6500300","中和區"
"235048","896-TW","2019/11/15 19:43:25","新北市中和區興南路一段137號","121.508825","24.9876133333333","6500300","中和區"
"235053","900-TW","2019/11/15 19:43:29","新北市中和區國光街215巷8弄2號","121.466723333333","25.0011133333333","6500300","中和區"
"235051","157-BY","2019/11/15 19:43:26","新北市中和區中興街160號","121.49988","24.99172","6500300","中和區"
"235037","AAC-213","2019/11/15 19:43:28","","121.523696666667","24.9915783333333","6500300","中和區"
"235059","AAC-215","2019/11/15 19:43:27","新北市中和區圓通路305巷9號","121.493883333333","24.9898866666667","6500300","中和區"
"220013","072-UY","2019/11/15 19:43:29","新北市板橋區國泰街27號","121.469031666667","25.0067033333333","6500100","板橋區"
"220086","073-UY","2019/11/15 19:43:27","新北市板橋區中正路236巷59號","121.458333333333","25.0195283333333","6500100","板橋區"
"220106","075-UY","2019/11/15 19:43:25","新北市板橋區民治街71巷33號","121.480555","25.0333266666667","6500100","板橋區"
"220069","AAD-861","2019/11/15 19:43:20","新北市板橋區大明街23號","121.458678333333","25.0026033333333","6500100","板橋區"
"247004","341-TH","2019/11/15 19:43:14","新北市蘆洲區中原路21巷7弄40號","121.46178","25.0829616666667","6501400","蘆洲區"
"247002","001-UY","2019/11/15 19:43:14","新北市蘆洲區長榮路675號","121.460401666667","25.0921183333333","6501400","蘆洲區"
"226004","312-R5","2019/11/15 19:43:19","新北市平溪區十分里十分街86號","121.776536666667","25.0422816666667","6502400","平溪區"
"235049","251-BX","2019/11/15 19:43:11","新北市中和區景平路429號","121.501533333333","24.995305","6500300","中和區"
"228001","212-TW","2019/11/15 19:43:15","新北市貢寮區真理里新港街106號","121.926983333333","25.0562033333333","6502600","貢寮區"
"228003","828-UM","2019/11/15 19:43:26","新北市貢寮區真理里美艷山街15-3號","121.923715","25.0679866666667","6502600","貢寮區"
"227001","642-TC","2019/11/15 19:43:13","新北市雙溪區新基里中華路31號","121.865855","25.0372083333333","6502500","雙溪區"
"227002","400-TW","2019/11/15 19:43:20","新北市雙溪區雙溪里內挖路47號","121.863223333333","25.0367233333333","6502500","雙溪區"
"222001","KEA-2212","2019/11/15 19:43:22","新北市深坑區北深路三段20號","121.6094","25.0010583333333","6501800","深坑區"
"208002","KEA-2872","2019/11/15 19:43:18","新北市金山區中華路368號","121.63327","25.22458","6502700","金山區"
"208003","665-BX","2019/11/15 19:43:15","新北市金山區海興路172-2號","121.63273","25.2399166666667","6502700","金山區"
"251005","010-UM","2019/11/15 19:43:14","新北市淡水區水源街一段1號","121.442498333333","25.17253","6501000","淡水區"
"251001","011-UM","2019/11/15 19:43:24","新北市淡水區中正東路二段87-3號","121.459408333333","25.1528533333333","6501000","淡水區"
"251008","181-VK","2019/11/15 19:43:13","新北市淡水區中正路一段26號","121.426693333333","25.1762266666667","6501000","淡水區"
"251010","413-VK","2019/11/15 19:43:16","新北市淡水區崁頂92號","121.42873","25.2023066666667","6501000","淡水區"
"251007","442-VK","2019/11/15 19:43:17","新北市淡水區中正東路一段113號","121.454191666667","25.1600716666667","6501000","淡水區"
"251006","561-UM","2019/11/15 19:43:21","新北市淡水區中山北路一段207巷74號","121.441468333333","25.179315","6501000","淡水區"
"251009","575-R6","2019/11/15 19:43:22","新北市淡水區中山北路一段198巷4號","121.44502","25.1792766666667","6501000","淡水區"
"251011","650-BX","2019/11/15 19:43:19","新北市淡水區中正東路二段143巷12弄2號","121.461986666667","25.1481416666667","6501000","淡水區"
"251002","672-BX","2019/11/15 19:43:15","新北市淡水區下圭柔山90-2號","121.431538333333","25.211785","6501000","淡水區"
"207003","681-TV","2019/11/15 19:43:22","新北市萬里區大鵬里下社17-4號","121.648198333333","25.2177483333333","6502800","萬里區"
"207004","291-VK","2019/11/15 19:43:27","新北市萬里區萬里里瑪鋉路16號","121.687885","25.1757766666667","6502800","萬里區"
"252002","178-VK","2019/11/15 19:43:16","新北市三芝區三民街31號","121.50457","25.2585933333333","6502100","三芝區"
"208001","170-UY","2019/11/15 19:43:28","新北市金山區重和里林口30號","121.596515","25.2098333333333","6502700","金山區"
"237007","153-BY","2019/11/15 19:43:21","新北市三峽區二鬮路136巷22弄3號","121.356508333333","24.9102133333333","6500900","三峽區"
"237009","210-TH","2019/11/15 19:43:15","新北市三峽區中園街117號","121.367578333333","24.924135","6500900","三峽區"
"237013","252-BX","2019/11/15 19:43:18","新北市三峽區溪北街78號","121.397688333333","24.9354216666667","6500900","三峽區"
"237012","275-BY","2019/11/15 19:43:22","新北市三峽區中華路8號","121.375408333333","24.9331666666667","6500900","三峽區"
"237008","302-VK","2019/11/15 19:43:13","新北市三峽區中正路一段292巷10號","121.37099","24.925985","6500900","三峽區"
"237014","433-BY","2019/11/15 19:43:16","新北市三峽區嘉添74-6號","121.368703333333","24.909965","6500900","三峽區"
"237006","5529-G3","2019/11/15 19:43:14","新北市三峽區中正路一段336巷15弄2號","121.369943333333","24.9249583333333","6500900","三峽區"
"237015","649-BX","2019/11/15 19:43:13","新北市三峽區成福路75號","121.418651666667","24.9293033333333","6500900","三峽區"
"237004","756-BX","2019/11/15 19:43:29","新北市三峽區插角24號","121.403388333333","24.8728333333333","6500900","三峽區"
"237005","AKY-6261","2019/11/15 19:43:11","新北市三峽區文化路209號","121.366173333333","24.935645","6500900","三峽區"
"236042","KED-0685","2019/11/15 19:43:27","新北市土城區清水路87號","121.456273333333","24.9818033333333","6501300","土城區"
"236079","166-UM","2019/11/15 19:43:27","新北市土城區溪頭路110號","121.408786666667","24.9505933333333","6501300","土城區"
"236029","253-BX","2019/11/15 19:43:31","新北市土城區中央路一段318巷4弄12號","121.443263333333","24.9823733333333","6501300","土城區"
"236026","269-VK","2019/11/15 19:43:15","新北市土城區中央路二段61巷26號","121.44326","24.9787066666667","6501300","土城區"
"236067","KEA-2877","2019/11/15 19:43:16","新北市土城區金城路一段131號","121.4448","24.9737366666667","6501300","土城區"
"252001","KED-0821","2019/11/15 19:43:16","新北市三芝區公正街66號","121.49981","25.2574566666667","6502100","三芝區"
"236020","401-BY","2019/11/15 19:43:20","新北市土城區峰廷街18-1號","121.46905","24.9872383333333","6501300","土城區"
"236048","752-BX","2019/11/15 19:43:25","新北市土城區明德路一段283號","121.46081","24.977425","6501300","土城區"
"236059","912-UM","2019/11/15 19:43:29","新北市土城區中央路一段289-1號","121.444291666667","24.984155","6501300","土城區"
"236063","915-UM","2019/11/15 19:43:18","新北市土城區延和路105巷6弄1號","121.467336666667","24.9910666666667","6501300","土城區"
"236055","AAC-216","2019/11/15 19:43:28","新北市土城區延和路49號","121.466303333333","24.989525","6501300","土城區"
"242005","751-BX","2019/11/15 19:43:22","新北市新莊區思源路42巷5號","121.460838333333","25.0439883333333","6500500","新莊區"
"242027","705-TV","2019/11/15 19:43:23","新北市新莊區三和路12-21號","121.442261666667","25.0383466666667","6500500","新莊區"
"242048","566-BX","2019/11/15 19:43:26","新北市新莊區後港一路15號","121.424343333333","25.0263966666667","6500500","新莊區"
"242013","413-TV","2019/11/15 19:43:17","新北市新莊區中泰街109號","121.44861","25.0465633333333","6500500","新莊區"
"242023","353-BY","2019/11/15 19:43:33","新北市新莊區復興路三段115號","121.464266666667","25.0445233333333","6500500","新莊區"
"242039","135-UY","2019/11/15 19:43:13","新北市新莊區建國二路30號","121.433208333333","25.0245533333333","6500500","新莊區"
"242017","173-VK","2019/11/15 19:43:26","新北市新莊區三和路12-21號","121.442321666667","25.0379533333333","6500500","新莊區"
"242032","175-VK","2019/11/15 19:43:31","新北市新莊區新泰路225巷22弄5號","121.444946666667","25.0392733333333","6500500","新莊區"
"242037","348-TH","2019/11/15 19:43:27","新北市新莊區民安路207巷21弄2號","121.427016666667","25.0232833333333","6500500","新莊區"
"242034","350-TH","2019/11/15 19:43:21","新北市新莊區仁愛街27號","121.444146666667","25.0361383333333","6500500","新莊區"
"242019","351-TH","2019/11/15 19:43:25","新北市新莊區新泰路357巷3弄41號","121.442336666667","25.0402933333333","6500500","新莊區"
"238015","755-BX","2019/11/15 19:43:14","新北市樹林區日新街95號","121.421601666667","24.990065","6500700","樹林區"
"238023","601-UM","2019/11/15 19:43:19","新北市樹林區三寶街12號","121.406468333333","25.0153583333333","6500700","樹林區"
"238019","599-UM","2019/11/15 19:43:29","新北市樹林區八德街37-1號","121.418723333333","24.9833266666667","6500700","樹林區"
"238024","5061-A6","2019/11/15 19:43:31","新北市樹林區中山路三段92號","121.393166666667","24.9722733333333","6500700","樹林區"
"238022","KEA-2213","2019/11/15 19:43:22","新北市樹林區國凱街50巷23號","121.420646666667","24.9782133333333","6500700","樹林區"
"238021","KEA-2539","2019/11/15 19:43:28","新北市樹林區田尾街192巷7號","121.40013","24.94942","6500700","樹林區"
"238025","303-VK","2019/11/15 19:43:28","新北市樹林區中山路一段135-4號","121.422465","24.989725","6500700","樹林區"
"238017","283-BY","2019/11/15 19:43:22","新北市樹林區保安街二段197巷12號","121.413886666667","25.0029916666667","6500700","樹林區"
"238014","282-BY","2019/11/15 19:43:26","新北市樹林區千歲街30巷26弄10號","121.426191666667","24.9957183333333","6500700","樹林區"
"238020","268-VK","2019/11/15 19:43:21","新北市樹林區中正路6號","121.429795","24.9975333333333","6500700","樹林區"
"239007","AAC-297","2019/11/15 19:43:12","新北市鶯歌區大湖路326巷2弄18號","121.345871666667","24.969605","6500800","鶯歌區"
"239006","891-R6","2019/11/15 19:43:21","新北市鶯歌區尖山埔路114號","121.344368333333","24.9502233333333","6500800","鶯歌區"
"239008","527-UM","2019/11/15 19:43:20","新北市鶯歌區大湖路335號","121.341766666667","24.9725933333333","6500800","鶯歌區"
"239005","526-UM","2019/11/15 19:43:18","新北市鶯歌區中湖街210號","121.34922","24.97503","6500800","鶯歌區"
"239003","360-BY","2019/11/15 19:43:21","新北市鶯歌區中正二路26號","121.351425","24.9516116666667","6500800","鶯歌區"
"239002","359-BY","2019/11/15 19:43:23","新北市鶯歌區大湖路340號","121.34616","24.9713616666667","6500800","鶯歌區"
"239004","193-VK","2019/11/15 19:43:21","新北市鶯歌區國中街150號","121.338753333333","24.9395816666667","6500800","鶯歌區"
"221008","489-VK","2019/11/15 19:43:17","新北市汐止區康寧街61巷69號","121.620326666667","25.0678933333333","6501100","汐止區"
"221010","269-BY","2019/11/15 19:43:31","新北市汐止區連峰街1巷2號","121.647158333333","25.07611","6501100","汐止區"
"221012","278-VK","2019/11/15 19:43:22","新北市汐止區大同路三段318號","121.678943333333","25.0711633333333","6501100","汐止區"
"221023","279-VK","2019/11/15 19:43:25","新北市汐止區中興路201號","121.629163333333","25.06849","6501100","汐止區"
"221027","281-BY","2019/11/15 19:43:31","新北市汐止區忠孝東路9號","121.65825","25.06595","6501100","汐止區"
"221021","299-VK","2019/11/15 19:43:31","新北市汐止區新興路85巷2號","121.658061666667","25.0613416666667","6501100","汐止區"
"221031","353-TW","2019/11/15 19:43:18","新北市汐止區康寧街901號","121.650761666667","25.0753116666667","6501100","汐止區"
"221025","623-UM","2019/11/15 19:43:21","新北市汐止區福安街19號","121.662583333333","25.0650716666667","6501100","汐止區"
"221038","646-BX","2019/11/15 19:43:17","新北市汐止區忠孝東路295號","121.664125","25.068775","6501100","汐止區"
"221033","647-BX","2019/11/15 19:43:18","新北市汐止區東勢街30號","121.625288333333","25.0386033333333","6501100","汐止區"
"220079","145-BY","2019/11/15 19:43:26","新北市板橋區民權路302巷12號","121.457726666667","25.0164316666667","6500100","板橋區"
"220080","200-UY","2019/11/15 19:43:22","新北市板橋區大觀路二段37巷276號","121.449771666667","25.001185","6500100","板橋區"
"220082","610-BX","2019/11/15 19:43:22","新北市板橋區大觀路三段160巷34弄3號","121.43006","24.9942466666667","6500100","板橋區"
"224002","257-TC","2019/11/15 19:43:27","新北市瑞芳區三爪子坑路13巷211號","121.815895","25.1059933333333","6501200","瑞芳區"
"220091","267-BY","2019/11/15 19:43:28","新北市板橋區懷德街139巷12號","121.479575","25.030465","6500100","板橋區"
"220056","276-BY","2019/11/15 19:43:22","新北市板橋區信義路1巷6號","121.457398333333","24.9970783333333","6500100","板橋區"
"220072","277-BY","2019/11/15 19:43:10","新北市板橋區金門街215巷73號","121.434036666667","24.9893583333333","6500100","板橋區"
"220101","280-UM","2019/11/15 19:43:24","新北市板橋區縣民大道三段61號","121.474756666667","25.0212516666667","6500100","板橋區"
"220094","283-UM","2019/11/15 19:43:24","新北市板橋區陽明街289號","121.461845","25.0265216666667","6500100","板橋區"
"220071","283-VK","2019/11/15 19:43:21","新北市板橋區國慶路182巷32-1號","121.463056666667","24.9952433333333","6500100","板橋區"
"220053","285-VK","2019/11/15 19:43:15","新北市板橋區中山路二段60巷1弄3-2號","121.474408333333","25.0154016666667","6500100","板橋區"
"220083","286-VK","2019/11/15 19:43:16","新北市板橋區龍興街65巷82-1號","121.441731666667","25.002295","6500100","板橋區"
"220081","287-VK","2019/11/15 19:43:22","新北市板橋區大觀路一段29巷179弄12號","121.449006666667","25.004795","6500100","板橋區"
"220090","288-VK","2019/11/15 19:43:19","新北市板橋區龍泉街98-4號","121.456661666667","25.0250183333333","6500100","板橋區"
"220061","293-UM","2019/11/15 19:43:30","新北市板橋區觀光街5號","121.47182","25.0158333333333","6500100","板橋區"
"220084","296-UM","2019/11/15 19:43:17","新北市板橋區滿平二街1-3號","121.425525","24.9863483333333","6500100","板橋區"
"220075","303-R5","2019/11/15 19:43:15","新北市板橋區中正路253巷72號","121.452751666667","25.0171966666667","6500100","板橋區"
"220062","305-R5","2019/11/15 19:43:27","新北市板橋區中山路二段416巷38弄29號","121.481798333333","25.01943","6500100","板橋區"
"220092","307-R5","2019/11/15 19:43:20","新北市板橋區新海路109巷1弄2號","121.460745","25.0224383333333","6500100","板橋區"
"220098","317-R6","2019/11/15 19:43:26","新北市板橋區四維路298號","121.462725","25.0294166666667","6500100","板橋區"
"220089","487-VK","2019/11/15 19:43:14","新北市板橋區互助街84號","121.46051","25.026385","6500100","板橋區"
"220088","491-VK","2019/11/15 19:43:26","新北市板橋區文聖街121號","121.477918333333","25.0289533333333","6500100","板橋區"
"220035","560-BX","2019/11/15 19:43:27","新北市板橋區金華街85巷42號","121.459131666667","25.0213333333333","6500100","板橋區"
"220103","561-BX","2019/11/15 19:43:27","新北市板橋區文化路一段435巷31弄11號","121.466938333333","25.0228633333333","6500100","板橋區"
"220063","609-BX","2019/11/15 19:43:18","新北市板橋區中山路二段284號","121.47945","25.018785","6500100","板橋區"
"220057","686-BX","2019/11/15 19:43:31","新北市板橋區四川路二段59號","121.453526666667","24.9951966666667","6500100","板橋區"
"220077","687-BX","2019/11/15 19:43:27","新北市板橋區僑中二街104巷1號","121.445925","25.0078316666667","6500100","板橋區"
"220093","689-BX","2019/11/15 19:43:26","新北市板橋區長江路三段31號","121.472803333333","25.0338433333333","6500100","板橋區"
"220054","741-BX","2019/11/15 19:43:27","新北市板橋區忠孝路263號","121.466955","25.00294","6500100","板橋區"
"220102","KEA-2699","2019/11/15 19:43:14","新北市板橋區仁化街56號","121.475703333333","25.0315583333333","6500100","板橋區"
"220055","827-TW","2019/11/15 19:43:29","新北市板橋區國慶路149巷1弄2號","121.461263333333","24.9965516666667","6500100","板橋區"
"220067","829-TW","2019/11/15 19:43:11","新北市板橋區長安街140號","121.472683333333","25.010105","6500100","板橋區"
"220068","830-TW","2019/11/15 19:43:28","新北市板橋區中山路二段416巷47弄18號","121.483598333333","25.0194483333333","6500100","板橋區"
"220074","895-R6","2019/11/15 19:43:22","新北市板橋區大東街151巷9號","121.456513333333","25.00813","6500100","板橋區"
"220073","985-R7","2019/11/15 19:43:17","新北市板橋區國光路49巷15號","121.458856666667","25.0187666666667","6500100","板橋區"
"220097","AAC-210","2019/11/15 19:43:18","新北市板橋區文化路一段221巷10號","121.463266666667","25.01769","6500100","板橋區"
"220064","AAC-253","2019/11/15 19:43:14","新北市板橋區實踐路165號","121.464295","25.0038333333333","6500100","板橋區"
"235068","KEA-2873","2019/11/15 19:43:18","新北市中和區中山路二段136巷3弄8號","121.501138333333","25.003985","6500300","中和區"
"235061","KEA-2875","2019/11/15 19:43:19","新北市中和區民安街2巷35弄11號","121.479666666667","25.0016916666667","6500300","中和區"
