"lineid","car","time","location","longitude","latitude","cityid","cityname"
"234081","298-R6","2019/11/15 20:29:25","新北市永和區永貞路38號","121.520933333333","25.006545","6500400","永和區"
"234064","337-UY","2019/11/15 20:29:16","新北市永和區中正路417-1號","121.517121666667","25.0049266666667","6500400","永和區"
"234086","338-UY","2019/11/15 20:29:27","新北市永和區光復街32號","121.516563333333","25.017435","6500400","永和區"
"234070","552-UM","2019/11/15 20:29:23","新北市永和區永亨路7號","121.519425","25.0056883333333","6500400","永和區"
"234030","746-BX","2019/11/15 20:29:23","新北市新店區安民街65巷11號","121.515408333333","24.9664683333333","6500400","永和區"
"234054","KEA-2590","2019/11/15 20:29:27","新北市永和區環河東路一段76號","121.519553333333","25.0166416666667","6500400","永和區"
"234061","AAD-866","2019/11/15 20:29:31","新北市永和區安樂路194巷19號","121.515833333333","25.00094","6500400","永和區"
"234042","862-TW","2019/11/15 20:29:22","新北市永和區安樂路250號","121.514605","25.0036333333333","6500400","永和區"
"234050","863-TW","2019/11/15 20:29:26","新北市永和區新生路171號","121.507001666667","25.0145616666667","6500400","永和區"
"249001","173-UM","2019/11/15 20:29:29","新北市八里區下罟子1-16號","121.38978","25.14221","6502300","八里區"
"249004","303-UY","2019/11/15 20:29:20","新北市八里區中山路一段129巷33號","121.414056666667","25.1584833333333","6502300","八里區"
"249002","305-UY","2019/11/15 20:29:20","新北市八里區龍米路二段125巷23號","121.445805","25.1455083333333","6502300","八里區"
"249003","593-UM","2019/11/15 20:29:25","新北市八里區中山路二段339號","121.399848333333","25.147085","6502300","八里區"
"248002","678-BX","2019/11/15 20:29:19","新北市五股區成泰路三段45號","121.4426","25.0891516666667","6501500","五股區"
"234023","9380-KE","2019/11/15 20:29:23","新北市永和區博愛街32巷17-1號","121.518925","25.01529","6500400","永和區"
"234074","AAC-211","2019/11/15 20:29:17","新北市永和區竹林路119巷30弄9號","121.522581666667","25.0116416666667","6500400","永和區"
"234067","AAC-212","2019/11/15 20:29:21","新北市永和區保平路290號","121.508045","25.0044466666667","6500400","永和區"
"234003","AAC-295","2019/11/15 20:29:29","新北市永和區中正路616巷1號","121.517208333333","25.007695","6500400","永和區"
"243012","AAD-798","2019/11/15 20:29:21","新北市泰山區楓江路17號","121.43396","25.0623983333333","6501600","泰山區"
"243010","297-R6","2019/11/15 20:18:46","新北市泰山區明志路二段254巷18號","121.426061666667","25.0479083333333","6501600","泰山區"
"243014","KEA-2801","2019/11/15 20:29:26","新北市泰山區泰林路二段551號","121.42291","25.063605","6501600","泰山區"
"243016","421-VK","2019/11/15 20:29:17","新北市泰山區文程路19-1號","121.428208333333","25.0493933333333","6501600","泰山區"
"243009","KEA-2215","2019/11/15 20:29:23","新北市泰山區忠孝街41巷1號","121.42845","25.0654416666667","6501600","泰山區"
"243011","KEA-2216","2019/11/15 20:29:27","新北市泰山區明志路三段98號","121.425013333333","25.0410716666667","6501600","泰山區"
"243013","646-TV","2019/11/15 20:29:14","新北市泰山區中央路5巷46號","121.428335","25.0428083333333","6501600","泰山區"
"243015","680-BX","2019/11/15 20:29:32","新北市泰山區仁德路125號","121.432623333333","25.056085","6501600","泰山區"
"222003","436-BY","2019/11/15 20:29:16","新北市深坑區深坑街42號","121.614898333333","25.0016883333333","6501800","深坑區"
"222002","659-BX","2019/11/15 20:29:30","新北市深坑區萬福路69號","121.601478333333","25.0080166666667","6501800","深坑區"
"231061","002-UM","2019/11/15 20:29:20","新北市新店區安興路32號","121.515795","24.970375","6500600","新店區"
"231044","046-UY","2019/11/15 20:29:16","新北市新店區民族路6號","121.54178","24.9788433333333","6500600","新店區"
"231060","106-UY","2019/11/15 20:29:23","新北市新店區錦秀路11巷92弄2號","121.480286666667","24.9428133333333","6500600","新店區"
"231051","107-UY","2019/11/15 20:29:32","新北市新店區中央七街21號","121.529795","24.9751866666667","6500600","新店區"
"231049","108-UY","2019/11/15 20:29:23","新北市新店區永業路81巷1弄1號","121.529726666667","24.9493433333333","6500600","新店區"
"231065","110-UY","2019/11/15 20:29:28","新北市新店區安祥路102巷46弄23號","121.485413333333","24.9638083333333","6500600","新店區"
"231068","187-VK","2019/11/15 20:29:25","新北市新店區中興路三段230號","121.543351666667","24.98335","6500600","新店區"
"231062","256-BX","2019/11/15 20:29:11","新北市新店區安泰路7巷16號","121.485698333333","24.9509833333333","6500600","新店區"
"231054","260-TV","2019/11/15 20:29:14","新北市新店區檳榔路109號","121.544383333333","24.9616166666667","6500600","新店區"
"231042","268-BY","2019/11/15 20:29:16","新北市新店區寶橋路238號","121.551515","24.9789583333333","6500600","新店區"
"231064","278-BY","2019/11/15 20:29:21","新北市新店區新和街59巷17號","121.519333333333","24.9860216666667","6500600","新店區"
"231050","AAD-862","2019/11/15 20:29:12","新北市新店區建興街7號","121.539866666667","24.9764116666667","6500600","新店區"
"231045","355-BY","2019/11/15 20:29:16","新北市新店區新坡一街22號","121.548998333333","24.9619616666667","6500600","新店區"
"231058","3713-VJ","2019/11/15 20:29:16","新北市新店區中央路91號","121.53195","24.9760933333333","6500600","新店區"
"231055","4716-K9","2019/11/15 20:29:32","新北市新店區安康路一段355-10號","121.520645","24.9639283333333","6500600","新店區"
"231056","4715-K9","2019/11/15 20:29:25","新北市新店區中正路328巷42弄12號","121.538503333333","24.9759583333333","6500600","新店區"
"231067","4772-VM","2019/11/15 20:29:22","新北市新店區安華路28-1號","121.519578333333","24.9609483333333","6500600","新店區"
"231053","513-UM","2019/11/15 20:29:20","新北市新店區松林路36號","121.546213333333","24.9102616666667","6500600","新店區"
"231063","616-UM","2019/11/15 20:29:23","新北市新店區玫瑰路4-1號","121.493533333333","24.9514366666667","6500600","新店區"
"231041","619-UM","2019/11/15 20:29:13","新北市新店區中正路504號","121.533893333333","24.98272","6500600","新店區"
"231048","KED-0819","2019/11/15 20:29:16","新北市新店區寶慶街58巷21-1號","121.542003333333","24.9872633333333","6500600","新店區"
"231057","720-UM","2019/11/15 20:29:12","新北市新店區花園十路二段4號","121.556018333333","24.9331916666667","6500600","新店區"
"231059","897-TW","2019/11/15 20:29:26","新北市新店區安康路二段309-1號","121.501428333333","24.9570716666667","6500600","新店區"
"231040","898-TW","2019/11/15 20:29:18","新北市新店區三民路122號","121.534433333333","24.97442","6500600","新店區"
"231043","899-TW","2019/11/15 20:29:28","新北市新店區明德路67巷17號","121.540431666667","24.977065","6500600","新店區"
"231066","AKT-0513","2019/11/15 20:29:27","新北市新店區安興路69-1號","121.515656666667","24.9751933333333","6500600","新店區"
"241011","013-R5","2019/11/15 20:29:29","新北市三重區龍門路58號","121.496605","25.0725233333333","6500200","三重區"
"241028","022-UY","2019/11/15 20:29:28","新北市三重區光興街89號","121.497471666667","25.0599433333333","6500200","三重區"
"241008","059-VK","2019/11/15 20:29:25","新北市三重區下竹圍街42-1號","121.481005","25.0748916666667","6500200","三重區"
"241031","061-VK","2019/11/15 20:29:19","新北市三重區三寧街25號","121.489605","25.059795","6500200","三重區"
"241015","062-VK","2019/11/15 20:29:22","新北市三重區正義北路107巷68號","121.498651666667","25.0659816666667","6500200","三重區"
"241017","063-VK","2019/11/15 20:29:31","新北市三重區大智街142號","121.491961666667","25.0683833333333","6500200","三重區"
"241024","065-VK","2019/11/15 20:29:25","新北市三重區三民街247號","121.479533333333","25.0676033333333","6500200","三重區"
"241007","066-VK","2019/11/15 20:29:25","新北市三重區自強路四段14號","121.48848","25.076315","6500200","三重區"
"241002","090-VK","2019/11/15 20:29:20","新北市三重區仁義街211巷5號","121.497101666667","25.0819683333333","6500200","三重區"
"241003","091-VK","2019/11/15 20:29:15","新北市三重區富華街161號","121.493258333333","25.0849866666667","6500200","三重區"
"241032","742-BX","2019/11/15 20:29:12","新北市三重區重陽路一段120巷35號","121.485115","25.0601516666667","6500200","三重區"
"241006","262-UM","2019/11/15 20:29:18","新北市三重區車路頭街137號","121.484155","25.07615","6500200","三重區"
"241014","316-R6","2019/11/15 20:29:31","新北市三重區長興街99號","121.501805","25.0691033333333","6500200","三重區"
"241016","266-UM","2019/11/15 20:29:28","新北市三重區正義北路190巷11號","121.495923333333","25.0669116666667","6500200","三重區"
"241009","267-UM","2019/11/15 20:29:24","新北市三重區三和路四段406巷31號","121.480233333333","25.0795933333333","6500200","三重區"
"241018","268-UM","2019/11/15 20:29:17","新北市三重區正義北路210號","121.496073333333","25.06752","6500200","三重區"
"241013","270-UM","2019/11/15 20:29:30","新北市三重區三和路四段12號","121.491416666667","25.0740016666667","6500200","三重區"
"241025","271-UM","2019/11/15 20:29:25","新北市三重區頂崁街210巷23弄1號","121.475818333333","25.0681566666667","6500200","三重區"
"241030","KED-0822","2019/11/15 20:29:16","新北市三重區成功路75號","121.488735","25.0512316666667","6500200","三重區"
"241035","462-BY","2019/11/15 20:29:15","新北市三重區正義北路196號","121.496401666667","25.0670566666667","6500200","三重區"
"241004","475-VK","2019/11/15 20:29:22","新北市三重區溪尾街257號","121.487845","25.0818483333333","6500200","三重區"
"241020","478-VK","2019/11/15 20:29:14","新北市三重區忠孝路一段3號","121.492348333333","25.0717383333333","6500200","三重區"
"241026","480-VK","2019/11/15 20:29:23","新北市三重區福德南路24巷2-4號","121.503318333333","25.0632866666667","6500200","三重區"
"241023","545-UM","2019/11/15 20:29:13","新北市三重區自由街17巷1號","121.479898333333","25.066605","6500200","三重區"
"241001","547-UM","2019/11/15 20:29:32","新北市三重區三和路四段160巷89號","121.485363333333","25.07489","6500200","三重區"
"241033","557-UM","2019/11/15 20:29:22","新北市三重區神農街465號","121.474126666667","25.057845","6500200","三重區"
"241019","KEA-2593","2019/11/15 20:29:24","新北市三重區重陽路四段126巷22號","121.491871666667","25.07094","6500200","三重區"
"241012","743-BX","2019/11/15 20:29:17","新北市三重區龍濱路277號","121.501358333333","25.07328","6500200","三重區"
"241022","KED-0820","2019/11/15 20:29:11","新北市三重區中正北路20巷10號","121.48806","25.062605","6500200","三重區"
"241005","KED-0670","2019/11/15 20:29:16","新北市三重區五華街141巷15號","121.491633333333","25.0851133333333","6500200","三重區"
"241029","942-UM","2019/11/15 20:29:13","新北市三重區集美街112巷27號","121.490036666667","25.0542983333333","6500200","三重區"
"235055","183-VK","2019/11/15 20:29:15","新北市八里區中山路三段333號","121.377191666667","25.1408033333333","6500300","中和區"
"247016","KEA-2869","2019/11/15 20:29:18","新北市蘆洲區和平路208號","121.465795","25.0822016666667","6501400","蘆洲區"
"247010","KED-0682","2019/11/15 20:29:14","新北市蘆洲區民族路69號","121.479156666667","25.085845","6501400","蘆洲區"
"235050","4979-A6","2019/11/15 20:29:14","新北市中和區景新街133號","121.505866666667","24.9971783333333","6500300","中和區"
"235069","4980-A6","2019/11/15 20:29:20","新北市中和區中正路446號","121.490976666667","24.9943333333333","6500300","中和區"
"235059","AAC-215","2019/11/15 20:29:27","新北市中和區員山路66-3號","121.482083333333","24.9916383333333","6500300","中和區"
"247006","893-R6","2019/11/15 20:29:16","新北市蘆洲區光華路188號","121.464666666667","25.0818916666667","6501400","蘆洲區"
"247020","546-UM","2019/11/15 20:29:26","新北市蘆洲區仁愛街132號","121.469111666667","25.0944616666667","6501400","蘆洲區"
"247004","341-TH","2019/11/15 20:29:14","新北市蘆洲區長安街297號","121.45807","25.0848666666667","6501400","蘆洲區"
"247024","057-VK","2019/11/15 20:29:20","新北市蘆洲區光復路70巷25號","121.464818333333","25.0849316666667","6501400","蘆洲區"
"247014","056-VK","2019/11/15 20:29:16","新北市蘆洲區中山二路76號","121.473323333333","25.0820033333333","6501400","蘆洲區"
"247018","053-VK","2019/11/15 20:29:18","新北市蘆洲區民族路336巷28號","121.477575","25.0911016666667","6501400","蘆洲區"
"247022","007-UY","2019/11/15 20:29:30","新北市蘆洲區中正路217號","121.468213333333","25.0862933333333","6501400","蘆洲區"
"247008","002-UY","2019/11/15 20:29:25","新北市蘆洲區重陽街112號","121.48266","25.0853266666667","6501400","蘆洲區"
"247002","001-UY","2019/11/15 20:29:27","新北市蘆洲區長安街361巷32號","121.45579","25.0876233333333","6501400","蘆洲區"
"222001","KEA-2212","2019/11/15 20:29:29","新北市深坑區北深路三段272號","121.598283333333","25.004875","6501800","深坑區"
"251001","011-UM","2019/11/15 20:29:27","新北市淡水區新市一路三段5號","121.445205","25.1830283333333","6501000","淡水區"
"251008","181-VK","2019/11/15 20:29:13","新北市淡水區淡海路204號","121.420255","25.1855966666667","6501000","淡水區"
"251010","413-VK","2019/11/15 20:29:25","新北市淡水區沙崙路214號","121.42492","25.184025","6501000","淡水區"
"251012","441-VK","2019/11/15 20:29:13","新北市淡水區頂田寮路37號","121.455401666667","25.216325","6501000","淡水區"
"251006","561-UM","2019/11/15 20:29:21","新北市淡水區北新路一段3-2號","121.474895","25.18493","6501000","淡水區"
"251002","672-BX","2019/11/15 20:29:21","新北市淡水區中正路100號","121.442106666667","25.169615","6501000","淡水區"
"251003","766-UM","2019/11/15 20:29:17","新北市淡水區新民街21號","121.439401666667","25.1753283333333","6501000","淡水區"
"207004","291-VK","2019/11/15 20:29:21","新北市萬里區北基里忠五街14號","121.684373333333","25.1761433333333","6502800","萬里區"
"252002","178-VK","2019/11/15 20:29:16","新北市三芝區淡金路二段47-2號","121.503701666667","25.2605883333333","6502100","三芝區"
"247012","KED-0683","2019/11/15 20:29:27","新北市蘆洲區復興路292號","121.480936666667","25.0899716666667","6501400","蘆洲區"
"252001","KED-0821","2019/11/15 20:29:16","新北市三芝區中山路一段31號","121.500626666667","25.258075","6502100","三芝區"
"242041","AAC-296","2019/11/15 20:29:25","新北市新莊區天祥街56號","121.416518333333","25.029155","6500500","新莊區"
"242060","986-R7","2019/11/15 20:29:30","新北市新莊區民安路396巷3號","121.430893333333","25.0226316666667","6500500","新莊區"
"242005","751-BX","2019/11/15 20:29:22","新北市新莊區頭前路15巷2號","121.467873333333","25.05226","6500500","新莊區"
"242027","705-TV","2019/11/15 20:29:23","新北市新莊區幸福路556號","121.454746666667","25.049375","6500500","新莊區"
"242029","615-BX","2019/11/15 20:29:23","新北市新莊區中華路二段141號","121.452883333333","25.0508366666667","6500500","新莊區"
"242058","612-BX","2019/11/15 20:29:30","新北市新莊區四維路153號","121.422601666667","25.022005","6500500","新莊區"
"242048","566-BX","2019/11/15 20:29:19","新北市新莊區龍安路252-2號","121.421206666667","25.01939","6500500","新莊區"
"242054","497-BY","2019/11/15 20:29:28","新北市新莊區西盛街344巷4號","121.427765","25.0141666666667","6500500","新莊區"
"242002","441-UM","2019/11/15 20:29:30","新北市新莊區中正路11號","121.464095","25.0410883333333","6500500","新莊區"
"242044","415-TV","2019/11/15 20:29:17","新北市新莊區中正路新建巷55號","121.414756666667","25.0214616666667","6500500","新莊區"
"242013","413-TV","2019/11/15 20:29:17","新北市新莊區中平路270巷10弄3號","121.445478333333","25.0502216666667","6500500","新莊區"
"242050","400-BY","2019/11/15 20:29:26","新北市新莊區西盛街280巷18號","121.427383333333","25.015355","6500500","新莊區"
"242025","362-BY","2019/11/15 20:29:28","新北市新莊區五工二路50巷2號","121.461628333333","25.066","6500500","新莊區"
"242023","353-BY","2019/11/15 20:29:13","新北市新莊區化成路966號","121.464976666667","25.063345","6500500","新莊區"
"242015","132-UY","2019/11/15 20:29:27","新北市新莊區中平路52號","121.444768333333","25.044035","6500500","新莊區"
"242039","135-UY","2019/11/15 20:29:13","新北市新莊區民安路292號","121.427995","25.02178","6500500","新莊區"
"242056","172-VK","2019/11/15 20:29:15","新北市新莊區新莊路713巷1號","121.44369","25.0320216666667","6500500","新莊區"
"242017","173-VK","2019/11/15 20:29:33","新北市新莊區中港二街50號","121.45033","25.0460016666667","6500500","新莊區"
"242032","175-VK","2019/11/15 20:29:31","新北市新莊區義豐街25巷10號","121.440616666667","25.035395","6500500","新莊區"
"242007","346-TH","2019/11/15 20:29:24","新北市新莊區思源路331號","121.459795","25.0496566666667","6500500","新莊區"
"242021","347-TH","2019/11/15 20:29:33","新北市新莊區和興街25號","121.447265","25.0393883333333","6500500","新莊區"
"242037","348-TH","2019/11/15 20:29:33","新北市新莊區後港一路46巷4號","121.426135","25.0259216666667","6500500","新莊區"
"242009","349-TH","2019/11/15 20:29:28","新北市新莊區昌隆街58巷1弄12號","121.455475","25.0506083333333","6500500","新莊區"
"242034","350-TH","2019/11/15 20:29:21","新北市新莊區中正路210號","121.448925","25.03561","6500500","新莊區"
"242019","351-TH","2019/11/15 20:29:25","新北市新莊區銘德街49巷4弄2號","121.45731","25.0432083333333","6500500","新莊區"
"221008","489-VK","2019/11/15 20:29:17","新北市汐止區康寧街243號","121.624768333333","25.066855","6501100","汐止區"
"221015","131-UY","2019/11/15 20:29:26","新北市汐止區建成路160巷16號","121.661808333333","25.0739583333333","6501100","汐止區"
"221010","269-BY","2019/11/15 20:29:11","新北市汐止區八連路二段36巷14號","121.636363333333","25.09488","6501100","汐止區"
"221012","278-VK","2019/11/15 20:29:22","新北市汐止區汐平路二段66號","121.698583333333","25.0609466666667","6501100","汐止區"
"221023","279-VK","2019/11/15 20:29:26","新北市汐止區湖前街110巷2弄16號","121.632068333333","25.0718033333333","6501100","汐止區"
"221032","280-BY","2019/11/15 20:29:15","新北市汐止區弘道街53巷10號","121.618716666667","25.0488","6501100","汐止區"
"221027","281-BY","2019/11/15 20:29:31","新北市汐止區中正路214號","121.658285","25.068885","6501100","汐止區"
"221029","298-VK","2019/11/15 20:29:12","新北市汐止區樟樹一路129巷32號","121.64052","25.065095","6501100","汐止區"
"221021","299-VK","2019/11/15 20:29:31","新北市汐止區水源路一段282巷4號","121.653991666667","25.05832","6501100","汐止區"
"221031","353-TW","2019/11/15 20:29:18","新北市汐止區中興路150巷15號","121.633126666667","25.065105","6501100","汐止區"
"221035","622-UM","2019/11/15 20:29:26","新北市汐止區長江街97號","121.658156666667","25.0727583333333","6501100","汐止區"
"221025","623-UM","2019/11/15 20:29:21","新北市汐止區水源路二段86號","121.656496666667","25.0561033333333","6501100","汐止區"
"221038","646-BX","2019/11/15 20:29:17","新北市汐止區水源路一段56號","121.657346666667","25.0655033333333","6501100","汐止區"
"221033","647-BX","2019/11/15 20:29:18","新北市汐止區林森街73巷1號","121.623378333333","25.0408033333333","6501100","汐止區"
"221002","707-TV","2019/11/15 20:29:30","新北市汐止區福德二路45號","121.634358333333","25.0673183333333","6501100","汐止區"
"221018","753-BX","2019/11/15 20:25:25","新北市汐止區茄苳路225巷6號","121.671215","25.06902","6501100","汐止區"
"220083","286-VK","2019/11/15 20:29:31","新北市板橋區僑中二街102巷40號","121.444595","25.0084866666667","6500100","板橋區"
"220081","287-VK","2019/11/15 20:29:22","新北市板橋區僑中二街120巷2號","121.445531666667","25.005925","6500100","板橋區"
"242046","281-VK","2019/11/15 20:29:30","新北市新莊區裕民街72巷19號","121.417836666667","25.02434","6500500","新莊區"
"242011","280-VK","2019/11/15 20:29:34","新北市新莊區中港路442號","121.451835","25.0512133333333","6500500","新莊區"
"220054","741-BX","2019/11/15 20:29:07","新北市板橋區大觀路三段59巷17弄5-1號","121.4349","24.9952983333333","6500100","板橋區"
