"lineid","car","time","location","longitude","latitude","cityid","cityname"
"232001","076-UY","2019/12/12 07:59:50","新北市坪林區下坑子口6-15號","121.711453333333","24.9434766666667","6502000","坪林區"
"232010","375-UM","2019/12/12 07:59:38","新北市坪林區厚德岡坑8-5號","121.733168333333","24.9409433333333","6502000","坪林區"
"232014","705-BZ","2019/12/12 07:59:40","新北市坪林區金瓜寮34-1號","121.677796666667","24.906915","6502000","坪林區"
"244006","080-UY","2019/12/12 07:59:51","新北市林口區粉寮路二段40號","121.403406666667","25.0868183333333","6501700","林口區"
"244003","248-BX","2019/12/12 07:59:43","新北市林口區嘉溪雅坑5-4號","121.350075","25.0997033333333","6501700","林口區"
"244012","KEA-2802","2019/12/12 07:59:52","新北市林口區粉寮69號","121.404761666667","25.0908216666667","6501700","林口區"
"244022","483-VK","2019/12/12 07:59:46","新北市林口區粉寮路二段26號","121.402883333333","25.0863666666667","6501700","林口區"
"244024","837-TS","2019/12/12 07:59:38","新北市林口區粉寮路二段14號","121.401723333333","25.0853966666667","6501700","林口區"
"222006","289-BY","2019/12/12 07:59:43","新北市深坑區文化街45號","121.616953333333","25.0017383333333","6501800","深坑區"
"231008","192-VK","2019/12/12 07:59:38","新北市新店區北宜路一段224號","121.544528333333","24.9530833333333","6500600","新店區"
"235044","293-VK","2019/12/12 07:59:55","新北市中和區和平街65號","121.505918333333","24.991635","6500300","中和區"
"223003","205-TH","2019/12/12 07:59:38","新北市石碇區樟空子10-3號","121.666676666667","24.9639666666667","6501900","石碇區"
"223001","592-UM","2019/12/12 07:59:54","新北市石碇區樟空子10-2號","121.666956666667","24.962155","6501900","石碇區"
"223004","660-BX","2019/12/12 07:59:35","新北市深坑區文山路一段8號","121.643796666667","25.0086633333333","6501900","石碇區"
"223007","661-BX","2019/12/12 07:42:03","新北市石碇區靜安路一段337號","121.698895","25.0144333333333","6501900","石碇區"
"224009","275-VK","2019/12/12 07:59:43","新北市瑞芳區民權街3-1號","121.809361666667","25.10834","6501200","瑞芳區"
"227005","030-BX","2019/12/12 07:59:56","新北市雙溪區平林里梅竹蹊16號","121.862015","25.0359533333333","6502500","雙溪區"
"252004","249-BX","2019/12/12 07:59:51","新北市三芝區店子里菜公坑81號","121.512978333333","25.2019716666667","6502100","三芝區"
"252007","AAC-283","2019/12/12 07:59:38","新北市三芝區海景一街44號","121.475428333333","25.24666","6502100","三芝區"
"237013","760-BX","2019/12/12 07:59:52","新北市三峽區有木248號","121.426515","24.8595783333333","6500900","三峽區"
"242059","986-R7","2019/12/12 07:59:55","新北市新莊區瓊林路59-38號","121.441113333333","25.0234383333333","6500500","新莊區"
"242003","751-BX","2019/12/12 07:59:51","新北市新莊區中港路293號","121.452861666667","25.044135","6500500","新莊區"
"242028","615-BX","2019/12/12 07:59:58","新北市新莊區復興路二段194號","121.459278333333","25.0444116666667","6500500","新莊區"
"242026","613-BX","2019/12/12 07:59:45","新北市新莊區思源路79號","121.460025","25.041035","6500500","新莊區"
"242057","612-BX","2019/12/12 07:59:55","新北市新莊區中正路400號","121.44155","25.0339","6500500","新莊區"
"242047","566-BX","2019/12/12 07:59:40","新北市新莊區四維路210號","121.421378333333","25.0200783333333","6500500","新莊區"
"242052","497-BY","2019/12/12 07:59:44","新北市新莊區瓊林南路305巷7號","121.434898333333","25.0053816666667","6500500","新莊區"
"242040","442-UM","2019/12/12 07:59:53","新北市新莊區新樹路113巷25號","121.439481666667","25.0264016666667","6500500","新莊區"
"242038","441-UM","2019/12/12 07:59:57","新北市新莊區民安東路35號","121.428741666667","25.0209166666667","6500500","新莊區"
"242043","415-TV","2019/12/12 07:59:44","新北市新莊區富國路101-1號","121.421346666667","25.0255383333333","6500500","新莊區"
"242012","413-TV","2019/12/12 07:59:41","新北市新莊區中和街110號","121.447596666667","25.0470466666667","6500500","新莊區"
"242049","400-BY","2019/12/12 07:59:39","新北市新莊區新樹路449巷23號","121.434833333333","25.0143516666667","6500500","新莊區"
"242024","362-BY","2019/12/12 07:59:50","新北市新莊區中港路281號","121.453148333333","25.0438366666667","6500500","新莊區"
"242022","353-BY","2019/12/12 07:59:53","新北市新莊區公園路154號","121.453243333333","25.0401366666667","6500500","新莊區"
"242014","132-UY","2019/12/12 07:59:48","新北市新莊區新泰路156號","121.447661666667","25.037435","6500500","新莊區"
"242055","172-VK","2019/12/12 07:59:39","新北市新莊區景德路223號","121.449","25.0337033333333","6500500","新莊區"
"242016","173-VK","2019/12/12 07:59:51","新北市新莊區中華路一段103號","121.45273","25.04393","6500500","新莊區"
"242030","175-VK","2019/12/12 07:59:50","新北市新莊區新泰路413巷5號","121.44318","25.044395","6500500","新莊區"
"242020","KED-0687","2019/12/12 07:59:36","新北市新莊區中正路138號","121.452188333333","25.03619","6500500","新莊區"
"242006","346-TH","2019/12/12 07:59:49","新北市新莊區自信街42號","121.45469","25.0482233333333","6500500","新莊區"
"242001","347-TH","2019/12/12 07:59:41","新北市新莊區利濟街18號","121.45297","25.033425","6500500","新莊區"
"242035","348-TH","2019/12/12 07:59:57","新北市新莊區建國二路5-3號","121.434841666667","25.02367","6500500","新莊區"
"242008","349-TH","2019/12/12 07:59:52","新北市新莊區昌德街167號","121.453491666667","25.054675","6500500","新莊區"
"242033","350-TH","2019/12/12 07:59:51","新北市新莊區新莊路376號","121.449251666667","25.03345","6500500","新莊區"
"242018","351-TH","2019/12/12 07:59:37","新北市新莊區中港路37號","121.455216666667","25.0377333333333","6500500","新莊區"
"242045","281-VK","2019/12/12 07:59:52","新北市新莊區新樹路16-1號","121.439295","25.0307866666667","6500500","新莊區"
"242010","280-VK","2019/12/12 07:59:51","新北市新莊區中港路487號","121.452115","25.0498966666667","6500500","新莊區"
