"lineid","car","time","location","longitude","latitude","cityid","cityname"
"232001","076-UY","2019/12/12 08:29:10","新北市坪林區虎寮潭1-3號","121.741923333333","24.953445","6502000","坪林區"
"244006","080-UY","2019/12/12 08:29:11","新北市林口區林口路230號","121.386705","25.0839966666667","6501700","林口區"
"244003","248-BX","2019/12/12 08:29:23","新北市林口區下福20號","121.311795","25.1112033333333","6501700","林口區"
"244012","KEA-2802","2019/12/12 08:29:12","新北市林口區中山路42號","121.395398333333","25.07839","6501700","林口區"
"244022","483-VK","2019/12/12 08:29:26","新北市林口區東明一街36號","121.392616666667","25.0723783333333","6501700","林口區"
"244016","485-VK","2019/12/12 08:29:24","新北市林口區文化二路一段260巷10號","121.371035","25.0730416666667","6501700","林口區"
"244008","657-BX","2019/12/12 08:29:22","新北市林口區寶林路93號","121.384328333333","25.0849733333333","6501700","林口區"
"244010","701-TV","2019/12/12 08:29:14","新北市林口區中正路285號","121.389681666667","25.0777133333333","6501700","林口區"
"244024","837-TS","2019/12/12 08:29:20","新北市林口區文化三路一段125號","121.361393333333","25.0690716666667","6501700","林口區"
"244020","838-TS","2019/12/12 08:29:11","","121.398993333333","25.0771883333333","6501700","林口區"
"222006","289-BY","2019/12/12 08:29:23","新北市深坑區萬福路181號","121.61592","25.0152583333333","6501800","深坑區"
"231069","189-VK","2019/12/12 08:29:26","新北市新店區新潭路一段100-3號","121.527038333333","24.9380266666667","6500600","新店區"
"231008","192-VK","2019/12/12 08:29:18","新北市新店區新烏路三段165巷60號","121.553866666667","24.90126","6500600","新店區"
"223003","205-TH","2019/12/12 08:29:18","新北市石碇區北宜路六段塗潭巷21號","121.650803333333","24.9338283333333","6501900","石碇區"
"223008","406-TH","2019/12/12 08:29:23","新北市石碇區串空湖2號","121.670765","25.001465","6501900","石碇區"
"223001","592-UM","2019/12/12 08:29:14","新北市石碇區北宜路六段塗潭巷52號","121.652156666667","24.9350066666667","6501900","石碇區"
"223004","660-BX","2019/12/12 08:29:15","新北市石碇區碇坪路一段152號","121.66044","24.9910866666667","6501900","石碇區"
"223007","661-BX","2019/12/12 08:29:27","新北市石碇區靜安路一段128號","121.66184","25.00738","6501900","石碇區"
"223005","677-TV","2019/12/12 08:29:23","新北市石碇區湳窟19-1號","121.660433333333","24.99121","6501900","石碇區"
"224009","275-VK","2019/12/12 08:29:23","新北市瑞芳區汽車路116號","121.839976666667","25.1102466666667","6501200","瑞芳區"
"252004","249-BX","2019/12/12 08:29:11","新北市三芝區興華里車埕9-1號","121.502893333333","25.1995116666667","6502100","三芝區"
"252007","AAC-283","2019/12/12 08:29:18","新北市三芝區後厝里番社后38號","121.472346666667","25.2427383333333","6502100","三芝區"
"237013","760-BX","2019/12/12 08:29:12","新北市三峽區插角212-2號","121.421863333333","24.869235","6500900","三峽區"
"242059","986-R7","2019/12/12 08:29:15","新北市新莊區新樹路457號","121.432693333333","25.0132283333333","6500500","新莊區"
"242003","751-BX","2019/12/12 08:29:13","新北市新莊區福樂街80巷22號","121.45882","25.046695","6500500","新莊區"
"242028","615-BX","2019/12/12 08:29:18","新北市新莊區中平路202-1號","121.444721666667","25.0488033333333","6500500","新莊區"
"242026","613-BX","2019/12/12 08:29:25","新北市新莊區思源路345號","121.459811666667","25.0501316666667","6500500","新莊區"
"242057","612-BX","2019/12/12 08:29:07","新北市新莊區壽山路160巷21號","121.417408333333","25.0318916666667","6500500","新莊區"
"242047","566-BX","2019/12/12 08:29:22","新北市新莊區萬安街47巷22號","121.42244","25.0242433333333","6500500","新莊區"
"242052","497-BY","2019/12/12 08:29:24","新北市新莊區民安西路468-1號","121.431663333333","25.0078233333333","6500500","新莊區"
"242040","442-UM","2019/12/12 08:29:13","新北市新莊區壽山路31號","121.420005","25.0290016666667","6500500","新莊區"
"242038","441-UM","2019/12/12 08:29:17","新北市新莊區民安西路38巷14號","121.426678333333","25.0206383333333","6500500","新莊區"
"242043","415-TV","2019/12/12 08:29:24","新北市新莊區雙鳳路123號","121.413273333333","25.0280183333333","6500500","新莊區"
"242012","413-TV","2019/12/12 08:29:21","新北市新莊區中和街125巷5號","121.447021666667","25.04857","6500500","新莊區"
"242049","400-BY","2019/12/12 08:29:21","新北市新莊區民本街43巷19號","121.429036666667","25.0183533333333","6500500","新莊區"
"242024","362-BY","2019/12/12 08:29:17","新北市新莊區新北大道二段340號","121.463006666667","25.0610283333333","6500500","新莊區"
"242022","353-BY","2019/12/12 08:29:16","新北市新莊區幸福路18號","121.458993333333","25.0494666666667","6500500","新莊區"
"242014","132-UY","2019/12/12 08:29:21","新北市新莊區中平路129巷15號","121.444088333333","25.047015","6500500","新莊區"
"242055","172-VK","2019/12/12 08:29:19","新北市新莊區豐年街124巷3號","121.446156666667","25.02981","6500500","新莊區"
"242016","173-VK","2019/12/12 08:29:11","新北市新莊區永樂街111號","121.450071666667","25.0447916666667","6500500","新莊區"
"242030","175-VK","2019/12/12 08:29:10","新北市新莊區新泰路289巷48號","121.44337","25.040375","6500500","新莊區"
"242020","KED-0687","2019/12/12 08:29:16","新北市新莊區建興街87號","121.449895","25.03883","6500500","新莊區"
"242006","346-TH","2019/12/12 08:29:20","新北市新莊區自強街37巷9號","121.453986666667","25.0465016666667","6500500","新莊區"
"242001","347-TH","2019/12/12 08:29:21","新北市新莊區新莊路2號","121.45939","25.0379833333333","6500500","新莊區"
"242035","348-TH","2019/12/12 08:29:17","新北市新莊區建福路48巷5號","121.426015","25.0275","6500500","新莊區"
"242008","349-TH","2019/12/12 08:29:12","","121.452205","25.05402","6500500","新莊區"
"242033","350-TH","2019/12/12 08:29:19","新北市新莊區福海街24巷7號","121.44582","25.0341233333333","6500500","新莊區"
"242018","351-TH","2019/12/12 08:29:17","新北市新莊區明中街49巷16號","121.456613333333","25.03909","6500500","新莊區"
"244018","KED-0667","2019/12/12 08:29:19","新北市林口區文化二路一段382號","121.374408333333","25.0766516666667","6501700","林口區"
"233003","KEA-2870","2019/12/12 08:29:10","新北市烏來區瀑布33號","121.550305","24.8483816666667","6502900","烏來區"
"242045","281-VK","2019/12/12 08:29:14","新北市新莊區福營路165巷19號","121.432531666667","25.0306","6500500","新莊區"
"242010","280-VK","2019/12/12 08:29:11","新北市新莊區中信街94巷12號","121.448435","25.053645","6500500","新莊區"
