"lineid","car","time","location","longitude","latitude","cityid","cityname"
"244022","483-VK","2019/12/12 10:29:26","新北市林口區仁愛二路66號","121.370111666667","25.0746966666667","6501700","林口區"
"222006","289-BY","2019/12/12 10:29:23","新北市深坑區大崙腳8-1號","121.619895","24.991805","6501800","深坑區"
"231069","189-VK","2019/12/12 10:29:26","新北市新店區新潭路一段120巷27號","121.526785","24.935175","6500600","新店區"
"231008","192-VK","2019/12/12 10:28:18","新北市新店區成功路50巷15號","121.539713333333","24.9000616666667","6500600","新店區"
"252007","AAC-283","2019/12/12 10:29:18","新北市三芝區新庄里番社后3號","121.501871666667","25.26629","6502100","三芝區"
