"lineid","car","time","location","longitude","latitude","cityid","cityname"
"234044","148-BY","2019/12/12 12:43:19","新北市永和區永元路40巷31號","121.523145","25.0006433333333","6500400","永和區"
"234078","298-R6","2019/12/12 12:43:21","新北市永和區林森路81號","121.52393","25.0039066666667","6500400","永和區"
"234036","336-UY","2019/12/12 12:43:32","新北市永和區福和路1號","121.526591666667","25.0099933333333","6500400","永和區"
"234062","337-UY","2019/12/12 12:43:24","新北市永和區福和路1號","121.526505","25.0100333333333","6500400","永和區"
"234084","338-UY","2019/12/12 12:43:15","新北市中和區安樂路69-1號","121.512455","24.993975","6500400","永和區"
"234068","552-UM","2019/12/12 12:43:26","新北市永和區福和路1號","121.525328333333","25.0094316666667","6500400","永和區"
"234015","745-BX","2019/12/12 12:43:31","新北市永和區環河東路二段50號","121.523208333333","25.0119233333333","6500400","永和區"
"234028","746-BX","2019/12/12 12:43:16","新北市永和區得和路336號","121.52345","24.9995283333333","6500400","永和區"
"234052","KEA-2590","2019/12/12 12:43:16","新北市永和區福和路1號","121.526446666667","25.0096433333333","6500400","永和區"
"234005","KED-0605","2019/12/12 12:43:24","新北市永和區竹林路91巷60弄70號","121.523113333333","25.0121583333333","6500400","永和區"
"234013","KEA-2591","2019/12/12 12:43:19","新北市永和區保福路二段105號","121.510158333333","25.0133433333333","6500400","永和區"
"234060","AAD-866","2019/12/12 12:43:28","新北市永和區環河東路二段92號","121.524425","25.0106366666667","6500400","永和區"
"234040","862-TW","2019/12/12 12:43:14","新北市永和區中和路625號","121.51297","25.0049833333333","6500400","永和區"
"234025","9371-KE","2019/12/12 12:43:20","新北市永和區豫溪街185號","121.522483333333","25.0103633333333","6500400","永和區"
"234010","9373-KE","2019/12/12 12:43:27","新北市永和區保生路55-8號","121.504048333333","25.0105366666667","6500400","永和區"
"248009","272-BY","2019/12/12 12:43:27","新北市五股區中興路二段57-6號","121.46046","25.0753616666667","6501500","五股區"
"234022","9380-KE","2019/12/12 12:43:21","新北市永和區豫溪街191巷2號","121.523768333333","25.01037","6500400","永和區"
"234076","969-R7","2019/12/12 12:43:27","新北市中和區安樂路101-2號","121.513458333333","24.9949833333333","6500400","永和區"
"234066","AAC-212","2019/12/12 12:43:19","新北市永和區中和路605號","121.512545","25.0044766666667","6500400","永和區"
"234001","AAC-295","2019/12/12 12:43:24","新北市永和區豫溪街217巷1號","121.525261666667","25.00974","6500400","永和區"
"231004","047-UY","2019/12/12 12:43:24","新北市新店區安華路28-1號","121.519183333333","24.960875","6500600","新店區"
"231036","110-UY","2019/12/12 12:43:26","新北市新店區安一路一段1-1號","121.519345","24.961145","6500600","新店區"
"231003","268-BY","2019/12/12 12:43:23","新北市新店區安一路一段1-1號","121.519623333333","24.9613366666667","6500600","新店區"
"231035","278-BY","2019/12/12 12:43:27","新北市新店區安一路一段1-1號","121.519871666667","24.9611083333333","6500600","新店區"
"231011","KED-0819","2019/12/12 12:43:23","新北市新店區安華路28-1號","121.520171666667","24.9610266666667","6500600","新店區"
"231010","719-UM","2019/12/12 12:43:27","新北市新店區安一路一段1-1號","121.519481666667","24.9611616666667","6500600","新店區"
"231026","720-UM","2019/12/12 12:43:15","新北市新店區安華路28-1號","121.51928","24.9609533333333","6500600","新店區"
"235031","255-BX","2019/12/12 12:43:20","新北市中和區新生街42號","121.483221666667","25.0034333333333","6500300","中和區"
"235005","802-TS","2019/12/12 12:43:25","新北市中和區和城路一段271巷1號","121.485463333333","24.9917483333333","6500300","中和區"
"223001","592-UM","2019/12/12 12:43:19","新北市新店區安華路3號","121.519428333333","24.96003","6501900","石碇區"
"228005","097-TW","2019/12/12 12:43:23","新北市貢寮區福連里馬崗街37-1號","122.003323333333","25.0100116666667","6502600","貢寮區"
"228004","212-TW","2019/12/12 12:43:22","新北市貢寮區吉林里枋腳街42-6號","121.888751666667","24.9993833333333","6502600","貢寮區"
"207002","749-BX","2019/12/12 12:43:20","新北市萬里區雙興里太和路11-1號","121.65628","25.173845","6502800","萬里區"
"207001","662-BX","2019/12/12 12:43:27","新北市萬里區萬里里獅頭路15-2號","121.694728333333","25.1794633333333","6502800","萬里區"
