"lineid","car","time","location","longitude","latitude","cityid","cityname"
"234044","148-BY","2019/12/12 14:13:33","新北市永和區得和路408號","121.525756666667","24.9991433333333","6500400","永和區"
"234078","298-R6","2019/12/12 14:13:21","新北市永和區國中路109巷3弄2號","121.523863333333","25.0055133333333","6500400","永和區"
"234036","336-UY","2019/12/12 14:13:32","新北市永和區環河東路三段96號","121.528093333333","25.004065","6500400","永和區"
"234062","337-UY","2019/12/12 14:13:29","新北市永和區得和路271號","121.521786666667","24.9998283333333","6500400","永和區"
"234084","338-UY","2019/12/12 14:13:35","新北市永和區福和路95號","121.522108333333","25.00782","6500400","永和區"
"234068","552-UM","2019/12/12 14:13:26","新北市永和區福和路183巷2弄1號","121.51997","25.0071283333333","6500400","永和區"
"234015","745-BX","2019/12/12 14:13:31","新北市永和區仁愛路97號","121.512881666667","25.0130666666667","6500400","永和區"
"234028","746-BX","2019/12/12 14:13:36","新北市永和區民權路84號","121.519851666667","24.996985","6500400","永和區"
"234052","KEA-2590","2019/12/12 14:13:16","新北市永和區博愛街15號","121.517191666667","25.0158433333333","6500400","永和區"
"234005","KED-0605","2019/12/12 14:13:24","新北市中和區南工路56號","121.505988333333","25.0015383333333","6500400","永和區"
"234012","KEA-2591","2019/12/12 14:13:19","新北市永和區永貞路375號","121.508381666667","25.0082633333333","6500400","永和區"
"234060","AAD-866","2019/12/12 14:13:32","新北市永和區安樂路100巷2號","121.514506666667","24.9991233333333","6500400","永和區"
"234040","862-TW","2019/12/12 14:13:33","新北市永和區雙和街1號","121.509868333333","25.0016166666667","6500400","永和區"
"234048","863-TW","2019/12/12 14:13:18","新北市永和區環河西路二段105號","121.506405","25.0147266666667","6500400","永和區"
"234025","9371-KE","2019/12/12 14:13:20","新北市永和區安樂路198巷4弄2號","121.51556","25.0019716666667","6500400","永和區"
"248007","KED-0815","2019/12/12 14:13:35","新北市五股區中興路二段63巷17號","121.460336666667","25.0753783333333","6501500","五股區"
"248017","KED-0813","2019/12/12 14:13:15","新北市五股區民義路一段255-5號","121.426236666667","25.0916933333333","6501500","五股區"
"248011","247-BX","2019/12/12 14:13:25","新北市五股區工商路67號","121.438896666667","25.0844916666667","6501500","五股區"
"248009","272-BY","2019/12/12 14:13:27","新北市五股區水碓一路23號","121.430553333333","25.0712883333333","6501500","五股區"
"248003","677-BX","2019/12/12 14:13:30","新北市五股區五福路18號","121.43429","25.0887283333333","6501500","五股區"
"248001","682-TV","2019/12/12 14:13:21","新北市五股區成泰路三段577巷16號","121.451733333333","25.1028166666667","6501500","五股區"
"234022","9380-KE","2019/12/12 14:13:22","","121.518916666667","25.015145","6500400","永和區"
"234076","969-R7","2019/12/12 14:13:27","新北市永和區民有街75巷8號","121.51833","24.996175","6500400","永和區"
"234072","AAC-211","2019/12/12 14:13:33","新北市永和區豫溪街217巷27號","121.524353333333","25.0101816666667","6500400","永和區"
"234066","AAC-212","2019/12/12 14:13:24","新北市永和區保平路246-1號","121.509061666667","25.0052566666667","6500400","永和區"
"234001","AAC-295","2019/12/12 14:13:24","新北市永和區中正路577巷9號","121.515978333333","25.0087466666667","6500400","永和區"
"244003","248-BX","2019/12/12 14:13:29","新北市林口區太平里11鄰38號","121.360065","25.1318566666667","6501700","林口區"
"243004","AAD-798","2019/12/12 14:13:36","新北市泰山區辭修路10-1號","121.430163333333","25.0576966666667","6501600","泰山區"
"243002","297-R6","2019/12/12 14:13:23","新北市泰山區明志路一段456號","121.430456666667","25.0556516666667","6501600","泰山區"
"243006","KEA-2801","2019/12/12 14:13:28","新北市泰山區泰林路二段318號","121.430453333333","25.0629766666667","6501600","泰山區"
"243008","421-VK","2019/12/12 14:13:19","新北市泰山區明志路三段44號","121.42492","25.04243","6501600","泰山區"
"243001","KEA-2215","2019/12/12 14:13:23","新北市泰山區和平街9號","121.434055","25.0646366666667","6501600","泰山區"
"243003","KEA-2216","2019/12/12 14:13:18","新北市泰山區明志路二段331號","121.42566","25.04487","6501600","泰山區"
"243005","646-TV","2019/12/12 14:13:33","新北市泰山區台麗街9號","121.424386666667","25.03837","6501600","泰山區"
"243007","680-BX","2019/12/12 14:13:20","新北市泰山區明志路一段452號","121.430731666667","25.0559066666667","6501600","泰山區"
"231030","002-UM","2019/12/12 14:13:16","新北市新店區安民街65巷21-2號","121.515211666667","24.96752","6500600","新店區"
"231005","046-UY","2019/12/12 14:13:30","新北市新店區中興路三段249號","121.542641666667","24.9841983333333","6500600","新店區"
"231004","047-UY","2019/12/12 14:13:34","新北市新店區北新路二段106-1號","121.54295","24.974025","6500600","新店區"
"231029","106-UY","2019/12/12 14:13:29","新北市新店區安康路二段204號","121.510241666667","24.95959","6500600","新店區"
"231018","107-UY","2019/12/12 14:13:14","新北市新店區中央四街41號","121.528171666667","24.9749283333333","6500600","新店區"
"231013","108-UY","2019/12/12 14:13:25","新北市新店區北新路三段65巷7號","121.541225","24.981035","6500600","新店區"
"231036","110-UY","2019/12/12 14:13:26","新北市新店區安祥路109巷29號","121.476393333333","24.9593416666667","6500600","新店區"
"231017","KEA-2219","2019/12/12 14:13:17","新北市新店區中生路148-1號","121.570113333333","24.9482816666667","6500600","新店區"
"231031","256-BX","2019/12/12 14:13:19","新北市新店區太平路44號","121.532901666667","24.9593566666667","6500600","新店區"
"231003","268-BY","2019/12/12 14:13:23","新北市新店區中興路一段171號","121.542678333333","24.964495","6500600","新店區"
"231035","278-BY","2019/12/12 14:13:27","新北市新店區安和路二段115號","121.518638333333","24.9704466666667","6500600","新店區"
"231006","355-BY","2019/12/12 14:13:20","新北市新店區北宜路二段271號","121.554736666667","24.9535583333333","6500600","新店區"
"231038","3712-VJ","2019/12/12 14:13:24","新北市新店區溪洲路55號","121.533563333333","24.9606283333333","6500600","新店區"
"231027","3713-VJ","2019/12/12 14:05:02","新北市新店區中興路一段26號","121.538856666667","24.95814","6500600","新店區"
"231025","4715-K9","2019/12/12 14:13:21","新北市新店區自立街26號","121.538615","24.9783566666667","6500600","新店區"
"231023","515-UM","2019/12/12 14:13:20","新北市新店區文中路40號","121.539726666667","24.956605","6500600","新店區"
"231002","619-UM","2019/12/12 14:13:25","新北市新店區中正路485號","121.53397","24.981955","6500600","新店區"
"231034","641-BX","2019/12/12 14:13:20","新北市新店區車子路11號","121.503088333333","24.95203","6500600","新店區"
"231011","KED-0819","2019/12/12 14:13:23","新北市新店區中興路一段260號","121.544755","24.96713","6500600","新店區"
"231021","718-UY","2019/12/12 14:13:35","新北市新店區屈尺路75號","121.545856666667","24.922655","6500600","新店區"
"231054","719-UY","2019/12/12 14:13:23","新北市新店區薏仁坑路自強巷6號","121.496398333333","24.9584366666667","6500600","新店區"
"231028","897-TW","2019/12/12 14:13:32","新北市新店區安和路二段240號","121.516591666667","24.9785566666667","6500600","新店區"
"231001","898-TW","2019/12/12 14:13:32","新北市新店區中華路36號","121.540028333333","24.96803","6500600","新店區"
"231037","AKT-0513","2019/12/12 14:13:31","新北市新店區安康路三段148號","121.490475","24.9517983333333","6500600","新店區"
"235030","003-UY","2019/12/12 14:13:22","新北市中和區廣福路96號","121.50257","25.0013883333333","6500300","中和區"
"235028","005-UY","2019/12/12 14:13:26","新北市中和區南山路127巷34弄2號","121.504231666667","24.9977166666667","6500300","中和區"
"235027","006-UY","2019/12/12 14:13:29","新北市中和區連城路226號","121.48955","24.9964533333333","6500300","中和區"
"235020","096-UM","2019/12/12 14:13:30","新北市中和區中正路1161號","121.48192","25.0089516666667","6500300","中和區"
"235003","097-UM","2019/12/12 14:13:34","新北市中和區秀峰街119巷8弄1號","121.519378333333","24.9898","6500300","中和區"
"235029","098-UM","2019/12/12 14:13:22","新北市中和區中山路二段64巷12弄17號","121.50422","25.0056283333333","6500300","中和區"
"235004","150-BY","2019/12/12 14:13:25","新北市中和區保健路106巷20弄7號","121.511306666667","24.9949566666667","6500300","中和區"
"235022","151-BY","2019/12/12 14:13:27","新北市中和區和城路一段271巷1號","121.485515","24.9920516666667","6500300","中和區"
"235019","183-VK","2019/12/12 14:13:31","新北市中和區莒光路5號","121.471931666667","25.00604","6500300","中和區"
"235002","185-VK","2019/12/12 14:13:33","新北市中和區大仁街11號","121.517681666667","24.99272","6500300","中和區"
"235031","255-BX","2019/12/12 14:13:20","新北市中和區連城路284號","121.484293333333","24.9963183333333","6500300","中和區"
"235008","293-VK","2019/12/12 14:13:23","新北市中和區中興街222-5號","121.500635","24.9895533333333","6500300","中和區"
"235036","301-VK","2019/12/12 14:13:35","新北市中和區福美路305號","121.497073333333","25.0047816666667","6500300","中和區"
"235007","352-BY","2019/12/12 14:13:35","新北市中和區景平路296號","121.513001666667","24.9928","6500300","中和區"
"235006","KEA-2878","2019/12/12 14:13:29","新北市中和區大勇街60巷4號","121.518455","24.9946766666667","6500300","中和區"
"247015","KEA-2869","2019/12/12 14:13:27","新北市蘆洲區光華路48號","121.468713333333","25.08307","6501400","蘆洲區"
"247009","KED-0682","2019/12/12 14:13:24","新北市蘆洲區信義路225號","121.479198333333","25.083785","6501400","蘆洲區"
"235014","4979-A6","2019/12/12 14:13:32","新北市中和區景安路208巷31號","121.502348333333","24.9922833333333","6500300","中和區"
"235033","4980-A6","2019/12/12 14:13:13","新北市中和區福美路232號","121.499016666667","25.005305","6500300","中和區"
"235032","551-UM","2019/12/12 14:13:26","新北市中和區景平路493巷2弄2號","121.499551666667","24.9974033333333","6500300","中和區"
"235034","558-UM","2019/12/12 14:13:28","新北市中和區連城路60-1號","121.497793333333","25.00169","6500300","中和區"
"235009","565-BX","2019/12/12 14:13:13","新北市中和區景新街383巷30號","121.513543333333","24.9905666666667","6500300","中和區"
"235024","KED-0823","2019/12/12 14:13:18","新北市中和區新生街114巷3號","121.48332","25.0023533333333","6500300","中和區"
"235018","640-BX","2019/12/12 14:13:35","新北市中和區國光街112巷22弄3號","121.46981","25.0024016666667","6500300","中和區"
"235035","647-TV","2019/12/12 14:13:21","新北市中和區立德街98巷12號","121.487635","25.008475","6500300","中和區"
"235011","732-UM","2019/12/12 14:13:26","新北市中和區和平街54巷1弄2號","121.508715","24.9910683333333","6500300","中和區"
"235010","733-UM","2019/12/12 14:13:21","新北市中和區華新街182號","121.507245","24.9822","6500300","中和區"
"235026","800-TS","2019/12/12 14:13:25","新北市中和區中山路二段414號","121.48986","25.003955","6500300","中和區"
"235021","801-TS","2019/12/12 14:13:32","新北市中和區員山路473號","121.480236666667","25.0048883333333","6500300","中和區"
"235005","802-TS","2019/12/12 14:13:25","新北市中和區中安街192號","121.51142","24.9992316666667","6500300","中和區"
"235016","805-TS","2019/12/12 14:13:26","新北市中和區興南路二段142巷25弄4號","121.503018333333","24.9838416666667","6500300","中和區"
"235012","896-TW","2019/12/12 14:13:34","新北市中和區華新街109巷32號","121.508635","24.98015","6500300","中和區"
"235017","900-TW","2019/12/12 14:13:30","新北市中和區華安街21巷9號","121.467433333333","24.997745","6500300","中和區"
"235015","157-BY","2019/12/12 14:13:30","新北市中和區和平街38巷24號","121.509625","24.9912633333333","6500300","中和區"
"235001","AAC-213","2019/12/12 14:13:21","新北市中和區自立路15巷4號","121.522753333333","24.9960333333333","6500300","中和區"
"235023","AAC-215","2019/12/12 14:13:32","新北市中和區圓通路286巷24號","121.49197","24.9913833333333","6500300","中和區"
"220002","015-TV","2019/12/12 14:13:34","新北市板橋區重慶路76巷33號","121.460963333333","25.0061783333333","6500100","板橋區"
"220034","073-UY","2019/12/12 14:13:15","新北市板橋區中正路236巷39號","121.45752","25.01938","6500100","板橋區"
"220105","075-UY","2019/12/12 14:13:34","新北市板橋區江寧路三段85巷14號","121.472313333333","25.0331833333333","6500100","板橋區"
"220017","AAD-861","2019/12/12 14:13:24","新北市板橋區貴興路49號","121.457271666667","25.0032316666667","6500100","板橋區"
"247005","893-R6","2019/12/12 14:13:32","新北市蘆洲區九芎街15巷6號","121.468043333333","25.0781416666667","6501400","蘆洲區"
"247021","341-TH","2019/12/12 14:13:15","新北市蘆洲區三民路130號","121.470828333333","25.0875066666667","6501400","蘆洲區"
"247003","336-TH","2019/12/12 14:13:30","新北市蘆洲區長安街138號","121.46024","25.0820266666667","6501400","蘆洲區"
"247023","057-VK","2019/12/12 14:13:21","新北市蘆洲區長榮路500號","121.459466666667","25.0897216666667","6501400","蘆洲區"
"247013","056-VK","2019/12/12 14:13:30","新北市蘆洲區三民路147號","121.471723333333","25.0867716666667","6501400","蘆洲區"
"247017","053-VK","2019/12/12 14:13:25","新北市蘆洲區復興路178號","121.477803333333","25.0884916666667","6501400","蘆洲區"
"247007","002-UY","2019/12/12 14:13:17","新北市蘆洲區中山一路257號","121.472863333333","25.08023","6501400","蘆洲區"
"247001","001-UY","2019/12/12 14:13:17","新北市蘆洲區長榮路518號","121.459538333333","25.0901433333333","6501400","蘆洲區"
"235013","251-BX","2019/12/12 14:13:28","新北市中和區景新街228-6號","121.508165","24.9941516666667","6500300","中和區"
"228005","097-TW","2019/12/12 14:13:22","新北市貢寮區美豐里土地公嶺6號","121.895101666667","25.0599116666667","6502600","貢寮區"
"228004","212-TW","2019/12/12 14:13:22","新北市貢寮區雙玉里下雙溪街10-3號","121.915478333333","25.013645","6502600","貢寮區"
"253003","6232-TK","2019/12/12 14:13:29","新北市石門區內石門62號","121.578005","25.2658083333333","6502200","石門區"
"253004","6251-TK","2019/12/12 14:13:26","新北市石門區坪林50號","121.588426666667","25.2689233333333","6502200","石門區"
"253002","637-UY","2019/12/12 14:13:21","新北市石門區七股26號","121.551511666667","25.2669933333333","6502200","石門區"
"253001","KEC-0718","2019/12/12 14:13:18","新北市石門區八甲27-1號","121.52837","25.27782","6502200","石門區"
"207002","749-BX","2019/12/12 14:13:19","新北市萬里區溪底里瑞泉路13號","121.604471666667","25.1452266666667","6502800","萬里區"
"252005","073-UM","2019/12/12 14:13:29","新北市三芝區橫山里橫山52號","121.533423333333","25.2563","6502100","三芝區"
"207001","662-BX","2019/12/12 14:13:25","新北市萬里區磺潭里清水18號","121.637878333333","25.1976816666667","6502800","萬里區"
"236040","KED-0685","2019/12/12 14:13:31","新北市土城區裕生路71號","121.44716","24.98478","6501300","土城區"
"236074","166-UM","2019/12/12 14:13:17","新北市土城區永寧路11號","121.430511666667","24.964115","6501300","土城區"
"236029","253-BX","2019/12/12 14:13:22","新北市土城區中央路二段99號","121.442113333333","24.9778516666667","6501300","土城區"
"236024","269-VK","2019/12/12 14:13:18","新北市土城區承天路67號","121.439493333333","24.963555","6501300","土城區"
"236012","270-VK","2019/12/12 14:13:34","新北市土城區青雲路39巷7號","121.460316666667","24.9876","6501300","土城區"
"236032","271-VK","2019/12/12 14:13:20","新北市土城區青雲路449-1號","121.458948333333","24.9747583333333","6501300","土城區"
"247011","KED-0683","2019/12/12 14:13:33","新北市蘆洲區信義路351巷18號","121.4768","25.0868566666667","6501400","蘆洲區"
"236068","KEA-2877","2019/12/12 14:13:22","新北市土城區明德路一段128巷9號","121.463223333333","24.9789916666667","6501300","土城區"
"236017","401-BY","2019/12/12 14:13:28","新北市土城區明德路一段385-1號","121.452533333333","24.9796566666667","6501300","土城區"
"236057","912-UM","2019/12/12 14:13:18","新北市土城區中央路四段270號","121.414626666667","24.95664","6501300","土城區"
"236045","913-UM","2019/12/12 14:13:34","新北市土城區明德路一段365-1號","121.453565","24.979045","6501300","土城區"
"236060","915-UM","2019/12/12 14:13:27","新北市土城區明德路一段295號","121.46003","24.977225","6501300","土城區"
"236054","AAC-216","2019/12/12 14:13:22","新北市土城區中華路二段92號","121.438225","24.9747783333333","6501300","土城區"
"238006","571-TV","2019/12/12 14:03:12","新北市樹林區育德街78號","121.387523333333","24.9683883333333","6500700","樹林區"
"220027","145-BY","2019/12/12 14:13:22","新北市板橋區民權路202巷1弄2號","121.459508333333","25.0142033333333","6500100","板橋區"
"220028","200-UY","2019/12/12 14:13:34","新北市板橋區大觀路二段3巷2號","121.447255","25.0037916666667","6500100","板橋區"
"220030","610-BX","2019/12/12 14:13:35","新北市板橋區溪崑二街15-3號","121.428956666667","24.9917033333333","6500100","板橋區"
"220050","245-BX","2019/12/12 14:13:22","新北市板橋區莊敬路25巷22號","121.474466666667","25.0273666666667","6500100","板橋區"
"220004","276-BY","2019/12/12 14:13:28","新北市板橋區信義路150巷16號","121.458215","24.9917933333333","6500100","板橋區"
"220020","277-BY","2019/12/12 14:13:28","新北市板橋區金門街344巷3號","121.427783333333","24.9847183333333","6500100","板橋區"
"220043","283-UM","2019/12/12 14:13:22","新北市板橋區光武街110巷16號","121.466706666667","25.0297166666667","6500100","板橋區"
"220019","283-VK","2019/12/12 14:13:20","新北市板橋區重慶路245巷50弄28-5號","121.465193333333","24.9999083333333","6500100","板橋區"
"220001","285-VK","2019/12/12 14:13:24","新北市板橋區富山街53巷30號","121.47755","25.0210533333333","6500100","板橋區"
"220031","286-VK","2019/12/12 14:13:31","新北市板橋區大觀路二段174巷186弄11號","121.443031666667","25.003455","6500100","板橋區"
"220029","287-VK","2019/12/12 14:13:33","新北市板橋區南雅西路二段156巷2號","121.451791666667","25.0134083333333","6500100","板橋區"
"220039","288-VK","2019/12/12 14:13:29","新北市板橋區長江路一段106巷20弄11號","121.460153333333","25.0282366666667","6500100","板橋區"
"220009","293-UM","2019/12/12 14:13:23","新北市板橋區中山路二段275號","121.477845","25.0178266666667","6500100","板橋區"
"220041","295-UM","2019/12/12 14:13:22","新北市板橋區文化路二段125巷11號","121.469328333333","25.02667","6500100","板橋區"
"220032","296-UM","2019/12/12 14:13:31","新北市板橋區溪崑二街56巷35號","121.427878333333","24.991245","6500100","板橋區"
"220023","303-R5","2019/12/12 14:13:16","新北市板橋區西門街18-5號","121.454408333333","25.0111983333333","6500100","板橋區"
"220010","305-R5","2019/12/12 14:13:25","新北市板橋區三民路二段居仁巷2弄23號","121.479938333333","25.0129983333333","6500100","板橋區"
"220047","317-R6","2019/12/12 14:13:20","新北市板橋區四維路103巷9號","121.465061666667","25.024265","6500100","板橋區"
"220013","461-BY","2019/12/12 14:13:23","新北市板橋區民族路219巷75號","121.468776666667","25.0089616666667","6500100","板橋區"
"220038","487-VK","2019/12/12 14:13:29","新北市板橋區公館街134號","121.461391666667","25.0184716666667","6500100","板橋區"
"220037","491-VK","2019/12/12 14:13:29","新北市板橋區文化路二段182巷3弄24號","121.472028333333","25.0279733333333","6500100","板橋區"
"220104","560-BX","2019/12/12 14:13:29","新北市板橋區中正路381號","121.454081666667","25.021515","6500100","板橋區"
"220052","561-BX","2019/12/12 14:13:16","新北市板橋區文化路一段270巷2號","121.46748","25.0205283333333","6500100","板橋區"
"220011","609-BX","2019/12/12 14:13:35","新北市板橋區三民路二段203-7號","121.479096666667","25.0134516666667","6500100","板橋區"
"220040","637-BX","2019/12/12 14:13:31","新北市板橋區縣民大道三段187巷16號","121.47916","25.02522","6500100","板橋區"
"220005","686-BX","2019/12/12 14:13:28","新北市板橋區和平路161巷22號","121.46332","24.9966433333333","6500100","板橋區"
"220025","687-BX","2019/12/12 14:13:20","新北市板橋區龍興街65巷2號","121.443633333333","25.00153","6500100","板橋區"
"220042","689-BX","2019/12/12 14:13:22","新北市板橋區英士路51號","121.460991666667","25.0244916666667","6500100","板橋區"
"220051","KEA-2699","2019/12/12 14:13:19","新北市板橋區松柏街15巷9-3號","121.474016666667","25.030045","6500100","板橋區"
"220003","827-TW","2019/12/12 14:13:32","新北市板橋區新民街6巷6號","121.46465","25.0103083333333","6500100","板橋區"
"220014","829-TW","2019/12/12 14:13:25","新北市板橋區中山路二段90巷43弄17號","121.477","25.0152383333333","6500100","板橋區"
"220016","830-TW","2019/12/12 14:13:31","新北市板橋區三民路一段1巷49號","121.480725","25.0248566666667","6500100","板橋區"
"220022","895-R6","2019/12/12 14:13:15","新北市板橋區茶館街41號","121.455956666667","25.0102833333333","6500100","板橋區"
"220021","985-R7","2019/12/12 14:13:25","新北市板橋區中正路189號","121.456448333333","25.0169","6500100","板橋區"
"220046","AAC-210","2019/12/12 14:13:20","新北市板橋區新海路135巷5號","121.460566666667","25.0232416666667","6500100","板橋區"
"220012","AAC-253","2019/12/12 14:13:24","新北市板橋區縣民大道二段1號","121.46193","25.011525","6500100","板橋區"
"235025","KEA-2875","2019/12/12 14:13:14","新北市中和區民利街69號","121.47876","24.9982433333333","6500300","中和區"
