"lineid","car","time","location","longitude","latitude","cityid","cityname"
"231030","002-UM","2019/12/12 15:59:31","新北市新店區永平街34號","121.516233333333","24.9839916666667","6500600","新店區"
"231018","107-UY","2019/12/12 15:59:34","新北市新店區中正路675號","121.533993333333","24.9901983333333","6500600","新店區"
"231013","108-UY","2019/12/12 15:59:25","新北市新店區安康路二段243號","121.508023333333","24.9584916666667","6500600","新店區"
"231017","KEA-2219","2019/12/12 15:59:17","新北市新店區中華路147號","121.538453333333","24.970625","6500600","新店區"
"231031","256-BX","2019/12/12 15:59:19","新北市新店區雙城路43巷2號","121.49239","24.948485","6500600","新店區"
"231003","268-BY","2019/12/12 15:59:22","新北市新店區中興路二段239號","121.547298333333","24.9755983333333","6500600","新店區"
"231035","278-BY","2019/12/12 15:59:27","新北市新店區安民街115巷28號","121.515231666667","24.9676766666667","6500600","新店區"
"231034","641-BX","2019/12/12 15:59:20","新北市新店區玫瑰路53巷2號","121.495865","24.947025","6500600","新店區"
"231021","718-UY","2019/12/12 15:59:35","新北市新店區新烏路一段87巷19-2號","121.547316666667","24.9421883333333","6500600","新店區"
"231046","719-UM","2019/12/12 15:59:28","新北市新店區安華路28-1號","121.519835","24.9610516666667","6500600","新店區"
"231026","720-UM","2019/12/12 15:59:23","新北市新店區民生路45-1號","121.53194","24.98534","6500600","新店區"
"241011","013-R5","2019/12/12 15:59:24","新北市三重區雙園街1巷8號","121.497123333333","25.0683633333333","6500200","三重區"
"241028","022-UY","2019/12/12 15:59:31","新北市三重區大同南路134巷34號","121.498103333333","25.0584683333333","6500200","三重區"
"241008","059-VK","2019/12/12 15:59:22","新北市三重區捷運路36號","121.482928333333","25.0551483333333","6500200","三重區"
"241017","063-VK","2019/12/12 15:59:17","新北市三重區大仁街48巷51號","121.490565","25.064375","6500200","三重區"
"241024","065-VK","2019/12/12 15:59:36","新北市三重區力行路一段38巷29號","121.485363333333","25.0670766666667","6500200","三重區"
"241007","066-VK","2019/12/12 15:59:22","新北市三重區力行路二段151號","121.483641666667","25.0775916666667","6500200","三重區"
"241026","742-BX","2019/12/12 15:59:32","新北市三重區重新路三段14號","121.49519","25.0612883333333","6500200","三重區"
"241016","266-UM","2019/12/12 15:59:36","新北市三重區捷運路36號","121.483016666667","25.0547983333333","6500200","三重區"
"241018","268-UM","2019/12/12 15:59:23","新北市三重區大仁街20號","121.49141","25.0635083333333","6500200","三重區"
"241013","270-UM","2019/12/12 15:59:22","新北市三重區文化北路234號","121.497326666667","25.06947","6500200","三重區"
"241014","543-UM","2019/12/12 15:59:36","新北市三重區重新路四段121號","121.485148333333","25.0520416666667","6500200","三重區"
"241023","545-UM","2019/12/12 15:59:27","新北市三重區中正北路188號","121.482981666667","25.0671266666667","6500200","三重區"
"241001","547-UM","2019/12/12 15:59:33","新北市三重區自強路三段93號","121.487423333333","25.0748766666667","6500200","三重區"
"241005","AAD-863","2019/12/12 15:59:21","新北市三重區河邊北街303號","121.502856666667","25.07464","6500200","三重區"
"241012","743-BX","2019/12/12 15:59:23","新北市三重區文化北路118巷51號","121.497476666667","25.0662283333333","6500200","三重區"
"241022","KED-0820","2019/12/12 15:59:32","新北市三重區中正北路170號","121.484126666667","25.0663833333333","6500200","三重區"
"241025","KED-0670","2019/12/12 15:59:29","新北市三重區三民街206號","121.48105","25.0662416666667","6500200","三重區"
"241029","942-UM","2019/12/12 15:59:34","新北市三重區正義南路165號","121.498788333333","25.0574466666667","6500200","三重區"
"241033","AAC-255","2019/12/12 15:59:26","新北市三重區重新路五段486巷9號","121.474543333333","25.0464466666667","6500200","三重區"
"235019","183-VK","2019/12/12 15:57:51","新北市八里區荖阡坑路34-2號","121.400761666667","25.1308583333333","6500300","中和區"
"235036","301-VK","2019/12/12 15:59:34","新北市林口區太平里180號","121.366546666667","25.134595","6500300","中和區"
"235026","800-TS","2019/12/12 15:59:25","新北市中和區立業路61巷3弄18號","121.493273333333","25.0062916666667","6500300","中和區"
"224007","285-BY","2019/12/12 15:59:22","新北市瑞芳區楓子瀨路2號","121.774458333333","25.10614","6501200","瑞芳區"
"224005","271-BY","2019/12/12 15:49:19","新北市瑞芳區明燈路二段66號","121.809325","25.1075166666667","6501200","瑞芳區"
"227002","642-TC","2019/12/12 15:59:36","新北市雙溪區上林里內平林19-1號","121.834426666667","25.0319183333333","6502500","雙溪區"
"227001","400-TW","2019/12/12 15:59:28","新北市雙溪區三港里雙澳路75號","121.883558333333","25.0539483333333","6502500","雙溪區"
"251013","182-VK","2019/12/12 15:59:20","新北市淡水區中正路二段31號","121.419545","25.18151","6501000","淡水區"
"236074","166-UM","2019/12/12 15:59:35","新北市土城區福安街27號","121.419526666667","24.9648466666667","6501300","土城區"
"252002","KED-0821","2019/12/12 15:59:18","新北市三芝區埔坪里埔頭坑41號","121.504636666667","25.264465","6502100","三芝區"
"236057","912-UM","2019/12/12 15:59:18","新北市土城區中央路二段191號","121.44206","24.9755033333333","6501300","土城區"
"238002","755-BX","2019/12/12 15:59:20","新北市樹林區文化街112巷31號","121.417186666667","24.990685","6500700","樹林區"
"238010","601-UM","2019/12/12 15:59:22","新北市樹林區三福街67巷21號","121.407431666667","25.0153483333333","6500700","樹林區"
"238006","571-TV","2019/12/12 15:59:27","新北市樹林區國凱街112號","121.421993333333","24.97968","6500700","樹林區"
"238011","5061-A6","2019/12/12 15:59:26","新北市樹林區中山路三段22號","121.395751666667","24.972995","6500700","樹林區"
"238005","KEA-2217","2019/12/12 15:59:30","新北市樹林區博愛街121巷14-6號","121.426183333333","24.9909333333333","6500700","樹林區"
"238009","KEA-2213","2019/12/12 15:59:34","新北市樹林區太平路174巷29弄1號","121.41765","24.976545","6500700","樹林區"
"238012","303-VK","2019/12/12 15:59:34","新北市樹林區保安二街84巷1號","121.423213333333","24.9954783333333","6500700","樹林區"
"238004","283-BY","2019/12/12 15:59:27","新北市樹林區中正路433-2號","121.414966666667","25.0081483333333","6500700","樹林區"
"238001","282-BY","2019/12/12 15:59:37","新北市樹林區千歲街68號","121.426208333333","24.9973866666667","6500700","樹林區"
"238007","268-VK","2019/12/12 15:59:18","新北市樹林區三俊街175號","121.419453333333","25.015615","6500700","樹林區"
"238013","172-UY","2019/12/12 15:59:25","新北市樹林區佳園路一段80巷2號","121.393253333333","24.969755","6500700","樹林區"
"238003","169-UY","2019/12/12 15:59:35","新北市樹林區文化街23號","121.41928","24.987565","6500700","樹林區"
"220023","303-R5","2019/12/12 15:59:36","新北市土城區福安街12巷8號","121.419621666667","24.9659416666667","6500100","板橋區"
