"lineid","car","time","location","longitude","latitude","cityid","cityname"
"249005","172-UM","2019/12/12 17:13:29","新北市八里區華富山15號","121.417651666667","25.134815","6502300","八里區"
"249001","173-UM","2019/12/12 17:13:25","新北市八里區中華路二段165巷1-2號","121.408273333333","25.1505716666667","6502300","八里區"
"249004","303-UY","2019/12/12 17:13:24","新北市八里區文化街39號","121.423501666667","25.1598333333333","6502300","八里區"
"249002","305-UY","2019/12/12 17:13:36","新北市八里區龍米路二段147巷1號","121.443456666667","25.1493633333333","6502300","八里區"
"249003","593-UM","2019/12/12 17:13:26","新北市八里區中山路二段576號","121.396958333333","25.146075","6502300","八里區"
"244007","080-UY","2019/12/12 17:13:36","新北市林口區菁埔25-8號","121.377056666667","25.0964933333333","6501700","林口區"
"244023","483-VK","2019/12/12 17:13:36","新北市林口區仁愛路一段649號","121.388355","25.0760733333333","6501700","林口區"
"244017","485-VK","2019/12/12 17:13:21","新北市林口區粉寮路二段221號","121.40417","25.0906083333333","6501700","林口區"
"244009","657-BX","2019/12/12 17:13:39","新北市林口區松柏路82號","121.37879","25.09034","6501700","林口區"
"244011","701-TV","2019/12/12 17:13:25","新北市林口區粉寮路一段66號","121.39694","25.0787466666667","6501700","林口區"
"244025","837-TS","2019/12/12 17:13:35","新北市林口區四維路110號","121.376895","25.0783883333333","6501700","林口區"
"244021","838-TS","2019/12/12 17:13:23","新北市林口區東林里4鄰64號","121.404715","25.0904383333333","6501700","林口區"
"231046","719-UM","2019/12/12 17:13:29","新北市新店區直潭一街1號","121.534546666667","24.9450616666667","6500600","新店區"
"241011","013-R5","2019/12/12 17:13:24","新北市三重區長榮路111號","121.503371666667","25.06927","6500200","三重區"
"241028","022-UY","2019/12/12 17:13:30","新北市三重區仁化商場4號","121.493541666667","25.0595016666667","6500200","三重區"
"241008","059-VK","2019/12/12 17:13:22","新北市三重區下竹圍街42-1號","121.481075","25.07475","6500200","三重區"
"241015","062-VK","2019/12/12 17:13:37","新北市三重區福德北路82-1號","121.501771666667","25.066245","6500200","三重區"
"241017","063-VK","2019/12/12 17:13:37","新北市三重區大同北路91號","121.494625","25.0636516666667","6500200","三重區"
"241024","065-VK","2019/12/12 17:13:35","新北市三重區大勇街82巷26弄41號","121.478193333333","25.0719216666667","6500200","三重區"
"241007","066-VK","2019/12/12 17:13:22","新北市三重區三和路四段163巷11號","121.483766666667","25.07872","6500200","三重區"
"241002","090-VK","2019/12/12 17:13:40","新北市三重區自強路五段11-1號","121.492655","25.0804216666667","6500200","三重區"
"241003","091-VK","2019/12/12 17:13:33","新北市三重區富福街65號","121.492185","25.0845783333333","6500200","三重區"
"241026","742-BX","2019/12/12 17:13:32","新北市三重區重新路二段36巷16號","121.499726666667","25.0624666666667","6500200","三重區"
"241006","262-UM","2019/12/12 17:13:31","新北市三重區車路頭街135-1號","121.484266666667","25.0759083333333","6500200","三重區"
"241016","266-UM","2019/12/12 17:13:36","新北市三重區大同北路54巷1號","121.494256666667","25.06356","6500200","三重區"
"241009","267-UM","2019/12/12 17:13:29","新北市三重區仁愛街700號","121.48132","25.0799916666667","6500200","三重區"
"241018","268-UM","2019/12/12 17:13:23","新北市三重區六張街87號","121.492843333333","25.0699766666667","6500200","三重區"
"241032","269-UM","2019/12/12 17:13:33","新北市三重區興華街110號","121.483796666667","25.059745","6500200","三重區"
"241013","270-UM","2019/12/12 17:13:22","新北市三重區三和路三段107巷25號","121.495213333333","25.0730966666667","6500200","三重區"
"241024","KEA-2210","2019/12/12 17:13:30","","121.478691666667","25.06938","6500200","三重區"
"241030","KED-0822","2019/12/12 17:13:40","新北市三重區集成路36號","121.488835","25.0524633333333","6500200","三重區"
"241004","475-VK","2019/12/12 17:13:27","新北市三重區五華街122巷25號","121.490931666667","25.08266","6500200","三重區"
"241020","478-VK","2019/12/12 17:13:27","新北市三重區自強路三段71號","121.486988333333","25.07351","6500200","三重區"
"241014","543-UM","2019/12/12 17:13:36","","121.502293333333","25.07017","6500200","三重區"
"241023","545-UM","2019/12/12 17:13:27","新北市三重區三民街188號","121.481863333333","25.065755","6500200","三重區"
"241001","547-UM","2019/12/12 17:13:33","新北市三重區仁愛街255巷73號","121.494866666667","25.0792383333333","6500200","三重區"
"241019","KEA-2593","2019/12/12 17:13:40","新北市三重區力行路一段181號","121.484358333333","25.0694883333333","6500200","三重區"
"241005","AAD-863","2019/12/12 17:13:21","新北市三重區永安北路二段33號","121.482416666667","25.0822733333333","6500200","三重區"
"241012","743-BX","2019/12/12 17:13:23","新北市三重區仁信街2號","121.501653333333","25.0756433333333","6500200","三重區"
"241022","KED-0820","2019/12/12 17:13:32","新北市三重區中正北路118巷11號","121.485126666667","25.06462","6500200","三重區"
"241025","KED-0670","2019/12/12 17:13:29","新北市三重區中正北路443-1號","121.470081666667","25.0722033333333","6500200","三重區"
"241029","942-UM","2019/12/12 17:13:30","新北市三重區重新路三段150號","121.490725","25.059405","6500200","三重區"
"241033","AAC-255","2019/12/12 17:13:26","新北市三重區中興北街243號","121.46907","25.059085","6500200","三重區"
"247016","KEA-2869","2019/12/12 17:13:19","新北市蘆洲區光華路72號","121.467981666667","25.0827","6501400","蘆洲區"
"247010","KED-0682","2019/12/12 17:13:35","新北市蘆洲區鷺江街9號","121.479313333333","25.08261","6501400","蘆洲區"
"247006","893-R6","2019/12/12 17:13:26","新北市蘆洲區長安街108巷12號","121.461648333333","25.082175","6501400","蘆洲區"
"247020","546-UM","2019/12/12 17:13:36","新北市蘆洲區仁愛街18號","121.47231","25.0927516666667","6501400","蘆洲區"
"247022","341-TH","2019/12/12 17:13:33","新北市蘆洲區民義街9巷13號","121.47068","25.0891966666667","6501400","蘆洲區"
"247004","336-TH","2019/12/12 17:13:30","新北市蘆洲區長安街207巷18號","121.459385","25.0819","6501400","蘆洲區"
"247024","057-VK","2019/12/12 17:13:36","新北市蘆洲區九芎街90巷35-1號","121.464236666667","25.0818816666667","6501400","蘆洲區"
"247014","056-VK","2019/12/12 17:13:21","新北市蘆洲區成功路148號","121.471895","25.0833033333333","6501400","蘆洲區"
"247018","053-VK","2019/12/12 17:13:21","新北市蘆洲區復興路110號","121.476021666667","25.087165","6501400","蘆洲區"
"247008","002-UY","2019/12/12 17:13:36","新北市蘆洲區信義路30巷131號","121.475318333333","25.076725","6501400","蘆洲區"
"247002","001-UY","2019/12/12 17:13:28","新北市蘆洲區永樂街38巷19弄6號","121.457715","25.0891166666667","6501400","蘆洲區"
"228003","097-TW","2019/12/12 17:13:25","新北市貢寮區福隆里東興街58號","121.948281666667","25.0176883333333","6502600","貢寮區"
"228001","212-TW","2019/12/12 17:13:30","新北市貢寮區仁理村尖山腳街18-3號","121.925513333333","25.0483166666667","6502600","貢寮區"
"228002","663-BX","2019/12/12 17:13:31","新北市貢寮區龍崗里嵩陽街38號","121.909701666667","25.0167466666667","6502600","貢寮區"
"224006","676-BX","2019/12/12 17:13:26","新北市瑞芳區大寮路63巷8號","121.778985","25.094655","6501200","瑞芳區"
"224009","275-VK","2019/12/12 17:13:34","新北市瑞芳區街頂巷36號","121.84354","25.1104666666667","6501200","瑞芳區"
"224008","273-VK","2019/12/12 17:13:28","新北市瑞芳區柴寮路261號","121.826835","25.086075","6501200","瑞芳區"
"224005","271-BY","2019/12/12 17:13:40","新北市瑞芳區鼻頭路247號","121.912683333333","25.1238466666667","6501200","瑞芳區"
"227002","642-TC","2019/12/12 17:13:36","新北市雙溪區平林里梅竹蹊61號","121.850068333333","25.0318566666667","6502500","雙溪區"
"251009","008-UM","2019/12/12 17:13:26","新北市淡水區中正路298號","121.43743","25.172155","6501000","淡水區"
"251004","009-UM","2019/12/12 17:08:26","","121.459051666667","25.1504883333333","6501000","淡水區"
"251005","010-UM","2019/12/12 17:13:33","新北市淡水區鄧公路12-2號","121.450228333333","25.16992","6501000","淡水區"
"251015","KEA-2871","2019/12/12 17:13:31","新北市淡水區鄧公路34號","121.457595","25.1688916666667","6501000","淡水區"
"251016","180-VK","2019/12/12 17:13:35","新北市淡水區鄒厝崙1-13號","121.47125","25.187815","6501000","淡水區"
"251008","181-VK","2019/12/12 17:13:32","新北市淡水區民生路169號","121.469646666667","25.1420783333333","6501000","淡水區"
"251013","182-VK","2019/12/12 17:13:20","新北市淡水區大埤頭9-1號","121.481878333333","25.1945516666667","6501000","淡水區"
"251012","441-VK","2019/12/12 17:13:30","新北市淡水區中山北路一段158號","121.44419","25.1779","6501000","淡水區"
"251007","442-VK","2019/12/12 17:13:31","新北市淡水區民生路58號","121.462073333333","25.1378916666667","6501000","淡水區"
"251006","561-UM","2019/12/12 17:13:29","新北市淡水區真理街6號","121.438423333333","25.1745033333333","6501000","淡水區"
"251011","650-BX","2019/12/12 17:13:37","新北市淡水區坪頂路50號","121.457973333333","25.1625666666667","6501000","淡水區"
"251003","673-BX","2019/12/12 17:13:32","新北市淡水區中正路二段31號","121.419581666667","25.181605","6501000","淡水區"
"251014","178-VK","2019/12/12 17:13:33","新北市淡水區八里堆12號","121.46221","25.224895","6501000","淡水區"
"252001","292-VK","2019/12/12 17:13:21","新北市三芝區埔頭里埔頭15-4號","121.495713333333","25.2598983333333","6502100","三芝區"
"247012","KED-0683","2019/12/12 17:13:33","新北市蘆洲區民族路153巷11號","121.479165","25.087465","6501400","蘆洲區"
"252002","KED-0821","2019/12/12 17:13:22","新北市三芝區忠孝街1-14號","121.505503333333","25.2539283333333","6502100","三芝區"
"242061","986-R7","2019/12/12 17:13:29","新北市新莊區新泰路357巷3弄57號","121.442193333333","25.039335","6500500","新莊區"
"242004","751-BX","2019/12/12 17:13:30","新北市新莊區新泰路255巷83號","121.442258333333","25.0388016666667","6500500","新莊區"
"242029","615-BX","2019/12/12 17:13:29","新北市新莊區幸福路914號","121.442466666667","25.0488183333333","6500500","新莊區"
"242027","613-BX","2019/12/12 17:13:36","新北市新莊區幸福路914號","121.442423333333","25.0486583333333","6500500","新莊區"
"242058","612-BX","2019/12/12 17:13:31","新北市新莊區新泰路357巷3弄57號","121.442006666667","25.0394583333333","6500500","新莊區"
"242048","566-BX","2019/12/12 17:13:37","新北市新莊區中正路506號","121.435751666667","25.0328333333333","6500500","新莊區"
"242053","497-BY","2019/12/12 17:13:34","新北市新莊區新樹路67巷1號","121.442143333333","25.030115","6500500","新莊區"
"242042","442-UM","2019/12/12 17:13:36","新北市新莊區三和路10號","121.441921666667","25.0358066666667","6500500","新莊區"
"242039","441-UM","2019/12/12 17:13:33","新北市新莊區中正路386號","121.441885","25.034815","6500500","新莊區"
"242044","415-TV","2019/12/12 17:13:19","新北市新莊區中正路461號","121.442046666667","25.03414","6500500","新莊區"
"242013","413-TV","2019/12/12 17:13:27","新北市新莊區新泰路357巷3弄57號","121.442053333333","25.0395066666667","6500500","新莊區"
"242051","400-BY","2019/12/12 17:13:32","新北市新莊區新樹路67巷1號","121.442036666667","25.0297383333333","6500500","新莊區"
"242025","362-BY","2019/12/12 17:13:27","新北市新莊區新泰路357巷3弄1號","121.442401666667","25.0412766666667","6500500","新莊區"
"242023","353-BY","2019/12/12 17:13:27","新北市新莊區新泰路357巷3弄11號","121.442411666667","25.0409833333333","6500500","新莊區"
"242017","173-VK","2019/12/12 17:13:31","新北市新莊區三和路12-21號","121.441951666667","25.0387133333333","6500500","新莊區"
"242031","175-VK","2019/12/12 17:13:34","新北市新莊區三和路12-21號","121.442028333333","25.0385683333333","6500500","新莊區"
"242021","KED-0687","2019/12/12 17:13:23","新北市新莊區三和路12-18號","121.44231","25.0376633333333","6500500","新莊區"
"242007","346-TH","2019/12/12 17:13:36","新北市新莊區三和路12-21號","121.442008333333","25.0381533333333","6500500","新莊區"
"242002","347-TH","2019/12/12 17:13:21","新北市新莊區三和路12-21號","121.442206666667","25.0380916666667","6500500","新莊區"
"242036","348-TH","2019/12/12 17:13:32","新北市新莊區新泰路255巷83號","121.442056666667","25.0388266666667","6500500","新莊區"
"242009","349-TH","2019/12/12 17:13:31","新北市新莊區三和路12-21號","121.442136666667","25.0383366666667","6500500","新莊區"
"242034","350-TH","2019/12/12 17:13:21","","121.442031666667","25.0312033333333","6500500","新莊區"
"242019","351-TH","2019/12/12 17:13:26","新北市新莊區新泰路357巷3弄57號","121.441986666667","25.0394883333333","6500500","新莊區"
"238015","755-BX","2019/12/12 17:13:31","新北市樹林區中山路三段35號","121.401276666667","24.9753883333333","6500700","樹林區"
"238023","601-UM","2019/12/12 17:13:22","新北市樹林區中正路433-1號","121.414948333333","25.0079733333333","6500700","樹林區"
"238019","571-TV","2019/12/12 17:13:26","新北市樹林區環河路600-1號","121.403771666667","24.9692866666667","6500700","樹林區"
"238018","KEA-2217","2019/12/12 17:13:34","","121.42558","24.9851333333333","6500700","樹林區"
"238022","KEA-2213","2019/12/12 17:13:32","新北市樹林區忠孝街33號","121.42377","24.9821316666667","6500700","樹林區"
"238021","KEA-2539","2019/12/12 17:13:21","新北市樹林區西圳街一段165巷20弄11號","121.395666666667","24.960175","6500700","樹林區"
"238025","303-VK","2019/12/12 17:13:34","新北市樹林區保安二街29號","121.424741666667","24.9936466666667","6500700","樹林區"
"238017","283-BY","2019/12/12 17:13:27","新北市樹林區光武街7-3號","121.415771666667","25.0054016666667","6500700","樹林區"
"238014","282-BY","2019/12/12 17:13:37","新北市樹林區保安二街47號","121.424743333333","24.9942133333333","6500700","樹林區"
"238016","169-UY","2019/12/12 17:13:35","新北市樹林區八德街1號","121.417546666667","24.9849866666667","6500700","樹林區"
"239007","AAC-297","2019/12/12 17:13:34","新北市鶯歌區行政路36-1號","121.35269","24.9559183333333","6500800","鶯歌區"
"239006","891-R6","2019/12/12 17:13:23","新北市鶯歌區八德路7-2號","121.336358333333","24.9503433333333","6500800","鶯歌區"
"239008","527-UM","2019/12/12 17:13:19","新北市鶯歌區文化路311號","121.35242","24.9523816666667","6500800","鶯歌區"
"239005","526-UM","2019/12/12 17:13:35","新北市鶯歌區鶯桃路500號","121.331936666667","24.9661533333333","6500800","鶯歌區"
"239001","417-VK","2019/12/12 17:13:18","新北市鶯歌區尖山路156巷36號","121.345873333333","24.9494083333333","6500800","鶯歌區"
"239003","360-BY","2019/12/12 17:13:22","新北市鶯歌區德昌二街70巷32弄55號","121.330375","24.9583583333333","6500800","鶯歌區"
"239002","359-BY","2019/12/12 17:13:35","新北市鶯歌區建國路255號","121.347943333333","24.9533866666667","6500800","鶯歌區"
"239004","193-VK","2019/12/12 17:13:38","新北市鶯歌區文化路537號","121.353068333333","24.9478883333333","6500800","鶯歌區"
"244019","KED-0667","2019/12/12 17:13:23","新北市林口區公園路223巷30號","121.373305","25.0749816666667","6501700","林口區"
"233001","KEA-2870","2019/12/12 17:13:37","新北市烏來區西羅岸路46號","121.547271666667","24.866115","6502900","烏來區"
"242046","281-VK","2019/12/12 17:13:19","新北市新莊區新樹路67巷5號","121.44203","25.030805","6500500","新莊區"
"242011","280-VK","2019/12/12 17:13:34","新北市新莊區三和路12-21號","121.441971666667","25.03833","6500500","新莊區"
