"lineid","car","time","location","longitude","latitude","cityid","cityname"
"234046","148-BY","2019/12/12 19:13:22","新北市永和區秀朗路二段146號","121.525403333333","25.0015083333333","6500400","永和區"
"234081","298-R6","2019/12/12 19:13:27","新北市永和區永貞路39巷6弄2號","121.52173","25.0065066666667","6500400","永和區"
"234038","336-UY","2019/12/12 19:13:33","新北市永和區民樂街69巷19號","121.528076666667","24.9977466666667","6500400","永和區"
"234064","337-UY","2019/12/12 19:13:27","新北市永和區永元路33號","121.522185","25.000945","6500400","永和區"
"234086","338-UY","2019/12/12 19:13:13","新北市永和區永利路4巷6號","121.51742","25.0052516666667","6500400","永和區"
"234070","552-UM","2019/12/12 19:13:19","新北市永和區豫溪街126號","121.51973","25.0101383333333","6500400","永和區"
"234017","745-BX","2019/12/12 19:13:17","新北市永和區文化路90巷34號","121.513546666667","25.0163816666667","6500400","永和區"
"234030","746-BX","2019/12/12 19:13:19","新北市永和區厚德街89號","121.523988333333","24.9988233333333","6500400","永和區"
"234054","KEA-2590","2019/12/12 19:13:17","新北市永和區中興街105號","121.518045","25.01203","6500400","永和區"
"234007","KED-0605","2019/12/12 19:13:12","新北市中和區中山路二段47號","121.504356666667","25.0049666666667","6500400","永和區"
"234013","KEA-2591","2019/12/12 19:13:20","新北市永和區保福路二段30號","121.511023333333","25.0116616666667","6500400","永和區"
"234061","AAD-866","2019/12/12 19:13:19","新北市永和區秀朗路一段66號","121.515236666667","25.0064016666667","6500400","永和區"
"234042","862-TW","2019/12/12 19:13:13","新北市永和區保平路203巷23號","121.509076666667","25.0047283333333","6500400","永和區"
"234050","863-TW","2019/12/12 19:13:19","新北市永和區保福路二段94巷9號","121.510573333333","25.0137366666667","6500400","永和區"
"234026","9371-KE","2019/12/12 19:13:17","新北市永和區安樂路198巷4弄2號","121.515595","25.00199","6500400","永和區"
"234011","9373-KE","2019/12/12 19:13:29","新北市永和區保福路二段15巷11號","121.510515","25.0109233333333","6500400","永和區"
"249005","172-UM","2019/12/12 19:13:28","新北市八里區中華路三段170-1號","121.392135","25.1304316666667","6502300","八里區"
"249001","173-UM","2019/12/12 19:13:25","新北市八里區大崁腳48-53號","121.424903333333","25.1592183333333","6502300","八里區"
"249002","305-UY","2019/12/12 19:13:16","新北市八里區頂寮二街138號","121.449333333333","25.1294416666667","6502300","八里區"
"248008","KED-0815","2019/12/12 19:13:26","新北市五股區中興路二段63巷17號","121.460185","25.0753316666667","6501500","五股區"
"248020","KED-0813","2019/12/12 19:13:28","新北市五股區凌雲路三段57號","121.42528","25.1249716666667","6501500","五股區"
"248010","272-BY","2019/12/12 19:13:22","新北市五股區水碓一路23號","121.430575","25.0712633333333","6501500","五股區"
"248004","677-BX","2019/12/12 19:13:29","新北市五股區五福路47號","121.433105","25.0896733333333","6501500","五股區"
"248002","682-TV","2019/12/12 19:13:23","新北市五股區凌雲路一段158巷6號","121.447816666667","25.103005","6501500","五股區"
"234023","9380-KE","2019/12/12 19:13:24","新北市永和區中興街10巷11號","121.515566666667","25.011245","6500400","永和區"
"234077","969-R7","2019/12/12 19:13:29","新北市永和區民族街37巷1弄2號","121.519041666667","24.9990566666667","6500400","永和區"
"234074","AAC-211","2019/12/12 19:13:19","新北市永和區竹林路160號","121.52025","25.010555","6500400","永和區"
"234067","AAC-212","2019/12/12 19:13:21","新北市永和區保平路18巷5號","121.512178333333","25.0078033333333","6500400","永和區"
"234003","AAC-295","2019/12/12 19:13:27","新北市永和區永平路150號","121.511316666667","25.0086933333333","6500400","永和區"
"244023","483-VK","2019/12/12 19:13:16","新北市林口區文林六街62巷20號","121.371875","25.081685","6501700","林口區"
"244025","837-TS","2019/12/12 19:13:15","新北市林口區民族路86-99號","121.36604","25.0753033333333","6501700","林口區"
"208001","267-VK","2019/12/12 19:13:29","新北市金山區金包里街20號","121.639956666667","25.2207216666667","6502700","金山區"
"243012","AAD-798","2019/12/12 19:13:21","新北市泰山區犁頭窠7號","121.429958333333","25.05776","6501600","泰山區"
"243010","297-R6","2019/12/12 19:13:28","新北市泰山區明志路一段460號","121.430586666667","25.0555416666667","6501600","泰山區"
"243014","KEA-2801","2019/12/12 19:13:19","新北市泰山區泰林路二段251號","121.43181","25.0622316666667","6501600","泰山區"
"243016","421-VK","2019/12/12 19:13:23","新北市泰山區明志路3段87-1號","121.425156666667","25.0413016666667","6501600","泰山區"
"243009","KEA-2215","2019/12/12 19:13:30","新北市泰山區楓樹街15巷3-2號","121.434815","25.06302","6501600","泰山區"
"243011","KEA-2216","2019/12/12 19:13:14","新北市泰山區明志路二段325號","121.425738333333","25.0450733333333","6501600","泰山區"
"243015","680-BX","2019/12/12 19:13:30","新北市泰山區明志路二段6號","121.430091666667","25.0538833333333","6501600","泰山區"
"222003","436-BY","2019/12/12 19:13:29","新北市深坑區深南路204號","121.626613333333","25.0160466666667","6501800","深坑區"
"222002","659-BX","2019/12/12 19:13:14","新北市深坑區紅葉街10巷1號","121.632941666667","25.01187","6501800","深坑區"
"231061","002-UM","2019/12/12 19:13:24","新北市新店區安康路一段83-1號","121.5296","24.9613283333333","6500600","新店區"
"231058","0293-UT","2019/12/12 19:13:13","新北市新店區光明街63號","121.538803333333","24.960405","6500600","新店區"
"231044","046-UY","2019/12/12 19:13:31","新北市新店區中興路三段168號","121.544265","24.980795","6500600","新店區"
"231043","047-UY","2019/12/12 19:13:14","新北市新店區寶橋路43號","121.544678333333","24.974495","6500600","新店區"
"231060","106-UY","2019/12/12 19:13:26","新北市新店區安康路二段169號","121.509868333333","24.9593066666667","6500600","新店區"
"231051","107-UY","2019/12/12 19:13:23","新北市新店區中正路381號","121.534708333333","24.97689","6500600","新店區"
"231049","108-UY","2019/12/12 19:13:21","新北市新店區北新路三段70號","121.542023333333","24.98046","6500600","新店區"
"231065","110-UY","2019/12/12 19:13:28","新北市新店區安祥路110巷25號","121.473596666667","24.9563383333333","6500600","新店區"
"231050","KEA-2219","2019/12/12 19:13:27","新北市新店區竹林路2巷27弄1號","121.55017","24.9507683333333","6500600","新店區"
"221031","KEA-2785","2019/12/12 19:13:26","新北市汐止區中興路181巷1號","121.630228333333","25.0667916666667","6501100","汐止區"
"231062","256-BX","2019/12/12 19:13:17","新北市新店區安和路二段77-1號","121.518446666667","24.9687516666667","6500600","新店區"
"231042","268-BY","2019/12/12 19:13:32","新北市新店區中興路一段101號","121.541063333333","24.9623216666667","6500600","新店區"
"231064","278-BY","2019/12/12 19:13:23","新北市新店區安忠路57巷26弄22號","121.512598333333","24.9584166666667","6500600","新店區"
"231045","355-BY","2019/12/12 19:13:19","新北市新店區北宜路一段152-2號","121.540238333333","24.953745","6500600","新店區"
"231056","4715-K9","2019/12/12 19:13:18","新北市新店區薏仁坑路6號","121.500473333333","24.957985","6500600","新店區"
"231067","4772-VM","2019/12/12 19:13:16","新北市新店區安康路一段247巷31號","121.524783333333","24.9618983333333","6500600","新店區"
"231054","515-UM","2019/12/12 19:13:25","新北市新店區文中路2號","121.5374","24.9569416666667","6500600","新店區"
"231041","619-UM","2019/12/12 19:13:24","新北市新店區溪園路403號","121.52401","24.9781383333333","6500600","新店區"
"231063","641-BX","2019/12/12 19:13:30","新北市新店區達觀路8巷5號","121.504458333333","24.9441666666667","6500600","新店區"
"231047","KED-0819","2019/12/12 19:13:11","新北市新店區德正街27巷29弄13號","121.54512","24.971875","6500600","新店區"
"231052","718-UY","2019/12/12 19:13:21","新北市新店區屈尺路55-2號","121.546048333333","24.9226066666667","6500600","新店區"
"231046","719-UM","2019/12/12 19:13:29","新北市新店區華城路12-1號","121.529191666667","24.9578116666667","6500600","新店區"
"231057","720-UM","2019/12/12 19:13:23","新北市新店區百齡一路12號","121.553031666667","24.9324716666667","6500600","新店區"
"231059","897-TW","2019/12/12 19:13:31","新北市新店區安康路一段302-2號","121.51736","24.9641366666667","6500600","新店區"
"231040","898-TW","2019/12/12 19:13:31","新北市新店區三民路155-1號","121.533785","24.9734183333333","6500600","新店區"
"231066","AKT-0513","2019/12/12 19:13:29","新北市新店區安祥路35-1號","121.492101666667","24.955195","6500600","新店區"
"241011","013-R5","2019/12/12 19:13:23","新北市三重區河邊北街100巷6號","121.50368","25.0703566666667","6500200","三重區"
"241031","061-VK","2019/12/12 19:13:19","新北市三重區重新路四段85巷6號","121.485758333333","25.0556","6500200","三重區"
"241026","742-BX","2019/12/12 19:13:32","新北市三重區中正南路201號","121.493368333333","25.05422","6500200","三重區"
"241013","270-UM","2019/12/12 19:11:38","新北市三重區仁愛街101號","121.49571","25.073925","6500200","三重區"
"241035","462-BY","2019/12/12 19:13:12","新北市三重區中正北路2號","121.489373333333","25.062965","6500200","三重區"
"241020","478-VK","2019/12/12 19:13:27","新北市三重區後竹圍街126號","121.488216666667","25.0726483333333","6500200","三重區"
"241012","743-BX","2019/12/12 19:13:26","新北市三重區仁昌街110號","121.500141666667","25.0752","6500200","三重區"
"241022","KED-0820","2019/12/12 19:13:23","新北市三重區中正北路111-1號","121.485495","25.06542","6500200","三重區"
"241029","942-UM","2019/12/12 19:13:30","新北市三重區中正南路197號","121.493451666667","25.05461","6500200","三重區"
"235066","003-UY","2019/12/12 19:13:14","新北市中和區廣福路112號","121.502198333333","25.0011033333333","6500300","中和區"
"235064","005-UY","2019/12/12 19:13:28","新北市中和區南山路81巷26號","121.50271","24.9980866666667","6500300","中和區"
"235063","006-UY","2019/12/12 19:13:30","新北市中和區連城路249巷28弄1號","121.494766666667","24.9948716666667","6500300","中和區"
"235056","096-UM","2019/12/12 19:13:14","新北市中和區員山路529號","121.47966","25.006925","6500300","中和區"
"235039","097-UM","2019/12/12 19:13:21","新北市中和區秀峰街81巷2號","121.521436666667","24.9902633333333","6500300","中和區"
"235065","098-UM","2019/12/12 19:13:21","新北市中和區中山路二段64巷8號","121.503581666667","25.0051466666667","6500300","中和區"
"235040","150-BY","2019/12/12 19:13:12","新北市中和區保健路50巷54號","121.509521666667","24.9957533333333","6500300","中和區"
"235058","151-BY","2019/12/12 19:13:26","新北市中和區員山路36巷16-3號","121.485163333333","24.991385","6500300","中和區"
"235055","183-VK","2019/12/12 19:13:11","新北市中和區莒光路6號","121.472065","25.0045033333333","6500300","中和區"
"235038","185-VK","2019/12/12 19:13:29","新北市中和區大仁街10巷13號","121.518378333333","24.992585","6500300","中和區"
"235067","255-BX","2019/12/12 19:13:24","新北市中和區民樂路50號","121.483206666667","25.0007516666667","6500300","中和區"
"235044","293-VK","2019/12/12 19:13:32","新北市中和區中興街230巷2號","121.500208333333","24.9891433333333","6500300","中和區"
"235072","301-VK","2019/12/12 19:13:17","新北市中和區永和路24號","121.49949","25.0034316666667","6500300","中和區"
"235043","352-BY","2019/12/12 19:13:16","新北市中和區景平路468號","121.505533333333","24.99349","6500300","中和區"
"235042","KEA-2878","2019/12/12 19:13:22","新北市中和區大勇街106號","121.51794","24.9951816666667","6500300","中和區"
"235050","4979-A6","2019/12/12 19:13:14","新北市中和區復興路280巷36弄8號","121.501748333333","24.9920483333333","6500300","中和區"
"235069","4980-A6","2019/12/12 19:13:26","新北市中和區中山路二段183號","121.500676666667","25.0027333333333","6500300","中和區"
"235068","551-UM","2019/12/12 19:13:25","新北市中和區圓通路158巷1弄9號","121.497273333333","24.9960183333333","6500300","中和區"
"235070","558-UM","2019/12/12 19:13:23","新北市中和區南山路7號","121.502123333333","24.9995","6500300","中和區"
"235045","565-BX","2019/12/12 19:13:13","新北市中和區景新街423巷33弄25號","121.513741666667","24.9899233333333","6500300","中和區"
"235060","KED-0823","2019/12/12 19:13:30","新北市中和區新生街114巷6號","121.483116666667","25.0023883333333","6500300","中和區"
"235054","640-BX","2019/12/12 19:13:30","新北市中和區國光街112巷22弄2-4號","121.469825","25.0023233333333","6500300","中和區"
"235071","647-TV","2019/12/12 19:13:15","新北市中和區連城路475號","121.483285","24.9958783333333","6500300","中和區"
"235047","732-UM","2019/12/12 19:13:26","新北市中和區和平街42號","121.508955","24.9904883333333","6500300","中和區"
"235046","733-UM","2019/12/12 19:13:17","新北市中和區華新街115號","121.507308333333","24.9821133333333","6500300","中和區"
"235057","801-TS","2019/12/12 19:13:27","新北市中和區員山路423巷7號","121.48051","25.0032","6500300","中和區"
"235041","802-TS","2019/12/12 19:13:28","新北市中和區中和路298號","121.50863","24.9998683333333","6500300","中和區"
"235052","805-TS","2019/12/12 19:13:11","新北市中和區興南路二段142巷17弄24號","121.503081666667","24.983005","6500300","中和區"
"235048","896-TW","2019/12/12 19:13:19","新北市中和區忠孝街39-12號","121.512046666667","24.9843366666667","6500300","中和區"
"235053","900-TW","2019/12/12 19:13:20","新北市中和區華安街30巷16-1號","121.466925","24.9973566666667","6500300","中和區"
"235051","157-BY","2019/12/12 19:13:33","新北市中和區和平街24巷4號","121.510071666667","24.99043","6500300","中和區"
"235037","AAC-213","2019/12/12 19:13:23","新北市中和區自立路15巷1號","121.522533333333","24.9960966666667","6500300","中和區"
"235059","AAC-215","2019/12/12 19:13:22","新北市中和區錦和路195巷1弄2號","121.491088333333","24.9908583333333","6500300","中和區"
"207004","KEE-1107","2019/12/12 19:13:24","新北市萬里區萬里里瑪鋉路30巷29號","121.689883333333","25.1767266666667","6502800","萬里區"
"220054","015-TV","2019/12/12 19:13:27","新北市板橋區後埔街79-1號","121.460711666667","25.00535","6500100","板橋區"
"220086","073-UY","2019/12/12 19:13:11","新北市板橋區幸福路70巷1號","121.460588333333","25.0199766666667","6500100","板橋區"
"220106","075-UY","2019/12/12 19:13:17","新北市板橋區江寧路三段87巷2弄38號","121.473198333333","25.03329","6500100","板橋區"
"220069","AAD-861","2019/12/12 19:13:20","新北市板橋區大明街20巷29弄17號","121.457843333333","25.0034266666667","6500100","板橋區"
"226004","312-R5","2019/12/12 19:13:20","新北市平溪區望古里灰3號","121.75772","25.0299983333333","6502400","平溪區"
"235049","251-BX","2019/12/12 19:13:27","新北市中和區景新街229號","121.507918333333","24.9946683333333","6500300","中和區"
"228003","097-TW","2019/12/12 19:13:25","新北市貢寮區和美里和美街21-10號","121.912565","25.0825366666667","6502600","貢寮區"
"228001","212-TW","2019/12/12 19:13:24","新北市貢寮區真理里新港街10號","121.925426666667","25.0542883333333","6502600","貢寮區"
"228002","663-BX","2019/12/12 19:13:31","新北市貢寮區福隆里興隆街36號","121.941085","25.01747","6502600","貢寮區"
"224008","273-VK","2019/12/12 19:13:28","新北市瑞芳區瑞芳街82號","121.802616666667","25.11012","6501200","瑞芳區"
"227002","642-TC","2019/12/12 19:13:24","新北市雙溪區平林里梅竹蹊56-4號","121.860655","25.03676","6502500","雙溪區"
"227001","400-TW","2019/12/12 19:13:28","新北市雙溪區牡丹里中正路35號","121.864613333333","25.038375","6502500","雙溪區"
"253005","032-BX","2019/12/12 19:13:34","新北市石門區阿里荖33-1號","121.606835","25.28092","6502200","石門區"
"253006","295-VK","2019/12/12 19:13:30","新北市石門區崁子腳41-5號","121.533076666667","25.2874533333333","6502200","石門區"
"222001","KEA-2212","2019/12/12 19:13:20","新北市深坑區北深路二段16號","121.621061666667","25.004475","6501800","深坑區"
"208002","KEA-2872","2019/12/12 19:13:32","新北市金山區中華路158號","121.632823333333","25.2218466666667","6502700","金山區"
"208003","665-BX","2019/12/12 19:13:14","新北市金山區中山路230號","121.637153333333","25.2221083333333","6502700","金山區"
"251009","008-UM","2019/12/12 19:13:26","新北市淡水區清水街145號","121.440206666667","25.1715066666667","6501000","淡水區"
"251005","010-UM","2019/12/12 19:13:13","新北市淡水區原德路59號","121.442326666667","25.1721883333333","6501000","淡水區"
"251015","KEA-2871","2019/12/12 19:13:31","新北市淡水區南勢埔20號","121.481621666667","25.1788466666667","6501000","淡水區"
"251016","180-VK","2019/12/12 19:13:34","新北市淡水區下圭柔山119-51號","121.45063","25.208555","6501000","淡水區"
"251008","181-VK","2019/12/12 19:13:32","新北市淡水區崁頂115號","121.432425","25.2043966666667","6501000","淡水區"
"251013","182-VK","2019/12/12 19:13:20","新北市淡水區安子內12-1號","121.481485","25.2191","6501000","淡水區"
"251010","413-VK","2019/12/12 19:13:21","新北市淡水區沙崙路9號","121.421001666667","25.1811233333333","6501000","淡水區"
"251007","442-VK","2019/12/12 19:13:11","新北市淡水區民生路145巷58號","121.468095","25.1388933333333","6501000","淡水區"
"251001","559-UM","2019/12/12 19:13:22","新北市淡水區民權路92巷35-1號","121.462086666667","25.1267916666667","6501000","淡水區"
"251002","672-BX","2019/12/12 19:13:25","新北市淡水區中山路77號","121.44278","25.170455","6501000","淡水區"
"251003","673-BX","2019/12/12 19:13:32","新北市淡水區重建街225-1號","121.441508333333","25.1751016666667","6501000","淡水區"
"251014","178-VK","2019/12/12 19:13:13","新北市淡水區小中寮19-7號","121.484741666667","25.229635","6501000","淡水區"
"252001","292-VK","2019/12/12 19:13:21","新北市三芝區長勤街22號","121.501133333333","25.2557466666667","6502100","三芝區"
"237004","KEA-2597","2019/12/12 19:13:29","新北市三峽區有木205-1號","121.43904","24.8515766666667","6500900","三峽區"
"237007","153-BY","2019/12/12 19:13:27","新北市三峽區麻園10號","121.362076666667","24.916855","6500900","三峽區"
"237009","210-TH","2019/12/12 19:13:29","新北市三峽區民生街161號","121.372646666667","24.9348183333333","6500900","三峽區"
"237013","252-BX","2019/12/12 19:13:14","新北市三峽區大同路39巷33號","121.378131666667","24.9275783333333","6500900","三峽區"
"237012","275-BY","2019/12/12 19:13:30","新北市三峽區三樹路222巷236弄23號","121.391451666667","24.9430466666667","6500900","三峽區"
"237008","302-VK","2019/12/12 19:13:21","新北市三峽區光明路106巷63號","121.375075","24.9266866666667","6500900","三峽區"
"237014","433-BY","2019/12/12 19:13:31","新北市三峽區中山路234號","121.362576666667","24.9373383333333","6500900","三峽區"
"237006","5529-G3","2019/12/12 19:13:19","新北市三峽區橫溪路6號","121.395988333333","24.9360933333333","6500900","三峽區"
"237011","KEA-2596","2019/12/12 19:13:23","新北市三峽區介壽路三段107號","121.395488333333","24.9392466666667","6500900","三峽區"
"237015","649-BX","2019/12/12 19:13:17","新北市三峽區安坑46-3號","121.455706666667","24.9319133333333","6500900","三峽區"
"237010","706-TV","2019/12/12 19:13:29","新北市三峽區國光街105號","121.37312","24.9389816666667","6500900","三峽區"
"237005","AKY-6261","2019/12/12 19:13:24","新北市三峽區中山路459巷135號","121.348628333333","24.9329016666667","6500900","三峽區"
"236078","166-UM","2019/12/12 19:13:16","新北市土城區龍泉路14號","121.409783333333","24.9487766666667","6501300","土城區"
"236026","269-VK","2019/12/12 19:13:30","新北市土城區中正路17號","121.442945","24.9754583333333","6501300","土城區"
"236014","270-VK","2019/12/12 19:13:24","新北市土城區學府路一段23巷41號","121.457116666667","24.9864633333333","6501300","土城區"
"236070","KEA-2877","2019/12/12 19:13:28","新北市土城區明德路二段213號","121.446211666667","24.9837733333333","6501300","土城區"
"252002","KED-0821","2019/12/12 19:13:22","新北市三芝區淡金路二段18-1號","121.502685","25.2595083333333","6502100","三芝區"
"236021","401-BY","2019/12/12 19:13:32","新北市土城區明峰街64號","121.468541666667","24.9868383333333","6501300","土城區"
"236059","912-UM","2019/12/12 19:13:19","新北市土城區中央路二段249號","121.440041666667","24.9715983333333","6501300","土城區"
"236049","913-UM","2019/12/12 19:13:21","新北市土城區明德路一段365-1號","121.453653333333","24.9790833333333","6501300","土城區"
"236063","915-UM","2019/12/12 19:13:29","新北市土城區金城路三段97號","121.467116666667","24.9877233333333","6501300","土城區"
"242009","349-TH","2019/12/12 19:13:31","新北市新莊區三和路12-21號","121.442126666667","25.038315","6500500","新莊區"
"238015","755-BX","2019/12/12 19:13:28","新北市樹林區備內街160巷2號","121.406955","24.9898783333333","6500700","樹林區"
"238023","601-UM","2019/12/12 19:13:25","新北市樹林區三興路51號","121.395055","25.0142883333333","6500700","樹林區"
"238019","571-TV","2019/12/12 19:13:21","新北市樹林區東榮街91巷4弄4號","121.416211666667","24.9820166666667","6500700","樹林區"
"238018","KEA-2217","2019/12/12 18:47:58","新北市樹林區太平路48號","121.419023333333","24.98252","6500700","樹林區"
"238022","KEA-2213","2019/12/12 19:13:32","新北市樹林區中山路二段151巷12號","121.406881666667","24.97823","6500700","樹林區"
"238021","KEA-2539","2019/12/12 19:13:29","新北市樹林區柑園街二段303巷1號","121.371363333333","24.9504216666667","6500700","樹林區"
"238017","283-BY","2019/12/12 19:13:27","新北市樹林區保安街一段227號","121.42024","24.9964766666667","6500700","樹林區"
"238014","282-BY","2019/12/12 19:13:17","新北市樹林區千歲街63-14號","121.427008333333","24.9986333333333","6500700","樹林區"
"238020","268-VK","2019/12/12 19:13:18","新北市樹林區俊英街133巷9號","121.423693333333","25.0111116666667","6500700","樹林區"
"238026","172-UY","2019/12/12 19:13:27","新北市樹林區佳園路一段41巷1號","121.393571666667","24.9708933333333","6500700","樹林區"
"238016","169-UY","2019/12/12 19:13:14","新北市樹林區中山路一段276號","121.42055","24.9870866666667","6500700","樹林區"
"239007","AAC-297","2019/12/12 19:13:14","新北市鶯歌區中正一路225號","121.354133333333","24.9574233333333","6500800","鶯歌區"
"239006","891-R6","2019/12/12 19:13:23","新北市鶯歌區鶯桃路296巷84弄22號","121.337176666667","24.9614266666667","6500800","鶯歌區"
"239008","527-UM","2019/12/12 19:13:19","新北市鶯歌區國際二路68號","121.335006666667","24.9763133333333","6500800","鶯歌區"
"239005","526-UM","2019/12/12 19:13:15","新北市鶯歌區大湖路361巷22號","121.330443333333","24.9780033333333","6500800","鶯歌區"
"239001","417-VK","2019/12/12 19:13:18","新北市鶯歌區鶯桃路15號","121.343853333333","24.9504333333333","6500800","鶯歌區"
"239003","360-BY","2019/12/12 19:13:22","新北市鶯歌區鶯桃路658巷4號","121.329418333333","24.9693933333333","6500800","鶯歌區"
"239002","359-BY","2019/12/12 19:13:15","新北市鶯歌區中山路48號","121.35199","24.9570366666667","6500800","鶯歌區"
"239004","193-VK","2019/12/12 19:13:18","新北市鶯歌區中正三路230巷5-5號","121.330646666667","24.938435","6500800","鶯歌區"
"221008","489-VK","2019/12/12 19:13:18","新北市汐止區康寧街380號","121.629133333333","25.0677083333333","6501100","汐止區"
"221036","130-UY","2019/12/12 19:13:21","新北市汐止區南昌街22-1號","121.663253333333","25.0682833333333","6501100","汐止區"
"207003","KEE-1020","2019/12/12 19:13:18","新北市萬里區大鵬里頂社71號","121.655133333333","25.20924","6502800","萬里區"
"221032","567-BX","2019/12/12 19:13:20","新北市汐止區橫科路241-1號","121.621986666667","25.0492933333333","6501100","汐止區"
"221035","622-UM","2019/12/12 19:13:30","新北市汐止區汐萬路一段222號","121.651696666667","25.0728833333333","6501100","汐止區"
"221002","707-TV","2019/12/12 19:13:30","新北市汐止區大同路一段394號","121.639658333333","25.05974","6501100","汐止區"
"220079","145-BY","2019/12/12 19:13:23","新北市板橋區民權路200號","121.459081666667","25.0138066666667","6500100","板橋區"
"220080","200-UY","2019/12/12 19:13:27","新北市板橋區大觀路二段7巷47號","121.448398333333","25.0033116666667","6500100","板橋區"
"220082","610-BX","2019/12/12 19:13:19","新北市板橋區溪崑二街89號","121.427186666667","24.9894516666667","6500100","板橋區"
"220101","245-BX","2019/12/12 19:13:12","新北市板橋區縣民大道三段121巷11號","121.476726666667","25.02315","6500100","板橋區"
"220056","276-BY","2019/12/12 19:13:31","新北市板橋區信義路150巷12號","121.458263333333","24.99179","6500100","板橋區"
"220072","277-BY","2019/12/12 19:13:13","新北市板橋區金門街337巷9弄1號","121.430535","24.984625","6500100","板橋區"
"220094","283-UM","2019/12/12 19:13:20","新北市板橋區光武街122號","121.465578333333","25.029535","6500100","板橋區"
"220071","283-VK","2019/12/12 19:13:30","新北市板橋區重慶路327巷14號","121.464455","24.9984866666667","6500100","板橋區"
"220053","285-VK","2019/12/12 19:13:24","新北市板橋區永豐街146號","121.47814","25.0212316666667","6500100","板橋區"
"220083","286-VK","2019/12/12 19:13:29","新北市板橋區大觀路二段174巷193弄2號","121.442301666667","25.0040883333333","6500100","板橋區"
"220081","287-VK","2019/12/12 19:13:21","新北市板橋區南雅西路二段98-5號","121.452375","25.0113983333333","6500100","板橋區"
"220090","288-VK","2019/12/12 19:13:28","新北市板橋區長江路一段106巷18弄7號","121.459998333333","25.0284316666667","6500100","板橋區"
"220061","293-UM","2019/12/12 19:13:32","新北市板橋區中山路二段326-5號","121.481253333333","25.01933","6500100","板橋區"
"220092","295-UM","2019/12/12 19:13:26","新北市板橋區松江街5號","121.46916","25.02614","6500100","板橋區"
"220084","296-UM","2019/12/12 19:13:27","新北市板橋區溪崑二街64號","121.427833333333","24.9904433333333","6500100","板橋區"
"220075","303-R5","2019/12/12 19:13:23","新北市板橋區南雅東路1號","121.455448333333","25.0056233333333","6500100","板橋區"
"220062","305-R5","2019/12/12 19:13:12","新北市板橋區三民路二段153巷36弄2號","121.481128333333","25.014125","6500100","板橋區"
"220098","317-R6","2019/12/12 19:13:24","新北市板橋區四維路103巷9號","121.465096666667","25.0243083333333","6500100","板橋區"
"220065","461-BY","2019/12/12 19:13:25","新北市板橋區民族路219巷77號","121.46887","25.0089316666667","6500100","板橋區"
"220089","487-VK","2019/12/12 19:13:17","新北市板橋區中正路216巷150弄9號","121.460961666667","25.0191433333333","6500100","板橋區"
"220088","491-VK","2019/12/12 19:13:29","新北市板橋區雙十路二段51號","121.47643","25.0263216666667","6500100","板橋區"
"220035","560-BX","2019/12/12 19:13:29","新北市板橋區中正路326巷6弄2號","121.454831666667","25.0218216666667","6500100","板橋區"
"220103","561-BX","2019/12/12 19:13:28","新北市板橋區介壽街1號","121.466921666667","25.0205316666667","6500100","板橋區"
"220063","609-BX","2019/12/12 19:13:25","新北市板橋區三民路二段38號","121.479213333333","25.017745","6500100","板橋區"
"220091","637-BX","2019/12/12 19:13:28","新北市板橋區萬板路462號","121.479608333333","25.0258","6500100","板橋區"
"220057","686-BX","2019/12/12 19:13:15","新北市中和區壽德街3號","121.464958333333","24.99601","6500100","板橋區"
"220077","687-BX","2019/12/12 19:13:28","新北市板橋區大觀路二段175號","121.444986666667","25.0001633333333","6500100","板橋區"
"220093","689-BX","2019/12/12 19:13:25","新北市板橋區漢生西路93號","121.462571666667","25.0198083333333","6500100","板橋區"
"220102","KEA-2699","2019/12/12 19:13:29","新北市板橋區松柏街18號","121.474353333333","25.029735","6500100","板橋區"
"220055","827-TW","2019/12/12 19:13:24","新北市板橋區新民街17號","121.464081666667","25.0100616666667","6500100","板橋區"
"220067","829-TW","2019/12/12 19:13:21","新北市板橋區長安街138巷3弄37號","121.473943333333","25.0096783333333","6500100","板橋區"
"220068","830-TW","2019/12/12 19:13:25","新北市板橋區翠華街6巷18號","121.481063333333","25.02428","6500100","板橋區"
"220074","895-R6","2019/12/12 19:13:24","新北市板橋區中正路自強新村45-2號","121.454843333333","25.0138583333333","6500100","板橋區"
"220073","985-R7","2019/12/12 19:13:33","新北市板橋區中正路366號","121.454353333333","25.0241866666667","6500100","板橋區"
"220097","AAC-210","2019/12/12 19:13:32","新北市板橋區新海路131號","121.460761666667","25.0230933333333","6500100","板橋區"
"220064","AAC-253","2019/12/12 19:13:30","新北市板橋區民族路80號","121.463098333333","25.0093616666667","6500100","板橋區"
"235061","KEA-2875","2019/12/12 19:13:15","新北市中和區員山路143巷27弄2號","121.479476666667","24.9956333333333","6500300","中和區"
