"lineid","car","time","location","longitude","latitude","cityid","cityname"
"234046","148-BY","2019/12/12 19:59:22","新北市永和區成功路一段26號","121.527011666667","25.0047916666667","6500400","永和區"
"234081","298-R6","2019/12/12 19:59:27","新北市永和區永利路81巷15號","121.522118333333","25.0038333333333","6500400","永和區"
"234038","336-UY","2019/12/12 19:59:33","新北市永和區成功路二段132號","121.526585","24.9974233333333","6500400","永和區"
"234064","337-UY","2019/12/12 19:59:27","新北市永和區中正路412巷20弄10號","121.518776666667","25.00161","6500400","永和區"
"234086","338-UY","2019/12/12 19:59:14","新北市永和區福和路194號","121.5201","25.0077366666667","6500400","永和區"
"234070","552-UM","2019/12/12 19:59:19","新北市永和區國光路51號","121.518983333333","25.008215","6500400","永和區"
"234017","745-BX","2019/12/12 19:59:21","新北市永和區文化路19-1號","121.515018333333","25.0150066666667","6500400","永和區"
"234030","746-BX","2019/12/12 19:59:19","新北市永和區民權路49巷5弄10號","121.520886666667","24.9975816666667","6500400","永和區"
"234054","KEA-2590","2019/12/12 19:59:16","新北市永和區環河東路一段124號","121.520636666667","25.0154066666667","6500400","永和區"
"234007","KED-0605","2019/12/12 19:59:32","新北市永和區保生路22巷8號","121.507323333333","25.00796","6500400","永和區"
"234013","KEA-2591","2019/12/12 19:59:21","新北市永和區保生路55號","121.504706666667","25.010525","6500400","永和區"
"234061","AAD-866","2019/12/12 19:59:16","新北市永和區得和路53巷3號","121.51682","25.0002616666667","6500400","永和區"
"234042","862-TW","2019/12/12 19:59:33","新北市永和區中和路421巷5弄5號","121.508635","25.0008883333333","6500400","永和區"
"234050","863-TW","2019/12/12 19:59:19","新北市永和區保安路264號","121.505851666667","25.0123383333333","6500400","永和區"
"234026","9371-KE","2019/12/12 19:58:57","新北市永和區水源街27巷9號","121.51128","25.0040133333333","6500400","永和區"
"234011","9373-KE","2019/12/12 19:59:29","新北市永和區仁愛路352巷124號","121.500165","25.008465","6500400","永和區"
"249005","172-UM","2019/12/12 19:59:28","新北市八里區楓林路8號","121.386491666667","25.1311516666667","6502300","八里區"
"249001","173-UM","2019/12/12 19:59:26","新北市八里區中華路二段302號","121.404015","25.1486483333333","6502300","八里區"
"249004","303-UY","2019/12/12 19:59:19","新北市八里區中華路一段333-1號","121.412921666667","25.1542466666667","6502300","八里區"
"249002","305-UY","2019/12/12 19:59:19","新北市八里區頂寮一街50號","121.450451666667","25.124235","6502300","八里區"
"249003","593-UM","2019/12/12 19:59:23","新北市八里區中華路二段562號","121.398766666667","25.14478","6502300","八里區"
"248014","025-BX","2019/12/12 19:59:24","新北市五股區成泰路三段52號","121.442608333333","25.0890983333333","6501500","五股區"
"248016","026-BX","2019/12/12 19:59:24","新北市五股區成泰路三段577巷80弄7號","121.449488333333","25.1042666666667","6501500","五股區"
"248008","KED-0815","2019/12/12 19:59:26","新北市五股區中興路一段1巷12弄2號","121.469093333333","25.0714516666667","6501500","五股區"
"248020","KED-0813","2019/12/12 19:59:28","新北市五股區凌雲路三段32號","121.431258333333","25.1080533333333","6501500","五股區"
"248012","247-BX","2019/12/12 19:59:13","新北市五股區民義路一段125號","121.4332","25.0871183333333","6501500","五股區"
"248010","272-BY","2019/12/12 19:59:22","新北市五股區登林路100-1號","121.428116666667","25.0701466666667","6501500","五股區"
"248004","677-BX","2019/12/12 19:59:15","新北市五股區成泰路一段32巷62號","121.435031666667","25.06697","6501500","五股區"
"248002","682-TV","2019/12/12 19:59:23","新北市五股區成泰路三段553號","121.452108333333","25.101855","6501500","五股區"
"234023","9380-KE","2019/12/12 19:59:34","新北市永和區中正路704號","121.51627","25.0099983333333","6500400","永和區"
"234077","969-R7","2019/12/12 19:59:22","新北市永和區民有街10巷1號","121.516","24.99704","6500400","永和區"
"234074","AAC-211","2019/12/12 19:59:30","新北市永和區豫溪街207巷7號","121.523415","25.0100166666667","6500400","永和區"
"234067","AAC-212","2019/12/12 19:59:21","新北市永和區永貞路376號","121.509775","25.00699","6500400","永和區"
"234003","AAC-295","2019/12/12 19:59:25","新北市永和區中正路613號","121.516211666667","25.0097866666667","6500400","永和區"
"208001","267-VK","2019/12/12 19:59:29","新北市金山區南勢湖28號","121.61682","25.218125","6502700","金山區"
"243014","KEA-2801","2019/12/12 19:59:19","新北市泰山區泰林路二段33-1號","121.435898333333","25.056785","6501600","泰山區"
"243016","421-VK","2019/12/12 19:59:23","新北市泰山區明志路三段522號","121.420921666667","25.0306183333333","6501600","泰山區"
"243009","KEA-2215","2019/12/12 19:59:23","新北市泰山區楓江路16巷27號","121.4341","25.0613333333333","6501600","泰山區"
"243011","KEA-2216","2019/12/12 19:59:34","新北市泰山區明志路三段182巷42號","121.423163333333","25.039545","6501600","泰山區"
"222003","436-BY","2019/12/12 19:59:17","新北市深坑區埔新街14號","121.620735","25.0039166666667","6501800","深坑區"
"222002","659-BX","2019/12/12 19:59:14","新北市深坑區北深路二段81巷8弄3號","121.61821","25.0030166666667","6501800","深坑區"
"231061","002-UM","2019/12/12 19:59:20","新北市新店區安民街290號","121.517693333333","24.9733466666667","6500600","新店區"
"231044","046-UY","2019/12/12 19:59:31","新北市新店區復興路27號","121.538955","24.98672","6500600","新店區"
"231043","047-UY","2019/12/12 19:59:14","新北市新店區中正路263-3號","121.53842","24.97388","6500600","新店區"
"231060","106-UY","2019/12/12 19:59:26","新北市新店區安康路二段341巷3號","121.497401666667","24.9554866666667","6500600","新店區"
"231051","107-UY","2019/12/12 19:59:23","新北市新店區中央路153號","121.529925","24.9731516666667","6500600","新店區"
"231049","108-UY","2019/12/12 19:59:21","新北市新店區民族路11號","121.541578333333","24.978805","6500600","新店區"
"231065","110-UY","2019/12/12 19:59:28","新北市新店區安祥路104-10號","121.47903","24.9620166666667","6500600","新店區"
"231050","KEA-2219","2019/12/12 19:59:27","新北市新店區北宜路二段103號","121.550305","24.95252","6500600","新店區"
"221031","KEA-2785","2019/12/12 19:59:26","新北市汐止區福德二路55巷1弄1號","121.634448333333","25.0667083333333","6501100","汐止區"
"231062","256-BX","2019/12/12 19:59:31","新北市新店區華潭街6號","121.52971","24.952","6500600","新店區"
"231042","268-BY","2019/12/12 19:59:12","新北市新店區中正路2號","121.545838333333","24.969295","6500600","新店區"
"231064","278-BY","2019/12/12 19:59:22","新北市新店區安光路10-1號","121.513808333333","24.9641166666667","6500600","新店區"
"231045","355-BY","2019/12/12 19:59:19","新北市新店區北宜路二段210號","121.559368333333","24.9543816666667","6500600","新店區"
"231055","4716-K9","2019/12/12 19:59:18","新北市新店區新生街5巷13號","121.539776666667","24.9656183333333","6500600","新店區"
"231056","4715-K9","2019/12/12 19:59:17","新北市新店區北新路二段29巷3弄1號","121.542248333333","24.9730016666667","6500600","新店區"
"231067","4772-VM","2019/12/12 19:59:16","新北市新店區秀山路11巷22號","121.531578333333","24.9588583333333","6500600","新店區"
"231068","512-UM","2019/12/12 19:59:28","新北市新店區安康路一段258-2號","121.520175","24.9649216666667","6500600","新店區"
"231054","515-UM","2019/12/12 19:59:25","新北市新店區光明街167號","121.539658333333","24.9625833333333","6500600","新店區"
"231041","619-UM","2019/12/12 19:59:24","新北市新店區中正路351-3號","121.535235","24.9759766666667","6500600","新店區"
"231063","641-BX","2019/12/12 19:59:30","新北市新店區車子路11號","121.502953333333","24.9519433333333","6500600","新店區"
"231047","KED-0819","2019/12/12 19:59:11","新北市新店區中興路二段236巷1-1號","121.547976666667","24.97582","6500600","新店區"
"231052","718-UY","2019/12/12 19:59:21","新北市新店區新烏路三段寶島巷2弄3號","121.551996666667","24.89861","6500600","新店區"
"231057","720-UM","2019/12/12 19:59:23","新北市新店區花園二路一段11號","121.55546","24.9325583333333","6500600","新店區"
"231059","897-TW","2019/12/12 19:59:30","新北市新店區安和路二段77號","121.51836","24.9688516666667","6500600","新店區"
"231040","898-TW","2019/12/12 19:59:31","新北市新店區中正路75巷71號","121.543071666667","24.9689016666667","6500600","新店區"
"231066","AKT-0513","2019/12/12 19:59:29","新北市新店區薏仁坑路自強巷1號","121.497556666667","24.9578533333333","6500600","新店區"
"241011","013-R5","2019/12/12 19:59:23","新北市三重區三和路二段119號","121.498926666667","25.0691916666667","6500200","三重區"
"241028","022-UY","2019/12/12 19:59:15","新北市三重區中正南路108號","121.494341666667","25.05843","6500200","三重區"
"241008","059-VK","2019/12/12 19:59:18","新北市三重區永福街179巷28號","121.478036666667","25.0747016666667","6500200","三重區"
"241031","061-VK","2019/12/12 19:59:16","新北市三重區重新路四段140-1號","121.486971666667","25.055985","6500200","三重區"
"241015","062-VK","2019/12/12 19:59:17","新北市三重區三和路二段8號","121.501085","25.0668483333333","6500200","三重區"
"241017","063-VK","2019/12/12 19:59:16","新北市三重區自強路一段306號","121.491323333333","25.0684383333333","6500200","三重區"
"241024","065-VK","2019/12/12 19:59:24","新北市三重區大勇街40號","121.481361666667","25.0715933333333","6500200","三重區"
"241007","066-VK","2019/12/12 19:59:21","新北市三重區溪尾街160號","121.488835","25.0800816666667","6500200","三重區"
"241002","090-VK","2019/12/12 19:59:20","新北市三重區仁愛街232號","121.49347","25.07781","6500200","三重區"
"241003","091-VK","2019/12/12 19:59:20","新北市三重區五華街87巷6號","121.492113333333","25.0835033333333","6500200","三重區"
"241026","742-BX","2019/12/12 19:59:32","新北市三重區仁慈街4號","121.501531666667","25.0632483333333","6500200","三重區"
"241006","262-UM","2019/12/12 19:59:31","新北市三重區永福街269號","121.481868333333","25.07404","6500200","三重區"
"241016","266-UM","2019/12/12 19:59:16","新北市三重區正義北路36巷7號","121.49693","25.06346","6500200","三重區"
"241009","267-UM","2019/12/12 19:59:29","新北市三重區三和路四段392-1號","121.481648333333","25.0789883333333","6500200","三重區"
"241018","268-UM","2019/12/12 19:59:23","新北市三重區正義北路244巷37號","121.495093333333","25.06796","6500200","三重區"
"241032","269-UM","2019/12/12 19:59:27","新北市三重區朝陽街57巷9號","121.48365","25.0575283333333","6500200","三重區"
"241013","270-UM","2019/12/12 19:59:31","新北市三重區三和路三段139巷4號","121.492693333333","25.0736883333333","6500200","三重區"
"241030","KED-0822","2019/12/12 19:59:28","新北市三重區成功路173號","121.486015","25.052625","6500200","三重區"
"241035","462-BY","2019/12/12 19:59:32","新北市三重區大榮街7號","121.49816","25.06307","6500200","三重區"
"241004","475-VK","2019/12/12 19:59:19","新北市三重區五華街74號","121.493373333333","25.0820216666667","6500200","三重區"
"241020","478-VK","2019/12/12 19:59:27","新北市三重區忠孝路一段101號","121.489608333333","25.0721716666667","6500200","三重區"
"241014","543-UM","2019/12/12 19:59:15","新北市三重區三和路二段134號","121.499736666667","25.0681033333333","6500200","三重區"
"241023","545-UM","2019/12/12 19:59:27","新北市三重區頂崁街168號","121.477531666667","25.0658583333333","6500200","三重區"
"241001","547-UM","2019/12/12 19:59:23","新北市三重區仁愛街269巷58號","121.494801666667","25.07971","6500200","三重區"
"241019","KEA-2593","2019/12/12 19:59:20","新北市三重區重陽路四段12號","121.490841666667","25.06895","6500200","三重區"
"241005","AAD-863","2019/12/12 19:59:20","新北市三重區碧華街296-1號","121.489656666667","25.0833983333333","6500200","三重區"
"241012","743-BX","2019/12/12 19:59:26","新北市三重區仁厚街9號","121.499316666667","25.076085","6500200","三重區"
"241025","KED-0670","2019/12/12 19:59:14","新北市三重區頂崁街210巷16號","121.476405","25.0677633333333","6500200","三重區"
"241029","942-UM","2019/12/12 19:59:30","新北市三重區重安街14號","121.490223333333","25.058205","6500200","三重區"
"241033","AAC-255","2019/12/12 19:59:26","新北市三重區中興北街125號","121.469686666667","25.0492683333333","6500200","三重區"
"235066","003-UY","2019/12/12 19:59:14","新北市中和區中山路二段21號","121.504968333333","25.0054633333333","6500300","中和區"
"235039","097-UM","2019/12/12 19:59:21","新北市中和區景平路278巷16弄24號","121.514476666667","24.9937566666667","6500300","中和區"
"235065","098-UM","2019/12/12 19:59:21","新北市中和區永和路78號","121.497625","25.005185","6500300","中和區"
"235040","150-BY","2019/12/12 19:59:32","新北市中和區景安路79巷39號","121.507426666667","24.9963066666667","6500300","中和區"
"235055","183-VK","2019/12/12 19:59:11","新北市中和區中山路三段206號","121.471595","25.0065","6500300","中和區"
"235044","293-VK","2019/12/12 19:59:32","新北市中和區中正路69號","121.501108333333","24.9934233333333","6500300","中和區"
"247016","KEA-2869","2019/12/12 19:59:25","新北市蘆洲區中正路102號","121.469838333333","25.0843066666667","6501400","蘆洲區"
"235050","4979-A6","2019/12/12 19:59:14","新北市中和區景平路241巷64弄1號","121.507685","24.9924033333333","6500300","中和區"
"235068","551-UM","2019/12/12 19:59:25","新北市中和區福美路301巷42號","121.497751666667","25.0034466666667","6500300","中和區"
"235046","733-UM","2019/12/12 19:59:17","新北市中和區興南路一段93巷58弄2號","121.510623333333","24.986085","6500300","中和區"
"235052","805-TS","2019/12/12 19:59:31","新北市中和區華新街97號","121.508643333333","24.9829866666667","6500300","中和區"
"235051","157-BY","2019/12/12 19:59:17","新北市中和區景安路225號","121.504253333333","24.9913283333333","6500300","中和區"
"235037","AAC-213","2019/12/12 19:59:23","新北市中和區立人街55號","121.520331666667","24.99421","6500300","中和區"
"235059","AAC-215","2019/12/12 19:59:21","新北市中和區圓通路335巷4弄1號","121.492041666667","24.9903683333333","6500300","中和區"
"207004","KEE-1107","2019/12/12 19:59:23","新北市萬里區北基里忠一街1號","121.686793333333","25.1762983333333","6502800","萬里區"
"220054","015-TV","2019/12/12 19:59:27","新北市板橋區實踐路93巷38號","121.465518333333","25.005055","6500100","板橋區"
"220086","073-UY","2019/12/12 19:59:31","新北市板橋區館前西路160巷13號","121.452193333333","25.0091766666667","6500100","板橋區"
"220106","075-UY","2019/12/12 19:59:21","新北市板橋區懷德街66巷1號","121.477456666667","25.0321133333333","6500100","板橋區"
"220069","AAD-861","2019/12/12 19:59:20","新北市板橋區大明街20巷19弄17號","121.457793333333","25.0031833333333","6500100","板橋區"
"247006","893-R6","2019/12/12 19:59:23","新北市蘆洲區九芎街115號","121.465571666667","25.07941","6501400","蘆洲區"
"247020","546-UM","2019/12/12 19:59:21","新北市蘆洲區民義街66號","121.47289","25.0897233333333","6501400","蘆洲區"
"247004","336-TH","2019/12/12 19:59:20","新北市蘆洲區永康街77號","121.455753333333","25.0852083333333","6501400","蘆洲區"
"247024","057-VK","2019/12/12 19:59:33","新北市蘆洲區光復路36號","121.463513333333","25.0849383333333","6501400","蘆洲區"
"247014","056-VK","2019/12/12 19:59:20","新北市蘆洲區成功路151號","121.472123333333","25.08264","6501400","蘆洲區"
"247018","053-VK","2019/12/12 19:59:31","新北市蘆洲區民族路203-2號","121.477968333333","25.0891983333333","6501400","蘆洲區"
"247008","002-UY","2019/12/12 19:59:25","新北市蘆洲區信義路119巷1號","121.478386666667","25.08031","6501400","蘆洲區"
"247002","001-UY","2019/12/12 19:59:30","新北市蘆洲區長安街272號","121.45742","25.0870083333333","6501400","蘆洲區"
"226004","312-R5","2019/12/12 19:59:20","新北市平溪區南山里南山坪94號","121.776928333333","25.0411566666667","6502400","平溪區"
"228003","097-TW","2019/12/12 19:59:24","新北市貢寮區仁理村仁和路220號","121.923915","25.05346","6502600","貢寮區"
"227002","642-TC","2019/12/12 19:59:24","新北市雙溪區雙溪里長安街16號","121.864986666667","25.0346433333333","6502500","雙溪區"
"227001","400-TW","2019/12/12 19:59:28","新北市雙溪區新基里新基南街25號","121.866253333333","25.0381266666667","6502500","雙溪區"
"222001","KEA-2212","2019/12/12 19:59:20","新北市深坑區北深路三段157號","121.602066666667","25.0031783333333","6501800","深坑區"
"208002","KEA-2872","2019/12/12 19:59:33","新北市金山區環金路215號","121.633133333333","25.219305","6502700","金山區"
"208003","665-BX","2019/12/12 19:59:33","新北市金山區香園9號","121.63446","25.2492566666667","6502700","金山區"
"251009","008-UM","2019/12/12 19:59:26","新北市淡水區英專路21巷23號","121.444786666667","25.1697633333333","6501000","淡水區"
"251004","009-UM","2019/12/12 19:59:17","新北市淡水區民權路177巷13號","121.460796666667","25.1351366666667","6501000","淡水區"
"251005","010-UM","2019/12/12 19:59:13","新北市淡水區學府路136巷33號","121.45171","25.172735","6501000","淡水區"
"251015","KEA-2871","2019/12/12 19:59:16","新北市淡水區大埤頭1號","121.492716666667","25.19466","6501000","淡水區"
"251016","180-VK","2019/12/12 19:59:34","新北市淡水區淡金路五段20號","121.453346666667","25.2324033333333","6501000","淡水區"
"251008","181-VK","2019/12/12 19:59:32","新北市淡水區中正路一段132巷7弄6號","121.422498333333","25.179855","6501000","淡水區"
"251013","182-VK","2019/12/12 19:59:20","新北市淡水區奎柔山路67號","121.452325","25.20607","6501000","淡水區"
"251012","441-VK","2019/12/12 19:59:30","新北市淡水區下圭柔山93-4號","121.436966666667","25.2099433333333","6501000","淡水區"
"251001","559-UM","2019/12/12 19:59:22","新北市淡水區淡金路一段166-5號","121.45411","25.1799433333333","6501000","淡水區"
"251006","561-UM","2019/12/12 19:59:29","新北市淡水區水碓街15號","121.443463333333","25.1769933333333","6501000","淡水區"
"251011","650-BX","2019/12/12 19:59:21","新北市淡水區淡金路二段270-1號","121.44702","25.1886883333333","6501000","淡水區"
"251002","672-BX","2019/12/12 19:59:25","新北市淡水區中正路一段86號","121.424458333333","25.1777116666667","6501000","淡水區"
"251014","178-VK","2019/12/12 19:59:33","新北市淡水區石頭厝2-1號","121.458106666667","25.2356966666667","6501000","淡水區"
"252001","292-VK","2019/12/12 19:59:20","新北市三芝區公正街66號","121.499753333333","25.2574533333333","6502100","三芝區"
"237004","KEA-2597","2019/12/12 19:59:29","新北市三峽區添福7-1號","121.371121666667","24.9078766666667","6500900","三峽區"
"237007","153-BY","2019/12/12 19:59:24","新北市三峽區麻園46號","121.363831666667","24.921245","6500900","三峽區"
"237009","210-TH","2019/12/12 19:59:29","新北市三峽區民權街185號","121.367871666667","24.9295933333333","6500900","三峽區"
"237013","252-BX","2019/12/12 19:59:14","新北市三峽區介壽路二段155號","121.393626666667","24.9358266666667","6500900","三峽區"
"237012","275-BY","2019/12/12 19:59:30","新北市三峽區中華路31號","121.372948333333","24.9313183333333","6500900","三峽區"
"237008","302-VK","2019/12/12 19:59:21","新北市三峽區中正路一段174巷9號","121.371911666667","24.928845","6500900","三峽區"
"237014","433-BY","2019/12/12 19:59:25","新北市三峽區正義街11號","121.369981666667","24.9199933333333","6500900","三峽區"
"237006","5529-G3","2019/12/12 19:59:19","新北市三峽區中正路二段168號","121.36602","24.91558","6500900","三峽區"
"237015","649-BX","2019/12/12 19:59:17","新北市三峽區橫溪路6號","121.395971666667","24.936095","6500900","三峽區"
"237005","AKY-6261","2019/12/12 19:59:24","新北市三峽區三樹路44巷4號","121.378051666667","24.937355","6500900","三峽區"
"236042","KED-0685","2019/12/12 19:59:24","新北市土城區學府路一段98巷16號","121.455833333333","24.9884316666667","6501300","土城區"
"236078","166-UM","2019/12/12 19:59:35","新北市土城區三民路43號","121.420043333333","24.96387","6501300","土城區"
"236030","253-BX","2019/12/12 19:59:20","新北市土城區中央路一段250巷9號","121.44377","24.9847083333333","6501300","土城區"
"236026","269-VK","2019/12/12 19:59:30","新北市土城區中央路二段89號","121.44235","24.9780833333333","6501300","土城區"
"236014","270-VK","2019/12/12 19:59:24","新北市土城區廣福街123號","121.456231666667","24.9928883333333","6501300","土城區"
"236038","271-VK","2019/12/12 19:59:22","新北市土城區國際路42巷2號","121.466166666667","24.9790466666667","6501300","土城區"
"247012","KED-0683","2019/12/12 19:59:15","新北市蘆洲區民族路151號","121.479541666667","25.0879666666667","6501400","蘆洲區"
"236070","KEA-2877","2019/12/12 19:59:28","新北市土城區忠義路24號","121.440455","24.9700583333333","6501300","土城區"
"252002","KED-0821","2019/12/12 19:59:22","新北市三芝區忠孝街116-3號","121.505475","25.2575483333333","6502100","三芝區"
"236021","401-BY","2019/12/12 19:59:32","新北市土城區延吉街121巷7號","121.471331666667","24.9864966666667","6501300","土城區"
"236059","912-UM","2019/12/12 19:59:20","新北市土城區中央路一段306號","121.443285","24.9818133333333","6501300","土城區"
"236049","913-UM","2019/12/12 19:59:29","新北市土城區金城路三段248號","121.473895","24.9906166666667","6501300","土城區"
"236063","915-UM","2019/12/12 19:59:27","新北市土城區延和路215號","121.46984","24.9897883333333","6501300","土城區"
"236055","AAC-216","2019/12/12 19:59:20","新北市土城區學府路一段43號","121.457733333333","24.988395","6501300","土城區"
"242004","751-BX","2019/12/12 19:59:19","新北市新莊區化成路314巷17號","121.466858333333","25.0483283333333","6500500","新莊區"
"242029","615-BX","2019/12/12 19:59:21","新北市新莊區中平路300號","121.444766666667","25.0517766666667","6500500","新莊區"
"242027","613-BX","2019/12/12 19:59:29","新北市新莊區中平路377巷1-14號","121.444226666667","25.052045","6500500","新莊區"
"242058","612-BX","2019/12/12 19:59:14","新北市新莊區八德街81號","121.424541666667","25.0217883333333","6500500","新莊區"
"242048","566-BX","2019/12/12 19:59:17","新北市新莊區民安路211號","121.42645","25.0223016666667","6500500","新莊區"
"242053","497-BY","2019/12/12 19:59:15","新北市新莊區西盛街418號","121.42717","25.0121583333333","6500500","新莊區"
"242042","442-UM","2019/12/12 19:59:28","新北市新莊區青山路一段8號","121.411773333333","25.0274883333333","6500500","新莊區"
"242039","441-UM","2019/12/12 19:59:21","新北市新莊區民安路304號","121.42834","25.0218366666667","6500500","新莊區"
"242013","413-TV","2019/12/12 19:59:21","新北市新莊區中港路417巷9號","121.451455","25.0474966666667","6500500","新莊區"
"242051","400-BY","2019/12/12 19:59:32","新北市新莊區西盛街131號","121.428253333333","25.0186816666667","6500500","新莊區"
"242025","362-BY","2019/12/12 19:59:32","新北市新莊區五工二路86巷35號","121.460528333333","25.067315","6500500","新莊區"
"242023","353-BY","2019/12/12 19:59:33","新北市新莊區化成路354號","121.465826666667","25.0491983333333","6500500","新莊區"
"242015","132-UY","2019/12/12 19:59:30","新北市新莊區泰順街41號","121.44688","25.0428633333333","6500500","新莊區"
"242056","172-VK","2019/12/12 19:59:13","新北市新莊區中正路347巷21號","121.447251666667","25.0341733333333","6500500","新莊區"
"242017","173-VK","2019/12/12 19:59:30","新北市新莊區中安街1號","121.452815","25.0452383333333","6500500","新莊區"
"242031","175-VK","2019/12/12 19:59:15","新北市新莊區公園一路59號","121.443138333333","25.0363183333333","6500500","新莊區"
"242021","KED-0687","2019/12/12 19:59:17","新北市新莊區中興街59號","121.449111666667","25.037445","6500500","新莊區"
"242007","346-TH","2019/12/12 19:59:24","新北市新莊區思源路585號","121.459676666667","25.0594283333333","6500500","新莊區"
"242002","347-TH","2019/12/12 19:59:21","新北市新莊區新豐街2號","121.44907","25.0347583333333","6500500","新莊區"
"242036","348-TH","2019/12/12 19:59:29","新北市新莊區建安街27號","121.428918333333","25.0258933333333","6500500","新莊區"
"242034","350-TH","2019/12/12 19:59:18","新北市新莊區建中街93號","121.446608333333","25.0365233333333","6500500","新莊區"
"238024","5061-A6","2019/12/12 19:59:26","新北市樹林區中山路三段210-2號","121.38149","24.965535","6500700","樹林區"
"238017","283-BY","2019/12/12 19:59:27","新北市樹林區保安街二段45巷21弄3號","121.414881666667","24.999905","6500700","樹林區"
"238014","282-BY","2019/12/12 19:59:17","新北市樹林區福德街50號","121.398708333333","24.97413","6500700","樹林區"
"239006","891-R6","2019/12/12 19:59:23","新北市鶯歌區文化路265號","121.353336666667","24.9529566666667","6500800","鶯歌區"
"239002","359-BY","2019/12/12 19:59:15","新北市鶯歌區大湖路159號","121.344111666667","24.9669433333333","6500800","鶯歌區"
"239004","193-VK","2019/12/12 19:59:18","新北市鶯歌區二甲路83-8號","121.34021","24.9317816666667","6500800","鶯歌區"
"221008","489-VK","2019/12/12 19:59:18","新北市汐止區康寧街141巷1弄1號","121.621366666667","25.06687","6501100","汐止區"
"221015","131-UY","2019/12/12 19:59:19","新北市汐止區橋東街11號","121.666511666667","25.0759066666667","6501100","汐止區"
"221010","269-BY","2019/12/12 19:59:25","新北市汐止區汐萬路一段343巷13弄14號","121.650013333333","25.076445","6501100","汐止區"
"221012","278-VK","2019/12/12 19:59:33","新北市汐止區保長路273巷8號","121.681593333333","25.0740016666667","6501100","汐止區"
"221023","279-VK","2019/12/12 19:59:23","新北市汐止區民族三街44號","121.629626666667","25.0700116666667","6501100","汐止區"
"221027","281-BY","2019/12/12 19:59:16","新北市汐止區中正路89號","121.66123","25.06942","6501100","汐止區"
"221029","298-VK","2019/12/12 19:59:31","新北市汐止區樟樹一路137巷26號","121.641031666667","25.0659583333333","6501100","汐止區"
"221021","299-VK","2019/12/12 19:59:14","新北市汐止區水源路一段171號","121.655323333333","25.0618","6501100","汐止區"
"207003","KEE-1020","2019/12/12 19:59:18","新北市萬里區大鵬里萬里加投46號","121.642153333333","25.2119816666667","6502800","萬里區"
"221035","622-UM","2019/12/12 19:59:29","新北市汐止區長江街9號","121.65466","25.0711333333333","6501100","汐止區"
"221038","646-BX","2019/12/12 19:59:25","新北市汐止區忠孝東路487-3號","121.666075","25.0739816666667","6501100","汐止區"
"221033","647-BX","2019/12/12 19:59:14","新北市汐止區東勢街190巷3號","121.63387","25.0415983333333","6501100","汐止區"
"220079","145-BY","2019/12/12 19:59:31","新北市板橋區民權路202巷13弄1號","121.460581666667","25.0159416666667","6500100","板橋區"
"220080","200-UY","2019/12/12 19:59:27","新北市板橋區大觀路二段153巷39弄1號","121.446975","25.00044","6500100","板橋區"
"220082","610-BX","2019/12/12 19:59:22","新北市板橋區存德街31號","121.430615","24.991555","6500100","板橋區"
"220101","245-BX","2019/12/12 19:59:12","新北市板橋區莒光路171巷1弄16號","121.474495","25.0246133333333","6500100","板橋區"
"224002","257-TC","2019/12/12 19:59:19","新北市瑞芳區員山子路員山巷18-1號","121.816825","25.10397","6501200","瑞芳區"
"220056","276-BY","2019/12/12 19:59:31","新北市板橋區四川路二段99巷2弄2-3號","121.452756666667","24.994425","6500100","板橋區"
"220072","277-BY","2019/12/12 19:59:26","新北市板橋區金門街109巷35號","121.434141666667","24.99126","6500100","板橋區"
"220094","283-UM","2019/12/12 19:59:20","新北市板橋區文化路一段160號","121.465488333333","25.0192366666667","6500100","板橋區"
"220071","283-VK","2019/12/12 19:59:30","新北市板橋區五權街30巷11號","121.464381666667","24.9932083333333","6500100","板橋區"
"220053","285-VK","2019/12/12 19:59:25","新北市板橋區懷仁街32-3號","121.476523333333","25.0192466666667","6500100","板橋區"
"220083","286-VK","2019/12/12 19:59:30","新北市板橋區僑中二街10巷11號","121.44643","25.0109266666667","6500100","板橋區"
"220081","287-VK","2019/12/12 19:59:25","新北市板橋區大觀路一段28巷107號","121.449955","25.0120633333333","6500100","板橋區"
"220090","288-VK","2019/12/12 19:59:27","新北市板橋區新海路72巷5弄26號","121.461725","25.0227783333333","6500100","板橋區"
"220061","293-UM","2019/12/12 19:59:13","新北市板橋區觀光街73號","121.469698333333","25.0167516666667","6500100","板橋區"
"220092","295-UM","2019/12/12 19:59:25","新北市板橋區文化路一段45巷16號","121.46036","25.013975","6500100","板橋區"
"220084","296-UM","2019/12/12 19:59:23","新北市板橋區板林路158號","121.424421666667","24.987745","6500100","板橋區"
"220075","303-R5","2019/12/12 19:59:28","新北市板橋區金華街10巷48弄1號","121.457085","25.01987","6500100","板橋區"
"220062","305-R5","2019/12/12 19:59:32","新北市板橋區中山路二段367號","121.479848333333","25.01908","6500100","板橋區"
"220098","317-R6","2019/12/12 19:59:24","新北市板橋區裕民街143號","121.458836666667","25.0270916666667","6500100","板橋區"
"220065","461-BY","2019/12/12 19:59:25","新北市板橋區民族路231號","121.469785","25.0071016666667","6500100","板橋區"
"220089","487-VK","2019/12/12 19:59:29","新北市板橋區四維路329號","121.46263","25.0294683333333","6500100","板橋區"
"242011","280-VK","2019/12/12 19:59:33","新北市新莊區中港路531巷33號","121.450061666667","25.051505","6500500","新莊區"
"220088","491-VK","2019/12/12 19:59:28","新北市板橋區懷德街127巷23弄7號","121.479265","25.03169","6500100","板橋區"
"220035","560-BX","2019/12/12 19:59:20","新北市板橋區金華街83號","121.458018333333","25.0207216666667","6500100","板橋區"
"220103","561-BX","2019/12/12 19:59:28","新北市板橋區文化路一段239號","121.46416","25.0177066666667","6500100","板橋區"
"220063","609-BX","2019/12/12 19:59:25","新北市板橋區中山路二段84-6號","121.475046666667","25.0160566666667","6500100","板橋區"
"220091","637-BX","2019/12/12 19:59:28","新北市板橋區文聖街83號","121.477615","25.0301366666667","6500100","板橋區"
"220057","686-BX","2019/12/12 19:59:15","新北市板橋區四川路二段130巷30號","121.44955","24.9945266666667","6500100","板橋區"
"220077","687-BX","2019/12/12 19:59:28","新北市板橋區僑中二街88巷1號","121.446463333333","25.0093433333333","6500100","板橋區"
"220093","689-BX","2019/12/12 19:59:24","新北市板橋區長江路二段41號","121.464236666667","25.031225","6500100","板橋區"
"220102","KEA-2699","2019/12/12 19:59:25","新北市板橋區莒光路28巷20號","121.469605","25.02364","6500100","板橋區"
"220055","827-TW","2019/12/12 19:59:35","新北市板橋區仁愛路62巷11號","121.459943333333","24.9987583333333","6500100","板橋區"
"220067","829-TW","2019/12/12 19:59:21","新北市板橋區中山路一段206巷121號","121.472751666667","25.0136333333333","6500100","板橋區"
"220068","830-TW","2019/12/12 19:59:25","新北市板橋區光復街234-1號","121.484703333333","25.02137","6500100","板橋區"
"220074","895-R6","2019/12/12 19:59:24","新北市板橋區縣民大道二段1號","121.461603333333","25.01175","6500100","板橋區"
"220073","985-R7","2019/12/12 19:59:13","新北市板橋區南雅西路二段214號","121.452008333333","25.0152233333333","6500100","板橋區"
"220097","AAC-210","2019/12/12 19:59:12","新北市板橋區民權路202巷34號","121.460866666667","25.0174","6500100","板橋區"
"220064","AAC-253","2019/12/12 19:59:30","新北市板橋區長安街331巷83-1號","121.472193333333","25.0127616666667","6500100","板橋區"
