"lineid","car","time","location","longitude","latitude","cityid","cityname"
"251004","009-UM","2019/12/12 22:13:28","新北市淡水區民族路33號","121.46222","25.1358133333333","6501000","淡水區"
"251008","181-VK","2019/12/12 22:13:32","新北市淡水區學府路104號","121.44989","25.1718216666667","6501000","淡水區"
"251010","413-VK","2019/12/12 22:13:20","新北市淡水區沙崙路200號","121.424651666667","25.183885","6501000","淡水區"
"251007","442-VK","2019/12/12 22:13:31","新北市淡水區北新路180號","121.449508333333","25.1786616666667","6501000","淡水區"
"251011","650-BX","2019/12/12 22:13:21","新北市淡水區水碓街7號","121.443173333333","25.1771083333333","6501000","淡水區"
