"lineid","car","time","location","longitude","latitude","cityid","cityname"
"251004","009-UM","2019/12/12 22:29:28","新北市淡水區民族路33號","121.462288333333","25.13582","6501000","淡水區"
"251008","181-VK","2019/12/12 22:29:32","新北市淡水區學府路104號","121.449915","25.1718266666667","6501000","淡水區"
"251010","413-VK","2019/12/12 22:29:20","新北市淡水區沙崙路214號","121.424903333333","25.1841033333333","6501000","淡水區"
"251007","442-VK","2019/12/12 22:29:31","新北市淡水區北新路180號","121.449515","25.17867","6501000","淡水區"
"251011","650-BX","2019/12/12 22:29:21","新北市淡水區水碓街7號","121.443151666667","25.1771566666667","6501000","淡水區"
