"lineid","car","time","location","longitude","latitude","cityid","cityname"
"222005","289-BY","2019/12/03 09:43:25","新北市深坑區阿柔洋64號","121.606818333333","24.998465","6501800","深坑區"
"231007","189-VK","2019/12/03 09:42:53","新北市新店區新潭路三段180號","121.509398333333","24.905985","6500600","新店區"
"231009","192-VK","2019/12/03 09:43:24","新北市新店區小坑一路21-1號","121.530376666667","24.9121433333333","6500600","新店區"
"227004","282-VK","2019/12/03 09:43:32","新北市雙溪區長源里土地公山2-2號","121.795498333333","25.01025","6502500","雙溪區"
"227006","030-BX","2019/12/03 09:39:33","新北市坪林區中心崙2號","121.783566666667","24.9496816666667","6502500","雙溪區"
"252004","249-BX","2019/12/03 09:43:34","新北市三芝區圓山里石曹子坑64-25號","121.524136666667","25.2109066666667","6502100","三芝區"
"252007","AAC-283","2019/12/03 09:43:30","新北市三芝區新庄里新庄子92-1號","121.511021666667","25.2693","6502100","三芝區"
"237013","760-BX","2019/12/03 09:43:21","新北市三峽區介壽路三段172巷30-1號","121.405963333333","24.942815","6500900","三峽區"
