"lineid","car","time","location","longitude","latitude","cityid","cityname"
"234044","148-BY","2019/12/03 13:13:25","新北市永和區秀朗路二段148巷12弄2號","121.525323333333","25.0007916666667","6500400","永和區"
"234078","298-R6","2019/12/03 13:13:30","新北市永和區福和路57巷14弄10號","121.522328333333","25.0072816666667","6500400","永和區"
"234036","336-UY","2019/12/03 13:13:21","新北市永和區環河東路四段84號","121.528371666667","24.9977916666667","6500400","永和區"
"234062","337-UY","2019/12/03 13:13:29","新北市永和區永元路68號","121.522361666667","25.0015366666667","6500400","永和區"
"234084","338-UY","2019/12/03 13:13:35","新北市永和區永利路4巷27號","121.517631666667","25.0048433333333","6500400","永和區"
"234068","552-UM","2019/12/03 13:13:28","新北市永和區豫溪街110號","121.519416666667","25.0100533333333","6500400","永和區"
"234015","745-BX","2019/12/03 13:13:36","新北市永和區文化路90巷29號","121.513093333333","25.01655","6500400","永和區"
"234028","746-BX","2019/12/03 13:13:37","新北市永和區民生路23號","121.522886666667","24.998835","6500400","永和區"
"234052","KEA-2590","2019/12/03 13:13:22","新北市永和區中興街82號","121.518196666667","25.0120716666667","6500400","永和區"
"234005","KED-0605","2019/12/03 13:13:29","新北市永和區保生路3號","121.506631666667","25.0074466666667","6500400","永和區"
"234012","KEA-2591","2019/12/03 13:13:39","新北市永和區仁愛路104巷2號","121.512128333333","25.013315","6500400","永和區"
"234060","AAD-866","2019/12/03 13:13:37","新北市永和區秀朗路一段151號","121.516355","25.0045616666667","6500400","永和區"
"234040","748-BX","2019/12/03 13:13:29","新北市永和區保平路203巷23號","121.509231666667","25.0047183333333","6500400","永和區"
"234048","863-TW","2019/12/03 13:13:22","新北市永和區保福路二段90號","121.510436666667","25.0134283333333","6500400","永和區"
"234025","9371-KE","2019/12/03 13:13:25","新北市永和區豫溪街28巷19號","121.515071666667","25.0089366666667","6500400","永和區"
"234010","9373-KE","2019/12/03 13:13:23","新北市永和區文化路126巷10弄2號","121.513138333333","25.0158883333333","6500400","永和區"
"248017","KED-0813","2019/12/03 13:13:31","新北市五股區成泰路三段55號","121.443231666667","25.0895466666667","6501500","五股區"
"234022","9380-KE","2019/12/03 13:13:36","新北市永和區竹林路124巷29號","121.51848","25.011185","6500400","永和區"
"234076","969-R7","2019/12/03 13:13:26","新北市永和區中正路164號","121.515055","24.9966883333333","6500400","永和區"
"234072","AAC-211","2019/12/03 13:13:25","新北市永和區竹林路146號","121.520016666667","25.0107866666667","6500400","永和區"
"234066","AAC-212","2019/12/03 13:13:33","新北市永和區永平路81巷12號","121.511673333333","25.0079916666667","6500400","永和區"
"234001","AAC-295","2019/12/03 13:13:36","新北市永和區和平街76號","121.51171","25.0098983333333","6500400","永和區"
"244002","248-BX","2019/12/03 13:13:29","新北市林口區頭湖74-10號","121.366015","25.0881533333333","6501700","林口區"
"231030","002-UM","2019/12/03 13:13:19","新北市新店區安華路28-1號","121.519871666667","24.9607533333333","6500600","新店區"
"231027","0293-UT","2019/12/03 13:13:32","新北市新店區安華路28-1號","121.519508333333","24.960605","6500600","新店區"
"231001","047-UY","2019/12/03 13:13:35","新北市新店區安一路一段1-1號","121.519176666667","24.961035","6500600","新店區"
"231029","106-UY","2019/12/03 13:13:38","新北市新店區安華路28-1號","121.519615","24.96079","6500600","新店區"
"231018","107-UY","2019/12/03 13:13:28","新北市新店區環河路121號","121.529706666667","24.9716966666667","6500600","新店區"
"231036","110-UY","2019/12/03 13:13:25","新北市新店區安康路三段454號","121.484325","24.95123","6500600","新店區"
"231023","260-TV","2019/12/03 13:13:32","新北市新店區安一路一段1-1號","121.519291666667","24.9610766666667","6500600","新店區"
"231003","268-BY","2019/12/03 13:13:31","新北市新店區安一路一段1-1號","121.519793333333","24.9612866666667","6500600","新店區"
"231035","278-BY","2019/12/03 13:13:23","新北市新店區安華路30巷1號","121.519423333333","24.9597283333333","6500600","新店區"
"231015","AAD-862","2019/12/03 13:13:27","新北市新店區安華路28-1號","121.519746666667","24.9609816666667","6500600","新店區"
"231006","355-BY","2019/12/03 13:13:26","新北市新店區安華路3號","121.519445","24.959855","6500600","新店區"
"231024","4716-K9","2019/12/03 13:13:23","新北市新店區安華路28-1號","121.519605","24.9606616666667","6500600","新店區"
"231025","4715-K9","2019/12/03 13:13:26","新北市新店區安康路一段50號","121.530306666667","24.9611166666667","6500600","新店區"
"231020","513-UM","2019/12/03 13:13:35","新北市新店區安一路一段1-1號","121.519708333333","24.96109","6500600","新店區"
"231032","515-UM","2019/12/03 13:13:37","新北市新店區安一路一段1-1號","121.51911","24.96117","6500600","新店區"
"231034","641-BX","2019/12/03 13:13:25","新北市新店區安華路28-1號","121.51954","24.9605833333333","6500600","新店區"
"231012","KED-0819","2019/12/03 13:13:20","新北市新店區安一路一段1-1號","121.519933333333","24.96123","6500600","新店區"
"231010","719-UM","2019/12/03 13:13:34","新北市新店區安一路一段1-1號","121.519661666667","24.96142","6500600","新店區"
"231026","720-UM","2019/12/03 13:13:33","新北市新店區安一路一段1-1號","121.519293333333","24.96129","6500600","新店區"
"231028","897-TW","2019/12/03 13:13:34","新北市新店區安華路28-1號","121.519771666667","24.9607283333333","6500600","新店區"
"231004","899-TW","2019/12/03 13:13:25","新北市新店區安華路28-1號","121.519246666667","24.9608766666667","6500600","新店區"
"231037","AKT-0513","2019/12/03 13:13:32","新北市新店區安華路28-1號","121.519478333333","24.9606083333333","6500600","新店區"
"235028","005-UY","2019/12/03 13:13:30","新北市中和區圓通路167巷7號","121.498073333333","24.9950683333333","6500300","中和區"
"235027","006-UY","2019/12/03 13:13:20","新北市中和區員山路36巷16-3號","121.485081666667","24.9913416666667","6500300","中和區"
"235020","096-UM","2019/12/03 13:13:33","新北市中和區員山路36巷16-3號","121.484596666667","24.99107","6500300","中和區"
"235003","097-UM","2019/12/03 13:13:32","新北市中和區中正路271號","121.495856666667","24.9937833333333","6500300","中和區"
"235029","098-UM","2019/12/03 13:13:25","新北市中和區莊敬路49巷20弄24號","121.50278","25.0057433333333","6500300","中和區"
"235004","150-BY","2019/12/03 13:13:22","新北市中和區中正路305號","121.492775","24.9938966666667","6500300","中和區"
"235022","151-BY","2019/12/03 13:13:21","新北市中和區圓通路367巷12號","121.49163","24.9890216666667","6500300","中和區"
"235019","183-VK","2019/12/03 13:13:23","新北市土城區金城路三段315號","121.475213333333","24.9911833333333","6500300","中和區"
"235002","185-VK","2019/12/03 13:13:24","新北市中和區大智街35號","121.52056","24.991985","6500300","中和區"
"235031","255-BX","2019/12/03 13:13:22","新北市中和區新生街187號","121.483725","25.000375","6500300","中和區"
"235036","301-VK","2019/12/03 13:13:20","新北市中和區錦和路97號","121.490106666667","24.9955316666667","6500300","中和區"
"235007","352-BY","2019/12/03 13:13:29","新北市中和區中正路33號","121.502105","24.99345","6500300","中和區"
"235006","KEA-2878","2019/12/03 13:13:31","新北市中和區中正路67號","121.50135","24.9935166666667","6500300","中和區"
"235014","4978-A6","2019/12/03 13:13:19","新北市中和區中正路91號","121.500403333333","24.9934033333333","6500300","中和區"
"235033","4980-A6","2019/12/03 13:13:21","新北市中和區圓通路333號","121.492021666667","24.9906283333333","6500300","中和區"
"235034","558-UM","2019/12/03 13:13:16","新北市中和區圓通路138號","121.498381666667","24.995805","6500300","中和區"
"235009","565-BX","2019/12/03 13:13:21","新北市中和區復興路263巷9弄11號","121.503288333333","24.98984","6500300","中和區"
"235024","KED-0823","2019/12/03 13:13:32","新北市中和區員山路321號","121.481175","25.0005566666667","6500300","中和區"
"235018","640-BX","2019/12/03 13:13:37","新北市中和區民享街86巷2號","121.474363333333","25.0010416666667","6500300","中和區"
"235035","647-TV","2019/12/03 13:13:27","新北市中和區立德街200巷23號","121.48528","25.009805","6500300","中和區"
"235010","733-UM","2019/12/03 13:13:19","新北市中和區員山路36巷13號","121.484166666667","24.9908466666667","6500300","中和區"
"235026","800-TS","2019/12/03 13:13:38","新北市中和區景平路999巷1號","121.495403333333","25.0059533333333","6500300","中和區"
"235021","801-TS","2019/12/03 13:13:35","新北市中和區員山路263號","121.481125","24.99925","6500300","中和區"
"235005","802-TS","2019/12/03 13:13:36","新北市中和區中正路305號","121.492643333333","24.993845","6500300","中和區"
"235016","805-TS","2019/12/03 13:13:28","新北市中和區南山路273號","121.503996666667","24.9924733333333","6500300","中和區"
"235015","157-BY","2019/12/03 13:13:35","新北市中和區信義街19號","121.510985","24.9894666666667","6500300","中和區"
"235001","AAC-213","2019/12/03 13:13:22","新北市中和區景平路151巷37號","121.514588333333","24.9907383333333","6500300","中和區"
"247013","056-VK","2019/12/03 13:13:17","新北市五股區中興路三段163號","121.44906","25.080915","6501400","蘆洲區"
"235013","251-BX","2019/12/03 13:13:21","新北市中和區建八路1號","121.485448333333","24.9985366666667","6500300","中和區"
"223001","437-BY","2019/12/03 13:13:16","新北市新店區安華路30巷1號","121.51937","24.9595483333333","6501900","石碇區"
"228004","212-TW","2019/12/03 13:13:26","新北市貢寮區吉林里內寮街65-5號","121.892281666667","24.9784633333333","6502600","貢寮區"
"228005","828-UM","2019/12/03 13:13:18","新北市貢寮區仁理村仁和路49巷7號","121.923203333333","25.0539116666667","6502600","貢寮區"
"207002","749-BX","2019/12/03 13:13:18","新北市萬里區崁腳里崁腳路166號","121.645101666667","25.15593","6502800","萬里區"
"207001","662-BX","2019/12/03 13:13:25","新北市萬里區萬里里瑪鋉路314號","121.688203333333","25.18215","6502800","萬里區"
"252005","AAC-283","2019/12/03 13:13:31","新北市三芝區八賢里八連溪1號","121.508726666667","25.2469033333333","6502100","三芝區"
"220030","610-BX","2019/12/03 13:13:30","新北市板橋區華東街1-9號","121.448215","24.994915","6500100","板橋區"
"220108","985-R7","2019/12/03 13:13:37","新北市板橋區華東街1-10號","121.44828","24.9949483333333","6500100","板橋區"
"235025","KEA-2875","2019/12/03 13:13:21","新北市中和區民德路105號","121.468835","25.000735","6500300","中和區"
