"lineid","car","time","location","longitude","latitude","cityid","cityname"
"234044","148-BY","2019/12/03 13:43:23","新北市永和區秀朗路二段161巷24號","121.525343333333","25.002435","6500400","永和區"
"234078","298-R6","2019/12/03 13:43:30","新北市永和區永亨路98號","121.523051666667","25.004865","6500400","永和區"
"234036","336-UY","2019/12/03 13:43:21","新北市永和區環河東路四段22號","121.528571666667","24.999555","6500400","永和區"
"234062","337-UY","2019/12/03 13:43:29","新北市永和區秀朗路一段192巷6弄12號","121.519056666667","25.0023433333333","6500400","永和區"
"234084","338-UY","2019/12/03 13:43:15","新北市永和區永亨路7號","121.519355","25.00569","6500400","永和區"
"234068","552-UM","2019/12/03 13:43:28","新北市永和區永和路二段217號","121.51547","25.0141033333333","6500400","永和區"
"234015","745-BX","2019/12/03 13:43:36","新北市永和區永和路二段297號","121.516055","25.0160733333333","6500400","永和區"
"234028","746-BX","2019/12/03 13:43:33","新北市永和區民生路51號","121.522711666667","24.9977283333333","6500400","永和區"
"234052","KEA-2590","2019/12/03 13:43:27","新北市永和區竹林路67巷6號","121.518773333333","25.0136883333333","6500400","永和區"
"234005","KED-0605","2019/12/03 13:43:28","新北市永和區永和路一段115-1號","121.513943333333","25.0081183333333","6500400","永和區"
"234012","KEA-2591","2019/12/03 13:43:33","新北市永和區永平路258號","121.50837","25.011505","6500400","永和區"
"234060","AAD-866","2019/12/03 13:43:17","新北市永和區中正路49號","121.514523333333","24.9962483333333","6500400","永和區"
"234040","748-BX","2019/12/03 13:43:30","新北市永和區中和路305巷2弄1號","121.50656","25.00011","6500400","永和區"
"234048","863-TW","2019/12/03 13:43:22","新北市永和區環河西路一段103號","121.5111","25.017605","6500400","永和區"
"234025","9371-KE","2019/12/03 13:43:25","新北市永和區自由街56號","121.51375","25.0059733333333","6500400","永和區"
"234010","9373-KE","2019/12/03 13:43:31","新北市永和區保安路89號","121.50835","25.0145516666667","6500400","永和區"
"248017","KED-0813","2019/12/03 13:43:30","新北市五股區民義路二段41號","121.413916666667","25.1014366666667","6501500","五股區"
"234022","9380-KE","2019/12/03 13:43:23","新北市永和區中正路662巷23號","121.517601666667","25.0088583333333","6500400","永和區"
"234076","969-R7","2019/12/03 13:43:34","新北市永和區民族街45號","121.518653333333","24.99846","6500400","永和區"
"234072","AAC-211","2019/12/03 13:43:25","新北市永和區竹林路179巷37號","121.5222","25.0102683333333","6500400","永和區"
"234066","AAC-212","2019/12/03 13:43:33","新北市永和區永平路173巷14弄4號","121.510181666667","25.0085233333333","6500400","永和區"
"234001","AAC-295","2019/12/03 13:43:35","新北市永和區福和路346號","121.51499","25.0071933333333","6500400","永和區"
"244002","248-BX","2019/12/03 13:43:29","新北市林口區南勢里33-3號","121.35221","25.0703","6501700","林口區"
"231030","002-UM","2019/12/03 13:43:19","新北市新店區安康路一段146號","121.52641","24.96291","6500600","新店區"
"231027","0293-UT","2019/12/03 13:43:32","新北市新店區國校路76-1號","121.538558333333","24.9530883333333","6500600","新店區"
"231005","046-UY","2019/12/03 13:43:31","新北市新店區寶中路74號","121.548148333333","24.9806066666667","6500600","新店區"
"231001","047-UY","2019/12/03 13:43:35","新北市新店區中正路376號","121.534891666667","24.9767216666667","6500600","新店區"
"231029","106-UY","2019/12/03 13:43:19","新北市新店區安康路二段199號","121.50917","24.9590516666667","6500600","新店區"
"231018","107-UY","2019/12/03 13:43:28","新北市新店區百忍街46號","121.53337","24.9760416666667","6500600","新店區"
"231013","108-UY","2019/12/03 13:43:24","新北市新店區二十張路58-1號","121.536845","24.98033","6500600","新店區"
"231036","110-UY","2019/12/03 13:43:25","新北市新店區安祥路147巷66號","121.475991666667","24.956045","6500600","新店區"
"231023","260-TV","2019/12/03 13:43:39","新北市新店區國校路8號","121.537895","24.9559633333333","6500600","新店區"
"231003","268-BY","2019/12/03 13:43:31","新北市新店區中興路一段267-2號","121.544968333333","24.9677983333333","6500600","新店區"
"231035","278-BY","2019/12/03 13:43:22","新北市新店區安忠路57巷2號","121.513455","24.9592516666667","6500600","新店區"
"231015","AAD-862","2019/12/03 13:43:27","新北市新店區竹林路26巷42號","121.551343333333","24.9509133333333","6500600","新店區"
"231006","355-BY","2019/12/03 13:43:26","新北市新店區北宜路一段140巷1號","121.539755","24.954685","6500600","新店區"
"231038","3712-VJ","2019/12/03 13:43:28","新北市新店區安華路30巷1號","121.519561666667","24.95925","6500600","新店區"
"231024","4716-K9","2019/12/03 13:43:23","新北市新店區中華路64號","121.539275","24.96899","6500600","新店區"
"231025","4715-K9","2019/12/03 13:43:26","新北市新店區中央四街5-1號","121.530113333333","24.9738333333333","6500600","新店區"
"231020","513-UM","2019/12/03 13:43:35","新北市新店區永興路41號","121.543736666667","24.9378233333333","6500600","新店區"
"231032","515-UM","2019/12/03 13:43:21","新北市新店區莒光路12號","121.527121666667","24.9609333333333","6500600","新店區"
"231002","619-UM","2019/12/03 13:43:26","新北市新店區溪園路393號","121.524256666667","24.979045","6500600","新店區"
"231034","641-BX","2019/12/03 13:43:25","新北市新店區達觀路14巷1號","121.504466666667","24.9417116666667","6500600","新店區"
"231012","KED-0819","2019/12/03 13:43:20","新北市新店區德正街27巷27號","121.545736666667","24.9715733333333","6500600","新店區"
"231010","719-UM","2019/12/03 13:43:34","新北市新店區三民路60巷5號","121.535366666667","24.9724833333333","6500600","新店區"
"231026","720-UM","2019/12/03 13:43:33","新北市新店區光明街223號","121.54014","24.9642216666667","6500600","新店區"
"231028","897-TW","2019/12/03 13:43:36","新北市新店區安和路一段52巷2號","121.517596666667","24.9661833333333","6500600","新店區"
"231004","899-TW","2019/12/03 13:43:25","新北市新店區北新路二段35號","121.542808333333","24.9726783333333","6500600","新店區"
"231037","AKT-0513","2019/12/03 13:43:32","新北市新店區安康路三段148號","121.490668333333","24.9517783333333","6500600","新店區"
"235030","003-UY","2019/12/03 13:43:35","新北市中和區水源路34巷2號","121.50482","25.0034666666667","6500300","中和區"
"235028","005-UY","2019/12/03 13:43:30","新北市中和區泰和街44巷27號","121.498181666667","25.001065","6500300","中和區"
"235027","006-UY","2019/12/03 13:43:20","新北市中和區錦和路111-1號","121.490221666667","24.9951033333333","6500300","中和區"
"235020","096-UM","2019/12/03 13:43:33","新北市中和區新民街94巷18號","121.481358333333","25.00902","6500300","中和區"
"235003","097-UM","2019/12/03 13:43:32","新北市中和區大勇街25巷38弄13號","121.516185","24.9942066666667","6500300","中和區"
"235029","098-UM","2019/12/03 13:43:24","新北市中和區中山路二段2巷13弄13號","121.503411666667","25.00649","6500300","中和區"
"235004","150-BY","2019/12/03 13:43:21","新北市中和區保健路50巷68號","121.509181666667","24.995185","6500300","中和區"
"235022","151-BY","2019/12/03 13:43:21","新北市中和區連城路442號","121.47977","24.994805","6500300","中和區"
"235019","183-VK","2019/12/03 13:43:23","新北市中和區民生街72號","121.468565","25.0048666666667","6500300","中和區"
"235002","185-VK","2019/12/03 13:43:24","新北市中和區自強路60號","121.520128333333","24.9944933333333","6500300","中和區"
"235031","255-BX","2019/12/03 13:43:22","新北市中和區新生街220巷1弄9號","121.483328333333","24.9981733333333","6500300","中和區"
"235008","293-VK","2019/12/03 13:43:34","新北市中和區復興路280巷38號","121.501378333333","24.99185","6500300","中和區"
"235036","301-VK","2019/12/03 13:43:20","新北市中和區中山路二段75號","121.503718333333","25.004445","6500300","中和區"
"235007","352-BY","2019/12/03 13:43:29","新北市中和區景平路45號","121.521855","24.99051","6500300","中和區"
"235006","KEA-2878","2019/12/03 13:43:31","新北市中和區成功路87號","121.526103333333","24.9919883333333","6500300","中和區"
"235014","4978-A6","2019/12/03 13:43:19","新北市中和區景新街496巷30弄36號","121.512558333333","24.9856533333333","6500300","中和區"
"235033","4980-A6","2019/12/03 13:43:22","新北市中和區南山路81巷8弄4號","121.502468333333","24.9978316666667","6500300","中和區"
"235032","551-UM","2019/12/03 13:43:31","新北市中和區中正路269號","121.49592","24.9934583333333","6500300","中和區"
"235034","558-UM","2019/12/03 13:43:36","新北市中和區中和路194號","121.505106666667","24.9996916666667","6500300","中和區"
"235009","565-BX","2019/12/03 13:43:20","新北市中和區捷運路58-3號","121.507448333333","24.990655","6500300","中和區"
"235024","KED-0823","2019/12/03 13:43:32","新北市中和區民治街7巷2號","121.475086666667","25.0046416666667","6500300","中和區"
"235018","640-BX","2019/12/03 13:43:37","新北市中和區民享街2巷2號","121.47374","25.0058966666667","6500300","中和區"
"235035","647-TV","2019/12/03 13:43:27","新北市中和區中山路二段476-10號","121.48765","25.0056883333333","6500300","中和區"
"235011","732-UM","2019/12/03 13:43:18","新北市中和區興南路二段34巷75號","121.505111666667","24.984945","6500300","中和區"
"235010","733-UM","2019/12/03 13:43:39","新北市中和區仁愛街36巷26號","121.510941666667","24.9870933333333","6500300","中和區"
"235026","800-TS","2019/12/03 13:43:18","新北市中和區中山路二段340巷19號","121.49343","25.0031","6500300","中和區"
"235021","801-TS","2019/12/03 13:43:17","新北市中和區民利街22號","121.480215","24.9991183333333","6500300","中和區"
"235005","802-TS","2019/12/03 13:43:36","新北市中和區中和路390號","121.511271666667","25.0025083333333","6500300","中和區"
"235016","805-TS","2019/12/03 13:43:28","新北市中和區興南路三段73巷8號","121.492281666667","24.974375","6500300","中和區"
"235012","896-TW","2019/12/03 13:43:38","新北市中和區南山路273號","121.504006666667","24.9924233333333","6500300","中和區"
"235017","900-TW","2019/12/03 13:43:35","新北市中和區華順街103巷1號","121.465388333333","24.9973866666667","6500300","中和區"
"235015","157-BY","2019/12/03 13:43:35","新北市中和區華新街109巷11弄3-10號","121.508868333333","24.9797583333333","6500300","中和區"
"235001","AAC-213","2019/12/03 13:43:35","新北市中和區自立路99巷36弄2號","121.523905","24.9942533333333","6500300","中和區"
"235023","AAC-215","2019/12/03 13:43:31","新北市中和區錦和路356號","121.490553333333","24.99141","6500300","中和區"
"220002","015-TV","2019/12/03 13:43:26","新北市板橋區南雅南路二段120-2號","121.452318333333","24.9998066666667","6500100","板橋區"
"220013","072-UY","2019/12/03 13:43:32","新北市板橋區成都街43號","121.461341666667","25.0048583333333","6500100","板橋區"
"220034","073-UY","2019/12/03 13:43:19","新北市板橋區南雅南路二段120-8號","121.452246666667","24.9995666666667","6500100","板橋區"
"220017","AAD-861","2019/12/03 13:43:20","新北市板橋區大華街70號","121.459121666667","25.0057916666667","6500100","板橋區"
"247011","341-TH","2019/12/03 13:43:22","新北市五股區中興路三段163號","121.449168333333","25.0807783333333","6501400","蘆洲區"
"247003","336-TH","2019/12/03 13:43:35","新北市蘆洲區中原路24號","121.4602","25.0828866666667","6501400","蘆洲區"
"247013","056-VK","2019/12/03 13:43:37","新北市蘆洲區環堤大道365號","121.45718","25.0974216666667","6501400","蘆洲區"
"247007","002-UY","2019/12/03 13:43:20","新北市蘆洲區國道路二段25號","121.475153333333","25.0737816666667","6501400","蘆洲區"
"247001","001-UY","2019/12/03 13:43:31","新北市五股區新城三路45號","121.449168333333","25.093405","6501400","蘆洲區"
"235013","251-BX","2019/12/03 13:43:30","新北市中和區景安路132巷16號","121.504126666667","24.9942516666667","6500300","中和區"
"223001","437-BY","2019/12/03 13:43:36","新北市石碇區碇坪路一段107號","121.663483333333","24.9890683333333","6501900","石碇區"
"228004","212-TW","2019/12/03 13:43:26","新北市貢寮區龍崗里嵩陽街8號","121.901878333333","25.010835","6502600","貢寮區"
"228005","828-UM","2019/12/03 13:43:18","新北市貢寮區美豐里文秀坑2號","121.901136666667","25.05378","6502600","貢寮區"
"207002","749-BX","2019/12/03 13:43:18","新北市萬里區崁腳里崁腳路166號","121.64511","25.15584","6502800","萬里區"
"207001","662-BX","2019/12/03 13:43:25","新北市萬里區大鵬里萬里加投63號","121.640765","25.2131316666667","6502800","萬里區"
"252005","AAC-283","2019/12/03 13:43:27","新北市三芝區圓山里木屐寮38號","121.530608333333","25.2260433333333","6502100","三芝區"
"236040","KED-0685","2019/12/03 13:43:34","新北市土城區城林路6巷80號","121.438485","24.9797916666667","6501300","土城區"
"220110","KED-0812","2019/12/03 13:43:28","新北市板橋區文化路二段159號","121.470476666667","25.0272383333333","6500100","板橋區"
"236029","253-BX","2019/12/03 13:43:21","新北市土城區城林路6巷80號","121.438516666667","24.9797766666667","6501300","土城區"
"236032","271-VK","2019/12/03 13:43:20","新北市土城區城林路6巷80號","121.43861","24.9797216666667","6501300","土城區"
"236065","KEA-2877","2019/12/03 13:43:25","新北市土城區城林路6巷80號","121.438765","24.9797316666667","6501300","土城區"
"236017","401-BY","2019/12/03 13:43:21","新北市土城區城林路6巷80號","121.43865","24.9797416666667","6501300","土城區"
"236013","752-BX","2019/12/03 13:43:29","新北市土城區城林路6巷80號","121.43858","24.9797766666667","6501300","土城區"
"236057","912-UM","2019/12/03 13:43:19","新北市土城區城林路6巷80號","121.438466666667","24.9797616666667","6501300","土城區"
"236060","915-UM","2019/12/03 13:43:26","新北市土城區城林路6巷80號","121.438453333333","24.9797583333333","6501300","土城區"
"236054","AAC-216","2019/12/03 13:43:29","新北市土城區城林路6巷80號","121.43865","24.9797","6501300","土城區"
"220027","145-BY","2019/12/03 13:43:22","新北市板橋區南雅西路二段175巷5號","121.451576666667","25.0122383333333","6500100","板橋區"
"220028","200-UY","2019/12/03 13:43:19","新北市板橋區大觀路二段443-2號","121.441273333333","24.9952016666667","6500100","板橋區"
"220030","610-BX","2019/12/03 13:43:30","新北市板橋區篤行路二段99號","121.43158","24.99148","6500100","板橋區"
"220050","245-BX","2019/12/03 13:43:30","新北市板橋區文化路二段2號","121.468615","25.02384","6500100","板橋區"
"220004","276-BY","2019/12/03 13:43:32","新北市板橋區四川路一段89號","121.459696666667","25.0056716666667","6500100","板橋區"
"220020","277-BY","2019/12/03 13:43:31","新北市板橋區金門街47巷26號","121.433713333333","24.9933016666667","6500100","板橋區"
"220043","283-UM","2019/12/03 13:43:24","新北市板橋區民生路二段120號","121.470435","25.0195816666667","6500100","板橋區"
"220019","283-VK","2019/12/03 13:43:33","新北市板橋區四川路一段262號","121.459045","25.0011533333333","6500100","板橋區"
"220107","286-VK","2019/12/03 13:43:28","新北市板橋區大觀路二段5號","121.446973333333","25.003915","6500100","板橋區"
"220029","287-VK","2019/12/03 13:43:36","新北市板橋區南雅東路89號","121.453293333333","25.008635","6500100","板橋區"
"220039","288-VK","2019/12/03 13:43:28","新北市板橋區民生路二段188號","121.470146666667","25.0203866666667","6500100","板橋區"
"220009","293-UM","2019/12/03 13:43:28","新北市板橋區太和街5巷4號","121.473548333333","25.0200733333333","6500100","板橋區"
"220032","296-UM","2019/12/03 13:43:29","新北市板橋區大觀路二段174巷102弄19-1號","121.441698333333","25.0012616666667","6500100","板橋區"
"220023","303-R5","2019/12/03 13:43:26","新北市板橋區南雅南路二段120-1號","121.452278333333","24.999735","6500100","板橋區"
"220010","305-R5","2019/12/03 13:43:24","新北市板橋區民生路二段89-6號","121.470718333333","25.018975","6500100","板橋區"
"220041","307-R5","2019/12/03 13:43:19","新北市板橋區板新路236號","121.467996666667","25.0164233333333","6500100","板橋區"
"220037","491-VK","2019/12/03 13:43:36","新北市板橋區民生路二段161巷1號","121.469976666667","25.0199016666667","6500100","板橋區"
"220104","560-BX","2019/12/03 13:43:21","新北市板橋區南雅西路二段295號","121.452073333333","25.0155666666667","6500100","板橋區"
"220052","561-BX","2019/12/03 13:43:36","新北市板橋區縣民大道三段32號","121.471558333333","25.0185383333333","6500100","板橋區"
"220109","609-BX","2019/12/03 13:43:32","新北市板橋區民生路一段121號","121.473855","25.0147216666667","6500100","板橋區"
"220040","637-BX","2019/12/03 13:43:33","新北市板橋區文化路一段270巷85號","121.469388333333","25.0201","6500100","板橋區"
"220005","686-BX","2019/12/03 13:43:33","新北市板橋區館前東路39號","121.460976666667","25.0073566666667","6500100","板橋區"
"220025","687-BX","2019/12/03 13:43:27","新北市板橋區篤行路一段39號","121.432006666667","24.9941633333333","6500100","板橋區"
"220111","689-BX","2019/12/03 13:43:19","新北市板橋區民生路二段188號","121.470278333333","25.0201866666667","6500100","板橋區"
"220051","KEA-2699","2019/12/03 13:43:25","新北市板橋區民生路二段161巷5號","121.470186666667","25.0197216666667","6500100","板橋區"
"220003","827-TW","2019/12/03 13:43:35","新北市板橋區實踐路132號","121.464325","25.00257","6500100","板橋區"
"220105","829-TW","2019/12/03 13:43:37","新北市板橋區民生路二段188號","121.47023","25.0203016666667","6500100","板橋區"
"220016","830-TW","2019/12/03 13:43:31","新北市板橋區莊敬路208巷8弄6號","121.470933333333","25.0207816666667","6500100","板橋區"
"220022","895-R6","2019/12/03 13:43:23","新北市板橋區南門街52號","121.456878333333","25.0080616666667","6500100","板橋區"
"220108","985-R7","2019/12/03 13:43:37","新北市板橋區館前西路66號","121.45787","25.0069566666667","6500100","板橋區"
"220046","AAC-210","2019/12/03 13:43:24","新北市板橋區民生路二段89-6號","121.470776666667","25.01917","6500100","板橋區"
"220012","AAC-253","2019/12/03 13:43:30","新北市板橋區中山路一段293-2號","121.470945","25.0144183333333","6500100","板橋區"
"235025","KEA-2875","2019/12/03 13:43:21","新北市中和區民享街89巷9弄3號","121.474866666667","25.0020183333333","6500300","中和區"
