"lineid","car","time","location","longitude","latitude","cityid","cityname"
"234025","9371-KE","2019/12/03 14:59:25","新北市永和區水源街30巷2號","121.51142","25.0046266666667","6500400","永和區"
"248017","KED-0813","2019/12/03 14:59:31","新北市五股區登林路112-1號","121.426096666667","25.070445","6501500","五股區"
"244002","248-BX","2019/12/03 14:59:29","新北市林口區南勢里33-3號","121.3522","25.0702233333333","6501700","林口區"
"231030","002-UM","2019/12/03 14:59:19","新北市新店區安民街389號","121.516023333333","24.97691","6500600","新店區"
"231005","046-UY","2019/12/03 14:59:31","新北市新店區寶慶街58巷2號","121.542058333333","24.9868733333333","6500600","新店區"
"231001","047-UY","2019/12/03 14:59:35","新北市新店區中正路261號","121.538811666667","24.97358","6500600","新店區"
"231029","106-UY","2019/12/03 14:59:18","新北市新店區錦秀路11巷38號","121.480843333333","24.9439333333333","6500600","新店區"
"231018","107-UY","2019/12/03 14:59:28","新北市新店區中央路113號","121.530976666667","24.9744866666667","6500600","新店區"
"231013","108-UY","2019/12/03 14:59:24","新北市新店區安康路一段61號","121.530565","24.96095","6500600","新店區"
"231036","110-UY","2019/12/03 14:59:31","新北市新店區安祥路102巷46弄39號","121.485963333333","24.963635","6500600","新店區"
"231039","187-VK","2019/12/03 14:59:35","新北市新店區中興路三段220巷1號","121.543503333333","24.9827216666667","6500600","新店區"
"231023","260-TV","2019/12/03 14:59:32","新北市新店區檳榔路109號","121.544465","24.9616083333333","6500600","新店區"
"231003","268-BY","2019/12/03 14:59:31","新北市新店區中興路二段100巷1號","121.547458333333","24.97158","6500600","新店區"
"231035","278-BY","2019/12/03 14:59:22","新北市新店區安和路三段61號","121.517968333333","24.983435","6500600","新店區"
"231015","AAD-862","2019/12/03 14:59:27","新北市新店區北宜路三段187號","121.587013333333","24.9527683333333","6500600","新店區"
"231006","355-BY","2019/12/03 14:59:26","新北市新店區北宜路一段63巷1號","121.538416666667","24.95657","6500600","新店區"
"231038","3712-VJ","2019/12/03 14:59:28","新北市新店區安華路28-1號","121.519741666667","24.960855","6500600","新店區"
"231024","4716-K9","2019/12/03 14:59:23","新北市新店區力行路42號","121.538838333333","24.965225","6500600","新店區"
"231025","4715-K9","2019/12/03 14:59:26","新北市新店區二十張路46巷37弄21-5號","121.535448333333","24.981275","6500600","新店區"
"231020","513-UM","2019/12/03 14:59:34","新北市新店區桂山路38號","121.558346666667","24.90292","6500600","新店區"
"231032","515-UM","2019/12/03 14:59:17","新北市新店區安泰路7巷11號","121.48579","24.95115","6500600","新店區"
"231002","619-UM","2019/12/03 14:59:32","新北市新店區民權路133號","121.535145","24.9826883333333","6500600","新店區"
"231034","641-BX","2019/12/03 14:59:25","新北市新店區玫瑰路4-1號","121.493591666667","24.95143","6500600","新店區"
"231012","KED-0819","2019/12/03 14:59:20","新北市新店區寶橋路132號","121.547368333333","24.9760733333333","6500600","新店區"
"231026","720-UM","2019/12/03 14:59:30","新北市新店區博愛街5號","121.54067","24.972725","6500600","新店區"
"231028","897-TW","2019/12/03 14:59:34","新北市新店區安德街173號","121.508851666667","24.9589666666667","6500600","新店區"
"231004","899-TW","2019/12/03 14:59:25","新北市新店區民族路11號","121.541526666667","24.978745","6500600","新店區"
"231037","AKT-0513","2019/12/03 14:59:31","新北市新店區安民街131號","121.516386666667","24.9691233333333","6500600","新店區"
"235030","003-UY","2019/12/03 14:59:34","新北市中和區中山路二段3巷10號","121.50587","25.0055966666667","6500300","中和區"
"235020","096-UM","2019/12/03 14:59:33","新北市中和區中山路三段170巷2弄10號","121.473236666667","25.00668","6500300","中和區"
"235003","097-UM","2019/12/03 14:59:32","新北市中和區安平路192號","121.513321666667","24.999065","6500300","中和區"
"235029","098-UM","2019/12/03 14:59:24","新北市中和區福美路312巷7號","121.49655","25.005245","6500300","中和區"
"235004","150-BY","2019/12/03 14:59:21","新北市中和區景安路79巷21號","121.507","24.9968333333333","6500300","中和區"
"235022","151-BY","2019/12/03 14:59:21","新北市新店區薏仁坑路自強巷1號","121.497046666667","24.9580283333333","6500300","中和區"
"235036","301-VK","2019/12/03 14:59:20","新北市中和區連城路164-1號","121.493828333333","24.99841","6500300","中和區"
"235007","352-BY","2019/12/03 14:59:29","新北市中和區興南路一段64巷2號","121.510748333333","24.9902333333333","6500300","中和區"
"235014","4978-A6","2019/12/03 14:59:19","新北市中和區景平路155巷2弄1號","121.513288333333","24.9918933333333","6500300","中和區"
"235033","4980-A6","2019/12/03 14:59:21","新北市中和區南山路81巷50號","121.50378","24.9983083333333","6500300","中和區"
"235032","551-UM","2019/12/03 14:59:30","新北市中和區中山路二段332巷65號","121.493741666667","25.0048633333333","6500300","中和區"
"235034","558-UM","2019/12/03 14:59:36","新北市中和區中正路414號","121.491985","24.9941983333333","6500300","中和區"
"235035","647-TV","2019/12/03 14:59:27","新北市中和區中正路998號","121.482431666667","25.0090266666667","6500300","中和區"
"235010","733-UM","2019/12/03 14:59:19","新北市中和區忠孝街31巷33弄1號","121.509873333333","24.9845616666667","6500300","中和區"
"235012","896-TW","2019/12/03 14:59:18","新北市中和區忠孝街2-7號","121.50918","24.9829683333333","6500300","中和區"
"235015","157-BY","2019/12/03 14:59:35","新北市中和區南山路401號","121.50681","24.9900916666667","6500300","中和區"
"235001","AAC-213","2019/12/03 14:59:35","新北市中和區大勇街8號","121.517106666667","24.9925833333333","6500300","中和區"
"235023","AAC-215","2019/12/03 14:59:31","新北市中和區圓通路335巷3弄2號","121.492618333333","24.990085","6500300","中和區"
"220002","015-TV","2019/12/03 14:59:29","新北市板橋區忠孝路201巷99號","121.46455","25.0050633333333","6500100","板橋區"
"220013","072-UY","2019/12/03 14:59:27","新北市板橋區區運路11號","121.465371666667","25.00977","6500100","板橋區"
"220034","073-UY","2019/12/03 14:59:27","新北市板橋區中正路79號","121.45639","25.0141533333333","6500100","板橋區"
"228004","212-TW","2019/12/03 14:59:25","新北市貢寮區福隆里興隆街100巷7號","121.935826666667","25.0182266666667","6502600","貢寮區"
"207002","749-BX","2019/12/03 14:59:38","新北市萬里區崁腳里崁腳路73號","121.647605","25.1596","6502800","萬里區"
"207001","662-BX","2019/12/03 14:59:24","新北市萬里區雙興里二坪路5-1號","121.649733333333","25.1759583333333","6502800","萬里區"
"252005","AAC-283","2019/12/03 14:59:27","新北市三芝區埔坪里埔頭坑80號","121.510075","25.254005","6502100","三芝區"
"236040","KED-0685","2019/12/03 14:59:34","新北市土城區學士路14號","121.453581666667","24.982935","6501300","土城區"
"220110","KED-0812","2019/12/03 14:59:28","新北市板橋區四維路249號","121.463708333333","25.027675","6500100","板橋區"
"236074","166-UM","2019/12/03 14:59:36","新北市土城區大暖坑11-2號","121.418813333333","24.953595","6501300","土城區"
"236029","253-BX","2019/12/03 14:59:21","新北市土城區福仁街67號","121.439515","24.9746016666667","6501300","土城區"
"236024","269-VK","2019/12/03 14:59:32","新北市土城區中正路74巷6弄1號","121.444698333333","24.97472","6501300","土城區"
"236032","271-VK","2019/12/03 14:59:20","新北市土城區清水路137號","121.458218333333","24.9816766666667","6501300","土城區"
"236065","KEA-2877","2019/12/03 14:59:25","新北市土城區明德路二段104號","121.445293333333","24.9841","6501300","土城區"
"236017","401-BY","2019/12/03 14:59:21","新北市土城區延安街33巷17號","121.46858","24.9849583333333","6501300","土城區"
"236013","752-BX","2019/12/03 14:59:29","新北市土城區立德路13巷22號","121.461593333333","24.9887766666667","6501300","土城區"
"236057","912-UM","2019/12/03 14:59:19","新北市土城區明德路一段385-1號","121.452836666667","24.9801933333333","6501300","土城區"
"236045","913-UM","2019/12/03 14:59:23","新北市土城區青雲路263號","121.459073333333","24.98069","6501300","土城區"
"236060","915-UM","2019/12/03 14:59:35","新北市土城區延和路88巷7號","121.466765","24.9889966666667","6501300","土城區"
"236054","AAC-216","2019/12/03 14:59:29","新北市土城區學成路147號","121.448718333333","24.9895233333333","6501300","土城區"
"220027","145-BY","2019/12/03 14:59:22","新北市板橋區光正街45巷6弄19號","121.460901666667","25.0169466666667","6500100","板橋區"
"220028","200-UY","2019/12/03 14:59:21","新北市板橋區大觀路二段163巷23號","121.44674","25.0000883333333","6500100","板橋區"
"220030","610-BX","2019/12/03 14:59:30","新北市板橋區存德街3號","121.429901666667","24.99199","6500100","板橋區"
"220050","245-BX","2019/12/03 14:59:37","新北市板橋區雙十路二段47巷2弄1號","121.4759","25.02625","6500100","板橋區"
"220004","276-BY","2019/12/03 14:59:24","新北市板橋區四川路二段99巷4弄5號","121.453005","24.994175","6500100","板橋區"
"220020","277-BY","2019/12/03 14:59:31","新北市板橋區金門街217號","121.432405","24.9899","6500100","板橋區"
"220043","283-UM","2019/12/03 14:59:25","新北市板橋區文化路一段128號","121.465095","25.018635","6500100","板橋區"
"220019","283-VK","2019/12/03 14:59:32","新北市板橋區五權街30巷12弄24號","121.463968333333","24.9943133333333","6500100","板橋區"
"220001","285-VK","2019/12/03 14:59:38","新北市板橋區永豐街151號","121.475203333333","25.0201516666667","6500100","板橋區"
"220107","286-VK","2019/12/03 14:59:28","新北市板橋區大觀路一段38巷156弄168號","121.444215","25.009545","6500100","板橋區"
"220029","287-VK","2019/12/03 14:59:15","新北市板橋區僑中一街80巷10弄1號","121.44796","25.0128183333333","6500100","板橋區"
"220009","293-UM","2019/12/03 14:59:28","新北市板橋區中山路一段48號","121.460743333333","25.0088983333333","6500100","板橋區"
"220023","303-R5","2019/12/03 14:59:26","新北市板橋區金華街3號","121.45559","25.020095","6500100","板橋區"
"220010","305-R5","2019/12/03 14:59:24","新北市板橋區中山路二段312號","121.479996666667","25.0190783333333","6500100","板橋區"
"220041","307-R5","2019/12/03 14:59:27","新北市板橋區光正街45巷35號","121.461745","25.0157133333333","6500100","板橋區"
"220047","317-R6","2019/12/03 14:59:18","新北市板橋區新海路385巷20號","121.457993333333","25.025665","6500100","板橋區"
"220037","491-VK","2019/12/03 14:59:36","新北市板橋區懷德街78巷1號","121.478341666667","25.0315516666667","6500100","板橋區"
"220104","560-BX","2019/12/03 14:59:21","新北市板橋區新生街53巷20號","121.457686666667","25.02173","6500100","板橋區"
"220052","561-BX","2019/12/03 14:59:36","新北市板橋區漢生西路50號","121.463035","25.0185033333333","6500100","板橋區"
"220109","609-BX","2019/12/03 14:59:23","新北市板橋區中山路二段465巷77號","121.479913333333","25.0221066666667","6500100","板橋區"
"220040","637-BX","2019/12/03 14:59:37","新北市板橋區懷德街174巷1-16號","121.478871666667","25.0294316666667","6500100","板橋區"
"220005","686-BX","2019/12/03 14:59:33","新北市板橋區四川路二段53號","121.453711666667","24.9952116666667","6500100","板橋區"
"220025","687-BX","2019/12/03 14:59:27","新北市板橋區僑中一街108號","121.446408333333","25.0116366666667","6500100","板橋區"
"220111","689-BX","2019/12/03 14:59:25","新北市板橋區長江路二段216號","121.467763333333","25.0322566666667","6500100","板橋區"
"220051","KEA-2699","2019/12/03 14:59:25","新北市板橋區莒光路40巷17弄8號","121.470673333333","25.0236766666667","6500100","板橋區"
"220003","827-TW","2019/12/03 14:59:35","新北市板橋區仁愛路86巷20號","121.461046666667","24.9986483333333","6500100","板橋區"
"220105","829-TW","2019/12/03 14:59:17","新北市板橋區民治街132號","121.477715","25.030845","6500100","板橋區"
"220016","830-TW","2019/12/03 14:59:31","新北市板橋區光復街234-1號","121.48461","25.02153","6500100","板橋區"
"220014","831-TW","2019/12/03 14:59:28","新北市板橋區中山路一段206巷103號","121.47256","25.0136233333333","6500100","板橋區"
"220022","895-R6","2019/12/03 14:59:23","新北市板橋區文化路一段46巷23號","121.46042","25.0115716666667","6500100","板橋區"
"220108","985-R7","2019/12/03 14:59:36","新北市板橋區南雅西路二段82號","121.452535","25.0108916666667","6500100","板橋區"
"220046","AAC-210","2019/12/03 14:59:24","新北市板橋區光正街43號","121.461766666667","25.017025","6500100","板橋區"
"220012","AAC-253","2019/12/03 14:59:29","新北市板橋區民族路89號","121.466208333333","25.0083133333333","6500100","板橋區"
