"lineid","car","time","location","longitude","latitude","cityid","cityname"
"249005","172-UM","2019/12/03 16:43:26","新北市八里區龍米路三段45-1號","121.424745","25.1586566666667","6502300","八里區"
"249002","305-UY","2019/12/03 16:43:24","新北市八里區牛寮埔33號","121.429903333333","25.145695","6502300","八里區"
"249003","593-UM","2019/12/03 16:43:31","新北市八里區中山路二段283號","121.401571666667","25.148655","6502300","八里區"
"244021","838-TS","2019/12/03 16:43:25","新北市林口區粉寮路二段160巷28號","121.40526","25.0908216666667","6501700","林口區"
"231046","719-UM","2019/12/03 16:43:17","新北市新店區灣潭路5-1號","121.53741","24.9486783333333","6500600","新店區"
"241011","013-R5","2019/12/03 16:43:33","新北市三重區仁愛街44號","121.49636","25.0720466666667","6500200","三重區"
"241028","022-UY","2019/12/03 16:43:25","新北市三重區正義南路65號","121.498291666667","25.060285","6500200","三重區"
"241008","059-VK","2019/12/03 16:43:19","新北市三重區永安北路一段21巷36號","121.477428333333","25.075305","6500200","三重區"
"241031","061-VK","2019/12/03 16:31:04","新北市三重區過圳街46號","121.487241666667","25.0608566666667","6500200","三重區"
"241015","062-VK","2019/12/03 16:43:22","新北市三重區文化北路41-5號","121.499053333333","25.0654716666667","6500200","三重區"
"241017","063-VK","2019/12/03 16:43:32","新北市三重區中正北路25巷18-9號","121.493123333333","25.0630683333333","6500200","三重區"
"241024","065-VK","2019/12/03 16:43:21","新北市三重區中正北路315巷6弄6-1號","121.475195","25.0719566666667","6500200","三重區"
"241007","066-VK","2019/12/03 16:43:32","新北市三重區三和路四段171號","121.482981666667","25.078775","6500200","三重區"
"241002","090-VK","2019/12/03 16:43:21","新北市三重區仁義街241巷21號","121.496896666667","25.08288","6500200","三重區"
"241003","742-BX","2019/12/03 16:43:23","新北市三重區五華街71巷8號","121.492623333333","25.08312","6500200","三重區"
"241006","262-UM","2019/12/03 16:43:22","新北市三重區力行路二段182-3號","121.48339","25.0776333333333","6500200","三重區"
"241016","266-UM","2019/12/03 16:43:34","新北市三重區大同北路113號","121.49421","25.06435","6500200","三重區"
"241009","267-UM","2019/12/03 16:43:26","新北市三重區三和路四段203巷231號","121.486963333333","25.0807983333333","6500200","三重區"
"241018","268-UM","2019/12/03 16:43:28","新北市三重區正義北路302巷35號","121.49423","25.0695466666667","6500200","三重區"
"241032","269-UM","2019/12/03 16:43:38","新北市三重區新北大道一段19號","121.486573333333","25.0613816666667","6500200","三重區"
"241013","270-UM","2019/12/03 16:43:36","新北市三重區仁壽街93號","121.498205","25.0736966666667","6500200","三重區"
"241030","KED-0822","2019/12/03 16:43:35","新北市三重區新興路2巷26號","121.492523333333","25.0522966666667","6500200","三重區"
"241004","475-VK","2019/12/03 16:43:33","新北市三重區仁愛街420號","121.4904","25.081415","6500200","三重區"
"241020","478-VK","2019/12/03 16:43:24","新北市三重區忠孝路二段34號","121.485781666667","25.07102","6500200","三重區"
"241026","480-VK","2019/12/03 16:43:01","新北市三重區和平街4號","121.500453333333","25.062485","6500200","三重區"
"241014","543-UM","2019/12/03 16:43:36","新北市三重區龍濱路80號","121.502413333333","25.0695","6500200","三重區"
"241023","545-UM","2019/12/03 16:43:38","新北市三重區洛陽街60號","121.4814","25.0630033333333","6500200","三重區"
"241001","547-UM","2019/12/03 16:43:24","新北市三重區仁政街62號","121.492893333333","25.0771866666667","6500200","三重區"
"241019","KEA-2593","2019/12/03 16:43:30","新北市三重區力行路一段179巷3號","121.484675","25.0697683333333","6500200","三重區"
"241005","AAD-863","2019/12/03 16:43:18","新北市三重區仁華街118巷26弄23號","121.485223333333","25.0832266666667","6500200","三重區"
"241012","743-BX","2019/12/03 16:43:37","新北市三重區三和路三段101巷178號","121.499763333333","25.0740533333333","6500200","三重區"
"241022","KED-0820","2019/12/03 16:43:38","新北市三重區中華路113號","121.483851666667","25.0634416666667","6500200","三重區"
"241025","KED-0670","2019/12/03 16:43:21","新北市三重區中正北路331巷18號","121.473698333333","25.0723033333333","6500200","三重區"
"241029","942-UM","2019/12/03 16:43:34","新北市三重區集美街207巷5號","121.491976666667","25.0543483333333","6500200","三重區"
"241033","AAC-255","2019/12/03 16:43:29","新北市三重區新北大道二段139巷20號","121.466406666667","25.0606116666667","6500200","三重區"
"247012","341-TH","2019/12/03 16:43:32","新北市五股區中興路三段163號","121.449256666667","25.0808766666667","6501400","蘆洲區"
"247014","056-VK","2019/12/03 16:43:25","新北市蘆洲區環堤大道365號","121.457848333333","25.0975883333333","6501400","蘆洲區"
"247002","001-UY","2019/12/03 16:43:21","新北市五股區凌雲路一段46號","121.45178","25.1008","6501400","蘆洲區"
"228002","663-BX","2019/12/03 16:43:34","新北市貢寮區貢寮里朝陽街17號","121.909796666667","25.0217733333333","6502600","貢寮區"
"228003","828-UM","2019/12/03 16:43:26","新北市貢寮區貢寮里朝陽街1-2號","121.912375","25.0212016666667","6502600","貢寮區"
"224007","285-BY","2019/12/03 16:43:24","新北市瑞芳區中央路48巷162號","121.759251666667","25.1034516666667","6501200","瑞芳區"
"224009","275-VK","2019/12/03 16:43:17","新北市瑞芳區民權街3-1號","121.809158333333","25.10837","6501200","瑞芳區"
"224005","271-BY","2019/12/03 16:43:34","新北市瑞芳區洞頂路12號","121.861391666667","25.1223","6501200","瑞芳區"
"227002","642-TC","2019/12/03 16:43:31","新北市雙溪區長源里柑腳8號","121.804678333333","25.0145933333333","6502500","雙溪區"
"227001","400-TW","2019/12/03 16:43:31","新北市雙溪區牡丹里聖南31-1號","121.855636666667","25.054335","6502500","雙溪區"
"251004","009-UM","2019/12/03 16:43:31","新北市淡水區中正路二段31號","121.41935","25.1816866666667","6501000","淡水區"
"251015","KEA-2871","2019/12/03 16:43:36","新北市淡水區忠愛街4-1號","121.459113333333","25.1713416666667","6501000","淡水區"
"251016","180-VK","2019/12/03 16:43:36","新北市淡水區義山路一段35號","121.437711666667","25.1878683333333","6501000","淡水區"
"251008","181-VK","2019/12/03 16:43:27","新北市淡水區樹梅坑9號","121.472836666667","25.1426666666667","6501000","淡水區"
"251013","182-VK","2019/12/03 16:43:19","新北市淡水區北新路三段171-1號","121.491838333333","25.1919733333333","6501000","淡水區"
"251014","577-R6","2019/12/03 16:43:35","新北市淡水區興仁路2號","121.450671666667","25.214655","6501000","淡水區"
"251011","650-BX","2019/12/03 16:43:35","新北市淡水區中山路88號","121.442873333333","25.1704516666667","6501000","淡水區"
"252001","292-VK","2019/12/03 16:43:25","新北市三芝區埔坪里埔頭坑51號","121.50751","25.2656283333333","6502100","三芝區"
"252002","KED-0821","2019/12/03 16:43:32","新北市三芝區茂長里陳厝坑61-4號","121.513565","25.2549933333333","6502100","三芝區"
"242034","350-TH","2019/12/03 16:43:25","新北市新莊區三和路18-23號","121.44189","25.03893","6500500","新莊區"
"239007","AAC-297","2019/12/03 16:43:38","新北市鶯歌區二甲路13-16號","121.345138333333","24.9351983333333","6500800","鶯歌區"
"239005","526-UM","2019/12/03 16:43:27","新北市鶯歌區二甲路13-16號","121.3452","24.935235","6500800","鶯歌區"
"242011","280-VK","2019/12/03 16:43:21","新北市新莊區三和路12-21號","121.441831666667","25.038325","6500500","新莊區"
