"lineid","car","time","location","longitude","latitude","cityid","cityname"
"249005","172-UM","2019/12/03 17:13:26","新北市八里區華富山13-5號","121.416256666667","25.1372816666667","6502300","八里區"
"249001","173-UM","2019/12/03 17:13:31","新北市八里區中華路二段165巷23號","121.40909","25.149975","6502300","八里區"
"249004","303-UY","2019/12/03 17:13:32","新北市八里區文化街131號","121.422033333333","25.1600233333333","6502300","八里區"
"249002","305-UY","2019/12/03 17:13:24","新北市八里區龍米路二段147巷1號","121.44342","25.1493783333333","6502300","八里區"
"249003","593-UM","2019/12/03 17:13:31","新北市八里區中山路二段435號","121.396868333333","25.1459366666667","6502300","八里區"
"244007","080-UY","2019/12/03 17:13:20","新北市林口區中湖48-21號","121.38016","25.093885","6501700","林口區"
"244013","KEA-2802","2019/12/03 17:13:26","新北市林口區粉寮69號","121.404813333333","25.090785","6501700","林口區"
"244023","483-VK","2019/12/03 17:13:32","新北市林口區仁愛路一段641號","121.388963333333","25.0765733333333","6501700","林口區"
"244017","485-VK","2019/12/03 17:13:19","新北市林口區粉寮路二段221號","121.40421","25.090625","6501700","林口區"
"244009","656-BX","2019/12/03 17:13:32","新北市林口區中湖48-11號","121.380248333333","25.092955","6501700","林口區"
"244025","837-TS","2019/12/03 17:13:30","新北市林口區文化三路一段623號","121.371833333333","25.0772916666667","6501700","林口區"
"244021","838-TS","2019/12/03 17:13:25","新北市林口區粉寮路二段457-9號","121.404708333333","25.09802","6501700","林口區"
"231046","719-UM","2019/12/03 17:13:37","新北市新店區直潭路96號","121.531373333333","24.9369233333333","6500600","新店區"
"241011","013-R5","2019/12/03 17:13:35","新北市三重區龍濱路183號","121.502153333333","25.0706616666667","6500200","三重區"
"241028","022-UY","2019/12/03 17:13:25","新北市三重區仁化商場4號","121.493531666667","25.0595","6500200","三重區"
"241008","059-VK","2019/12/03 17:13:19","新北市三重區永福街172號","121.481053333333","25.0746533333333","6500200","三重區"
"241015","062-VK","2019/12/03 17:13:22","新北市三重區長生街70號","121.501058333333","25.0667683333333","6500200","三重區"
"241017","063-VK","2019/12/03 17:13:32","新北市三重區中正北路25巷2號","121.493116666667","25.0627583333333","6500200","三重區"
"241024","065-VK","2019/12/03 17:13:21","新北市三重區中正北路189號","121.477316666667","25.069555","6500200","三重區"
"241007","066-VK","2019/12/03 17:13:32","新北市三重區三和路四段157號","121.483771666667","25.0784866666667","6500200","三重區"
"241002","090-VK","2019/12/03 17:13:21","新北市三重區自強路五段7-1號","121.49248","25.080345","6500200","三重區"
"241003","742-BX","2019/12/03 17:13:23","新北市三重區富福街80號","121.492513333333","25.0849733333333","6500200","三重區"
"241006","262-UM","2019/12/03 17:13:22","新北市三重區車路頭街135號","121.484215","25.075815","6500200","三重區"
"241016","266-UM","2019/12/03 17:13:34","新北市三重區中正北路25巷2號","121.493155","25.0628516666667","6500200","三重區"
"241009","267-UM","2019/12/03 17:13:26","新北市三重區仁愛街604號","121.483898333333","25.080685","6500200","三重區"
"241018","268-UM","2019/12/03 17:13:28","新北市三重區正義北路239號","121.49576","25.069275","6500200","三重區"
"241032","269-UM","2019/12/03 17:13:18","新北市三重區興華街80號","121.484365","25.059685","6500200","三重區"
"241013","270-UM","2019/12/03 17:13:36","新北市三重區仁愛街66號","121.495756666667","25.073265","6500200","三重區"
"241030","KED-0822","2019/12/03 17:13:35","新北市三重區成功路73巷12號","121.489401666667","25.0518833333333","6500200","三重區"
"241004","475-VK","2019/12/03 17:13:33","新北市三重區五華街110-2號","121.492211666667","25.08288","6500200","三重區"
"241020","478-VK","2019/12/03 17:13:24","新北市三重區忠孝路一段179號","121.487383333333","25.0718716666667","6500200","三重區"
"241026","480-VK","2019/12/03 17:13:27","新北市三重區文化南路8號","121.500266666667","25.0624583333333","6500200","三重區"
"241014","543-UM","2019/12/03 17:13:37","新北市三重區長榮路9號","121.50038","25.0685283333333","6500200","三重區"
"241023","545-UM","2019/12/03 17:13:18","新北市三重區忠孝路三段126號","121.480146666667","25.063685","6500200","三重區"
"241019","KEA-2593","2019/12/03 17:13:37","新北市三重區忠孝路二段99-1號","121.484033333333","25.0697833333333","6500200","三重區"
"241005","AAD-863","2019/12/03 17:13:18","新北市三重區仁愛街616號","121.483573333333","25.0808866666667","6500200","三重區"
"241012","743-BX","2019/12/03 17:13:37","新北市三重區河邊北街256巷10號","121.501485","25.076075","6500200","三重區"
"241022","KED-0820","2019/12/03 17:13:21","新北市三重區中正北路118巷9號","121.485185","25.0647783333333","6500200","三重區"
"241025","KED-0670","2019/12/03 17:13:21","新北市三重區中正北路443號","121.469813333333","25.0722616666667","6500200","三重區"
"241029","942-UM","2019/12/03 17:13:34","新北市三重區重新路四段122號","121.486898333333","25.0566916666667","6500200","三重區"
"241033","AAC-255","2019/12/03 17:13:29","新北市三重區中興北街223號","121.469258333333","25.0583983333333","6500200","三重區"
"247016","KEA-2869","2019/12/03 17:13:26","新北市蘆洲區光華路73巷10號","121.468196666667","25.0823633333333","6501400","蘆洲區"
"247010","KED-0682","2019/12/03 17:13:28","新北市蘆洲區鷺江街36號","121.477771666667","25.082525","6501400","蘆洲區"
"247006","893-R6","2019/12/03 17:13:30","新北市蘆洲區長安街108巷26號","121.461963333333","25.0823066666667","6501400","蘆洲區"
"247020","546-UM","2019/12/03 17:13:33","新北市蘆洲區民族路436巷12號","121.472865","25.0925","6501400","蘆洲區"
"247004","336-TH","2019/12/03 17:13:25","新北市蘆洲區長安街207巷23號","121.459273333333","25.0817133333333","6501400","蘆洲區"
"247024","057-VK","2019/12/03 17:13:27","新北市蘆洲區長榮路66號","121.46247","25.0834766666667","6501400","蘆洲區"
"247014","056-VK","2019/12/03 17:13:25","新北市蘆洲區得勝街100號","121.471286666667","25.0829483333333","6501400","蘆洲區"
"247018","053-VK","2019/12/03 17:13:29","新北市蘆洲區民權路70號","121.474971666667","25.0872666666667","6501400","蘆洲區"
"247022","007-UY","2019/12/03 17:13:30","新北市蘆洲區民族路377號","121.470066666667","25.0904533333333","6501400","蘆洲區"
"247008","002-UY","2019/12/03 17:13:32","新北市蘆洲區信義路30巷116號","121.475148333333","25.0769866666667","6501400","蘆洲區"
"247002","001-UY","2019/12/03 17:13:20","新北市蘆洲區永樂街38巷15號","121.45812","25.088865","6501400","蘆洲區"
"228001","212-TW","2019/12/03 17:13:26","新北市貢寮區仁理村尖山腳街18-3號","121.925523333333","25.048305","6502600","貢寮區"
"228002","663-BX","2019/12/03 17:13:34","新北市貢寮區龍崗里嵩陽街38號","121.909376666667","25.0166066666667","6502600","貢寮區"
"228003","828-UM","2019/12/03 17:13:26","新北市貢寮區福隆里東興街60號","121.948156666667","25.0176516666667","6502600","貢寮區"
"224006","676-BX","2019/12/03 17:13:39","新北市瑞芳區大寮路63巷8號","121.778428333333","25.0945516666667","6501200","瑞芳區"
"224009","275-VK","2019/12/03 17:13:37","新北市瑞芳區坑尾巷37-1號","121.84416","25.1112333333333","6501200","瑞芳區"
"224008","273-VK","2019/12/03 17:13:38","新北市瑞芳區柴寮路38號","121.827396666667","25.086825","6501200","瑞芳區"
"224005","271-BY","2019/12/03 17:13:33","新北市瑞芳區鼻頭路247號","121.912695","25.1239383333333","6501200","瑞芳區"
"227002","642-TC","2019/12/03 17:13:31","新北市雙溪區平林里梅竹蹊61號","121.849505","25.0317716666667","6502500","雙溪區"
"251004","009-UM","2019/12/03 17:10:35","新北市淡水區中正東路二段88巷15號","121.459061666667","25.1504816666667","6501000","淡水區"
"251005","010-UM","2019/12/03 17:13:26","新北市淡水區鄧公路23巷1-5號","121.450216666667","25.1700116666667","6501000","淡水區"
"251015","KEA-2871","2019/12/03 17:13:16","新北市淡水區鄧公路52號","121.460651666667","25.1688983333333","6501000","淡水區"
"251016","180-VK","2019/12/03 17:13:36","新北市淡水區鄒厝崙7號","121.470738333333","25.1880883333333","6501000","淡水區"
"251008","181-VK","2019/12/03 17:13:27","新北市淡水區民生路169號","121.46965","25.1420933333333","6501000","淡水區"
"251013","182-VK","2019/12/03 17:13:34","新北市淡水區大埤頭9-1號","121.481941666667","25.1946566666667","6501000","淡水區"
"251010","413-VK","2019/12/03 17:13:26","新北市淡水區中正路二段31號","121.419338333333","25.18193","6501000","淡水區"
"251012","441-VK","2019/12/03 17:13:39","新北市淡水區中山北路一段158號","121.444171666667","25.1778433333333","6501000","淡水區"
"251007","442-VK","2019/12/03 17:13:38","新北市淡水區民權路13-5號","121.459641666667","25.1414333333333","6501000","淡水區"
"251006","561-UM","2019/12/03 17:13:03","新北市淡水區真理街6號","121.438411666667","25.1744983333333","6501000","淡水區"
"251009","575-R6","2019/12/03 17:13:36","新北市淡水區中正路282號","121.437933333333","25.1716916666667","6501000","淡水區"
"251014","577-R6","2019/12/03 17:13:35","新北市淡水區公埔子4號","121.463563333333","25.22678","6501000","淡水區"
"251011","650-BX","2019/12/03 17:13:35","新北市淡水區坪頂路51巷2號","121.458053333333","25.1625833333333","6501000","淡水區"
"251003","673-BX","2019/12/03 17:13:23","新北市淡水區中正路二段31號","121.419455","25.1814816666667","6501000","淡水區"
"252001","292-VK","2019/12/03 17:13:25","新北市三芝區長安街119號","121.498035","25.2596483333333","6502100","三芝區"
"233002","762-BX","2019/12/03 17:13:22","新北市烏來區野要街88-1號","121.547416666667","24.8545833333333","6502900","烏來區"
"252002","KED-0821","2019/12/03 17:13:32","新北市三芝區忠孝街1-14號","121.505586666667","25.25398","6502100","三芝區"
"242005","751-BX","2019/12/03 17:13:31","新北市新莊區三和路12-21號","121.44227","25.03808","6500500","新莊區"
"242029","615-BX","2019/12/03 17:13:36","新北市新莊區幸福路765號","121.447173333333","25.0490483333333","6500500","新莊區"
"242027","613-BX","2019/12/03 17:13:27","新北市泰山區磚雅厝6號","121.442346666667","25.0421733333333","6500500","新莊區"
"242048","566-BX","2019/12/03 17:13:25","新北市新莊區福營路357號","121.424313333333","25.028045","6500500","新莊區"
"242054","497-BY","2019/12/03 17:13:18","新北市新莊區三和路10號","121.44197","25.0357933333333","6500500","新莊區"
"242042","442-UM","2019/12/03 17:13:33","新北市新莊區三和路12-12號","121.441875","25.037045","6500500","新莊區"
"242002","441-UM","2019/12/03 17:13:35","新北市新莊區中環路一段30號","121.442216666667","25.0273033333333","6500500","新莊區"
"242044","415-TV","2019/12/03 17:13:27","新北市新莊區福營路94號","121.436825","25.03297","6500500","新莊區"
"242013","413-TV","2019/12/03 17:13:19","新北市新莊區新泰路357巷3弄57號","121.441998333333","25.0393866666667","6500500","新莊區"
"242051","400-BY","2019/12/03 17:13:32","新北市新莊區中正路384號","121.441996666667","25.034785","6500500","新莊區"
"242025","362-BY","2019/12/03 17:13:33","新北市泰山區磚雅厝3號","121.44232","25.0416683333333","6500500","新莊區"
"242023","353-BY","2019/12/03 17:13:28","新北市新莊區三和路12-9號","121.442203333333","25.0366066666667","6500500","新莊區"
"242039","135-UY","2019/12/03 17:13:27","新北市新莊區三和路12-18號","121.441825","25.0376183333333","6500500","新莊區"
"242056","172-VK","2019/12/03 17:13:26","新北市新莊區三和路12-17號","121.441901666667","25.0375033333333","6500500","新莊區"
"242017","173-VK","2019/12/03 17:13:36","新北市新莊區三和路12-21號","121.441815","25.0386783333333","6500500","新莊區"
"242021","KED-0687","2019/12/03 17:13:18","新北市新莊區三和路12-21號","121.442308333333","25.0381916666667","6500500","新莊區"
"242007","346-TH","2019/12/03 17:13:40","新北市新莊區三和路12-21號","121.441965","25.0382466666667","6500500","新莊區"
"242037","348-TH","2019/12/03 17:13:29","新北市泰山區磚雅厝3號","121.442158333333","25.0416716666667","6500500","新莊區"
"242009","349-TH","2019/12/03 17:13:29","新北市新莊區三和路12-21號","121.44232","25.03836","6500500","新莊區"
"242034","350-TH","2019/12/03 17:13:25","新北市新莊區中正路400號","121.441943333333","25.0344933333333","6500500","新莊區"
"242019","351-TH","2019/12/03 17:13:25","新北市新莊區新泰路357巷3弄57號","121.442003333333","25.0394333333333","6500500","新莊區"
"238015","755-BX","2019/12/03 17:13:32","新北市樹林區大安路521號","121.413848333333","24.9857966666667","6500700","樹林區"
"238019","599-UM","2019/12/03 17:13:36","新北市樹林區環河路600-2號","121.403308333333","24.9692766666667","6500700","樹林區"
"238018","KEA-2217","2019/12/03 17:13:27","新北市樹林區博愛街223號","121.424001666667","24.9860666666667","6500700","樹林區"
"238022","KEA-2213","2019/12/03 17:13:28","新北市樹林區忠孝街33號","121.423696666667","24.98214","6500700","樹林區"
"238021","KEA-2539","2019/12/03 17:13:36","新北市樹林區西圳街165巷20弄26號","121.395598333333","24.960075","6500700","樹林區"
"238017","283-BY","2019/12/03 17:13:34","新北市樹林區大安路249巷1號","121.419545","24.9944116666667","6500700","樹林區"
"238014","282-BY","2019/12/03 17:13:37","新北市樹林區大安路221號","121.420241666667","24.9952266666667","6500700","樹林區"
"238020","268-VK","2019/12/03 17:13:23","新北市樹林區千歲街101號","121.42852","25.0008583333333","6500700","樹林區"
"238016","169-UY","2019/12/03 17:13:37","新北市樹林區中山路二段34號","121.417393333333","24.98489","6500700","樹林區"
"239007","AAC-297","2019/12/03 17:13:18","新北市鶯歌區光復街74巷12-2號","121.351963333333","24.956605","6500800","鶯歌區"
"239006","891-R6","2019/12/03 17:13:33","新北市鶯歌區八德路23巷9-1號","121.333428333333","24.9506966666667","6500800","鶯歌區"
"239008","527-UM","2019/12/03 17:13:24","新北市鶯歌區中正一路60號","121.352396666667","24.9538883333333","6500800","鶯歌區"
"239005","526-UM","2019/12/03 17:13:27","新北市鶯歌區鶯桃路447號","121.332351666667","24.9655016666667","6500800","鶯歌區"
"239001","417-VK","2019/12/03 17:13:25","新北市鶯歌區尖山路156巷2號","121.346148333333","24.9486083333333","6500800","鶯歌區"
"239003","360-BY","2019/12/03 17:13:38","新北市鶯歌區德昌二街70巷32弄37號","121.330916666667","24.958655","6500800","鶯歌區"
"239002","359-BY","2019/12/03 17:13:34","新北市鶯歌區建國路278號","121.347068333333","24.9533633333333","6500800","鶯歌區"
"239004","193-VK","2019/12/03 17:13:34","新北市鶯歌區文化路539號","121.353301666667","24.9479166666667","6500800","鶯歌區"
"244019","KED-0667","2019/12/03 17:13:34","新北市林口區文化二路一段338號","121.372668333333","25.075035","6501700","林口區"
"242046","281-VK","2019/12/03 17:13:22","新北市新莊區中正路400號","121.44181","25.0345016666667","6500500","新莊區"
"242011","280-VK","2019/12/03 17:13:21","新北市新莊區三和路12-21號","121.441926666667","25.0382016666667","6500500","新莊區"
