"lineid","car","time","location","longitude","latitude","cityid","cityname"
"234046","148-BY","2019/12/03 19:29:33","新北市永和區秀朗路二段259號","121.52628","24.9992233333333","6500400","永和區"
"234081","298-R6","2019/12/03 19:29:27","新北市永和區環河東路三段54號","121.526866666667","25.0062166666667","6500400","永和區"
"234038","336-UY","2019/12/03 19:29:36","新北市永和區民樂街35巷1號","121.527583333333","25.001035","6500400","永和區"
"234064","337-UY","2019/12/03 19:29:33","新北市永和區中正路368巷1弄88號","121.520495","25.000745","6500400","永和區"
"234086","338-UY","2019/12/03 19:29:33","新北市永和區林森路80號","121.523346666667","25.003725","6500400","永和區"
"234070","552-UM","2019/12/03 19:29:28","新北市永和區警光街5-1號","121.519768333333","25.00951","6500400","永和區"
"234017","745-BX","2019/12/03 19:29:37","新北市永和區環河西路一段63號","121.51338","25.01814","6500400","永和區"
"234030","746-BX","2019/12/03 19:29:27","新北市永和區民生路2號","121.522468333333","24.9982133333333","6500400","永和區"
"234054","KEA-2590","2019/12/03 19:29:27","新北市永和區永和路二段235號","121.515626666667","25.0143633333333","6500400","永和區"
"234007","KED-0605","2019/12/03 19:29:29","新北市永和區永和路一段112-1號","121.513488333333","25.0074116666667","6500400","永和區"
"234013","KEA-2591","2019/12/03 19:29:28","新北市永和區中山路一段184巷9弄19號","121.508211666667","25.0090066666667","6500400","永和區"
"234061","AAD-866","2019/12/03 19:29:36","新北市永和區永貞路145號","121.516225","25.00417","6500400","永和區"
"234042","862-TW","2019/12/03 19:29:34","新北市永和區水源街39巷23號","121.510673333333","25.0034316666667","6500400","永和區"
"234050","863-TW","2019/12/03 19:29:28","新北市永和區信義路114號","121.512346666667","25.0143533333333","6500400","永和區"
"234026","9371-KE","2019/12/03 19:29:30","新北市中和區安樂路241號","121.514148333333","24.9995016666667","6500400","永和區"
"249001","173-UM","2019/12/03 19:29:31","新北市八里區龍米路三段58號","121.424466666667","25.1591566666667","6502300","八里區"
"249003","593-UM","2019/12/03 19:29:24","新北市八里區中山路二段462號","121.399015","25.1471983333333","6502300","八里區"
"248014","025-BX","2019/12/03 19:29:35","新北市五股區民義路一段172巷11號","121.433611666667","25.0882266666667","6501500","五股區"
"248008","KED-0815","2019/12/03 19:29:29","新北市五股區中興路一段97號","121.466675","25.0729283333333","6501500","五股區"
"248020","KED-0813","2019/12/03 19:29:20","新北市五股區凌雲路三段45-1號","121.42783","25.1191166666667","6501500","五股區"
"248012","247-BX","2019/12/03 19:29:26","新北市五股區成泰路二段91巷8號","121.437673333333","25.0844583333333","6501500","五股區"
"248004","677-BX","2019/12/03 19:29:17","新北市五股區五福路64號","121.433173333333","25.0897733333333","6501500","五股區"
"248002","678-BX","2019/12/03 19:29:27","新北市五股區凌雲路一段158巷6號","121.447783333333","25.10298","6501500","五股區"
"234023","9380-KE","2019/12/03 19:29:27","新北市永和區竹林路91巷70號","121.522075","25.0135933333333","6500400","永和區"
"234077","969-R7","2019/12/03 19:29:23","新北市永和區民族街43巷12號","121.51914","24.9983766666667","6500400","永和區"
"234074","AAC-211","2019/12/03 19:29:33","新北市永和區環河東路二段62號","121.523606666667","25.0111516666667","6500400","永和區"
"234067","AAC-212","2019/12/03 19:29:22","新北市永和區永貞路349號","121.509203333333","25.007415","6500400","永和區"
"234003","AAC-295","2019/12/03 19:29:36","新北市永和區永和路一段118號","121.514141666667","25.0077266666667","6500400","永和區"
"244023","483-VK","2019/12/03 19:29:31","新北市林口區民有街30號","121.372163333333","25.0766233333333","6501700","林口區"
"208001","267-VK","2019/12/03 19:29:19","新北市金山區中正路130號","121.632238333333","25.2215066666667","6502700","金山區"
"243012","AAD-798","2019/12/03 19:29:35","新北市泰山區仁義路220巷10號","121.432911666667","25.0536866666667","6501600","泰山區"
"243010","297-R6","2019/12/03 19:18:38","新北市泰山區明志路一段507號","121.430575","25.0545033333333","6501600","泰山區"
"243014","KEA-2801","2019/12/03 19:29:34","新北市泰山區中港西路450號","121.433513333333","25.05354","6501600","泰山區"
"243016","421-VK","2019/12/03 19:29:20","新北市泰山區明志路三段352巷10號","121.421403333333","25.0358983333333","6501600","泰山區"
"243009","KEA-2215","2019/12/03 19:29:18","新北市泰山區半山雅12號","121.431456666667","25.0674216666667","6501600","泰山區"
"243013","646-TV","2019/12/03 19:29:24","新北市泰山區貴子路36巷3弄1號","121.425915","25.0414166666667","6501600","泰山區"
"243015","680-BX","2019/12/03 19:29:22","新北市泰山區明志路二段136巷8號","121.427256666667","25.051205","6501600","泰山區"
"222003","436-BY","2019/12/03 19:28:03","新北市深坑區深南路51-1號","121.621096666667","25.00996","6501800","深坑區"
"222002","659-BX","2019/12/03 19:29:35","新北市深坑區北深路一段177號","121.632455","25.0108266666667","6501800","深坑區"
"231061","002-UM","2019/12/03 19:29:34","新北市新店區安康路一段198號","121.524373333333","24.9634183333333","6500600","新店區"
"231058","0293-UT","2019/12/03 19:29:19","新北市新店區北新路一段96巷27號","121.542808333333","24.9693866666667","6500600","新店區"
"231044","046-UY","2019/12/03 19:29:35","新北市新店區中興路三段181號","121.544063333333","24.9809133333333","6500600","新店區"
"231040","047-UY","2019/12/03 19:29:30","新北市新店區中華路52號","121.539583333333","24.96852","6500600","新店區"
"231060","106-UY","2019/12/03 19:29:28","新北市新店區安康路二段1-5號","121.517276666667","24.9639933333333","6500600","新店區"
"231051","107-UY","2019/12/03 19:29:20","新北市新店區中央路95巷8號","121.531575","24.974705","6500600","新店區"
"231049","108-UY","2019/12/03 19:29:17","新北市新店區北新路三段65巷34弄21號","121.539975","24.9817133333333","6500600","新店區"
"231065","110-UY","2019/12/03 19:29:26","新北市新店區安祥路109巷1弄7號","121.475788333333","24.959525","6500600","新店區"
"221031","KEA-2785","2019/12/03 19:29:26","新北市汐止區康寧街901號","121.650811666667","25.075315","6501100","汐止區"
"231054","260-TV","2019/12/03 19:29:39","新北市新店區文中路40-5號","121.539853333333","24.95649","6500600","新店區"
"231042","268-BY","2019/12/03 19:29:38","新北市新店區中興路一段140號","121.54231","24.9637216666667","6500600","新店區"
"231064","278-BY","2019/12/03 19:29:33","新北市新店區安康路二段85巷5弄2號","121.51364","24.962365","6500600","新店區"
"231050","AAD-862","2019/12/03 19:29:38","新北市新店區竹林路89號","121.554335","24.9506783333333","6500600","新店區"
"231045","355-BY","2019/12/03 19:29:29","新北市新店區北宜路二段209號","121.553158333333","24.9533233333333","6500600","新店區"
"231055","4716-K9","2019/12/03 19:29:22","新北市新店區安民街121巷12號","121.515443333333","24.969225","6500600","新店區"
"231056","4715-K9","2019/12/03 19:29:28","新北市新店區安民街121巷12號","121.5154","24.969185","6500600","新店區"
"231053","513-UM","2019/12/03 19:29:21","新北市新店區廣興路5巷19號","121.545833333333","24.9133683333333","6500600","新店區"
"231062","515-UM","2019/12/03 19:29:20","新北市新店區莒光路87巷10號","121.523915","24.9555466666667","6500600","新店區"
"231041","619-UM","2019/12/03 19:29:21","新北市新店區中正路678號","121.534015","24.9899766666667","6500600","新店區"
"231063","641-BX","2019/12/03 19:29:35","新北市新店區達觀路14巷3號","121.503078333333","24.9416783333333","6500600","新店區"
"231048","KED-0819","2019/12/03 19:29:23","新北市新店區五峰路83號","121.546213333333","24.9675616666667","6500600","新店區"
"231046","719-UM","2019/12/03 19:29:17","新北市新店區光明街215號","121.540076666667","24.9639383333333","6500600","新店區"
"231057","720-UM","2019/12/03 19:29:29","新北市新店區花園一路二段11-7號","121.550686666667","24.9334733333333","6500600","新店區"
"231059","897-TW","2019/12/03 19:29:36","新北市新店區安和路三段4巷1-3號","121.51819","24.9805716666667","6500600","新店區"
"231043","899-TW","2019/12/03 19:29:38","新北市新店區北新路二段198號","121.542981666667","24.9765816666667","6500600","新店區"
"231066","AKT-0513","2019/12/03 19:29:30","新北市新店區安康路三段466-2號","121.484053333333","24.950845","6500600","新店區"
"241028","022-UY","2019/12/03 19:29:31","新北市三重區中寮街49號","121.49283","25.0585766666667","6500200","三重區"
"241008","059-VK","2019/12/03 19:29:22","新北市三重區永福街135巷35號","121.477365","25.07733","6500200","三重區"
"241031","061-VK","2019/12/03 19:29:24","新北市三重區集美街69號","121.488508333333","25.0538583333333","6500200","三重區"
"241017","063-VK","2019/12/03 19:29:32","新北市三重區長壽西街188號","121.49269","25.0661833333333","6500200","三重區"
"241007","066-VK","2019/12/03 19:29:32","新北市三重區溪尾街126巷8號","121.489076666667","25.0792816666667","6500200","三重區"
"241009","267-UM","2019/12/03 19:29:26","新北市三重區溪尾街242巷71號","121.485996666667","25.081425","6500200","三重區"
"241032","269-UM","2019/12/03 19:29:20","新北市三重區三陽路61號","121.484421666667","25.05884","6500200","三重區"
"241035","KEA-2210","2019/12/03 19:29:30","新北市三重區信義西街1號","121.498115","25.06484","6500200","三重區"
"241030","KED-0822","2019/12/03 19:29:35","新北市三重區成功路41巷3號","121.490223333333","25.05146","6500200","三重區"
"241020","478-VK","2019/12/03 19:29:21","新北市三重區三和路四段20巷18號","121.490378333333","25.0737716666667","6500200","三重區"
"241026","480-VK","2019/12/03 19:29:22","新北市三重區文化南路42號","121.500376666667","25.06035","6500200","三重區"
"241023","545-UM","2019/12/03 19:29:38","新北市三重區頂崁街183號","121.47805","25.0638016666667","6500200","三重區"
"241012","743-BX","2019/12/03 19:29:32","新北市三重區河邊北街266號","121.501648333333","25.0765566666667","6500200","三重區"
"241022","KED-0820","2019/12/03 19:29:20","新北市三重區三民街165巷8號","121.484005","25.065325","6500200","三重區"
"241025","KED-0670","2019/12/03 19:29:36","新北市三重區頂崁街210巷28弄9號","121.475805","25.067205","6500200","三重區"
"241029","942-UM","2019/12/03 19:29:24","新北市三重區泉州街84巷20號","121.495903333333","25.0543433333333","6500200","三重區"
"235066","003-UY","2019/12/03 19:29:32","新北市中和區景新街32號","121.503303333333","24.99931","6500300","中和區"
"235064","005-UY","2019/12/03 19:29:34","新北市中和區南山路127巷18弄2號","121.503431666667","24.9973466666667","6500300","中和區"
"235063","006-UY","2019/12/03 19:29:29","新北市中和區連城路223號","121.494165","24.9976583333333","6500300","中和區"
"235056","096-UM","2019/12/03 19:29:28","新北市中和區員山路581巷31弄22號","121.476643333333","25.010395","6500300","中和區"
"235039","097-UM","2019/12/03 19:29:37","新北市中和區秀峰街103巷8弄2號","121.52021","24.9895716666667","6500300","中和區"
"235065","098-UM","2019/12/03 19:29:29","新北市中和區莊敬路25號","121.500148333333","25.00457","6500300","中和區"
"235040","150-BY","2019/12/03 19:29:34","新北市中和區景安路79巷50號","121.507895","24.995605","6500300","中和區"
"235058","151-BY","2019/12/03 19:29:27","新北市中和區員山路126號","121.481273333333","24.99598","6500300","中和區"
"235055","183-VK","2019/12/03 19:29:27","新北市中和區中山路三段179巷11號","121.473211666667","25.0058883333333","6500300","中和區"
"235038","185-VK","2019/12/03 19:29:26","新北市中和區自立路127號","121.521861666667","24.994145","6500300","中和區"
"235067","255-BX","2019/12/03 19:29:29","新北市中和區新生街220巷15弄2號","121.482903333333","24.9978916666667","6500300","中和區"
"235044","293-VK","2019/12/03 19:29:23","新北市中和區捷運路129號","121.507063333333","24.9909166666667","6500300","中和區"
"235072","301-VK","2019/12/03 19:29:19","新北市中和區連城路265巷3號","121.491543333333","24.99611","6500300","中和區"
"235043","352-BY","2019/12/03 19:29:29","新北市中和區安和路15號","121.511196666667","24.9938366666667","6500300","中和區"
"235042","KEA-2878","2019/12/03 19:29:24","新北市中和區中和路262巷43弄6號","121.509676666667","24.9997083333333","6500300","中和區"
"235050","4978-A6","2019/12/03 19:29:25","新北市中和區中正路161巷6號","121.49864","24.9935183333333","6500300","中和區"
"235069","4980-A6","2019/12/03 19:29:19","新北市中和區景平路736巷3弄4號","121.497311666667","25.0036583333333","6500300","中和區"
"235068","551-UM","2019/12/03 19:29:26","新北市中和區景平路493巷8號","121.499296666667","24.99711","6500300","中和區"
"235070","558-UM","2019/12/03 19:29:20","新北市中和區景平路624-1號","121.500485","24.997635","6500300","中和區"
"235045","565-BX","2019/12/03 19:29:32","新北市中和區景新街551號","121.515031666667","24.9867483333333","6500300","中和區"
"235060","KED-0823","2019/12/03 19:29:34","新北市中和區員山路465號","121.480421666667","25.004475","6500300","中和區"
"235054","640-BX","2019/12/03 19:29:33","新北市中和區莒光路65號","121.47232","25.0034816666667","6500300","中和區"
"235071","647-TV","2019/12/03 19:29:36","新北市中和區連城路469巷21弄13號","121.484088333333","24.9951","6500300","中和區"
"235047","732-UM","2019/12/03 19:29:28","新北市中和區景平路259巷52號","121.506315","24.9928966666667","6500300","中和區"
"235046","733-UM","2019/12/03 19:29:25","新北市中和區忠孝街37巷6號","121.51099","24.9838566666667","6500300","中和區"
"235057","801-TS","2019/12/03 19:29:26","新北市中和區員山路146-2號","121.481376666667","24.9969133333333","6500300","中和區"
"235041","802-TS","2019/12/03 19:29:18","新北市永和區中和路573號","121.511868333333","25.0036466666667","6500300","中和區"
"235052","805-TS","2019/12/03 19:29:26","新北市中和區華新街143巷71弄27號","121.507923333333","24.97909","6500300","中和區"
"235048","896-TW","2019/12/03 19:29:23","新北市中和區忠孝街34號","121.510735","24.9833","6500300","中和區"
"235053","900-TW","2019/12/03 19:29:36","新北市中和區國光街140巷4號","121.468528333333","25.001465","6500300","中和區"
"235051","157-BY","2019/12/03 19:29:26","新北市中和區南華路89號","121.505646666667","24.9974833333333","6500300","中和區"
"235037","AAC-213","2019/12/03 19:29:28","新北市中和區秀朗路三段10巷29弄5號","121.525023333333","24.9959883333333","6500300","中和區"
"235059","AAC-215","2019/12/03 19:29:24","新北市中和區圓通路252巷25號","121.492893333333","24.9917483333333","6500300","中和區"
"220054","015-TV","2019/12/03 19:29:22","新北市板橋區實踐路153號","121.46421","25.0041816666667","6500100","板橋區"
"220065","072-UY","2019/12/03 19:29:31","新北市板橋區國泰街111巷15號","121.466151666667","25.0060066666667","6500100","板橋區"
"220086","073-UY","2019/12/03 19:29:24","新北市板橋區中正路216巷22號","121.456748333333","25.018495","6500100","板橋區"
"220069","AAD-861","2019/12/03 19:29:20","新北市板橋區南雅南路二段18號","121.454438333333","25.0034933333333","6500100","板橋區"
"247004","500-BY","2019/12/03 19:29:29","新北市蘆洲區長安街144號","121.460038333333","25.082205","6501400","蘆洲區"
"226004","312-R5","2019/12/03 19:29:30","新北市平溪區十分里十分街238號","121.778066666667","25.0441616666667","6502400","平溪區"
"235049","251-BX","2019/12/03 19:29:26","新北市中和區安平路17號","121.509178333333","24.9941366666667","6500300","中和區"
"228001","212-TW","2019/12/03 19:29:26","新北市貢寮區真理里大澳街60號","121.925481666667","25.0567616666667","6502600","貢寮區"
"228003","828-UM","2019/12/03 19:29:26","新北市貢寮區和美里和美街19-2號","121.912801666667","25.0826083333333","6502600","貢寮區"
"224008","273-VK","2019/12/03 19:29:18","新北市瑞芳區一坑路63號","121.80266","25.1080783333333","6501200","瑞芳區"
"227002","642-TC","2019/12/03 19:29:29","新北市雙溪區雙溪里光復街14號","121.865076666667","25.0354283333333","6502500","雙溪區"
"227001","400-TW","2019/12/03 19:29:31","新北市雙溪區新基里新基北街43號","121.868221666667","25.0396833333333","6502500","雙溪區"
"222001","KEA-2212","2019/12/03 19:29:25","新北市深坑區北深路二段130號","121.61591","25.0029033333333","6501800","深坑區"
"208002","KEA-2872","2019/12/03 19:29:32","新北市金山區中山路315號","121.63571","25.223685","6502700","金山區"
"208003","665-BX","2019/12/03 19:29:38","新北市金山區仁愛路66號","121.635061666667","25.2211133333333","6502700","金山區"
"251005","010-UM","2019/12/03 19:29:26","新北市淡水區水源街一段47巷38號","121.444191666667","25.1734483333333","6501000","淡水區"
"251001","011-UM","2019/12/03 19:29:21","新北市淡水區民權路139號","121.460171666667","25.136495","6501000","淡水區"
"251015","KEA-2871","2019/12/03 19:29:36","新北市淡水區山子頂24-1號","121.491416666667","25.1871816666667","6501000","淡水區"
"251016","180-VK","2019/12/03 19:29:35","新北市淡水區下圭柔山119-51號","121.450735","25.2085","6501000","淡水區"
"251008","181-VK","2019/12/03 19:29:27","新北市淡水區中正路一段31巷2號","121.425686666667","25.1766733333333","6501000","淡水區"
"251013","182-VK","2019/12/03 19:29:19","新北市淡水區安子內18號","121.472023333333","25.21882","6501000","淡水區"
"251010","413-VK","2019/12/03 19:29:26","新北市淡水區中正路二段150號","121.422816666667","25.1876583333333","6501000","淡水區"
"243011","549-UM","2019/12/03 19:29:35","新北市泰山區貴子路140號","121.4289","25.04035","6501600","泰山區"
"251007","442-VK","2019/12/03 19:29:18","新北市淡水區紅樹林路250號","121.461141666667","25.1554516666667","6501000","淡水區"
"251006","561-UM","2019/12/03 19:29:23","新北市淡水區大義街29巷18號","121.441468333333","25.1780033333333","6501000","淡水區"
"251009","575-R6","2019/12/03 19:29:36","新北市淡水區水碓街42號","121.444525","25.1773416666667","6501000","淡水區"
"251014","577-R6","2019/12/03 19:29:35","新北市淡水區小中寮19-7號","121.484726666667","25.2296216666667","6501000","淡水區"
"251002","672-BX","2019/12/03 19:29:34","新北市淡水區新民街一段117號","121.42831","25.1877783333333","6501000","淡水區"
"251003","673-BX","2019/12/03 19:29:23","新北市淡水區中山北路三段102號","121.444163333333","25.19072","6501000","淡水區"
"207003","681-TV","2019/12/03 19:29:20","新北市萬里區大鵬里萬里加投101號","121.646203333333","25.213035","6502800","萬里區"
"207004","291-VK","2019/12/03 19:29:29","新北市萬里區萬里里瑪鋉路89號","121.688706666667","25.1772566666667","6502800","萬里區"
"252001","292-VK","2019/12/03 19:29:25","新北市三芝區長勤街62-2號","121.500063333333","25.2563083333333","6502100","三芝區"
"237004","KEA-2597","2019/12/03 19:29:21","新北市三峽區有木205-1號","121.439051666667","24.8516016666667","6500900","三峽區"
"237007","153-BY","2019/12/03 19:29:27","新北市三峽區二鬮路136巷20弄61號","121.357606666667","24.9098166666667","6500900","三峽區"
"237009","210-TH","2019/12/03 19:29:28","新北市三峽區中山路13巷9號","121.369141666667","24.9339083333333","6500900","三峽區"
"237013","252-BX","2019/12/03 19:29:24","新北市三峽區介壽路一段342號","121.381448333333","24.9301133333333","6500900","三峽區"
"237012","275-BY","2019/12/03 19:29:34","新北市三峽區三樹路98巷171號","121.384576666667","24.9397383333333","6500900","三峽區"
"237008","302-VK","2019/12/03 19:29:32","新北市三峽區永安街183號","121.37321","24.9269316666667","6500900","三峽區"
"237014","433-BY","2019/12/03 19:29:31","新北市三峽區仁愛街26號","121.368346666667","24.9321616666667","6500900","三峽區"
"237006","5529-G3","2019/12/03 19:29:28","新北市三峽區中正路一段336巷15弄2號","121.36996","24.9249533333333","6500900","三峽區"
"237011","KEA-2596","2019/12/03 19:29:28","新北市三峽區介壽路一段277號","121.380346666667","24.9303116666667","6500900","三峽區"
"237015","649-BX","2019/12/03 19:29:26","新北市三峽區安坑13-3號","121.444648333333","24.9266583333333","6500900","三峽區"
"237010","706-TV","2019/12/03 19:29:33","新北市三峽區復興路150號","121.371495","24.9382366666667","6500900","三峽區"
"237005","AKY-6261","2019/12/03 19:29:36","新北市三峽區復興路367巷13號","121.363816666667","24.9376066666667","6500900","三峽區"
"220089","KED-0812","2019/12/03 19:29:29","新北市板橋區龍泉街82巷10號","121.455873333333","25.0255816666667","6500100","板橋區"
"236079","166-UM","2019/12/03 19:29:30","新北市土城區中州路29號","121.413646666667","24.9577683333333","6501300","土城區"
"236070","KEA-2877","2019/12/03 19:29:19","新北市土城區學府路一段161號","121.453151666667","24.9858083333333","6501300","土城區"
"252002","KED-0821","2019/12/03 19:29:32","新北市三芝區淡金路二段18-1號","121.502688333333","25.2595433333333","6502100","三芝區"
"236021","401-BY","2019/12/03 19:29:22","新北市土城區峰廷街18號","121.469005","24.9872833333333","6501300","土城區"
"236049","913-UM","2019/12/03 19:29:36","新北市土城區清水路205號","121.460195","24.9818","6501300","土城區"
"236055","AAC-216","2019/12/03 19:29:24","新北市土城區學府路一段276號","121.45014","24.9831083333333","6501300","土城區"
"242005","751-BX","2019/12/03 19:29:31","新北市新莊區思源路50號","121.46064","25.0440033333333","6500500","新莊區"
"242023","353-BY","2019/12/03 19:29:24","新北市新莊區思源路157號","121.459813333333","25.044545","6500500","新莊區"
"242032","347-TH","2019/12/03 19:29:29","新北市新莊區新泰路225巷4號","121.445863333333","25.0393533333333","6500500","新莊區"
"238015","755-BX","2019/12/03 19:29:29","新北市樹林區復興路340號","121.416181666667","24.9863933333333","6500700","樹林區"
"238023","601-UM","2019/12/03 19:29:27","新北市樹林區中正路849號","121.409033333333","25.0177783333333","6500700","樹林區"
"238019","599-UM","2019/12/03 19:29:32","新北市樹林區鎮前街347巷2弄1號","121.416695","24.9836933333333","6500700","樹林區"
"238024","5061-A6","2019/12/03 19:29:35","新北市樹林區福德街43-1號","121.400123333333","24.9751066666667","6500700","樹林區"
"238018","KEA-2217","2019/12/03 19:29:27","新北市樹林區中華路165號","121.421003333333","24.9820983333333","6500700","樹林區"
"238022","KEA-2213","2019/12/03 19:29:28","新北市樹林區國凱街39號","121.4203","24.9788616666667","6500700","樹林區"
"238021","KEA-2539","2019/12/03 19:29:17","新北市樹林區佳園路三段183號","121.38539","24.948005","6500700","樹林區"
"238025","303-VK","2019/12/03 19:29:32","新北市樹林區中山路一段65-1號","121.423693333333","24.99196","6500700","樹林區"
"238017","283-BY","2019/12/03 19:29:33","新北市樹林區光興街196號","121.407948333333","25.0046716666667","6500700","樹林區"
"238014","282-BY","2019/12/03 19:29:36","新北市樹林區保安二街40巷18號","121.42567","24.9946616666667","6500700","樹林區"
"238020","268-VK","2019/12/03 19:29:23","新北市樹林區俊英街121巷53號","121.423405","25.0093716666667","6500700","樹林區"
"238026","172-UY","2019/12/03 19:29:32","新北市樹林區佳園路三段26號","121.387928333333","24.9540266666667","6500700","樹林區"
"238016","169-UY","2019/12/03 19:29:36","新北市樹林區復興路464巷56號","121.41276","24.9836166666667","6500700","樹林區"
"239007","AAC-297","2019/12/03 19:29:18","新北市鶯歌區中山路138巷3-10號","121.349653333333","24.958535","6500800","鶯歌區"
"239006","891-R6","2019/12/03 19:29:33","新北市鶯歌區鶯桃路16號","121.342188333333","24.9516566666667","6500800","鶯歌區"
"239008","527-UM","2019/12/03 19:29:24","新北市鶯歌區國際二路6巷2號","121.338478333333","24.9735833333333","6500800","鶯歌區"
"239005","526-UM","2019/12/03 19:29:07","新北市鶯歌區鳳吉一街132號","121.327946666667","24.9750416666667","6500800","鶯歌區"
"239001","417-VK","2019/12/03 19:29:25","新北市鶯歌區鶯桃路129巷12弄8號","121.337226666667","24.9543066666667","6500800","鶯歌區"
"239003","360-BY","2019/12/03 19:29:18","新北市鶯歌區鶯桃路320號","121.333966666667","24.9619","6500800","鶯歌區"
"239002","359-BY","2019/12/03 19:29:33","新北市鶯歌區大湖路532號","121.337443333333","24.9724316666667","6500800","鶯歌區"
"239004","193-VK","2019/12/03 19:29:14","新北市鶯歌區二甲路103號","121.333491666667","24.9315283333333","6500800","鶯歌區"
"221008","489-VK","2019/12/03 19:29:32","新北市汐止區康寧街235號","121.624036666667","25.06683","6501100","汐止區"
"221027","281-BY","2019/12/03 19:29:30","新北市汐止區忠孝東路9號","121.658311666667","25.06591","6501100","汐止區"
"221021","299-VK","2019/12/03 19:29:20","新北市汐止區大同路二段173號","121.651651666667","25.0645283333333","6501100","汐止區"
"221035","622-UM","2019/12/03 19:29:17","新北市汐止區康寧街901號","121.651083333333","25.075185","6501100","汐止區"
"221038","646-BX","2019/12/03 19:29:33","新北市汐止區大同路二段403號","121.658231666667","25.0672483333333","6501100","汐止區"
"221002","707-TV","2019/12/03 19:29:16","新北市汐止區大同路一段333號","121.638365","25.059275","6501100","汐止區"
"220079","145-BY","2019/12/03 19:29:24","新北市板橋區公館街27號","121.461116666667","25.0153183333333","6500100","板橋區"
"220080","200-UY","2019/12/03 19:29:34","新北市板橋區大觀路二段3巷102號","121.450481666667","25.0030633333333","6500100","板橋區"
"220082","610-BX","2019/12/03 19:29:37","新北市板橋區金門街275號","121.431315","24.9883366666667","6500100","板橋區"
"220101","245-BX","2019/12/03 19:29:24","新北市板橋區萬板路28號","121.472415","25.0222683333333","6500100","板橋區"
"220056","276-BY","2019/12/03 19:29:33","新北市板橋區干城路12號","121.459758333333","24.993805","6500100","板橋區"
"220072","277-BY","2019/12/03 19:29:26","新北市板橋區金門街222號","121.431025","24.9880366666667","6500100","板橋區"
"220094","283-UM","2019/12/03 19:29:20","新北市板橋區銘傳街35號","121.468568333333","25.0310533333333","6500100","板橋區"
"220071","283-VK","2019/12/03 19:29:31","新北市板橋區忠孝路48巷4弄4號","121.460701666667","25.000755","6500100","板橋區"
"220053","285-VK","2019/12/03 19:29:30","新北市板橋區懷仁街77巷35號","121.477715","25.0194466666667","6500100","板橋區"
"220083","286-VK","2019/12/03 19:29:24","新北市板橋區龍興街73巷54號","121.441933333333","25.0030866666667","6500100","板橋區"
"220081","287-VK","2019/12/03 19:29:20","新北市板橋區南雅西路一段122號","121.45231","25.00642","6500100","板橋區"
"220090","288-VK","2019/12/03 19:29:23","新北市板橋區長江路一段48巷4弄2號","121.459073333333","25.0286583333333","6500100","板橋區"
"220061","293-UM","2019/12/03 19:29:17","新北市板橋區中山路一段265巷16號","121.468646666667","25.01462","6500100","板橋區"
"220084","296-UM","2019/12/03 19:29:36","新北市板橋區篤行路三段24號","121.428641666667","24.9869916666667","6500100","板橋區"
"220075","303-R5","2019/12/03 19:29:24","新北市板橋區中正路275巷93號","121.450781666667","25.0180983333333","6500100","板橋區"
"220062","305-R5","2019/12/03 19:29:37","新北市板橋區三民路二段123巷23號","121.480305","25.0156583333333","6500100","板橋區"
"220092","307-R5","2019/12/03 19:29:33","新北市板橋區陽明街164巷20號","121.464403333333","25.02446","6500100","板橋區"
"220098","317-R6","2019/12/03 19:29:32","新北市板橋區四維路266巷2弄27號","121.464193333333","25.0281333333333","6500100","板橋區"
"220088","491-VK","2019/12/03 19:29:38","新北市板橋區文化路二段568號","121.476568333333","25.034555","6500100","板橋區"
"220035","560-BX","2019/12/03 19:29:20","新北市板橋區中正路433巷1號","121.454153333333","25.0233066666667","6500100","板橋區"
"220103","561-BX","2019/12/03 19:29:23","新北市板橋區陽明街29巷15號","121.464636666667","25.0220216666667","6500100","板橋區"
"220063","609-BX","2019/12/03 19:29:25","新北市板橋區中山路二段505巷55號","121.481908333333","25.0230433333333","6500100","板橋區"
"220091","637-BX","2019/12/03 19:29:31","新北市板橋區文聖街149巷25號","121.479436666667","25.0285466666667","6500100","板橋區"
"220057","686-BX","2019/12/03 19:29:26","新北市板橋區廣和街79號","121.462831666667","24.99211","6500100","板橋區"
"220077","687-BX","2019/12/03 19:29:32","新北市板橋區大觀路一段28巷68號","121.449803333333","25.01058","6500100","板橋區"
"220093","689-BX","2019/12/03 19:29:36","新北市板橋區新海路438號","121.457978333333","25.027755","6500100","板橋區"
"220102","KEA-2699","2019/12/03 19:29:22","新北市板橋區松柏街36巷8-1號","121.47532","25.029685","6500100","板橋區"
"220055","827-TW","2019/12/03 19:29:28","新北市板橋區重慶路290巷22弄4號","121.462298333333","24.99913","6500100","板橋區"
"220106","829-TW","2019/12/03 19:29:28","新北市板橋區雙十路三段20-1號","121.471413333333","25.0304466666667","6500100","板橋區"
"220068","830-TW","2019/12/03 19:29:36","新北市板橋區萬安街55號","121.483951666667","25.0238466666667","6500100","板橋區"
"220067","831-TW","2019/12/03 19:29:21","新北市板橋區漢生東路279巷8號","121.471936666667","25.0089466666667","6500100","板橋區"
"220074","895-R6","2019/12/03 19:29:40","新北市板橋區北門街5號","121.457618333333","25.0105066666667","6500100","板橋區"
"220073","985-R7","2019/12/03 19:29:37","新北市板橋區中正路409號","121.454245","25.0224866666667","6500100","板橋區"
"220097","AAC-210","2019/12/03 19:29:27","新北市板橋區文化路一段285巷1弄2號","121.464288333333","25.01874","6500100","板橋區"
"220064","AAC-253","2019/12/03 19:29:25","新北市板橋區館前東路96號","121.46231","25.007475","6500100","板橋區"
"235061","KEA-2875","2019/12/03 19:29:37","新北市中和區民利街49巷2號","121.479578333333","24.9985733333333","6500300","中和區"
