"lineid","car","time","location","longitude","latitude","cityid","cityname"
"234046","148-BY","2019/12/03 19:59:33","新北市永和區成功路一段68號","121.526916666667","25.0036183333333","6500400","永和區"
"234081","298-R6","2019/12/03 19:59:27","新北市永和區永利路81巷15號","121.522056666667","25.0036883333333","6500400","永和區"
"234038","336-UY","2019/12/03 19:59:16","新北市永和區成功路二段72號","121.526556666667","24.9993333333333","6500400","永和區"
"234064","337-UY","2019/12/03 19:59:33","新北市永和區中正路412巷20弄10號","121.518635","25.0017","6500400","永和區"
"234086","338-UY","2019/12/03 19:59:33","新北市永和區福和路239號","121.518396666667","25.0075116666667","6500400","永和區"
"234070","552-UM","2019/12/03 19:59:28","新北市永和區國光路39-1號","121.519035","25.0081866666667","6500400","永和區"
"234017","745-BX","2019/12/03 19:59:36","新北市永和區文化路61號","121.514096666667","25.01508","6500400","永和區"
"234030","746-BX","2019/12/03 19:59:26","新北市永和區民權路49巷24號","121.521295","24.99737","6500400","永和區"
"234054","KEA-2590","2019/12/03 19:59:27","新北市永和區環河東路一段122號","121.520553333333","25.0154633333333","6500400","永和區"
"234007","KED-0605","2019/12/03 19:59:29","新北市永和區保生路22巷8號","121.50719","25.00808","6500400","永和區"
"234013","KEA-2591","2019/12/03 19:59:28","新北市永和區保生路55號","121.504728333333","25.0105916666667","6500400","永和區"
"234061","AAD-866","2019/12/03 19:59:36","新北市永和區得和路68號","121.516255","24.9998333333333","6500400","永和區"
"234042","862-TW","2019/12/03 19:59:34","新北市永和區中和路421巷5弄1號","121.50871","25.0009966666667","6500400","永和區"
"234050","863-TW","2019/12/03 19:59:17","新北市永和區保安路151號","121.506908333333","25.0131216666667","6500400","永和區"
"234026","9371-KE","2019/12/03 19:59:29","新北市永和區水源街27巷3號","121.511208333333","25.0042133333333","6500400","永和區"
"234011","9373-KE","2019/12/03 19:59:36","新北市永和區仁愛路352巷124號","121.500185","25.0085433333333","6500400","永和區"
"249005","172-UM","2019/12/03 19:57:25","新北市八里區楓林路4號","121.38205","25.1300683333333","6502300","八里區"
"249001","173-UM","2019/12/03 19:59:36","新北市八里區中華路二段310號","121.403835","25.1483733333333","6502300","八里區"
"249004","303-UY","2019/12/03 19:59:35","新北市八里區中華路一段333-1號","121.413521666667","25.1536133333333","6502300","八里區"
"249002","305-UY","2019/12/03 19:59:23","新北市八里區頂寮二街1號","121.451005","25.12387","6502300","八里區"
"249003","593-UM","2019/12/03 19:59:24","新北市八里區中華路二段560巷1號","121.398678333333","25.14505","6502300","八里區"
"248016","026-BX","2019/12/03 19:59:21","新北市五股區成泰路三段577巷80弄7號","121.449495","25.1042683333333","6501500","五股區"
"248008","KED-0815","2019/12/03 19:59:29","新北市五股區四維路155巷2號","121.467713333333","25.0745916666667","6501500","五股區"
"248020","KED-0813","2019/12/03 19:59:20","新北市五股區凌雲路三段32號","121.431163333333","25.10818","6501500","五股區"
"248012","247-BX","2019/12/03 19:59:34","新北市五股區工商路205號","121.43325","25.0870933333333","6501500","五股區"
"248010","272-BY","2019/12/03 19:59:37","新北市五股區登林路79-7號","121.427238333333","25.0705533333333","6501500","五股區"
"248004","677-BX","2019/12/03 19:59:17","新北市五股區成泰路一段8巷2-3號","121.434938333333","25.06689","6501500","五股區"
"248002","678-BX","2019/12/03 19:59:27","新北市五股區成泰路三段487號","121.450706666667","25.0992366666667","6501500","五股區"
"234023","9380-KE","2019/12/03 19:59:27","新北市永和區中正路702巷20弄1號","121.516466666667","25.0106083333333","6500400","永和區"
"234077","969-R7","2019/12/03 19:59:23","新北市永和區民有街26號","121.516766666667","24.996355","6500400","永和區"
"234074","AAC-211","2019/12/03 19:59:24","新北市永和區豫溪街185號","121.522485","25.0103483333333","6500400","永和區"
"234067","AAC-212","2019/12/03 19:59:22","新北市永和區永貞路376號","121.509768333333","25.0069983333333","6500400","永和區"
"234003","AAC-295","2019/12/03 19:59:36","新北市永和區中正路720號","121.51591","25.0100416666667","6500400","永和區"
"208001","267-VK","2019/12/03 19:59:39","新北市金山區南勢41號","121.629093333333","25.2197566666667","6502700","金山區"
"243012","AAD-798","2019/12/03 19:59:20","新北市泰山區全興路15號","121.43238","25.0588533333333","6501600","泰山區"
"243014","KEA-2801","2019/12/03 19:59:34","新北市泰山區泰林路二段33-1號","121.435948333333","25.0568116666667","6501600","泰山區"
"243016","421-VK","2019/12/03 19:59:20","新北市泰山區貴陽街3號","121.421173333333","25.0334616666667","6501600","泰山區"
"243009","KEA-2215","2019/12/03 19:59:18","新北市泰山區楓江路16巷11號","121.433946666667","25.06179","6501600","泰山區"
"222003","436-BY","2019/12/03 19:59:30","新北市深坑區埔新街14號","121.620765","25.0039466666667","6501800","深坑區"
"222002","659-BX","2019/12/03 19:59:35","新北市深坑區北深路二段81巷8弄3號","121.618203333333","25.0030066666667","6501800","深坑區"
"231061","002-UM","2019/12/03 19:59:34","新北市新店區安民街254號","121.517636666667","24.973265","6500600","新店區"
"231044","046-UY","2019/12/03 19:59:20","新北市新店區寶慶街68號","121.541828333333","24.98669","6500600","新店區"
"231040","047-UY","2019/12/03 19:59:30","新北市新店區中正路75巷71號","121.543261666667","24.9688883333333","6500600","新店區"
"231060","106-UY","2019/12/03 19:59:28","新北市新店區安康路二段341巷1號","121.496921666667","24.955345","6500600","新店區"
"231051","107-UY","2019/12/03 19:59:20","新北市新店區中央路149號","121.529935","24.9731783333333","6500600","新店區"
"231049","108-UY","2019/12/03 19:59:17","新北市新店區民族路11號","121.541633333333","24.9788233333333","6500600","新店區"
"231065","110-UY","2019/12/03 19:59:27","新北市新店區安祥路104-10號","121.479128333333","24.96207","6500600","新店區"
"231068","187-VK","2019/12/03 19:59:16","新北市新店區安康路一段266巷4號","121.519971666667","24.964075","6500600","新店區"
"221031","KEA-2785","2019/12/03 19:59:26","新北市汐止區福德二路55巷1弄1號","121.634468333333","25.0667316666667","6501100","汐止區"
"231054","260-TV","2019/12/03 19:59:39","新北市新店區光明街172號","121.539558333333","24.962015","6500600","新店區"
"231042","268-BY","2019/12/03 19:59:18","新北市新店區中興路一段290號","121.545965","24.9690616666667","6500600","新店區"
"231064","278-BY","2019/12/03 19:59:33","新北市新店區安光路10-1號","121.513846666667","24.9641266666667","6500600","新店區"
"231050","AAD-862","2019/12/03 19:59:38","新北市新店區北宜路二段579巷1號","121.56571","24.9536216666667","6500600","新店區"
"231045","355-BY","2019/12/03 19:59:29","新北市新店區北宜路二段204號","121.559236666667","24.9543366666667","6500600","新店區"
"231055","4716-K9","2019/12/03 19:59:22","新北市新店區力行路12號","121.539468333333","24.9646133333333","6500600","新店區"
"231056","4715-K9","2019/12/03 19:59:27","新北市新店區北新路二段59巷1號","121.54231","24.9730133333333","6500600","新店區"
"231053","513-UM","2019/12/03 19:59:21","新北市新店區新烏路三段290巷1號","121.54926","24.8979133333333","6500600","新店區"
"231062","515-UM","2019/12/03 19:59:20","新北市新店區華潭街24號","121.529155","24.9531366666667","6500600","新店區"
"231041","619-UM","2019/12/03 19:59:21","新北市新店區中央路13號","121.533375","24.9784083333333","6500600","新店區"
"231063","641-BX","2019/12/03 19:59:35","新北市新店區車子路11號","121.502935","24.95169","6500600","新店區"
"231048","KED-0819","2019/12/03 19:59:23","新北市新店區寶宏路2號","121.549091666667","24.9769233333333","6500600","新店區"
"231057","720-UM","2019/12/03 19:59:30","新北市新店區花園二路一段11號","121.555455","24.9325466666667","6500600","新店區"
"231059","897-TW","2019/12/03 19:59:36","新北市新店區安和路一段15號","121.516853333333","24.964155","6500600","新店區"
"231043","899-TW","2019/12/03 19:59:17","新北市新店區中正路282-11號","121.538453333333","24.97393","6500600","新店區"
"241011","013-R5","2019/12/03 19:59:19","新北市三重區三和路二段167號","121.497873333333","25.06969","6500200","三重區"
"241028","022-UY","2019/12/03 19:59:31","新北市三重區中正南路83號","121.4943","25.0584633333333","6500200","三重區"
"241008","059-VK","2019/12/03 19:59:22","新北市三重區永福街197巷39號","121.478066666667","25.0745","6500200","三重區"
"241031","061-VK","2019/12/03 19:59:24","新北市三重區重新路四段144巷18號","121.487095","25.05545","6500200","三重區"
"241015","062-VK","2019/12/03 19:59:28","新北市三重區三和路二段37-5號","121.501075","25.0673833333333","6500200","三重區"
"241017","063-VK","2019/12/03 19:59:32","新北市三重區重陽路三段192-4號","121.490486666667","25.0686016666667","6500200","三重區"
"241024","065-VK","2019/12/03 19:59:23","新北市三重區大勇街40號","121.481291666667","25.0716733333333","6500200","三重區"
"241007","066-VK","2019/12/03 19:59:32","新北市三重區慈愛街88號","121.488491666667","25.0798633333333","6500200","三重區"
"241003","742-BX","2019/12/03 19:59:28","新北市三重區仁愛街445巷38號","121.491488333333","25.0833783333333","6500200","三重區"
"241016","266-UM","2019/12/03 19:59:33","新北市三重區正義北路36巷21號","121.496606666667","25.0634016666667","6500200","三重區"
"241009","267-UM","2019/12/03 19:59:29","新北市三重區三和路四段388-2號","121.48207","25.07919","6500200","三重區"
"241018","268-UM","2019/12/03 19:59:28","新北市三重區正義北路244巷8號","121.495635","25.0681116666667","6500200","三重區"
"241032","269-UM","2019/12/03 19:59:20","新北市三重區朝陽街23號","121.483628333333","25.056545","6500200","三重區"
"241035","KEA-2210","2019/12/03 19:59:29","新北市三重區大榮街7號","121.498163333333","25.0630866666667","6500200","三重區"
"241030","KED-0822","2019/12/03 19:59:35","新北市三重區重新路四段248-1號","121.486273333333","25.0534116666667","6500200","三重區"
"241020","478-VK","2019/12/03 19:59:19","新北市三重區忠孝路一段101號","121.489505","25.0721566666667","6500200","三重區"
"241026","480-VK","2019/12/03 19:59:22","新北市三重區福德南路32號","121.50294","25.0628783333333","6500200","三重區"
"241014","543-UM","2019/12/03 19:59:35","新北市三重區三和路二段156號","121.499423333333","25.0684066666667","6500200","三重區"
"241023","545-UM","2019/12/03 19:59:38","新北市三重區頂崁街168號","121.477656666667","25.0658983333333","6500200","三重區"
"241001","547-UM","2019/12/03 19:59:30","新北市三重區福隆路31號","121.489956666667","25.0771366666667","6500200","三重區"
"241019","KEA-2593","2019/12/03 19:59:29","新北市三重區自強路二段20-1號","121.489643333333","25.06918","6500200","三重區"
"241005","AAD-863","2019/12/03 19:59:17","新北市三重區碧華街296-1號","121.489645","25.08337","6500200","三重區"
"241012","743-BX","2019/12/03 19:59:32","新北市三重區仁厚街15號","121.499431666667","25.076155","6500200","三重區"
"241025","KED-0670","2019/12/03 19:59:36","新北市三重區頂崁街210巷16號","121.4765","25.0677733333333","6500200","三重區"
"241029","942-UM","2019/12/03 19:59:23","新北市三重區重安街1號","121.489923333333","25.058235","6500200","三重區"
"241033","AAC-255","2019/12/03 19:59:33","新北市三重區中興北街42巷2號","121.469608333333","25.04922","6500200","三重區"
"235066","003-UY","2019/12/03 19:59:32","新北市中和區中山路二段68號","121.503941666667","25.0046266666667","6500300","中和區"
"235039","097-UM","2019/12/03 19:59:17","新北市中和區景平路278巷16弄10號","121.514331666667","24.99354","6500300","中和區"
"235065","098-UM","2019/12/03 19:59:24","新北市中和區永和路90巷3號","121.497335","25.00593","6500300","中和區"
"235040","150-BY","2019/12/03 19:59:33","新北市中和區保健路10巷16號","121.50771","24.99686","6500300","中和區"
"235058","151-BY","2019/12/03 19:59:27","新北市中和區員山路108號","121.4811","24.995595","6500300","中和區"
"235055","183-VK","2019/12/03 19:59:26","新北市中和區中山路三段206號","121.471571666667","25.0065283333333","6500300","中和區"
"235044","293-VK","2019/12/03 19:59:23","新北市中和區南山路281號","121.504196666667","24.9922583333333","6500300","中和區"
"235042","KEA-2878","2019/12/03 19:59:24","新北市新店區安興路137號","121.516403333333","24.97942","6500300","中和區"
"247016","KEA-2869","2019/12/03 19:59:27","新北市蘆洲區中正路96號","121.47002","25.0840583333333","6501400","蘆洲區"
"235050","4978-A6","2019/12/03 19:59:25","新北市中和區景平路241巷64弄1號","121.507606666667","24.9924166666667","6500300","中和區"
"235068","551-UM","2019/12/03 19:59:26","新北市中和區中山路二段250巷17號","121.497165","25.003325","6500300","中和區"
"235070","558-UM","2019/12/03 19:59:20","新北市中和區圓通路207號","121.497046666667","24.9944416666667","6500300","中和區"
"235071","647-TV","2019/12/03 19:59:36","新北市三重區光復路二段206號","121.47006","25.0633866666667","6500300","中和區"
"235046","733-UM","2019/12/03 19:59:25","新北市中和區興南路一段105巷20弄4號","121.510321666667","24.9856716666667","6500300","中和區"
"235052","805-TS","2019/12/03 19:59:25","新北市中和區華新街83號","121.508336666667","24.9836183333333","6500300","中和區"
"235048","896-TW","2019/12/03 19:59:24","新北市中和區景新街555號","121.515223333333","24.986515","6500300","中和區"
"235051","157-BY","2019/12/03 19:58:26","新北市中和區景安路247巷20號","121.504423333333","24.9904966666667","6500300","中和區"
"235037","AAC-213","2019/12/03 19:59:28","新北市中和區自強路52號","121.520128333333","24.994775","6500300","中和區"
"235059","AAC-215","2019/12/03 19:59:30","新北市中和區圓通路367巷14號","121.491658333333","24.9889533333333","6500300","中和區"
"220054","015-TV","2019/12/03 19:59:31","新北市板橋區忠孝路忠義巷15弄11號","121.46573","25.0040316666667","6500100","板橋區"
"220065","072-UY","2019/12/03 19:59:31","新北市板橋區海山路37-1號","121.467251666667","25.0096516666667","6500100","板橋區"
"220086","073-UY","2019/12/03 19:59:24","新北市板橋區林園街7-1號","121.4541","25.00921","6500100","板橋區"
"220069","AAD-861","2019/12/03 19:59:27","新北市板橋區大明街20巷19弄20號","121.457931666667","25.0032166666667","6500100","板橋區"
"247006","893-R6","2019/12/03 19:59:37","新北市蘆洲區九芎街141號","121.465513333333","25.0793483333333","6501400","蘆洲區"
"247020","546-UM","2019/12/03 19:59:32","新北市蘆洲區民義街53號","121.47286","25.089805","6501400","蘆洲區"
"247004","500-BY","2019/12/03 19:59:35","新北市蘆洲區長安街267巷7弄1號","121.458291666667","25.0836133333333","6501400","蘆洲區"
"247012","341-TH","2019/12/03 19:59:37","新北市蘆洲區民族路220號","121.479625","25.0879416666667","6501400","蘆洲區"
"247024","057-VK","2019/12/03 19:59:29","新北市蘆洲區光復路59號","121.463646666667","25.0851716666667","6501400","蘆洲區"
"247014","056-VK","2019/12/03 19:59:31","新北市蘆洲區成功路129號","121.472363333333","25.082275","6501400","蘆洲區"
"247018","053-VK","2019/12/03 19:59:33","新北市蘆洲區民族路290巷17號","121.47854","25.0900566666667","6501400","蘆洲區"
"247008","002-UY","2019/12/03 19:59:25","新北市蘆洲區信義路119巷1號","121.478423333333","25.0802783333333","6501400","蘆洲區"
"247002","001-UY","2019/12/03 19:59:24","新北市蘆洲區長安街274巷2號","121.457606666667","25.0869616666667","6501400","蘆洲區"
"226004","312-R5","2019/12/03 19:59:29","新北市平溪區南山里南山坪94號","121.776966666667","25.04119","6502400","平溪區"
"228003","828-UM","2019/12/03 19:59:26","新北市貢寮區仁理村仁和路184號","121.923463333333","25.0525633333333","6502600","貢寮區"
"227002","642-TC","2019/12/03 19:59:29","新北市雙溪區雙溪里長安街16號","121.864995","25.0346933333333","6502500","雙溪區"
"227001","400-TW","2019/12/03 19:59:31","新北市雙溪區新基里朝陽街3號","121.86624","25.0383116666667","6502500","雙溪區"
"222001","KEA-2212","2019/12/03 19:59:25","新北市深坑區北深路三段165-1號","121.602183333333","25.0032983333333","6501800","深坑區"
"208002","KEA-2872","2019/12/03 19:59:32","新北市金山區南勢湖16號","121.620975","25.2192183333333","6502700","金山區"
"208003","665-BX","2019/12/03 19:59:29","新北市金山區永興里忠義路3號","121.632496666667","25.259775","6502700","金山區"
"251004","009-UM","2019/12/03 19:59:21","新北市淡水區民權路177巷11號","121.460761666667","25.135255","6501000","淡水區"
"251005","010-UM","2019/12/03 19:59:26","新北市淡水區學府路136巷39號","121.451916666667","25.17267","6501000","淡水區"
"251001","011-UM","2019/12/03 19:59:20","新北市淡水區北投子14-2號","121.448658333333","25.1835066666667","6501000","淡水區"
"251015","KEA-2871","2019/12/03 19:59:36","新北市淡水區大埤頭1-3號","121.492391666667","25.1950416666667","6501000","淡水區"
"251016","180-VK","2019/12/03 19:59:35","新北市淡水區淡金路四段563號","121.451611666667","25.2301683333333","6501000","淡水區"
"251008","181-VK","2019/12/03 19:59:27","新北市淡水區淡海路57號","121.422905","25.1808183333333","6501000","淡水區"
"251013","182-VK","2019/12/03 19:59:39","新北市淡水區下圭柔山63-7號","121.451881666667","25.206165","6501000","淡水區"
"243011","549-UM","2019/12/03 19:59:35","新北市泰山區明志路三段196巷22號","121.422746666667","25.0395433333333","6501600","泰山區"
"251012","441-VK","2019/12/03 19:59:36","新北市淡水區下圭柔山93-3號","121.436221666667","25.2091466666667","6501000","淡水區"
"251006","561-UM","2019/12/03 19:59:23","新北市淡水區水碓街10號","121.443531666667","25.176945","6501000","淡水區"
"251009","575-R6","2019/12/03 19:59:36","新北市淡水區英專路21巷7號","121.445171666667","25.1697083333333","6501000","淡水區"
"251014","577-R6","2019/12/03 19:59:34","新北市淡水區石頭厝2-1號","121.458131666667","25.235705","6501000","淡水區"
"251011","650-BX","2019/12/03 19:59:26","新北市淡水區商工路141號","121.446975","25.1883416666667","6501000","淡水區"
"251002","672-BX","2019/12/03 19:59:34","新北市淡水區沙崙路145號","121.423431666667","25.1830533333333","6501000","淡水區"
"207003","681-TV","2019/12/03 19:59:20","新北市萬里區大鵬里萬里加投46號","121.642075","25.21187","6502800","萬里區"
"207004","291-VK","2019/12/03 19:59:29","新北市萬里區北基里忠二街35號","121.685623333333","25.1757233333333","6502800","萬里區"
"252001","292-VK","2019/12/03 19:59:25","新北市三芝區公正街9號","121.499751666667","25.2574583333333","6502100","三芝區"
"237004","KEA-2597","2019/12/03 19:59:21","新北市三峽區添福2-7號","121.371028333333","24.9081533333333","6500900","三峽區"
"237009","210-TH","2019/12/03 19:59:28","新北市三峽區民族街49號","121.369716666667","24.93001","6500900","三峽區"
"237012","275-BY","2019/12/03 19:59:34","新北市三峽區中華路96-2號","121.371248333333","24.9282383333333","6500900","三峽區"
"237014","433-BY","2019/12/03 19:59:31","新北市三峽區正義街11號","121.369963333333","24.9199366666667","6500900","三峽區"
"237006","5529-G3","2019/12/03 19:59:28","新北市三峽區中正路二段168號","121.365928333333","24.915705","6500900","三峽區"
"237015","649-BX","2019/12/03 19:59:26","新北市三峽區介壽路三段13號","121.39577","24.9363716666667","6500900","三峽區"
"237005","AKY-6261","2019/12/03 19:59:36","新北市三峽區三樹路44巷14號","121.378346666667","24.937335","6500900","三峽區"
"236042","KED-0685","2019/12/03 19:59:35","新北市土城區學府路一段98巷15號","121.455701666667","24.9885866666667","6501300","土城區"
"220089","KED-0812","2019/12/03 19:59:29","新北市板橋區四維路317號","121.462913333333","25.0289166666667","6500100","板橋區"
"236079","166-UM","2019/12/03 19:59:30","新北市土城區中山路29-2號","121.419528333333","24.9626183333333","6501300","土城區"
"236030","253-BX","2019/12/03 19:59:20","新北市土城區中央路一段250巷7號","121.443938333333","24.984775","6501300","土城區"
"236026","269-VK","2019/12/03 19:59:39","新北市土城區中央路二段89號","121.442356666667","24.97813","6501300","土城區"
"236038","271-VK","2019/12/03 19:59:26","新北市土城區國際路60號","121.466583333333","24.97755","6501300","土城區"
"236070","KEA-2877","2019/12/03 19:59:19","新北市土城區忠義路77-1號","121.442711666667","24.965445","6501300","土城區"
"252002","KED-0821","2019/12/03 19:59:32","新北市三芝區三民街39巷36號","121.505351666667","25.257615","6502100","三芝區"
"236021","401-BY","2019/12/03 19:59:31","新北市土城區延吉街137巷25弄5號","121.471525","24.9850116666667","6501300","土城區"
"236059","912-UM","2019/12/03 19:59:36","新北市土城區中央路一段346號","121.443108333333","24.9810733333333","6501300","土城區"
"236049","913-UM","2019/12/03 19:59:34","新北市土城區金城路三段315號","121.475313333333","24.99119","6501300","土城區"
"236063","915-UM","2019/12/03 19:59:25","新北市土城區立德路135巷5弄9號","121.464558333333","24.987375","6501300","土城區"
"236055","AAC-216","2019/12/03 19:59:24","新北市土城區學府路一段33號","121.458028333333","24.9884166666667","6501300","土城區"
"242061","986-R7","2019/12/03 19:59:20","新北市新莊區瓊林路59-2號","121.444635","25.02788","6500500","新莊區"
"242005","751-BX","2019/12/03 19:59:31","新北市新莊區化成路314巷19號","121.466943333333","25.0482933333333","6500500","新莊區"
"242029","615-BX","2019/12/03 19:59:36","新北市新莊區中平路377巷1-16號","121.444415","25.0518683333333","6500500","新莊區"
"242027","613-BX","2019/12/03 19:59:26","新北市新莊區立信五街5號","121.444308333333","25.0514883333333","6500500","新莊區"
"242058","612-BX","2019/12/03 19:59:27","新北市新莊區八德街81號","121.424598333333","25.0218083333333","6500500","新莊區"
"242048","566-BX","2019/12/03 19:59:25","新北市新莊區民安路209號","121.426365","25.0223566666667","6500500","新莊區"
"242054","497-BY","2019/12/03 19:59:27","新北市新莊區西盛街418號","121.427143333333","25.01219","6500500","新莊區"
"242042","442-UM","2019/12/03 19:59:36","新北市新莊區青山路一段24號","121.411023333333","25.0276","6500500","新莊區"
"242002","441-UM","2019/12/03 19:59:35","新北市新莊區中正路217號","121.451055","25.0358483333333","6500500","新莊區"
"242013","413-TV","2019/12/03 19:59:37","新北市新莊區中港路391號","121.451408333333","25.0470066666667","6500500","新莊區"
"242051","400-BY","2019/12/03 19:59:22","新北市新莊區民本街25巷1號","121.428311666667","25.01958","6500500","新莊區"
"242025","362-BY","2019/12/03 19:59:32","新北市新莊區五工二路86巷2號","121.459755","25.06645","6500500","新莊區"
"242023","353-BY","2019/12/03 19:59:35","新北市新莊區化成路354號","121.46584","25.0492133333333","6500500","新莊區"
"242015","132-UY","2019/12/03 19:59:31","新北市新莊區泰順街49號","121.447438333333","25.042945","6500500","新莊區"
"242039","135-UY","2019/12/03 19:59:17","新北市新莊區民安路299巷5弄3號","121.429148333333","25.022625","6500500","新莊區"
"242056","172-VK","2019/12/03 19:59:17","新北市新莊區中正路347巷17-1號","121.447396666667","25.03441","6500500","新莊區"
"242017","173-VK","2019/12/03 19:59:24","新北市新莊區中安街1號","121.452718333333","25.0453116666667","6500500","新莊區"
"242021","KED-0687","2019/12/03 19:59:23","新北市新莊區建中街8號","121.449581666667","25.0375533333333","6500500","新莊區"
"242007","346-TH","2019/12/03 19:59:25","新北市新莊區思源路587號","121.459718333333","25.0594766666667","6500500","新莊區"
"242032","347-TH","2019/12/03 19:59:29","新北市新莊區公園一路17號","121.443395","25.0350333333333","6500500","新莊區"
"242037","348-TH","2019/12/03 19:59:29","新北市新莊區建安街27號","121.42905","25.026025","6500500","新莊區"
"242034","350-TH","2019/12/03 19:59:21","新北市新莊區建中街91號","121.446773333333","25.0365183333333","6500500","新莊區"
"238021","KEA-2539","2019/12/03 19:59:37","新北市樹林區佳園路二段138號","121.38927","24.95612","6500700","樹林區"
"238017","283-BY","2019/12/03 19:59:33","新北市樹林區保安街二段45巷19號","121.414845","25.0000316666667","6500700","樹林區"
"239006","891-R6","2019/12/03 19:59:33","新北市鶯歌區文化路117巷1號","121.356845","24.9550033333333","6500800","鶯歌區"
"239005","526-UM","2019/12/03 19:59:27","新北市鶯歌區中湖街315巷1號","121.346341666667","24.9780933333333","6500800","鶯歌區"
"239002","359-BY","2019/12/03 19:59:33","新北市鶯歌區大湖路26號","121.342865","24.961175","6500800","鶯歌區"
"221008","489-VK","2019/12/03 19:59:32","新北市汐止區康寧街141巷5號","121.621423333333","25.067155","6501100","汐止區"
"221015","131-UY","2019/12/03 19:59:22","新北市汐止區橋東街1號","121.666808333333","25.0763233333333","6501100","汐止區"
"221010","269-BY","2019/12/03 19:59:28","新北市汐止區汐萬路一段420號","121.64994","25.0779666666667","6501100","汐止區"
"221012","278-VK","2019/12/03 19:59:37","新北市汐止區保長路271巷2號","121.68096","25.0743166666667","6501100","汐止區"
"221023","279-VK","2019/12/03 19:59:38","新北市汐止區民族三街42號","121.629673333333","25.0700633333333","6501100","汐止區"
"221032","280-BY","2019/12/03 19:59:25","新北市汐止區橫科路403巷18號","121.624915","25.0476216666667","6501100","汐止區"
"221027","281-BY","2019/12/03 19:59:30","新北市汐止區中正路97號","121.661028333333","25.06942","6501100","汐止區"
"221029","298-VK","2019/12/03 19:59:30","新北市汐止區樟樹一路137巷26號","121.64105","25.0660116666667","6501100","汐止區"
"221021","299-VK","2019/12/03 19:59:20","新北市汐止區水源路一段170號","121.655293333333","25.0619633333333","6501100","汐止區"
"221035","622-UM","2019/12/03 19:59:37","新北市汐止區長江街9號","121.654678333333","25.0711866666667","6501100","汐止區"
"221025","623-UM","2019/12/03 19:59:04","新北市汐止區仁愛路77巷2弄8號","121.661468333333","25.0634216666667","6501100","汐止區"
"221038","646-BX","2019/12/03 19:59:33","新北市汐止區忠孝東路486號","121.666246666667","25.0739933333333","6501100","汐止區"
"221033","647-BX","2019/12/03 19:59:24","新北市汐止區東勢街190巷3號","121.633891666667","25.0416066666667","6501100","汐止區"
"220079","145-BY","2019/12/03 19:59:24","新北市板橋區中正路144號","121.456928333333","25.0161033333333","6500100","板橋區"
"220080","200-UY","2019/12/03 19:59:34","新北市板橋區大觀路二段153巷18號","121.446416666667","25.000405","6500100","板橋區"
"220082","610-BX","2019/12/03 19:59:17","新北市板橋區存德街9號","121.429981666667","24.9919666666667","6500100","板橋區"
"220101","245-BX","2019/12/03 19:59:24","新北市板橋區莒光路171巷1弄18-4號","121.474495","25.0246383333333","6500100","板橋區"
"224002","257-TC","2019/12/03 19:59:33","新北市瑞芳區員山子路員山巷20-1號","121.816648333333","25.1039","6501200","瑞芳區"
"220056","276-BY","2019/12/03 19:59:33","新北市板橋區德興街3號","121.453398333333","24.9948366666667","6500100","板橋區"
"220072","277-BY","2019/12/03 19:59:26","新北市板橋區篤行路二段31巷10號","121.432403333333","24.99257","6500100","板橋區"
"220094","283-UM","2019/12/03 19:59:20","新北市板橋區文化路一段154號","121.465458333333","25.0191633333333","6500100","板橋區"
"220071","283-VK","2019/12/03 19:59:31","新北市板橋區五權街30巷13號","121.464351666667","24.9931316666667","6500100","板橋區"
"220053","285-VK","2019/12/03 19:59:24","新北市板橋區懷仁街53-3號","121.476873333333","25.0190516666667","6500100","板橋區"
"220083","286-VK","2019/12/03 19:59:30","新北市板橋區僑中二街10巷2號","121.44698","25.0110433333333","6500100","板橋區"
"220081","287-VK","2019/12/03 19:59:40","新北市板橋區僑中一街80巷6弄1號","121.447691666667","25.0121433333333","6500100","板橋區"
"220090","288-VK","2019/12/03 19:59:25","新北市板橋區新海路72巷5弄6號","121.462041666667","25.02227","6500100","板橋區"
"220061","293-UM","2019/12/03 19:59:17","新北市板橋區中山路二段23號","121.472363333333","25.015305","6500100","板橋區"
"220084","296-UM","2019/12/03 19:59:33","新北市板橋區滿平街2巷23號","121.425485","24.989445","6500100","板橋區"
"220075","303-R5","2019/12/03 19:59:24","新北市板橋區金華街10巷5號","121.45604","25.0201583333333","6500100","板橋區"
"220062","305-R5","2019/12/03 19:59:21","新北市板橋區中山路二段318巷4號","121.48012","25.019205","6500100","板橋區"
"220092","307-R5","2019/12/03 19:59:33","新北市板橋區文化路一段45巷4號","121.460348333333","25.01347","6500100","板橋區"
"220098","317-R6","2019/12/03 19:59:31","新北市板橋區新海路403巷4號","121.45835","25.0266716666667","6500100","板橋區"
"242011","280-VK","2019/12/03 19:59:21","新北市新莊區中港路531巷54號","121.450148333333","25.051525","6500500","新莊區"
"220088","491-VK","2019/12/03 19:59:38","新北市板橋區民治街92-1號","121.479185","25.0317216666667","6500100","板橋區"
"220035","560-BX","2019/12/03 19:59:26","新北市板橋區金華街87-3號","121.458246666667","25.0207383333333","6500100","板橋區"
"220103","561-BX","2019/12/03 19:59:23","新北市板橋區漢生西路77號","121.4629","25.0188966666667","6500100","板橋區"
"220063","609-BX","2019/12/03 19:59:25","新北市板橋區中山路二段84-5號","121.474901666667","25.016225","6500100","板橋區"
"220091","637-BX","2019/12/03 19:59:31","新北市板橋區文聖街89巷5號","121.477826666667","25.0301666666667","6500100","板橋區"
"220077","687-BX","2019/12/03 19:59:31","新北市板橋區僑中一街104號","121.446591666667","25.0116666666667","6500100","板橋區"
"220093","689-BX","2019/12/03 19:59:36","新北市板橋區長江路二段49號","121.464428333333","25.0312816666667","6500100","板橋區"
"220102","KEA-2699","2019/12/03 19:59:22","新北市板橋區文化路一段370號","121.469855","25.023405","6500100","板橋區"
"220055","827-TW","2019/12/03 19:59:28","新北市板橋區仁愛路62巷17弄1號","121.460073333333","24.9982216666667","6500100","板橋區"
"220106","829-TW","2019/12/03 19:59:28","新北市板橋區懷德街66巷17號","121.477006666667","25.0319383333333","6500100","板橋區"
"220068","830-TW","2019/12/03 19:59:24","新北市板橋區中山路二段492號","121.485255","25.02203","6500100","板橋區"
"220067","831-TW","2019/12/03 19:59:18","新北市板橋區中山路一段206巷123號","121.472546666667","25.0135083333333","6500100","板橋區"
"220074","895-R6","2019/12/03 19:59:33","新北市板橋區民權路87號","121.460823333333","25.0119066666667","6500100","板橋區"
"220073","985-R7","2019/12/03 19:59:17","新北市板橋區南雅西路二段281號","121.451943333333","25.0152833333333","6500100","板橋區"
"220097","AAC-210","2019/12/03 19:59:23","新北市板橋區建國街118號","121.46089","25.0175616666667","6500100","板橋區"
"220064","AAC-253","2019/12/03 19:59:24","新北市板橋區長安街331巷86號","121.47228","25.01292","6500100","板橋區"
