"lineid","car","time","location","longitude","latitude","cityid","cityname"
"231061","002-UM","2019/12/03 20:59:34","新北市新店區永安街60號","121.518805","24.9869466666667","6500600","新店區"
"231040","047-UY","2019/12/03 20:59:30","新北市新店區中正路114號","121.542435","24.9709866666667","6500600","新店區"
"231060","106-UY","2019/12/03 20:59:28","新北市新店區安康路三段535-1號","121.480021666667","24.9473883333333","6500600","新店區"
"231051","107-UY","2019/12/03 20:59:00","新北市新店區中正路663巷1弄24號","121.532741666667","24.98984","6500600","新店區"
"231065","110-UY","2019/12/03 20:59:27","新北市新店區安祥路67巷50弄15號","121.484211666667","24.9588866666667","6500600","新店區"
"231068","187-VK","2019/12/03 20:59:36","新北市新店區中興路三段13號","121.54557","24.97813","6500600","新店區"
"231054","260-TV","2019/12/03 20:59:39","新北市新店區大新街7巷26號","121.544035","24.9679616666667","6500600","新店區"
"231042","268-BY","2019/12/03 20:59:18","新北市新店區寶興路60巷3號","121.549881666667","24.9718566666667","6500600","新店區"
"231064","278-BY","2019/12/03 20:59:33","新北市新店區薏仁坑路2-1號","121.50086","24.958325","6500600","新店區"
"231050","AAD-862","2019/12/03 20:59:18","新北市新店區三民路31號","121.53804","24.9704616666667","6500600","新店區"
"231062","515-UM","2019/12/03 20:59:20","新北市新店區裕合街143號","121.489146666667","24.94907","6500600","新店區"
"231063","641-BX","2019/12/03 20:59:35","新北市新店區玫瑰路28號","121.495235","24.95016","6500600","新店區"
"231059","897-TW","2019/12/03 20:59:36","新北市新店區僑信路74巷1號","121.499346666667","24.9485316666667","6500600","新店區"
"231043","899-TW","2019/12/03 20:59:37","新北市新店區安和路三段1-1號","121.516993333333","24.9794516666667","6500600","新店區"
"231066","AKT-0513","2019/12/03 20:59:29","新北市新店區薏仁坑路2-1號","121.500818333333","24.9582233333333","6500600","新店區"
"241011","013-R5","2019/12/03 20:59:19","新北市三重區秀江街117號","121.499756666667","25.0721633333333","6500200","三重區"
"241028","022-UY","2019/12/03 20:59:31","新北市三重區正義南路47號","121.498186666667","25.0607383333333","6500200","三重區"
"241008","059-VK","2019/12/03 20:59:22","新北市三重區車路頭街135-1號","121.48426","25.0759366666667","6500200","三重區"
"241031","061-VK","2019/12/03 20:59:24","新北市三重區重陽路一段113巷2弄2號","121.48749","25.0599683333333","6500200","三重區"
"241015","062-VK","2019/12/03 20:59:28","新北市三重區福德北路67號","121.502193333333","25.0656483333333","6500200","三重區"
"241017","063-VK","2019/12/03 20:59:32","新北市三重區國隆路30-1號","121.49217","25.0644783333333","6500200","三重區"
"241024","065-VK","2019/12/03 20:59:23","新北市三重區大勇街49號","121.481298333333","25.0719883333333","6500200","三重區"
"241007","066-VK","2019/12/03 20:59:32","新北市三重區慈愛街49號","121.486021666667","25.07907","6500200","三重區"
"241002","090-VK","2019/12/03 20:59:32","新北市三重區五華街5號","121.495428333333","25.0798616666667","6500200","三重區"
"241003","742-BX","2019/12/03 20:59:28","新北市三重區進安街196號","121.493821666667","25.08612","6500200","三重區"
"241006","262-UM","2019/12/03 20:59:22","新北市三重區下竹圍街1號","121.48094","25.07632","6500200","三重區"
"241016","266-UM","2019/12/03 20:59:33","新北市三重區正義北路110號","121.496866666667","25.065315","6500200","三重區"
"241009","267-UM","2019/12/03 20:59:25","新北市三重區車路頭街105號","121.484465","25.07463","6500200","三重區"
"241018","268-UM","2019/12/03 20:59:28","新北市三重區雙園街140號","121.493841666667","25.067195","6500200","三重區"
"241032","269-UM","2019/12/03 20:59:20","新北市三重區三陽路139號","121.4829","25.0588633333333","6500200","三重區"
"241030","KED-0822","2019/12/03 20:59:34","新北市三重區環河南路220-8號","121.49336","25.052775","6500200","三重區"
"241004","475-VK","2019/12/03 20:59:31","新北市三重區仁愛街420號","121.49039","25.0814116666667","6500200","三重區"
"241020","478-VK","2019/12/03 20:59:19","新北市三重區忠孝路二段51號","121.48573","25.071055","6500200","三重區"
"241026","480-VK","2019/12/03 20:59:22","新北市三重區環河南路125號","121.497106666667","25.0553583333333","6500200","三重區"
"241014","543-UM","2019/12/03 20:59:35","新北市三重區長榮路75號","121.502545","25.0691166666667","6500200","三重區"
"241023","545-UM","2019/12/03 20:59:38","新北市三重區洛陽街45巷11號","121.482341666667","25.0637633333333","6500200","三重區"
"241001","547-UM","2019/12/03 20:59:30","新北市三重區自強路三段87巷11號","121.487908333333","25.0747633333333","6500200","三重區"
"241019","KEA-2593","2019/12/03 20:59:28","新北市三重區自強路二段74巷21號","121.48794","25.0699033333333","6500200","三重區"
"241005","AAD-863","2019/12/03 20:59:37","新北市三重區三信路182號","121.487981666667","25.0861266666667","6500200","三重區"
"241012","743-BX","2019/12/03 20:59:32","新北市三重區龍門路274巷45號","121.501208333333","25.075545","6500200","三重區"
"241022","KED-0820","2019/12/03 20:59:20","新北市三重區中正北路20巷12號","121.487986666667","25.06251","6500200","三重區"
"241025","KED-0670","2019/12/03 20:59:21","新北市三重區貴陽街21號","121.484251666667","25.06192","6500200","三重區"
"241029","942-UM","2019/12/03 20:59:23","新北市三重區正義南路111號","121.498211666667","25.0585533333333","6500200","三重區"
"241033","AAC-255","2019/12/03 20:59:37","新北市三重區光復路二段28號","121.471976666667","25.0541766666667","6500200","三重區"
"235055","183-VK","2019/12/03 20:59:26","新北市中和區中正路899號","121.484231666667","25.0048766666667","6500300","中和區"
"247016","KEA-2869","2019/12/03 20:59:30","新北市蘆洲區正和街83號","121.468185","25.0807483333333","6501400","蘆洲區"
"247010","KED-0682","2019/12/03 20:59:22","新北市蘆洲區鷺江街76號","121.476946666667","25.083755","6501400","蘆洲區"
"235069","4980-A6","2019/12/03 20:59:39","新北市中和區連城路469巷44弄16號","121.482845","24.9942116666667","6500300","中和區"
"247006","893-R6","2019/12/03 20:59:37","新北市蘆洲區永安南路二段16巷8號","121.46781","25.07725","6501400","蘆洲區"
"247020","546-UM","2019/12/03 20:59:32","新北市蘆洲區民族路371號","121.471121666667","25.091265","6501400","蘆洲區"
"247004","500-BY","2019/12/03 20:59:28","新北市蘆洲區永安南路二段268號","121.45854","25.080795","6501400","蘆洲區"
"247012","341-TH","2019/12/03 20:59:37","新北市蘆洲區信義路283號","121.478771666667","25.0853483333333","6501400","蘆洲區"
"247024","057-VK","2019/12/03 20:59:29","新北市蘆洲區長興路213號","121.461106666667","25.0863833333333","6501400","蘆洲區"
"247014","056-VK","2019/12/03 20:59:22","新北市蘆洲區中山二路36巷15號","121.474323333333","25.0828983333333","6501400","蘆洲區"
"247018","053-VK","2019/12/03 20:59:32","新北市蘆洲區民權路136-2號","121.473183333333","25.0888333333333","6501400","蘆洲區"
"247008","002-UY","2019/12/03 20:59:25","新北市蘆洲區民生街76號","121.47286","25.0790233333333","6501400","蘆洲區"
"247002","001-UY","2019/12/03 20:59:24","新北市蘆洲區永平街16號","121.459216666667","25.0906","6501400","蘆洲區"
"208002","KEA-2872","2019/12/03 20:46:35","新北市金山區磺清路135號","121.63942","25.2276683333333","6502700","金山區"
"251005","010-UM","2019/12/03 20:59:26","新北市淡水區學府路51巷2弄4號","121.447865","25.1695983333333","6501000","淡水區"
"251001","011-UM","2019/12/03 20:59:20","新北市淡水區新市一路三段103號","121.446375","25.183035","6501000","淡水區"
"251015","KEA-2871","2019/12/03 20:59:36","新北市淡水區淡金路四段542巷17號","121.452825","25.2270483333333","6501000","淡水區"
"251016","180-VK","2019/12/03 20:59:35","新北市淡水區牛埔子11-1號","121.450131666667","25.2184616666667","6501000","淡水區"
"251008","181-VK","2019/12/03 20:59:27","新北市淡水區崁頂59-2號","121.441431666667","25.198705","6501000","淡水區"
"251013","182-VK","2019/12/03 20:59:39","新北市淡水區番子厝13號","121.461366666667","25.20144","6501000","淡水區"
"251010","413-VK","2019/12/03 20:59:25","新北市淡水區淡海路22號","121.424038333333","25.1786766666667","6501000","淡水區"
"251012","441-VK","2019/12/03 20:59:19","新北市淡水區淡金路五段110號","121.456505","25.2367716666667","6501000","淡水區"
"251007","442-VK","2019/12/03 20:59:18","新北市淡水區仁愛街2巷11號","121.446188333333","25.1706583333333","6501000","淡水區"
"251014","577-R6","2019/12/03 20:59:34","新北市淡水區溪口7-3號","121.455581666667","25.236595","6501000","淡水區"
"251011","650-BX","2019/12/03 20:59:26","新北市淡水區新民街103號","121.435923333333","25.1809933333333","6501000","淡水區"
"251002","672-BX","2019/12/03 20:59:34","新北市淡水區英專路67號","121.44565","25.1712116666667","6501000","淡水區"
"251003","673-BX","2019/12/03 20:59:23","新北市淡水區新春街117號","121.441415","25.18195","6501000","淡水區"
"242025","362-BY","2019/12/03 20:59:32","新北市八里區商港路88-4號","121.393856666667","25.14866","6500500","新莊區"
"242037","348-TH","2019/12/03 20:59:29","新北市新莊區新莊路773號","121.441955","25.0324483333333","6500500","新莊區"
"242009","349-TH","2019/12/03 20:59:29","新北市新莊區環河路116-1號","121.460551666667","25.037905","6500500","新莊區"
"242034","350-TH","2019/12/03 20:59:21","新北市五股區新五路三段38號","121.444305","25.0876566666667","6500500","新莊區"
"220083","286-VK","2019/12/03 20:59:24","新北市樹林區中山路三段210-2號","121.381665","24.96561","6500100","板橋區"
