"lineid","car","time","location","longitude","latitude","cityid","cityname"
"251004","009-UM","2019/12/03 21:59:34","新北市淡水區民權路229號","121.459986666667","25.12984","6501000","淡水區"
"251005","010-UM","2019/12/03 21:59:26","新北市淡水區鄧公路30巷1弄68號","121.454511666667","25.1694183333333","6501000","淡水區"
"251008","181-VK","2019/12/03 21:59:27","新北市淡水區水源街一段83巷149-15號","121.448466666667","25.1734383333333","6501000","淡水區"
"251010","413-VK","2019/12/03 21:59:25","新北市淡水區中正路二段211號","121.426196666667","25.1890933333333","6501000","淡水區"
"251007","442-VK","2019/12/03 21:59:18","新北市淡水區北新路184巷19號","121.450171666667","25.178115","6501000","淡水區"
"251006","561-UM","2019/12/03 21:42:54","新北市淡水區中正路11巷3號","121.437846666667","25.1707466666667","6501000","淡水區"
"251011","650-BX","2019/12/03 21:59:26","新北市淡水區中山北路一段129號","121.442795","25.1769333333333","6501000","淡水區"
"251003","673-BX","2019/12/03 21:59:23","新北市淡水區新春街81號","121.438745","25.1823416666667","6501000","淡水區"
