"lineid","car","time","location","longitude","latitude","cityid","cityname"
"232001","758-BX","2019/07/25 08:39:29","新北市坪林區粗石斛5-2號","121.748281666667","24.9530333333333","6502000","坪林區"
"244003","248-BX","2019/07/25 08:39:37","新北市林口區下福里137-2號","121.29721","25.1189183333333","6501700","林口區"
"244006","402-UM","2019/07/25 08:39:48","新北市林口區林口路115號","121.388928333333","25.0808016666667","6501700","林口區"
"244012","KEA-2802","2019/07/25 08:39:33","新北市林口區中山路160巷3號","121.390865","25.079315","6501700","林口區"
"244022","483-VK","2019/07/25 08:37:26","新北市林口區興林路152巷30號","121.387363333333","25.0716933333333","6501700","林口區"
"244016","485-VK","2019/07/25 08:39:37","新北市林口區忠孝路508號","121.370935","25.06986","6501700","林口區"
"244008","657-BX","2019/07/25 08:39:44","新北市林口區竹林路582巷19號","121.38588","25.08331","6501700","林口區"
"244010","701-TV","2019/07/25 08:39:45","新北市林口區中正路121號","121.393478333333","25.0772116666667","6501700","林口區"
"244024","837-TS","2019/07/25 08:39:27","新北市林口區忠孝三路一段118號","121.35915","25.0716833333333","6501700","林口區"
"244020","838-TS","2019/07/25 08:39:45","新北市林口區自強一街48號","121.399305","25.0774983333333","6501700","林口區"
"222006","289-BY","2019/07/25 08:39:38","新北市深坑區風格街2號","121.626815","25.0166283333333","6501800","深坑區"
"231069","189-VK","2019/07/25 08:39:25","新北市新店區新潭路三段231巷15號","121.505206666667","24.9041716666667","6500600","新店區"
"231008","192-VK","2019/07/25 08:39:49","新北市新店區新烏路三段266號","121.550233333333","24.9000633333333","6500600","新店區"
"226007","8452-VL","2019/07/25 08:39:30","新北市平溪區東勢里芊蓁林32-2號","121.727156666667","24.9780816666667","6502400","平溪區"
"226003","AGD-0702","2019/07/25 08:39:45","新北市平溪區新寮里新寮路1號","121.792956666667","25.0593266666667","6502400","平溪區"
"223003","205-TH","2019/07/25 08:39:41","新北市石碇區北宜路六段直潭巷1號","121.658836666667","24.9375933333333","6501900","石碇區"
"223008","406-TH","2019/07/25 08:39:39","新北市石碇區十八重溪13號","121.677875","25.0113083333333","6501900","石碇區"
"223001","592-UM","2019/07/25 08:39:32","新北市石碇區北宜路六段直潭巷7號","121.660271666667","24.935965","6501900","石碇區"
"223004","660-BX","2019/07/25 08:39:37","新北市石碇區碇坪路一段268號","121.67563","24.9772216666667","6501900","石碇區"
"223007","661-BX","2019/07/25 08:39:43","新北市石碇區番子坑38-9號","121.678155","25.0110283333333","6501900","石碇區"
"223005","677-TV","2019/07/25 08:39:44","新北市石碇區碇坪路一段280號","121.675805","24.9770516666667","6501900","石碇區"
"252004","249-BX","2019/07/25 08:39:33","新北市三芝區興華里田心子12-2號","121.492503333333","25.2062016666667","6502100","三芝區"
"252007","AAC-283","2019/07/25 08:39:43","新北市三芝區後厝里北勢子35號","121.478091666667","25.2463566666667","6502100","三芝區"
"237014","760-BX","2019/07/25 08:39:42","新北市三峽區有木18-1號","121.426548333333","24.8624333333333","6500900","三峽區"
"226005","ANY-2373","2019/07/25 08:39:35","新北市平溪區南山里南山坪102-1號","121.779623333333","25.042445","6502400","平溪區"
"242038","AAC-296","2019/07/25 08:39:44","新北市新莊區民安路309號","121.429861666667","25.0226483333333","6500500","新莊區"
"242059","986-R7","2019/07/25 08:39:39","新北市新莊區新樹路69-4號","121.438643333333","25.0297583333333","6500500","新莊區"
"242001","751-BX","2019/07/25 08:39:29","新北市新莊區環漢路二段385號","121.451185","25.032665","6500500","新莊區"
"242028","615-BX","2019/07/25 08:39:44","新北市新莊區中平路300號","121.444761666667","25.051745","6500500","新莊區"
"242026","613-BX","2019/07/25 08:39:34","新北市新莊區幸福路821號","121.445308333333","25.049045","6500500","新莊區"
"242057","612-BX","2019/07/25 08:39:32","新北市新莊區新北大道七段716號","121.412433333333","25.0262066666667","6500500","新莊區"
"242045","566-BX","2019/07/25 08:39:45","新北市新莊區福營路230號","121.42691","25.0291333333333","6500500","新莊區"
"242049","497-BY","2019/07/25 08:39:46","新北市新莊區西盛街165號","121.428225","25.017705","6500500","新莊區"
"242010","442-UM","2019/07/25 08:39:46","新北市新莊區中榮街49巷1號","121.449281666667","25.0526333333333","6500500","新莊區"
"242055","441-UM","2019/07/25 08:39:40","新北市新莊區豐年街78號","121.446376666667","25.0312466666667","6500500","新莊區"
"242003","440-UM","2019/07/25 08:39:31","新北市新莊區復興路二段168號","121.458106666667","25.0443616666667","6500500","新莊區"
"242040","415-TV","2019/07/25 08:39:49","新北市新莊區天祥街94號","121.415093333333","25.02957","6500500","新莊區"
"242047","400-BY","2019/07/25 08:39:44","新北市新莊區富國路130號","121.42258","25.0251466666667","6500500","新莊區"
"242024","362-BY","2019/07/25 08:39:34","新北市新莊區五工二路91號","121.45924","25.0664966666667","6500500","新莊區"
"242022","353-BY","2019/07/25 08:39:42","新北市新莊區化成路290號","121.46569","25.0476483333333","6500500","新莊區"
"242012","132-UY","2019/07/25 08:39:26","新北市新莊區中誠街97號","121.45001","25.0476383333333","6500500","新莊區"
"242035","135-UY","2019/07/25 08:39:44","新北市新莊區民安路207巷27號","121.427213333333","25.0235583333333","6500500","新莊區"
"242052","172-VK","2019/07/25 08:39:47","新北市新莊區光華街44號","121.428706666667","25.0115566666667","6500500","新莊區"
"242014","173-VK","2019/07/25 08:39:39","新北市新莊區中平路184巷10弄16號","121.445545","25.0482783333333","6500500","新莊區"
"242020","175-VK","2019/07/25 08:39:44","新北市新莊區新興街20號","121.45073","25.0364683333333","6500500","新莊區"
"242018","KED-0687","2019/07/25 08:39:27","新北市新莊區中華路一段136巷28號","121.453523333333","25.041275","6500500","新莊區"
"242033","348-TH","2019/07/25 08:39:31","新北市新莊區新泰路109號","121.448893333333","25.0351066666667","6500500","新莊區"
"242006","349-TH","2019/07/25 08:39:43","新北市新莊區思源路593巷8號","121.459145","25.0597466666667","6500500","新莊區"
"242030","350-TH","2019/07/25 08:39:46","新北市新莊區新泰路277巷57弄4號","121.443308333333","25.039835","6500500","新莊區"
"242016","351-TH","2019/07/25 08:39:46","新北市新莊區中港路360號","121.45203","25.0469283333333","6500500","新莊區"
"244018","KED-0667","2019/07/25 08:39:42","新北市林口區忠孝路403號","121.369998333333","25.0709366666667","6501700","林口區"
"233003","KEC-0709","2019/07/25 08:39:38","新北市烏來區信福路120巷2-1號","121.52395","24.831375","6502900","烏來區"
"242043","281-VK","2019/07/25 08:39:45","新北市新莊區天泉二街24巷1號","121.414618333333","25.025505","6500500","新莊區"
"242008","280-VK","2019/07/25 08:39:49","新北市新莊區昌盛街6號","121.453333333333","25.04992","6500500","新莊區"
