"lineid","car","time","location","longitude","latitude","cityid","cityname"
"244006","402-UM","2019/07/25 09:19:28","新北市林口區後湖13鄰44號","121.386145","25.0998933333333","6501700","林口區"
"244012","KEA-2802","2019/07/25 09:19:33","新北市林口區麗園二街23巷15-9號","121.379331666667","25.0701066666667","6501700","林口區"
"244022","483-VK","2019/07/25 09:19:46","新北市林口區東湖路214號","121.382848333333","25.0736766666667","6501700","林口區"
"244016","485-VK","2019/07/25 09:19:36","新北市林口區文化二路一段20巷25弄9號","121.365393333333","25.0671233333333","6501700","林口區"
"244008","657-BX","2019/07/25 09:19:44","新北市林口區文化二路二段369號","121.38077","25.0869866666667","6501700","林口區"
"244010","701-TV","2019/07/25 09:19:45","新北市林口區粉寮路一段15號","121.396356666667","25.076365","6501700","林口區"
"244024","837-TS","2019/07/25 09:19:27","新北市林口區文化三路一段555巷91號","121.369391666667","25.0773116666667","6501700","林口區"
"244020","838-TS","2019/07/25 09:19:45","新北市林口區粉寮路二段160巷28號","121.405193333333","25.09075","6501700","林口區"
"222006","289-BY","2019/07/25 09:19:38","新北市深坑區北深路一段278巷22號","121.628661666667","25.0121","6501800","深坑區"
"231008","192-VK","2019/07/25 09:19:34","新北市新店區平廣路一段30-1號","121.534498333333","24.90298","6500600","新店區"
"226003","AGD-0702","2019/07/25 09:19:25","新北市平溪區嶺腳里嶺腳寮89號","121.747385","25.0349833333333","6502400","平溪區"
"223003","205-TH","2019/07/25 09:19:41","新北市石碇區北宜路五段62號","121.636578333333","24.954015","6501900","石碇區"
"223008","406-TH","2019/07/25 09:19:39","新北市石碇區光明路15號","121.680538333333","25.03361","6501900","石碇區"
"223001","592-UM","2019/07/25 09:19:32","新北市石碇區北宜路五段崙尾寮巷1號","121.644645","24.9533566666667","6501900","石碇區"
"223004","660-BX","2019/07/25 09:19:37","新北市石碇區磨石坑24-5號","121.690528333333","24.97134","6501900","石碇區"
"223007","661-BX","2019/07/25 09:19:03","新北市石碇區光明路17-2號","121.685323333333","25.03188","6501900","石碇區"
"223005","677-TV","2019/07/25 09:19:32","新北市石碇區磨石坑24號","121.689795","24.97424","6501900","石碇區"
"252004","249-BX","2019/07/25 09:19:33","新北市三芝區興華里田心子7-2號","121.499181666667","25.2040466666667","6502100","三芝區"
"252007","AAC-283","2019/07/25 09:19:43","新北市三芝區埔坪里埔頭坑107號","121.504395","25.2614383333333","6502100","三芝區"
"237014","760-BX","2019/07/25 09:19:42","新北市三峽區金敏32號","121.391515","24.8810216666667","6500900","三峽區"
"242038","AAC-296","2019/07/25 09:19:44","新北市新莊區民安路285-4號","121.429031666667","25.0222233333333","6500500","新莊區"
"242059","986-R7","2019/07/25 09:19:40","新北市新莊區瓊泰路30號","121.444271666667","25.028645","6500500","新莊區"
"242001","751-BX","2019/07/25 09:19:43","新北市新莊區中正路78-1號","121.458323333333","25.0377166666667","6500500","新莊區"
"242026","613-BX","2019/07/25 09:19:42","新北市新莊區思源路113號","121.459803333333","25.0420233333333","6500500","新莊區"
"242057","612-BX","2019/07/25 09:19:32","新北市新莊區龍安路333號","121.422408333333","25.0191933333333","6500500","新莊區"
"242045","566-BX","2019/07/25 09:19:42","新北市新莊區中正路新生巷45號","121.417545","25.023195","6500500","新莊區"
"242049","497-BY","2019/07/25 09:19:26","新北市新莊區民安東路61號","121.429911666667","25.0208083333333","6500500","新莊區"
"242010","442-UM","2019/07/25 09:19:46","新北市新莊區中榮街106號","121.447215","25.0529083333333","6500500","新莊區"
"242055","441-UM","2019/07/25 09:19:39","新北市新莊區豐年街38號","121.446395","25.0321533333333","6500500","新莊區"
"242003","440-UM","2019/07/25 09:19:31","新北市新莊區化成路556號","121.466271666667","25.053895","6500500","新莊區"
"242040","415-TV","2019/07/25 09:19:27","新北市新莊區中正路694巷24號","121.418188333333","25.02874","6500500","新莊區"
"242047","400-BY","2019/07/25 09:19:44","新北市新莊區四維路186巷1號","121.42187","25.021105","6500500","新莊區"
"242024","362-BY","2019/07/25 09:19:47","新北市新莊區五工二路50巷13號","121.461356666667","25.0656316666667","6500500","新莊區"
"242022","353-BY","2019/07/25 09:19:42","新北市新莊區化成路652號","121.466015","25.0557266666667","6500500","新莊區"
"242012","132-UY","2019/07/25 09:19:26","新北市新莊區中和街175巷13號","121.447171666667","25.0505883333333","6500500","新莊區"
"242035","135-UY","2019/07/25 09:19:44","新北市新莊區後港一路76巷10弄3號","121.42687","25.0259666666667","6500500","新莊區"
"242052","172-VK","2019/07/25 09:19:34","新北市新莊區西盛街344巷2號","121.427861666667","25.014175","6500500","新莊區"
"242014","173-VK","2019/07/25 09:19:39","新北市新莊區復興路一段85號","121.448441666667","25.0426566666667","6500500","新莊區"
"242020","175-VK","2019/07/25 09:19:31","新北市新莊區中華路一段73號","121.45217","25.0400366666667","6500500","新莊區"
"242018","KED-0687","2019/07/25 09:19:47","新北市新莊區中港路128號","121.455243333333","25.04056","6500500","新莊區"
"242033","348-TH","2019/07/25 09:19:30","新北市新莊區建中街90巷3弄2號","121.446813333333","25.0373116666667","6500500","新莊區"
"242030","350-TH","2019/07/25 09:19:34","新北市新莊區中正路414-1號","121.441016666667","25.0339016666667","6500500","新莊區"
"244018","KED-0667","2019/07/25 09:19:46","新北市林口區忠孝路569巷57號","121.374701666667","25.06892","6501700","林口區"
"233003","KEC-0709","2019/07/25 09:19:38","新北市烏來區李茂岸45號","121.502968333333","24.77717","6502900","烏來區"
"242043","281-VK","2019/07/25 09:19:45","新北市新莊區中正路929巷7弄28號","121.411761666667","25.019785","6500500","新莊區"
