"lineid","car","time","location","longitude","latitude","cityid","cityname"
"244022","483-VK","2019/07/25 10:39:46","新北市林口區文化北路二段234號","121.372931666667","25.0856616666667","6501700","林口區"
"222006","289-BY","2019/07/25 10:39:38","新北市深坑區阿柔洋35-1號","121.613236666667","24.9976233333333","6501800","深坑區"
"231069","189-VK","2019/07/25 10:39:29","新北市新店區小坑三路51-2號","121.517186666667","24.9083216666667","6500600","新店區"
"231008","192-VK","2019/07/25 10:39:20","新北市新店區成功路108號","121.536558333333","24.8945466666667","6500600","新店區"
"233003","KEC-0709","2019/07/25 10:32:03","新北市烏來區啦卡路70-1號","121.56523","24.85613","6502900","烏來區"
