"lineid","car","time","location","longitude","latitude","cityid","cityname"
"234044","148-BY","2019/07/25 12:49:49","新北市永和區秀朗路二段155號","121.52509","25.0015583333333","6500400","永和區"
"234078","298-R6","2019/07/25 12:49:39","新北市永和區永利路150號","121.522403333333","25.0028166666667","6500400","永和區"
"234036","336-UY","2019/07/25 12:49:38","新北市永和區成功路一段14號","121.527051666667","25.0052033333333","6500400","永和區"
"234062","337-UY","2019/07/25 12:49:40","新北市永和區豫溪街217巷29號","121.524585","25.0104566666667","6500400","永和區"
"234084","338-UY","2019/07/25 12:49:45","新北市永和區中正路49號","121.514553333333","24.9962266666667","6500400","永和區"
"234015","745-BX","2019/07/25 12:49:35","新北市永和區永和路二段301巷1號","121.515791666667","25.0163016666667","6500400","永和區"
"234028","746-BX","2019/07/25 12:49:37","新北市永和區得和路328號","121.523333333333","24.999535","6500400","永和區"
"234052","KEA-2590","2019/07/25 12:49:42","新北市永和區竹林路39巷20號","121.518783333333","25.0147","6500400","永和區"
"234005","KED-0605","2019/07/25 12:49:37","新北市永和區文化路208號","121.51028","25.01663","6500400","永和區"
"234012","KEA-2591","2019/07/25 12:49:41","新北市永和區保福路二段133巷35號","121.50901","25.0134066666667","6500400","永和區"
"234060","AAD-866","2019/07/25 12:49:48","新北市永和區福和路305號","121.516313333333","25.0071866666667","6500400","永和區"
"234068","748-BX","2019/07/25 12:49:35","新北市永和區竹林路159號","121.520678333333","25.0103366666667","6500400","永和區"
"234040","862-TW","2019/07/25 12:49:35","新北市永和區永貞路306號","121.511855","25.0048383333333","6500400","永和區"
"234048","863-TW","2019/07/25 12:49:49","新北市永和區光復街60巷4弄20號","121.517165","25.0178733333333","6500400","永和區"
"234025","9371-KE","2019/07/25 12:49:28","新北市永和區永和路二段16號","121.514743333333","25.0101083333333","6500400","永和區"
"234010","9373-KE","2019/07/25 12:49:45","新北市永和區保福路二段158巷1號","121.509031666667","25.01506","6500400","永和區"
"248015","026-BX","2019/07/25 12:49:40","新北市五股區中興路二段83巷26-6號","121.460115","25.0750783333333","6501500","五股區"
"248005","077-UY","2019/07/25 12:49:44","新北市五股區中興路二段37巷26號","121.460321666667","25.074985","6501500","五股區"
"248007","KED-0815","2019/07/25 12:49:36","新北市五股區中興路二段63巷17號","121.460281666667","25.0753383333333","6501500","五股區"
"248013","261-SL","2019/07/25 12:49:31","新北市五股區中興路二段83巷26-6號","121.46013","25.0751716666667","6501500","五股區"
"234022","9380-KE","2019/07/25 12:49:28","新北市永和區竹林路119巷45號","121.521856666667","25.0118366666667","6500400","永和區"
"234076","969-R7","2019/07/25 12:49:47","新北市永和區中正路2巷1號","121.51276","24.99343","6500400","永和區"
"234066","AAC-212","2019/07/25 12:49:36","新北市永和區永和路一段22號","121.51302","25.0048383333333","6500400","永和區"
"234001","AAC-295","2019/07/25 12:49:41","新北市永和區永和路二段8號","121.514588333333","25.0103166666667","6500400","永和區"
"231030","002-UM","2019/07/25 12:49:43","新北市新店區安華路28-1號","121.51958","24.9608516666667","6500600","新店區"
"231029","106-UY","2019/07/25 12:49:37","新北市新店區安華路28-1號","121.519591666667","24.9608633333333","6500600","新店區"
"231018","107-UY","2019/07/25 12:49:32","新北市新店區安一路一段1-1號","121.519441666667","24.9612433333333","6500600","新店區"
"231023","260-TV","2019/07/25 12:49:42","新北市新店區安一路一段1-1號","121.519368333333","24.9611883333333","6500600","新店區"
"231003","268-BY","2019/07/25 12:49:43","新北市新店區安一路一段1-1號","121.519796666667","24.961425","6500600","新店區"
"231035","278-BY","2019/07/25 12:49:30","新北市新店區安一路一段1-1號","121.519661666667","24.9610883333333","6500600","新店區"
"231017","AAD-862","2019/07/25 12:49:35","新北市新店區安一路一段1-1號","121.519718333333","24.9611433333333","6500600","新店區"
"231021","513-UM","2019/07/25 12:49:35","新北市新店區安一路一段1-1號","121.51956","24.961125","6500600","新店區"
"231002","619-UM","2019/07/25 12:49:34","新北市新店區安華路28-1號","121.519578333333","24.960955","6500600","新店區"
"231011","KED-0819","2019/07/25 12:49:31","新北市新店區安一路一段1-1號","121.51979","24.9611483333333","6500600","新店區"
"231010","719-UM","2019/07/25 12:49:42","新北市新店區安一路一段1-1號","121.519418333333","24.9611266666667","6500600","新店區"
"231026","720-UM","2019/07/25 12:49:39","新北市新店區安一路一段1-1號","121.519326666667","24.961355","6500600","新店區"
"235028","005-UY","2019/07/25 12:49:33","新北市中和區員山路36巷16-3號","121.48513","24.99135","6500300","中和區"
"235027","006-UY","2019/07/25 12:49:31","新北市中和區員山路36巷16-3號","121.485145","24.9913233333333","6500300","中和區"
"235029","098-UM","2019/07/25 12:49:30","新北市中和區連城路301號","121.489846666667","24.9961383333333","6500300","中和區"
"235022","151-BY","2019/07/25 12:49:39","新北市中和區員山路36巷16-2號","121.485353333333","24.99164","6500300","中和區"
"235002","185-VK","2019/07/25 12:49:33","新北市中和區員山路36巷16-8號","121.485385","24.9921833333333","6500300","中和區"
"235031","255-BX","2019/07/25 12:49:32","新北市中和區新生街21-3號","121.483275","25.0039883333333","6500300","中和區"
"235005","551-UM","2019/07/25 12:49:39","新北市中和區和城路一段271巷1號","121.485478333333","24.99177","6500300","中和區"
"235009","565-BX","2019/07/25 12:49:31","新北市中和區員山路36巷13號","121.484283333333","24.9909066666667","6500300","中和區"
"235018","640-BX","2019/07/25 12:49:32","新北市中和區員山路36巷16-2號","121.485255","24.9915183333333","6500300","中和區"
"235035","783-BX","2019/07/25 12:49:38","新北市中和區員山路36巷16-3號","121.485135","24.9913333333333","6500300","中和區"
"235021","801-TS","2019/07/25 12:49:33","新北市中和區員山路36巷13號","121.484298333333","24.9906816666667","6500300","中和區"
"235017","900-TW","2019/07/25 12:49:27","新北市中和區員山路36巷16-2號","121.485265","24.9914733333333","6500300","中和區"
"235001","AAC-213","2019/07/25 12:49:31","新北市中和區員山路36巷16號","121.484496666667","24.9912866666667","6500300","中和區"
"228004","212-TW","2019/07/25 12:49:48","新北市貢寮區吉林里內寮街10-2號","121.888285","24.996755","6502600","貢寮區"
"228005","828-UM","2019/07/25 12:49:38","新北市貢寮區福連里福連街34-1號","121.988643333333","25.011095","6502600","貢寮區"
"207002","749-BX","2019/07/25 12:49:33","新北市萬里區雙興里二坪路30號","121.646821666667","25.1686416666667","6502800","萬里區"
"252005","073-UM","2019/07/25 12:49:35","新北市三芝區埔坪里埔頭坑41號","121.504551666667","25.2644533333333","6502100","三芝區"
"207001","662-BX","2019/07/25 12:49:39","新北市萬里區萬里里瑪鋉路102號","121.690491666667","25.1786666666667","6502800","萬里區"
"221029","298-VK","2019/07/25 12:49:37","新北市汐止區康寧街901號","121.651713333333","25.07497","6501100","汐止區"
"235032","KEA-2873","2019/07/25 12:49:42","新北市中和區員山路36巷16-3號","121.485053333333","24.9913016666667","6500300","中和區"
"235025","KEA-2875","2019/07/25 12:23:13","","121.485346666667","24.9916616666667","6500300","中和區"
