"lineid","car","time","location","longitude","latitude","cityid","cityname"
"234044","148-BY","2019/07/25 13:19:29","新北市永和區得和路324號","121.523155","24.9995733333333","6500400","永和區"
"234078","298-R6","2019/07/25 13:19:39","新北市永和區環河東路三段12號","121.525436666667","25.0079616666667","6500400","永和區"
"234036","336-UY","2019/07/25 13:19:38","新北市永和區民樂街70號","121.527408333333","24.9984016666667","6500400","永和區"
"234062","337-UY","2019/07/25 13:19:40","新北市永和區永元路17巷6弄2號","121.521378333333","25.0006483333333","6500400","永和區"
"234084","338-UY","2019/07/25 13:19:45","新北市永和區永利路2號","121.517346666667","25.0058866666667","6500400","永和區"
"234015","745-BX","2019/07/25 13:19:44","新北市永和區環河西路一段95巷19弄2號","121.511641666667","25.01712","6500400","永和區"
"234028","746-BX","2019/07/25 13:19:39","新北市永和區厚德街93號","121.523718333333","24.9988283333333","6500400","永和區"
"234052","KEA-2590","2019/07/25 13:19:42","新北市永和區中興街20號","121.516043333333","25.0118666666667","6500400","永和區"
"234005","KED-0605","2019/07/25 13:19:37","新北市永和區中山路一段320號","121.506658333333","25.0069916666667","6500400","永和區"
"234012","KEA-2591","2019/07/25 13:19:41","新北市永和區仁愛路103號","121.512451666667","25.0131083333333","6500400","永和區"
"234060","AAD-866","2019/07/25 13:19:28","新北市永和區秀朗路一段175號","121.517005","25.0036966666667","6500400","永和區"
"234068","748-BX","2019/07/25 13:19:35","新北市永和區豫溪街67號","121.517666666667","25.0099583333333","6500400","永和區"
"234040","862-TW","2019/07/25 13:19:35","新北市永和區保平路203巷33號","121.509693333333","25.0050433333333","6500400","永和區"
"234048","863-TW","2019/07/25 13:19:29","新北市永和區仁愛路140號","121.511125","25.0133566666667","6500400","永和區"
"234025","9371-KE","2019/07/25 13:19:49","新北市永和區豫溪街28巷22號","121.51496","25.00891","6500400","永和區"
"234010","9373-KE","2019/07/25 13:19:46","新北市永和區忠孝街34巷1弄1號","121.51478","25.0159716666667","6500400","永和區"
"248015","026-BX","2019/07/25 13:19:41","新北市五股區西雲路290號","121.449633333333","25.0991716666667","6501500","五股區"
"248005","077-UY","2019/07/25 13:19:44","新北市五股區中興路一段132號","121.465378333333","25.0736016666667","6501500","五股區"
"248007","KED-0815","2019/07/25 13:19:36","新北市五股區更洲路32巷8弄14號","121.459243333333","25.0796333333333","6501500","五股區"
"248017","KED-0813","2019/07/25 13:19:30","新北市五股區御史路130-1號","121.434296666667","25.0988","6501500","五股區"
"248011","247-BX","2019/07/25 13:19:29","新北市五股區御成路35號","121.441001666667","25.09126","6501500","五股區"
"248013","261-SL","2019/07/25 13:19:37","新北市五股區水碓一路1號","121.432836666667","25.0726566666667","6501500","五股區"
"248009","272-BY","2019/07/25 13:19:39","新北市五股區成泰路一段189巷9弄2號","121.434235","25.07663","6501500","五股區"
"248003","677-BX","2019/07/25 13:19:33","新北市五股區成泰路二段175號","121.43962","25.0862383333333","6501500","五股區"
"248001","678-BX","2019/07/25 13:19:37","新北市五股區西雲路44號","121.44357","25.0908916666667","6501500","五股區"
"234022","9380-KE","2019/07/25 13:19:48","新北市永和區竹林路109巷8號","121.520276666667","25.0119333333333","6500400","永和區"
"234076","969-R7","2019/07/25 13:19:27","新北市永和區民有街69號","121.517821666667","24.9957183333333","6500400","永和區"
"234072","AAC-211","2019/07/25 13:19:43","新北市永和區竹林路46號","121.517613333333","25.0141983333333","6500400","永和區"
"234066","AAC-212","2019/07/25 13:19:36","新北市永和區保平路50巷8弄14號","121.511591666667","25.0077366666667","6500400","永和區"
"234001","AAC-295","2019/07/25 13:19:41","新北市永和區保福路一段82號","121.512288333333","25.0102183333333","6500400","永和區"
"244003","248-BX","2019/07/25 13:19:22","新北市林口區寶斗厝坑67-5號","121.3383","25.1116766666667","6501700","林口區"
"243005","646-TV","2019/07/25 13:19:44","新北市泰山區南林路99巷1-1號","121.415393333333","25.050795","6501600","泰山區"
"231030","002-UM","2019/07/25 13:19:42","新北市新店區安華路28-1號","121.519748333333","24.9608283333333","6500600","新店區"
"231024","0293-UT","2019/07/25 13:19:38","新北市新店區安一路一段1-1號","121.519775","24.96168","6500600","新店區"
"231005","046-UY","2019/07/25 13:19:30","新北市新店區安華路1-1號","121.519301666667","24.9605583333333","6500600","新店區"
"231029","106-UY","2019/07/25 13:19:37","新北市新店區安華路28-1號","121.51967","24.96083","6500600","新店區"
"231018","107-UY","2019/07/25 13:19:32","新北市新店區安康路一段79巷1號","121.529786666667","24.96126","6500600","新店區"
"231013","108-UY","2019/07/25 13:19:39","新北市新店區安一路一段1-1號","121.519916666667","24.9613866666667","6500600","新店區"
"231036","110-UY","2019/07/25 13:19:37","新北市新店區建業路15號","121.482696666667","24.9526333333333","6500600","新店區"
"231031","256-BX","2019/07/25 13:19:30","新北市新店區安華路28-1號","121.519596666667","24.96074","6500600","新店區"
"231023","260-TV","2019/07/25 13:19:42","新北市新店區安一路一段1-1號","121.519225","24.9611916666667","6500600","新店區"
"231003","268-BY","2019/07/25 13:19:43","新北市新店區中興路一段258號","121.544718333333","24.9670233333333","6500600","新店區"
"231035","278-BY","2019/07/25 13:19:30","新北市新店區安一路一段1-1號","121.5197","24.9612","6500600","新店區"
"231017","AAD-862","2019/07/25 13:19:35","新北市新店區安一路一段1-1號","121.519871666667","24.961195","6500600","新店區"
"231006","355-BY","2019/07/25 13:19:33","新北市新店區安華路28-1號","121.519238333333","24.960845","6500600","新店區"
"231038","3712-VJ","2019/07/25 13:19:45","新北市新店區安華路28-1號","121.5193","24.960685","6500600","新店區"
"231027","3713-VJ","2019/07/25 13:19:28","新北市新店區安康路一段79巷1號","121.529793333333","24.96127","6500600","新店區"
"231025","4715-K9","2019/07/25 13:19:37","新北市新店區中央五街5號","121.530045","24.9741583333333","6500600","新店區"
"231021","513-UM","2019/07/25 13:19:35","新北市新店區安康路一段35-5號","121.531943333333","24.9606416666667","6500600","新店區"
"231002","619-UM","2019/07/25 13:19:34","新北市新店區安華路28-1號","121.519538333333","24.9607833333333","6500600","新店區"
"231034","641-BX","2019/07/25 13:19:34","新北市新店區安華路28-1號","121.519513333333","24.9605566666667","6500600","新店區"
"231011","KED-0819","2019/07/25 13:19:31","新北市新店區安一路一段1-1號","121.51977","24.9611583333333","6500600","新店區"
"231010","719-UM","2019/07/25 13:19:42","新北市新店區安康路一段293號","121.52273","24.96365","6500600","新店區"
"231026","720-UM","2019/07/25 13:17:59","新北市新店區安康路一段359-7號","121.51828","24.9632316666667","6500600","新店區"
"231028","897-TW","2019/07/25 13:19:42","新北市新店區安華路28-1號","121.519645","24.960585","6500600","新店區"
"231001","898-TW","2019/07/25 13:19:34","新北市新店區安華路28-1號","121.519433333333","24.9607333333333","6500600","新店區"
"231037","AKT-0513","2019/07/25 13:19:35","新北市新店區安豐路54-1號","121.499813333333","24.954025","6500600","新店區"
"235030","003-UY","2019/07/25 13:19:28","新北市中和區中山路二段120號","121.502738333333","25.003785","6500300","中和區"
"235028","005-UY","2019/07/25 13:19:33","新北市中和區圓通路141巷48弄2號","121.498705","24.9942816666667","6500300","中和區"
"235027","006-UY","2019/07/25 13:19:31","新北市中和區中正路569號","121.486658333333","24.99434","6500300","中和區"
"235020","096-UM","2019/07/25 13:19:40","新北市中和區建八路1號","121.485571666667","24.9986233333333","6500300","中和區"
"235003","097-UM","2019/07/25 13:19:34","新北市中和區安平路59號","121.509648333333","24.9949533333333","6500300","中和區"
"235029","098-UM","2019/07/25 13:19:30","新北市中和區莊敬路49巷20弄22號","121.502738333333","25.005805","6500300","中和區"
"235004","150-BY","2019/07/25 13:19:38","新北市中和區安平路59號","121.509475","24.9950883333333","6500300","中和區"
"235022","151-BY","2019/07/25 13:19:39","新北市中和區圓通路369巷152號","121.487988333333","24.9816016666667","6500300","中和區"
"235019","183-VK","2019/07/25 13:19:46","新北市中和區莒光路220號","121.470283333333","24.9962016666667","6500300","中和區"
"235002","185-VK","2019/07/25 13:19:45","新北市中和區大智街42巷1-5號","121.52209","24.9920566666667","6500300","中和區"
"235013","186-VK","2019/07/25 13:19:34","新北市中和區中正路277-6號","121.495071666667","24.9937516666667","6500300","中和區"
"235031","255-BX","2019/07/25 13:19:32","新北市中和區員山路146巷19號","121.482525","24.9969266666667","6500300","中和區"
"235036","301-VK","2019/07/25 13:19:28","新北市中和區連城路265巷6弄1號","121.491465","24.9958966666667","6500300","中和區"
"235007","352-BY","2019/07/25 13:19:29","新北市中和區景平路381號","121.50391","24.993375","6500300","中和區"
"235006","KEA-2878","2019/07/25 13:19:44","新北市中和區景平路159巷20號","121.512546666667","24.9918833333333","6500300","中和區"
"235014","4979-A6","2019/07/25 13:19:43","新北市中和區南山路325號","121.505043333333","24.99126","6500300","中和區"
"235005","551-UM","2019/07/25 13:19:39","新北市中和區中和路302-1號","121.508763333333","24.9999383333333","6500300","中和區"
"235034","558-UM","2019/07/25 13:19:36","新北市中和區景平路580號","121.50138","24.995635","6500300","中和區"
"235009","565-BX","2019/07/25 13:19:31","新北市中和區景安路200巷5號","121.503476666667","24.9915166666667","6500300","中和區"
"235024","KED-0823","2019/07/25 13:19:31","新北市中和區員山路473號","121.48026","25.0047783333333","6500300","中和區"
"235018","640-BX","2019/07/25 13:19:32","新北市中和區民享街117巷1號","121.474611666667","24.999195","6500300","中和區"
"235011","732-UM","2019/07/25 13:19:38","新北市中和區錦和路350-1號","121.490528333333","24.9935016666667","6500300","中和區"
"235035","783-BX","2019/07/25 13:19:38","新北市中和區中板路18巷1弄7號","121.483583333333","25.0123633333333","6500300","中和區"
"235026","800-TS","2019/07/25 13:19:29","新北市中和區中山路二段312巷33弄20號","121.49495","25.0042466666667","6500300","中和區"
"235021","801-TS","2019/07/25 13:19:33","新北市中和區民安街178號","121.476708333333","25.0000366666667","6500300","中和區"
"235012","896-TW","2019/07/25 13:19:47","新北市中和區員山路36巷16-2號","121.48525","24.9915116666667","6500300","中和區"
"235017","900-TW","2019/07/25 13:19:47","新北市中和區員山路36巷16-2號","121.485238333333","24.9914516666667","6500300","中和區"
"235015","157-BY","2019/07/25 13:19:36","新北市中和區忠孝街54號","121.511361666667","24.9836016666667","6500300","中和區"
"235001","AAC-213","2019/07/25 13:19:31","新北市中和區景新街383巷54號","121.514463333333","24.9906433333333","6500300","中和區"
"235023","AAC-215","2019/07/25 13:19:34","新北市中和區員山路36巷16-3號","121.484948333333","24.9912366666667","6500300","中和區"
"220013","072-UY","2019/07/25 13:19:32","新北市板橋區華東街1-9號","121.448165","24.99492","6500100","板橋區"
"220017","AAD-861","2019/07/25 13:19:27","新北市板橋區華東街1-10號","121.448583333333","24.994895","6500100","板橋區"
"247011","056-VK","2019/07/25 13:19:34","新北市五股區中興路三段2巷10號","121.449288333333","25.081105","6501400","蘆洲區"
"228004","212-TW","2019/07/25 13:19:48","新北市貢寮區吉林里內寮街21號","121.901105","24.98324","6502600","貢寮區"
"228005","828-UM","2019/07/25 13:19:38","新北市貢寮區美豐里丹裡街42號","121.907335","25.06","6502600","貢寮區"
"253003","6232-TK","2019/07/25 13:19:48","新北市石門區石崩山20-1號","121.565611666667","25.2755016666667","6502200","石門區"
"253004","6251-TK","2019/07/25 13:19:40","新北市石門區竹子湖1號","121.61375","25.2663866666667","6502200","石門區"
"253002","637-UY","2019/07/25 13:19:18","新北市石門區大溪墘9-7號","121.552643333333","25.2749066666667","6502200","石門區"
"253001","KEC-0718","2019/07/25 13:19:45","新北市石門區楓林17-10號","121.536118333333","25.2929333333333","6502200","石門區"
"207002","749-BX","2019/07/25 13:19:33","新北市萬里區崁腳里內崁路2-3號","121.63905","25.160475","6502800","萬里區"
"252005","073-UM","2019/07/25 13:19:35","新北市三芝區八賢里八連溪87號","121.520258333333","25.2293183333333","6502100","三芝區"
"207001","662-BX","2019/07/25 13:19:44","新北市萬里區龜吼里玉田路56-1號","121.680675","25.1932666666667","6502800","萬里區"
"221029","298-VK","2019/07/25 13:19:37","新北市汐止區南陽街120巷2-1號","121.624191666667","25.06057","6501100","汐止區"
"220025","687-BX","2019/07/25 13:19:41","新北市板橋區華東街1-10號","121.448331666667","24.9949166666667","6500100","板橋區"
"220022","895-R6","2019/07/25 13:19:44","新北市板橋區華東街1-9號","121.44813","24.994945","6500100","板橋區"
"235032","KEA-2873","2019/07/25 13:19:42","新北市中和區錦和路350-1號","121.490458333333","24.9935233333333","6500300","中和區"
"235025","KEA-2875","2019/07/25 13:19:34","新北市中和區民享街97巷9號","121.475126666667","24.9993216666667","6500300","中和區"
"235010","KEA-2876","2019/07/25 13:19:37","新北市中和區中正路637巷60弄61號","121.485491666667","24.9925466666667","6500300","中和區"
