"lineid","car","time","location","longitude","latitude","cityid","cityname"
"234044","148-BY","2019/07/25 13:39:29","新北市永和區永元路107號","121.522635","25.0024566666667","6500400","永和區"
"234078","298-R6","2019/07/25 13:39:38","新北市永和區國中路104巷8弄23號","121.525491666667","25.00619","6500400","永和區"
"234036","336-UY","2019/07/25 13:39:38","新北市永和區民樂街31巷10弄2號","121.528143333333","25.000705","6500400","永和區"
"234062","337-UY","2019/07/25 13:39:40","新北市永和區秀朗路一段192巷6弄14號","121.519103333333","25.0022633333333","6500400","永和區"
"234084","338-UY","2019/07/25 13:39:45","新北市永和區永亨路165巷1-5號","121.526068333333","25.0041066666667","6500400","永和區"
"234015","745-BX","2019/07/25 13:39:41","新北市永和區忠孝街26巷27弄1號","121.515116666667","25.016915","6500400","永和區"
"234028","746-BX","2019/07/25 13:39:36","新北市永和區民權路1巷18號","121.521156666667","24.9980966666667","6500400","永和區"
"234052","KEA-2590","2019/07/25 13:39:42","新北市永和區竹林路39巷20號","121.518785","25.0147","6500400","永和區"
"234005","KED-0605","2019/07/25 13:39:37","新北市永和區中山路一段35號","121.513215","25.0104666666667","6500400","永和區"
"234012","KEA-2591","2019/07/25 13:39:41","新北市永和區永平路246號","121.508636666667","25.0111133333333","6500400","永和區"
"234060","AAD-866","2019/07/25 13:39:28","新北市永和區中正路446號","121.517501666667","25.00281","6500400","永和區"
"234068","748-BX","2019/07/25 13:39:35","新北市永和區永和路二段217號","121.515556666667","25.0140666666667","6500400","永和區"
"234040","862-TW","2019/07/25 13:39:35","新北市永和區中和路573號","121.51173","25.0034116666667","6500400","永和區"
"234048","863-TW","2019/07/25 13:39:29","新北市永和區保安路144號","121.508573333333","25.0148683333333","6500400","永和區"
"234025","9371-KE","2019/07/25 13:39:49","新北市永和區和平街86號","121.51145","25.0099166666667","6500400","永和區"
"234010","9373-KE","2019/07/25 13:39:45","新北市永和區保福路二段9巷9號","121.510495","25.0108983333333","6500400","永和區"
"248015","026-BX","2019/07/25 13:39:40","新北市五股區凌雲路一段149巷5-1號","121.448911666667","25.101685","6501500","五股區"
"248005","077-UY","2019/07/25 13:39:44","新北市五股區中興路一段71號","121.467668333333","25.0726983333333","6501500","五股區"
"248007","KED-0815","2019/07/25 13:39:36","新北市五股區中興路一段156號","121.464493333333","25.07404","6501500","五股區"
"248017","KED-0813","2019/07/25 13:39:30","新北市五股區民義路二段84號","121.406021666667","25.10911","6501500","五股區"
"248011","247-BX","2019/07/25 13:39:29","新北市五股區成泰路三段6號","121.441101666667","25.087575","6501500","五股區"
"248013","261-SL","2019/07/25 13:39:31","新北市五股區民義路一段107巷32號","121.432345","25.0844416666667","6501500","五股區"
"248009","272-BY","2019/07/25 13:39:30","新北市五股區水碓一路56號","121.431841666667","25.0735783333333","6501500","五股區"
"248003","677-BX","2019/07/25 13:39:33","新北市五股區民義路一段277號","121.425915","25.0926283333333","6501500","五股區"
"248001","678-BX","2019/07/25 13:39:37","新北市五股區西雲路240號","121.448798333333","25.09683","6501500","五股區"
"234022","9380-KE","2019/07/25 13:39:48","新北市永和區中正路706號","121.51615","25.0098716666667","6500400","永和區"
"234076","969-R7","2019/07/25 13:39:27","新北市永和區民權路30號","121.520141666667","24.99909","6500400","永和區"
"234072","AAC-211","2019/07/25 13:39:43","新北市永和區竹林路213巷5號","121.521231666667","25.0089216666667","6500400","永和區"
"234066","AAC-212","2019/07/25 13:39:36","新北市永和區中山路一段191巷9弄6號","121.50974","25.0080116666667","6500400","永和區"
"234001","AAC-295","2019/07/25 13:39:41","新北市永和區秀朗路一段6號","121.51375","25.00717","6500400","永和區"
"244003","248-BX","2019/07/25 13:39:02","新北市林口區瑞平里38號","121.353848333333","25.1181","6501700","林口區"
"243003","KEA-2216","2019/07/25 13:39:46","新北市泰山區黎明路26號","121.421161666667","25.0604183333333","6501600","泰山區"
"231030","002-UM","2019/07/25 13:39:43","新北市新店區安康路一段299號","121.522401666667","24.9636966666667","6500600","新店區"
"231024","0293-UT","2019/07/25 13:39:38","新北市新店區中華路139號","121.53851","24.9697683333333","6500600","新店區"
"231005","046-UY","2019/07/25 13:39:30","新北市新店區寶中路72號","121.547921666667","24.9805883333333","6500600","新店區"
"231029","106-UY","2019/07/25 13:39:37","新北市新店區車子路1-1號","121.504518333333","24.9578766666667","6500600","新店區"
"231018","107-UY","2019/07/25 13:39:36","新北市新店區三民路189號","121.535341666667","24.9755516666667","6500600","新店區"
"231013","108-UY","2019/07/25 13:39:39","新北市新店區中正路454-5號","121.534481666667","24.9790633333333","6500600","新店區"
"231036","110-UY","2019/07/25 13:39:40","新北市新店區安祥路147巷44號","121.476171666667","24.957055","6500600","新店區"
"231031","256-BX","2019/07/25 13:39:30","新北市新店區安康路一段138號","121.526615","24.9628616666667","6500600","新店區"
"231023","260-TV","2019/07/25 13:39:42","新北市新店區新店路137號","121.537085","24.9546216666667","6500600","新店區"
"231003","268-BY","2019/07/25 13:39:43","新北市新店區中興路一段280號","121.545498333333","24.9684833333333","6500600","新店區"
"231035","278-BY","2019/07/25 13:39:42","新北市新店區安忠路86-7號","121.511643333333","24.9583","6500600","新店區"
"231017","AAD-862","2019/07/25 13:39:35","新北市新店區竹林路2巷29弄7號","121.550413333333","24.9502616666667","6500600","新店區"
"231006","355-BY","2019/07/25 13:39:33","新北市新店區北新路一段41號","121.53797","24.9593483333333","6500600","新店區"
"231038","3712-VJ","2019/07/25 13:39:45","新北市新店區安華路30巷3號","121.519545","24.9592333333333","6500600","新店區"
"231027","3713-VJ","2019/07/25 13:39:48","新北市新店區新店後街1-1號","121.537838333333","24.9531916666667","6500600","新店區"
"231025","4715-K9","2019/07/25 13:39:37","新北市新店區安康路一段50-1號","121.529726666667","24.96133","6500600","新店區"
"231021","513-UM","2019/07/25 13:39:35","新北市新店區永興路88-1號","121.544035","24.933765","6500600","新店區"
"231002","619-UM","2019/07/25 13:39:34","新北市新店區中央三街127號","121.524135","24.9768433333333","6500600","新店區"
"231034","641-BX","2019/07/25 13:39:34","新北市新店區車子路109號","121.50525","24.9520916666667","6500600","新店區"
"231011","KED-0819","2019/07/25 13:39:31","新北市新店區德正街23巷12-1號","121.544618333333","24.972115","6500600","新店區"
"231010","719-UM","2019/07/25 13:39:41","新北市新店區中正路307巷2號","121.536471666667","24.9745266666667","6500600","新店區"
"231026","720-UM","2019/07/25 13:39:39","新北市新店區北宜路一段129號","121.540638333333","24.953275","6500600","新店區"
"231028","897-TW","2019/07/25 13:39:22","新北市新店區安和路一段39號","121.517256666667","24.9652883333333","6500600","新店區"
"231001","898-TW","2019/07/25 13:39:34","新北市新店區中央路45號","121.532881666667","24.9776366666667","6500600","新店區"
"231004","899-TW","2019/07/25 13:39:40","新北市新店區北新路二段1號","121.542636666667","24.9712066666667","6500600","新店區"
"231037","AKT-0513","2019/07/25 13:39:35","新北市新店區安康路二段317號","121.499525","24.9567566666667","6500600","新店區"
"235030","003-UY","2019/07/25 13:39:28","新北市中和區水源路34巷2號","121.504818333333","25.0035466666667","6500300","中和區"
"235028","005-UY","2019/07/25 13:39:33","新北市中和區連城路75巷2-23號","121.498023333333","24.998965","6500300","中和區"
"235027","006-UY","2019/07/25 13:39:31","新北市中和區連城路226號","121.489365","24.9964266666667","6500300","中和區"
"235020","096-UM","2019/07/25 13:39:40","新北市中和區新民街96號","121.481215","25.0084216666667","6500300","中和區"
"235003","097-UM","2019/07/25 13:39:34","新北市中和區景平路278巷14弄16號","121.515013333333","24.993175","6500300","中和區"
"235029","098-UM","2019/07/25 13:39:30","新北市中和區莊敬路33巷48號","121.500521666667","25.00708","6500300","中和區"
"235004","150-BY","2019/07/25 13:39:38","新北市中和區安平路59號","121.50964","24.9951833333333","6500300","中和區"
"235022","151-BY","2019/07/25 13:39:39","新北市中和區員山路143巷24號","121.480011666667","24.995865","6500300","中和區"
"235019","183-VK","2019/07/25 13:39:46","新北市中和區民德路25巷11號","121.46993","25.0031583333333","6500300","中和區"
"235002","185-VK","2019/07/25 13:39:33","新北市中和區大勇街60巷8號","121.518691666667","24.994725","6500300","中和區"
"235013","186-VK","2019/07/25 13:39:34","新北市中和區景安路100號","121.505516666667","24.9955766666667","6500300","中和區"
"235031","255-BX","2019/07/25 13:39:31","新北市中和區新生街220巷1弄8號","121.4833","24.9980783333333","6500300","中和區"
"235008","293-VK","2019/07/25 13:39:34","新北市中和區復興路280巷1弄2號","121.502243333333","24.9907216666667","6500300","中和區"
"235036","301-VK","2019/07/25 13:39:28","新北市中和區連城路145號","121.495705","24.99872","6500300","中和區"
"235007","352-BY","2019/07/25 13:39:29","新北市中和區景平路111巷2號","121.516686666667","24.9918383333333","6500300","中和區"
"235006","KEA-2878","2019/07/25 13:39:44","新北市中和區成功路107巷2號","121.526173333333","24.9911816666667","6500300","中和區"
"247013","KEA-2869","2019/07/25 13:39:45","新北市五股區成洲一路25號","121.4496","25.0947533333333","6501400","蘆洲區"
"235014","4979-A6","2019/07/25 13:39:43","新北市中和區忠孝街122-2號","121.512271666667","24.9859633333333","6500300","中和區"
"235033","4980-A6","2019/07/25 13:39:27","新北市中和區連城路89巷1號","121.496651666667","25.0000733333333","6500300","中和區"
"235005","551-UM","2019/07/25 13:39:39","新北市永和區中和路517號","121.511061666667","25.0026233333333","6500300","中和區"
"235034","558-UM","2019/07/25 13:39:36","新北市中和區圓通路12號","121.501626666667","24.9980683333333","6500300","中和區"
"235009","565-BX","2019/07/25 13:39:31","新北市中和區南山路236巷63弄1號","121.50372","24.9876083333333","6500300","中和區"
"235024","KED-0823","2019/07/25 13:39:31","新北市中和區中山路三段152號","121.47348","25.0063316666667","6500300","中和區"
"235018","640-BX","2019/07/25 13:39:32","新北市中和區民享街68巷4號","121.473863333333","25.001905","6500300","中和區"
"235011","732-UM","2019/07/25 13:39:38","新北市中和區興南路二段3巷1號","121.50806","24.9864316666667","6500300","中和區"
"235035","783-BX","2019/07/25 13:39:38","新北市中和區永和路356巷51號","121.487211666667","25.0142533333333","6500300","中和區"
"235026","800-TS","2019/07/25 13:39:29","新北市中和區中山路二段312巷19號","121.495541666667","25.003595","6500300","中和區"
"235021","801-TS","2019/07/25 13:39:33","新北市中和區民安街23號","121.480378333333","25.0005533333333","6500300","中和區"
"235016","805-TS","2019/07/25 13:39:47","新北市中和區興南路三段52巷6-2號","121.49371","24.9762","6500300","中和區"
"235012","896-TW","2019/07/25 13:39:46","新北市中和區中正路79號","121.500803333333","24.993465","6500300","中和區"
"235017","900-TW","2019/07/25 13:39:47","新北市中和區華福街66號","121.467","24.9965283333333","6500300","中和區"
"235015","157-BY","2019/07/25 13:39:36","新北市中和區華新街143巷106弄26號","121.506076666667","24.9788566666667","6500300","中和區"
"235001","AAC-213","2019/07/25 13:39:37","新北市中和區秀朗路三段128巷3號","121.524473333333","24.9926533333333","6500300","中和區"
"235023","AAC-215","2019/07/25 13:39:34","新北市中和區錦和路354巷3號","121.490371666667","24.9914683333333","6500300","中和區"
"220013","072-UY","2019/07/25 13:39:32","新北市板橋區成都街103號","121.463546666667","25.0053616666667","6500100","板橋區"
"220017","AAD-861","2019/07/25 13:39:27","新北市板橋區大華街9號","121.45899","25.0062283333333","6500100","板橋區"
"247011","056-VK","2019/07/25 13:39:34","新北市五股區中興路三段163號","121.44916","25.08097","6501400","蘆洲區"
"247015","053-VK","2019/07/25 13:39:31","新北市五股區新五路三段181號","121.44875","25.0921066666667","6501400","蘆洲區"
"247005","002-UY","2019/07/25 13:39:34","新北市五股區新五路二段258號","121.440526666667","25.08222","6501400","蘆洲區"
"228004","212-TW","2019/07/25 13:39:28","新北市貢寮區龍崗里石壁坑街30-3號","121.907458333333","25.0048366666667","6502600","貢寮區"
"228005","828-UM","2019/07/25 13:39:38","新北市貢寮區美豐里文秀坑5-1號","121.902696666667","25.05053","6502600","貢寮區"
"253003","6232-TK","2019/07/25 13:39:48","新北市石門區內石門21-1號","121.571543333333","25.2735833333333","6502200","石門區"
"253004","6251-TK","2019/07/25 13:39:00","新北市石門區五爪崙9號","121.605991666667","25.262415","6502200","石門區"
"253002","637-UY","2019/07/25 13:39:38","新北市石門區九芎林35-1號","121.567856666667","25.2557916666667","6502200","石門區"
"253001","KEC-0718","2019/07/25 13:37:45","新北市石門區白沙灣別墅31號","121.510813333333","25.277855","6502200","石門區"
"207002","749-BX","2019/07/25 13:39:33","新北市萬里區崁腳里崁腳路166號","121.64513","25.1558666666667","6502800","萬里區"
"252005","073-UM","2019/07/25 13:39:35","新北市三芝區圓山里內柑宅19號","121.537678333333","25.21621","6502100","三芝區"
"207001","662-BX","2019/07/25 13:39:39","新北市萬里區大鵬里萬里加投35-1號","121.645815","25.21123","6502800","萬里區"
"236040","KED-0685","2019/07/25 13:39:43","新北市土城區城林路6巷80號","121.438485","24.9797066666667","6501300","土城區"
"236074","166-UM","2019/07/25 13:39:48","新北市土城區城林路6巷80號","121.438235","24.9793216666667","6501300","土城區"
"236029","253-BX","2019/07/25 13:39:48","新北市土城區永寧路57-1號","121.429098333333","24.9600883333333","6501300","土城區"
"236012","270-VK","2019/07/25 13:39:40","新北市土城區城林路6巷80號","121.438496666667","24.9797933333333","6501300","土城區"
"236032","271-VK","2019/07/25 13:39:46","新北市土城區城林路6巷80號","121.438416666667","24.97977","6501300","土城區"
"236068","KEA-2877","2019/07/25 13:39:45","新北市土城區城林路6巷80號","121.43871","24.97975","6501300","土城區"
"236060","915-UM","2019/07/25 13:39:29","新北市土城區中華路二段2號","121.438883333333","24.979705","6501300","土城區"
"221029","298-VK","2019/07/25 13:39:37","新北市汐止區福德二路359巷1號","121.624156666667","25.0637166666667","6501100","汐止區"
"220027","145-BY","2019/07/25 13:39:41","新北市板橋區大觀路二段107號","121.44625","25.0016066666667","6500100","板橋區"
"220028","200-UY","2019/07/25 13:39:35","新北市板橋區華東街1-8號","121.447718333333","24.9948716666667","6500100","板橋區"
"220030","610-BX","2019/07/25 13:39:41","新北市板橋區大觀路三段59巷17弄6-1號","121.437686666667","24.9953383333333","6500100","板橋區"
"220004","276-BY","2019/07/25 13:39:43","新北市板橋區館前西路4-1號","121.459295","25.00713","6500100","板橋區"
"220020","277-BY","2019/07/25 13:39:28","新北市板橋區華東街1-10號","121.448361666667","24.99506","6500100","板橋區"
"220019","283-VK","2019/07/25 13:39:36","新北市板橋區四川路二段140巷14號","121.449425","24.9933216666667","6500100","板橋區"
"220043","285-UM","2019/07/25 13:39:31","新北市板橋區民生路二段161巷3號","121.470075","25.0197716666667","6500100","板橋區"
"220031","286-VK","2019/07/25 13:39:39","新北市板橋區大觀路二段11-12號","121.448341666667","24.9968283333333","6500100","板橋區"
"220039","288-VK","2019/07/25 13:39:36","新北市板橋區民生路二段161巷9號","121.470205","25.019645","6500100","板橋區"
"220032","296-UM","2019/07/25 13:39:39","新北市板橋區大觀路二段146-6號","121.441761666667","24.99892","6500100","板橋區"
"220023","303-R5","2019/07/25 13:39:38","新北市板橋區南雅南路二段144巷60號","121.450243333333","24.9974416666667","6500100","板橋區"
"220041","307-R5","2019/07/25 13:39:33","新北市板橋區民生路二段89-4號","121.471456666667","25.0181383333333","6500100","板橋區"
"220038","487-VK","2019/07/25 13:39:33","新北市板橋區民生路二段161巷1號","121.470101666667","25.0201683333333","6500100","板橋區"
"220037","491-VK","2019/07/25 13:39:39","新北市板橋區民生路二段188號","121.470145","25.02021","6500100","板橋區"
"220104","560-BX","2019/07/25 13:39:35","新北市板橋區南雅西路二段145巷10號","121.451563333333","25.01192","6500100","板橋區"
"220052","561-BX","2019/07/25 13:39:35","新北市板橋區民生路二段120號","121.470616666667","25.0194533333333","6500100","板橋區"
"220011","609-BX","2019/07/25 13:39:47","新北市板橋區民生路二段188號","121.470028333333","25.0205916666667","6500100","板橋區"
"220005","686-BX","2019/07/25 13:39:43","新北市板橋區館前東路15號","121.460046666667","25.0072733333333","6500100","板橋區"
"220025","687-BX","2019/07/25 13:39:40","新北市板橋區大觀路三段212巷72號","121.42981","24.9934083333333","6500100","板橋區"
"220042","689-BX","2019/07/25 13:39:44","新北市板橋區民生路二段161巷1號","121.469886666667","25.01998","6500100","板橋區"
"220051","KEA-2699","2019/07/25 13:39:32","新北市板橋區民生路二段161巷1號","121.470253333333","25.01994","6500100","板橋區"
"220003","827-TW","2019/07/25 13:39:42","新北市板橋區忠孝路21號","121.460413333333","25.0019383333333","6500100","板橋區"
"220014","829-TW","2019/07/25 13:39:31","新北市板橋區民生路二段161巷3號","121.46982","25.01963","6500100","板橋區"
"220022","895-R6","2019/07/25 13:39:44","新北市板橋區南雅東路1號","121.4556","25.0056483333333","6500100","板橋區"
"220021","985-R7","2019/07/25 13:39:35","新北市板橋區四川路一段102號","121.459526666667","25.0047066666667","6500100","板橋區"
"220046","AAC-210","2019/07/25 13:39:37","新北市板橋區民生路二段161巷9號","121.470206666667","25.0196083333333","6500100","板橋區"
"220012","AAC-253","2019/07/25 13:39:41","新北市板橋區縣民大道二段200巷35號","121.470831666667","25.0181783333333","6500100","板橋區"
"235032","KEA-2873","2019/07/25 13:39:42","新北市中和區圓通路230號","121.495061666667","24.9928633333333","6500300","中和區"
"235025","KEA-2875","2019/07/25 13:39:34","新北市中和區民享街40-3號","121.47394","25.0027666666667","6500300","中和區"
"235010","KEA-2876","2019/07/25 13:39:36","新北市中和區忠孝街101巷1號","121.511816666667","24.98611","6500300","中和區"
