"lineid","car","time","location","longitude","latitude","cityid","cityname"
"234044","148-BY","2019/07/25 13:49:49","新北市永和區永利路147號","121.524385","25.0035616666667","6500400","永和區"
"234078","298-R6","2019/07/25 13:49:38","新北市永和區永亨路98號","121.522923333333","25.0047766666667","6500400","永和區"
"234036","336-UY","2019/07/25 13:49:38","新北市永和區民樂街39巷18弄48號","121.528211666667","24.998915","6500400","永和區"
"234062","337-UY","2019/07/25 13:49:49","新北市永和區中正路368巷12號","121.518235","25.0008233333333","6500400","永和區"
"234084","338-UY","2019/07/25 13:49:26","新北市永和區林森路65號","121.5241","25.0040733333333","6500400","永和區"
"234015","745-BX","2019/07/25 13:49:35","新北市永和區文化路53號","121.514295","25.0150816666667","6500400","永和區"
"234028","746-BX","2019/07/25 13:49:37","新北市永和區民生路47巷15號","121.523595","24.9978","6500400","永和區"
"234052","KEA-2590","2019/07/25 13:49:42","新北市永和區竹林路75巷25弄8號","121.520155","25.0144483333333","6500400","永和區"
"234005","KED-0605","2019/07/25 13:49:37","新北市永和區永和路一段9-4號","121.512695","25.0054366666667","6500400","永和區"
"234012","KEA-2591","2019/07/25 13:49:41","新北市永和區仁愛路245號","121.508778333333","25.0118983333333","6500400","永和區"
"234060","AAD-866","2019/07/25 13:49:47","新北市永和區中正路69號","121.51483","24.99678","6500400","永和區"
"234068","748-BX","2019/07/25 13:49:35","新北市永和區竹林路81號","121.51949","25.0125883333333","6500400","永和區"
"234040","862-TW","2019/07/25 13:49:35","新北市永和區中和路389巷25號","121.508095","25.00132","6500400","永和區"
"234048","863-TW","2019/07/25 13:49:29","新北市永和區保安路214號","121.507478333333","25.01365","6500400","永和區"
"248015","026-BX","2019/07/25 13:49:40","新北市五股區成泰路三段543巷60號","121.449556666667","25.10321","6501500","五股區"
"248007","KED-0815","2019/07/25 13:49:36","新北市五股區中興路一段151巷48號","121.465146666667","25.072415","6501500","五股區"
"248017","KED-0813","2019/07/25 13:49:30","新北市五股區民義路二段22巷30-1號","121.4239","25.0992716666667","6501500","五股區"
"248011","247-BX","2019/07/25 13:49:29","新北市五股區成泰路二段195巷1號","121.440445","25.087385","6501500","五股區"
"248013","261-SL","2019/07/25 13:49:31","新北市五股區民義路一段107巷32號","121.432621666667","25.0847183333333","6501500","五股區"
"248009","272-BY","2019/07/25 13:49:44","新北市五股區水碓九路17號","121.428111666667","25.0718633333333","6501500","五股區"
"248003","677-BX","2019/07/25 13:49:33","新北市五股區民義路二段50-5號","121.410836666667","25.104125","6501500","五股區"
"248001","678-BX","2019/07/25 13:49:37","新北市五股區成泰路三段454號","121.451391666667","25.1003316666667","6501500","五股區"
"234022","9380-KE","2019/07/25 13:49:48","新北市永和區復興街12號","121.515778333333","25.012795","6500400","永和區"
"234076","969-R7","2019/07/25 13:49:47","新北市永和區民族街37巷1弄2號","121.518908333333","24.999145","6500400","永和區"
"234072","AAC-211","2019/07/25 13:49:43","新北市永和區豫溪街215巷26號","121.523808333333","25.0101883333333","6500400","永和區"
"234066","AAC-212","2019/07/25 13:49:36","新北市永和區保平路236巷28號","121.507963333333","25.007035","6500400","永和區"
"234001","AAC-295","2019/07/25 13:49:41","新北市永和區永和路一段112-1號","121.513533333333","25.007275","6500400","永和區"
"244003","248-BX","2019/07/25 13:49:41","新北市林口區瑞平里33-1號","121.348576666667","25.12856","6501700","林口區"
"243002","297-R6","2019/07/25 13:49:38","新北市泰山區公園路54號","121.42807","25.0547866666667","6501600","泰山區"
"243006","KEA-2801","2019/07/25 13:49:48","新北市泰山區黎明路31-1號","121.421315","25.0601716666667","6501600","泰山區"
"243008","421-VK","2019/07/25 13:49:45","新北市泰山區明志路二段152-2號","121.427483333333","25.0506","6501600","泰山區"
"243001","KEA-2215","2019/07/25 13:49:44","新北市泰山區泰林路二段280巷1號","121.431496666667","25.0624316666667","6501600","泰山區"
"243003","KEA-2216","2019/07/25 13:49:27","新北市泰山區明志路二段214巷16弄4號","121.4269","25.0492183333333","6501600","泰山區"
"243007","680-BX","2019/07/25 13:49:36","新北市泰山區美寧街50號","121.430436666667","25.0644433333333","6501600","泰山區"
"231030","002-UM","2019/07/25 13:49:42","新北市新店區安康路一段82號","121.528136666667","24.9618616666667","6500600","新店區"
"231024","0293-UT","2019/07/25 13:49:38","新北市新店區北新路一段271巷45號","121.539551666667","24.967305","6500600","新店區"
"231005","046-UY","2019/07/25 13:49:30","新北市新店區寶中路135號","121.549756666667","24.979315","6500600","新店區"
"231029","106-UY","2019/07/25 13:49:37","新北市新店區安康路二段125-1號","121.512358333333","24.960945","6500600","新店區"
"231018","107-UY","2019/07/25 13:49:32","新北市新店區中正路382巷25號","121.535481666667","24.9783316666667","6500600","新店區"
"231013","108-UY","2019/07/25 13:49:39","新北市新店區二十張路25巷20號","121.539263333333","24.9819533333333","6500600","新店區"
"231036","110-UY","2019/07/25 13:49:37","新北市新店區安祥路140號","121.474308333333","24.9559083333333","6500600","新店區"
"231031","256-BX","2019/07/25 13:49:30","新北市新店區莒光路44巷21弄11-3號","121.518575","24.9521166666667","6500600","新店區"
"231023","260-TV","2019/07/25 13:49:42","新北市新店區國校路45-1號","121.538033333333","24.95501","6500600","新店區"
"231003","268-BY","2019/07/25 13:49:43","新北市新店區中興路一段159號","121.542445","24.9640516666667","6500600","新店區"
"231035","278-BY","2019/07/25 13:49:35","新北市新店區安忠路57巷7弄4號","121.513511666667","24.95859","6500600","新店區"
"231017","AAD-862","2019/07/25 13:49:40","新北市新店區竹林路25巷10號","121.552491666667","24.951405","6500600","新店區"
"231006","355-BY","2019/07/25 13:49:33","新北市新店區北宜路一段123號","121.540556666667","24.9536383333333","6500600","新店區"
"231038","3712-VJ","2019/07/25 13:49:45","新北市新店區安華路30巷3號","121.519565","24.9592116666667","6500600","新店區"
"231027","3713-VJ","2019/07/25 13:49:28","新北市新店區北宜路一段109巷7弄5號","121.539926666667","24.9552333333333","6500600","新店區"
"231021","513-UM","2019/07/25 13:49:35","新北市新店區新烏路一段171號","121.545248333333","24.9342966666667","6500600","新店區"
"231002","619-UM","2019/07/25 13:49:14","新北市新店區溪園路393號","121.524271666667","24.9790533333333","6500600","新店區"
"231034","641-BX","2019/07/25 13:49:34","新北市新店區達觀路18-1號","121.502835","24.94148","6500600","新店區"
"231011","KED-0819","2019/07/25 13:49:31","新北市新店區德正街27巷29弄131號","121.545695","24.9731416666667","6500600","新店區"
"231010","719-UM","2019/07/25 13:49:42","新北市新店區平等街48巷1號","121.535715","24.9730583333333","6500600","新店區"
"231026","720-UM","2019/07/25 13:49:39","新北市新店區中正路331-1號","121.536018333333","24.975205","6500600","新店區"
"231028","897-TW","2019/07/25 13:49:42","新北市新店區安和路二段218-1號","121.518008333333","24.97521","6500600","新店區"
"231001","898-TW","2019/07/25 13:49:34","新北市新店區三民路155-1號","121.533821666667","24.9733883333333","6500600","新店區"
"231004","899-TW","2019/07/25 13:49:40","新北市新店區寶橋路88號","121.546751666667","24.975885","6500600","新店區"
"231037","AKT-0513","2019/07/25 13:49:34","新北市新店區安康路三段359巷12弄5-1號","121.484083333333","24.949375","6500600","新店區"
"235030","003-UY","2019/07/25 13:49:28","新北市中和區水源路18巷4弄11號","121.503893333333","25.00293","6500300","中和區"
"235028","005-UY","2019/07/25 13:49:33","新北市中和區泰和街44巷11號","121.498581666667","25.0005016666667","6500300","中和區"
"235027","006-UY","2019/07/25 13:49:31","新北市中和區錦和路117號","121.490533333333","24.9943766666667","6500300","中和區"
"235020","096-UM","2019/07/25 13:49:40","新北市中和區中正路1196號","121.480453333333","25.0104083333333","6500300","中和區"
"235003","097-UM","2019/07/25 13:49:34","新北市中和區自強路35號","121.520923333333","24.9925233333333","6500300","中和區"
"235029","098-UM","2019/07/25 13:49:30","新北市中和區勝利路35巷3弄15號","121.499663333333","25.0073233333333","6500300","中和區"
"235004","150-BY","2019/07/25 13:49:38","新北市中和區保健路48巷1號","121.510096666667","24.9970266666667","6500300","中和區"
"235022","151-BY","2019/07/25 13:49:39","新北市中和區連城路534巷10號","121.475185","24.9921566666667","6500300","中和區"
"235019","183-VK","2019/07/25 13:49:46","新北市中和區中山路三段229巷43號","121.469416666667","25.0057016666667","6500300","中和區"
"235002","185-VK","2019/07/25 13:49:33","新北市中和區大勇街31巷13弄13號","121.517426666667","24.9940716666667","6500300","中和區"
"235013","186-VK","2019/07/25 13:49:34","新北市中和區景安路177巷29號","121.506711666667","24.994605","6500300","中和區"
"235031","255-BX","2019/07/25 13:49:32","新北市中和區新生街166巷19號","121.482778333333","25.0001433333333","6500300","中和區"
"235008","293-VK","2019/07/25 13:49:35","新北市中和區中興街166號","121.49987","24.9915116666667","6500300","中和區"
"235036","301-VK","2019/07/25 13:49:28","新北市中和區中山路二段146-1號","121.50172","25.0029083333333","6500300","中和區"
"235007","352-BY","2019/07/25 13:49:29","新北市中和區成功路50號","121.526025","24.9927066666667","6500300","中和區"
"235006","KEA-2878","2019/07/25 13:49:44","新北市中和區秀朗路三段153巷4號","121.525488333333","24.991545","6500300","中和區"
"247013","KEA-2869","2019/07/25 13:49:45","新北市蘆洲區三民路165號","121.471421666667","25.0870566666667","6501400","蘆洲區"
"247007","KED-0682","2019/07/25 13:49:43","新北市蘆洲區重陽二街27號","121.482153333333","25.08497","6501400","蘆洲區"
"235014","4979-A6","2019/07/25 13:49:43","新北市中和區忠孝街62巷9弄10號","121.513186666667","24.9840033333333","6500300","中和區"
"235033","4980-A6","2019/07/25 13:49:47","新北市中和區南山路87號","121.502031666667","24.9979016666667","6500300","中和區"
"235005","551-UM","2019/07/25 13:49:39","新北市永和區安樂路250-2號","121.514616666667","25.0037716666667","6500300","中和區"
"235034","558-UM","2019/07/25 13:49:36","新北市中和區中和路281-1號","121.506033333333","24.99974","6500300","中和區"
"235009","565-BX","2019/07/25 13:49:31","新北市中和區興南路一段80號","121.510361666667","24.989935","6500300","中和區"
"235024","KED-0823","2019/07/25 13:49:31","新北市中和區民享街91-12號","121.474683333333","25.0007133333333","6500300","中和區"
"235018","640-BX","2019/07/25 13:49:32","新北市中和區民享街6號","121.474016666667","25.0048516666667","6500300","中和區"
"235011","732-UM","2019/07/25 13:49:38","新北市中和區興南路二段34巷42號","121.504766666667","24.985915","6500300","中和區"
"235035","783-BX","2019/07/25 13:49:38","新北市中和區立德街7巷2號","121.490153333333","25.0060866666667","6500300","中和區"
"235026","800-TS","2019/07/25 13:49:29","新北市中和區中山路二段340巷63號","121.492863333333","25.0048566666667","6500300","中和區"
"235021","801-TS","2019/07/25 13:49:38","新北市中和區民利街40巷3弄11號","121.478933333333","24.9991166666667","6500300","中和區"
"235016","805-TS","2019/07/25 13:49:47","新北市中和區興南路二段399巷66號","121.499785","24.978745","6500300","中和區"
"235012","896-TW","2019/07/25 13:49:46","新北市中和區南山路389號","121.5065","24.9903583333333","6500300","中和區"
"235017","900-TW","2019/07/25 13:49:47","新北市中和區民德路290巷2號","121.46736","24.9957733333333","6500300","中和區"
"235015","157-BY","2019/07/25 13:49:36","新北市中和區忠孝街106巷45號","121.51379","24.9843616666667","6500300","中和區"
"235001","AAC-213","2019/07/25 13:49:31","新北市中和區秀朗路三段10巷14弄41-5號","121.524135","24.996355","6500300","中和區"
"235023","AAC-215","2019/07/25 13:49:34","新北市中和區圓通路393巷5號","121.489716666667","24.9887216666667","6500300","中和區"
"220016","015-TV","2019/07/25 13:49:45","新北市板橋區大同街21巷22號","121.47713","25.027825","6500100","板橋區"
"220013","072-UY","2019/07/25 13:49:32","新北市板橋區館前東路98號","121.462365","25.0076183333333","6500100","板橋區"
"220105","075-UY","2019/07/25 13:49:36","新北市板橋區莒光路42號","121.470443333333","25.0243266666667","6500100","板橋區"
"220017","AAD-861","2019/07/25 13:49:47","新北市板橋區華興街91巷4號","121.456648333333","25.0052616666667","6500100","板橋區"
"247003","893-R6","2019/07/25 13:49:32","新北市蘆洲區中原路5巷2號","121.461245","25.0833433333333","6501400","蘆洲區"
"247011","056-VK","2019/07/25 13:49:34","新北市蘆洲區中正路520巷9號","121.462695","25.09973","6501400","蘆洲區"
"247015","053-VK","2019/07/25 13:49:31","新北市蘆洲區中正路128號","121.46936","25.08483","6501400","蘆洲區"
"247005","002-UY","2019/07/25 13:49:34","新北市蘆洲區中山二路256號","121.469276666667","25.078955","6501400","蘆洲區"
"228004","212-TW","2019/07/25 13:49:48","新北市貢寮區龍崗里嵩陽街12-1號","121.903556666667","25.01222","6502600","貢寮區"
"228005","828-UM","2019/07/25 13:49:38","新北市雙溪區三港里雙澳路100號","121.889091666667","25.05679","6502600","貢寮區"
"253003","6232-TK","2019/07/25 13:49:28","新北市石門區中央路16-19號","121.56853","25.290045","6502200","石門區"
"253004","6251-TK","2019/07/25 13:49:40","新北市石門區阿里荖60-1號","121.603953333333","25.2696733333333","6502200","石門區"
"253002","637-UY","2019/07/25 13:49:38","新北市石門區尖山湖1-1號","121.567058333333","25.245675","6502200","石門區"
"253001","KEC-0718","2019/07/25 13:49:45","新北市石門區八甲56號","121.52524","25.2726666666667","6502200","石門區"
"207002","749-BX","2019/07/25 13:49:33","新北市萬里區崁腳里崁腳路166號","121.645123333333","25.1558816666667","6502800","萬里區"
"252005","073-UM","2019/07/25 13:49:35","新北市三芝區圓山里內柑宅25-2號","121.53753","25.2265866666667","6502100","三芝區"
"207001","662-BX","2019/07/25 13:49:39","新北市萬里區磺潭里公館崙42號","121.630598333333","25.2080433333333","6502800","萬里區"
"236040","KED-0685","2019/07/25 13:49:43","新北市土城區城林路6巷80號","121.438468333333","24.979705","6501300","土城區"
"236074","166-UM","2019/07/25 13:49:29","新北市土城區中央路三段119號","121.434031666667","24.9657133333333","6501300","土城區"
"236029","253-BX","2019/07/25 13:49:28","新北市土城區永寧路36-1號","121.428495","24.9590833333333","6501300","土城區"
"236012","270-VK","2019/07/25 13:49:40","新北市土城區城林路6巷80號","121.43854","24.9797783333333","6501300","土城區"
"236032","271-VK","2019/07/25 13:49:46","新北市土城區城林路6巷80號","121.438415","24.9797616666667","6501300","土城區"
"247009","KED-0683","2019/07/25 13:49:36","新北市蘆洲區中正路520巷9號","121.463046666667","25.0998166666667","6501400","蘆洲區"
"236068","KEA-2877","2019/07/25 13:49:45","新北市土城區城林路6巷80號","121.438125","24.9795583333333","6501300","土城區"
"236017","401-BY","2019/07/25 13:49:39","新北市土城區城林路6巷80號","121.438463333333","24.9797633333333","6501300","土城區"
"236057","912-UM","2019/07/25 13:49:34","新北市土城區中央路三段134號","121.433711666667","24.9656233333333","6501300","土城區"
"236045","913-UM","2019/07/25 13:49:34","新北市土城區城林路6巷80號","121.43846","24.9797816666667","6501300","土城區"
"236060","915-UM","2019/07/25 13:49:49","新北市土城區中華路二段2號","121.438866666667","24.9797033333333","6501300","土城區"
"236054","AAC-216","2019/07/25 13:49:28","新北市土城區城林路6巷80號","121.438513333333","24.979715","6501300","土城區"
"221029","298-VK","2019/07/25 13:49:17","新北市汐止區福德二路75號","121.633631666667","25.065835","6501100","汐止區"
"220027","145-BY","2019/07/25 13:49:41","新北市板橋區南雅西路二段192巷1弄15號","121.452228333333","25.014885","6500100","板橋區"
"220028","200-UY","2019/07/25 13:49:35","新北市板橋區大觀路二段265巷64-6號","121.442136666667","24.997385","6500100","板橋區"
"220030","610-BX","2019/07/25 13:49:41","新北市板橋區篤行路三段21號","121.428933333333","24.9872333333333","6500100","板橋區"
"220004","276-BY","2019/07/25 13:49:43","新北市板橋區四川路一段325巷6號","121.458828333333","25.0004883333333","6500100","板橋區"
"220020","277-BY","2019/07/25 13:49:48","新北市板橋區金門街31巷15號","121.434131666667","24.9939816666667","6500100","板橋區"
"220050","280-UM","2019/07/25 13:49:29","新北市板橋區莊敬路62號","121.472718333333","25.0265166666667","6500100","板橋區"
"220019","283-VK","2019/07/25 13:49:36","新北市板橋區四川路一段108號","121.459761666667","25.0045383333333","6500100","板橋區"
"220043","285-UM","2019/07/25 13:49:31","新北市板橋區文化路二段76號","121.469301666667","25.0250933333333","6500100","板橋區"
"220001","285-VK","2019/07/25 13:49:39","新北市板橋區成功路39號","121.474921666667","25.017695","6500100","板橋區"
"220031","286-VK","2019/07/25 13:49:39","新北市板橋區大觀路二段22巷38-2號","121.444701666667","25.0037383333333","6500100","板橋區"
"220029","287-VK","2019/07/25 13:49:45","新北市板橋區光華街12巷1號","121.454195","25.0116433333333","6500100","板橋區"
"220039","288-VK","2019/07/25 13:49:40","新北市板橋區四維路177巷4弄12號","121.463575","25.0263866666667","6500100","板橋區"
"220009","295-UM","2019/07/25 13:49:44","新北市板橋區富山街109巷63弄29號","121.475318333333","25.0205916666667","6500100","板橋區"
"220032","296-UM","2019/07/25 13:49:39","新北市板橋區大觀路二段152號","121.441663333333","24.99869","6500100","板橋區"
"220023","303-R5","2019/07/25 13:49:48","新北市板橋區大觀路一段23號","121.450215","25.0083916666667","6500100","板橋區"
"220010","305-R5","2019/07/25 13:49:44","新北市板橋區中山路二段27號","121.472665","25.015205","6500100","板橋區"
"220041","307-R5","2019/07/25 13:49:34","新北市板橋區文化路一段104巷1弄24號","121.465488333333","25.0180516666667","6500100","板橋區"
"220038","487-VK","2019/07/25 13:49:33","新北市板橋區文化路二段417巷8號","121.474183333333","25.0331266666667","6500100","板橋區"
"220037","491-VK","2019/07/25 13:49:39","新北市板橋區文化路二段16-2號","121.468855","25.0242483333333","6500100","板橋區"
"220104","560-BX","2019/07/25 13:49:35","新北市板橋區中正路275巷77號","121.452335","25.0181016666667","6500100","板橋區"
"220052","561-BX","2019/07/25 13:49:35","新北市板橋區文化路一段188巷11弄16號","121.468976666667","25.0186633333333","6500100","板橋區"
"220011","609-BX","2019/07/25 13:49:40","新北市板橋區中山路二段60巷4號","121.474023333333","25.0152983333333","6500100","板橋區"
"220040","637-BX","2019/07/25 13:49:43","新北市板橋區雙十路二段47巷38號","121.475231666667","25.0256083333333","6500100","板橋區"
"220005","686-BX","2019/07/25 13:49:38","新北市板橋區重慶路204號","121.462658333333","25.0026083333333","6500100","板橋區"
"220025","687-BX","2019/07/25 13:49:41","新北市板橋區金門街81號","121.433236666667","24.9925933333333","6500100","板橋區"
"220042","689-BX","2019/07/25 13:49:44","新北市板橋區民生路三段252號","121.464195","25.031045","6500100","板橋區"
"220002","741-BX","2019/07/25 13:47:01","","121.459573333333","25.0072666666667","6500100","板橋區"
"220051","KEA-2699","2019/07/25 13:49:32","新北市板橋區田單街2巷30號","121.481518333333","25.0277266666667","6500100","板橋區"
"220003","827-TW","2019/07/25 13:49:42","新北市板橋區忠孝路136號","121.463593333333","25.0023883333333","6500100","板橋區"
"220014","829-TW","2019/07/25 13:49:31","新北市板橋區中山路二段50-6號","121.47346","25.0152183333333","6500100","板橋區"
"220047","831-TW","2019/07/25 13:49:34","新北市板橋區民生路二段240巷53號","121.469841666667","25.0231216666667","6500100","板橋區"
"220022","895-R6","2019/07/25 13:49:45","新北市板橋區府中路63號","121.458196666667","25.0092416666667","6500100","板橋區"
"220021","985-R7","2019/07/25 13:49:35","新北市板橋區府中路67號","121.458128333333","25.0093566666667","6500100","板橋區"
"220046","AAC-210","2019/07/25 13:49:37","新北市板橋區陽明街162號","121.463401666667","25.0244383333333","6500100","板橋區"
"220012","AAC-253","2019/07/25 13:49:41","新北市板橋區漢生東路117號","121.467395","25.014955","6500100","板橋區"
"235032","KEA-2873","2019/07/25 13:49:42","新北市中和區安邦街132號","121.497305","24.9957","6500300","中和區"
"235025","KEA-2875","2019/07/25 13:49:34","新北市中和區民有街82號","121.476053333333","25.0041183333333","6500300","中和區"
"235010","KEA-2876","2019/07/25 13:49:36","新北市中和區興南路一段93巷5號","121.50992","24.9884066666667","6500300","中和區"
