"lineid","car","time","location","longitude","latitude","cityid","cityname"
"234044","148-BY","2019/07/25 13:59:33","新北市永和區成功路一段26號","121.526946666667","25.0048133333333","6500400","永和區"
"234078","298-R6","2019/07/25 13:59:48","新北市永和區林森路112巷9弄3號","121.522053333333","25.0041766666667","6500400","永和區"
"234036","336-UY","2019/07/25 13:59:38","新北市永和區成功路二段122號","121.526498333333","24.9977083333333","6500400","永和區"
"234062","337-UY","2019/07/25 13:59:49","新北市永和區中正路412巷20弄10號","121.51863","25.0015966666667","6500400","永和區"
"234084","338-UY","2019/07/25 13:59:45","新北市永和區福和路259號","121.517921666667","25.0073983333333","6500400","永和區"
"234015","745-BX","2019/07/25 13:59:35","新北市永和區文化路78號","121.514096666667","25.0151516666667","6500400","永和區"
"234028","746-BX","2019/07/25 13:59:36","新北市永和區民生路67巷33號","121.524526666667","24.9973716666667","6500400","永和區"
"234052","KEA-2590","2019/07/25 13:59:42","新北市永和區竹林路39巷46號","121.52028","25.0152516666667","6500400","永和區"
"234005","KED-0605","2019/07/25 13:59:37","新北市中和區中和路388號","121.510858333333","25.0023033333333","6500400","永和區"
"234012","KEA-2591","2019/07/25 13:59:41","新北市永和區保生路55號","121.504731666667","25.0106116666667","6500400","永和區"
"234060","AAD-866","2019/07/25 13:59:48","新北市永和區中正路283巷53弄2號","121.515911666667","24.99926","6500400","永和區"
"234068","748-BX","2019/07/25 13:59:39","新北市永和區福和路224號","121.519076666667","25.0079616666667","6500400","永和區"
"234040","862-TW","2019/07/25 13:59:44","新北市永和區中和路335巷18弄32號","121.508095","25.00051","6500400","永和區"
"234048","863-TW","2019/07/25 13:59:29","新北市永和區新生路210巷2號","121.505565","25.0131916666667","6500400","永和區"
"248015","026-BX","2019/07/25 13:59:40","新北市五股區成泰路三段577巷32號","121.451363333333","25.1029666666667","6501500","五股區"
"248007","KED-0815","2019/07/25 13:59:36","新北市五股區中興路一段128巷32號","121.46581","25.075165","6501500","五股區"
"248017","KED-0813","2019/07/25 13:59:30","新北市五股區民義路一段287巷9-1號","121.424551666667","25.0915816666667","6501500","五股區"
"248011","247-BX","2019/07/25 13:59:29","新北市五股區成泰路二段195巷1號","121.440461666667","25.087355","6501500","五股區"
"248013","261-SL","2019/07/25 13:59:31","新北市五股區民義路一段107巷32號","121.43267","25.0847216666667","6501500","五股區"
"248009","272-BY","2019/07/25 13:59:30","新北市五股區水碓一路23號","121.430593333333","25.07132","6501500","五股區"
"248003","677-BX","2019/07/25 13:59:33","新北市五股區民義路二段50-1號","121.41195","25.10301","6501500","五股區"
"248001","678-BX","2019/07/25 13:59:37","新北市五股區凌雲路一段137號","121.449461666667","25.1021816666667","6501500","五股區"
"234022","9380-KE","2019/07/25 13:59:48","新北市永和區永和路二段259號","121.515898333333","25.01531","6500400","永和區"
"234076","969-R7","2019/07/25 13:59:47","新北市永和區民治街29號","121.519725","24.9977383333333","6500400","永和區"
"234072","AAC-211","2019/07/25 13:59:23","新北市永和區豫溪街169巷2號","121.521963333333","25.0105566666667","6500400","永和區"
"234066","AAC-212","2019/07/25 13:59:36","新北市永和區永貞路358號","121.510181666667","25.00663","6500400","永和區"
"234001","AAC-295","2019/07/25 13:59:41","新北市永和區福和路310-1號","121.51621","25.0073316666667","6500400","永和區"
"244003","248-BX","2019/07/25 13:59:41","新北市林口區汕頭18號","121.363518333333","25.1344566666667","6501700","林口區"
"243004","AAD-798","2019/07/25 13:59:32","新北市泰山區福興三街11號","121.434488333333","25.057805","6501600","泰山區"
"243002","297-R6","2019/07/25 13:59:38","新北市泰山區辭修路22號","121.429113333333","25.05821","6501600","泰山區"
"243006","KEA-2801","2019/07/25 13:59:28","新北市泰山區黎明路2-5號","121.420831666667","25.062695","6501600","泰山區"
"243008","421-VK","2019/07/25 13:59:45","新北市泰山區明志路二段152-3號","121.427448333333","25.0505316666667","6501600","泰山區"
"243001","KEA-2215","2019/07/25 13:59:44","新北市泰山區泰林路二段280巷2號","121.431515","25.0623466666667","6501600","泰山區"
"243003","KEA-2216","2019/07/25 13:59:47","新北市泰山區明志路二段269號","121.426963333333","25.0474066666667","6501600","泰山區"
"243007","680-BX","2019/07/25 13:59:36","新北市泰山區美寧街50號","121.430496666667","25.0644283333333","6501600","泰山區"
"231030","002-UM","2019/07/25 13:59:42","新北市新店區安康路一段202號","121.52429","24.9634566666667","6500600","新店區"
"231024","0293-UT","2019/07/25 13:59:38","新北市新店區北新路一段271巷6號","121.540556666667","24.9668766666667","6500600","新店區"
"231005","046-UY","2019/07/25 13:59:30","新北市新店區中興路三段184號","121.544098333333","24.9814533333333","6500600","新店區"
"231029","106-UY","2019/07/25 13:59:37","新北市新店區安康路二段22號","121.515893333333","24.963745","6500600","新店區"
"231018","107-UY","2019/07/25 13:59:32","新北市新店區中央路192號","121.530895","24.9747483333333","6500600","新店區"
"231013","108-UY","2019/07/25 13:59:39","新北市新店區明德路111號","121.541526666667","24.9794483333333","6500600","新店區"
"231036","110-UY","2019/07/25 13:59:37","新北市新店區安祥路135號","121.474655","24.9560583333333","6500600","新店區"
"231031","256-BX","2019/07/25 13:59:30","新北市新店區莒光路44巷21弄11-3號","121.518553333333","24.9521116666667","6500600","新店區"
"231023","260-TV","2019/07/25 13:59:42","新北市新店區文中路40號","121.539738333333","24.95658","6500600","新店區"
"231003","268-BY","2019/07/25 13:59:43","新北市新店區北宜路一段3號","121.538195","24.9584683333333","6500600","新店區"
"231035","278-BY","2019/07/25 13:59:30","新北市新店區安康路二段1-5號","121.51703","24.9638566666667","6500600","新店區"
"231017","AAD-862","2019/07/25 13:59:47","新北市新店區北宜路二段82-1號","121.553646666667","24.9532633333333","6500600","新店區"
"231006","355-BY","2019/07/25 13:59:46","新北市新店區北宜路二段39-1號","121.548798333333","24.951475","6500600","新店區"
"231038","3712-VJ","2019/07/25 13:59:45","新北市新店區安華路30巷1號","121.519728333333","24.959265","6500600","新店區"
"231027","3713-VJ","2019/07/25 13:59:48","新北市新店區中興路一段24-1號","121.538531666667","24.9580516666667","6500600","新店區"
"231021","513-UM","2019/07/25 13:59:35","新北市新店區新烏路二段9號","121.544248333333","24.9292916666667","6500600","新店區"
"231002","619-UM","2019/07/25 13:59:34","新北市新店區中正路676號","121.53395","24.9897966666667","6500600","新店區"
"231034","641-BX","2019/07/25 13:59:34","新北市新店區達觀路41號","121.502635","24.938885","6500600","新店區"
"231011","KED-0819","2019/07/25 13:59:31","新北市新店區中興路二段57巷10號","121.546006666667","24.970705","6500600","新店區"
"231010","719-UM","2019/07/25 13:59:42","新北市新店區安康路一段266巷4號","121.520151666667","24.9639916666667","6500600","新店區"
"231026","720-UM","2019/07/25 13:59:39","新北市新店區三民路159巷19弄46號","121.5322","24.9732416666667","6500600","新店區"
"231028","897-TW","2019/07/25 13:59:42","新北市新店區安和路三段60-1號","121.518218333333","24.98268","6500600","新店區"
"231001","898-TW","2019/07/25 13:59:34","新北市新店區三民路24號","121.53711","24.97096","6500600","新店區"
"231004","899-TW","2019/07/25 13:59:40","新北市新店區北新路二段107號","121.542983333333","24.9745383333333","6500600","新店區"
"231037","AKT-0513","2019/07/25 13:59:34","新北市新店區安康路三段355巷43號","121.485036666667","24.9494366666667","6500600","新店區"
"235030","003-UY","2019/07/25 13:59:48","新北市中和區中山路二段131巷5弄3號","121.502881666667","25.002855","6500300","中和區"
"235028","005-UY","2019/07/25 13:59:33","新北市中和區連城路47巷5號","121.49843","25.0016183333333","6500300","中和區"
"235027","006-UY","2019/07/25 13:59:31","新北市中和區中正路578號","121.486248333333","24.994745","6500300","中和區"
"235020","096-UM","2019/07/25 13:59:40","新北市板橋區三民路二段204-4號","121.478851666667","25.0124383333333","6500300","中和區"
"235003","097-UM","2019/07/25 13:59:34","新北市中和區秀朗路三段179號","121.52439","24.9909166666667","6500300","中和區"
"235029","098-UM","2019/07/25 13:59:50","新北市中和區莊敬路39號","121.500856666667","25.0049933333333","6500300","中和區"
"235004","150-BY","2019/07/25 13:59:38","新北市中和區保健路46巷1號","121.50979","24.9970466666667","6500300","中和區"
"235022","151-BY","2019/07/25 13:59:39","新北市中和區員山路75號","121.48071","24.9942416666667","6500300","中和區"
"235019","183-VK","2019/07/25 13:59:46","新北市中和區德光路72號","121.469246666667","25.00372","6500300","中和區"
"235002","185-VK","2019/07/25 13:59:33","新北市中和區立人街24-4號","121.518925","24.9942316666667","6500300","中和區"
"235013","186-VK","2019/07/25 13:59:34","新北市中和區景安路161號","121.505465","24.994665","6500300","中和區"
"235031","255-BX","2019/07/25 13:59:32","新北市中和區中正路695號","121.4849","24.9982683333333","6500300","中和區"
"235008","293-VK","2019/07/25 13:59:34","新北市中和區中興街161巷1弄1號","121.50025","24.990925","6500300","中和區"
"235036","301-VK","2019/07/25 13:59:48","新北市中和區中山路二段40號","121.504458333333","25.0051983333333","6500300","中和區"
"235007","352-BY","2019/07/25 13:59:29","新北市中和區成功路41巷1號","121.526125","24.9933466666667","6500300","中和區"
"235006","KEA-2878","2019/07/25 13:59:44","新北市中和區秀朗路三段38號","121.526353333333","24.995925","6500300","中和區"
"247013","KEA-2869","2019/07/25 13:59:45","新北市蘆洲區保和街73號","121.469365","25.0861483333333","6501400","蘆洲區"
"247007","KED-0682","2019/07/25 13:59:43","新北市蘆洲區重陽一街1號","121.481825","25.0814866666667","6501400","蘆洲區"
"235014","4979-A6","2019/07/25 13:59:43","新北市中和區華新街50巷6號","121.50769","24.9839933333333","6500300","中和區"
"235033","4980-A6","2019/07/25 13:59:47","新北市中和區圓通路109巷10號","121.499701666667","24.996285","6500300","中和區"
"235005","551-UM","2019/07/25 13:59:39","新北市中和區中安街58號","121.512695","25.00232","6500300","中和區"
"235034","558-UM","2019/07/25 13:57:56","新北市中和區中和路195號","121.503571666667","24.9998033333333","6500300","中和區"
"235009","565-BX","2019/07/25 13:59:31","新北市中和區景新街467巷20弄25號","121.514958333333","24.9874733333333","6500300","中和區"
"235024","KED-0823","2019/07/25 13:59:31","新北市中和區中山路三段37巷47號","121.480055","25.0045983333333","6500300","中和區"
"235018","640-BX","2019/07/25 13:59:32","新北市中和區民德路173號","121.468608333333","24.9996033333333","6500300","中和區"
"235011","732-UM","2019/07/25 13:59:38","新北市中和區興南路二段54巷11弄2號","121.505643333333","24.98562","6500300","中和區"
"235035","783-BX","2019/07/25 13:59:38","新北市中和區立德街73號","121.487075","25.00798","6500300","中和區"
"235026","800-TS","2019/07/25 13:59:29","新北市中和區中山路二段362-1號","121.492456666667","25.0032783333333","6500300","中和區"
"235021","801-TS","2019/07/25 13:59:33","新北市中和區民利街44號","121.479471666667","24.998865","6500300","中和區"
"235016","805-TS","2019/07/25 13:59:27","新北市中和區興南路二段131-6號","121.50382","24.9814583333333","6500300","中和區"
"235012","896-TW","2019/07/25 13:59:46","新北市中和區華新街55號","121.507936666667","24.9843366666667","6500300","中和區"
"235017","900-TW","2019/07/25 13:59:47","新北市板橋區和平路182號","121.463595","24.995825","6500300","中和區"
"235015","157-BY","2019/07/25 13:59:48","新北市中和區忠孝街19巷23號","121.50981","24.98427","6500300","中和區"
"235001","AAC-213","2019/07/25 13:59:32","新北市中和區秀朗路三段50巷2弄2號","121.526095","24.9955283333333","6500300","中和區"
"235023","AAC-215","2019/07/25 13:59:34","新北市中和區圓通路369巷33弄3號","121.49095","24.9880683333333","6500300","中和區"
"220016","015-TV","2019/07/25 13:59:44","新北市板橋區中山路二段465巷25號","121.481396666667","25.021025","6500100","板橋區"
"220013","072-UY","2019/07/25 13:59:32","新北市板橋區漢生東路319號","121.471895","25.0079583333333","6500100","板橋區"
"220034","073-UY","2019/07/25 13:59:37","新北市板橋區大智街60號","121.454243333333","25.0155033333333","6500100","板橋區"
"220105","075-UY","2019/07/25 13:59:32","新北市板橋區雙十路三段8-1號","121.471985","25.0305516666667","6500100","板橋區"
"220017","AAD-861","2019/07/25 13:59:47","新北市板橋區貴興路5號","121.457728333333","25.0044766666667","6500100","板橋區"
"247003","893-R6","2019/07/25 13:59:32","新北市蘆洲區長安街96號","121.46204","25.0811","6501400","蘆洲區"
"247017","546-UM","2019/07/25 13:59:48","新北市蘆洲區民族路327巷46號","121.474566666667","25.0908233333333","6501400","蘆洲區"
"247023","337-TH","2019/07/25 13:59:36","新北市蘆洲區光榮路120巷9號","121.465213333333","25.0888233333333","6501400","蘆洲區"
"247001","336-TH","2019/07/25 13:59:34","新北市蘆洲區永平街32巷64弄2號","121.460175","25.0931116666667","6501400","蘆洲區"
"247021","057-VK","2019/07/25 13:59:47","新北市蘆洲區中正路263巷2號","121.467205","25.087695","6501400","蘆洲區"
"247011","056-VK","2019/07/25 13:59:34","新北市蘆洲區中興街30號","121.480863333333","25.0869883333333","6501400","蘆洲區"
"247015","053-VK","2019/07/25 13:59:31","新北市蘆洲區光華路38號","121.469005","25.0832516666667","6501400","蘆洲區"
"247019","007-UY","2019/07/25 13:59:33","新北市蘆洲區民族路422巷13號","121.473911666667","25.0925216666667","6501400","蘆洲區"
"247005","002-UY","2019/07/25 13:59:34","新北市蘆洲區永安南路二段54-1號","121.465638333333","25.0778416666667","6501400","蘆洲區"
"228004","212-TW","2019/07/25 13:59:28","新北市貢寮區龍崗里嵩陽街40號","121.906038333333","25.0155433333333","6502600","貢寮區"
"228005","828-UM","2019/07/25 13:57:18","新北市貢寮區美豐里雞母嶺街52號","121.890196666667","25.0677066666667","6502600","貢寮區"
"253003","6232-TK","2019/07/25 13:59:48","新北市石門區尖子鹿51號","121.580683333333","25.2731216666667","6502200","石門區"
"253004","6251-TK","2019/07/25 13:59:40","新北市石門區草埔尾16號","121.602718333333","25.2634566666667","6502200","石門區"
"253002","637-UY","2019/07/25 13:58:58","新北市石門區七股60號","121.554106666667","25.2520933333333","6502200","石門區"
"253001","KEC-0718","2019/07/25 13:59:45","新北市石門區下員坑58-4號","121.525066666667","25.2659183333333","6502200","石門區"
"207002","749-BX","2019/07/25 13:59:33","新北市萬里區溪底里烏塗炭9號","121.638445","25.1510233333333","6502800","萬里區"
"252005","073-UM","2019/07/25 13:59:35","新北市三芝區圓山里二坪頂47號","121.538008333333","25.2450983333333","6502100","三芝區"
"207001","662-BX","2019/07/25 13:59:39","新北市萬里區磺潭里清水18-5號","121.639458333333","25.1992366666667","6502800","萬里區"
"236040","KED-0685","2019/07/25 13:59:43","新北市土城區城林路6巷80號","121.438565","24.9797716666667","6501300","土城區"
"236074","166-UM","2019/07/25 13:59:48","新北市土城區永寧路32巷10弄21號","121.429028333333","24.9610516666667","6501300","土城區"
"236029","253-BX","2019/07/25 13:59:28","新北市土城區永寧路51號","121.429728333333","24.961415","6501300","土城區"
"236024","269-VK","2019/07/25 13:59:31","新北市土城區承天路21號","121.436313333333","24.96578","6501300","土城區"
"236012","270-VK","2019/07/25 13:59:40","新北市土城區城林路6巷80號","121.438603333333","24.9797316666667","6501300","土城區"
"236032","271-VK","2019/07/25 13:59:46","新北市土城區中華路一段301號","121.43993","24.97941","6501300","土城區"
"247009","KED-0683","2019/07/25 13:59:36","新北市蘆洲區集賢路224巷46弄30-1號","121.481441666667","25.08747","6501400","蘆洲區"
"236068","KEA-2877","2019/07/25 13:59:45","新北市土城區金城路一段82巷14號","121.445111666667","24.973005","6501300","土城區"
"236017","401-BY","2019/07/25 13:59:39","新北市土城區城林路6巷80號","121.438458333333","24.979785","6501300","土城區"
"236057","912-UM","2019/07/25 13:59:34","新北市土城區中央路四段7號","121.425466666667","24.9628883333333","6501300","土城區"
"236045","913-UM","2019/07/25 13:59:34","新北市土城區城林路6巷80號","121.4385","24.9796333333333","6501300","土城區"
"236060","915-UM","2019/07/25 13:59:29","新北市土城區城林路6巷80號","121.438728333333","24.9797516666667","6501300","土城區"
"236054","AAC-216","2019/07/25 13:59:48","新北市土城區城林路6巷80號","121.438476666667","24.9797433333333","6501300","土城區"
"221029","298-VK","2019/07/25 13:59:37","新北市汐止區福德三路131號","121.633506666667","25.0668583333333","6501100","汐止區"
"220027","145-BY","2019/07/25 13:59:41","新北市板橋區大智街71巷3弄1號","121.453495","25.0152983333333","6500100","板橋區"
"220028","200-UY","2019/07/25 13:59:35","新北市板橋區大觀路二段265巷1弄12號","121.443383333333","24.99851","6500100","板橋區"
"220030","610-BX","2019/07/25 13:59:41","新北市板橋區篤行路三段玉平巷45號","121.428601666667","24.9868416666667","6500100","板橋區"
"220004","276-BY","2019/07/25 13:59:43","新北市板橋區信義路115號","121.457828333333","24.993585","6500100","板橋區"
"220020","277-BY","2019/07/25 13:59:48","新北市板橋區大觀路三段36巷5-3號","121.433005","24.9959233333333","6500100","板橋區"
"220050","280-UM","2019/07/25 13:59:29","新北市板橋區萬板路15號","121.470556666667","25.021","6500100","板橋區"
"220019","283-VK","2019/07/25 13:59:46","新北市板橋區忠孝路176巷23號","121.465251666667","25.0018083333333","6500100","板橋區"
"220043","285-UM","2019/07/25 13:59:31","新北市板橋區光武街112號","121.465641666667","25.0292333333333","6500100","板橋區"
"220001","285-VK","2019/07/25 13:59:39","新北市板橋區永豐街119號","121.474418333333","25.0196733333333","6500100","板橋區"
"220031","286-VK","2019/07/25 13:59:41","新北市板橋區大觀路一段38巷158號","121.442243333333","25.0045216666667","6500100","板橋區"
"220029","287-VK","2019/07/25 13:59:44","新北市板橋區光華街19巷6號","121.453708333333","25.01215","6500100","板橋區"
"220039","288-VK","2019/07/25 13:59:36","新北市板橋區裕民街25-2號","121.461945","25.0288983333333","6500100","板橋區"
"220009","295-UM","2019/07/25 13:59:44","新北市板橋區中山路二段295巷10號","121.477895","25.018805","6500100","板橋區"
"220032","296-UM","2019/07/25 13:59:39","新北市板橋區大觀路三段24號","121.434253333333","24.9957183333333","6500100","板橋區"
"220023","303-R5","2019/07/25 13:59:38","新北市板橋區南興路20號","121.454981666667","25.0079766666667","6500100","板橋區"
"220010","305-R5","2019/07/25 13:59:44","新北市板橋區三民路二段245巷55號","121.480745","25.0126533333333","6500100","板橋區"
"220041","307-R5","2019/07/25 13:59:37","新北市板橋區文化路二段225巷60弄73號","121.469036666667","25.030055","6500100","板橋區"
"220038","487-VK","2019/07/25 13:59:33","新北市板橋區文化路二段318號","121.472486666667","25.03002","6500100","板橋區"
"220037","491-VK","2019/07/25 13:59:39","新北市板橋區莒光路158-2號","121.473998333333","25.0239266666667","6500100","板橋區"
"220104","560-BX","2019/07/25 13:59:35","新北市板橋區中正路242號","121.455693333333","25.0191183333333","6500100","板橋區"
"220052","561-BX","2019/07/25 13:59:35","新北市板橋區介壽街60號","121.469186666667","25.0195466666667","6500100","板橋區"
"220011","609-BX","2019/07/25 13:59:48","新北市板橋區三民路二段60號","121.479246666667","25.01757","6500100","板橋區"
"220040","637-BX","2019/07/25 13:59:50","新北市板橋區大同街29號","121.477681666667","25.02716","6500100","板橋區"
"220005","686-BX","2019/07/25 13:59:43","新北市板橋區重慶路344號","121.464103333333","24.9971966666667","6500100","板橋區"
"220025","687-BX","2019/07/25 13:59:40","新北市板橋區大觀路二段343號","121.44097","24.998445","6500100","板橋區"
"220042","689-BX","2019/07/25 13:59:44","新北市板橋區文化路一段383號","121.467166666667","25.0217183333333","6500100","板橋區"
"220002","741-BX","2019/07/25 13:59:19","新北市板橋區重慶路139巷19號","121.463618333333","25.0047033333333","6500100","板橋區"
"220051","KEA-2699","2019/07/25 13:59:32","新北市板橋區田單街2巷37號","121.482353333333","25.0278216666667","6500100","板橋區"
"220003","827-TW","2019/07/25 13:59:42","新北市板橋區中山路一段140號","121.463565","25.010925","6500100","板橋區"
"220014","829-TW","2019/07/25 13:59:42","新北市板橋區三民路二段正隆巷27號","121.477358333333","25.0133216666667","6500100","板橋區"
"220047","831-TW","2019/07/25 13:59:34","新北市板橋區民生路二段226巷46號","121.47167","25.02231","6500100","板橋區"
"220022","895-R6","2019/07/25 13:59:44","新北市板橋區南雅南路一段106號","121.454911666667","25.0043066666667","6500100","板橋區"
"220021","985-R7","2019/07/25 13:59:35","新北市板橋區林園街7-1號","121.454026666667","25.0092233333333","6500100","板橋區"
"220046","AAC-210","2019/07/25 13:59:37","新北市板橋區新海路135巷33號","121.460051666667","25.0228416666667","6500100","板橋區"
"220012","AAC-253","2019/07/25 13:59:41","新北市板橋區板新路83號","121.473445","25.0138416666667","6500100","板橋區"
"235032","KEA-2873","2019/07/25 13:59:42","新北市中和區連城路75巷13號","121.498548333333","24.9983333333333","6500300","中和區"
"235025","KEA-2875","2019/07/25 13:59:34","新北市中和區員山路270號","121.481321666667","25.00182","6500300","中和區"
"235010","KEA-2876","2019/07/25 13:59:36","新北市中和區興南路一段137號","121.508815","24.9875716666667","6500300","中和區"
