"lineid","car","time","location","longitude","latitude","cityid","cityname"
"234044","148-BY","2019/07/25 14:09:49","新北市永和區得和路325號","121.523438333333","24.999685","6500400","永和區"
"234078","298-R6","2019/07/25 14:09:38","新北市永和區國中路100號","121.524226666667","25.0062816666667","6500400","永和區"
"234036","336-UY","2019/07/25 14:09:39","新北市永和區成功路一段47巷6號","121.527368333333","25.003995","6500400","永和區"
"234062","337-UY","2019/07/25 14:09:40","新北市永和區永利路156號","121.522521666667","25.002775","6500400","永和區"
"234084","338-UY","2019/07/25 14:09:45","新北市永和區福和路82-1號","121.52281","25.0079833333333","6500400","永和區"
"234015","745-BX","2019/07/25 14:09:35","新北市永和區仁愛路38號","121.514248333333","25.0134233333333","6500400","永和區"
"234028","746-BX","2019/07/25 14:09:36","新北市永和區民生路67巷19號","121.52352","24.9972116666667","6500400","永和區"
"234052","KEA-2590","2019/07/25 14:09:42","新北市永和區博愛街27巷2號","121.518176666667","25.0159","6500400","永和區"
"234005","KED-0605","2019/07/25 14:09:37","新北市中和區中和路260-1號","121.508225","24.9995466666667","6500400","永和區"
"234012","KEA-2591","2019/07/25 14:09:41","新北市永和區永貞路424號","121.508135","25.008735","6500400","永和區"
"234060","AAD-866","2019/07/25 14:09:41","新北市永和區安樂路100巷11號","121.514528333333","24.999285","6500400","永和區"
"234068","748-BX","2019/07/25 14:09:35","新北市永和區永貞路10巷7號","121.520108333333","25.007195","6500400","永和區"
"234040","862-TW","2019/07/25 14:09:35","新北市永和區雙和街64巷1號","121.509133333333","25.0035","6500400","永和區"
"234048","863-TW","2019/07/25 14:09:49","新北市永和區新生路2-6號","121.509315","25.016965","6500400","永和區"
"234025","9371-KE","2019/07/25 14:09:49","新北市永和區安樂路453號","121.514293333333","25.0049883333333","6500400","永和區"
"234010","9373-KE","2019/07/25 14:09:47","新北市永和區仁愛路352巷94號","121.501163333333","25.0080566666667","6500400","永和區"
"248015","026-BX","2019/07/25 14:09:40","新北市五股區成泰路三段549號","121.451983333333","25.1017133333333","6501500","五股區"
"248007","KED-0815","2019/07/25 14:09:36","新北市五股區中興路一段128巷10號","121.46581","25.074315","6501500","五股區"
"248017","KED-0813","2019/07/25 14:09:30","新北市五股區民義路一段255-6號","121.426086666667","25.0914616666667","6501500","五股區"
"248011","247-BX","2019/07/25 14:09:29","新北市五股區中興路四段48巷11號","121.438461666667","25.08339","6501500","五股區"
"248013","261-SL","2019/07/25 14:09:31","新北市五股區民義路一段107巷32號","121.432605","25.08463","6501500","五股區"
"248009","272-BY","2019/07/25 14:09:30","新北市五股區水碓一路23號","121.430611666667","25.071295","6501500","五股區"
"248003","677-BX","2019/07/25 14:09:35","新北市五股區五福路2號","121.433985","25.08728","6501500","五股區"
"248001","678-BX","2019/07/25 14:09:37","新北市五股區成泰路三段577巷77號","121.449673333333","25.1037333333333","6501500","五股區"
"234022","9380-KE","2019/07/25 14:09:48","新北市永和區博愛街32巷15-1號","121.518958333333","25.0152916666667","6500400","永和區"
"234076","969-R7","2019/07/25 14:09:47","新北市永和區民權路82號","121.519678333333","24.9972016666667","6500400","永和區"
"234072","AAC-211","2019/07/25 14:09:43","新北市永和區竹林路201巷22弄1號","121.52206","25.0093416666667","6500400","永和區"
"234066","AAC-212","2019/07/25 14:09:46","新北市永和區保平路214巷3弄9號","121.508921666667","25.0059766666667","6500400","永和區"
"234001","AAC-295","2019/07/25 14:09:41","新北市永和區中正路704號","121.516218333333","25.0098733333333","6500400","永和區"
"243004","AAD-798","2019/07/25 14:09:32","新北市泰山區辭修路36巷8弄1號","121.427876666667","25.0585233333333","6501600","泰山區"
"243002","297-R6","2019/07/25 14:09:38","新北市泰山區明志路一段483巷1弄12號","121.4313","25.05578","6501600","泰山區"
"243006","KEA-2801","2019/07/25 14:09:28","新北市泰山區泰林路二段464-1號","121.425538333333","25.0641566666667","6501600","泰山區"
"243008","421-VK","2019/07/25 14:09:45","新北市泰山區明志路二段355號","121.425341666667","25.0443716666667","6501600","泰山區"
"243001","KEA-2215","2019/07/25 14:09:44","新北市泰山區楓樹街15巷1-2號","121.434991666667","25.06299","6501600","泰山區"
"243003","KEA-2216","2019/07/25 14:09:47","新北市泰山區明志路二段325號","121.42591","25.0451366666667","6501600","泰山區"
"243005","646-TV","2019/07/25 14:09:29","新北市泰山區明志路三段277號","121.423035","25.03686","6501600","泰山區"
"243007","680-BX","2019/07/25 14:09:36","新北市泰山區明志路一段385號","121.430798333333","25.0578366666667","6501600","泰山區"
"231030","002-UM","2019/07/25 14:09:42","新北市新店區安民街121巷19號","121.515075","24.9686583333333","6500600","新店區"
"231024","0293-UT","2019/07/25 14:09:43","新北市新店區力行路30號","121.539148333333","24.96479","6500600","新店區"
"231005","046-UY","2019/07/25 14:09:30","新北市新店區中興路三段330號","121.542051666667","24.98657","6500600","新店區"
"231029","106-UY","2019/07/25 14:09:37","新北市新店區安康路二段121-1號","121.512508333333","24.96133","6500600","新店區"
"231018","107-UY","2019/07/25 14:09:32","新北市新店區中央五街32號","121.52875","24.9747033333333","6500600","新店區"
"231013","108-UY","2019/07/25 14:09:39","新北市新店區二十張路1巷2弄6號","121.540175","24.9822333333333","6500600","新店區"
"231036","110-UY","2019/07/25 14:09:37","新北市新店區安祥路109巷3弄6號","121.475471666667","24.9594133333333","6500600","新店區"
"231031","256-BX","2019/07/25 14:09:30","新北市新店區華城路6號","121.5302","24.9604066666667","6500600","新店區"
"231023","260-TV","2019/07/25 14:09:42","新北市新店區文中路40號","121.539726666667","24.956575","6500600","新店區"
"231003","268-BY","2019/07/25 14:09:43","新北市新店區光明街138巷22號","121.540388333333","24.9610083333333","6500600","新店區"
"231035","278-BY","2019/07/25 14:09:30","新北市新店區安和路一段52巷2-1號","121.517678333333","24.9663083333333","6500600","新店區"
"231017","AAD-862","2019/07/25 14:09:35","新北市新店區北宜路二段148號","121.557605","24.9539083333333","6500600","新店區"
"231006","355-BY","2019/07/25 14:09:33","新北市新店區北宜路二段213號","121.553241666667","24.9533966666667","6500600","新店區"
"231038","3712-VJ","2019/07/25 14:09:45","新北市新店區溪洲路121號","121.531465","24.9626816666667","6500600","新店區"
"231027","3713-VJ","2019/07/25 14:09:28","新北市新店區中興路一段24-1號","121.538445","24.9580733333333","6500600","新店區"
"231021","513-UM","2019/07/25 14:09:35","新北市新店區屈尺路83-2號","121.54484","24.9220933333333","6500600","新店區"
"231002","619-UM","2019/07/25 14:09:34","新北市新店區中正路503-7號","121.533646666667","24.9845183333333","6500600","新店區"
"231034","641-BX","2019/07/25 14:09:34","新北市新店區車子路11號","121.503083333333","24.952115","6500600","新店區"
"231011","KED-0819","2019/07/25 14:09:31","新北市新店區五峰路120號","121.544985","24.966565","6500600","新店區"
"231028","897-TW","2019/07/25 14:09:42","新北市新店區安和路三段53號","121.51797","24.9827683333333","6500600","新店區"
"231001","898-TW","2019/07/25 14:09:34","新北市新店區中華路66號","121.539201666667","24.9690866666667","6500600","新店區"
"231004","899-TW","2019/07/25 14:09:40","新北市新店區北新路二段228巷3號","121.543136666667","24.9775616666667","6500600","新店區"
"231037","AKT-0513","2019/07/25 14:09:35","新北市新店區安康路三段165巷2弄10號","121.48918","24.951345","6500600","新店區"
"235030","003-UY","2019/07/25 14:09:28","新北市中和區廣福路12-5號","121.505333333333","25.0026916666667","6500300","中和區"
"235028","005-UY","2019/07/25 14:09:33","新北市中和區連城路47號","121.49806","25.0017716666667","6500300","中和區"
"235027","006-UY","2019/07/25 14:09:31","新北市中和區連城路249巷19弄1號","121.493913333333","24.9962816666667","6500300","中和區"
"235020","096-UM","2019/07/25 14:09:40","新北市中和區中山路二段568巷32號","121.482371666667","25.0065733333333","6500300","中和區"
"235003","097-UM","2019/07/25 14:09:34","新北市中和區秀峰街119巷6弄2號","121.519691666667","24.99007","6500300","中和區"
"235029","098-UM","2019/07/25 14:09:30","新北市中和區中山路二段64巷12弄17號","121.504258333333","25.0056766666667","6500300","中和區"
"235004","150-BY","2019/07/25 14:09:38","新北市中和區宜安路119巷1號","121.509945","24.9977416666667","6500300","中和區"
"235022","151-BY","2019/07/25 14:09:39","新北市中和區員山路36巷16-2號","121.485223333333","24.9916066666667","6500300","中和區"
"235019","183-VK","2019/07/25 14:09:46","新北市中和區中山路三段183號","121.472761666667","25.0063283333333","6500300","中和區"
"235002","185-VK","2019/07/25 14:09:33","新北市中和區大仁街20巷34號","121.519361666667","24.9931166666667","6500300","中和區"
"235013","186-VK","2019/07/25 14:09:34","新北市中和區景新街147號","121.50626","24.996515","6500300","中和區"
"235031","255-BX","2019/07/25 14:09:32","新北市中和區中正路695號","121.48499","24.9982833333333","6500300","中和區"
"235008","293-VK","2019/07/25 14:09:34","新北市中和區中興街222-4號","121.500531666667","24.989565","6500300","中和區"
"235036","301-VK","2019/07/25 14:09:28","新北市中和區中山路二段166號","121.501393333333","25.0029683333333","6500300","中和區"
"235007","352-BY","2019/07/25 14:09:28","新北市中和區景平路116號","121.519493333333","24.991595","6500300","中和區"
"235006","KEA-2878","2019/07/25 14:09:44","新北市中和區自立路113號","121.522251666667","24.994505","6500300","中和區"
"247013","KEA-2869","2019/07/25 14:09:45","新北市蘆洲區忠孝路96號","121.47146","25.0859216666667","6501400","蘆洲區"
"247007","KED-0682","2019/07/25 14:09:43","新北市蘆洲區中山一路276號","121.471568333333","25.0792166666667","6501400","蘆洲區"
"235014","4979-A6","2019/07/25 14:09:43","新北市中和區復興路73-7號","121.503736666667","24.98982","6500300","中和區"
"235033","4980-A6","2019/07/25 14:09:27","新北市中和區中和路217巷1弄9號","121.503651666667","25.00063","6500300","中和區"
"235005","551-UM","2019/07/25 14:09:39","新北市中和區中和路262巷24弄19號","121.510216666667","24.9988233333333","6500300","中和區"
"235034","558-UM","2019/07/25 14:09:36","新北市中和區連城路71號","121.497413333333","25.0012133333333","6500300","中和區"
"235009","565-BX","2019/07/25 14:09:11","新北市中和區景新街467巷15弄12號","121.513808333333","24.9888316666667","6500300","中和區"
"235024","KED-0823","2019/07/25 14:09:31","新北市中和區民樂路15號","121.481835","25.001775","6500300","中和區"
"235018","640-BX","2019/07/25 14:09:32","新北市中和區國光街109巷14號","121.469686666667","25.0000416666667","6500300","中和區"
"235011","732-UM","2019/07/25 14:09:38","新北市中和區興南路一段50號","121.511003333333","24.9905866666667","6500300","中和區"
"235035","783-BX","2019/07/25 14:09:38","新北市中和區立言街50號","121.488323333333","25.006685","6500300","中和區"
"235026","800-TS","2019/07/25 14:09:29","新北市中和區中山路二段340巷53號","121.492941666667","25.0043133333333","6500300","中和區"
"235021","801-TS","2019/07/25 14:09:33","新北市中和區員山路423巷4號","121.48047","25.0032583333333","6500300","中和區"
"235016","805-TS","2019/07/25 14:09:47","新北市中和區興南路二段124號","121.504361666667","24.983605","6500300","中和區"
"235012","896-TW","2019/07/25 14:09:46","新北市中和區工專路165-3號","121.508815","24.979165","6500300","中和區"
"235017","900-TW","2019/07/25 14:09:47","新北市中和區華安街30巷12號","121.466921666667","24.9974166666667","6500300","中和區"
"235015","157-BY","2019/07/25 14:09:36","新北市中和區興南路一段75號","121.510266666667","24.9890916666667","6500300","中和區"
"235001","AAC-213","2019/07/25 14:09:31","新北市中和區自立路15巷4號","121.522741666667","24.996045","6500300","中和區"
"235023","AAC-215","2019/07/25 14:09:34","新北市中和區圓通路294巷1號","121.488971666667","24.9894116666667","6500300","中和區"
"220016","015-TV","2019/07/25 14:09:44","新北市板橋區翠華街6巷16號","121.481016666667","25.024275","6500100","板橋區"
"220013","072-UY","2019/07/25 14:09:32","新北市板橋區民族路247巷5弄4號","121.470578333333","25.0076333333333","6500100","板橋區"
"220034","073-UY","2019/07/25 14:09:38","新北市板橋區中正路236巷4號","121.456006666667","25.018955","6500100","板橋區"
"220105","075-UY","2019/07/25 14:09:44","新北市板橋區雙十路三段72號","121.470191666667","25.0326066666667","6500100","板橋區"
"220017","AAD-861","2019/07/25 14:09:47","新北市板橋區華興街31巷4號","121.458335","25.00434","6500100","板橋區"
"247003","893-R6","2019/07/25 14:09:32","新北市蘆洲區長安街137號","121.460855","25.0814833333333","6501400","蘆洲區"
"247017","546-UM","2019/07/25 14:09:48","新北市蘆洲區復興路198-1號","121.478316666667","25.08898","6501400","蘆洲區"
"247023","337-TH","2019/07/25 14:09:36","新北市蘆洲區光明路139號","121.464453333333","25.08856","6501400","蘆洲區"
"247001","336-TH","2019/07/25 14:09:34","新北市蘆洲區永平街59號","121.45754","25.0913233333333","6501400","蘆洲區"
"247021","057-VK","2019/07/25 14:09:27","新北市蘆洲區三民路157-1號","121.470735","25.0865816666667","6501400","蘆洲區"
"247011","056-VK","2019/07/25 14:09:34","新北市蘆洲區信義路329號","121.478231666667","25.0866783333333","6501400","蘆洲區"
"247015","053-VK","2019/07/25 14:09:31","新北市蘆洲區中正路185巷30號","121.46788","25.08517","6501400","蘆洲區"
"247019","007-UY","2019/07/25 14:09:33","新北市蘆洲區民族路426巷40弄3號","121.473201666667","25.0932383333333","6501400","蘆洲區"
"247005","002-UY","2019/07/25 14:09:34","新北市蘆洲區九芎街15巷8號","121.46807","25.0779766666667","6501400","蘆洲區"
"228004","212-TW","2019/07/25 14:09:48","新北市貢寮區雙玉里德心街9-1號","121.918631666667","25.0157966666667","6502600","貢寮區"
"228005","828-UM","2019/07/25 14:09:38","新北市雙溪區三港里雙澳路91號","121.888993333333","25.0569083333333","6502600","貢寮區"
"253003","6232-TK","2019/07/25 14:09:28","新北市石門區尖子鹿45號","121.582883333333","25.2693566666667","6502200","石門區"
"253004","6251-TK","2019/07/25 14:09:40","新北市石門區小坑51號","121.597848333333","25.2575516666667","6502200","石門區"
"253002","637-UY","2019/07/25 14:09:38","新北市石門區七股35號","121.552778333333","25.2607533333333","6502200","石門區"
"253001","KEC-0718","2019/07/25 14:09:45","新北市石門區八甲42-1號","121.53174","25.2689883333333","6502200","石門區"
"207002","749-BX","2019/07/25 14:09:33","新北市萬里區溪底里溪底路11號","121.612481666667","25.146695","6502800","萬里區"
"252005","073-UM","2019/07/25 14:09:35","新北市三芝區橫山里橫山49號","121.534778333333","25.2573016666667","6502100","三芝區"
"207001","662-BX","2019/07/25 14:09:39","新北市萬里區磺潭里清水18號","121.637863333333","25.1976416666667","6502800","萬里區"
"236040","KED-0685","2019/07/25 14:09:43","新北市土城區城林路6巷80號","121.438368333333","24.9796716666667","6501300","土城區"
"236074","166-UM","2019/07/25 14:09:29","新北市土城區永寧路30-1號","121.42921","24.96078","6501300","土城區"
"236029","253-BX","2019/07/25 14:09:28","新北市土城區興城路79號","121.439893333333","24.9707466666667","6501300","土城區"
"236024","269-VK","2019/07/25 14:09:31","新北市土城區承天路47號","121.43894","24.9638066666667","6501300","土城區"
"236012","270-VK","2019/07/25 14:09:40","新北市土城區中央路二段280號","121.44064","24.9741033333333","6501300","土城區"
"236032","271-VK","2019/07/25 14:09:46","新北市土城區青雲路449號","121.45886","24.9748083333333","6501300","土城區"
"247009","KED-0683","2019/07/25 14:09:36","新北市蘆洲區三民路50號","121.475485","25.08322","6501400","蘆洲區"
"236068","KEA-2877","2019/07/25 14:09:45","新北市土城區明德路一段128巷2號","121.463201666667","24.9789916666667","6501300","土城區"
"236017","401-BY","2019/07/25 14:09:39","新北市土城區員福街20號","121.441545","24.978645","6501300","土城區"
"236057","912-UM","2019/07/25 14:09:34","新北市土城區中央路四段196-1號","121.416243333333","24.9576266666667","6501300","土城區"
"236045","913-UM","2019/07/25 14:09:34","新北市土城區明德路一段365-1號","121.453708333333","24.9789216666667","6501300","土城區"
"236060","915-UM","2019/07/25 14:09:29","新北市土城區金城路二段390號","121.463643333333","24.9856866666667","6501300","土城區"
"236054","AAC-216","2019/07/25 14:09:48","新北市土城區中華路二段56號","121.439113333333","24.9774166666667","6501300","土城區"
"220027","145-BY","2019/07/25 14:09:41","新北市板橋區中正路43號","121.456271666667","25.0134266666667","6500100","板橋區"
"220028","200-UY","2019/07/25 14:09:35","新北市板橋區大觀路二段153巷46弄60號","121.449426666667","25.0003616666667","6500100","板橋區"
"220030","610-BX","2019/07/25 14:09:41","新北市板橋區溪北路20號","121.42679","24.9904083333333","6500100","板橋區"
"220004","276-BY","2019/07/25 14:09:43","新北市板橋區信義路74巷7弄1號","121.456653333333","24.99276","6500100","板橋區"
"220020","277-BY","2019/07/25 14:09:48","新北市板橋區金門街222號","121.430936666667","24.9879983333333","6500100","板橋區"
"220050","280-UM","2019/07/25 14:09:29","新北市板橋區莊敬路19號","121.474018333333","25.028095","6500100","板橋區"
"220019","283-VK","2019/07/25 14:09:39","新北市板橋區忠孝路146號","121.463878333333","25.0024183333333","6500100","板橋區"
"220043","285-UM","2019/07/25 14:09:31","新北市板橋區吳鳳路82號","121.466956666667","25.031255","6500100","板橋區"
"220001","285-VK","2019/07/25 14:09:39","新北市板橋區懷仁街25巷18號","121.476938333333","25.0200316666667","6500100","板橋區"
"220031","286-VK","2019/07/25 14:09:39","新北市板橋區大觀路二段174巷176弄15號","121.442831666667","25.003255","6500100","板橋區"
"220029","287-VK","2019/07/25 14:09:44","新北市板橋區南雅西路二段156巷7號","121.452213333333","25.013365","6500100","板橋區"
"220039","288-VK","2019/07/25 14:09:40","新北市板橋區長江路一段106巷13弄12號","121.460588333333","25.0292883333333","6500100","板橋區"
"220009","295-UM","2019/07/25 14:09:44","新北市板橋區中山路二段318巷20弄3號","121.480528333333","25.0188683333333","6500100","板橋區"
"220032","296-UM","2019/07/25 14:09:40","新北市板橋區溪崑一街30巷13號","121.429445","24.9913133333333","6500100","板橋區"
"220023","303-R5","2019/07/25 14:09:38","新北市板橋區大智街25巷38號","121.453988333333","25.0149566666667","6500100","板橋區"
"220010","305-R5","2019/07/25 14:09:44","新北市板橋區三民路二段居仁巷1弄24號","121.479996666667","25.0135966666667","6500100","板橋區"
"220041","307-R5","2019/07/25 14:09:33","新北市板橋區松江街72巷18號","121.469343333333","25.0278466666667","6500100","板橋區"
"220038","487-VK","2019/07/25 14:09:33","新北市板橋區文化路一段309-1號","121.465878333333","25.0199","6500100","板橋區"
"220037","491-VK","2019/07/25 14:09:39","新北市板橋區莊敬路48-2號","121.472686666667","25.0270066666667","6500100","板橋區"
"220104","560-BX","2019/07/25 14:09:35","新北市板橋區中正路379巷11號","121.45318","25.02191","6500100","板橋區"
"220052","561-BX","2019/07/25 14:09:41","新北市板橋區文化路一段188巷1-1號","121.466365","25.0196416666667","6500100","板橋區"
"220011","609-BX","2019/07/25 14:09:48","新北市板橋區三民路二段183號","121.479158333333","25.01433","6500100","板橋區"
"220040","637-BX","2019/07/25 14:09:43","新北市板橋區文聖街208號","121.48039","25.0257","6500100","板橋區"
"220005","686-BX","2019/07/25 14:09:38","新北市板橋區和平路153號","121.46329","24.9957216666667","6500100","板橋區"
"220025","687-BX","2019/07/25 14:09:40","新北市板橋區大觀路二段174巷193弄2號","121.442201666667","25.00412","6500100","板橋區"
"220042","689-BX","2019/07/25 14:09:44","新北市板橋區新海路80號","121.461833333333","25.021795","6500100","板橋區"
"220002","741-BX","2019/07/25 14:07:04","新北市板橋區重慶路93巷3號","121.462308333333","25.0059166666667","6500100","板橋區"
"220051","KEA-2699","2019/07/25 14:09:37","新北市板橋區田單街14號","121.482278333333","25.0287633333333","6500100","板橋區"
"220003","827-TW","2019/07/25 14:09:42","新北市板橋區中山路一段158號","121.465711666667","25.0119766666667","6500100","板橋區"
"220014","829-TW","2019/07/25 14:09:31","新北市板橋區民享街116巷1-1號","121.4781","25.01586","6500100","板橋區"
"220047","831-TW","2019/07/25 14:09:34","新北市板橋區四維路150號","121.465076666667","25.0256183333333","6500100","板橋區"
"220022","895-R6","2019/07/25 14:09:44","新北市板橋區林園街2號","121.454215","25.0093383333333","6500100","板橋區"
"220021","985-R7","2019/07/25 14:09:46","新北市板橋區中正路144號","121.456971666667","25.016095","6500100","板橋區"
"220046","AAC-210","2019/07/25 14:09:46","新北市板橋區幸福路60巷2號","121.460775","25.0208966666667","6500100","板橋區"
"220012","AAC-253","2019/07/25 14:09:41","新北市板橋區板新路226號","121.468403333333","25.0160566666667","6500100","板橋區"
"235032","KEA-2873","2019/07/25 14:09:42","新北市中和區景平路493巷11號","121.499501666667","24.99727","6500300","中和區"
"235025","KEA-2875","2019/07/25 14:09:34","新北市中和區民利街61巷17號","121.478728333333","24.9981566666667","6500300","中和區"
"235010","KEA-2876","2019/07/25 14:09:36","新北市中和區華新街110號","121.508496666667","24.98285","6500300","中和區"
