"lineid","car","time","location","longitude","latitude","cityid","cityname"
"249005","172-UM","2019/07/25 16:39:32","新北市八里區忠八街59-1號","121.419318333333","25.161215","6502300","八里區"
"249002","305-UY","2019/07/25 16:39:30","新北市八里區渡船頭7-12號","121.428671666667","25.153505","6502300","八里區"
"231067","4772-VM","2019/07/25 16:19:36","新北市新店區安華路1-1號","121.519315","24.960495","6500600","新店區"
"231046","719-UM","2019/07/25 16:39:46","新北市新店區灣潭路3-3號","121.538173333333","24.950815","6500600","新店區"
"241011","013-R5","2019/07/25 16:39:48","新北市三重區仁愛街41號","121.496663333333","25.0716466666667","6500200","三重區"
"241028","022-UY","2019/07/25 16:39:31","新北市三重區重新路三段27號","121.494515","25.061505","6500200","三重區"
"241008","059-VK","2019/07/25 16:39:36","新北市三重區永安北路一段27巷41號","121.477625","25.0755416666667","6500200","三重區"
"241001","060-VK","2019/07/25 16:39:46","新北市三重區仁政街87號","121.49257","25.0777716666667","6500200","三重區"
"241031","061-VK","2019/07/25 16:39:42","新北市三重區重新路四段41巷5弄12號","121.487521666667","25.0586466666667","6500200","三重區"
"241017","063-VK","2019/07/25 16:39:36","新北市三重區中正北路25巷9號","121.492543333333","25.0622966666667","6500200","三重區"
"241024","065-VK","2019/07/25 16:39:28","新北市三重區中正北路315巷6弄62號","121.47598","25.0726083333333","6500200","三重區"
"241030","066-VK","2019/07/25 16:39:43","新北市三重區成功路50巷43號","121.487926666667","25.0496133333333","6500200","三重區"
"241002","090-VK","2019/07/25 16:39:41","新北市三重區仁義街241巷27號","121.497","25.0829933333333","6500200","三重區"
"241003","091-VK","2019/07/25 16:39:30","新北市三重區五華街71巷83號","121.494166666667","25.0838166666667","6500200","三重區"
"241005","262-UM","2019/07/25 16:39:43","新北市三重區仁華街122號","121.486116666667","25.083165","6500200","三重區"
"241016","266-UM","2019/07/25 16:39:46","新北市三重區大智街7號","121.4947","25.0650433333333","6500200","三重區"
"241009","267-UM","2019/07/25 16:39:37","新北市三重區三和路四段203巷92號","121.484305","25.0801366666667","6500200","三重區"
"241018","268-UM","2019/07/25 16:39:44","新北市三重區六張街83號","121.49326","25.0700066666667","6500200","三重區"
"241032","269-UM","2019/07/25 16:39:42","新北市三重區新北大道一段33號","121.486028333333","25.0611683333333","6500200","三重區"
"241013","270-UM","2019/07/25 16:39:40","新北市三重區仁愛街62號","121.495778333333","25.0729833333333","6500200","三重區"
"241025","271-UM","2019/07/25 16:39:39","新北市三重區中正北路430號","121.474566666667","25.071","6500200","三重區"
"241004","475-VK","2019/07/25 16:39:42","新北市三重區五福街28號","121.492435","25.0812733333333","6500200","三重區"
"241020","478-VK","2019/07/25 16:39:35","新北市三重區忠孝路二段31號","121.486185","25.0714666666667","6500200","三重區"
"241026","480-VK","2019/07/25 16:39:40","新北市三重區中央南路26號","121.501308333333","25.0625916666667","6500200","三重區"
"241014","543-UM","2019/07/25 16:39:35","新北市三重區龍濱路21號","121.50299","25.0679533333333","6500200","三重區"
"241023","545-UM","2019/07/25 16:39:28","新北市三重區忠孝路三段50巷47號","121.482956666667","25.0644483333333","6500200","三重區"
"241019","KEA-2593","2019/07/25 16:39:49","新北市三重區力行路一段11號","121.488361666667","25.0666916666667","6500200","三重區"
"241006","AAD-863","2019/07/25 16:39:45","新北市三重區力行路二段184號","121.483251666667","25.0772","6500200","三重區"
"241022","KED-0820","2019/07/25 16:39:31","新北市三重區貴陽街20號","121.484238333333","25.0620366666667","6500200","三重區"
"241007","887-TS","2019/07/25 16:39:35","新北市三重區三和路四段167巷78號","121.484985","25.0794233333333","6500200","三重區"
"241012","941-UM","2019/07/25 16:39:44","新北市三重區仁興街4巷20號","121.499365","25.0736283333333","6500200","三重區"
"241029","942-UM","2019/07/25 16:39:41","新北市三重區集美街150號","121.489633333333","25.05313","6500200","三重區"
"241033","AAC-255","2019/07/25 16:39:37","新北市三重區光復路一段138號","121.472035","25.052625","6500200","三重區"
"235054","640-BX","2019/07/25 16:39:32","新北市中和區員山路36巷16-2號","121.485251666667","24.9915866666667","6500300","中和區"
"235026","800-TS","2019/07/25 16:38:28","","121.489283333333","24.9938533333333","6500300","中和區"
"247012","056-VK","2019/07/25 16:39:43","新北市五股區中興路三段163號","121.449156666667","25.0806483333333","6501400","蘆洲區"
"247016","053-VK","2019/07/25 16:39:38","新北市五股區新五路二段372巷20號","121.447823333333","25.0862566666667","6501400","蘆洲區"
"247006","002-UY","2019/07/25 16:39:38","新北市五股區工商路8號","121.440761666667","25.0827516666667","6501400","蘆洲區"
"228003","097-TW","2019/07/25 16:39:29","新北市貢寮區貢寮里朝陽街1-2號","121.912408333333","25.02128","6502600","貢寮區"
"224009","275-VK","2019/07/25 16:39:33","新北市瑞芳區逢甲路23號","121.809218333333","25.1086066666667","6501200","瑞芳區"
"224007","272-VK","2019/07/25 16:39:30","新北市瑞芳區中央路24號","121.761955","25.10348","6501200","瑞芳區"
"224005","271-BY","2019/07/25 16:39:30","新北市瑞芳區明里路122號","121.863678333333","25.1225316666667","6501200","瑞芳區"
"227001","642-TC","2019/07/25 16:39:34","新北市雙溪區牡丹里聖南2號","121.860173333333","25.05076","6502500","雙溪區"
"227002","400-TW","2019/07/25 16:39:33","新北市雙溪區長源里內柑腳20號","121.801565","25.0144733333333","6502500","雙溪區"
"251015","KEA-2871","2019/07/25 16:39:32","新北市淡水區英專路111號","121.445696666667","25.17231","6501000","淡水區"
"251016","179-VK","2019/07/25 16:39:36","新北市淡水區淡金路二段30號","121.452268333333","25.181085","6501000","淡水區"
"251008","181-VK","2019/07/25 16:39:38","新北市淡水區民生路135巷2號","121.465878333333","25.1387833333333","6501000","淡水區"
"251013","182-VK","2019/07/25 16:39:31","新北市淡水區大溪9號","121.496101666667","25.1901066666667","6501000","淡水區"
"251014","577-R6","2019/07/25 16:39:46","新北市淡水區淡金路四段478號","121.452425","25.2239183333333","6501000","淡水區"
"252002","178-VK","2019/07/25 16:39:40","新北市三芝區晴光街1號","121.510393333333","25.2579166666667","6502100","三芝區"
"247010","KED-0683","2019/07/25 16:39:39","新北市五股區中興路三段163號","121.44915","25.0806783333333","6501400","蘆洲區"
"252001","KED-0821","2019/07/25 16:39:27","新北市三芝區埔坪里埔頭坑57號","121.507896666667","25.2646116666667","6502100","三芝區"
"238011","5061-A6","2019/07/25 16:12:07","","121.387956666667","24.9681883333333","6500700","樹林區"
"238001","282-BY","2019/07/25 16:39:34","新北市樹林區大慶街99號","121.427541666667","24.9996266666667","6500700","樹林區"
"239007","AAC-297","2019/07/25 16:39:31","新北市鶯歌區二甲路13-16號","121.345088333333","24.9351766666667","6500800","鶯歌區"
"233003","KEC-0709","2019/07/25 16:39:31","新北市烏來區啦卡路70-1號","121.565233333333","24.8560666666667","6502900","烏來區"
