"lineid","car","time","location","longitude","latitude","cityid","cityname"
"234026","9371-KE","2019/07/25 17:49:27","新北市永和區和平街109巷6號","121.510805","25.0096383333333","6500400","永和區"
"249005","172-UM","2019/07/25 17:49:32","新北市八里區荖阡坑路34-1號","121.402753333333","25.1297616666667","6502300","八里區"
"249001","173-UM","2019/07/25 17:49:40","新北市八里區龍米路二段108-1號","121.443793333333","25.1495016666667","6502300","八里區"
"249004","303-UY","2019/07/25 17:49:31","新北市八里區中華路一段81巷18號","121.419561666667","25.1555466666667","6502300","八里區"
"249002","305-UY","2019/07/25 17:49:30","新北市八里區龍形五街37巷3-1號","121.448735","25.132615","6502300","八里區"
"249003","759-BX","2019/07/25 17:49:19","新北市八里區中山路二段196-1號","121.40552","25.1523766666667","6502300","八里區"
"248016","026-BX","2019/07/25 17:49:25","新北市五股區中興路二段83巷26-6號","121.460096666667","25.0750633333333","6501500","五股區"
"232011","375-UM","2019/07/25 17:49:40","新北市坪林區北宜路八段155號","121.70708","24.93444","6502000","坪林區"
"244007","402-UM","2019/07/25 17:49:28","新北市林口區林口路135號","121.38865","25.0812033333333","6501700","林口區"
"244013","KEA-2802","2019/07/25 17:49:31","新北市林口區中山路73號","121.393116666667","25.0784966666667","6501700","林口區"
"244023","483-VK","2019/07/25 17:49:28","新北市林口區育林街30號","121.385841666667","25.0737366666667","6501700","林口區"
"244017","485-VK","2019/07/25 17:49:24","新北市林口區文化二路一段228-1號","121.369646666667","25.0725783333333","6501700","林口區"
"244009","657-BX","2019/07/25 17:49:29","新北市林口區寶林路11號","121.38647","25.0837816666667","6501700","林口區"
"244011","701-TV","2019/07/25 17:49:23","新北市林口區中正路266號","121.389398333333","25.077755","6501700","林口區"
"244025","837-TS","2019/07/25 17:49:23","新北市林口區文明街76號","121.359581666667","25.070755","6501700","林口區"
"244021","838-TS","2019/07/25 17:49:35","新北市林口區新寮38號","121.400951666667","25.0658383333333","6501700","林口區"
"222003","436-BY","2019/07/25 17:49:37","新北市深坑區阿柔洋60-1號","121.608621666667","24.99851","6501800","深坑區"
"222002","659-BX","2019/07/25 17:49:21","新北市深坑區平埔街22巷8號","121.614891666667","25.0009016666667","6501800","深坑區"
"221015","KEA-2785","2019/07/25 17:49:18","新北市汐止區康寧街901號","121.651585","25.0749533333333","6501100","汐止區"
"241005","262-UM","2019/07/25 17:49:23","新北市三重區碧華街109號","121.48575","25.081705","6500200","三重區"
"241016","266-UM","2019/07/25 17:49:26","新北市三重區重新路二段124號","121.496321666667","25.0615033333333","6500200","三重區"
"241024","462-BY","2019/07/25 17:49:33","新北市三重區國道路一段47號","121.482593333333","25.072845","6500200","三重區"
"241033","AAC-255","2019/07/25 17:49:37","新北市三重區光復路一段49號","121.472106666667","25.048855","6500200","三重區"
"235064","005-UY","2019/07/25 17:49:29","新北市中和區員山路36巷16-3號","121.485075","24.991505","6500300","中和區"
"235063","006-UY","2019/07/25 17:49:30","新北市中和區員山路36巷16-3號","121.48492","24.991375","6500300","中和區"
"235065","098-UM","2019/07/25 17:49:30","新北市中和區中正路637巷52弄1號","121.485431666667","24.9935116666667","6500300","中和區"
"247014","KEA-2869","2019/07/25 17:49:37","新北市蘆洲區保和街87號","121.46892","25.0859833333333","6501400","蘆洲區"
"247008","KED-0682","2019/07/25 17:49:26","新北市蘆洲區中山一路228號","121.473005","25.0804","6501400","蘆洲區"
"235054","640-BX","2019/07/25 17:49:27","新北市中和區員山路36巷16-2號","121.485336666667","24.9914783333333","6500300","中和區"
"235062","800-TS","2019/07/25 17:49:35","新北市中和區員山路36巷16-3號","121.485111666667","24.9914983333333","6500300","中和區"
"235037","AAC-213","2019/07/25 17:49:33","新北市中和區中正路637巷52弄1號","121.485511666667","24.9935816666667","6500300","中和區"
"247004","893-R6","2019/07/25 17:49:36","新北市蘆洲區長安街194巷30號","121.460038333333","25.08459","6501400","蘆洲區"
"247018","546-UM","2019/07/25 17:49:30","新北市蘆洲區復興路227巷2弄16號","121.480716666667","25.09023","6501400","蘆洲區"
"247024","337-TH","2019/07/25 17:49:33","新北市蘆洲區光榮路61巷22號","121.46143","25.0891566666667","6501400","蘆洲區"
"247002","336-TH","2019/07/25 17:49:24","新北市蘆洲區永平街32巷21弄17號","121.458421666667","25.0919616666667","6501400","蘆洲區"
"247022","057-VK","2019/07/25 17:49:33","新北市蘆洲區中正路385號","121.463768333333","25.0923416666667","6501400","蘆洲區"
"247012","056-VK","2019/07/25 17:49:23","新北市蘆洲區復興路66號","121.474611666667","25.0864983333333","6501400","蘆洲區"
"247016","053-VK","2019/07/25 17:49:19","新北市蘆洲區中正路185巷23弄22號","121.467496666667","25.084065","6501400","蘆洲區"
"247020","007-UY","2019/07/25 17:49:26","新北市蘆洲區民權路186號","121.471843333333","25.0905566666667","6501400","蘆洲區"
"247006","002-UY","2019/07/25 17:49:18","新北市蘆洲區和平路121巷14弄27號","121.465845","25.0799933333333","6501400","蘆洲區"
"228003","097-TW","2019/07/25 17:49:29","新北市貢寮區真理里延平街36號","121.92447","25.056515","6502600","貢寮區"
"228001","212-TW","2019/07/25 17:49:33","新北市貢寮區仁理村仁愛路95-1號","121.927648333333","25.055495","6502600","貢寮區"
"228002","663-BX","2019/07/25 17:49:24","新北市貢寮區福隆里龜壽谷街26號","121.95281","25.0081366666667","6502600","貢寮區"
"224006","676-BX","2019/07/25 17:49:22","新北市瑞芳區瑞興新村12巷1號","121.78845","25.10833","6501200","瑞芳區"
"224009","275-VK","2019/07/25 17:49:33","新北市瑞芳區金光路255號","121.850095","25.1078366666667","6501200","瑞芳區"
"224008","273-VK","2019/07/25 17:49:34","新北市瑞芳區明燈路一段12號","121.821525","25.1071066666667","6501200","瑞芳區"
"224005","271-BY","2019/07/25 17:49:29","新北市瑞芳區瑞濱路30號","121.826456666667","25.12163","6501200","瑞芳區"
"227002","400-TW","2019/07/25 17:49:33","新北市雙溪區共和里東榮街52號","121.866325","25.033695","6502500","雙溪區"
"253006","032-BX","2019/07/25 17:49:34","新北市石門區老崩山11-13號","121.551885","25.29082","6502200","石門區"
"251009","008-UM","2019/07/25 17:49:22","新北市淡水區長興街8號","121.443918333333","25.17073","6501000","淡水區"
"251004","009-UM","2019/07/25 17:49:25","新北市淡水區民權一街17巷1號","121.458723333333","25.1366466666667","6501000","淡水區"
"251002","012-UM","2019/07/25 17:49:33","新北市淡水區中山路93-2號","121.442281666667","25.1705283333333","6501000","淡水區"
"251015","KEA-2871","2019/07/25 17:48:32","新北市淡水區興福寮1-8號","121.489778333333","25.16493","6501000","淡水區"
"251016","179-VK","2019/07/25 17:49:36","新北市淡水區埤島39-15號","121.452738333333","25.1959","6501000","淡水區"
"251008","181-VK","2019/07/25 17:49:37","新北市淡水區八勢路一段127號","121.46701","25.1570783333333","6501000","淡水區"
"251013","182-VK","2019/07/25 17:49:28","新北市淡水區泉洲厝31號","121.47958","25.1910066666667","6501000","淡水區"
"251010","413-VK","2019/07/25 17:49:24","新北市淡水區淡海路252號","121.420088333333","25.18694","6501000","淡水區"
"251012","441-VK","2019/07/25 17:49:22","新北市淡水區北投子86-5號","121.46918","25.1835366666667","6501000","淡水區"
"251007","442-VK","2019/07/25 17:49:26","新北市淡水區民生路52巷6號","121.462031666667","25.1375683333333","6501000","淡水區"
"251005","443-VK","2019/07/25 17:49:32","新北市淡水區學府路102巷10號","121.450618333333","25.1718216666667","6501000","淡水區"
"251006","561-UM","2019/07/25 17:49:04","新北市淡水區大信街1巷16號","121.440203333333","25.1767666666667","6501000","淡水區"
"251014","577-R6","2019/07/25 17:49:26","新北市淡水區公埔子16-6號","121.481046666667","25.2245883333333","6501000","淡水區"
"251011","650-BX","2019/07/25 17:49:26","新北市淡水區小坪頂13-3號","121.486625","25.1561666666667","6501000","淡水區"
"251003","673-BX","2019/07/25 17:49:35","新北市淡水區大仁街69號","121.443036666667","25.1763683333333","6501000","淡水區"
"207003","550-UM","2019/07/25 17:49:34","新北市萬里區野柳里東澳路66號","121.692701666667","25.2008983333333","6502800","萬里區"
"207004","225-TW","2019/07/25 17:49:30","新北市萬里區萬里里瑪鋉路77號","121.688365","25.1765066666667","6502800","萬里區"
"252002","178-VK","2019/07/25 17:49:30","新北市三芝區智成街33號","121.50378","25.256575","6502100","三芝區"
"237004","KEA-2597","2019/07/25 17:49:23","新北市三峽區民權街203號","121.367711666667","24.92839","6500900","三峽區"
"237009","210-TH","2019/07/25 17:49:28","新北市三峽區大勇路3巷33號","121.36763","24.9367716666667","6500900","三峽區"
"237013","252-BX","2019/07/25 17:49:36","新北市三峽區愛國路33-8號","121.374505","24.9332116666667","6500900","三峽區"
"237012","275-BY","2019/07/25 17:49:23","新北市三峽區文化路2號","121.373423333333","24.93549","6500900","三峽區"
"237008","302-VK","2019/07/25 17:49:27","新北市三峽區中園街237-1號","121.366841666667","24.9194916666667","6500900","三峽區"
"237014","433-BY","2019/07/25 17:49:28","新北市三峽區和平街36巷15號","121.371231666667","24.9370316666667","6500900","三峽區"
"237006","5529-G3","2019/07/25 17:49:35","新北市三峽區介壽路二段38巷10-3號","121.391643333333","24.9350016666667","6500900","三峽區"
"237011","KEA-2596","2019/07/25 17:49:39","新北市三峽區中園街12號","121.368446666667","24.927245","6500900","三峽區"
"237015","649-BX","2019/07/25 17:49:18","新北市三峽區白雞149-2號","121.400155","24.9055783333333","6500900","三峽區"
"237010","706-TV","2019/07/25 17:49:22","新北市三峽區和平街24-6號","121.370228333333","24.93647","6500900","三峽區"
"237005","AKY-6261","2019/07/25 17:49:38","新北市三峽區中山路146號","121.364948333333","24.9363383333333","6500900","三峽區"
"236042","KED-0685","2019/07/25 17:49:33","新北市土城區城林路6巷80號","121.438495","24.9797533333333","6501300","土城區"
"236078","166-UM","2019/07/25 17:49:17","新北市土城區永寧路121號","121.430705","24.9539133333333","6501300","土城區"
"236026","269-VK","2019/07/25 17:49:34","新北市土城區中華路二段2號","121.439441666667","24.9795616666667","6501300","土城區"
"236014","270-VK","2019/07/25 17:49:31","新北市土城區城林路6巷80號","121.4385","24.9796066666667","6501300","土城區"
"236038","271-VK","2019/07/25 17:49:34","新北市土城區城林路6巷80號","121.43848","24.97978","6501300","土城區"
"247010","KED-0683","2019/07/25 17:49:19","新北市蘆洲區民族路31號","121.47754","25.0848566666667","6501400","蘆洲區"
"236070","KEA-2877","2019/07/25 17:49:27","新北市土城區明德路一段385-1號","121.4524","24.9801833333333","6501300","土城區"
"252001","KED-0821","2019/07/25 17:49:27","新北市三芝區中興街一段12號","121.497405","25.2588566666667","6502100","三芝區"
"236021","401-BY","2019/07/25 17:49:20","新北市土城區城林路6巷80號","121.438513333333","24.9797483333333","6501300","土城區"
"236059","912-UM","2019/07/25 17:49:31","新北市土城區中央路三段92號","121.436016666667","24.9667383333333","6501300","土城區"
"236049","913-UM","2019/07/25 17:49:28","新北市土城區城林路6巷80號","121.438465","24.9796266666667","6501300","土城區"
"236063","915-UM","2019/07/25 17:49:31","新北市土城區城林路6巷80號","121.438668333333","24.979545","6501300","土城區"
"242039","AAC-296","2019/07/25 17:49:24","新北市新莊區民安路146號","121.424495","25.02507","6500500","新莊區"
"242061","986-R7","2019/07/25 17:49:26","新北市新莊區瓊林南路204號","121.434058333333","25.0065833333333","6500500","新莊區"
"242002","751-BX","2019/07/25 17:49:32","新北市新莊區景德路174號","121.450188333333","25.0341866666667","6500500","新莊區"
"242029","615-BX","2019/07/25 17:49:35","新北市新莊區新泰路308號","121.445356666667","25.0412433333333","6500500","新莊區"
"242027","613-BX","2019/07/25 17:49:20","新北市新莊區福壽街151號","121.457868333333","25.0530866666667","6500500","新莊區"
"242058","612-BX","2019/07/25 17:49:38","新北市新莊區中正路700-12號","121.41858","25.0276966666667","6500500","新莊區"
"242046","566-BX","2019/07/25 17:49:34","新北市新莊區建國一路52號","121.434105","25.0310866666667","6500500","新莊區"
"242051","497-BY","2019/07/25 17:49:31","新北市新莊區西盛街245巷22號","121.428918333333","25.0159816666667","6500500","新莊區"
"242056","441-UM","2019/07/25 17:49:29","新北市新莊區瓊林路40巷27號","121.446665","25.03016","6500500","新莊區"
"242004","440-UM","2019/07/25 17:49:36","新北市新莊區思源路177巷2號","121.459383333333","25.0452716666667","6500500","新莊區"
"242042","415-TV","2019/07/25 17:49:31","新北市泰山區貴陽街29號","121.422308333333","25.03302","6500500","新莊區"
"242011","413-TV","2019/07/25 17:49:39","新北市新莊區中港路695號","121.450696666667","25.0567683333333","6500500","新莊區"
"242048","400-BY","2019/07/25 17:49:31","新北市新莊區萬安街64號","121.420925","25.0234666666667","6500500","新莊區"
"242025","362-BY","2019/07/25 17:49:34","新北市三重區新北大道二段25號","121.47138","25.0612133333333","6500500","新莊區"
"242023","353-BY","2019/07/25 17:49:31","新北市新莊區福樂街22號","121.457875","25.0451883333333","6500500","新莊區"
"242013","132-UY","2019/07/25 17:49:28","新北市新莊區中和街82巷9號","121.448266666667","25.0467183333333","6500500","新莊區"
"242036","135-UY","2019/07/25 17:49:30","新北市新莊區建福路59巷24號","121.427831666667","25.027495","6500500","新莊區"
"242053","172-VK","2019/07/25 17:49:18","新北市新莊區新樹路585號","121.432886666667","25.0067533333333","6500500","新莊區"
"242015","173-VK","2019/07/25 17:49:38","新北市新莊區新泰路426號","121.443591666667","25.044195","6500500","新莊區"
"242021","175-VK","2019/07/25 17:49:21","新北市新莊區中港路136號","121.455181666667","25.0407966666667","6500500","新莊區"
"242019","KED-0687","2019/07/25 17:49:32","新北市新莊區長青街30號","121.456695","25.042255","6500500","新莊區"
"242034","348-TH","2019/07/25 17:49:40","新北市新莊區新莊路682號","121.441121666667","25.032715","6500500","新莊區"
"242007","349-TH","2019/07/25 17:49:38","新北市新莊區福樂街108巷17號","121.457705","25.0482966666667","6500500","新莊區"
"242031","350-TH","2019/07/25 17:49:29","新北市新莊區新泰路357巷1弄2號","121.442591666667","25.0412883333333","6500500","新莊區"
"242017","351-TH","2019/07/25 17:49:36","新北市新莊區永安街27號","121.451923333333","25.0447133333333","6500500","新莊區"
"238015","755-BX","2019/07/25 17:49:18","新北市樹林區復興路199巷2號","121.420638333333","24.9914166666667","6500700","樹林區"
"238023","601-UM","2019/07/25 17:49:34","新北市樹林區福興街18號","121.40422","25.0159733333333","6500700","樹林區"
"238019","599-UM","2019/07/25 17:49:33","新北市樹林區太平路88號","121.419073333333","24.9801383333333","6500700","樹林區"
"238018","KEA-2217","2019/07/25 17:49:30","新北市新莊區新崑路57號","121.431295","24.9996233333333","6500700","樹林區"
"238022","KEA-2213","2019/07/25 17:49:28","新北市樹林區太順街86巷28號","121.416565","24.9785783333333","6500700","樹林區"
"238021","KEA-2539","2019/07/25 17:49:31","新北市樹林區柑園街一段23-7號","121.404368333333","24.9603383333333","6500700","樹林區"
"238025","303-VK","2019/07/25 17:49:32","新北市樹林區三俊街75號","121.415231666667","25.0155916666667","6500700","樹林區"
"238017","283-BY","2019/07/25 17:49:23","新北市樹林區俊德街51號","121.415448333333","25.0132783333333","6500700","樹林區"
"238014","282-BY","2019/07/25 17:49:34","新北市樹林區保安街一段293號","121.417986666667","24.9972383333333","6500700","樹林區"
"238020","268-VK","2019/07/25 17:49:34","新北市樹林區俊英街129號","121.424433333333","25.0112383333333","6500700","樹林區"
"238026","172-UY","2019/07/25 17:49:31","新北市樹林區新興街19巷11號","121.400728333333","24.973085","6500700","樹林區"
"238016","169-UY","2019/07/25 17:49:28","新北市樹林區啟智街179號","121.415483333333","24.9874866666667","6500700","樹林區"
"239007","AAC-297","2019/07/25 17:49:31","新北市鶯歌區鶯桃路120巷1號","121.33847","24.95476","6500800","鶯歌區"
"239006","891-R6","2019/07/25 17:49:25","新北市鶯歌區永和街113號","121.333603333333","24.9687583333333","6500800","鶯歌區"
"239008","527-UM","2019/07/25 17:49:35","新北市鶯歌區大湖路732巷25號","121.333125","24.977975","6500800","鶯歌區"
"239005","526-UM","2019/07/25 17:49:24","新北市鶯歌區鳳吉五街40號","121.327683333333","24.9726283333333","6500800","鶯歌區"
"239001","417-VK","2019/07/25 17:49:26","新北市鶯歌區中正三路400號","121.326126666667","24.934595","6500800","鶯歌區"
"239003","360-BY","2019/07/25 17:49:30","新北市鶯歌區鶯桃路213-1號","121.336745","24.9592033333333","6500800","鶯歌區"
"239002","359-BY","2019/07/25 17:49:02","新北市鶯歌區南雅路442號","121.346006666667","24.9538716666667","6500800","鶯歌區"
"239004","193-VK","2019/07/25 17:49:24","新北市鶯歌區三鶯路68號","121.35759","24.9426766666667","6500800","鶯歌區"
"221008","489-VK","2019/07/25 17:49:32","新北市汐止區康寧街901號","121.651376666667","25.0750466666667","6501100","汐止區"
"244019","KED-0667","2019/07/25 17:49:26","新北市林口區忠孝路552巷17-1號","121.374108333333","25.0672516666667","6501700","林口區"
"221010","269-BY","2019/07/25 17:49:40","新北市汐止區汐萬路二段54號","121.64956","25.0819633333333","6501100","汐止區"
"221029","298-VK","2019/07/25 17:42:52","新北市汐止區汐萬路一段256巷1號","121.651691666667","25.07487","6501100","汐止區"
"221031","353-TW","2019/07/25 17:49:23","新北市汐止區汐萬路一段312號","121.650498333333","25.075445","6501100","汐止區"
"233002","KEA-2870","2019/07/25 17:49:22","新北市烏來區烏來街1號","121.55117","24.8656716666667","6502900","烏來區"
"233003","KEC-0709","2019/07/25 17:49:30","新北市烏來區環山路62號","121.548295","24.8643816666667","6502900","烏來區"
"242044","281-VK","2019/07/25 17:49:33","新北市新莊區中正路855巷10號","121.419776666667","25.0273766666667","6500500","新莊區"
"242009","280-VK","2019/07/25 17:49:36","新北市新莊區昌明街42號","121.456321666667","25.0523216666667","6500500","新莊區"
