"lineid","car","time","location","longitude","latitude","cityid","cityname"
"234046","148-BY","2019/07/25 20:09:36","新北市永和區得和路336號","121.52345","24.9995066666667","6500400","永和區"
"234081","298-R6","2019/07/25 20:09:18","新北市永和區國中路53號","121.524615","25.006085","6500400","永和區"
"234038","336-UY","2019/07/25 20:09:34","新北市永和區成功路一段74號","121.526785","25.0034966666667","6500400","永和區"
"234064","337-UY","2019/07/25 20:09:22","新北市永和區秀朗路二段45號","121.52163","25.0023666666667","6500400","永和區"
"234086","338-UY","2019/07/25 20:09:23","新北市永和區中正路624巷2號","121.517106666667","25.0079216666667","6500400","永和區"
"234017","745-BX","2019/07/25 20:09:25","新北市永和區文化路68號","121.514318333333","25.0151733333333","6500400","永和區"
"234030","746-BX","2019/07/25 20:09:24","新北市永和區民權路49巷37號","121.522018333333","24.9976283333333","6500400","永和區"
"234054","KEA-2590","2019/07/25 20:09:32","新北市永和區博愛街23號","121.517835","25.0158233333333","6500400","永和區"
"234007","KED-0605","2019/07/25 20:09:27","新北市永和區仁愛路306巷48號","121.502161666667","25.0092033333333","6500400","永和區"
"234013","KEA-2591","2019/07/25 20:09:29","新北市永和區仁愛路277號","121.50583","25.009705","6500400","永和區"
"234061","AAD-866","2019/07/25 20:09:39","新北市永和區中正路151巷5弄2-1號","121.515631666667","24.9987483333333","6500400","永和區"
"234070","748-BX","2019/07/25 20:08:59","新北市永和區福和路183巷2弄2號","121.51994","25.0073033333333","6500400","永和區"
"234042","862-TW","2019/07/25 20:09:34","新北市永和區雙和街50號","121.508973333333","25.0030883333333","6500400","永和區"
"234050","863-TW","2019/07/25 20:09:36","新北市永和區保安路292號","121.505166666667","25.0118333333333","6500400","永和區"
"234011","9373-KE","2019/07/25 20:09:28","新北市永和區仁愛路352巷138號","121.499865","25.00879","6500400","永和區"
"249005","172-UM","2019/07/25 20:09:32","新北市八里區下罟子57-32號","121.387428333333","25.13674","6502300","八里區"
"249001","173-UM","2019/07/25 20:09:28","新北市八里區中華路二段326號","121.403255","25.1479183333333","6502300","八里區"
"249004","303-UY","2019/07/25 20:09:25","新北市八里區中山路一段189巷18號","121.412176666667","25.157905","6502300","八里區"
"249002","305-UY","2019/07/25 20:09:30","新北市八里區龍米路一段30巷10號","121.456978333333","25.1168716666667","6502300","八里區"
"249003","759-BX","2019/07/25 20:09:26","新北市八里區中山路二段540巷9弄6號","121.396786666667","25.1471033333333","6502300","八里區"
"248016","026-BX","2019/07/25 20:09:24","新北市五股區成泰路三段577巷80弄72號","121.448946666667","25.1047766666667","6501500","五股區"
"248008","KED-0815","2019/07/25 20:09:21","新北市五股區中興路一段1巷15號","121.469776666667","25.07117","6501500","五股區"
"248020","KED-0813","2019/07/25 20:09:24","新北市五股區凌雲路二段21號","121.443968333333","25.1023916666667","6501500","五股區"
"248012","247-BX","2019/07/25 20:09:31","新北市五股區民義路一段212號","121.430558333333","25.089455","6501500","五股區"
"248014","261-SL","2019/07/25 20:09:20","新北市八里區荖阡坑路24-11號","121.398598333333","25.1383183333333","6501500","五股區"
"248010","272-BY","2019/07/25 20:09:36","新北市五股區成泰路一段7巷48弄8號","121.432678333333","25.0678533333333","6501500","五股區"
"248004","677-BX","2019/07/25 20:09:22","新北市五股區成泰路一段220-1號","121.436373333333","25.0795733333333","6501500","五股區"
"248002","678-BX","2019/07/25 20:09:32","新北市五股區成泰路三段361號","121.448676666667","25.0957966666667","6501500","五股區"
"234023","9380-KE","2019/07/25 20:09:29","新北市永和區大新街73巷5號","121.517905","25.00844","6500400","永和區"
"234077","969-R7","2019/07/25 20:09:35","新北市永和區民光街20巷1號","121.51583","24.995825","6500400","永和區"
"234074","AAC-211","2019/07/25 20:09:29","新北市永和區豫溪街185號","121.52252","25.0103533333333","6500400","永和區"
"234067","AAC-212","2019/07/25 20:09:27","新北市永和區永貞路372號","121.50992","25.00684","6500400","永和區"
"234003","AAC-295","2019/07/25 20:09:32","新北市永和區中正路618-1號","121.517016666667","25.0077366666667","6500400","永和區"
"243012","AAD-798","2019/07/25 20:09:28","新北市泰山區楓江路22號","121.434056666667","25.0624116666667","6501600","泰山區"
"243010","297-R6","2019/07/25 20:09:34","新北市泰山區明志路二段136巷12號","121.42691","25.0513266666667","6501600","泰山區"
"243014","KEA-2801","2019/07/25 20:09:37","新北市泰山區明志路一段93號","121.433515","25.0641033333333","6501600","泰山區"
"243016","421-VK","2019/07/25 20:09:34","新北市泰山區明志路三段409號","121.421228333333","25.0340033333333","6501600","泰山區"
"243009","KEA-2215","2019/07/25 20:09:18","新北市泰山區泰林路二段116巷4弄1號","121.435196666667","25.059565","6501600","泰山區"
"243011","KEA-2216","2019/07/25 20:09:22","新北市泰山區明志路三段531巷2號","121.42135","25.0297233333333","6501600","泰山區"
"243015","680-BX","2019/07/25 20:09:09","新北市泰山區明志路二段93號","121.428543333333","25.0520066666667","6501600","泰山區"
"222003","436-BY","2019/07/25 20:09:37","新北市深坑區埔新街56號","121.620333333333","25.0024816666667","6501800","深坑區"
"222002","659-BX","2019/07/25 20:09:40","新北市深坑區北深路三段61號","121.607191666667","25.0014966666667","6501800","深坑區"
"231061","002-UM","2019/07/25 20:09:27","新北市新店區安興路96號","121.515146666667","24.9764183333333","6500600","新店區"
"231055","0293-UT","2019/07/25 20:09:34","新北市新店區中華路83號","121.539348333333","24.968615","6500600","新店區"
"231044","046-UY","2019/07/25 20:09:23","新北市新店區寶元路一段15巷20號","121.541953333333","24.9869883333333","6500600","新店區"
"231060","106-UY","2019/07/25 20:09:35","新北市新店區安康路三段312號","121.487208333333","24.9518183333333","6500600","新店區"
"231051","107-UY","2019/07/25 20:09:28","新北市新店區中央六街6號","121.530205","24.9743966666667","6500600","新店區"
"231049","108-UY","2019/07/25 20:09:25","新北市新店區北新路二段139巷12弄1號","121.542155","24.976055","6500600","新店區"
"231065","110-UY","2019/07/25 20:09:17","新北市新店區安祥路106巷195號","121.47424","24.96025","6500600","新店區"
"231068","187-VK","2019/07/25 20:09:21","新北市新店區中興路三段200號","121.543881666667","24.98191","6500600","新店區"
"221015","KEA-2785","2019/07/25 20:09:38","新北市汐止區建成路26號","121.664533333333","25.0726366666667","6501100","汐止區"
"231062","256-BX","2019/07/25 20:09:18","新北市新店區安康路二段85號","121.513516666667","24.96289","6500600","新店區"
"231054","260-TV","2019/07/25 20:09:25","新北市新店區檳榔路29巷2號","121.541865","24.96362","6500600","新店區"
"231042","268-BY","2019/07/25 20:09:22","新北市新店區中興路二段89號","121.547065","24.9714233333333","6500600","新店區"
"231064","278-BY","2019/07/25 20:09:31","新北市新店區安康路二段118-5號","121.512381666667","24.963165","6500600","新店區"
"231050","AAD-862","2019/07/25 20:09:26","新北市新店區北新路一段90號","121.541963333333","24.9685766666667","6500600","新店區"
"231045","355-BY","2019/07/25 20:09:36","新北市新店區北宜路二段59號","121.549195","24.9514816666667","6500600","新店區"
"231056","4715-K9","2019/07/25 20:09:23","新北市新店區中正路275巷35號","121.53668","24.9726683333333","6500600","新店區"
"231067","4772-VM","2019/07/25 20:09:26","新北市新店區溪洲路6巷80號","121.5336","24.963105","6500600","新店區"
"231052","513-UM","2019/07/25 20:09:38","新北市新店區新烏路三段寶島巷2弄3號","121.552013333333","24.89861","6500600","新店區"
"231041","619-UM","2019/07/25 20:09:37","新北市新店區中正路407號","121.534371666667","24.9775733333333","6500600","新店區"
"231063","641-BX","2019/07/25 20:09:35","新北市新店區黎明路57巷2號","121.502383333333","24.947605","6500600","新店區"
"231047","KED-0819","2019/07/25 20:09:21","新北市新店區寶橋路48號","121.54574","24.9751116666667","6500600","新店區"
"231057","720-UM","2019/07/25 20:09:28","新北市新店區百齡一路12號","121.553085","24.9324416666667","6500600","新店區"
"231059","897-TW","2019/07/25 20:09:26","新北市新店區安成街25號","121.510056666667","24.9607683333333","6500600","新店區"
"231040","898-TW","2019/07/25 20:09:36","新北市新店區中正路45號","121.544855","24.96992","6500600","新店區"
"231043","899-TW","2019/07/25 20:09:24","新北市新店區民族路160巷23號","121.536665","24.9761633333333","6500600","新店區"
"241011","013-R5","2019/07/25 20:09:27","新北市三重區三和路三段41號","121.49565","25.071195","6500200","三重區"
"241028","022-UY","2019/07/25 20:09:31","新北市三重區仁化街137號","121.494658333333","25.0574283333333","6500200","三重區"
"241008","059-VK","2019/07/25 20:09:35","新北市三重區永福街197巷35號","121.478323333333","25.0743883333333","6500200","三重區"
"241001","060-VK","2019/07/25 20:09:27","新北市三重區溪尾街45-1號","121.491186666667","25.0764283333333","6500200","三重區"
"241031","061-VK","2019/07/25 20:09:22","新北市三重區過圳街9-1號","121.488765","25.060125","6500200","三重區"
"241015","062-VK","2019/07/25 19:58:58","新北市三重區三和路二段29號","121.50109","25.06709","6500200","三重區"
"241017","063-VK","2019/07/25 20:09:36","新北市三重區大智街112號","121.4931","25.0668366666667","6500200","三重區"
"241024","065-VK","2019/07/25 20:09:29","新北市三重區力行路一段176號","121.48209","25.07151","6500200","三重區"
"241030","066-VK","2019/07/25 20:09:23","新北市三重區成功路145巷33號","121.48767","25.0531733333333","6500200","三重區"
"241002","090-VK","2019/07/25 20:09:21","新北市三重區仁忠街96號","121.492516666667","25.0799083333333","6500200","三重區"
"241003","091-VK","2019/07/25 20:09:26","新北市三重區仁愛街435號","121.490121666667","25.08212","6500200","三重區"
"241005","262-UM","2019/07/25 20:09:23","新北市三重區溪尾街327號","121.488728333333","25.08473","6500200","三重區"
"241016","266-UM","2019/07/25 20:09:38","新北市三重區大同北路97-3號","121.494358333333","25.0635616666667","6500200","三重區"
"241009","267-UM","2019/07/25 20:09:36","新北市三重區力行路二段206號","121.483591666667","25.07786","6500200","三重區"
"241018","268-UM","2019/07/25 20:09:36","新北市三重區大智街51號","121.492825","25.0677083333333","6500200","三重區"
"241032","269-UM","2019/07/25 20:09:27","新北市三重區捷運路73號","121.482891666667","25.0554866666667","6500200","三重區"
"241013","270-UM","2019/07/25 20:09:33","新北市三重區三和路三段151巷41號","121.493816666667","25.07427","6500200","三重區"
"241025","271-UM","2019/07/25 20:09:29","新北市三重區中正北路237號","121.475616666667","25.070765","6500200","三重區"
"241004","475-VK","2019/07/25 20:09:36","新北市三重區中正北路200號","121.482858333333","25.06715","6500200","三重區"
"241020","478-VK","2019/07/25 20:09:24","新北市三重區三和路三段186-2號","121.491996666667","25.0734566666667","6500200","三重區"
"241026","480-VK","2019/07/25 20:09:20","新北市三重區福德南路65巷2號","121.502493333333","25.0604666666667","6500200","三重區"
"241014","543-UM","2019/07/25 20:09:22","新北市三重區安和路39號","121.501006666667","25.0692733333333","6500200","三重區"
"241023","545-UM","2019/07/25 20:09:28","新北市三重區頂崁街221號","121.477091666667","25.06801","6500200","三重區"
"241019","KEA-2593","2019/07/25 20:09:30","新北市三重區自強路二段33巷51號","121.490791666667","25.069875","6500200","三重區"
"241006","AAD-863","2019/07/25 20:09:25","新北市三重區車路頭街148號","121.483835","25.076035","6500200","三重區"
"241022","KED-0820","2019/07/25 20:09:35","新北市三重區重陽路二段7號","121.486841666667","25.0619866666667","6500200","三重區"
"241012","941-UM","2019/07/25 20:09:23","新北市三重區河邊北街379-1號","121.501695","25.0764533333333","6500200","三重區"
"241029","942-UM","2019/07/25 20:09:21","新北市三重區光明路32巷14號","121.49175","25.0586366666667","6500200","三重區"
"241033","AAC-255","2019/07/25 20:09:38","新北市三重區中興北街62號","121.468951666667","25.051765","6500200","三重區"
"235066","003-UY","2019/07/25 20:09:17","新北市中和區水源路127巷2弄2號","121.50804","25.0039583333333","6500300","中和區"
"235039","097-UM","2019/07/25 20:09:35","新北市中和區立人街24-5號","121.518978333333","24.9941016666667","6500300","中和區"
"235065","098-UM","2019/07/25 20:09:30","新北市中和區永和路128巷47號","121.497663333333","25.00686","6500300","中和區"
"235040","150-BY","2019/07/25 20:09:37","新北市中和區保健路31號","121.508616666667","24.9977266666667","6500300","中和區"
"235055","183-VK","2019/07/25 20:09:17","新北市中和區中山路二段485號","121.482786666667","25.004965","6500300","中和區"
"247014","KEA-2869","2019/07/25 20:09:25","新北市蘆洲區中山一路289號","121.47177","25.0793883333333","6501400","蘆洲區"
"247008","KED-0682","2019/07/25 20:09:41","新北市蘆洲區中山一路166號","121.47459","25.0813983333333","6501400","蘆洲區"
"235050","4979-A6","2019/07/25 20:09:36","新北市中和區安樂路66號","121.512208333333","24.99322","6500300","中和區"
"235069","4980-A6","2019/07/25 20:09:33","新北市中和區景新街34巷16弄1號","121.50325","24.9988083333333","6500300","中和區"
"235070","558-UM","2019/07/25 20:09:35","新北市中和區建一路148號","121.488051666667","24.99886","6500300","中和區"
"235059","AAC-215","2019/07/25 20:09:22","新北市中和區圓通路335巷33弄35號","121.493813333333","24.9887783333333","6500300","中和區"
"220065","072-UY","2019/07/25 20:09:21","新北市板橋區海山路27號","121.467646666667","25.0090783333333","6500100","板橋區"
"220086","073-UY","2019/07/25 20:09:24","新北市板橋區南雅西路二段7巷25號","121.45189","25.0094933333333","6500100","板橋區"
"247004","893-R6","2019/07/25 20:09:31","新北市蘆洲區永安南路二段328巷17弄13號","121.45601","25.0838383333333","6501400","蘆洲區"
"247018","546-UM","2019/07/25 20:09:35","新北市蘆洲區民族路314巷21號","121.478095","25.0906216666667","6501400","蘆洲區"
"247024","337-TH","2019/07/25 20:09:26","新北市蘆洲區光榮路120巷22弄26號","121.465028333333","25.0867633333333","6501400","蘆洲區"
"247002","336-TH","2019/07/25 20:09:13","新北市蘆洲區永康街6號","121.459313333333","25.0859916666667","6501400","蘆洲區"
"247022","057-VK","2019/07/25 20:09:25","新北市蘆洲區三民路173號","121.47099","25.08709","6501400","蘆洲區"
"247012","056-VK","2019/07/25 20:09:35","新北市蘆洲區民族路252號","121.479113333333","25.0887083333333","6501400","蘆洲區"
"247016","053-VK","2019/07/25 20:09:37","新北市蘆洲區光華路165號","121.465145","25.0819783333333","6501400","蘆洲區"
"247020","007-UY","2019/07/25 20:09:29","新北市蘆洲區民義街68巷6號","121.47313","25.0898033333333","6501400","蘆洲區"
"247006","002-UY","2019/07/25 20:09:35","新北市蘆洲區中山二路300巷2號","121.468565","25.0769533333333","6501400","蘆洲區"
"226004","312-R5","2019/07/25 20:09:21","新北市平溪區嶺腳里嶺腳寮6號","121.747063333333","25.029315","6502400","平溪區"
"222001","KEA-2212","2019/07/25 20:09:27","新北市深坑區北深路三段218號","121.60105","25.0038","6501800","深坑區"
"208003","665-BX","2019/07/25 20:09:31","新北市金山區南勢湖29-1號","121.619488333333","25.2179283333333","6502700","金山區"
"251009","008-UM","2019/07/25 20:09:22","新北市淡水區博愛街22號","121.446208333333","25.169655","6501000","淡水區"
"251004","009-UM","2019/07/25 20:09:22","新北市淡水區民族路31巷31號","121.462296666667","25.13658","6501000","淡水區"
"251001","011-UM","2019/07/25 20:09:24","新北市淡水區淡金路二段15號","121.446395","25.189205","6501000","淡水區"
"251015","KEA-2871","2019/07/25 20:09:32","新北市淡水區泉洲厝25-2號","121.484715","25.189525","6501000","淡水區"
"251016","179-VK","2019/07/25 20:09:35","新北市淡水區番子田25-6號","121.456113333333","25.229895","6501000","淡水區"
"251008","181-VK","2019/07/25 20:09:37","新北市淡水區淡海路72巷30弄1號","121.424386666667","25.18266","6501000","淡水區"
"251013","182-VK","2019/07/25 20:09:38","新北市淡水區奎柔山路576號","121.467898333333","25.205075","6501000","淡水區"
"251010","413-VK","2019/07/25 20:09:24","新北市淡水區崁頂三路119號","121.431688333333","25.2009116666667","6501000","淡水區"
"251012","441-VK","2019/07/25 20:09:22","新北市淡水區淡金路三段224號","121.448953333333","25.20484","6501000","淡水區"
"251005","443-VK","2019/07/25 20:09:32","新北市淡水區學府路136巷49號","121.452158333333","25.1726883333333","6501000","淡水區"
"251006","561-UM","2019/07/25 20:09:24","新北市淡水區北新路141巷1號","121.449268333333","25.17904","6501000","淡水區"
"251014","577-R6","2019/07/25 20:09:26","新北市淡水區石頭厝2-1號","121.458143333333","25.2357266666667","6501000","淡水區"
"251011","650-BX","2019/07/25 20:09:26","新北市淡水區中山北路三段165號","121.445376666667","25.19684","6501000","淡水區"
"251003","673-BX","2019/07/25 20:09:35","新北市淡水區新市一路二段250號","121.443903333333","25.1828883333333","6501000","淡水區"
"207003","550-UM","2019/07/25 20:09:34","新北市萬里區大鵬里萬里加投213-3號","121.643175","25.2158483333333","6502800","萬里區"
"207004","225-TW","2019/07/25 20:09:30","新北市萬里區北基里愛二街2號","121.682456666667","25.1767583333333","6502800","萬里區"
"252002","178-VK","2019/07/25 20:09:30","新北市三芝區三民街3號","121.504081666667","25.2578566666667","6502100","三芝區"
"237012","275-BY","2019/07/25 20:09:23","新北市三峽區安溪路313號","121.37107","24.9307066666667","6500900","三峽區"
"237008","302-VK","2019/07/25 20:09:07","新北市三峽區中正路一段174巷4弄16號","121.372625","24.929055","6500900","三峽區"
"237014","433-BY","2019/07/25 20:09:28","新北市三峽區添福9號","121.371203333333","24.9077583333333","6500900","三峽區"
"237006","5529-G3","2019/07/25 20:09:35","新北市三峽區中正路二段299巷33號","121.366991666667","24.9111983333333","6500900","三峽區"
"237011","KEA-2596","2019/07/25 20:09:19","新北市三峽區中正路一段178號","121.372728333333","24.9283633333333","6500900","三峽區"
"237015","649-BX","2019/07/25 20:09:18","新北市三峽區介壽路二段138巷6號","121.39503","24.935395","6500900","三峽區"
"237005","AKY-6261","2019/07/25 20:09:38","新北市三峽區三樹路98巷171號","121.384613333333","24.9397716666667","6500900","三峽區"
"236042","KED-0685","2019/07/25 20:09:33","新北市土城區學享街72號","121.452585","24.9861216666667","6501300","土城區"
"236078","166-UM","2019/07/25 20:09:36","新北市土城區三民路49巷6號","121.419375","24.9639366666667","6501300","土城區"
"236030","253-BX","2019/07/25 20:09:38","新北市土城區中央路一段141號","121.446725","24.987985","6501300","土城區"
"236026","269-VK","2019/07/25 20:09:34","新北市土城區中央路一段267巷13號","121.445555","24.9850183333333","6501300","土城區"
"236014","270-VK","2019/07/25 20:09:31","新北市土城區德興街137號","121.455101666667","24.9916566666667","6501300","土城區"
"236038","271-VK","2019/07/25 20:09:28","","121.464321666667","24.9835216666667","6501300","土城區"
"247010","KED-0683","2019/07/25 20:09:38","新北市蘆洲區集賢路385號","121.480491666667","25.0825766666667","6501400","蘆洲區"
"236070","KEA-2877","2019/07/25 20:09:27","新北市土城區中央路三段185-6號","121.43171","24.9648733333333","6501300","土城區"
"252001","KED-0821","2019/07/25 20:09:27","新北市三芝區公正街9號","121.499758333333","25.25764","6502100","三芝區"
"236021","401-BY","2019/07/25 20:09:39","新北市土城區延吉街17號","121.472243333333","24.988755","6501300","土城區"
"236059","912-UM","2019/07/25 20:09:31","新北市土城區中央路二段231號","121.440331666667","24.9724816666667","6501300","土城區"
"236049","913-UM","2019/07/25 20:09:28","新北市土城區清水路100號","121.457646666667","24.9815916666667","6501300","土城區"
"236063","915-UM","2019/07/25 20:09:31","新北市土城區延和路12巷13號","121.464403333333","24.9874033333333","6501300","土城區"
"236055","AAC-216","2019/07/25 20:09:36","新北市土城區中華路一段166號","121.441486666667","24.9831316666667","6501300","土城區"
"242039","AAC-296","2019/07/25 20:09:38","新北市新莊區民安西路109號","121.426775","25.01842","6500500","新莊區"
"242061","986-R7","2019/07/25 20:09:26","新北市新莊區瓊林路59-38號","121.441145","25.0234383333333","6500500","新莊區"
"242002","751-BX","2019/07/25 20:09:22","新北市新莊區中正路55-4號","121.461876666667","25.0396966666667","6500500","新莊區"
"242029","615-BX","2019/07/25 20:09:35","新北市新莊區中原路303號","121.447408333333","25.0543416666667","6500500","新莊區"
"242027","613-BX","2019/07/25 20:09:05","新北市新莊區中平路310號","121.444738333333","25.052115","6500500","新莊區"
"242058","612-BX","2019/07/25 20:09:37","新北市新莊區八德街167號","121.423403333333","25.01913","6500500","新莊區"
"242046","566-BX","2019/07/25 20:09:33","新北市新莊區裕民街55巷8號","121.419325","25.024385","6500500","新莊區"
"242051","497-BY","2019/07/25 20:09:37","新北市新莊區民安西路172巷7號","121.425465","25.0159866666667","6500500","新莊區"
"242056","441-UM","2019/07/25 20:09:29","新北市新莊區新莊路649巷15弄13號","121.445603333333","25.0316083333333","6500500","新莊區"
"242004","440-UM","2019/07/25 20:09:38","新北市新莊區頭興街14號","121.465085","25.0535166666667","6500500","新莊區"
"242042","415-TV","2019/07/25 20:09:35","新北市新莊區青山路一段200-1號","121.398111666667","25.031545","6500500","新莊區"
"242011","413-TV","2019/07/25 20:09:19","新北市新莊區中信街50號","121.44938","25.0508516666667","6500500","新莊區"
"242048","400-BY","2019/07/25 20:09:30","新北市新莊區四維路182巷6號","121.42194","25.0218983333333","6500500","新莊區"
"242025","362-BY","2019/07/25 20:09:34","新北市新莊區五工三路78巷8號","121.45923","25.0653433333333","6500500","新莊區"
"242023","353-BY","2019/07/25 20:09:30","新北市新莊區化成路528號","121.466261666667","25.0527883333333","6500500","新莊區"
"242013","132-UY","2019/07/25 20:09:19","新北市新莊區幸福路618號","121.451373333333","25.04925","6500500","新莊區"
"242036","135-UY","2019/07/25 20:09:23","新北市新莊區後港一路130巷41號","121.430028333333","25.0258916666667","6500500","新莊區"
"242053","172-VK","2019/07/25 20:09:31","新北市新莊區西盛街387巷34弄5號","121.428578333333","25.012935","6500500","新莊區"
"242015","173-VK","2019/07/25 20:09:22","新北市新莊區中平路26巷24號","121.445761666667","25.0431983333333","6500500","新莊區"
"242021","175-VK","2019/07/25 20:09:21","新北市新莊區中興街43號","121.449203333333","25.03691","6500500","新莊區"
"242019","KED-0687","2019/07/25 20:09:18","新北市新莊區民樂街59號","121.457833333333","25.0417","6500500","新莊區"
"242034","348-TH","2019/07/25 20:09:30","新北市新莊區中正路318巷16號","121.446603333333","25.0360016666667","6500500","新莊區"
"242007","349-TH","2019/07/25 20:09:28","新北市新莊區福壽街184巷19號","121.459155","25.0532516666667","6500500","新莊區"
"242031","350-TH","2019/07/25 20:09:21","新北市新莊區公園一路40號","121.44341","25.0356083333333","6500500","新莊區"
"242017","351-TH","2019/07/25 20:09:28","新北市新莊區中港路370號","121.452141666667","25.047195","6500500","新莊區"
"238017","283-BY","2019/07/25 20:09:23","新北市樹林區保安街二段21號","121.416565","24.9996016666667","6500700","樹林區"
"239002","359-BY","2019/07/25 20:09:22","新北市鶯歌區大湖路94號","121.34252","24.9629466666667","6500800","鶯歌區"
"221008","489-VK","2019/07/25 20:09:32","新北市汐止區忠一街9巷7號","121.620501666667","25.073225","6501100","汐止區"
"221036","130-UY","2019/07/25 20:09:37","新北市汐止區新台五路二段41巷3號","121.66296","25.0666","6501100","汐止區"
"221012","278-VK","2019/07/25 20:09:23","新北市汐止區大同路三段324號","121.679068333333","25.071245","6501100","汐止區"
"221023","279-VK","2019/07/25 20:09:28","新北市汐止區明峰街201號","121.627931666667","25.0693583333333","6501100","汐止區"
"221032","280-BY","2019/07/25 20:09:34","新北市汐止區力行街59巷7號","121.617243333333","25.0496283333333","6501100","汐止區"
"221033","297-VK","2019/07/25 20:09:35","新北市汐止區東勢街201巷104號","121.63357","25.0429266666667","6501100","汐止區"
"221029","298-VK","2019/07/25 20:09:32","新北市汐止區樟樹一路123巷19號","121.641293333333","25.064535","6501100","汐止區"
"221021","299-VK","2019/07/25 20:09:40","新北市汐止區新台五路一段158號","121.65419","25.062425","6501100","汐止區"
"221031","353-TW","2019/07/25 20:09:33","新北市汐止區福德一路262號","121.633015","25.0644216666667","6501100","汐止區"
"221035","622-UM","2019/07/25 20:09:31","新北市汐止區長江街39巷21號","121.655243333333","25.0720666666667","6501100","汐止區"
"221025","623-UM","2019/07/25 20:09:29","新北市汐止區秀峰路77號","121.65993","25.064265","6501100","汐止區"
"221038","646-BX","2019/07/25 20:09:21","新北市汐止區大同路三段66-3號","121.668103333333","25.0771833333333","6501100","汐止區"
"221018","753-BX","2019/07/25 20:09:32","新北市汐止區茄苳路322號","121.673636666667","25.0664716666667","6501100","汐止區"
"220079","145-BY","2019/07/25 20:09:21","新北市板橋區復興街125號","121.460745","25.018005","6500100","板橋區"
"220080","200-UY","2019/07/25 20:09:27","新北市板橋區大觀路二段169巷13號","121.445975","25.0000283333333","6500100","板橋區"
"220082","610-BX","2019/07/25 20:09:27","新北市板橋區金門街182-3號","121.432713333333","24.9908883333333","6500100","板橋區"
"233003","KEC-0709","2019/07/25 19:46:26","新北市烏來區啦卡路70-1號","121.565258333333","24.8561416666667","6502900","烏來區"
"224002","257-TC","2019/07/25 20:09:22","新北市瑞芳區員山子路員山巷17-1號","121.816796666667","25.1040316666667","6501200","瑞芳區"
"220101","280-UM","2019/07/25 20:09:32","新北市板橋區雙十路二段47巷13號","121.475848333333","25.0258216666667","6500100","板橋區"
"220083","286-VK","2019/07/25 20:09:26","新北市板橋區僑中二街12巷18號","121.446028333333","25.0108266666667","6500100","板橋區"
"220081","287-VK","2019/07/25 20:09:37","新北市板橋區僑中一街80巷3弄1號","121.447663333333","25.0120933333333","6500100","板橋區"
"220061","295-UM","2019/07/25 20:09:19","新北市板橋區館前東路1號","121.459608333333","25.0071533333333","6500100","板橋區"
"220084","296-UM","2019/07/25 20:09:30","新北市板橋區溪崑二街112巷18號","121.425953333333","24.9889116666667","6500100","板橋區"
"242044","281-VK","2019/07/25 20:09:33","新北市新莊區萬壽路一段21巷19號","121.41074","25.0203216666667","6500500","新莊區"
"220075","303-R5","2019/07/25 20:09:32","新北市板橋區金華街10巷48弄62號","121.459466666667","25.0202566666667","6500100","板橋區"
"220062","305-R5","2019/07/25 20:09:30","新北市板橋區萬安街85巷1弄11號","121.484428333333","25.02505","6500100","板橋區"
"242009","280-VK","2019/07/25 20:09:35","新北市新莊區昌盛街35巷4弄1號","121.45419","25.0506616666667","6500500","新莊區"
"220035","560-BX","2019/07/25 20:09:39","新北市板橋區新生街53巷1弄10號","121.457005","25.0215216666667","6500100","板橋區"
"220103","561-BX","2019/07/25 20:09:30","新北市板橋區漢生東路45號","121.46575","25.0167916666667","6500100","板橋區"
"220074","630-UY","2019/07/25 20:09:39","新北市板橋區明德街22號","121.460173333333","25.0108533333333","6500100","板橋區"
"220077","687-BX","2019/07/25 20:09:34","新北市板橋區僑中一街102巷3弄20號","121.446031666667","25.01253","6500100","板橋區"
"220054","741-BX","2019/07/25 20:09:29","新北市板橋區實踐路93巷74號","121.466633333333","25.0048666666667","6500100","板橋區"
"220055","827-TW","2019/07/25 20:09:22","新北市板橋區仁愛路64號","121.459888333333","24.999425","6500100","板橋區"
"220067","829-TW","2019/07/25 20:09:22","新北市板橋區中山路一段206巷77號","121.471863333333","25.013185","6500100","板橋區"
"220073","985-R7","2019/07/25 20:09:36","新北市板橋區南雅西路二段141號","121.452213333333","25.0116333333333","6500100","板橋區"
"220064","AAC-253","2019/07/25 20:09:32","新北市板橋區長安街331巷43號","121.473455","25.012985","6500100","板橋區"
"235068","KEA-2873","2019/07/25 20:09:21","新北市中和區福祥路85巷2弄3號","121.498603333333","25.0059316666667","6500300","中和區"
