"lineid","car","time","location","longitude","latitude","cityid","cityname"
"251004","180-VK","2019/07/25 22:29:25","新北市淡水區民族路33號","121.462213333333","25.135775","6501000","淡水區"
"251008","181-VK","2019/07/25 22:29:37","新北市淡水區學府路104號","121.449893333333","25.171785","6501000","淡水區"
"251010","413-VK","2019/07/25 22:29:23","新北市淡水區沙崙路200號","121.424701666667","25.183915","6501000","淡水區"
"251007","442-VK","2019/07/25 22:29:25","新北市淡水區北新路180號","121.449496666667","25.1787016666667","6501000","淡水區"
"251005","443-VK","2019/07/25 22:29:31","新北市淡水區崁頂115號","121.432795","25.2045583333333","6501000","淡水區"
"251011","650-BX","2019/07/25 22:29:26","新北市淡水區水碓街7號","121.443168333333","25.1771083333333","6501000","淡水區"
