"lineid","car","time","location","longitude","latitude","cityid","cityname"
"232008","291-BY","2019/07/26 07:49:28","新北市坪林區石43-1號","121.711543333333","24.8993216666667","6502000","坪林區"
"244004","248-BX","2019/07/26 07:49:35","新北市林口區下福里3號","121.317145","25.1086683333333","6501700","林口區"
"231007","189-VK","2019/07/26 07:49:08","新北市新店區安一路一段1-1號","121.520003333333","24.9611783333333","6500600","新店區"
"231009","192-VK","2019/07/26 07:49:34","新北市新店區安一路一段1-1號","121.519745","24.9613066666667","6500600","新店區"
"231050","AAD-862","2019/07/26 07:49:35","新北市新店區新和街33號","121.518975","24.9846483333333","6500600","新店區"
"226001","8452-VL","2019/07/26 07:49:31","新北市平溪區平湖里大厝1號","121.78016","25.0385783333333","6502400","平溪區"
"226006","AGD-0702","2019/07/26 07:49:28","新北市平溪區新寮里頂寮子4號","121.773786666667","25.051905","6502400","平溪區"
"223003","205-TH","2019/07/26 07:49:26","新北市石碇區樟空子2號","121.664423333333","24.9620416666667","6501900","石碇區"
"223001","592-UM","2019/07/26 07:49:33","新北市石碇區四分子6-9號","121.662616666667","24.9630483333333","6501900","石碇區"
"223004","660-BX","2019/07/26 07:49:36","新北市石碇區靜安路一段29號","121.642385","25.0116133333333","6501900","石碇區"
"223007","661-BX","2019/07/26 07:43:29","新北市石碇區靜安路一段337號","121.698926666667","25.0144716666667","6501900","石碇區"
"227003","282-VK","2019/07/26 07:49:34","新北市雙溪區雙溪里太平路54號","121.86474","25.0354716666667","6502500","雙溪區"
"237014","760-BX","2019/07/26 07:48:35","新北市三峽區紫和路48-1號","121.41311","24.9101966666667","6500900","三峽區"
"226005","ANY-2373","2019/07/26 07:49:24","新北市平溪區嶺腳里中華街15號","121.7398","25.02524","6502400","平溪區"
