"lineid","car","time","location","longitude","latitude","cityid","cityname"
"232005","291-BY","2019/10/21 08:43:25","新北市坪林區石10-3號","121.70925","24.9084583333333","6502000","坪林區"
"244006","080-UY","2019/10/21 08:43:23","新北市林口區竹林路161號","121.38877","25.0799633333333","6501700","林口區"
"244018","402-UM","2019/10/21 08:43:23","新北市林口區忠孝路512巷45號","121.3716","25.068265","6501700","林口區"
"244012","KEA-2802","2019/10/21 08:43:13","新北市林口區中山路202號","121.388528333333","25.0790616666667","6501700","林口區"
"244022","483-VK","2019/10/21 08:43:18","新北市林口區東明一街35巷17號","121.392731666667","25.0716366666667","6501700","林口區"
"244016","485-VK","2019/10/21 08:43:19","新北市林口區忠孝路504巷2號","121.37038","25.06987","6501700","林口區"
"244008","656-BX","2019/10/21 08:43:28","新北市林口區佳林路56巷3號","121.385801666667","25.081725","6501700","林口區"
"244001","657-BX","2019/10/21 08:43:15","新北市林口區嘉寶里3-1號","121.364751666667","25.0952366666667","6501700","林口區"
"244002","658-BX","2019/10/21 08:43:17","新北市林口區仁愛路二段201-1號","121.377411666667","25.0747","6501700","林口區"
"244010","701-TV","2019/10/21 08:43:19","新北市林口區粉寮路一段41號","121.396506666667","25.077415","6501700","林口區"
"244024","837-TS","2019/10/21 08:43:25","新北市林口區文化北路一段279號","121.359328333333","25.07213","6501700","林口區"
"244020","838-TS","2019/10/21 08:43:23","新北市林口區自強二街1號","121.397426666667","25.0785183333333","6501700","林口區"
"222004","289-BY","2019/10/21 08:43:30","台北市南港區南深路63號","121.623526666667","25.0218733333333","6501800","深坑區"
"231031","188-VK","2019/10/21 08:43:14","新北市新店區安民街121巷19號","121.51517","24.9686966666667","6500600","新店區"
"231007","189-VK","2019/10/21 08:43:14","新北市新店區新潭路二段66號","121.520235","24.9252366666667","6500600","新店區"
"231008","192-VK","2019/10/21 08:43:26","新北市新店區新烏路三段51號","121.554186666667","24.9043333333333","6500600","新店區"
"223003","205-TH","2019/10/21 08:43:13","新北市石碇區北宜路六段柑腳巷2號","121.659565","24.9380066666667","6501900","石碇區"
"223008","406-TH","2019/10/21 08:43:15","新北市石碇區番子坑38-9號","121.678098333333","25.0110883333333","6501900","石碇區"
"223001","592-UM","2019/10/21 08:43:21","新北市石碇區北宜路六段柑腳巷3-1號","121.659085","24.93785","6501900","石碇區"
"223004","660-BX","2019/10/21 08:43:25","新北市石碇區崩山15-2號","121.675565","24.9677933333333","6501900","石碇區"
"223007","661-BX","2019/10/21 08:43:14","新北市石碇區十八重溪67號","121.673528333333","25.013295","6501900","石碇區"
"223005","677-TV","2019/10/21 08:43:20","新北市石碇區崩山33-1號","121.677195","24.9654466666667","6501900","石碇區"
"227003","282-VK","2019/10/21 08:43:26","新北市雙溪區外柑里四分子2號","121.835075","25.0011466666667","6502500","雙溪區"
"252006","073-UM","2019/10/21 08:43:22","新北市三芝區後厝里北勢子7-10號","121.477698333333","25.254205","6502100","三芝區"
"252004","249-BX","2019/10/21 08:43:26","新北市三芝區興華里楓子林45-16號","121.498258333333","25.2055966666667","6502100","三芝區"
"237013","760-BX","2019/10/21 08:43:25","新北市三峽區有木2-2號","121.418308333333","24.8657616666667","6500900","三峽區"
"242040","AAC-296","2019/10/21 08:43:29","新北市新莊區天祥街79號","121.415551666667","25.02927","6500500","新莊區"
"242059","986-R7","2019/10/21 08:43:15","新北市新莊區新樹路115號","121.437296666667","25.02661","6500500","新莊區"
"242003","751-BX","2019/10/21 08:43:14","新北市新莊區化成路11巷83號","121.46236","25.043505","6500500","新莊區"
"242024","705-TV","2019/10/21 08:43:21","新北市新莊區五工二路94巷16號","121.459973333333","25.0672566666667","6500500","新莊區"
"242028","615-BX","2019/10/21 08:43:25","新北市新莊區中榮街152巷47號","121.445588333333","25.05372","6500500","新莊區"
"242026","613-BX","2019/10/21 08:43:22","新北市新莊區幸福路819號","121.445518333333","25.0489783333333","6500500","新莊區"
"242057","612-BX","2019/10/21 08:43:26","新北市新莊區中正路899巷2號","121.411288333333","25.021665","6500500","新莊區"
"242047","566-BX","2019/10/21 08:43:30","新北市新莊區民安路37巷7號","121.42396","25.0269616666667","6500500","新莊區"
"242052","497-BY","2019/10/21 08:43:12","新北市新莊區民安西路327巷4弄2號","121.427983333333","25.01133","6500500","新莊區"
"242012","442-UM","2019/10/21 08:43:20","新北市新莊區中華路二段87號","121.452466666667","25.0491766666667","6500500","新莊區"
"242001","441-UM","2019/10/21 08:43:22","新北市新莊區新泰路69號","121.44939","25.0343116666667","6500500","新莊區"
"242006","440-UM","2019/10/21 08:43:16","新北市新莊區思源路593巷8號","121.459126666667","25.0596433333333","6500500","新莊區"
"242043","415-TV","2019/10/21 08:43:26","新北市新莊區鳳山街54號","121.414043333333","25.0257616666667","6500500","新莊區"
"242049","400-BY","2019/10/21 08:43:29","新北市新莊區西盛街178號","121.428191666667","25.0188466666667","6500500","新莊區"
"242022","353-BY","2019/10/21 08:43:28","新北市新莊區化成路354號","121.465828333333","25.0492683333333","6500500","新莊區"
"242014","132-UY","2019/10/21 08:43:13","新北市新莊區中平路198巷11號","121.445701666667","25.0485883333333","6500500","新莊區"
"242038","135-UY","2019/10/21 08:43:22","新北市新莊區民安路299巷55弄5號","121.429355","25.0238016666667","6500500","新莊區"
"242016","173-VK","2019/10/21 08:43:25","新北市新莊區中港路397號","121.451795","25.0468083333333","6500500","新莊區"
"242030","175-VK","2019/10/21 08:43:13","新北市新莊區新泰路255巷62號","121.443628333333","25.0395033333333","6500500","新莊區"
"242055","176-VK","2019/10/21 08:43:13","新北市新莊區豐年街53巷24號","121.447063333333","25.0317433333333","6500500","新莊區"
"242020","KED-0687","2019/10/21 08:43:23","新北市新莊區新泰路153號","121.447936666667","25.0368566666667","6500500","新莊區"
"242018","346-TH","2019/10/21 08:43:14","新北市新莊區民生街15巷3號","121.45559","25.042465","6500500","新莊區"
"242045","347-TH","2019/10/21 08:43:18","新北市新莊區中正路829巷22弄37號","121.420808333333","25.0268433333333","6500500","新莊區"
"242035","348-TH","2019/10/21 08:43:16","新北市新莊區後港一路49巷3弄11號","121.425188333333","25.02667","6500500","新莊區"
"242008","349-TH","2019/10/21 08:43:23","新北市新莊區昌平街71巷27號","121.453293333333","25.05341","6500500","新莊區"
"242033","350-TH","2019/10/21 08:43:16","新北市新莊區公園一路126號","121.445696666667","25.0380483333333","6500500","新莊區"
"233003","KEA-2870","2019/10/21 08:42:09","新北市烏來區屯鹿2號","121.512778333333","24.810085","6502900","烏來區"
"242010","280-VK","2019/10/21 08:43:17","新北市新莊區中港路570號","121.451463333333","25.0533016666667","6500500","新莊區"
