"lineid","car","time","location","longitude","latitude","cityid","cityname"
"244018","402-UM","2019/10/21 09:43:23","新北市林口區麗園二街1巷7-2號","121.378266666667","25.070175","6501700","林口區"
"244022","483-VK","2019/10/21 09:43:18","新北市林口區佳林路221號","121.384091666667","25.0767933333333","6501700","林口區"
"244008","656-BX","2019/10/21 09:43:28","新北市林口區台電新村1號","121.387821666667","25.085345","6501700","林口區"
"244002","658-BX","2019/10/21 09:42:57","新北市林口區後坑14-2號","121.36","25.1225183333333","6501700","林口區"
"222004","289-BY","2019/10/21 09:43:30","新北市深坑區北深路一段274號","121.628918333333","25.0087466666667","6501800","深坑區"
"231031","188-VK","2019/10/21 09:43:21","新北市新店區光明街111號","121.539215","24.9613566666667","6500600","新店區"
"231007","189-VK","2019/10/21 09:43:14","新北市新店區新烏路三段215巷19號","121.506288333333","24.9035233333333","6500600","新店區"
"231008","192-VK","2019/10/21 09:43:26","新北市新店區平廣路一段151號","121.5222","24.8912683333333","6500600","新店區"
"223001","592-UM","2019/10/21 09:43:21","新北市石碇區北宜路四段3-1號","121.612356666667","24.9585233333333","6501900","石碇區"
"227003","282-VK","2019/10/21 09:31:46","新北市雙溪區泰平里溪尾寮6號","121.820853333333","24.9616116666667","6502500","雙溪區"
"252004","249-BX","2019/10/21 09:43:26","新北市三芝區店子里店子112-4號","121.51047","25.2096483333333","6502100","三芝區"
"252006","AAC-283","2019/10/21 09:43:21","新北市三芝區新庄里新庄子95-10號","121.514065","25.2746683333333","6502100","三芝區"
"237013","760-BX","2019/10/21 09:43:25","新北市三峽區金敏26號","121.393413333333","24.8783116666667","6500900","三峽區"
"242059","986-R7","2019/10/21 09:43:15","新北市新莊區新樹路286號","121.432631666667","25.0124216666667","6500500","新莊區"
"242003","751-BX","2019/10/21 09:43:15","新北市新莊區化成路403巷31號","121.463585","25.0586666666667","6500500","新莊區"
"242026","613-BX","2019/10/21 09:43:22","新北市新莊區新泰路357巷3弄57號","121.442075","25.0390733333333","6500500","新莊區"
"242057","612-BX","2019/10/21 09:43:16","新北市新莊區四維路123-1號","121.422965","25.0228966666667","6500500","新莊區"
"242047","566-BX","2019/10/21 09:43:26","新北市新莊區中正路743號","121.422456666667","25.0288133333333","6500500","新莊區"
"242001","441-UM","2019/10/21 09:43:21","新北市新莊區中港路五守新村2號","121.454995","25.0385683333333","6500500","新莊區"
"242043","415-TV","2019/10/21 09:43:26","新北市新莊區中正路新建巷15弄6號","121.41444","25.022275","6500500","新莊區"
"242030","175-VK","2019/10/21 09:43:09","新北市新莊區中正路508巷18號","121.438605","25.0349","6500500","新莊區"
"242055","176-VK","2019/10/21 09:43:12","新北市新莊區瓊泰路94巷12號","121.443703333333","25.0293933333333","6500500","新莊區"
"242035","348-TH","2019/10/21 09:43:16","新北市新莊區後港一路192號","121.432498333333","25.028165","6500500","新莊區"
"242008","349-TH","2019/10/21 09:43:23","新北市樹林區八德街262-1號","121.41724","24.97198","6500500","新莊區"
"233003","KEA-2870","2019/10/21 09:43:29","新北市烏來區屯鹿92-1號","121.504366666667","24.8008833333333","6502900","烏來區"
