"lineid","car","time","location","longitude","latitude","cityid","cityname"
"234044","148-BY","2019/10/21 13:29:23","新北市永和區秀朗路二段241號","121.526425","24.9997633333333","6500400","永和區"
"234078","298-R6","2019/10/21 13:29:19","新北市永和區福和路7巷16弄1號","121.525425","25.0070066666667","6500400","永和區"
"234036","336-UY","2019/10/21 13:29:27","新北市永和區民樂街30巷1號","121.52758","25.0010466666667","6500400","永和區"
"234062","337-UY","2019/10/21 13:29:28","新北市永和區得和路243巷20號","121.520638333333","25.0009283333333","6500400","永和區"
"234084","338-UY","2019/10/21 13:29:12","新北市永和區林森路80號","121.52342","25.0039533333333","6500400","永和區"
"234068","552-UM","2019/10/21 13:29:14","新北市永和區警光街12號","121.519775","25.0095466666667","6500400","永和區"
"234015","745-BX","2019/10/21 13:29:15","新北市永和區環河西路一段51巷1號","121.51417","25.01815","6500400","永和區"
"234028","746-BX","2019/10/21 13:29:24","新北市永和區民族街81巷62號","121.52042","24.9963566666667","6500400","永和區"
"234052","KEA-2590","2019/10/21 13:29:12","新北市永和區復興街23號","121.516171666667","25.0130983333333","6500400","永和區"
"234005","KED-0605","2019/10/21 13:29:13","新北市永和區中山路一段224號","121.50807","25.0082566666667","6500400","永和區"
"234012","KEA-2591","2019/10/21 13:29:17","新北市永和區中山路一段184巷9弄19號","121.508138333333","25.0089133333333","6500400","永和區"
"234060","AAD-866","2019/10/21 13:29:28","新北市永和區中正路435號","121.51717","25.0051283333333","6500400","永和區"
"234040","862-TW","2019/10/21 13:29:21","新北市永和區中和路519巷7號","121.510695","25.0029966666667","6500400","永和區"
"234048","863-TW","2019/10/21 13:29:18","新北市永和區信義路120號","121.512395","25.0146883333333","6500400","永和區"
"234025","9371-KE","2019/10/21 13:29:25","新北市永和區中山路一段17巷4弄14號","121.513176666667","25.01014","6500400","永和區"
"234010","9373-KE","2019/10/21 13:29:21","新北市永和區仁愛路141巷30弄1號","121.51174","25.0115866666667","6500400","永和區"
"248016","026-BX","2019/10/21 13:29:17","新北市五股區凌雲路一段83巷6號","121.450366666667","25.10118","6501500","五股區"
"248005","077-UY","2019/10/21 13:29:11","新北市五股區中興路一段32號","121.468616666667","25.0724666666667","6501500","五股區"
"248007","KED-0815","2019/10/21 13:29:22","新北市五股區更洲路32巷8弄14號","121.459228333333","25.0796383333333","6501500","五股區"
"248011","247-BX","2019/10/21 13:29:19","新北市五股區御史路52巷1號","121.441896666667","25.0937183333333","6501500","五股區"
"248003","677-BX","2019/10/21 13:29:12","新北市五股區六合街19號","121.43114","25.088675","6501500","五股區"
"248001","678-BX","2019/10/21 13:29:14","新北市五股區西雲路168號","121.446876666667","25.0947133333333","6501500","五股區"
"248009","682-TV","2019/10/21 13:29:21","新北市五股區明德路8號","121.433335","25.0715833333333","6501500","五股區"
"234022","9380-KE","2019/10/21 13:29:19","新北市永和區竹林路91巷70號","121.522","25.01359","6500400","永和區"
"234076","969-R7","2019/10/21 13:29:25","新北市永和區智光街44號","121.517143333333","24.9980283333333","6500400","永和區"
"234072","AAC-211","2019/10/21 13:29:17","新北市永和區光復街32號","121.516611666667","25.0174416666667","6500400","永和區"
"234066","AAC-212","2019/10/21 13:29:23","新北市永和區永貞路390號","121.509436666667","25.007375","6500400","永和區"
"234001","AAC-295","2019/10/21 13:29:11","新北市永和區永和路一段118號","121.513971666667","25.0079133333333","6500400","永和區"
"244001","657-BX","2019/10/21 13:29:18","新北市林口區寶斗厝坑57號","121.340883333333","25.116625","6501700","林口區"
"243002","297-R6","2019/10/21 13:29:22","新北市泰山區辭修路48號","121.428618333333","25.057125","6501600","泰山區"
"231030","002-UM","2019/10/21 13:29:21","新北市新店區安華路28-1號","121.519813333333","24.960965","6500600","新店區"
"231024","0291-UT","2019/10/21 13:29:14","新北市新店區中正路128巷11號","121.542576666667","24.9720016666667","6500600","新店區"
"231005","046-UY","2019/10/21 13:29:17","新北市新店區北新路一段90號","121.54191","24.968525","6500600","新店區"
"231029","106-UY","2019/10/21 13:29:22","新北市新店區安華路28-1號","121.519683333333","24.9608433333333","6500600","新店區"
"231018","107-UY","2019/10/21 13:29:19","新北市新店區中央路208號","121.53026","24.9738866666667","6500600","新店區"
"231013","108-UY","2019/10/21 13:29:22","新北市新店區環河路114巷4-1號","121.537056666667","24.9648866666667","6500600","新店區"
"231036","110-UY","2019/10/21 13:29:12","新北市新店區安祥路160號","121.477668333333","24.9562533333333","6500600","新店區"
"231031","256-BX","2019/10/21 13:29:25","新北市新店區安康路一段355-3號","121.519728333333","24.9624433333333","6500600","新店區"
"231023","260-TV","2019/10/21 13:29:18","新北市新店區新店路13號","121.540311666667","24.9529183333333","6500600","新店區"
"231003","268-BY","2019/10/21 13:29:16","新北市新店區中興路二段121巷1號","121.547521666667","24.9720066666667","6500600","新店區"
"231035","278-BY","2019/10/21 13:29:24","新北市新店區安康路一段355號","121.519848333333","24.9627683333333","6500600","新店區"
"231014","AAD-862","2019/10/21 13:29:23","新北市新店區新烏路一段8號","121.547186666667","24.9517366666667","6500600","新店區"
"231006","355-BY","2019/10/21 13:29:16","新北市新店區安華路28-1號","121.519045","24.960915","6500600","新店區"
"231038","3712-VJ","2019/10/21 13:29:12","新北市新店區安華路28-1號","121.519243333333","24.9606233333333","6500600","新店區"
"231027","3713-VJ","2019/10/21 13:29:22","新北市新店區環河路27號","121.53728","24.961305","6500600","新店區"
"231025","4715-K9","2019/10/21 13:29:21","新北市新店區中央五街38號","121.528523333333","24.9749933333333","6500600","新店區"
"231019","512-UM","2019/10/21 13:29:15","新北市新店區環河路29巷1號","121.536573333333","24.9612433333333","6500600","新店區"
"231001","617-UM","2019/10/21 13:29:11","新北市新店區安康路一段235號","121.525155","24.9632333333333","6500600","新店區"
"231002","619-UM","2019/10/21 13:28:58","新北市新店區安康路一段107-2號","121.528673333333","24.9617766666667","6500600","新店區"
"231034","641-BX","2019/10/21 13:29:23","新北市新店區安華路28-1號","121.519561666667","24.9605333333333","6500600","新店區"
"231011","KED-0819","2019/10/21 13:29:22","新北市新店區北新路一段91號","121.53876","24.9618183333333","6500600","新店區"
"231010","719-UM","2019/10/21 13:29:17","新北市新店區自由街2-1號","121.535663333333","24.975585","6500600","新店區"
"231028","897-TW","2019/10/21 13:29:27","新北市新店區安華路30巷1號","121.519668333333","24.9598383333333","6500600","新店區"
"231004","899-TW","2019/10/21 13:29:22","新北市新店區安康路一段359-27號","121.518603333333","24.96102","6500600","新店區"
"231037","AKT-0513","2019/10/21 13:29:12","新北市新店區薏仁坑路31號","121.494835","24.9613483333333","6500600","新店區"
"235030","003-UY","2019/10/21 13:29:21","新北市中和區中山路二段120號","121.502691666667","25.0037133333333","6500300","中和區"
"235027","006-UY","2019/10/21 13:29:21","新北市中和區連城路347巷2弄3-3號","121.488068333333","24.9958183333333","6500300","中和區"
"235020","096-UM","2019/10/21 13:29:20","新北市中和區新民街93號","121.480993333333","25.0083566666667","6500300","中和區"
"235029","098-UM","2019/10/21 13:29:26","新北市中和區中山路二段64巷16弄2號","121.503275","25.0057916666667","6500300","中和區"
"235004","150-BY","2019/10/21 13:29:13","新北市中和區安平路59號","121.509438333333","24.9951883333333","6500300","中和區"
"235022","151-BY","2019/10/21 13:29:20","新北市中和區圓通路369巷55弄10號","121.491083333333","24.9831183333333","6500300","中和區"
"235019","183-VK","2019/10/21 13:29:19","新北市中和區莒光路120巷13弄2號","121.471655","25.0013966666667","6500300","中和區"
"235002","185-VK","2019/10/21 13:29:15","新北市中和區自立路26號","121.52255","24.993","6500300","中和區"
"235031","255-BX","2019/10/21 13:29:12","新北市中和區新生街220巷1弄9號","121.483378333333","24.9981666666667","6500300","中和區"
"235008","293-VK","2019/10/21 13:29:26","新北市中和區復興路301巷17號","121.501636666667","24.9898716666667","6500300","中和區"
"235036","301-VK","2019/10/21 13:29:19","新北市中和區連城路189號","121.495071666667","24.99811","6500300","中和區"
"235007","352-BY","2019/10/21 13:29:29","新北市中和區景平路225號","121.510326666667","24.99272","6500300","中和區"
"235006","KEA-2878","2019/10/21 13:29:25","新北市中和區大仁街20巷25弄2號","121.51867","24.993465","6500300","中和區"
"247015","KEA-2869","2019/10/21 13:29:13","新北市五股區中興路三段163號","121.449248333333","25.0807616666667","6501400","蘆洲區"
"235014","4979-A6","2019/10/21 13:29:12","新北市中和區景新街410巷18弄1號","121.512096666667","24.98927","6500300","中和區"
"235009","551-UM","2019/10/21 13:29:28","新北市中和區復興路1號","121.506395","24.98955","6500300","中和區"
"235034","558-UM","2019/10/21 13:29:16","新北市中和區安和路159號","121.50618","24.9973433333333","6500300","中和區"
"235024","KED-0823","2019/10/21 13:29:12","新北市中和區中山路三段183號","121.472693333333","25.0061866666667","6500300","中和區"
"235018","640-BX","2019/10/21 13:29:25","新北市中和區莒光路140-1號","121.472553333333","25.0011533333333","6500300","中和區"
"235035","647-TV","2019/10/21 13:29:23","新北市中和區環中路126號","121.482025","25.0126116666667","6500300","中和區"
"235011","732-UM","2019/10/21 13:29:16","新北市中和區南山路499號","121.508025","24.9876983333333","6500300","中和區"
"235021","801-TS","2019/10/21 13:29:26","新北市中和區員山路327巷21號","121.480571666667","25.0016766666667","6500300","中和區"
"235005","802-TS","2019/10/21 13:29:22","新北市中和區中和路324巷6弄2號","121.509745","25.000435","6500300","中和區"
"235016","805-TS","2019/10/21 13:29:29","新北市中和區興南路二段96號","121.505205","24.9842233333333","6500300","中和區"
"235012","896-TW","2019/10/21 13:29:15","新北市中和區中正路521號","121.488158333333","24.99356","6500300","中和區"
"235017","900-TW","2019/10/21 13:29:10","新北市中和區連城路607號","121.478275","24.9930733333333","6500300","中和區"
"235028","911-UM","2019/10/21 13:29:27","新北市中和區連城路109巷83號","121.497501666667","24.99751","6500300","中和區"
"235015","157-BY","2019/10/21 13:29:21","新北市中和區興南路二段114巷10弄38號","121.504068333333","24.98511","6500300","中和區"
"235001","AAC-213","2019/10/21 13:29:10","新北市中和區景平路87號","121.517818333333","24.991565","6500300","中和區"
"235023","AAC-215","2019/10/21 13:29:12","新北市中和區員山路36巷16-3號","121.484995","24.9912716666667","6500300","中和區"
"220013","072-UY","2019/10/21 13:29:19","新北市板橋區南雅南路二段144巷1號","121.451495","24.9961166666667","6500100","板橋區"
"220034","073-UY","2019/10/21 13:29:27","新北市板橋區華東街1-10號","121.448246666667","24.9950683333333","6500100","板橋區"
"220017","AAD-861","2019/10/21 13:29:27","新北市板橋區華東街1-10號","121.448361666667","24.995125","6500100","板橋區"
"220016","120-SR","2019/10/21 13:29:28","新北市板橋區文聖街207-1號","121.479933333333","25.0263266666667","6500100","板橋區"
"247013","056-VK","2019/10/21 13:29:18","新北市五股區中興路三段2巷10號","121.449275","25.081025","6501400","蘆洲區"
"247001","001-UY","2019/10/21 13:29:20","新北市五股區中興路三段163號","121.44925","25.0808516666667","6501400","蘆洲區"
"235013","251-BX","2019/10/21 13:29:28","新北市中和區景安路117號","121.505875","24.9963383333333","6500300","中和區"
"253003","6232-TK","2019/10/21 13:29:17","新北市石門區內石門50-1號","121.571573333333","25.2625216666667","6502200","石門區"
"253004","6251-TK","2019/10/21 13:28:43","新北市石門區竹子湖11號","121.618015","25.25786","6502200","石門區"
"253002","637-UY","2019/10/21 13:29:21","新北市石門區九芎林5-3號","121.559818333333","25.2699666666667","6502200","石門區"
"253001","KEC-0718","2019/10/21 13:29:13","新北市三芝區新庄里新庄子96號","121.51546","25.27574","6502200","石門區"
"207002","749-BX","2019/10/21 13:29:17","新北市萬里區崁腳里崁腳路166號","121.64512","25.155945","6502800","萬里區"
"252005","073-UM","2019/10/21 13:29:18","新北市三芝區圓山里八連溪頭3號","121.524426666667","25.22299","6502100","三芝區"
"207001","662-BX","2019/10/21 13:28:05","新北市萬里區龜吼里石角路43號","121.6844","25.192375","6502800","萬里區"
"220027","145-BY","2019/10/21 13:29:20","新北市板橋區華東街1-10號","121.448326666667","24.9951116666667","6500100","板橋區"
"220028","200-UY","2019/10/21 13:29:14","新北市板橋區華東街1-9號","121.448113333333","24.9948833333333","6500100","板橋區"
"220030","610-BX","2019/10/21 13:29:13","新北市板橋區華東街1-9號","121.448246666667","24.9949233333333","6500100","板橋區"
"220004","276-BY","2019/10/21 13:29:26","新北市板橋區華東街1-9號","121.4481","24.9949283333333","6500100","板橋區"
"220020","277-BY","2019/10/21 13:29:24","新北市板橋區華東街1-10號","121.448351666667","24.9950983333333","6500100","板橋區"
"220043","283-UM","2019/10/21 13:29:21","新北市板橋區民生路二段120號","121.470405","25.0195133333333","6500100","板橋區"
"220031","286-VK","2019/10/21 13:29:24","新北市板橋區華東街1-10號","121.448345","24.995155","6500100","板橋區"
"220029","287-VK","2019/10/21 13:29:20","新北市板橋區華東街1-10號","121.448233333333","24.9950383333333","6500100","板橋區"
"220032","296-UM","2019/10/21 13:29:23","新北市板橋區華東街1-9號","121.448156666667","24.9949633333333","6500100","板橋區"
"220023","303-R5","2019/10/21 13:29:22","新北市板橋區華東街1-10號","121.448241666667","24.9949733333333","6500100","板橋區"
"220104","560-BX","2019/10/21 13:29:15","新北市板橋區南雅東路104號","121.453461666667","25.0080016666667","6500100","板橋區"
"220051","630-UY","2019/10/21 13:29:09","新北市板橋區民生路二段188號","121.470066666667","25.0202616666667","6500100","板橋區"
"220005","686-BX","2019/10/21 13:29:27","新北市板橋區大觀路二段11-12號","121.448751666667","24.9962066666667","6500100","板橋區"
"220025","833-TW","2019/10/21 13:29:10","新北市板橋區大觀路二段265巷7-7號","121.443951666667","24.9946116666667","6500100","板橋區"
"220022","895-R6","2019/10/21 13:29:13","新北市板橋區南雅南路二段144巷14號","121.450908333333","24.995785","6500100","板橋區"
"220021","985-R7","2019/10/21 13:29:25","新北市板橋區四川路二段140巷18號","121.44931","24.9933416666667","6500100","板橋區"
"220046","AAC-210","2019/10/21 13:29:10","新北市板橋區民生路二段161巷7號","121.470215","25.01967","6500100","板橋區"
"220012","AAC-253","2019/10/21 13:29:16","新北市板橋區華東街260號","121.45264","25.0014083333333","6500100","板橋區"
"235032","KEA-2873","2019/10/21 13:29:12","新北市中和區圓通路273號","121.495708333333","24.993065","6500300","中和區"
"235025","KEA-2875","2019/10/21 13:29:26","新北市中和區民享街92巷20號","121.474226666667","24.999775","6500300","中和區"
"235026","KEA-2876","2019/10/21 13:29:15","新北市中和區中山路二段306號","121.495823333333","25.0024166666667","6500300","中和區"
