"lineid","car","time","location","longitude","latitude","cityid","cityname"
"234062","337-UY","2019/10/21 14:43:28","新北市中和區永和路220巷32號","121.492271666667","25.00824","6500400","永和區"
"234028","746-BX","2019/10/21 14:43:24","新北市五股區成泰路三段318-1號","121.450275","25.0964083333333","6500400","永和區"
"234025","9371-KE","2019/10/21 14:43:25","新北市永和區雙和街11號","121.509591666667","25.0017966666667","6500400","永和區"
"248013","025-BX","2019/10/21 14:43:12","新北市五股區五福路42巷18號","121.434525","25.0898233333333","6501500","五股區"
"248016","026-BX","2019/10/21 14:43:17","新北市五股區成泰路三段577巷80弄25號","121.449628333333","25.10461","6501500","五股區"
"248007","KED-0815","2019/10/21 14:43:21","新北市五股區中興路二段63巷17號","121.4602","25.0752833333333","6501500","五股區"
"248011","247-BX","2019/10/21 14:43:19","新北市五股區工商路193號","121.433575","25.0868933333333","6501500","五股區"
"248003","677-BX","2019/10/21 14:43:12","新北市五股區成泰路一段173-1號","121.43509","25.074915","6501500","五股區"
"248001","678-BX","2019/10/21 14:43:13","新北市五股區成泰路三段243號","121.446513333333","25.0934116666667","6501500","五股區"
"248009","682-TV","2019/10/21 14:43:13","新北市五股區登林路79-7號","121.427205","25.0705033333333","6501500","五股區"
"244001","657-BX","2019/10/21 14:25:42","新北市林口區瑞平里33-1號","121.34846","25.128705","6501700","林口區"
"244002","658-BX","2019/10/21 14:43:32","新北市林口區公園路125號","121.368968333333","25.07006","6501700","林口區"
"243004","AAD-798","2019/10/21 14:43:11","新北市泰山區全興路115號","121.43402","25.05635","6501600","泰山區"
"243002","297-R6","2019/10/21 14:36:41","新北市泰山區明志路二段136巷20弄1號","121.426493333333","25.0516783333333","6501600","泰山區"
"243006","KEA-2801","2019/10/21 14:43:22","新北市泰山區仁愛路6巷16號","121.43151","25.05346","6501600","泰山區"
"243008","421-VK","2019/10/21 14:43:13","新北市泰山區貴陽街4號","121.421596666667","25.0332316666667","6501600","泰山區"
"243001","KEA-2215","2019/10/21 14:43:16","新北市泰山區明志路一段122巷33號","121.432455","25.06385","6501600","泰山區"
"243003","KEA-2216","2019/10/21 14:43:13","新北市泰山區明志路三段196巷31弄2號","121.42234","25.0395233333333","6501600","泰山區"
"231030","002-UM","2019/10/21 14:43:26","新北市新店區安民街189-1號","121.516945","24.9711216666667","6500600","新店區"
"231024","0291-UT","2019/10/21 14:43:13","新北市新店區中華路83巷47號","121.538421666667","24.96771","6500600","新店區"
"231005","046-UY","2019/10/21 14:43:17","新北市新店區復興路38號","121.538825","24.986685","6500600","新店區"
"231029","106-UY","2019/10/21 14:43:22","新北市新店區安康路三段277-1號","121.485975","24.9516083333333","6500600","新店區"
"231018","107-UY","2019/10/21 14:43:18","新北市新店區中央五街8號","121.529905","24.9741516666667","6500600","新店區"
"231013","108-UY","2019/10/21 14:43:22","新北市新店區明德路20號","121.542293333333","24.977155","6500600","新店區"
"231036","110-UY","2019/10/21 14:43:12","新北市新店區安祥路106巷12號","121.47851","24.962515","6500600","新店區"
"231039","187-VK","2019/10/21 14:43:13","新北市新店區安一路一段1-1號","121.519721666667","24.961295","6500600","新店區"
"231031","256-BX","2019/10/21 14:43:25","新北市新店區安德街148巷33號","121.507001666667","24.9611483333333","6500600","新店區"
"231023","260-TV","2019/10/21 14:43:18","新北市新店區檳榔路109號","121.544375","24.9615433333333","6500600","新店區"
"231003","268-BY","2019/10/21 14:43:16","新北市新店區中正路2號","121.54582","24.96929","6500600","新店區"
"231035","278-BY","2019/10/21 14:43:24","新北市新店區安和路一段52巷2號","121.517588333333","24.96613","6500600","新店區"
"231014","AAD-862","2019/10/21 14:43:20","新北市新店區北宜路三段275巷8號","121.60274","24.9555266666667","6500600","新店區"
"231006","355-BY","2019/10/21 14:43:16","新北市新店區北宜路二段82-7號","121.554115","24.95346","6500600","新店區"
"231038","3712-VJ","2019/10/21 14:43:12","新北市新店區安華路28-1號","121.519795","24.9609233333333","6500600","新店區"
"231027","3713-VJ","2019/10/21 14:43:27","新北市新店區中正路102巷8弄1號","121.543631666667","24.9712566666667","6500600","新店區"
"231025","4715-K9","2019/10/21 14:43:21","新北市新店區二十張路56號","121.53707","24.980435","6500600","新店區"
"231019","512-UM","2019/10/21 14:43:15","新北市新店區桂山路38號","121.558168333333","24.9029383333333","6500600","新店區"
"231001","617-UM","2019/10/21 14:43:11","新北市新店區中正路4號","121.545741666667","24.9694","6500600","新店區"
"231002","619-UM","2019/10/21 14:43:18","新北市新店區民權路107-4號","121.536156666667","24.9822683333333","6500600","新店區"
"231034","641-BX","2019/10/21 14:43:23","新北市新店區黎明路9號","121.502503333333","24.9503716666667","6500600","新店區"
"231011","KED-0819","2019/10/21 14:43:22","新北市新店區寶橋路75號","121.545715","24.9752683333333","6500600","新店區"
"231028","897-TW","2019/10/21 14:43:27","新北市新店區安德街33-1號","121.511355","24.9624433333333","6500600","新店區"
"231004","899-TW","2019/10/21 14:43:26","新北市新店區中正路348號","121.536211666667","24.9752816666667","6500600","新店區"
"231037","AKT-0513","2019/10/21 14:43:12","新北市新店區安興路20號","121.515195","24.9662383333333","6500600","新店區"
"235030","003-UY","2019/10/21 14:43:20","新北市中和區中和路196巷9弄3號","121.505291666667","24.9991616666667","6500300","中和區"
"235027","006-UY","2019/10/21 14:43:21","新北市中和區連城路263巷3號","121.49211","24.9961716666667","6500300","中和區"
"235020","096-UM","2019/10/21 14:43:16","新北市中和區中山路三段114巷16號","121.47592","25.00677","6500300","中和區"
"235029","098-UM","2019/10/21 14:43:26","新北市中和區永和路90巷7號","121.497495","25.0060716666667","6500300","中和區"
"235004","150-BY","2019/10/21 14:43:13","新北市中和區景安路85號","121.506271666667","24.99699","6500300","中和區"
"235022","151-BY","2019/10/21 14:43:20","新北市中和區民樂路81號","121.484728333333","25.001235","6500300","中和區"
"235019","183-VK","2019/10/21 14:43:19","新北市中和區民生街85巷1弄2號","121.46899","25.0045616666667","6500300","中和區"
"235002","185-VK","2019/10/21 14:43:15","新北市中和區自強路3號","121.519868333333","24.9938166666667","6500300","中和區"
"235031","255-BX","2019/10/21 14:43:12","新北市中和區中正路751巷3弄12號","121.484336666667","24.9994316666667","6500300","中和區"
"235008","293-VK","2019/10/21 14:43:26","新北市中和區捷運路129號","121.507106666667","24.9906783333333","6500300","中和區"
"235036","301-VK","2019/10/21 14:43:19","新北市中和區連城路126號","121.49611","24.9994583333333","6500300","中和區"
"235007","352-BY","2019/10/21 14:43:29","新北市中和區安和路39號","121.509771666667","24.9945716666667","6500300","中和區"
"235006","KEA-2878","2019/10/21 14:43:28","新北市中和區保健路8巷13號","121.507786666667","24.99783","6500300","中和區"
"247015","KEA-2869","2019/10/21 14:43:13","新北市蘆洲區正和街104號","121.467893333333","25.0807666666667","6501400","蘆洲區"
"247009","KED-0682","2019/10/21 14:43:15","新北市蘆洲區集賢路300號","121.481411666667","25.08516","6501400","蘆洲區"
"235014","4979-A6","2019/10/21 14:43:11","新北市中和區景平路241巷82弄41號","121.50609","24.9925283333333","6500300","中和區"
"235009","551-UM","2019/10/21 14:43:09","新北市中和區景新街447-1號","121.513085","24.98875","6500300","中和區"
"235034","558-UM","2019/10/21 14:43:16","新北市中和區連勝街39號","121.498226666667","24.9976516666667","6500300","中和區"
"235018","640-BX","2019/10/21 14:43:25","新北市中和區莒光路72號","121.472251666667","25.003075","6500300","中和區"
"235035","647-TV","2019/10/21 14:43:23","新北市中和區錦和路45號","121.48768","25.0006833333333","6500300","中和區"
"235011","732-UM","2019/10/21 14:43:20","新北市中和區和平街166號","121.505473333333","24.99221","6500300","中和區"
"235010","733-UM","2019/10/21 14:43:19","新北市中和區仁愛街106號","121.511621666667","24.9870916666667","6500300","中和區"
"235005","802-TS","2019/10/21 14:43:17","新北市中和區宜安路135號","121.509591666667","24.998415","6500300","中和區"
"235016","805-TS","2019/10/21 14:43:21","新北市中和區興南路二段117巷13號","121.505818333333","24.9839916666667","6500300","中和區"
"235012","896-TW","2019/10/21 14:43:15","新北市中和區忠孝街137號","121.51278","24.98827","6500300","中和區"
"235017","900-TW","2019/10/21 14:43:10","新北市中和區國光街215巷8弄8號","121.46653","25.0010166666667","6500300","中和區"
"235015","157-BY","2019/10/21 14:43:21","新北市中和區中興街233巷10號","121.501461666667","24.98951","6500300","中和區"
"235001","AAC-213","2019/10/21 14:43:10","新北市中和區自立路52號","121.523161666667","24.9921333333333","6500300","中和區"
"235023","AAC-215","2019/10/21 14:43:12","新北市中和區圓通路305巷25弄2號","121.494843333333","24.98916","6500300","中和區"
"220013","072-UY","2019/10/21 14:43:19","新北市板橋區國泰街46巷1號","121.46789","25.00675","6500100","板橋區"
"220034","073-UY","2019/10/21 14:43:27","新北市板橋區中正路216巷150弄11號","121.460881666667","25.0189316666667","6500100","板橋區"
"220105","075-UY","2019/10/21 14:43:23","新北市板橋區民治街57巷26號","121.48012","25.033895","6500100","板橋區"
"220017","AAD-861","2019/10/21 14:43:27","新北市板橋區大明街18-9號","121.458745","25.00276","6500100","板橋區"
"220016","120-SR","2019/10/21 14:43:28","新北市板橋區中山路二段416巷36-1號","121.483086666667","25.0198433333333","6500100","板橋區"
"247005","893-R6","2019/10/21 14:43:25","新北市蘆洲區中華街59號","121.462395","25.0808816666667","6501400","蘆洲區"
"247023","057-VK","2019/10/21 14:43:15","新北市蘆洲區中山二路222巷21弄15號","121.468823333333","25.0798833333333","6501400","蘆洲區"
"247013","056-VK","2019/10/21 14:43:17","新北市蘆洲區成功路121號","121.472396666667","25.0820983333333","6501400","蘆洲區"
"247017","053-VK","2019/10/21 14:17:13","新北市蘆洲區復興路176號","121.47777","25.08843","6501400","蘆洲區"
"247021","007-UY","2019/10/21 14:43:09","新北市蘆洲區中正路434巷7-2號","121.4639","25.0946083333333","6501400","蘆洲區"
"247007","002-UY","2019/10/21 14:43:23","新北市蘆洲區信義路57號","121.475288333333","25.0797983333333","6501400","蘆洲區"
"247001","001-UY","2019/10/21 14:43:20","新北市蘆洲區長安街377號","121.457271666667","25.08782","6501400","蘆洲區"
"235013","251-BX","2019/10/21 14:43:28","新北市中和區中興街50號","121.500741666667","24.99453","6500300","中和區"
"253003","6232-TK","2019/10/21 14:43:17","新北市石門區尖子鹿103-3號","121.580121666667","25.2936916666667","6502200","石門區"
"253004","6251-TK","2019/10/21 14:43:23","新北市石門區內阿里磅55號","121.57927","25.24916","6502200","石門區"
"253002","637-UY","2019/10/21 14:43:21","新北市三芝區橫山里橫山26號","121.545025","25.263495","6502200","石門區"
"253001","KEC-0718","2019/10/21 14:43:13","新北市石門區楓林64號","121.53892","25.2718416666667","6502200","石門區"
"207002","749-BX","2019/10/21 14:43:17","新北市萬里區崁腳里崁腳路73號","121.64775","25.15959","6502800","萬里區"
"252005","073-UM","2019/10/21 14:43:18","新北市三芝區埔坪里埔頭坑147號","121.51041","25.249905","6502100","三芝區"
"207001","662-BX","2019/10/21 14:43:25","新北市萬里區雙興里豐稟路26號","121.641303333333","25.1871366666667","6502800","萬里區"
"236040","KED-0685","2019/10/21 14:43:29","新北市土城區裕民路92巷25弄2號","121.449558333333","24.9859216666667","6501300","土城區"
"236074","166-UM","2019/10/21 14:43:28","新北市土城區頂埔街12號","121.416695","24.9585666666667","6501300","土城區"
"236029","253-BX","2019/10/21 14:43:14","新北市土城區中央路三段61巷2號","121.439465","24.9694683333333","6501300","土城區"
"236024","269-VK","2019/10/21 14:43:25","新北市土城區農豐街14-1號","121.442621666667","24.973935","6501300","土城區"
"236012","270-VK","2019/10/21 14:43:31","新北市土城區清水路278巷28弄16號","121.46241","24.9824283333333","6501300","土城區"
"236032","271-VK","2019/10/21 14:43:08","新北市土城區明德路一段235巷28號","121.463268333333","24.9775316666667","6501300","土城區"
"236064","KEA-2877","2019/10/21 14:43:22","新北市土城區永豐路185號","121.46999","24.9783166666667","6501300","土城區"
"236016","401-BY","2019/10/21 14:43:22","新北市土城區延吉街253巷31號","121.468101666667","24.9836483333333","6501300","土城區"
"236057","912-UM","2019/10/21 14:43:21","新北市土城區永平街51號","121.427635","24.9591216666667","6501300","土城區"
"236045","913-UM","2019/10/21 14:43:30","新北市土城區明德路一段2號","121.46467","24.985805","6501300","土城區"
"236060","915-UM","2019/10/21 14:43:22","新北市土城區延壽路55巷7弄2號","121.46958","24.9916366666667","6501300","土城區"
"236054","AAC-216","2019/10/21 14:43:20","新北市土城區裕民路128號","121.451408333333","24.9863816666667","6501300","土城區"
"220027","145-BY","2019/10/21 14:43:24","新北市板橋區民權路202巷13弄34號","121.458653333333","25.0163466666667","6500100","板橋區"
"220028","200-UY","2019/10/21 14:43:13","新北市板橋區大觀路二段153巷46弄10號","121.448925","24.9995183333333","6500100","板橋區"
"220030","610-BX","2019/10/21 14:43:13","新北市板橋區金門街147號","121.432833333333","24.99081","6500100","板橋區"
"220004","276-BY","2019/10/21 14:43:27","新北市板橋區干城路18號","121.459558333333","24.9935666666667","6500100","板橋區"
"220020","277-BY","2019/10/21 14:43:24","新北市板橋區金門街215巷109號","121.433478333333","24.9880833333333","6500100","板橋區"
"220043","283-UM","2019/10/21 14:43:21","新北市板橋區陽明街277-1號","121.46237","25.0263033333333","6500100","板橋區"
"220019","283-VK","2019/10/21 14:43:15","新北市板橋區和平路12號","121.459315","24.994445","6500100","板橋區"
"220050","285-UM","2019/10/21 14:43:15","新北市板橋區縣民大道三段79巷13號","121.475171666667","25.02203","6500100","板橋區"
"220001","285-VK","2019/10/21 14:43:09","新北市板橋區中山路二段148巷30號","121.477165","25.0162016666667","6500100","板橋區"
"220031","286-VK","2019/10/21 14:43:27","新北市板橋區龍興街63巷1號","121.442883333333","25.0013183333333","6500100","板橋區"
"220029","287-VK","2019/10/21 14:43:20","新北市板橋區大觀路一段29巷131弄2號","121.45053","25.005385","6500100","板橋區"
"220039","288-VK","2019/10/21 14:43:16","新北市板橋區龍泉街132號","121.45717","25.0240183333333","6500100","板橋區"
"220009","293-UM","2019/10/21 14:43:18","新北市板橋區觀光街1巷2號","121.472093333333","25.015555","6500100","板橋區"
"220010","295-UM","2019/10/21 14:43:23","新北市板橋區三民路二段29巷31弄5-3號","121.481588333333","25.0177116666667","6500100","板橋區"
"220032","296-UM","2019/10/21 14:43:23","新北市板橋區溪崑二街112巷33弄10號","121.425328333333","24.9886816666667","6500100","板橋區"
"220023","303-R5","2019/10/21 14:43:22","新北市板橋區中正路253巷5號","121.455405","25.0182166666667","6500100","板橋區"
"220041","307-R5","2019/10/21 14:43:21","新北市板橋區裕民街135號","121.459058333333","25.0272366666667","6500100","板橋區"
"220047","317-R6","2019/10/21 14:43:26","新北市板橋區裕民街95號","121.460301666667","25.0279016666667","6500100","板橋區"
"220038","487-VK","2019/10/21 14:43:20","新北市板橋區龍泉街126號","121.456791666667","25.02393","6500100","板橋區"
"220037","491-VK","2019/10/21 14:43:16","新北市板橋區文化路二段410巷2號","121.473851666667","25.0314833333333","6500100","板橋區"
"220104","560-BX","2019/10/21 14:43:15","新北市板橋區金華街85巷42號","121.459181666667","25.02134","6500100","板橋區"
"220052","561-BX","2019/10/21 14:43:31","新北市板橋區文化路一段435巷31弄1號","121.4668","25.0229916666667","6500100","板橋區"
"220011","609-BX","2019/10/21 14:43:24","新北市板橋區三民路一段120號","121.479308333333","25.0209566666667","6500100","板橋區"
"220051","630-UY","2019/10/21 14:43:09","新北市板橋區松柏街50巷3號","121.475771666667","25.03026","6500100","板橋區"
"220040","637-BX","2019/10/21 14:43:25","新北市板橋區懷德街139巷20弄6-2號","121.480028333333","25.0306366666667","6500100","板橋區"
"220005","686-BX","2019/10/21 14:43:27","新北市板橋區廣和街60號","121.462073333333","24.9938566666667","6500100","板橋區"
"220042","689-BX","2019/10/21 14:43:11","新北市板橋區長江路一段411號","121.462698333333","25.0310666666667","6500100","板橋區"
"220002","741-BX","2019/10/21 14:43:18","新北市板橋區忠孝路239巷20號","121.466915","25.0032916666667","6500100","板橋區"
"220003","827-TW","2019/10/21 14:43:13","新北市板橋區國慶路147號","121.461378333333","24.9961683333333","6500100","板橋區"
"220014","831-TW","2019/10/21 14:43:18","新北市板橋區長安街138巷1弄81號","121.474763333333","25.0111","6500100","板橋區"
"220025","833-TW","2019/10/21 14:43:10","新北市板橋區僑中二街52號","121.446686666667","25.010075","6500100","板橋區"
"220022","895-R6","2019/10/21 14:43:30","新北市板橋區府中路69號","121.457865","25.0093633333333","6500100","板橋區"
"220021","985-R7","2019/10/21 14:43:25","新北市板橋區瑞安街11號","121.454965","25.02329","6500100","板橋區"
"220046","AAC-210","2019/10/21 14:43:10","新北市板橋區文化路一段33號","121.460206666667","25.0130033333333","6500100","板橋區"
"220012","AAC-253","2019/10/21 14:43:16","新北市板橋區公園街34巷2號","121.462423333333","25.008405","6500100","板橋區"
"235032","KEA-2873","2019/10/21 14:43:12","新北市中和區中山路二段257號","121.497256666667","25.0023466666667","6500300","中和區"
"235025","KEA-2875","2019/10/21 14:43:06","新北市中和區圓通路417-33號","121.488503333333","24.9878483333333","6500300","中和區"
"235026","KEA-2876","2019/10/21 14:43:15","新北市新店區安豐路49號","121.500215","24.954115","6500300","中和區"
