"lineid","car","time","location","longitude","latitude","cityid","cityname"
"234046","148-BY","2019/10/21 18:29:12","新北市永和區福和路1號","121.525961666667","25.009595","6500400","永和區"
"234081","298-R6","2019/10/21 18:27:59","新北市永和區福和路1號","121.525695","25.0094083333333","6500400","永和區"
"234086","338-UY","2019/10/21 18:29:12","新北市永和區福和路129號","121.521451666667","25.0078083333333","6500400","永和區"
"234007","KED-0605","2019/10/21 18:29:23","新北市永和區新生路2-7號","121.509355","25.016985","6500400","永和區"
"234013","KEA-2591","2019/10/21 18:29:23","新北市永和區保安路7號","121.510558333333","25.016985","6500400","永和區"
"234042","862-TW","2019/10/21 18:29:14","新北市永和區福和路1號","121.525701666667","25.0094383333333","6500400","永和區"
"234026","9371-KE","2019/10/21 18:29:16","新北市永和區永貞路419號","121.507218333333","25.0094166666667","6500400","永和區"
"234011","9373-KE","2019/10/21 18:29:21","新北市永和區保福路二段158巷1號","121.509061666667","25.0150416666667","6500400","永和區"
"249005","172-UM","2019/10/21 18:29:19","新北市八里區長坑口47-1號","121.389196666667","25.1339633333333","6502300","八里區"
"249001","173-UM","2019/10/21 18:29:13","新北市八里區龍米路一段142號","121.452906666667","25.12566","6502300","八里區"
"249004","303-UY","2019/10/21 18:29:16","新北市八里區忠孝路68號","121.426635","25.16109","6502300","八里區"
"249002","305-UY","2019/10/21 18:29:24","新北市八里區龍形三街6巷11號","121.449645","25.132615","6502300","八里區"
"249003","593-UM","2019/10/21 18:15:35","新北市八里區博物館路10-1號","121.415088333333","25.1639833333333","6502300","八里區"
"248013","025-BX","2019/10/21 18:29:22","新北市五股區成泰路一段110-7號","121.4356","25.0724666666667","6501500","五股區"
"248016","026-BX","2019/10/21 18:29:15","新北市五股區凌雲路一段83巷8號","121.450468333333","25.101025","6501500","五股區"
"248008","KED-0815","2019/10/21 18:29:21","新北市五股區中興路二段78-5號","121.46132","25.0786166666667","6501500","五股區"
"248012","247-BX","2019/10/21 18:29:22","新北市五股區御成路145號","121.440973333333","25.09432","6501500","五股區"
"248004","677-BX","2019/10/21 18:29:14","新北市五股區民義路一段152號","121.433125","25.087405","6501500","五股區"
"248002","678-BX","2019/10/21 18:29:26","新北市五股區西雲路163號","121.445985","25.0943266666667","6501500","五股區"
"248010","682-TV","2019/10/21 18:29:16","新北市五股區成泰路一段141號","121.4355","25.0729316666667","6501500","五股區"
"234077","969-R7","2019/10/21 18:29:20","新北市永和區福和路1號","121.526331666667","25.00974","6500400","永和區"
"232011","375-UM","2019/10/21 18:29:28","新北市坪林區坪雙路一段41號","121.711728333333","24.942455","6502000","坪林區"
"244007","080-UY","2019/10/21 18:29:28","新北市林口區後湖19-6號","121.38773","25.098915","6501700","林口區"
"244019","402-UM","2019/10/21 18:29:28","新北市林口區麗園二街33巷2號","121.38028","25.0693083333333","6501700","林口區"
"244013","KEA-2802","2019/10/21 18:29:26","新北市林口區中正路514巷31號","121.382156666667","25.0780766666667","6501700","林口區"
"244023","483-VK","2019/10/21 18:29:24","新北市林口區仁愛路二段62巷17號","121.384121666667","25.076105","6501700","林口區"
"244017","485-VK","2019/10/21 18:29:11","新北市林口區文化二路一段120號","121.367751666667","25.0708866666667","6501700","林口區"
"244009","656-BX","2019/10/21 18:29:28","新北市林口區竹林路276巷1號","121.390023333333","25.0815366666667","6501700","林口區"
"244011","701-TV","2019/10/21 18:29:23","新北市林口區興林路17巷10號","121.390566666667","25.076975","6501700","林口區"
"244025","837-TS","2019/10/21 18:29:22","新北市林口區南勢七街26-6號","121.355378333333","25.0685483333333","6501700","林口區"
"244021","838-TS","2019/10/21 18:29:31","新北市林口區自強二街15號","121.397873333333","25.0781633333333","6501700","林口區"
"243016","421-VK","2019/10/21 18:29:21","新北市泰山區黎明路13號","121.420965","25.0631483333333","6501600","泰山區"
"243015","680-BX","2019/10/21 18:29:25","新北市泰山區美寧街50號","121.43052","25.0644883333333","6501600","泰山區"
"222003","436-BY","2019/10/21 18:29:25","新北市深坑區翠谷街28號","121.626681666667","25.0090966666667","6501800","深坑區"
"222001","628-TS","2019/10/21 18:29:24","新北市深坑區北深路一段175號","121.633075","25.0108816666667","6501800","深坑區"
"222002","659-BX","2019/10/21 18:29:26","新北市深坑區雲鄉路150號","121.62324","24.9979533333333","6501800","深坑區"
"231061","002-UM","2019/10/21 18:29:22","新北市新店區安華路28-1號","121.520171666667","24.9609","6500600","新店區"
"231055","0291-UT","2019/10/21 18:29:22","新北市新店區中正路128巷17號","121.542461666667","24.972425","6500600","新店區"
"231044","046-UY","2019/10/21 18:29:27","新北市新店區安華路28-1號","121.519358333333","24.96068","6500600","新店區"
"231060","106-UY","2019/10/21 18:29:24","新北市新店區安華路28-1號","121.520008333333","24.9608416666667","6500600","新店區"
"231051","107-UY","2019/10/21 18:29:18","新北市新店區安康路一段355-10號","121.52035","24.9638216666667","6500600","新店區"
"231065","110-UY","2019/10/21 18:29:17","新北市新店區安一路一段1-1號","121.519268333333","24.9611533333333","6500600","新店區"
"221032","KEA-2785","2019/10/21 18:29:27","新北市汐止區橫科路2巷1號","121.617061666667","25.0514616666667","6501100","汐止區"
"231062","256-BX","2019/10/21 18:29:23","新北市新店區安一路一段1-1號","121.519728333333","24.9611166666667","6500600","新店區"
"231054","260-TV","2019/10/21 18:29:26","新北市新店區安一路一段1-1號","121.519396666667","24.9610783333333","6500600","新店區"
"231042","268-BY","2019/10/21 18:29:15","新北市新店區安一路一段1-1號","121.519703333333","24.9613083333333","6500600","新店區"
"231064","278-BY","2019/10/21 18:29:15","新北市新店區安一路一段1-1號","121.519585","24.9611266666667","6500600","新店區"
"231050","AAD-862","2019/10/21 18:29:17","新北市新店區安華路28-1號","121.519368333333","24.9607716666667","6500600","新店區"
"231045","355-BY","2019/10/21 18:29:08","新北市新店區安一路一段1-1號","121.519253333333","24.9609916666667","6500600","新店區"
"231058","3713-VJ","2019/10/21 18:29:24","新北市新店區環河路19巷15號","121.537605","24.9602416666667","6500600","新店區"
"231056","4715-K9","2019/10/21 18:29:28","新北市新店區二十張路129巷5弄2號","121.536598333333","24.978725","6500600","新店區"
"231052","512-UM","2019/10/21 18:29:24","新北市新店區北宜路一段123號","121.540415","24.9535616666667","6500600","新店區"
"231040","617-UM","2019/10/21 18:29:24","新北市新店區安華路28-1號","121.519175","24.960915","6500600","新店區"
"231041","619-UM","2019/10/21 18:29:15","新北市新店區安華路28-1號","121.52012","24.9606366666667","6500600","新店區"
"231063","641-BX","2019/10/21 18:29:18","新北市新店區安華路28-1號","121.519376666667","24.9605966666667","6500600","新店區"
"231047","KED-0819","2019/10/21 18:29:15","新北市新店區安一路一段1-1號","121.51993","24.9612866666667","6500600","新店區"
"231057","720-UM","2019/10/21 18:29:21","新北市新店區安一路一段1-1號","121.519195","24.9611266666667","6500600","新店區"
"231043","899-TW","2019/10/21 18:29:26","新北市新店區安華路28-1號","121.519138333333","24.9608666666667","6500600","新店區"
"231066","AKT-0513","2019/10/21 18:29:10","新北市新店區安華路1-1號","121.5194","24.960485","6500600","新店區"
"235066","003-UY","2019/10/21 18:29:16","新北市中和區中山路二段120號","121.502766666667","25.0036983333333","6500300","中和區"
"235063","006-UY","2019/10/21 18:29:24","新北市中和區中正路700號","121.486106666667","24.9962616666667","6500300","中和區"
"235056","096-UM","2019/10/21 18:29:31","新北市中和區員山路611巷1號","121.47779","25.011165","6500300","中和區"
"235039","097-UM","2019/10/21 18:29:23","新北市中和區安平路204號","121.513475","24.999535","6500300","中和區"
"235065","098-UM","2019/10/21 18:29:26","新北市中和區中山路二段64巷24號","121.50296","25.0059666666667","6500300","中和區"
"235040","150-BY","2019/10/21 18:29:26","新北市中和區安平路59號","121.509481666667","24.9950933333333","6500300","中和區"
"235058","151-BY","2019/10/21 18:29:27","新北市中和區圓通路320號","121.487211666667","24.98828","6500300","中和區"
"235055","183-VK","2019/10/21 18:29:24","新北市中和區民生街18號","121.470326666667","25.0054916666667","6500300","中和區"
"235038","185-VK","2019/10/21 18:29:23","新北市中和區立人街1號","121.521948333333","24.9939","6500300","中和區"
"235072","301-VK","2019/10/21 18:29:22","新北市中和區連城路137號","121.495833333333","24.9988783333333","6500300","中和區"
"235043","352-BY","2019/10/21 18:29:24","新北市中和區景平路235號","121.510101666667","24.9926583333333","6500300","中和區"
"235042","KEA-2878","2019/10/21 18:29:18","新北市中和區秀朗路三段128巷1弄15號","121.523833333333","24.9914366666667","6500300","中和區"
"235050","4979-A6","2019/10/21 18:29:11","新北市中和區景新街410巷18弄4號","121.512136666667","24.9892733333333","6500300","中和區"
"235069","4980-A6","2019/10/21 18:29:17","新北市中和區連城路127巷35號","121.49741","24.9971883333333","6500300","中和區"
"235045","551-UM","2019/10/21 18:29:18","新北市中和區南山路236巷36弄5號","121.50401","24.9883216666667","6500300","中和區"
"235070","558-UM","2019/10/21 18:29:15","新北市中和區南華路55號","121.504178333333","24.9969183333333","6500300","中和區"
"235060","KED-0823","2019/10/21 18:29:19","新北市中和區中山路三段96號","121.477428333333","25.0056783333333","6500300","中和區"
"235054","640-BX","2019/10/21 18:29:25","新北市中和區莒光路129巷2弄24號","121.472968333333","25.00121","6500300","中和區"
"235047","732-UM","2019/10/21 18:29:16","新北市中和區南山路493號","121.507908333333","24.987945","6500300","中和區"
"235046","733-UM","2019/10/21 18:29:13","新北市中和區興南路一段83號","121.509985","24.9890016666667","6500300","中和區"
"235057","801-TS","2019/10/21 18:29:22","新北市中和區員山路327巷40號","121.480533333333","25.0017483333333","6500300","中和區"
"235041","802-TS","2019/10/21 18:29:21","新北市中和區中和路260-1號","121.508075","24.9993833333333","6500300","中和區"
"235052","805-TS","2019/10/21 18:29:18","新北市中和區興南路二段96號","121.505155","24.98413","6500300","中和區"
"235048","896-TW","2019/10/21 18:29:26","新北市中和區中正路71號","121.501063333333","24.9935166666667","6500300","中和區"
"235053","900-TW","2019/10/21 18:29:15","新北市土城區金城路三段259-1號","121.471991666667","24.9900783333333","6500300","中和區"
"235064","911-UM","2019/10/21 18:29:23","新北市中和區連城路127巷48號","121.497325","24.9970166666667","6500300","中和區"
"235051","157-BY","2019/10/21 18:29:23","新北市中和區興南路二段142巷18-9號","121.502685","24.984355","6500300","中和區"
"235001","AAC-213","2019/10/21 18:29:28","新北市中和區景德街52號","121.51761","24.99152","6500300","中和區"
"235059","AAC-215","2019/10/21 18:29:30","新北市中和區員山路36巷16-3號","121.48501","24.9913466666667","6500300","中和區"
"220065","072-UY","2019/10/21 18:29:29","新北市板橋區南雅南路二段140號","121.451741666667","24.9962333333333","6500100","板橋區"
"220086","073-UY","2019/10/21 18:29:13","新北市板橋區華東街1-10號","121.448255","24.995045","6500100","板橋區"
"220069","AAD-861","2019/10/21 18:29:13","新北市板橋區華東街1-10號","121.44832","24.9950833333333","6500100","板橋區"
"226004","312-R5","2019/10/21 18:29:12","新北市平溪區靜安路二段295號","121.732061666667","25.0230033333333","6502400","平溪區"
"235049","251-BX","2019/10/21 18:29:24","新北市中和區景安路72號","121.505741666667","24.9965366666667","6500300","中和區"
"228003","097-TW","2019/10/21 18:29:18","新北市貢寮區和美里和美街40號","121.912573333333","25.0899116666667","6502600","貢寮區"
"228002","663-BX","2019/10/21 18:29:14","新北市貢寮區福連里福連街37號","121.988863333333","25.0106716666667","6502600","貢寮區"
"228001","670-TC","2019/10/21 18:29:14","新北市貢寮區仁理村仁義街6號","121.923708333333","25.0520733333333","6502600","貢寮區"
"224010","AGQ-8101","2019/10/21 18:29:19","新北市瑞芳區街頂巷49號","121.844485","25.1075833333333","6501200","瑞芳區"
"224006","676-BX","2019/10/21 18:29:26","新北市瑞芳區明燈路三段1號","121.809235","25.1074166666667","6501200","瑞芳區"
"224007","285-BY","2019/10/21 18:29:27","新北市瑞芳區大埔路國宅新村30-1號","121.76462","25.100165","6501200","瑞芳區"
"224009","275-VK","2019/10/21 18:29:16","新北市瑞芳區祈堂路184號","121.857633333333","25.1095383333333","6501200","瑞芳區"
"224008","273-VK","2019/10/21 18:29:21","新北市瑞芳區岳王路1巷23號","121.806073333333","25.1103866666667","6501200","瑞芳區"
"224005","271-BY","2019/10/21 18:29:15","新北市瑞芳區建基路一段44-6號","121.819305","25.1235533333333","6501200","瑞芳區"
"227002","642-TC","2019/10/21 18:29:09","新北市雙溪區魚行里坤溪35號","121.870503333333","25.0304066666667","6502500","雙溪區"
"227001","400-TW","2019/10/21 18:29:12","新北市雙溪區牡丹里牡丹143號","121.851366666667","25.0589416666667","6502500","雙溪區"
"253005","032-BX","2019/10/21 18:29:29","新北市石門區老崩山10-5號","121.552665","25.2910616666667","6502200","石門區"
"253006","295-VK","2019/10/21 18:29:12","新北市石門區公地20號","121.545771666667","25.2902466666667","6502200","石門區"
"208002","KEA-2872","2019/10/21 18:29:28","新北市金山區磺港里青年路1號","121.641573333333","25.2249966666667","6502700","金山區"
"208003","665-BX","2019/10/21 18:29:20","新北市金山區中山路179號","121.638408333333","25.2209233333333","6502700","金山區"
"251005","010-UM","2019/10/21 18:29:16","新北市淡水區中正東路35巷9號","121.446276666667","25.16859","6501000","淡水區"
"251002","012-UM","2019/10/21 18:29:18","新北市淡水區竿蓁二街65號","121.454851666667","25.1633316666667","6501000","淡水區"
"251015","KEA-2871","2019/10/21 18:29:16","新北市淡水區興福寮88巷216號","121.485878333333","25.16665","6501000","淡水區"
"251016","179-VK","2019/10/21 18:29:28","新北市淡水區下圭柔山115-11號","121.446406666667","25.2117933333333","6501000","淡水區"
"251004","180-VK","2019/10/21 18:29:23","新北市淡水區民族路31巷36號","121.462421666667","25.1365783333333","6501000","淡水區"
"251008","181-VK","2019/10/21 18:29:26","新北市淡水區水源街二段222號","121.460046666667","25.176495","6501000","淡水區"
"251013","182-VK","2019/10/21 18:29:24","新北市淡水區椿子林19-3號","121.480296666667","25.203155","6501000","淡水區"
"251010","413-VK","2019/10/21 18:29:21","新北市淡水區沙崙路181巷1號","121.424168333333","25.1841866666667","6501000","淡水區"
"251012","441-VK","2019/10/21 18:29:30","新北市淡水區北新路一段157號","121.458676666667","25.1823133333333","6501000","淡水區"
"251001","559-UM","2019/10/21 18:29:29","新北市淡水區自強路122巷1號","121.46443","25.133145","6501000","淡水區"
"251006","561-UM","2019/10/21 18:29:18","新北市淡水區新生街51巷2號","121.440585","25.1749483333333","6501000","淡水區"
"251014","577-R6","2019/10/21 18:29:23","新北市淡水區南平20-1號","121.493525","25.2166183333333","6501000","淡水區"
"251011","650-BX","2019/10/21 18:29:24","新北市淡水區坪頂路41號","121.45745","25.162355","6501000","淡水區"
"251003","673-BX","2019/10/21 18:29:13","新北市淡水區北新路169巷14號","121.449686666667","25.1801533333333","6501000","淡水區"
"207003","550-UM","2019/10/21 18:29:20","新北市萬里區野柳里港東新村1號","121.68616","25.20337","6502800","萬里區"
"252002","178-VK","2019/10/21 18:29:15","新北市三芝區中山路二段39號","121.50295","25.2551183333333","6502100","三芝區"
"252003","249-BX","2019/10/21 18:29:27","新北市三芝區後厝里北勢子41-2號","121.471915","25.2526033333333","6502100","三芝區"
"208001","170-UY","2019/10/21 18:29:14","新北市金山區文化二路4號","121.636835","25.2245883333333","6502700","金山區"
"237004","KEA-2597","2019/10/21 18:29:25","新北市三峽區五寮22號","121.374763333333","24.8703416666667","6500900","三峽區"
"237007","153-BY","2019/10/21 18:29:18","新北市三峽區中正路三段170巷34號","121.352698333333","24.904625","6500900","三峽區"
"237009","210-TH","2019/10/21 18:29:18","新北市三峽區民權街231號","121.367996666667","24.927875","6500900","三峽區"
"237013","252-BX","2019/10/21 18:29:23","新北市三峽區光明路69巷25號","121.376568333333","24.9291516666667","6500900","三峽區"
"237012","275-BY","2019/10/21 18:29:08","新北市三峽區三樹路112號","121.378428333333","24.9394416666667","6500900","三峽區"
"237008","302-VK","2019/10/21 18:29:13","新北市三峽區白雞120號","121.398603333333","24.9054366666667","6500900","三峽區"
"237014","433-BY","2019/10/21 18:29:16","新北市三峽區文化路109號","121.370581666667","24.9361383333333","6500900","三峽區"
"237006","5529-G3","2019/10/21 18:29:26","新北市三峽區溪東路238巷11號","121.408108333333","24.9311883333333","6500900","三峽區"
"237011","KEA-2596","2019/10/21 18:29:15","新北市三峽區溪東路218巷32號","121.406995","24.9300216666667","6500900","三峽區"
"237015","649-BX","2019/10/21 18:29:25","新北市三峽區竹崙路144號","121.435036666667","24.90893","6500900","三峽區"
"237010","706-TV","2019/10/21 18:29:19","新北市三峽區中山路117號","121.365615","24.9358783333333","6500900","三峽區"
"237005","AKY-6261","2019/10/21 18:29:10","新北市三峽區民族街5巷18號","121.369768333333","24.9316366666667","6500900","三峽區"
"236042","KED-0685","2019/10/21 18:29:25","新北市土城區學成路99巷11號","121.45","24.9883233333333","6501300","土城區"
"236078","166-UM","2019/10/21 18:29:30","新北市土城區中央路四段27巷1號","121.424431666667","24.962375","6501300","土城區"
"236030","253-BX","2019/10/21 18:29:21","新北市土城區福仁街30巷10號","121.439436666667","24.9759366666667","6501300","土城區"
"236026","269-VK","2019/10/21 18:29:24","新北市土城區南天母路111巷2號","121.447836666667","24.9548283333333","6501300","土城區"
"236014","270-VK","2019/10/21 18:29:23","新北市土城區青雲路39巷7號","121.460326666667","24.9873916666667","6501300","土城區"
"236039","271-VK","2019/10/21 18:29:28","新北市土城區青雲路451巷2弄1號","121.4593","24.974695","6501300","土城區"
"236069","KEA-2877","2019/10/21 18:29:20","新北市土城區永豐路255巷23弄1號","121.47516","24.9733983333333","6501300","土城區"
"252001","KED-0821","2019/10/21 18:29:13","新北市三芝區中興街二段2號","121.498353333333","25.2566016666667","6502100","三芝區"
"236020","401-BY","2019/10/21 18:29:30","新北市土城區永豐路202巷14號","121.466201666667","24.9833966666667","6501300","土城區"
"236059","912-UM","2019/10/21 18:29:19","新北市土城區中央路四段127號","121.416236666667","24.9575433333333","6501300","土城區"
"236048","913-UM","2019/10/21 18:29:23","新北市土城區青雲路449-1號","121.458791666667","24.9746833333333","6501300","土城區"
"236063","915-UM","2019/10/21 18:29:27","新北市土城區延壽路109巷19號","121.468345","24.993255","6501300","土城區"
"236055","AAC-216","2019/10/21 18:29:08","新北市土城區福祥街101巷1號","121.440971666667","24.9817683333333","6501300","土城區"
"242042","AAC-296","2019/10/21 18:29:19","新北市新莊區天祥街107巷33號","121.414531666667","25.0287466666667","6500500","新莊區"
"242060","986-R7","2019/10/21 18:29:25","新北市新莊區富國路176巷7號","121.424101666667","25.0241133333333","6500500","新莊區"
"242025","705-TV","2019/10/21 18:29:12","新北市新莊區五權一路12巷9弄6號","121.457448333333","25.0648216666667","6500500","新莊區"
"242058","612-BX","2019/10/21 18:29:11","新北市新莊區中正路897-10號","121.411593333333","25.0216083333333","6500500","新莊區"
"242053","497-BY","2019/10/21 18:29:29","新北市新莊區樹新路120巷21號","121.430466666667","24.99643","6500500","新莊區"
"242002","441-UM","2019/10/21 18:29:20","新北市新莊區環河路462號","121.440165","25.0196316666667","6500500","新莊區"
"242044","415-TV","2019/10/21 18:29:27","新北市新莊區中山路三段533巷1號","121.413213333333","25.0277366666667","6500500","新莊區"
"242015","132-UY","2019/10/21 18:29:27","新北市新莊區新泰路357巷3號","121.442078333333","25.041565","6500500","新莊區"
"242056","176-VK","2019/10/21 18:29:23","新北市新莊區瓊泰路77巷16號","121.442585","25.0292666666667","6500500","新莊區"
"242046","347-TH","2019/10/21 18:29:26","新北市新莊區中正路803巷57號","121.42214","25.0276183333333","6500500","新莊區"
"242009","349-TH","2019/10/21 18:29:21","新北市新莊區中平路82巷4號","121.444971666667","25.0448533333333","6500500","新莊區"
"238015","755-BX","2019/10/21 18:29:22","新北市樹林區備內街9-1號","121.41294","24.9869916666667","6500700","樹林區"
"238023","601-UM","2019/10/21 18:29:25","新北市樹林區三福街114號","121.406391666667","25.0164116666667","6500700","樹林區"
"238019","599-UM","2019/10/21 18:29:11","新北市樹林區國凱街102號","121.422398333333","24.9799833333333","6500700","樹林區"
"238024","5061-A6","2019/10/21 18:29:21","新北市樹林區育英街13號","121.422201666667","24.9890933333333","6500700","樹林區"
"238018","KEA-2217","2019/10/21 18:29:28","新北市樹林區樹新路36-4號","121.42803","24.9952216666667","6500700","樹林區"
"238017","283-BY","2019/10/21 18:29:27","新北市樹林區光榮街79號","121.41207","25.002975","6500700","樹林區"
"238020","268-VK","2019/10/21 18:29:24","新北市樹林區三龍街13號","121.412673333333","25.019275","6500700","樹林區"
"238026","172-UY","2019/10/21 18:29:29","新北市樹林區八德街626號","121.396988333333","24.969665","6500700","樹林區"
"238016","169-UY","2019/10/21 18:29:13","新北市樹林區中山路一段412號","121.417371666667","24.985175","6500700","樹林區"
"239007","AAC-297","2019/10/21 18:29:17","新北市鶯歌區尖山埔路10號","121.349556666667","24.9511266666667","6500800","鶯歌區"
"239006","891-R6","2019/10/21 18:29:17","新北市鶯歌區鶯桃路268巷12-2號","121.335895","24.96026","6500800","鶯歌區"
"239008","527-UM","2019/10/21 18:29:26","新北市鶯歌區朝陽街4號","121.336255","24.9766133333333","6500800","鶯歌區"
"239005","526-UM","2019/10/21 18:29:21","新北市鶯歌區鶯桃路668巷73號","121.329931666667","24.971795","6500800","鶯歌區"
"239001","417-VK","2019/10/21 18:29:28","新北市鶯歌區國中街109號","121.341331666667","24.941285","6500800","鶯歌區"
"239003","360-BY","2019/10/21 18:29:25","新北市鶯歌區福安街58號","121.335598333333","24.96522","6500800","鶯歌區"
"239004","193-VK","2019/10/21 18:29:21","新北市鶯歌區尖山路137巷7號","121.347108333333","24.948335","6500800","鶯歌區"
"221036","130-UY","2019/10/21 18:29:26","新北市汐止區大同路三段123號","121.668961666667","25.07777","6501100","汐止區"
"221015","131-UY","2019/10/21 18:29:08","新北市汐止區鄉長路二段40巷1號","121.66763","25.08359","6501100","汐止區"
"221010","269-BY","2019/10/21 18:29:18","新北市汐止區汐萬路35號","121.644251666667","25.09121","6501100","汐止區"
"221012","278-VK","2019/10/21 18:29:23","新北市汐止區保長路35巷13號","121.673246666667","25.080065","6501100","汐止區"
"221023","279-VK","2019/10/21 18:29:19","新北市汐止區康寧街474巷7-2號","121.632291666667","25.0679083333333","6501100","汐止區"
"221027","281-BY","2019/10/21 18:29:22","新北市汐止區和平街63號","121.66172","25.0707566666667","6501100","汐止區"
"221029","298-VK","2019/10/21 18:29:11","新北市汐止區樟樹二路330巷76號","121.64308","25.0700816666667","6501100","汐止區"
"221021","299-VK","2019/10/21 18:29:09","新北市汐止區連興街120號","121.65361","25.06241","6501100","汐止區"
"221031","353-TW","2019/10/21 18:29:27","新北市汐止區大同路一段160-1號","121.633985","25.0566483333333","6501100","汐止區"
"221035","622-UM","2019/10/21 18:29:23","新北市汐止區大同路二段189號","121.652143333333","25.0646216666667","6501100","汐止區"
"221025","623-UM","2019/10/21 18:29:22","新北市汐止區仁愛路116號","121.662765","25.0637","6501100","汐止區"
"221038","646-BX","2019/10/21 18:29:29","新北市汐止區忠孝東路303號","121.664323333333","25.0690166666667","6501100","汐止區"
"221033","647-BX","2019/10/21 18:27:33","新北市汐止區宜興街130號","121.623353333333","25.0434416666667","6501100","汐止區"
"221002","707-TV","2019/10/21 18:29:25","新北市汐止區福德一路149號","121.636641666667","25.06673","6501100","汐止區"
"221018","753-BX","2019/10/21 18:29:23","新北市汐止區茄苳路120巷4號","121.667641666667","25.0699766666667","6501100","汐止區"
"220080","200-UY","2019/10/21 18:29:16","新北市板橋區華東街1-9號","121.44814","24.9948683333333","6500100","板橋區"
"220082","610-BX","2019/10/21 18:29:10","新北市板橋區華東街1-9號","121.448243333333","24.9949183333333","6500100","板橋區"
"224002","257-TC","2019/10/21 18:29:17","新北市瑞芳區三爪子坑路29巷56號","121.813851666667","25.106335","6501200","瑞芳區"
"220056","276-BY","2019/10/21 18:29:20","新北市板橋區華東街1-10號","121.44861","24.99488","6500100","板橋區"
"220081","287-VK","2019/10/21 18:29:28","新北市板橋區華東街1-10號","121.448215","24.9950166666667","6500100","板橋區"
"220084","296-UM","2019/10/21 18:29:21","新北市板橋區華東街1-9號","121.448123333333","24.9949566666667","6500100","板橋區"
"242011","280-VK","2019/10/21 18:29:16","新北市新莊區中原路337號","121.445478333333","25.0544083333333","6500500","新莊區"
"220055","827-TW","2019/10/21 18:29:21","新北市板橋區四川路二段140巷20號","121.449151666667","24.99341","6500100","板橋區"
"220073","985-R7","2019/10/21 18:29:19","新北市板橋區四川路二段140巷20號","121.449261666667","24.9933433333333","6500100","板橋區"
"220064","AAC-253","2019/10/21 18:29:24","新北市板橋區南雅南路二段4巷6號","121.453958333333","25.0037166666667","6500100","板橋區"
"235068","KEA-2873","2019/10/21 18:29:14","新北市中和區中正路194號","121.497361666667","24.9937266666667","6500300","中和區"
"235061","KEA-2875","2019/10/21 18:29:09","新北市中和區民享街95號","121.474808333333","25.0003183333333","6500300","中和區"
"235062","KEA-2876","2019/10/21 18:29:13","新北市中和區中山路二段312巷13號","121.495553333333","25.0032716666667","6500300","中和區"
