"lineid","car","time","location","longitude","latitude","cityid","cityname"
"234046","148-BY","2019/10/21 18:43:12","新北市永和區永元路40巷33號","121.523215","25.000635","6500400","永和區"
"234081","298-R6","2019/10/21 18:43:19","新北市永和區林森路81號","121.523948333333","25.0038666666667","6500400","永和區"
"234038","336-UY","2019/10/21 18:43:18","新北市永和區福和路1號","121.526626666667","25.0100633333333","6500400","永和區"
"234064","337-UY","2019/10/21 18:43:24","新北市永和區福和路1號","121.526471666667","25.0100416666667","6500400","永和區"
"234086","338-UY","2019/10/21 18:43:12","新北市永和區中正路14號","121.51261","24.9938383333333","6500400","永和區"
"234017","745-BX","2019/10/21 18:43:12","新北市永和區環河東路二段92號","121.52442","25.0106066666667","6500400","永和區"
"234030","746-BX","2019/10/21 18:43:09","新北市永和區得和路326號","121.523241666667","24.99956","6500400","永和區"
"234007","KED-0605","2019/10/21 18:43:23","新北市永和區文化路123號","121.51211","25.01534","6500400","永和區"
"234013","KEA-2591","2019/10/21 18:43:23","新北市永和區保福路二段109巷26號","121.509493333333","25.0131833333333","6500400","永和區"
"234061","AAD-866","2019/10/21 18:43:09","新北市永和區豫溪街217巷29號","121.524595","25.010505","6500400","永和區"
"234042","862-TW","2019/10/21 18:43:14","新北市永和區中和路573號","121.51163","25.00345","6500400","永和區"
"234050","863-TW","2019/10/21 18:43:21","新北市永和區福和路1號","121.526331666667","25.0099916666667","6500400","永和區"
"234026","9371-KE","2019/10/21 18:43:16","新北市永和區自由街58號","121.513811666667","25.005885","6500400","永和區"
"234011","9373-KE","2019/10/21 18:43:20","新北市永和區仁愛路38號","121.514261666667","25.0134316666667","6500400","永和區"
"249005","172-UM","2019/10/21 18:43:19","新北市八里區長道坑14-2號","121.394006666667","25.1197366666667","6502300","八里區"
"249001","173-UM","2019/10/21 18:43:13","新北市八里區龍米路一段446號","121.450588333333","25.134585","6502300","八里區"
"249004","303-UY","2019/10/21 18:43:16","新北市八里區中山路一段29-1號","121.421556666667","25.1591683333333","6502300","八里區"
"249002","305-UY","2019/10/21 18:43:24","新北市八里區頂寮二街138號","121.449295","25.1294333333333","6502300","八里區"
"249003","593-UM","2019/10/21 18:15:35","新北市八里區博物館路10-1號","121.415088333333","25.1639833333333","6502300","八里區"
"248016","026-BX","2019/10/21 18:43:15","新北市五股區凌雲路一段149巷13-1號","121.44859","25.100875","6501500","五股區"
"248008","KED-0815","2019/10/21 18:43:26","新北市五股區中興路一段151巷1弄2號","121.46502","25.0729983333333","6501500","五股區"
"248012","247-BX","2019/10/21 18:43:22","新北市五股區成泰路三段2巷1-20號","121.441218333333","25.086675","6501500","五股區"
"248004","677-BX","2019/10/21 18:43:14","新北市五股區民義路一段312-1號","121.423655","25.09448","6501500","五股區"
"248002","678-BX","2019/10/21 18:43:26","新北市五股區成泰路三段435巷7號","121.449548333333","25.097895","6501500","五股區"
"248010","682-TV","2019/10/21 18:43:16","新北市五股區明德路12巷26弄7號","121.432961666667","25.0727216666667","6501500","五股區"
"234023","9380-KE","2019/10/21 18:43:22","新北市永和區環河東路二段100號","121.524066666667","25.0102833333333","6500400","永和區"
"234077","969-R7","2019/10/21 18:43:20","新北市永和區中正路70號","121.513525","24.9950416666667","6500400","永和區"
"234067","AAC-212","2019/10/21 18:43:10","新北市永和區福和路292號","121.517271666667","25.007485","6500400","永和區"
"234003","AAC-295","2019/10/21 18:43:19","新北市永和區福和路74號","121.523058333333","25.0080533333333","6500400","永和區"
"232011","375-UM","2019/10/21 18:43:08","新北市坪林區坪雙路一段41號","121.711701666667","24.9424583333333","6502000","坪林區"
"244007","080-UY","2019/10/21 18:43:08","新北市林口區太平嶺15號","121.37807","25.1147666666667","6501700","林口區"
"244019","402-UM","2019/10/21 18:43:28","新北市林口區麗園二街10-6號","121.378155","25.0695816666667","6501700","林口區"
"244013","KEA-2802","2019/10/21 18:43:26","新北市林口區麗園一街6巷3-2號","121.376186666667","25.0699416666667","6501700","林口區"
"244023","483-VK","2019/10/21 18:43:24","新北市林口區信義路126號","121.38046","25.07941","6501700","林口區"
"244017","485-VK","2019/10/21 18:43:30","新北市林口區文化二路一段20巷29號","121.365125","25.0669166666667","6501700","林口區"
"244009","656-BX","2019/10/21 18:43:08","新北市林口區竹林路366巷14號","121.392651666667","25.08464","6501700","林口區"
"244011","701-TV","2019/10/21 18:43:23","新北市林口區中正路41巷7號","121.395753333333","25.0768116666667","6501700","林口區"
"244025","837-TS","2019/10/21 18:43:22","新北市林口區南勢五街302-9號","121.35703","25.0754533333333","6501700","林口區"
"244021","838-TS","2019/10/21 18:43:11","新北市林口區工六路100號","121.401305","25.076495","6501700","林口區"
"243010","297-R6","2019/10/21 18:43:25","新北市泰山區辭修路48號","121.428415","25.0571633333333","6501600","泰山區"
"243014","KEA-2801","2019/10/21 18:43:19","新北市泰山區犁頭窠3-1號","121.42245","25.0606933333333","6501600","泰山區"
"243016","421-VK","2019/10/21 18:43:21","新北市泰山區泰林路二段345號","121.429001666667","25.0635166666667","6501600","泰山區"
"243009","KEA-2215","2019/10/21 18:43:20","新北市泰山區泰林路二段387號","121.42736","25.0642566666667","6501600","泰山區"
"243011","KEA-2216","2019/10/21 18:43:28","新北市泰山區民權街2號","121.42769","25.0509116666667","6501600","泰山區"
"243015","680-BX","2019/10/21 18:43:25","新北市泰山區美寧街50號","121.430465","25.06442","6501600","泰山區"
"222003","436-BY","2019/10/21 18:43:25","新北市深坑區翠谷街11號","121.626658333333","25.0081816666667","6501800","深坑區"
"222001","628-TS","2019/10/21 18:43:24","新北市深坑區松柏街43巷2號","121.63868","25.0120283333333","6501800","深坑區"
"222002","659-BX","2019/10/21 18:43:26","新北市深坑區文山路一段69號","121.627036666667","25.001885","6501800","深坑區"
"231061","002-UM","2019/10/21 18:43:23","新北市新店區安華路28-1號","121.519815","24.960725","6500600","新店區"
"231055","0291-UT","2019/10/21 18:43:21","新北市新店區中華路83巷2弄5號","121.538853333333","24.968455","6500600","新店區"
"231044","046-UY","2019/10/21 18:43:27","新北市新店區光明街231號","121.540345","24.96439","6500600","新店區"
"231060","106-UY","2019/10/21 18:43:24","新北市新店區安華路28-1號","121.51984","24.96086","6500600","新店區"
"231051","107-UY","2019/10/21 18:43:19","新北市新店區中央路81號","121.532351666667","24.976605","6500600","新店區"
"231049","108-UY","2019/10/21 18:43:22","新北市新店區安康路一段105號","121.5291","24.9615233333333","6500600","新店區"
"231065","110-UY","2019/10/21 18:43:17","新北市新店區安華路16號","121.515781666667","24.957995","6500600","新店區"
"221032","KEA-2785","2019/10/21 18:43:27","新北市汐止區福山街58巷15號","121.618211666667","25.04596","6501100","汐止區"
"231062","256-BX","2019/10/21 18:43:23","新北市新店區安一路一段1-1號","121.519743333333","24.9611016666667","6500600","新店區"
"231054","260-TV","2019/10/21 18:43:26","新北市新店區安康路一段138號","121.526575","24.9628233333333","6500600","新店區"
"231042","268-BY","2019/10/21 18:43:14","新北市新店區安一路一段1-1號","121.519691666667","24.96134","6500600","新店區"
"231064","278-BY","2019/10/21 18:43:14","新北市新店區安一路一段1-1號","121.519613333333","24.9611333333333","6500600","新店區"
"231050","AAD-862","2019/10/21 18:43:17","新北市新店區安一路一段1-1號","121.519788333333","24.9611266666667","6500600","新店區"
"231045","355-BY","2019/10/21 18:43:28","新北市新店區安華路28-1號","121.519266666667","24.9609366666667","6500600","新店區"
"231058","3713-VJ","2019/10/21 18:43:24","新北市新店區北宜路一段168號","121.540355","24.952965","6500600","新店區"
"231056","4715-K9","2019/10/21 18:43:28","新北市新店區大豐路66號","121.539286666667","24.97956","6500600","新店區"
"231052","512-UM","2019/10/21 18:43:24","新北市新店區永興路34號","121.543616666667","24.9387983333333","6500600","新店區"
"231040","617-UM","2019/10/21 18:43:24","新北市新店區安華路28-1號","121.519223333333","24.96087","6500600","新店區"
"231041","619-UM","2019/10/21 18:43:15","新北市新店區安華路28-1號","121.520046666667","24.96073","6500600","新店區"
"231063","641-BX","2019/10/21 18:43:18","新北市新店區安華路28-1號","121.519551666667","24.96063","6500600","新店區"
"231047","KED-0819","2019/10/21 18:43:15","新北市新店區安一路一段1-1號","121.51971","24.9611733333333","6500600","新店區"
"231046","719-UM","2019/10/21 18:43:12","新北市新店區直潭二街1號","121.53541","24.9431383333333","6500600","新店區"
"231057","720-UM","2019/10/21 18:43:21","新北市新店區新烏路一段123-1號","121.544796666667","24.9375966666667","6500600","新店區"
"231059","897-TW","2019/10/21 18:43:24","新北市新店區安華路28-1號","121.519786666667","24.960515","6500600","新店區"
"231043","899-TW","2019/10/21 18:43:26","新北市新店區安華路28-1號","121.519328333333","24.9607966666667","6500600","新店區"
"231066","AKT-0513","2019/10/21 18:43:10","新北市新店區安華路1-1號","121.519455","24.9604833333333","6500600","新店區"
"235066","003-UY","2019/10/21 18:43:16","新北市中和區水源路34巷21弄1號","121.504721666667","25.0028633333333","6500300","中和區"
"235063","006-UY","2019/10/21 18:43:24","新北市中和區建一路198號","121.487735","24.9964033333333","6500300","中和區"
"235056","096-UM","2019/10/21 18:43:31","新北市中和區員山路506巷2號","121.479285","25.0084383333333","6500300","中和區"
"235039","097-UM","2019/10/21 18:43:17","新北市中和區安樂路143巷20號","121.51326","24.996745","6500300","中和區"
"235065","098-UM","2019/10/21 18:43:26","新北市中和區中山路二段2巷59號","121.501766666667","25.0073233333333","6500300","中和區"
"235040","150-BY","2019/10/21 18:43:26","新北市中和區保健路76巷5號","121.511415","24.9960466666667","6500300","中和區"
"235058","151-BY","2019/10/21 18:43:27","新北市中和區連城路571號","121.47914","24.99455","6500300","中和區"
"235055","183-VK","2019/10/21 18:43:15","新北市中和區民生街53號","121.469598333333","25.0051583333333","6500300","中和區"
"235038","185-VK","2019/10/21 18:43:23","新北市中和區立人街14巷31號","121.519483333333","24.9953683333333","6500300","中和區"
"235067","255-BX","2019/10/21 18:43:21","新北市中和區中正路861巷1號","121.484541666667","25.003285","6500300","中和區"
"235044","293-VK","2019/10/21 18:43:28","新北市中和區復興路280巷48號","121.500976666667","24.9919583333333","6500300","中和區"
"235072","301-VK","2019/10/21 18:43:22","新北市中和區中山路二段181號","121.501038333333","25.0027583333333","6500300","中和區"
"235043","352-BY","2019/10/21 18:43:24","新北市中和區成功路139號","121.525735","24.9901733333333","6500300","中和區"
"235042","KEA-2878","2019/10/21 18:43:18","新北市中和區秀朗路三段135巷7弄14號","121.5257","24.9918466666667","6500300","中和區"
"235050","4979-A6","2019/10/21 18:43:11","新北市中和區景新街496巷30弄15號","121.51301","24.9855466666667","6500300","中和區"
"235069","4980-A6","2019/10/21 18:43:17","新北市中和區連城路65巷12號","121.497941666667","25.0006","6500300","中和區"
"235045","551-UM","2019/10/21 18:43:18","新北市中和區復興路73號","121.503711666667","24.9901616666667","6500300","中和區"
"235070","558-UM","2019/10/21 18:43:15","新北市中和區南山路7號","121.502135","24.99954","6500300","中和區"
"235060","KED-0823","2019/10/21 18:43:19","新北市中和區民治街10巷1號","121.475078333333","25.004585","6500300","中和區"
"235054","640-BX","2019/10/21 18:43:25","新北市中和區民享街29巷1-1號","121.474016666667","25.0045266666667","6500300","中和區"
"235047","732-UM","2019/10/21 18:43:16","新北市中和區興南路二段111號","121.505716666667","24.9843933333333","6500300","中和區"
"235046","733-UM","2019/10/21 18:43:13","新北市中和區仁愛街36巷30號","121.51099","24.9868833333333","6500300","中和區"
"235057","801-TS","2019/10/21 18:43:22","新北市中和區民利街13號","121.480541666667","24.9991","6500300","中和區"
"235041","802-TS","2019/10/21 18:43:21","新北市中和區中安街226號","121.512308333333","24.9987633333333","6500300","中和區"
"235052","805-TS","2019/10/21 18:41:58","新北市中和區興南路三段99號","121.488868333333","24.9727333333333","6500300","中和區"
"235048","896-TW","2019/10/21 18:43:26","新北市中和區南山路300號","121.507865","24.9870816666667","6500300","中和區"
"235053","900-TW","2019/10/21 18:43:15","新北市中和區華福街2巷1號","121.465183333333","24.99678","6500300","中和區"
"235064","911-UM","2019/10/21 18:43:30","新北市中和區泰和街42號","121.499151666667","24.9998666666667","6500300","中和區"
"235051","157-BY","2019/10/21 18:43:22","新北市中和區華新街143巷41號","121.506323333333","24.9804433333333","6500300","中和區"
"235001","AAC-213","2019/10/21 18:43:28","新北市中和區自立路99巷32號","121.523788333333","24.9945666666667","6500300","中和區"
"235059","AAC-215","2019/10/21 18:43:30","新北市中和區錦和路400號","121.490986666667","24.9899416666667","6500300","中和區"
"220065","072-UY","2019/10/21 18:43:09","新北市板橋區成都街51號","121.461473333333","25.004985","6500100","板橋區"
"220086","073-UY","2019/10/21 18:43:13","新北市板橋區華東街300號","121.452765","25.0028966666667","6500100","板橋區"
"220106","075-UY","2019/10/21 18:43:19","新北市板橋區民生路二段56-6號","121.471056666667","25.0193","6500100","板橋區"
"220069","AAD-861","2019/10/21 18:43:17","新北市板橋區大華街70號","121.45908","25.0058583333333","6500100","板橋區"
"220068","120-SR","2019/10/21 18:43:20","新北市板橋區莒光路140巷5號","121.473438333333","25.0234633333333","6500100","板橋區"
"226004","312-R5","2019/10/21 18:43:12","新北市平溪區平溪里三坑路50號","121.733933333333","25.03082","6502400","平溪區"
"235049","251-BX","2019/10/21 18:43:13","新北市中和區明義街4號","121.50514","24.994955","6500300","中和區"
"228003","097-TW","2019/10/21 18:43:18","新北市貢寮區和美里龍洞街5-1號","121.918448333333","25.111835","6502600","貢寮區"
"228002","663-BX","2019/10/21 18:43:14","新北市貢寮區福隆里東興街6-11號","121.95076","25.0210483333333","6502600","貢寮區"
"228001","670-TC","2019/10/21 18:43:14","新北市貢寮區仁理村保健街73號","121.923721666667","25.0516683333333","6502600","貢寮區"
"224006","676-BX","2019/10/21 18:43:26","新北市瑞芳區明燈路三段97號","121.804345","25.1084933333333","6501200","瑞芳區"
"224007","285-BY","2019/10/21 18:43:27","新北市瑞芳區大埔路211-1號","121.762613333333","25.10176","6501200","瑞芳區"
"224009","275-VK","2019/10/21 18:43:16","新北市瑞芳區祈堂路105號","121.859026666667","25.1093966666667","6501200","瑞芳區"
"224008","273-VK","2019/10/21 18:43:21","新北市瑞芳區逢甲路268號","121.804885","25.11082","6501200","瑞芳區"
"224005","271-BY","2019/10/21 18:43:15","新北市瑞芳區瑞濱路20號","121.826078333333","25.1212233333333","6501200","瑞芳區"
"227002","642-TC","2019/10/21 18:43:29","新北市雙溪區魚行里坤溪3-5號","121.8755","25.0213633333333","6502500","雙溪區"
"227001","400-TW","2019/10/21 18:43:12","新北市雙溪區牡丹里下坑11號","121.851013333333","25.0561783333333","6502500","雙溪區"
"253005","032-BX","2019/10/21 18:43:09","新北市石門區中山路32-3號","121.565918333333","25.2899133333333","6502200","石門區"
"253006","295-VK","2019/10/21 18:43:12","新北市石門區八甲1-11號","121.521126666667","25.2839083333333","6502200","石門區"
"208002","KEA-2872","2019/10/21 18:43:28","新北市金山區忠孝一路33號","121.63831","25.2196133333333","6502700","金山區"
"208003","665-BX","2019/10/21 18:43:19","新北市金山區中山路395號","121.633383333333","25.2253083333333","6502700","金山區"
"251002","012-UM","2019/10/21 18:43:18","新北市淡水區中正東路71-8號","121.44744","25.1674583333333","6501000","淡水區"
"251015","KEA-2871","2019/10/21 18:43:16","新北市淡水區興福寮66巷28號","121.486146666667","25.1626516666667","6501000","淡水區"
"251016","179-VK","2019/10/21 18:43:28","新北市淡水區下圭柔山79號","121.441243333333","25.2049816666667","6501000","淡水區"
"251004","180-VK","2019/10/21 18:43:23","新北市淡水區竹林路151號","121.462761666667","25.14276","6501000","淡水區"
"251008","181-VK","2019/10/21 18:43:26","新北市淡水區北投子73-1號","121.45333","25.1829416666667","6501000","淡水區"
"251013","182-VK","2019/10/21 18:43:26","新北市淡水區雲廣坑5-1號","121.474355","25.21306","6501000","淡水區"
"251010","413-VK","2019/10/21 18:43:21","新北市淡水區沙崙路124號","121.423505","25.1826916666667","6501000","淡水區"
"251012","441-VK","2019/10/21 18:43:09","新北市淡水區北新路121號","121.448938333333","25.1786716666667","6501000","淡水區"
"251001","559-UM","2019/10/21 18:43:29","新北市淡水區自強路415巷2號","121.465541666667","25.1342066666667","6501000","淡水區"
"251006","561-UM","2019/10/21 18:43:18","新北市淡水區崁頂51-1號","121.441868333333","25.1975566666667","6501000","淡水區"
"251014","577-R6","2019/10/21 18:43:23","新北市淡水區崙頂12-8號","121.4956","25.2171933333333","6501000","淡水區"
"251011","650-BX","2019/10/21 18:43:24","新北市淡水區學府路32巷87號","121.448131666667","25.167635","6501000","淡水區"
"251003","673-BX","2019/10/21 18:43:13","新北市淡水區北新路69巷26號","121.44671","25.1800416666667","6501000","淡水區"
"207003","550-UM","2019/10/21 18:43:20","新北市萬里區野柳里港東路162-12號","121.690291666667","25.2040616666667","6502800","萬里區"
"252002","178-VK","2019/10/21 18:43:15","新北市三芝區智成街33號","121.503703333333","25.25652","6502100","三芝區"
"252003","249-BX","2019/10/21 18:43:27","新北市三芝區後厝里大片頭109號","121.458223333333","25.2427016666667","6502100","三芝區"
"208001","170-UY","2019/10/21 18:43:14","新北市金山區文化三路66巷1號","121.63416","25.2256133333333","6502700","金山區"
"237004","KEA-2597","2019/10/21 18:43:25","新北市三峽區插角227號","121.415003333333","24.868255","6500900","三峽區"
"237007","153-BY","2019/10/21 18:43:18","新北市三峽區柑樹路6巷21號","121.361935","24.9042633333333","6500900","三峽區"
"237009","210-TH","2019/10/21 18:43:18","新北市三峽區弘園街71號","121.366126666667","24.9269166666667","6500900","三峽區"
"237013","252-BX","2019/10/21 18:43:23","新北市三峽區光明路69巷25號","121.376623333333","24.9291433333333","6500900","三峽區"
"237012","275-BY","2019/10/21 18:43:08","新北市三峽區三樹路358號","121.38398","24.9434366666667","6500900","三峽區"
"237008","302-VK","2019/10/21 18:43:13","新北市三峽區白雞33-54號","121.370543333333","24.91267","6500900","三峽區"
"237014","433-BY","2019/10/21 18:43:16","新北市三峽區復興路480巷52-1號","121.361963333333","24.9411783333333","6500900","三峽區"
"237006","5529-G3","2019/10/21 18:43:26","新北市三峽區溪東路315巷3弄2號","121.410866666667","24.9309516666667","6500900","三峽區"
"237011","KEA-2596","2019/10/21 18:43:14","新北市三峽區成福路101號","121.419356666667","24.929735","6500900","三峽區"
"237015","649-BX","2019/10/21 18:43:24","新北市三峽區成福路317號","121.429661666667","24.923665","6500900","三峽區"
"237010","706-TV","2019/10/21 18:43:19","新北市三峽區復興路489號","121.361246666667","24.938435","6500900","三峽區"
"237005","AKY-6261","2019/10/21 18:43:11","新北市三峽區民生街104巷2-8號","121.373851666667","24.9361016666667","6500900","三峽區"
"236042","KED-0685","2019/10/21 18:43:25","新北市土城區裕民路70號","121.449255","24.9876483333333","6501300","土城區"
"236078","166-UM","2019/10/21 18:43:10","新北市土城區頂埔街12號","121.416706666667","24.9585483333333","6501300","土城區"
"236030","253-BX","2019/10/21 18:43:21","新北市土城區中華路二段126號","121.437768333333","24.9735416666667","6501300","土城區"
"236026","269-VK","2019/10/21 18:43:24","新北市土城區和平路53號","121.443736666667","24.9717483333333","6501300","土城區"
"236014","270-VK","2019/10/21 18:43:23","新北市土城區清水路278巷3號","121.462341666667","24.98313","6501300","土城區"
"236039","271-VK","2019/10/21 18:43:25","新北市土城區明德路一段247巷19號","121.462928333333","24.97752","6501300","土城區"
"236069","KEA-2877","2019/10/21 18:43:19","新北市土城區永豐路157巷4號","121.468258333333","24.9814833333333","6501300","土城區"
"252001","KED-0821","2019/10/21 18:43:13","新北市三芝區中正路三段26號","121.502491666667","25.2527266666667","6502100","三芝區"
"236020","401-BY","2019/10/21 18:43:30","新北市土城區延吉街253巷26號","121.467905","24.9838633333333","6501300","土城區"
"236059","912-UM","2019/10/21 18:43:19","新北市土城區中央路三段119-1號","121.434241666667","24.9654983333333","6501300","土城區"
"236048","913-UM","2019/10/21 18:43:16","新北市土城區青雲路113號","121.458808333333","24.98448","6501300","土城區"
"236063","915-UM","2019/10/21 18:43:27","新北市土城區延和路177巷11弄1號","121.469726666667","24.9907416666667","6501300","土城區"
"236055","AAC-216","2019/10/21 18:43:28","新北市土城區裕民路137-3號","121.451635","24.9863533333333","6501300","土城區"
"238023","601-UM","2019/10/21 18:43:25","新北市樹林區三福街114號","121.406413333333","25.016355","6500700","樹林區"
"238024","5061-A6","2019/10/21 18:43:22","新北市樹林區太順街79巷17號","121.41717","24.9780933333333","6500700","樹林區"
"238018","KEA-2217","2019/10/21 18:43:27","新北市樹林區鎮前街165號","121.422235","24.9871933333333","6500700","樹林區"
"238022","KEA-2213","2019/10/21 18:43:28","新北市樹林區中華路393號","121.411363333333","24.980465","6500700","樹林區"
"238020","268-VK","2019/10/21 18:43:18","新北市樹林區三俊街253號","121.422236666667","25.0144083333333","6500700","樹林區"
"238026","172-UY","2019/10/21 18:43:29","新北市樹林區育德街78-1號","121.388035","24.9680816666667","6500700","樹林區"
"238016","169-UY","2019/10/21 18:43:13","新北市樹林區中山路二段34號","121.417365","24.9851666666667","6500700","樹林區"
"239008","527-UM","2019/10/21 18:43:26","新北市鶯歌區朝陽街4號","121.336228333333","24.9766316666667","6500800","鶯歌區"
"239005","526-UM","2019/10/21 18:43:21","新北市鶯歌區鳳吉三街25號","121.327078333333","24.9736966666667","6500800","鶯歌區"
"239001","417-VK","2019/10/21 18:43:28","新北市鶯歌區國中街197號","121.338223333333","24.9391683333333","6500800","鶯歌區"
"239003","360-BY","2019/10/21 18:43:25","新北市鶯歌區鶯桃路390號","121.333786666667","24.9635866666667","6500800","鶯歌區"
"239002","359-BY","2019/10/21 18:43:24","新北市鶯歌區中山路119號","121.34993","24.9567116666667","6500800","鶯歌區"
"239004","193-VK","2019/10/21 18:43:21","新北市鶯歌區尖山路210號","121.343386666667","24.9473083333333","6500800","鶯歌區"
"221036","130-UY","2019/10/21 18:43:26","新北市汐止區長興街一段50號","121.670856666667","25.079475","6501100","汐止區"
"221015","131-UY","2019/10/21 18:43:28","新北市汐止區鄉友街52號","121.669241666667","25.0817966666667","6501100","汐止區"
"221010","269-BY","2019/10/21 18:43:18","新北市汐止區汐萬路三段288號","121.640896666667","25.1087633333333","6501100","汐止區"
"221012","278-VK","2019/10/21 18:43:23","新北市汐止區保長路147巷2號","121.67701","25.076605","6501100","汐止區"
"221029","298-VK","2019/10/21 18:43:31","新北市汐止區樟樹一路95號","121.641971666667","25.0635433333333","6501100","汐止區"
"221021","299-VK","2019/10/21 18:43:29","新北市汐止區水源路一段115號","121.656483333333","25.062985","6501100","汐止區"
"221031","353-TW","2019/10/21 18:43:28","新北市汐止區大同路一段306-2號","121.636036666667","25.0582466666667","6501100","汐止區"
"221035","622-UM","2019/10/21 18:43:18","新北市汐止區大同路二段171號","121.651295","25.0647216666667","6501100","汐止區"
"221025","623-UM","2019/10/21 18:43:21","新北市汐止區仁愛路119巷4號","121.662565","25.0637966666667","6501100","汐止區"
"221002","707-TV","2019/10/21 18:43:29","新北市汐止區大同路一段233-1號","121.634488333333","25.0576866666667","6501100","汐止區"
"221018","753-BX","2019/10/21 18:43:23","新北市汐止區茄苳路250巷13號","121.6716","25.0678666666667","6501100","汐止區"
"220080","200-UY","2019/10/21 18:43:16","新北市板橋區大觀路二段431-1號","121.441271666667","24.995045","6500100","板橋區"
"220082","610-BX","2019/10/21 18:43:10","新北市板橋區篤行路二段103號","121.431688333333","24.9913333333333","6500100","板橋區"
"224002","257-TC","2019/10/21 18:43:17","新北市瑞芳區中正路2號","121.809256666667","25.1070133333333","6501200","瑞芳區"
"220056","276-BY","2019/10/21 18:43:21","新北市板橋區四川路一段147號","121.459935","25.004235","6500100","板橋區"
"220072","277-BY","2019/10/21 18:43:14","新北市板橋區金門街31巷28號","121.434101666667","24.9935966666667","6500100","板橋區"
"220094","283-UM","2019/10/21 18:43:13","新北市板橋區民生路二段89-6號","121.470603333333","25.019365","6500100","板橋區"
"220071","283-VK","2019/10/21 18:43:12","新北市板橋區四川路一段467號","121.45753","24.9980033333333","6500100","板橋區"
"220101","285-UM","2019/10/21 18:43:24","新北市板橋區民生路二段232-13號","121.46871","25.02241","6500100","板橋區"
"220083","286-VK","2019/10/21 18:43:27","新北市板橋區大觀路二段17號","121.446803333333","25.003375","6500100","板橋區"
"220081","287-VK","2019/10/21 18:43:29","新北市板橋區南雅西路二段40號","121.45286","25.010035","6500100","板橋區"
"220090","288-VK","2019/10/21 18:43:20","新北市板橋區民生路三段64號","121.46685","25.025435","6500100","板橋區"
"220061","293-UM","2019/10/21 18:43:00","新北市板橋區民生路二段89-4號","121.470991666667","25.0182583333333","6500100","板橋區"
"220062","295-UM","2019/10/21 18:43:20","新北市板橋區民生路二段120號","121.470583333333","25.01951","6500100","板橋區"
"220084","296-UM","2019/10/21 18:43:21","新北市板橋區大觀路二段148巷26號","121.441928333333","24.9997966666667","6500100","板橋區"
"220075","303-R5","2019/10/21 18:43:16","新北市板橋區南雅西路一段110號","121.45245","25.00613","6500100","板橋區"
"220092","307-R5","2019/10/21 18:43:28","新北市板橋區縣民大道二段166號","121.468408333333","25.0166733333333","6500100","板橋區"
"220098","317-R6","2019/10/21 18:43:13","新北市板橋區民生路二段120號","121.470805","25.0194133333333","6500100","板橋區"
"220089","487-VK","2019/10/21 18:43:12","新北市板橋區民生路二段236號","121.468425","25.0229466666667","6500100","板橋區"
"242011","280-VK","2019/10/21 18:43:16","新北市土城區亞洲路12巷6號","121.435871666667","24.97588","6500500","新莊區"
"220088","491-VK","2019/10/21 18:43:11","新北市板橋區民生路二段148號","121.471428333333","25.0198233333333","6500100","板橋區"
"220035","560-BX","2019/10/21 18:43:14","新北市板橋區南雅西路二段226號","121.452236666667","25.015555","6500100","板橋區"
"220103","561-BX","2019/10/21 18:43:11","新北市板橋區民生路二段56-6號","121.471341666667","25.0187566666667","6500100","板橋區"
"220063","609-BX","2019/10/21 18:43:14","新北市板橋區民生路二段17號","121.472416666667","25.0163966666667","6500100","板橋區"
"220091","637-BX","2019/10/21 18:43:14","新北市板橋區萬板路58號","121.472118333333","25.0231033333333","6500100","板橋區"
"220057","686-BX","2019/10/21 18:43:30","新北市板橋區館前東路66號","121.461245","25.0073483333333","6500100","板橋區"
"220093","689-BX","2019/10/21 18:43:13","新北市板橋區民生路二段188號","121.470063333333","25.0202783333333","6500100","板橋區"
"220102","KEA-2699","2019/10/21 18:42:47","新北市板橋區民生路二段120號","121.470663333333","25.01959","6500100","板橋區"
"220055","827-TW","2019/10/21 18:43:21","新北市板橋區忠孝路101號","121.462483333333","25.0022816666667","6500100","板橋區"
"220067","831-TW","2019/10/21 18:43:20","新北市板橋區民生路一段87號","121.4748","25.0140833333333","6500100","板橋區"
"220077","833-TW","2019/10/21 18:43:25","新北市板橋區大觀路二段431-1號","121.441338333333","24.9950416666667","6500100","板橋區"
"220074","895-R6","2019/10/21 18:43:15","新北市板橋區南門街73號","121.456978333333","25.0080566666667","6500100","板橋區"
"220073","985-R7","2019/10/21 18:43:18","新北市板橋區貴興路29號","121.45766","25.0040433333333","6500100","板橋區"
"220097","AAC-210","2019/10/21 18:43:10","新北市板橋區民生路二段89-6號","121.470778333333","25.019015","6500100","板橋區"
"220064","AAC-253","2019/10/21 18:43:24","新北市板橋區中山路一段272巷18-1號","121.469383333333","25.01371","6500100","板橋區"
"235068","KEA-2873","2019/10/21 18:43:14","新北市中和區中正路211巷27號","121.49778","24.992685","6500300","中和區"
"235061","KEA-2875","2019/10/21 18:43:09","新北市中和區民治街128巷3號","121.474991666667","25.0028933333333","6500300","中和區"
"235062","KEA-2876","2019/10/21 18:43:13","新北市中和區中山路二段356號","121.492888333333","25.0029766666667","6500300","中和區"
