"lineid","car","time","location","longitude","latitude","cityid","cityname"
"234046","148-BY","2019/10/21 19:29:25","新北市永和區秀朗路二段149號","121.524725","25.0017","6500400","永和區"
"234081","298-R6","2019/10/21 19:29:19","新北市永和區林森路6號","121.526641666667","25.0057183333333","6500400","永和區"
"234038","336-UY","2019/10/21 19:29:18","新北市永和區民樂街41巷1號","121.527493333333","25.0000983333333","6500400","永和區"
"234064","337-UY","2019/10/21 19:29:24","新北市永和區中正路368巷1弄88號","121.520531666667","25.000725","6500400","永和區"
"234086","338-UY","2019/10/21 19:29:12","新北市永和區林森路62號","121.523995","25.0041233333333","6500400","永和區"
"234070","552-UM","2019/10/21 19:29:13","新北市永和區警光街12號","121.51975","25.009545","6500400","永和區"
"234017","745-BX","2019/10/21 19:29:12","新北市永和區環河西路一段87號","121.512338333333","25.017915","6500400","永和區"
"234030","746-BX","2019/10/21 19:29:29","新北市永和區民權路1巷44號","121.522415","24.998075","6500400","永和區"
"234054","KEA-2590","2019/10/21 19:29:18","新北市永和區永和路二段233號","121.515623333333","25.0141583333333","6500400","永和區"
"234007","KED-0605","2019/10/21 19:29:23","新北市永和區永和路一段178號","121.514173333333","25.0089183333333","6500400","永和區"
"234013","KEA-2591","2019/10/21 19:29:23","新北市永和區永和路二段70號","121.514851666667","25.0112333333333","6500400","永和區"
"234061","AAD-866","2019/10/21 19:29:25","新北市永和區中正路479號","121.517046666667","25.00641","6500400","永和區"
"234042","862-TW","2019/10/21 19:29:14","新北市永和區水源街39巷18號","121.51049","25.003555","6500400","永和區"
"234050","863-TW","2019/10/21 19:29:20","新北市永和區信義路109號","121.51227","25.014605","6500400","永和區"
"234026","9371-KE","2019/10/21 19:28:56","新北市中和區安樂路195號","121.51469","24.9982816666667","6500400","永和區"
"234011","9373-KE","2019/10/21 19:29:20","新北市永和區保安路260號","121.506056666667","25.01234","6500400","永和區"
"249003","593-UM","2019/10/21 19:29:17","新北市八里區中山路二段486號","121.398541666667","25.1469833333333","6502300","八里區"
"248013","025-BX","2019/10/21 19:29:20","新北市五股區民義路一段157號","121.432561666667","25.0875383333333","6501500","五股區"
"248008","KED-0815","2019/10/21 19:29:21","新北市五股區中興路一段137號","121.465405","25.0734966666667","6501500","五股區"
"248012","247-BX","2019/10/21 19:29:22","新北市五股區成泰路二段91巷11號","121.437533333333","25.08411","6501500","五股區"
"248004","677-BX","2019/10/21 19:29:14","新北市五股區工商路124號","121.436528333333","25.08577","6501500","五股區"
"248002","678-BX","2019/10/21 19:29:26","新北市五股區凌雲路一段158巷6號","121.447813333333","25.10295","6501500","五股區"
"234023","9380-KE","2019/10/21 19:29:22","新北市永和區竹林路91巷70號","121.521948333333","25.0136633333333","6500400","永和區"
"234077","969-R7","2019/10/21 19:29:20","新北市永和區民權路60號","121.519708333333","24.9982483333333","6500400","永和區"
"234074","AAC-211","2019/10/21 19:29:27","新北市永和區竹林路6號","121.516301666667","25.0148433333333","6500400","永和區"
"234067","AAC-212","2019/10/21 19:29:25","新北市永和區保平路174巷17號","121.510141666667","25.0074466666667","6500400","永和區"
"234003","AAC-295","2019/10/21 19:29:19","新北市永和區福和路385號","121.514255","25.0076916666667","6500400","永和區"
"244023","483-VK","2019/10/21 19:29:24","新北市林口區民有街70號","121.372903333333","25.0770083333333","6501700","林口區"
"243012","AAD-798","2019/10/21 19:29:29","新北市泰山區仁義路220巷10號","121.432846666667","25.0536966666667","6501600","泰山區"
"243010","297-R6","2019/10/21 19:21:44","新北市泰山區明志路一段519號","121.430365","25.0541183333333","6501600","泰山區"
"243014","KEA-2801","2019/10/21 19:29:19","新北市泰山區泰林路二段21-17號","121.436481666667","25.0559916666667","6501600","泰山區"
"243016","421-VK","2019/10/21 19:29:21","新北市泰山區明志路三段352巷10號","121.421376666667","25.03587","6501600","泰山區"
"243009","KEA-2215","2019/10/21 19:29:20","新北市泰山區和平街9-2號","121.434128333333","25.06454","6501600","泰山區"
"243011","KEA-2216","2019/10/21 19:29:28","新北市三重區新北大道六段50-1號","121.429231666667","25.0401966666667","6501600","泰山區"
"243013","646-TV","2019/10/21 19:29:27","新北市泰山區明志路三段145巷5弄24號","121.425693333333","25.040465","6501600","泰山區"
"243015","680-BX","2019/10/21 19:29:25","新北市泰山區明志路二段136巷1-1號","121.427343333333","25.05119","6501600","泰山區"
"222003","436-BY","2019/10/21 19:28:22","新北市深坑區深南路51-1號","121.621293333333","25.009765","6501800","深坑區"
"222001","628-TS","2019/10/21 19:29:24","新北市深坑區北深路二段119號","121.6168","25.0030533333333","6501800","深坑區"
"222002","659-BX","2019/10/21 19:29:26","新北市深坑區北深路一段177號","121.632538333333","25.0108383333333","6501800","深坑區"
"231061","002-UM","2019/10/21 19:29:23","新北市新店區安康路一段266巷4號","121.520176666667","24.9640266666667","6500600","新店區"
"231044","046-UY","2019/10/21 19:29:27","新北市新店區北新路二段268號","121.542908333333","24.9786266666667","6500600","新店區"
"231060","106-UY","2019/10/21 19:29:24","新北市新店區安康路二段1-5號","121.517106666667","24.963855","6500600","新店區"
"231051","107-UY","2019/10/21 19:29:18","新北市新店區中央五街21號","121.529318333333","24.97456","6500600","新店區"
"231049","108-UY","2019/10/21 19:29:02","新北市新店區北新路三段65巷12弄25號","121.5406","24.981855","6500600","新店區"
"231065","110-UY","2019/10/21 19:29:17","新北市新店區安祥路109巷1弄45號","121.47722","24.9604766666667","6500600","新店區"
"231062","256-BX","2019/10/21 19:29:23","新北市新店區莒光路97-3號","121.522383333333","24.9537016666667","6500600","新店區"
"231054","260-TV","2019/10/21 19:29:26","新北市新店區文中路40號","121.539748333333","24.9565716666667","6500600","新店區"
"231042","268-BY","2019/10/21 19:29:14","新北市新店區中興路一段110號","121.541136666667","24.9621633333333","6500600","新店區"
"231064","278-BY","2019/10/21 19:29:14","新北市新店區安康路二段87號","121.513438333333","24.9628416666667","6500600","新店區"
"231050","AAD-862","2019/10/21 19:29:19","新北市新店區竹林路83號","121.554093333333","24.950805","6500600","新店區"
"231045","355-BY","2019/10/21 19:29:28","新北市新店區北宜路二段209號","121.55314","24.9533116666667","6500600","新店區"
"231058","3713-VJ","2019/10/21 19:29:24","新北市新店區北新路一段106號","121.542686666667","24.96948","6500600","新店區"
"231056","4715-K9","2019/10/21 19:29:28","新北市新店區安民街121巷12號","121.515465","24.9692583333333","6500600","新店區"
"231052","512-UM","2019/10/21 19:29:24","新北市新店區新烏路二段178號","121.548111666667","24.9179916666667","6500600","新店區"
"231040","617-UM","2019/10/21 19:29:24","新北市新店區中華路68號","121.539171666667","24.9690916666667","6500600","新店區"
"231041","619-UM","2019/10/21 19:29:15","新北市新店區中正路622號","121.533988333333","24.988865","6500600","新店區"
"231063","641-BX","2019/10/21 19:29:18","新北市新店區達觀路14巷3號","121.503125","24.9415816666667","6500600","新店區"
"231047","KED-0819","2019/10/21 19:29:15","新北市新店區五峰路119號","121.54503","24.966525","6500600","新店區"
"231046","719-UM","2019/10/21 19:27:32","新北市新店區北新路一段28號","121.54087","24.9657816666667","6500600","新店區"
"231057","720-UM","2019/10/21 19:29:21","新北市新店區花園一路二段27號","121.551365","24.9324866666667","6500600","新店區"
"231059","897-TW","2019/10/21 19:29:23","新北市新店區安和路三段61號","121.51793","24.9832416666667","6500600","新店區"
"231043","899-TW","2019/10/21 19:29:26","新北市新店區北新路二段252-1號","121.543083333333","24.9779983333333","6500600","新店區"
"231066","AKT-0513","2019/10/21 19:29:10","新北市新店區安康路三段359巷12弄1號","121.484581666667","24.94985","6500600","新店區"
"241011","013-R5","2019/10/21 19:29:16","新北市三重區河邊北街100巷1號","121.503876666667","25.070495","6500200","三重區"
"241028","022-UY","2019/10/21 19:29:22","新北市三重區中寮街31號","121.492553333333","25.05895","6500200","三重區"
"241008","059-VK","2019/10/21 19:29:23","新北市三重區永福街135巷32弄2號","121.47714","25.0769866666667","6500200","三重區"
"241031","061-VK","2019/10/21 19:29:12","新北市三重區集美街61號","121.488481666667","25.05438","6500200","三重區"
"241017","063-VK","2019/10/21 19:29:09","新北市三重區國隆路30號","121.492268333333","25.0643666666667","6500200","三重區"
"241007","066-VK","2019/10/21 19:29:18","新北市三重區溪尾街130號","121.489215","25.0795033333333","6500200","三重區"
"241023","742-BX","2019/10/21 19:29:15","新北市三重區頂崁街99號","121.47804","25.06396","6500200","三重區"
"241006","262-UM","2019/10/21 19:29:19","新北市三重區三和路四段156號","121.488083333333","25.0757533333333","6500200","三重區"
"241009","267-UM","2019/10/21 19:29:14","新北市三重區溪尾街242巷66號","121.4862","25.0814266666667","6500200","三重區"
"241032","269-UM","2019/10/21 19:29:11","新北市三重區三陽路58號","121.484283333333","25.0587883333333","6500200","三重區"
"241013","270-UM","2019/10/21 19:29:13","新北市三重區仁愛街129巷4號","121.495863333333","25.075085","6500200","三重區"
"241025","271-UM","2019/10/21 19:29:16","新北市三重區頂崁街210巷28弄9號","121.475823333333","25.067115","6500200","三重區"
"241035","KEA-2210","2019/10/21 19:29:11","新北市三重區信義西街1號","121.498075","25.0648366666667","6500200","三重區"
"241030","KED-0822","2019/10/21 19:29:20","新北市三重區成功路41巷14號","121.490346666667","25.05165","6500200","三重區"
"241020","478-VK","2019/10/21 19:29:23","新北市三重區三和路四段20巷17號","121.490426666667","25.0739233333333","6500200","三重區"
"241026","480-VK","2019/10/21 19:29:30","新北市三重區文化南路36號","121.500308333333","25.0614333333333","6500200","三重區"
"241019","KEA-2593","2019/10/21 19:29:17","新北市三重區力行路一段89巷9號","121.486758333333","25.068415","6500200","三重區"
"241022","KED-0820","2019/10/21 19:29:22","新北市三重區三民街175巷1號","121.483673333333","25.0652616666667","6500200","三重區"
"241029","942-UM","2019/10/21 19:29:25","新北市三重區重安街144號","121.495478333333","25.05497","6500200","三重區"
"235066","003-UY","2019/10/21 19:29:16","新北市中和區景新街48號","121.503718333333","24.9992516666667","6500300","中和區"
"235063","006-UY","2019/10/21 19:29:24","新北市中和區連城路219巷17號","121.494978333333","24.99622","6500300","中和區"
"235056","096-UM","2019/10/21 19:29:31","新北市中和區員山路581巷31弄29號","121.476595","25.0102866666667","6500300","中和區"
"235039","097-UM","2019/10/21 19:29:17","新北市中和區秀峰街86號","121.519713333333","24.99096","6500300","中和區"
"235065","098-UM","2019/10/21 19:29:26","新北市中和區中山路二段2巷13弄11號","121.503613333333","25.006525","6500300","中和區"
"235040","150-BY","2019/10/21 19:29:26","新北市中和區保健路46巷24弄2號","121.508708333333","24.9956766666667","6500300","中和區"
"235058","151-BY","2019/10/21 19:29:27","新北市中和區員山路132巷12號","121.4819","24.9962116666667","6500300","中和區"
"235055","183-VK","2019/10/21 19:29:22","新北市中和區中山路三段179巷21號","121.473496666667","25.00591","6500300","中和區"
"235038","185-VK","2019/10/21 19:29:23","新北市中和區立人街9號","121.521695","24.9940916666667","6500300","中和區"
"235067","255-BX","2019/10/21 19:29:21","新北市中和區連城路340巷10弄25號","121.483355","24.9966066666667","6500300","中和區"
"235044","293-VK","2019/10/21 19:29:29","新北市中和區捷運路129號","121.507198333333","24.9907883333333","6500300","中和區"
"235072","301-VK","2019/10/21 19:29:22","新北市中和區連城路263-2號","121.491578333333","24.9964883333333","6500300","中和區"
"235043","352-BY","2019/10/21 19:29:24","新北市中和區景平路183號","121.511763333333","24.9925166666667","6500300","中和區"
"235042","KEA-2878","2019/10/21 19:29:26","新北市中和區中和路350巷15弄6號","121.510761666667","25.0010333333333","6500300","中和區"
"235045","551-UM","2019/10/21 19:29:18","新北市中和區景新街469號","121.51354","24.9880616666667","6500300","中和區"
"235070","558-UM","2019/10/21 19:29:15","新北市中和區景平路638號","121.497855","25.00023","6500300","中和區"
"235060","KED-0823","2019/10/21 19:29:19","新北市中和區新生街16巷19號","121.482411666667","25.0042566666667","6500300","中和區"
"235054","640-BX","2019/10/21 19:29:25","新北市中和區民德路2號","121.468751666667","25.0032983333333","6500300","中和區"
"235071","647-TV","2019/10/21 19:29:21","新北市中和區連城路469巷21弄22號","121.484278333333","24.9950316666667","6500300","中和區"
"235047","732-UM","2019/10/21 19:29:16","新北市中和區景平路259巷30號","121.507113333333","24.9927483333333","6500300","中和區"
"235046","733-UM","2019/10/21 19:29:12","新北市中和區忠孝街37巷9號","121.51101","24.983695","6500300","中和區"
"235057","801-TS","2019/10/21 19:29:26","新北市中和區員山路202號","121.481295","25.00061","6500300","中和區"
"235041","802-TS","2019/10/21 19:29:21","新北市中和區中安街80號","121.512268333333","25.0018183333333","6500300","中和區"
"235052","805-TS","2019/10/21 19:29:20","新北市中和區華新街143巷69弄1號","121.507146666667","24.97866","6500300","中和區"
"235048","896-TW","2019/10/21 19:29:26","新北市中和區忠孝街2-8號","121.509201666667","24.9830316666667","6500300","中和區"
"235053","900-TW","2019/10/21 19:29:15","新北市中和區華順街3號","121.467888333333","24.9987583333333","6500300","中和區"
"235064","911-UM","2019/10/21 19:29:23","新北市中和區南山路56號","121.50193","24.99739","6500300","中和區"
"235051","157-BY","2019/10/21 19:29:22","新北市中和區景新街128號","121.505288333333","24.9981216666667","6500300","中和區"
"235001","AAC-213","2019/10/21 19:29:28","新北市中和區秀朗路三段103號","121.526491666667","24.9947833333333","6500300","中和區"
"235059","AAC-215","2019/10/21 19:29:10","新北市中和區圓通路252巷29弄10號","121.492681666667","24.9918716666667","6500300","中和區"
"220065","072-UY","2019/10/21 19:29:16","新北市板橋區國泰街75巷28弄11號","121.467675","25.0051283333333","6500100","板橋區"
"220086","073-UY","2019/10/21 19:29:13","新北市板橋區中正路216巷100號","121.458825","25.0191816666667","6500100","板橋區"
"220106","075-UY","2019/10/21 19:29:19","新北市板橋區雙十路三段9號","121.471698333333","25.03032","6500100","板橋區"
"220069","AAD-861","2019/10/21 19:29:18","新北市板橋區稚暉街2巷50號","121.45522","25.0028466666667","6500100","板橋區"
"220068","120-SR","2019/10/21 19:29:20","新北市板橋區萬安街104號","121.483765","25.0242683333333","6500100","板橋區"
"247022","500-BY","2019/10/21 19:29:24","新北市五股區中興路三段163號","121.449188333333","25.0807166666667","6501400","蘆洲區"
"247004","341-TH","2019/10/21 19:29:24","新北市蘆洲區長安街150號","121.459916666667","25.0823333333333","6501400","蘆洲區"
"226004","312-R5","2019/10/21 19:29:12","新北市平溪區十分里十分街158號","121.778235","25.0434383333333","6502400","平溪區"
"235049","251-BX","2019/10/21 19:29:13","新北市中和區景新街273巷27號","121.510388333333","24.9939716666667","6500300","中和區"
"228003","097-TW","2019/10/21 19:29:18","新北市貢寮區和美里和美街22-1號","121.912823333333","25.082615","6502600","貢寮區"
"228002","663-BX","2019/10/21 19:29:14","新北市貢寮區龍門里龍門街69號","121.930991666667","25.0265616666667","6502600","貢寮區"
"228001","670-TC","2019/10/21 19:29:13","新北市貢寮區真理里大澳街21-1號","121.925046666667","25.0561233333333","6502600","貢寮區"
"224008","273-VK","2019/10/21 19:29:31","新北市瑞芳區一坑路97-1號","121.801975","25.1079033333333","6501200","瑞芳區"
"227002","642-TC","2019/10/21 19:29:29","新北市雙溪區雙溪里光復街3號","121.865181666667","25.035485","6502500","雙溪區"
"227001","400-TW","2019/10/21 19:29:12","新北市雙溪區新基里新基北街43號","121.868211666667","25.0396816666667","6502500","雙溪區"
"208002","KEA-2872","2019/10/21 19:29:28","新北市金山區中山路299號","121.63594","25.2234866666667","6502700","金山區"
"208003","665-BX","2019/10/21 19:29:28","新北市金山區仁愛路57號","121.635325","25.220735","6502700","金山區"
"251009","008-UM","2019/10/21 19:29:24","新北市淡水區中正路32號","121.44382","25.169205","6501000","淡水區"
"251005","010-UM","2019/10/21 19:29:16","新北市淡水區水源街一段47巷33號","121.443981666667","25.1733716666667","6501000","淡水區"
"251002","012-UM","2019/10/21 19:29:18","新北市淡水區沙崙路339號","121.427825","25.187775","6501000","淡水區"
"251015","KEA-2871","2019/10/21 19:29:16","新北市淡水區山子頂22-2號","121.492575","25.188695","6501000","淡水區"
"251016","179-VK","2019/10/21 19:29:27","新北市淡水區下圭柔山119-51號","121.450681666667","25.2085583333333","6501000","淡水區"
"251008","181-VK","2019/10/21 19:29:26","新北市淡水區沙崙路242號","121.426016666667","25.184965","6501000","淡水區"
"251013","182-VK","2019/10/21 19:29:24","新北市淡水區大牛稠7號","121.470805","25.2192733333333","6501000","淡水區"
"251010","413-VK","2019/10/21 19:29:21","新北市淡水區中正路二段391號","121.425951666667","25.1908116666667","6501000","淡水區"
"251007","442-VK","2019/10/21 19:29:14","新北市淡水區八勢路50巷9號","121.463596666667","25.1511716666667","6501000","淡水區"
"251001","559-UM","2019/10/21 19:29:29","新北市淡水區民權路141號","121.460048333333","25.1364433333333","6501000","淡水區"
"251006","561-UM","2019/10/21 19:29:18","新北市淡水區大義街29巷18號","121.441436666667","25.178055","6501000","淡水區"
"251014","577-R6","2019/10/21 19:29:23","新北市淡水區小中寮19-7號","121.484765","25.2296","6501000","淡水區"
"251003","673-BX","2019/10/21 19:29:13","新北市淡水區中山北路二段183號","121.44422","25.184955","6501000","淡水區"
"207003","550-UM","2019/10/21 19:29:20","新北市萬里區大鵬里萬里加投103-1號","121.646091666667","25.2129766666667","6502800","萬里區"
"252002","178-VK","2019/10/21 19:29:15","新北市三芝區淡金路二段18-1號","121.502655","25.25949","6502100","三芝區"
"207004","662-BX","2019/10/21 19:29:24","新北市萬里區萬里里瑪鋉路85-2號","121.688726666667","25.1771716666667","6502800","萬里區"
"208001","170-UY","2019/10/21 19:29:14","新北市金山區中正路45號","121.634808333333","25.2220066666667","6502700","金山區"
"237004","KEA-2597","2019/10/21 19:29:25","新北市三峽區有木205-1號","121.439046666667","24.8515666666667","6500900","三峽區"
"237007","153-BY","2019/10/21 19:29:18","新北市三峽區二鬮路136巷18弄20號","121.358856666667","24.9087483333333","6500900","三峽區"
"237009","210-TH","2019/10/21 19:29:18","新北市三峽區中山路32號","121.36993","24.9342033333333","6500900","三峽區"
"237013","252-BX","2019/10/21 19:29:23","新北市三峽區介壽路一段251號","121.37952","24.9301633333333","6500900","三峽區"
"237012","275-BY","2019/10/21 19:29:28","新北市三峽區三樹路98巷169號","121.384426666667","24.939295","6500900","三峽區"
"237008","302-VK","2019/10/21 19:29:13","新北市三峽區永安街178號","121.37349","24.92819","6500900","三峽區"
"237014","433-BY","2019/10/21 19:29:16","新北市三峽區中山路120號","121.365645","24.9358983333333","6500900","三峽區"
"237006","5529-G3","2019/10/21 19:29:26","新北市三峽區中正路一段336巷15弄2號","121.369961666667","24.924955","6500900","三峽區"
"237011","KEA-2596","2019/10/21 19:29:14","新北市三峽區介壽路一段392號","121.383388333333","24.93086","6500900","三峽區"
"237015","649-BX","2019/10/21 19:29:24","新北市三峽區建安64-7號","121.44833","24.927745","6500900","三峽區"
"237010","706-TV","2019/10/21 19:29:29","新北市三峽區民生街60號","121.375156666667","24.9361916666667","6500900","三峽區"
"237005","AKY-6261","2019/10/21 19:29:10","新北市三峽區中山路184巷2號","121.364035","24.936865","6500900","三峽區"
"236078","166-UM","2019/10/21 19:29:30","新北市土城區中州路3巷31弄1號","121.413896666667","24.9567233333333","6501300","土城區"
"236069","KEA-2877","2019/10/21 19:29:19","新北市土城區學府路一段155巷2號","121.453325","24.9857016666667","6501300","土城區"
"252001","KED-0821","2019/10/21 19:29:13","新北市三芝區長勤街63-5號","121.500093333333","25.2560283333333","6502100","三芝區"
"236020","401-BY","2019/10/21 19:29:29","新北市土城區峰廷街3號","121.469065","24.987275","6501300","土城區"
"236048","913-UM","2019/10/21 19:29:26","新北市土城區清水路205號","121.460213333333","24.9818066666667","6501300","土城區"
"236063","915-UM","2019/10/21 19:29:27","新北市土城區金城路三段202-1號","121.46937","24.9884716666667","6501300","土城區"
"236055","AAC-216","2019/10/21 19:29:08","新北市土城區學府路一段276號","121.45018","24.983295","6501300","土城區"
"242029","615-BX","2019/10/21 19:29:26","新北市新莊區新泰路357巷3弄57號","121.442128333333","25.0392783333333","6500500","新莊區"
"238015","755-BX","2019/10/21 19:29:14","新北市樹林區大安路590號","121.411595","24.9833216666667","6500700","樹林區"
"238023","601-UM","2019/10/21 19:29:25","新北市樹林區中正路845號","121.409085","25.0177366666667","6500700","樹林區"
"238019","599-UM","2019/10/21 19:29:31","新北市樹林區鎮前街347巷2弄1號","121.41669","24.9836383333333","6500700","樹林區"
"238024","5061-A6","2019/10/21 19:29:21","新北市樹林區福德街36-2號","121.400316666667","24.9751783333333","6500700","樹林區"
"238018","KEA-2217","2019/10/21 19:29:13","新北市樹林區中華路108號","121.418495","24.9807933333333","6500700","樹林區"
"238022","KEA-2213","2019/10/21 19:29:28","新北市樹林區八德街118號","121.421286666667","24.9793916666667","6500700","樹林區"
"238021","KEA-2539","2019/10/21 19:29:21","新北市樹林區佳園路三段239號","121.384838333333","24.94559","6500700","樹林區"
"238025","303-VK","2019/10/21 19:29:18","新北市樹林區中山路一段358號","121.41915","24.985835","6500700","樹林區"
"238017","283-BY","2019/10/21 19:29:27","新北市樹林區光興街134巷25號","121.4072","25.003875","6500700","樹林區"
"238014","282-BY","2019/10/21 19:29:14","新北市樹林區千歲街19巷9號","121.424606666667","24.9958016666667","6500700","樹林區"
"238020","268-VK","2019/10/21 19:29:18","新北市樹林區俊英街111巷1-17號","121.423398333333","25.0093333333333","6500700","樹林區"
"238026","172-UY","2019/10/21 19:29:29","新北市樹林區柑園街一段359號","121.388845","24.9560033333333","6500700","樹林區"
"238016","169-UY","2019/10/21 19:29:13","新北市樹林區復興路446巷1號","121.413408333333","24.984315","6500700","樹林區"
"239007","AAC-297","2019/10/21 19:29:17","新北市鶯歌區中山路138巷3-2號","121.349611666667","24.9578583333333","6500800","鶯歌區"
"239006","891-R6","2019/10/21 19:29:16","新北市鶯歌區鶯桃路91巷12號","121.338903333333","24.9532233333333","6500800","鶯歌區"
"239008","527-UM","2019/10/21 19:29:26","新北市鶯歌區國際二路4巷18號","121.339285","24.973475","6500800","鶯歌區"
"239005","526-UM","2019/10/21 19:29:21","新北市鶯歌區東湖路11號","121.351926666667","24.97214","6500800","鶯歌區"
"239001","417-VK","2019/10/21 19:29:28","新北市鶯歌區永明街15號","121.338703333333","24.9555866666667","6500800","鶯歌區"
"239003","360-BY","2019/10/21 19:29:25","新北市鶯歌區德昌街23號","121.33334","24.9599683333333","6500800","鶯歌區"
"239002","359-BY","2019/10/21 19:29:24","新北市鶯歌區鶯桃路182巷96弄13號","121.340585","24.95804","6500800","鶯歌區"
"239004","193-VK","2019/10/21 19:29:21","新北市鶯歌區二甲路97號","121.333298333333","24.9316533333333","6500800","鶯歌區"
"221008","489-VK","2019/10/21 19:29:18","新北市汐止區三民街1巷1號","121.62433","25.0667866666667","6501100","汐止區"
"221015","131-UY","2019/10/21 19:29:12","新北市汐止區汐萬路一段256巷3號","121.653463333333","25.0745366666667","6501100","汐止區"
"221027","281-BY","2019/10/21 19:29:22","新北市汐止區忠孝東路9號","121.658275","25.065905","6501100","汐止區"
"221031","353-TW","2019/10/21 19:29:27","新北市汐止區汐萬路一段256巷3號","121.653366666667","25.0746283333333","6501100","汐止區"
"221025","623-UM","2019/10/21 19:29:21","新北市汐止區新台五路二段10號","121.660245","25.065015","6501100","汐止區"
"221002","707-TV","2019/10/21 19:29:25","新北市汐止區大同路一段331號","121.638318333333","25.0592666666667","6501100","汐止區"
"220079","145-BY","2019/10/21 19:29:31","新北市板橋區民權路202巷9弄16號","121.459783333333","25.0155833333333","6500100","板橋區"
"220080","200-UY","2019/10/21 19:29:16","新北市板橋區大觀路二段3巷35號","121.448551666667","25.0035633333333","6500100","板橋區"
"220082","610-BX","2019/10/21 19:29:10","新北市板橋區金門街271號","121.431605","24.9884783333333","6500100","板橋區"
"220056","276-BY","2019/10/21 19:29:23","新北市板橋區干城路10號","121.459666666667","24.993865","6500100","板橋區"
"220072","277-BY","2019/10/21 19:29:14","新北市板橋區篤行路二段141巷1號","121.430023333333","24.9881116666667","6500100","板橋區"
"220094","283-UM","2019/10/21 19:29:13","新北市板橋區銘傳街64號","121.468886666667","25.0311733333333","6500100","板橋區"
"220071","283-VK","2019/10/21 19:29:13","新北市板橋區忠孝路48巷9弄2號","121.461215","25.0000266666667","6500100","板橋區"
"220101","285-UM","2019/10/21 19:29:24","新北市板橋區莒光路196巷29號","121.472818333333","25.02246","6500100","板橋區"
"220053","285-VK","2019/10/21 19:29:12","新北市板橋區永豐街120巷1號","121.476586666667","25.020775","6500100","板橋區"
"220083","286-VK","2019/10/21 19:29:27","新北市板橋區龍興街73巷3號","121.443558333333","25.002135","6500100","板橋區"
"220081","287-VK","2019/10/21 19:29:08","新北市板橋區南雅西路一段39巷29號","121.45287","25.0040166666667","6500100","板橋區"
"220090","288-VK","2019/10/21 19:29:20","新北市板橋區長江路一段48巷4弄2號","121.459076666667","25.0286766666667","6500100","板橋區"
"220061","293-UM","2019/10/21 19:29:20","新北市板橋區中山路二段88號","121.475086666667","25.0163266666667","6500100","板橋區"
"220062","295-UM","2019/10/21 19:29:20","新北市板橋區三民路二段153巷4弄1號","121.479618333333","25.0147766666667","6500100","板橋區"
"220084","296-UM","2019/10/21 19:29:21","新北市板橋區滿平街136巷1弄1號","121.428671666667","24.98798","6500100","板橋區"
"220075","303-R5","2019/10/21 19:29:16","新北市板橋區中正路275巷93號","121.450783333333","25.0181166666667","6500100","板橋區"
"220092","307-R5","2019/10/21 19:29:28","新北市板橋區陽明街164巷18號","121.464323333333","25.0245066666667","6500100","板橋區"
"220098","317-R6","2019/10/21 19:29:28","新北市板橋區民有街123號","121.464265","25.0285816666667","6500100","板橋區"
"220089","487-VK","2019/10/21 19:29:12","新北市板橋區綠堤街47號","121.455313333333","25.0259","6500100","板橋區"
"242011","280-VK","2019/10/21 19:29:16","新北市新莊區中信街72號","121.448128333333","25.0521083333333","6500500","新莊區"
"220088","491-VK","2019/10/21 19:29:31","新北市板橋區文化路二段568號","121.4766","25.0345166666667","6500100","板橋區"
"220035","560-BX","2019/10/21 19:29:14","新北市板橋區中正路433巷3號","121.454091666667","25.02336","6500100","板橋區"
"220103","561-BX","2019/10/21 19:29:11","新北市板橋區陽明街29巷11號","121.464856666667","25.021915","6500100","板橋區"
"220063","609-BX","2019/10/21 19:29:14","新北市板橋區林森街3巷1弄6號","121.482668333333","25.02363","6500100","板橋區"
"220091","637-BX","2019/10/21 19:29:14","新北市板橋區文聖街149巷23弄16號","121.479216666667","25.028925","6500100","板橋區"
"220057","686-BX","2019/10/21 19:29:30","新北市板橋區國慶路158巷18號","121.461476666667","24.9954283333333","6500100","板橋區"
"220093","689-BX","2019/10/21 19:29:13","新北市板橋區新海路438號","121.457986666667","25.0277483333333","6500100","板橋區"
"220054","741-BX","2019/10/21 19:29:22","新北市板橋區重慶路155巷25號","121.463278333333","25.0039533333333","6500100","板橋區"
"220102","KEA-2699","2019/10/21 19:29:27","新北市板橋區文化路二段410巷2弄18號","121.474156666667","25.0305266666667","6500100","板橋區"
"220055","827-TW","2019/10/21 19:29:21","新北市板橋區重慶路258號","121.462958333333","25.0007333333333","6500100","板橋區"
"220067","831-TW","2019/10/21 19:29:20","新北市板橋區長安街138巷12號","121.47292","25.0092133333333","6500100","板橋區"
"220077","833-TW","2019/10/21 19:29:25","新北市板橋區大觀路一段28巷70號","121.449813333333","25.0106383333333","6500100","板橋區"
"220074","895-R6","2019/10/21 19:29:15","新北市板橋區北門街8號","121.457746666667","25.0104983333333","6500100","板橋區"
"220073","985-R7","2019/10/21 19:29:18","新北市板橋區中正路346號","121.454373333333","25.023445","6500100","板橋區"
"220097","AAC-210","2019/10/21 19:29:21","新北市板橋區文化路一段285巷2弄28號","121.464303333333","25.0195566666667","6500100","板橋區"
"220064","AAC-253","2019/10/21 19:29:24","新北市板橋區公園街64號","121.461936666667","25.0076133333333","6500100","板橋區"
"235068","KEA-2873","2019/10/21 19:29:14","新北市中和區景平路493巷2弄12號","121.499146666667","24.9971183333333","6500300","中和區"
"235061","KEA-2875","2019/10/21 19:29:09","新北市中和區民安街2巷35弄1號","121.479875","25.0015183333333","6500300","中和區"
