"lineid","car","time","location","longitude","latitude","cityid","cityname"
"234046","148-BY","2019/10/21 19:59:52","新北市永和區成功路一段2號","121.527143333333","25.0055866666667","6500400","永和區"
"234081","298-R6","2019/10/21 19:59:59","新北市永和區永利路81巷2弄3號","121.521736666667","25.003545","6500400","永和區"
"234038","336-UY","2019/10/21 19:59:57","新北市永和區成功路二段183號","121.526708333333","24.996615","6500400","永和區"
"234064","337-UY","2019/10/21 19:59:44","新北市永和區中正路412巷20弄14號","121.518805","25.0015633333333","6500400","永和區"
"234086","338-UY","2019/10/21 19:59:52","新北市永和區福和路229-1號","121.518631666667","25.0075283333333","6500400","永和區"
"234070","552-UM","2019/10/21 19:59:53","新北市永和區國光路39號","121.51919","25.0082766666667","6500400","永和區"
"234017","745-BX","2019/10/21 19:59:52","新北市永和區文化路69號","121.513971666667","25.015045","6500400","永和區"
"234030","746-BX","2019/10/21 19:59:49","新北市永和區民權路49巷36號","121.5219","24.997495","6500400","永和區"
"234054","KEA-2590","2019/10/21 19:59:58","新北市永和區環河東路一段122號","121.520625","25.0154716666667","6500400","永和區"
"234007","KED-0605","2019/10/21 19:59:43","新北市永和區保生路22巷17號","121.507155","25.00813","6500400","永和區"
"234013","KEA-2591","2019/10/21 19:59:42","新北市永和區保生路55號","121.504725","25.0105866666667","6500400","永和區"
"234061","AAD-866","2019/10/21 19:59:49","新北市永和區中正路283巷53弄1號","121.516055","24.999575","6500400","永和區"
"234042","862-TW","2019/10/21 19:59:54","新北市永和區雙和街17巷15號","121.509063333333","25.001435","6500400","永和區"
"234050","863-TW","2019/10/21 20:00:00","新北市永和區保安路264號","121.505876666667","25.0123033333333","6500400","永和區"
"234026","9371-KE","2019/10/21 19:59:56","新北市永和區水源街27巷4號","121.511153333333","25.0040833333333","6500400","永和區"
"234011","9373-KE","2019/10/21 19:59:41","新北市永和區環河西路二段241號","121.50051","25.0093316666667","6500400","永和區"
"249005","172-UM","2019/10/21 19:59:38","新北市八里區楓林路1-12號","121.385908333333","25.13116","6502300","八里區"
"249001","173-UM","2019/10/21 19:59:39","新北市八里區中華路二段310號","121.403813333333","25.148355","6502300","八里區"
"249004","303-UY","2019/10/21 19:59:54","新北市八里區中華路一段331巷8號","121.413791666667","25.1532733333333","6502300","八里區"
"249002","305-UY","2019/10/21 19:59:51","新北市八里區頂寮一街39號","121.450531666667","25.1237966666667","6502300","八里區"
"249003","593-UM","2019/10/21 19:59:57","新北市八里區中華路二段560巷3號","121.398621666667","25.1450833333333","6502300","八里區"
"248016","026-BX","2019/10/21 19:59:55","新北市五股區成泰路三段577巷80弄7號","121.449456666667","25.1042883333333","6501500","五股區"
"248008","KED-0815","2019/10/21 19:59:41","新北市五股區四維路30巷17號","121.467945","25.0715","6501500","五股區"
"248012","247-BX","2019/10/21 20:00:02","新北市五股區民義路一段212號","121.430538333333","25.0894483333333","6501500","五股區"
"248004","677-BX","2019/10/21 19:59:54","新北市五股區成泰路一段34巷1號","121.435098333333","25.0680666666667","6501500","五股區"
"248002","678-BX","2019/10/21 19:59:46","新北市五股區成泰路三段487號","121.450708333333","25.0992383333333","6501500","五股區"
"248010","682-TV","2019/10/21 19:59:57","新北市五股區登林路46巷2號","121.432051666667","25.0686183333333","6501500","五股區"
"234023","9380-KE","2019/10/21 19:59:54","新北市永和區中正路702巷12號","121.516476666667","25.0104633333333","6500400","永和區"
"234077","969-R7","2019/10/21 19:59:52","新北市永和區中正路198號","121.515785","24.9971933333333","6500400","永和區"
"234074","AAC-211","2019/10/21 19:59:53","新北市永和區福和路12巷20號","121.524075","25.00941","6500400","永和區"
"234067","AAC-212","2019/10/21 19:59:56","新北市永和區中山路一段277號","121.507008333333","25.0070433333333","6500400","永和區"
"234003","AAC-295","2019/10/21 19:59:59","新北市永和區中正路623號","121.515921666667","25.0099633333333","6500400","永和區"
"243012","AAD-798","2019/10/21 19:59:49","新北市泰山區全興路13號","121.43234","25.0589416666667","6501600","泰山區"
"243014","KEA-2801","2019/10/21 19:59:59","新北市泰山區泰林路二段37號","121.43577","25.0573466666667","6501600","泰山區"
"243016","421-VK","2019/10/21 19:59:41","新北市泰山區貴陽街3號","121.420945","25.0336466666667","6501600","泰山區"
"243009","KEA-2215","2019/10/21 20:00:00","新北市泰山區泰林路二段164巷38號","121.434365","25.0612683333333","6501600","泰山區"
"243011","KEA-2216","2019/10/21 19:59:48","新北市泰山區工專路47號","121.422801666667","25.0400333333333","6501600","泰山區"
"222003","436-BY","2019/10/21 19:59:42","新北市深坑區埔新街14號","121.620755","25.0039433333333","6501800","深坑區"
"222001","628-TS","2019/10/21 19:59:44","新北市深坑區北深路三段164號","121.602288333333","25.0032983333333","6501800","深坑區"
"222002","659-BX","2019/10/21 19:59:46","新北市深坑區埔新街125號","121.618533333333","25.0021216666667","6501800","深坑區"
"231061","002-UM","2019/10/21 19:59:42","新北市新店區安民街283號","121.517441666667","24.973315","6500600","新店區"
"231055","0291-UT","2019/10/21 19:58:01","新北市新店區力行路14巷16弄6號","121.539396666667","24.9655416666667","6500600","新店區"
"231044","046-UY","2019/10/21 19:59:47","新北市新店區復興路14號","121.539726666667","24.9866833333333","6500600","新店區"
"231060","106-UY","2019/10/21 19:59:44","新北市新店區安豐路25號","121.501308333333","24.9572166666667","6500600","新店區"
"231051","107-UY","2019/10/21 19:59:58","新北市新店區中央二街19號","121.528745","24.9734416666667","6500600","新店區"
"231049","108-UY","2019/10/21 19:59:42","新北市新店區建國路118號","121.539276666667","24.9786","6500600","新店區"
"231065","110-UY","2019/10/21 19:59:57","新北市新店區安祥路106巷10號","121.478636666667","24.9625566666667","6500600","新店區"
"231068","187-VK","2019/10/21 19:59:47","新北市新店區安一路一段1-1號","121.519675","24.96145","6500600","新店區"
"231062","256-BX","2019/10/21 19:59:55","新北市新店區華城路36號","121.528391666667","24.9555366666667","6500600","新店區"
"231054","260-TV","2019/10/21 19:59:46","新北市新店區光明街137號","121.539445","24.9620033333333","6500600","新店區"
"231042","268-BY","2019/10/21 19:59:54","新北市新店區中興路一段292號","121.545926666667","24.9691566666667","6500600","新店區"
"231064","278-BY","2019/10/21 19:59:54","新北市新店區安光路10-1號","121.513845","24.9641116666667","6500600","新店區"
"231050","AAD-862","2019/10/21 19:59:57","新北市新店區北宜路二段80巷2弄14號","121.551988333333","24.9531516666667","6500600","新店區"
"231045","355-BY","2019/10/21 19:59:48","新北市新店區北宜路二段230號","121.559871666667","24.9544216666667","6500600","新店區"
"231056","4715-K9","2019/10/21 19:59:48","新北市新店區北新路二段29巷3弄2號","121.542151666667","24.9730783333333","6500600","新店區"
"231067","4772-VM","2019/10/21 20:00:00","新北市新店區精忠路10-1號","121.53249","24.9591333333333","6500600","新店區"
"231052","512-UM","2019/10/21 19:59:44","新北市新店區新烏路三段寶島巷2弄3號","121.551973333333","24.8985533333333","6500600","新店區"
"231040","617-UM","2019/10/21 19:59:44","新北市新店區北新路一段96巷23號","121.543031666667","24.9688666666667","6500600","新店區"
"231041","619-UM","2019/10/21 19:59:54","新北市新店區中正路348號","121.536213333333","24.975265","6500600","新店區"
"231063","641-BX","2019/10/21 19:59:58","新北市新店區車子路11號","121.503021666667","24.9518883333333","6500600","新店區"
"231047","KED-0819","2019/10/21 19:42:39","新北市新店區五峰路61巷4號","121.548","24.9698233333333","6500600","新店區"
"231057","720-UM","2019/10/21 20:00:01","新北市新店區花園二路一段11號","121.555525","24.9325183333333","6500600","新店區"
"231059","897-TW","2019/10/21 19:59:43","新北市新店區安和路一段15號","121.516831666667","24.9642366666667","6500600","新店區"
"231043","899-TW","2019/10/21 19:59:46","新北市新店區中正路263-4號","121.53832","24.9738533333333","6500600","新店區"
"231066","AKT-0513","2019/10/21 19:59:50","新北市新店區薏仁坑路自強巷1號","121.496808333333","24.958105","6500600","新店區"
"241011","013-R5","2019/10/21 19:59:56","新北市三重區三和路二段131號","121.49853","25.0692166666667","6500200","三重區"
"241028","022-UY","2019/10/21 19:59:42","新北市三重區中正南路83號","121.494278333333","25.0584716666667","6500200","三重區"
"241008","059-VK","2019/10/21 19:59:42","新北市三重區永福街179巷20號","121.478365","25.0748966666667","6500200","三重區"
"241002","060-VK","2019/10/21 19:59:52","新北市三重區仁愛街277號","121.492878333333","25.07867","6500200","三重區"
"241031","061-VK","2019/10/21 19:59:53","新北市三重區重新路四段144巷27號","121.486945","25.0550333333333","6500200","三重區"
"241015","062-VK","2019/10/21 19:59:51","新北市三重區三和路二段35-1號","121.500828333333","25.0672166666667","6500200","三重區"
"241017","063-VK","2019/10/21 19:59:50","新北市三重區自強路一段223號","121.491148333333","25.068585","6500200","三重區"
"241024","065-VK","2019/10/21 19:59:42","新北市三重區力行路一段277號","121.482091666667","25.071655","6500200","三重區"
"241007","066-VK","2019/10/21 19:59:58","新北市三重區溪尾街94號","121.489306666667","25.0783783333333","6500200","三重區"
"241003","091-VK","2019/10/21 19:59:54","新北市三重區仁愛街445巷38號","121.491513333333","25.0833883333333","6500200","三重區"
"241023","742-BX","2019/10/21 19:59:55","新北市三重區頂崁街172號","121.47757","25.06595","6500200","三重區"
"241006","262-UM","2019/10/21 19:59:59","新北市三重區力行路二段41號","121.481983333333","25.07382","6500200","三重區"
"241009","267-UM","2019/10/21 19:59:54","新北市三重區三和路四段392-1號","121.481735","25.0790566666667","6500200","三重區"
"241018","268-UM","2019/10/21 19:59:52","新北市三重區正義北路244巷6號","121.495711666667","25.0680316666667","6500200","三重區"
"241032","269-UM","2019/10/21 19:59:51","新北市三重區朝陽街26巷1弄1號","121.48317","25.0565433333333","6500200","三重區"
"241013","270-UM","2019/10/21 19:59:53","新北市三重區三和路三段121號","121.492775","25.0732516666667","6500200","三重區"
"241025","271-UM","2019/10/21 19:59:56","新北市三重區頂崁街210巷7號","121.476608333333","25.067685","6500200","三重區"
"241035","KEA-2210","2019/10/21 19:59:51","新北市三重區大榮街7號","121.498208333333","25.0630933333333","6500200","三重區"
"241030","KED-0822","2019/10/21 20:00:00","新北市三重區成功路187號","121.485793333333","25.0529966666667","6500200","三重區"
"241004","475-VK","2019/10/21 19:59:49","新北市三重區仁愛街425巷91-1號","121.492253333333","25.0826483333333","6500200","三重區"
"241020","478-VK","2019/10/21 19:59:43","新北市三重區忠孝路一段101號","121.489518333333","25.0721466666667","6500200","三重區"
"241026","480-VK","2019/10/21 19:59:50","新北市三重區福德南路15-1號","121.502531666667","25.06314","6500200","三重區"
"241014","543-UM","2019/10/21 19:59:54","新北市三重區三和路二段107號","121.499358333333","25.068685","6500200","三重區"
"241001","547-UM","2019/10/21 19:59:46","新北市三重區福隆路8號","121.490006666667","25.0773033333333","6500200","三重區"
"241019","KEA-2593","2019/10/21 19:59:57","新北市三重區自強路二段27號","121.489665","25.0692816666667","6500200","三重區"
"241005","AAD-863","2019/10/21 19:59:44","新北市三重區碧華街294巷15號","121.488968333333","25.084395","6500200","三重區"
"241012","743-BX","2019/10/21 19:59:49","新北市三重區仁厚街7號","121.499258333333","25.0760833333333","6500200","三重區"
"241029","942-UM","2019/10/21 19:59:46","新北市三重區重新路三段204號","121.490021666667","25.05852","6500200","三重區"
"241033","AAC-255","2019/10/21 19:59:52","新北市三重區中興北街28號","121.469668333333","25.04869","6500200","三重區"
"235066","003-UY","2019/10/21 19:59:56","新北市中和區中山路二段57號","121.504286666667","25.004875","6500300","中和區"
"235039","097-UM","2019/10/21 19:59:56","新北市中和區大勇街25巷39弄13號","121.51464","24.993965","6500300","中和區"
"235065","098-UM","2019/10/21 19:59:46","新北市中和區永和路90巷2弄18號","121.498006666667","25.0054716666667","6500300","中和區"
"235040","150-BY","2019/10/21 19:59:46","新北市中和區景安路79巷19弄16號","121.507378333333","24.99717","6500300","中和區"
"235055","183-VK","2019/10/21 19:59:55","新北市中和區中山路三段5號","121.479788333333","25.0059916666667","6500300","中和區"
"235067","255-BX","2019/10/21 19:59:41","新北市中和區員山路148巷23弄17號","121.482211666667","24.998","6500300","中和區"
"235044","293-VK","2019/10/21 19:59:48","新北市中和區復興路251號","121.503276666667","24.9902516666667","6500300","中和區"
"235042","KEA-2878","2019/10/21 19:59:58","新北市中和區宜安路169號","121.508566666667","24.9991916666667","6500300","中和區"
"247016","KEA-2869","2019/10/21 19:59:54","新北市蘆洲區中正路93號","121.469991666667","25.08401","6501400","蘆洲區"
"235050","4979-A6","2019/10/21 19:59:51","新北市中和區景平路155巷2弄1號","121.513318333333","24.991905","6500300","中和區"
"235070","558-UM","2019/10/21 19:59:55","新北市中和區連城路269號","121.490766666667","24.9963116666667","6500300","中和區"
"235071","647-TV","2019/10/21 19:59:41","新北市中和區建二路113號","121.486741666667","25.0036833333333","6500300","中和區"
"235046","733-UM","2019/10/21 20:00:00","新北市中和區忠孝街31巷56號","121.509883333333","24.98563","6500300","中和區"
"235052","805-TS","2019/10/21 19:59:58","新北市中和區華新街30巷20弄1-2號","121.506538333333","24.9839266666667","6500300","中和區"
"235051","157-BY","2019/10/21 19:59:42","新北市中和區景安路247巷26號","121.504498333333","24.9904683333333","6500300","中和區"
"235001","AAC-213","2019/10/21 19:59:48","新北市中和區自強路54號","121.520076666667","24.9947133333333","6500300","中和區"
"235059","AAC-215","2019/10/21 19:59:50","新北市中和區圓通路305巷5弄2號","121.493573333333","24.9901216666667","6500300","中和區"
"220065","072-UY","2019/10/21 19:59:48","新北市板橋區民族路129巷10號","121.46766","25.0084133333333","6500100","板橋區"
"220086","073-UY","2019/10/21 19:59:53","新北市板橋區林園街7-1號","121.45391","25.0091883333333","6500100","板橋區"
"220106","075-UY","2019/10/21 19:59:39","新北市板橋區文聖街13號","121.47557","25.0323416666667","6500100","板橋區"
"220069","AAD-861","2019/10/21 19:59:53","新北市板橋區貴興路109號","121.455863333333","25.0026166666667","6500100","板橋區"
"220068","120-SR","2019/10/21 19:59:40","新北市板橋區中山路二段402號","121.482703333333","25.0208216666667","6500100","板橋區"
"247006","893-R6","2019/10/21 19:59:59","新北市蘆洲區九芎街101號","121.465981666667","25.0796483333333","6501400","蘆洲區"
"247020","546-UM","2019/10/21 19:59:42","新北市蘆洲區民義街66號","121.472903333333","25.0897466666667","6501400","蘆洲區"
"247022","500-BY","2019/10/21 19:59:44","新北市蘆洲區中正路174巷4號","121.467483333333","25.0878516666667","6501400","蘆洲區"
"247004","341-TH","2019/10/21 19:59:44","新北市蘆洲區永康街33號","121.457433333333","25.0852483333333","6501400","蘆洲區"
"247024","057-VK","2019/10/21 19:59:56","新北市蘆洲區光復路66號","121.464276666667","25.0854816666667","6501400","蘆洲區"
"247014","056-VK","2019/10/21 19:59:47","新北市蘆洲區成功路118號","121.472276666667","25.08247","6501400","蘆洲區"
"247018","053-VK","2019/10/21 19:59:42","新北市蘆洲區民族路290巷11號","121.478441666667","25.08978","6501400","蘆洲區"
"247008","002-UY","2019/10/21 19:59:40","新北市蘆洲區信義路93號","121.477686666667","25.0800466666667","6501400","蘆洲區"
"247002","001-UY","2019/10/21 19:59:52","新北市蘆洲區長安街274巷6弄1號","121.457786666667","25.0869633333333","6501400","蘆洲區"
"226004","312-R5","2019/10/21 19:59:52","新北市平溪區南山里南山坪24號","121.771351666667","25.03644","6502400","平溪區"
"235049","251-BX","2019/10/21 19:59:53","新北市中和區景平路392號","121.51012","24.9930533333333","6500300","中和區"
"228003","097-TW","2019/10/21 19:59:59","新北市貢寮區仁理村仁和路19號","121.92383","25.0535116666667","6502600","貢寮區"
"227002","642-TC","2019/10/21 19:59:49","新北市雙溪區雙溪里長安街16號","121.864975","25.0346966666667","6502500","雙溪區"
"227001","400-TW","2019/10/21 19:59:52","新北市雙溪區新基里新基南街25號","121.866273333333","25.0381216666667","6502500","雙溪區"
"208002","KEA-2872","2019/10/21 19:59:56","新北市金山區中正路141巷8號","121.632125","25.22082","6502700","金山區"
"208003","665-BX","2019/10/21 19:59:39","新北市金山區永興里忠義路3號","121.63277","25.2592783333333","6502700","金山區"
"251009","008-UM","2019/10/21 19:59:45","新北市淡水區中正路28號","121.444458333333","25.1690333333333","6501000","淡水區"
"251005","010-UM","2019/10/21 19:59:56","新北市淡水區學府路136巷37號","121.451861666667","25.1727283333333","6501000","淡水區"
"251002","012-UM","2019/10/21 19:59:57","新北市淡水區淡海路100號","121.422603333333","25.182095","6501000","淡水區"
"251015","KEA-2871","2019/10/21 19:59:56","新北市淡水區大埤頭1-3號","121.49244","25.195325","6501000","淡水區"
"251016","179-VK","2019/10/21 19:59:47","新北市淡水區淡金路四段540號","121.45192","25.2268483333333","6501000","淡水區"
"251004","180-VK","2019/10/21 19:59:43","新北市淡水區民權路177巷11號","121.460728333333","25.13531","6501000","淡水區"
"251008","181-VK","2019/10/21 19:59:46","新北市淡水區淡海路63巷10-1號","121.422746666667","25.180745","6501000","淡水區"
"251013","182-VK","2019/10/21 19:59:44","新北市淡水區下圭柔山63-7號","121.451866666667","25.2061483333333","6501000","淡水區"
"251010","413-VK","2019/10/21 20:00:01","新北市淡水區崁頂三路119號","121.431686666667","25.200885","6501000","淡水區"
"251012","441-VK","2019/10/21 20:00:01","新北市淡水區下圭柔山93-4號","121.436251666667","25.2091466666667","6501000","淡水區"
"251001","559-UM","2019/10/21 19:59:49","新北市淡水區北新路一段69-5號","121.452675","25.1810483333333","6501000","淡水區"
"251006","561-UM","2019/10/21 19:59:58","新北市淡水區水碓街10號","121.443541666667","25.176965","6501000","淡水區"
"251014","577-R6","2019/10/21 19:59:43","新北市淡水區石頭厝2-1號","121.458055","25.2356783333333","6501000","淡水區"
"251011","650-BX","2019/10/21 19:59:55","新北市淡水區淡金路二段66-1號","121.450335","25.1824616666667","6501000","淡水區"
"207003","550-UM","2019/10/21 20:00:00","新北市萬里區大鵬里萬里加投68號","121.642511666667","25.2147883333333","6502800","萬里區"
"252002","178-VK","2019/10/21 19:59:55","新北市三芝區三民街39巷5號","121.505483333333","25.2576366666667","6502100","三芝區"
"208001","170-UY","2019/10/21 19:59:54","新北市金山區南勢湖1-3號","121.622971666667","25.2195466666667","6502700","金山區"
"237004","KEA-2597","2019/10/21 19:59:45","新北市三峽區添福27-1號","121.37284","24.90406","6500900","三峽區"
"237007","153-BY","2019/10/21 19:59:58","新北市三峽區麻園9-10號","121.362653333333","24.9180766666667","6500900","三峽區"
"237009","210-TH","2019/10/21 19:59:58","新北市三峽區民族街78巷43號","121.36833","24.9294966666667","6500900","三峽區"
"237012","275-BY","2019/10/21 19:59:53","新北市三峽區中華路42號","121.372346666667","24.9307716666667","6500900","三峽區"
"237008","302-VK","2019/10/21 19:59:53","新北市三峽區中華路74-5號","121.371481666667","24.929215","6500900","三峽區"
"237014","433-BY","2019/10/21 19:59:56","新北市三峽區添福11-4號","121.373218333333","24.9071116666667","6500900","三峽區"
"237006","5529-G3","2019/10/21 19:59:46","新北市三峽區中正路二段168號","121.365983333333","24.91571","6500900","三峽區"
"237015","649-BX","2019/10/21 19:59:45","新北市三峽區介壽路二段138巷1弄13-1號","121.396276666667","24.93391","6500900","三峽區"
"237005","AKY-6261","2019/10/21 19:59:50","新北市三峽區民生街1巷29號","121.382938333333","24.9333383333333","6500900","三峽區"
"236042","KED-0685","2019/10/21 19:59:49","新北市土城區學府路一段143巷21號","121.454178333333","24.9855383333333","6501300","土城區"
"236078","166-UM","2019/10/21 19:59:50","新北市土城區福安街53號","121.418555","24.9643633333333","6501300","土城區"
"236030","253-BX","2019/10/21 19:59:41","新北市土城區中央路一段250巷7號","121.443948333333","24.984645","6501300","土城區"
"236026","269-VK","2019/10/21 19:59:44","新北市土城區中央路二段94號","121.442326666667","24.978585","6501300","土城區"
"236039","271-VK","2019/10/21 19:59:47","新北市土城區國際路156號","121.467938333333","24.9764233333333","6501300","土城區"
"236069","KEA-2877","2019/10/21 20:00:00","新北市土城區忠義路111-2號","121.444611666667","24.9625216666667","6501300","土城區"
"252001","KED-0821","2019/10/21 19:59:53","新北市三芝區公正街66號","121.499836666667","25.2574533333333","6502100","三芝區"
"236020","401-BY","2019/10/21 19:59:49","新北市土城區延吉街109號","121.471388333333","24.98671","6501300","土城區"
"236059","912-UM","2019/10/21 19:59:57","新北市土城區中央路一段280號","121.443623333333","24.9827083333333","6501300","土城區"
"236048","913-UM","2019/10/21 19:59:56","新北市土城區金城路三段190號","121.468338333333","24.9879666666667","6501300","土城區"
"236063","915-UM","2019/10/21 19:59:47","新北市土城區延和路62巷8弄2號","121.466171666667","24.988465","6501300","土城區"
"236055","AAC-216","2019/10/21 19:59:48","新北市土城區學府路一段51號","121.457506666667","24.9883366666667","6501300","土城區"
"242060","986-R7","2019/10/21 19:59:44","新北市新莊區瓊林路90號","121.44461","25.0279","6500500","新莊區"
"242004","751-BX","2019/10/21 19:59:44","新北市新莊區化成路314巷8號","121.466533333333","25.048265","6500500","新莊區"
"242025","705-TV","2019/10/21 19:59:53","新北市新莊區五工二路86巷52號","121.460948333333","25.0675633333333","6500500","新莊區"
"242029","615-BX","2019/10/21 19:59:46","新北市新莊區中平路377巷1-7號","121.44444","25.0524033333333","6500500","新莊區"
"242027","613-BX","2019/10/21 19:59:57","新北市新莊區中平路377巷33號","121.44341","25.0524666666667","6500500","新莊區"
"242058","612-BX","2019/10/21 20:00:00","新北市新莊區八德街87號","121.424433333333","25.0216133333333","6500500","新莊區"
"242048","566-BX","2019/10/21 19:59:58","新北市新莊區建安街121巷14號","121.42625","25.0235566666667","6500500","新莊區"
"242053","497-BY","2019/10/21 19:59:52","新北市新莊區西盛街418號","121.427215","25.0121983333333","6500500","新莊區"
"242013","442-UM","2019/10/21 19:59:59","新北市新莊區幸福路649號","121.451243333333","25.04916","6500500","新莊區"
"242002","441-UM","2019/10/21 20:00:00","新北市新莊區中正路285號","121.448838333333","25.0353416666667","6500500","新莊區"
"242007","440-UM","2019/10/21 19:59:49","新北市新莊區思源路487號","121.45983","25.05637","6500500","新莊區"
"242050","400-BY","2019/10/21 19:59:52","新北市新莊區西盛街139號","121.42821","25.0184133333333","6500500","新莊區"
"242023","353-BY","2019/10/21 19:59:59","新北市新莊區化成路350號","121.465841666667","25.0491316666667","6500500","新莊區"
"242015","132-UY","2019/10/21 19:59:41","新北市新莊區復興路一段47巷9號","121.446783333333","25.042615","6500500","新莊區"
"242039","135-UY","2019/10/21 19:59:53","新北市新莊區民安東路1號","121.427413333333","25.021115","6500500","新莊區"
"242017","173-VK","2019/10/21 19:59:40","新北市新莊區中安街1號","121.452836666667","25.0452533333333","6500500","新莊區"
"242031","175-VK","2019/10/21 19:59:47","新北市新莊區公園一路39號","121.443258333333","25.0356116666667","6500500","新莊區"
"242056","176-VK","2019/10/21 19:59:46","新北市新莊區新豐街20巷9號","121.447786666667","25.03439","6500500","新莊區"
"242021","KED-0687","2019/10/21 19:59:52","新北市新莊區建中街16巷31號","121.448893333333","25.0385733333333","6500500","新莊區"
"242019","346-TH","2019/10/21 19:59:49","新北市新莊區民生街15巷3弄9號","121.455295","25.0425333333333","6500500","新莊區"
"242046","347-TH","2019/10/21 19:59:46","新北市新莊區裕民街19巷4號","121.419626666667","25.0251566666667","6500500","新莊區"
"242036","348-TH","2019/10/21 19:59:50","新北市新莊區建安街39號","121.428956666667","25.0254766666667","6500500","新莊區"
"242034","350-TH","2019/10/21 19:59:48","新北市新莊區建中街91號","121.446765","25.0364816666667","6500500","新莊區"
"238019","599-UM","2019/10/21 19:59:51","新北市樹林區中山路三段210-2號","121.380625","24.9666083333333","6500700","樹林區"
"238021","KEA-2539","2019/10/21 20:00:01","新北市樹林區八德街652號","121.396463333333","24.9690716666667","6500700","樹林區"
"238017","283-BY","2019/10/21 19:59:47","新北市樹林區保安街二段45巷28號","121.414526666667","25.00013","6500700","樹林區"
"238016","169-UY","2019/10/21 19:59:53","新北市樹林區育德街78-1號","121.387763333333","24.9682683333333","6500700","樹林區"
"239007","AAC-297","2019/10/21 19:59:57","新北市鶯歌區大湖路余厝巷1-7號","121.342775","24.9613416666667","6500800","鶯歌區"
"239006","891-R6","2019/10/21 19:59:57","新北市鶯歌區尖山埔路147號","121.346443333333","24.9510166666667","6500800","鶯歌區"
"239001","417-VK","2019/10/21 19:59:49","新北市鶯歌區尖山埔路116號","121.344178333333","24.95","6500800","鶯歌區"
"239002","359-BY","2019/10/21 19:59:45","新北市鶯歌區大湖路70號","121.34263","24.9623433333333","6500800","鶯歌區"
"239004","193-VK","2019/10/21 19:59:42","新北市鶯歌區二甲路83-22號","121.341235","24.9314333333333","6500800","鶯歌區"
"221008","489-VK","2019/10/21 19:59:57","新北市汐止區康寧街143號","121.621445","25.0665683333333","6501100","汐止區"
"221015","131-UY","2019/10/21 19:59:54","新北市汐止區橋東街37號","121.666321666667","25.0753666666667","6501100","汐止區"
"221010","269-BY","2019/10/21 19:59:38","新北市汐止區汐萬路一段418巷3號","121.649618333333","25.0785516666667","6501100","汐止區"
"221012","278-VK","2019/10/21 19:59:43","新北市汐止區大同路三段579號","121.682203333333","25.0736883333333","6501100","汐止區"
"221023","279-VK","2019/10/21 19:59:59","新北市汐止區民族三街42號","121.62965","25.0700583333333","6501100","汐止區"
"221027","281-BY","2019/10/21 19:59:42","新北市汐止區中正路89號","121.661208333333","25.0694416666667","6501100","汐止區"
"221029","298-VK","2019/10/21 19:59:51","新北市汐止區樟樹一路137巷26號","121.641038333333","25.0659733333333","6501100","汐止區"
"221021","299-VK","2019/10/21 19:59:49","新北市汐止區水源路一段174號","121.65517","25.0618966666667","6501100","汐止區"
"221031","353-TW","2019/10/21 19:59:47","新北市汐止區福德二路55巷6弄1號","121.634593333333","25.0665583333333","6501100","汐止區"
"221035","622-UM","2019/10/21 19:59:58","新北市汐止區長江街11號","121.654688333333","25.071255","6501100","汐止區"
"221025","623-UM","2019/10/21 19:59:41","新北市汐止區仁愛路77巷3號","121.661045","25.06342","6501100","汐止區"
"221038","646-BX","2019/10/21 19:59:46","新北市汐止區忠孝東路486號","121.666296666667","25.0740416666667","6501100","汐止區"
"221033","647-BX","2019/10/21 19:59:53","新北市汐止區東勢街78號","121.63324","25.040415","6501100","汐止區"
"220079","145-BY","2019/10/21 19:59:51","新北市板橋區民權路202巷11弄24號","121.459793333333","25.01614","6500100","板橋區"
"220080","200-UY","2019/10/21 19:59:56","新北市板橋區大觀路二段163巷13號","121.446196666667","25.000205","6500100","板橋區"
"220082","610-BX","2019/10/21 19:59:50","新北市板橋區溪崑二街14號","121.428896666667","24.9917916666667","6500100","板橋區"
"224002","257-TC","2019/10/21 19:59:36","新北市瑞芳區三爪子坑路319號","121.81812","25.10426","6501200","瑞芳區"
"220056","276-BY","2019/10/21 19:56:11","新北市板橋區四川路二段99巷13-2號","121.453131666667","24.994245","6500100","板橋區"
"220072","277-BY","2019/10/21 19:59:54","新北市板橋區金門街94號","121.432831666667","24.9925533333333","6500100","板橋區"
"220094","283-UM","2019/10/21 19:59:53","新北市板橋區文化路一段180號","121.465771666667","25.019515","6500100","板橋區"
"220071","283-VK","2019/10/21 19:59:52","新北市板橋區五權街30巷13號","121.464298333333","24.9931466666667","6500100","板橋區"
"220101","285-UM","2019/10/21 19:59:44","新北市板橋區雙十路二段47巷4弄22號","121.474901666667","25.02641","6500100","板橋區"
"220053","285-VK","2019/10/21 19:59:51","新北市板橋區民享街55號","121.476088333333","25.0151366666667","6500100","板橋區"
"220083","286-VK","2019/10/21 19:59:47","新北市板橋區僑中二街8巷11號","121.446561666667","25.011165","6500100","板橋區"
"220081","287-VK","2019/10/21 19:59:48","新北市板橋區大觀路一段28巷88號","121.44995","25.0110216666667","6500100","板橋區"
"220090","288-VK","2019/10/21 20:00:00","新北市板橋區新海路72巷5弄36號","121.461563333333","25.0231083333333","6500100","板橋區"
"220061","293-UM","2019/10/21 19:59:40","新北市板橋區民生路二段107號","121.471118333333","25.01781","6500100","板橋區"
"220062","295-UM","2019/10/21 20:00:00","新北市板橋區光復街33巷15號","121.482001666667","25.0189683333333","6500100","板橋區"
"220084","296-UM","2019/10/21 20:00:01","新北市板橋區溪崑二街112巷42號","121.425515","24.9893716666667","6500100","板橋區"
"220075","303-R5","2019/10/21 19:59:56","新北市板橋區金華街10巷48弄52號","121.458888333333","25.0200866666667","6500100","板橋區"
"220092","307-R5","2019/10/21 19:59:57","新北市板橋區民權路174號","121.459538333333","25.0133166666667","6500100","板橋區"
"220098","317-R6","2019/10/21 19:59:53","新北市板橋區溪頭街82-3號","121.458725","25.0305533333333","6500100","板橋區"
"220089","487-VK","2019/10/21 19:59:52","新北市板橋區四維路319號","121.462928333333","25.02901","6500100","板橋區"
"242011","280-VK","2019/10/21 19:59:56","新北市新莊區中港路531巷33號","121.450046666667","25.0515016666667","6500500","新莊區"
"220088","491-VK","2019/10/21 19:59:51","新北市板橋區民治街92號","121.47919","25.0317383333333","6500100","板橋區"
"220035","560-BX","2019/10/21 19:59:54","新北市板橋區金華街74號","121.457643333333","25.020645","6500100","板橋區"
"220103","561-BX","2019/10/21 19:59:51","新北市板橋區漢生東路45號","121.465643333333","25.0167066666667","6500100","板橋區"
"220063","609-BX","2019/10/21 19:59:54","新北市板橋區三民路二段1號","121.479266666667","25.0186583333333","6500100","板橋區"
"220091","637-BX","2019/10/21 19:59:54","新北市板橋區文聖街89巷27號","121.47851","25.0305583333333","6500100","板橋區"
"220057","686-BX","2019/10/21 19:59:50","新北市板橋區四川路二段245巷3號","121.450526666667","24.99337","6500100","板橋區"
"220093","689-BX","2019/10/21 19:59:53","新北市板橋區民生路三段252號","121.464433333333","25.03124","6500100","板橋區"
"220054","741-BX","2019/10/21 19:59:41","新北市板橋區忠孝路忠義巷18弄2號","121.466085","25.00375","6500100","板橋區"
"220102","KEA-2699","2019/10/21 19:59:47","新北市板橋區雙十路二段138-1號","121.473713333333","25.0291083333333","6500100","板橋區"
"220055","827-TW","2019/10/21 19:59:41","新北市板橋區國慶路149巷37弄1號","121.460836666667","24.997915","6500100","板橋區"
"220067","831-TW","2019/10/21 20:00:00","新北市板橋區中山路一段180號","121.468705","25.0130183333333","6500100","板橋區"
"220077","833-TW","2019/10/21 19:57:44","新北市板橋區僑中二街10巷2號","121.447075","25.01099","6500100","板橋區"
"220074","895-R6","2019/10/21 19:59:56","新北市板橋區文化路一段52巷10號","121.460536666667","25.0116433333333","6500100","板橋區"
"220073","985-R7","2019/10/21 19:59:38","新北市板橋區南雅西路二段281號","121.451985","25.01525","6500100","板橋區"
"220097","AAC-210","2019/10/21 19:59:50","新北市板橋區光正街45巷2弄3號","121.461616666667","25.01727","6500100","板橋區"
"220064","AAC-253","2019/10/21 19:59:44","新北市板橋區漢生東路193巷23-4號","121.471036666667","25.0121416666667","6500100","板橋區"
"235068","KEA-2873","2019/10/21 19:59:44","新北市中和區福美路301巷42號","121.497805","25.0035116666667","6500300","中和區"
"235026","KEA-2876","2019/10/21 19:59:43","新北市中和區員山路36巷16-3號","121.48501","24.9914183333333","6500300","中和區"
