"lineid","car","time","location","longitude","latitude","cityid","cityname"
"234081","298-R6","2019/10/21 20:29:18","新北市永和區福和路123號","121.521611666667","25.0077283333333","6500400","永和區"
"234038","336-UY","2019/10/21 20:29:17","新北市永和區民樂街31巷17弄1號","121.528631666667","25.001885","6500400","永和區"
"234064","337-UY","2019/10/21 20:29:24","新北市永和區中正路435號","121.517116666667","25.00513","6500400","永和區"
"234086","338-UY","2019/10/21 20:29:16","新北市永和區永和路二段326號","121.516098333333","25.0165633333333","6500400","永和區"
"234070","552-UM","2019/10/21 20:29:13","新北市永和區永亨路6-1號","121.519423333333","25.0055566666667","6500400","永和區"
"234030","746-BX","2019/10/21 20:29:29","新北市新店區安興路141號","121.51679","24.97947","6500400","永和區"
"234054","KEA-2590","2019/10/21 20:29:18","新北市永和區環河東路一段82號","121.519726666667","25.0165466666667","6500400","永和區"
"234013","KEA-2591","2019/10/21 20:29:23","新北市永和區仁愛路288號","121.503368333333","25.0083766666667","6500400","永和區"
"234061","AAD-866","2019/10/21 20:29:09","新北市永和區安樂路194巷39弄8號","121.516316666667","25.00143","6500400","永和區"
"234042","862-TW","2019/10/21 20:29:14","新北市永和區安樂路250號","121.514666666667","25.003605","6500400","永和區"
"234050","863-TW","2019/10/21 20:29:20","新北市永和區新生路98號","121.507256666667","25.01485","6500400","永和區"
"249001","173-UM","2019/10/21 20:29:19","新北市八里區中山路三段106號","121.39106","25.14219","6502300","八里區"
"249004","303-UY","2019/10/21 20:29:14","新北市八里區中山路一段129巷37號","121.414096666667","25.158375","6502300","八里區"
"249002","305-UY","2019/10/21 20:29:24","新北市八里區龍米路二段32巷20號","121.4489","25.1410016666667","6502300","八里區"
"249003","593-UM","2019/10/21 20:29:24","新北市八里區舊城路21號","121.399741666667","25.14681","6502300","八里區"
"248002","678-BX","2019/10/21 20:29:26","新北市五股區新五路二段331號","121.443743333333","25.0873183333333","6501500","五股區"
"234023","9380-KE","2019/10/21 20:29:22","新北市永和區博愛街32巷13號","121.518953333333","25.0153516666667","6500400","永和區"
"234074","AAC-211","2019/10/21 20:29:28","新北市永和區豫溪街191巷7弄19號","121.523283333333","25.01095","6500400","永和區"
"234067","AAC-212","2019/10/21 20:29:29","新北市中和區保平路231號","121.508036666667","25.004435","6500400","永和區"
"243012","AAD-798","2019/10/21 20:29:29","新北市泰山區楓江路14號","121.433705","25.0624266666667","6501600","泰山區"
"243014","KEA-2801","2019/10/21 20:29:19","新北市泰山區泰林路二段2-9號","121.419831666667","25.0650433333333","6501600","泰山區"
"243016","421-VK","2019/10/21 20:29:21","新北市泰山區文程路6號","121.427903333333","25.0493333333333","6501600","泰山區"
"243009","KEA-2215","2019/10/21 20:29:20","新北市泰山區泰林路二段544號","121.423451666667","25.0637783333333","6501600","泰山區"
"243011","KEA-2216","2019/10/21 20:29:28","新北市泰山區明志路三段85號","121.424988333333","25.0416333333333","6501600","泰山區"
"243013","646-TV","2019/10/21 20:29:28","新北市泰山區中央路14巷3號","121.426448333333","25.0437266666667","6501600","泰山區"
"243015","680-BX","2019/10/21 20:29:24","新北市泰山區仁德路65號","121.434328333333","25.0568966666667","6501600","泰山區"
"222003","436-BY","2019/10/21 20:29:22","新北市深坑區深坑街77號","121.614661666667","25.001615","6501800","深坑區"
"222001","628-TS","2019/10/21 20:29:24","新北市深坑區北深路三段329號","121.59721","25.005045","6501800","深坑區"
"222002","659-BX","2019/10/21 20:29:26","新北市深坑區萬福路69-1號","121.600845","25.00799","6501800","深坑區"
"231061","002-UM","2019/10/21 20:29:22","新北市新店區安興路32號","121.515773333333","24.9703916666667","6500600","新店區"
"231055","0291-UT","2019/10/21 20:29:21","新北市新店區環河路18號","121.537216666667","24.961445","6500600","新店區"
"231044","046-UY","2019/10/21 20:29:27","新北市新店區建國路136號","121.538993333333","24.978925","6500600","新店區"
"231060","106-UY","2019/10/21 20:28:44","新北市新店區錦秀路3號","121.479261666667","24.9450316666667","6500600","新店區"
"231051","107-UY","2019/10/21 20:29:18","新北市新店區中央七街33號","121.529311666667","24.975545","6500600","新店區"
"231049","108-UY","2019/10/21 20:29:22","新北市新店區永業路81巷1弄2號","121.529691666667","24.94951","6500600","新店區"
"231065","110-UY","2019/10/21 20:29:17","新北市新店區安祥路102巷46弄73號","121.486885","24.963335","6500600","新店區"
"231068","187-VK","2019/10/21 20:29:27","新北市新店區中興路三段226號","121.543418333333","24.982955","6500600","新店區"
"221032","KEA-2785","2019/10/21 20:29:27","新北市汐止區民權街二段44號","121.619363333333","25.0492266666667","6501100","汐止區"
"231062","256-BX","2019/10/21 20:29:23","新北市新店區安泰路60巷1號","121.484101666667","24.9467883333333","6500600","新店區"
"231054","260-TV","2019/10/21 20:29:26","新北市新店區檳榔路174號","121.544181666667","24.9618766666667","6500600","新店區"
"231042","268-BY","2019/10/21 20:29:14","新北市新店區寶橋路230號","121.551441666667","24.978805","6500600","新店區"
"231064","278-BY","2019/10/21 20:29:14","新北市新店區永安街74巷19號","121.519165","24.9859066666667","6500600","新店區"
"231050","AAD-862","2019/10/21 20:29:17","新北市新店區建興街9巷11號","121.539895","24.9762616666667","6500600","新店區"
"231045","355-BY","2019/10/21 20:29:28","新北市新店區新坡一街56-1號","121.549895","24.9634866666667","6500600","新店區"
"231058","3713-VJ","2019/10/21 20:29:24","新北市新店區溪園路397號","121.523453333333","24.9778866666667","6500600","新店區"
"231056","4715-K9","2019/10/21 20:29:28","新北市新店區中央七街61巷18號","121.528916666667","24.9761233333333","6500600","新店區"
"231067","4772-VM","2019/10/21 20:29:19","新北市新店區安華路28-1號","121.519908333333","24.9607716666667","6500600","新店區"
"231052","512-UM","2019/10/21 20:29:24","新北市新店區松林路36號","121.546171666667","24.9102683333333","6500600","新店區"
"231040","617-UM","2019/10/21 20:29:24","新北市新店區三民路66號","121.535026666667","24.97222","6500600","新店區"
"231041","619-UM","2019/10/21 20:29:15","新北市新店區民權路149號","121.534536666667","24.9825183333333","6500600","新店區"
"231063","641-BX","2019/10/21 20:29:18","新北市新店區安康路三段31巷2弄24號","121.492923333333","24.9518716666667","6500600","新店區"
"231057","720-UM","2019/10/21 20:29:21","新北市新店區花園六路二段7號","121.55555","24.93331","6500600","新店區"
"231059","897-TW","2019/10/21 20:29:23","新北市新店區安德街134號","121.508558333333","24.9602866666667","6500600","新店區"
"231043","899-TW","2019/10/21 20:29:06","新北市新店區明德路67巷17號","121.54048","24.977135","6500600","新店區"
"231066","AKT-0513","2019/10/21 20:29:29","新北市新店區安興路83-8號","121.515278333333","24.975695","6500600","新店區"
"241011","013-R5","2019/10/21 20:29:16","新北市三重區龍門路21號","121.4954","25.071815","6500200","三重區"
"241028","022-UY","2019/10/21 20:29:22","新北市三重區光興街91號","121.497413333333","25.059925","6500200","三重區"
"241008","059-VK","2019/10/21 20:29:22","新北市三重區下竹圍街91號","121.481091666667","25.0749416666667","6500200","三重區"
"241002","060-VK","2019/10/21 20:29:12","新北市三重區仁義街211巷5號","121.497108333333","25.0819616666667","6500200","三重區"
"241031","061-VK","2019/10/21 20:29:12","新北市三重區三寧街15號","121.489378333333","25.0597233333333","6500200","三重區"
"241015","062-VK","2019/10/21 20:29:11","新北市三重區文化北路33-8號","121.499155","25.064815","6500200","三重區"
"241017","063-VK","2019/10/21 20:29:30","新北市三重區自強路一段288號","121.49161","25.0681716666667","6500200","三重區"
"241024","065-VK","2019/10/21 20:29:21","新北市三重區中正北路276巷14號","121.480491666667","25.067765","6500200","三重區"
"241007","066-VK","2019/10/21 20:29:18","新北市三重區自強路四段46號","121.489553333333","25.0776516666667","6500200","三重區"
"241003","091-VK","2019/10/21 20:29:14","新北市三重區富華街160號","121.49254","25.0845266666667","6500200","三重區"
"241023","742-BX","2019/10/21 20:29:15","新北市三重區忠孝路三段99巷4號","121.480146666667","25.0643116666667","6500200","三重區"
"241006","262-UM","2019/10/21 20:29:19","新北市三重區車路頭街139巷12號","121.484246666667","25.0763283333333","6500200","三重區"
"241009","267-UM","2019/10/21 20:29:14","新北市三重區永福街64-1號","121.480435","25.0777066666667","6500200","三重區"
"241018","268-UM","2019/10/21 20:29:12","新北市三重區雙園街126號","121.494301666667","25.0673133333333","6500200","三重區"
"241032","269-UM","2019/10/21 20:29:31","新北市三重區重陽路一段120巷25號","121.485766666667","25.0601333333333","6500200","三重區"
"241013","270-UM","2019/10/21 20:29:12","新北市三重區溪尾街10-1號","121.491535","25.07452","6500200","三重區"
"241025","271-UM","2019/10/21 20:29:15","新北市三重區頂崁街210巷23弄1號","121.475858333333","25.0681383333333","6500200","三重區"
"241035","KEA-2210","2019/10/21 20:29:31","新北市三重區正義北路110號","121.496981666667","25.065275","6500200","三重區"
"241030","KED-0822","2019/10/21 20:29:20","新北市三重區成功路60號","121.488726666667","25.0509566666667","6500200","三重區"
"241004","475-VK","2019/10/21 20:29:29","新北市三重區溪尾街209號","121.48841","25.0808816666667","6500200","三重區"
"241020","478-VK","2019/10/21 20:29:23","新北市三重區忠孝路一段3號","121.492281666667","25.07176","6500200","三重區"
"241026","480-VK","2019/10/21 20:29:10","新北市三重區環河南路18號","121.50367","25.0626533333333","6500200","三重區"
"241014","543-UM","2019/10/21 20:29:13","新北市三重區龍濱路68號","121.502235","25.069275","6500200","三重區"
"241001","547-UM","2019/10/21 20:29:26","新北市三重區福隆路2號","121.489653333333","25.0772216666667","6500200","三重區"
"241019","KEA-2593","2019/10/21 20:29:25","新北市三重區大智街135號","121.490966666667","25.0705","6500200","三重區"
"241005","AAD-863","2019/10/21 20:29:24","新北市三重區碧華街422號","121.492426666667","25.0853733333333","6500200","三重區"
"241012","743-BX","2019/10/21 20:29:28","新北市三重區龍濱路269號","121.501433333333","25.0730566666667","6500200","三重區"
"241022","KED-0820","2019/10/21 20:29:17","新北市三重區中正北路20巷12號","121.48803","25.0624483333333","6500200","三重區"
"241029","942-UM","2019/10/21 20:29:25","新北市三重區集美街225號","121.491975","25.05508","6500200","三重區"
"241033","AAC-255","2019/10/21 20:29:12","新北市三重區五谷王北街80巷60號","121.47481","25.0526716666667","6500200","三重區"
"235055","183-VK","2019/10/21 20:29:15","新北市八里區中山路三段409號","121.368755","25.13414","6500300","中和區"
"247016","KEA-2869","2019/10/21 20:29:14","新北市蘆洲區光華路117號","121.466813333333","25.0824733333333","6501400","蘆洲區"
"247010","KED-0682","2019/10/21 20:29:22","新北市蘆洲區民族路75號","121.479183333333","25.0859483333333","6501400","蘆洲區"
"235050","4979-A6","2019/10/21 20:29:11","新北市中和區景新街162號","121.505716666667","24.9971983333333","6500300","中和區"
"235069","4980-A6","2019/10/21 20:29:17","新北市中和區錦和路81號","121.489923333333","24.9960116666667","6500300","中和區"
"235009","551-UM","2019/10/21 20:26:57","新北市中和區員山路36巷13號","121.484175","24.9909366666667","6500300","中和區"
"235059","AAC-215","2019/10/21 20:29:30","新北市中和區員山路36巷1號","121.482636666667","24.9905316666667","6500300","中和區"
"247006","893-R6","2019/10/21 20:29:18","新北市蘆洲區和平路121巷14弄29號","121.466043333333","25.08013","6501400","蘆洲區"
"247020","546-UM","2019/10/21 20:29:22","新北市蘆洲區仁愛街132號","121.469135","25.094535","6501400","蘆洲區"
"247022","500-BY","2019/10/21 20:29:24","新北市蘆洲區中正路172號","121.468313333333","25.0862616666667","6501400","蘆洲區"
"247004","341-TH","2019/10/21 20:29:24","新北市蘆洲區永康街53號","121.456783333333","25.0851933333333","6501400","蘆洲區"
"247012","337-TH","2019/10/21 20:29:23","新北市蘆洲區復興路252號","121.479826666667","25.0895833333333","6501400","蘆洲區"
"247024","057-VK","2019/10/21 20:29:16","新北市蘆洲區長樂路1號","121.464308333333","25.084145","6501400","蘆洲區"
"247014","056-VK","2019/10/21 20:29:27","新北市蘆洲區和平路78號","121.469768333333","25.0791183333333","6501400","蘆洲區"
"247018","053-VK","2019/10/21 20:29:22","新北市蘆洲區民族路336巷9號","121.477021666667","25.090745","6501400","蘆洲區"
"247008","002-UY","2019/10/21 20:29:21","新北市蘆洲區永安北路二段76巷22號","121.482791666667","25.0852383333333","6501400","蘆洲區"
"247002","001-UY","2019/10/21 20:29:12","新北市蘆洲區長安街361巷39號","121.455436666667","25.0873716666667","6501400","蘆洲區"
"251002","012-UM","2019/10/21 20:29:17","新北市淡水區中正路63號","121.441485","25.1695","6501000","淡水區"
"251015","KEA-2871","2019/10/21 20:29:16","新北市淡水區埤島3-20號","121.44705","25.1913983333333","6501000","淡水區"
"251016","179-VK","2019/10/21 20:29:27","新北市淡水區新埔子11-10號","121.44716","25.22863","6501000","淡水區"
"251008","181-VK","2019/10/21 20:29:26","新北市淡水區淡海路206巷10號","121.420936666667","25.1855733333333","6501000","淡水區"
"251013","182-VK","2019/10/21 20:29:24","新北市淡水區後坑子7號","121.463965","25.2057183333333","6501000","淡水區"
"251010","413-VK","2019/10/21 20:29:21","新北市淡水區沙崙路181巷1號","121.424016666667","25.1843316666667","6501000","淡水區"
"251012","441-VK","2019/10/21 20:29:29","新北市淡水區頂田寮路19號","121.454586666667","25.2165566666667","6501000","淡水區"
"251001","559-UM","2019/10/21 20:29:29","新北市淡水區中山北路二段2號","121.44453","25.1830716666667","6501000","淡水區"
"251006","561-UM","2019/10/21 20:29:18","新北市淡水區商工路393號","121.474563333333","25.1848266666667","6501000","淡水區"
"251014","577-R6","2019/10/21 20:29:23","新北市淡水區石頭厝8-3號","121.4592","25.2372033333333","6501000","淡水區"
"251003","673-BX","2019/10/21 20:29:21","新北市淡水區新生街29號","121.439411666667","25.175045","6501000","淡水區"
"207003","550-UM","2019/10/21 20:29:20","新北市萬里區野柳里八斗60號","121.668141666667","25.20345","6502800","萬里區"
"252002","178-VK","2019/10/21 20:29:15","新北市三芝區淡金路二段47-2號","121.503743333333","25.26056","6502100","三芝區"
"252001","KED-0821","2019/10/21 20:29:13","新北市三芝區中山路一段35號","121.500646666667","25.2579816666667","6502100","三芝區"
"242042","AAC-296","2019/10/21 20:29:13","新北市新莊區天祥街52號","121.41659","25.0291416666667","6500500","新莊區"
"242060","986-R7","2019/10/21 20:29:24","新北市新莊區民安東路139巷16號","121.431181666667","25.0215766666667","6500500","新莊區"
"242004","751-BX","2019/10/21 20:29:24","新北市新莊區頭前路15巷2號","121.467906666667","25.0522983333333","6500500","新莊區"
"242025","705-TV","2019/10/21 20:29:28","新北市新莊區五工三路62巷22號","121.460181666667","25.0651616666667","6500500","新莊區"
"242029","615-BX","2019/10/21 20:29:26","新北市新莊區中華路二段151號","121.452868333333","25.0515033333333","6500500","新莊區"
"242027","613-BX","2019/10/21 20:29:13","新北市新莊區幸福路589號","121.453623333333","25.0492433333333","6500500","新莊區"
"242058","612-BX","2019/10/21 20:29:20","新北市新莊區四維路195號","121.421945","25.020825","6500500","新莊區"
"242048","566-BX","2019/10/21 20:29:26","新北市新莊區龍安路242號","121.420916666667","25.0196666666667","6500500","新莊區"
"242053","497-BY","2019/10/21 20:29:12","新北市新莊區民安西路245巷8號","121.426548333333","25.013665","6500500","新莊區"
"242013","442-UM","2019/10/21 20:29:27","新北市新莊區中平路302巷12號","121.445438333333","25.0519783333333","6500500","新莊區"
"242002","441-UM","2019/10/21 20:29:20","新北市新莊區中正路78-1號","121.458571666667","25.0378183333333","6500500","新莊區"
"242007","440-UM","2019/10/21 20:29:29","新北市新莊區福壽街92號","121.458205","25.050015","6500500","新莊區"
"242044","415-TV","2019/10/21 20:29:10","新北市新莊區中正路新建巷43號","121.414483333333","25.0217166666667","6500500","新莊區"
"242050","400-BY","2019/10/21 20:29:26","新北市新莊區民安西路254號","121.425911666667","25.01357","6500500","新莊區"
"242023","353-BY","2019/10/21 20:29:20","新北市新莊區新北大道二段302號","121.464688333333","25.0612333333333","6500500","新莊區"
"242015","132-UY","2019/10/21 20:29:21","新北市新莊區中和街49號","121.447996666667","25.0445633333333","6500500","新莊區"
"242039","135-UY","2019/10/21 20:29:13","新北市新莊區民安路232號","121.426098333333","25.0222566666667","6500500","新莊區"
"242017","173-VK","2019/10/21 20:29:20","新北市新莊區中港二街139號","121.448216666667","25.04556","6500500","新莊區"
"242031","175-VK","2019/10/21 20:29:27","新北市新莊區三和路60-15號","121.437735","25.0411283333333","6500500","新莊區"
"242056","176-VK","2019/10/21 20:29:26","新北市新莊區新莊路727號","121.44334","25.0328516666667","6500500","新莊區"
"242021","KED-0687","2019/10/21 20:29:11","新北市新莊區公園路18號","121.448296666667","25.0389966666667","6500500","新莊區"
"242019","346-TH","2019/10/21 20:29:29","新北市新莊區民樂街79號","121.457888333333","25.0429083333333","6500500","新莊區"
"242046","347-TH","2019/10/21 20:29:29","新北市新莊區裕民街90巷15號","121.417726666667","25.02375","6500500","新莊區"
"242036","348-TH","2019/10/21 20:29:10","新北市新莊區後港一路76巷3弄1號","121.427316666667","25.0258933333333","6500500","新莊區"
"242009","349-TH","2019/10/21 20:29:29","新北市新莊區昌盛街81巷2弄2號","121.455535","25.0502716666667","6500500","新莊區"
"242034","350-TH","2019/10/21 20:29:28","新北市新莊區中正路222號","121.448841666667","25.0354616666667","6500500","新莊區"
"221008","489-VK","2019/10/21 20:29:18","新北市汐止區三民街1巷1號","121.624348333333","25.0668433333333","6501100","汐止區"
"221036","130-UY","2019/10/21 20:28:09","新北市汐止區福安街37巷1號","121.662915","25.06487","6501100","汐止區"
"221015","131-UY","2019/10/21 20:29:12","新北市汐止區建成路142巷19弄15號","121.661905","25.0739283333333","6501100","汐止區"
"221010","269-BY","2019/10/21 20:29:18","新北市汐止區八連路二段36巷14號","121.636938333333","25.094475","6501100","汐止區"
"221012","278-VK","2019/10/21 20:29:23","新北市汐止區汐平路二段55號","121.699183333333","25.0607866666667","6501100","汐止區"
"221023","279-VK","2019/10/21 20:29:19","新北市汐止區明峰街111號","121.63129","25.07108","6501100","汐止區"
"221027","281-BY","2019/10/21 20:29:22","新北市汐止區中正路225號","121.657971666667","25.06879","6501100","汐止區"
"221029","298-VK","2019/10/21 20:29:31","新北市汐止區樟樹一路129巷32號","121.640488333333","25.0651283333333","6501100","汐止區"
"221021","299-VK","2019/10/21 20:29:09","新北市汐止區水源路一段284號","121.654206666667","25.05831","6501100","汐止區"
"221031","353-TW","2019/10/21 20:29:27","新北市汐止區中興路150巷13號","121.632958333333","25.0648983333333","6501100","汐止區"
"221035","622-UM","2019/10/21 20:29:18","新北市汐止區長江街79巷16號","121.65789","25.0729566666667","6501100","汐止區"
"221025","623-UM","2019/10/21 20:29:21","新北市汐止區水源路二段90號","121.656446666667","25.0560333333333","6501100","汐止區"
"221038","646-BX","2019/10/21 20:29:26","新北市汐止區水源路一段56號","121.657671666667","25.0657183333333","6501100","汐止區"
"221033","647-BX","2019/10/21 20:29:13","新北市汐止區林森街124號","121.624651666667","25.0406533333333","6501100","汐止區"
"221002","707-TV","2019/10/21 20:29:25","新北市汐止區福德二路51號","121.634176666667","25.0672133333333","6501100","汐止區"
"221018","753-BX","2019/10/21 20:25:43","新北市汐止區茄苳路225巷1號","121.671123333333","25.06894","6501100","汐止區"
"220056","276-BY","2019/10/21 20:29:19","新北市八里區下罟子8-10號","121.383811666667","25.14461","6500100","板橋區"
"220053","285-VK","2019/10/21 20:29:11","新北市五股區孝義路14-1號","121.45193","25.106405","6500100","板橋區"
"220083","286-VK","2019/10/21 20:29:27","新北市板橋區僑中二街100巷38號","121.444435","25.0087283333333","6500100","板橋區"
"220081","287-VK","2019/10/21 20:29:28","新北市板橋區僑中一街80巷5弄3號","121.44758","25.0124733333333","6500100","板橋區"
"242011","280-VK","2019/10/21 20:29:16","新北市新莊區中義街37號","121.44993","25.051155","6500500","新莊區"
"220055","827-TW","2019/10/21 20:29:21","新北市板橋區華東街262號","121.452556666667","25.0009283333333","6500100","板橋區"
"235026","KEA-2876","2019/10/21 20:01:57","新北市中和區員山路36巷16-3號","121.485093333333","24.9913733333333","6500300","中和區"
