"lineid","car","time","location","longitude","latitude","cityid","cityname"
"234044","148-BY","2019/11/04 12:43:49","新北市永和區永元路18巷39號","121.524058333333","25.0005333333333","6500400","永和區"
"234078","298-R6","2019/11/04 12:43:40","新北市永和區林森路67號","121.524083333333","25.0039633333333","6500400","永和區"
"234036","336-UY","2019/11/04 12:43:39","新北市永和區福和路1號","121.526686666667","25.0100783333333","6500400","永和區"
"234062","337-UY","2019/11/04 12:43:32","新北市永和區福和路1號","121.526625","25.0100883333333","6500400","永和區"
"234084","338-UY","2019/11/04 12:43:36","新北市中和區安樂路71-1號","121.51247","24.9940333333333","6500400","永和區"
"234068","552-UM","2019/11/04 12:43:51","新北市永和區福和路1號","121.525461666667","25.009685","6500400","永和區"
"234015","745-BX","2019/11/04 12:43:34","新北市永和區環河東路一段108號","121.520055","25.0159183333333","6500400","永和區"
"234028","746-BX","2019/11/04 12:43:45","新北市永和區得和路321號","121.523358333333","24.9996333333333","6500400","永和區"
"234052","KEA-2590","2019/11/04 12:43:42","新北市永和區福和路1號","121.526333333333","25.009385","6500400","永和區"
"234012","KEA-2591","2019/11/04 12:43:48","新北市永和區保福路二段105號","121.510181666667","25.0133466666667","6500400","永和區"
"234060","AAD-866","2019/11/04 12:43:40","新北市永和區福和路16號","121.52421","25.008505","6500400","永和區"
"234040","862-TW","2019/11/04 12:43:45","新北市永和區中和路619號","121.512863333333","25.0047583333333","6500400","永和區"
"234048","863-TW","2019/11/04 12:43:37","新北市永和區福和路1號","121.526445","25.0100266666667","6500400","永和區"
"234025","9371-KE","2019/11/04 12:43:39","新北市永和區豫溪街169巷2-1號","121.521905","25.0104733333333","6500400","永和區"
"234010","9373-KE","2019/11/04 12:43:37","新北市永和區保安路150號","121.508286666667","25.01478","6500400","永和區"
"248007","KED-0815","2019/11/04 12:43:33","新北市五股區中興路二段63巷17號","121.460175","25.0754433333333","6501500","五股區"
"234022","9380-KE","2019/11/04 12:43:45","新北市永和區豫溪街191巷3弄22號","121.523208333333","25.0107283333333","6500400","永和區"
"234076","969-R7","2019/11/04 12:43:42","新北市永和區中正路70號","121.513513333333","24.9950116666667","6500400","永和區"
"234066","AAC-212","2019/11/04 12:43:45","新北市永和區永和路一段4號","121.51276","25.0045816666667","6500400","永和區"
"234001","AAC-295","2019/11/04 12:43:35","新北市永和區福和路14號","121.524403333333","25.00854","6500400","永和區"
"231029","106-UY","2019/11/04 12:43:44","新北市新店區安一路一段1-1號","121.519796666667","24.9612683333333","6500600","新店區"
"231036","110-UY","2019/11/04 12:43:37","新北市新店區安華路3號","121.519343333333","24.9597383333333","6500600","新店區"
"231023","260-TV","2019/11/04 12:43:41","新北市新店區安一路一段1-1號","121.519121666667","24.9611166666667","6500600","新店區"
"231019","513-UM","2019/11/04 12:43:34","新北市新店區安一路一段1-1號","121.519948333333","24.9612083333333","6500600","新店區"
"231011","KED-0819","2019/11/04 12:43:28","新北市新店區安一路一段1-1號","121.519625","24.9614166666667","6500600","新店區"
"231010","719-UM","2019/11/04 12:43:48","新北市新店區安一路一段1-1號","121.519628333333","24.96139","6500600","新店區"
"231028","897-TW","2019/11/04 12:43:42","新北市新店區安華路28-1號","121.51946","24.9605433333333","6500600","新店區"
"235029","098-UM","2019/11/04 12:43:37","新北市中和區員山路36巷16-3號","121.485031666667","24.9912716666667","6500300","中和區"
"235022","151-BY","2019/11/04 12:43:46","新北市中和區員山路36巷16-2號","121.485246666667","24.99167","6500300","中和區"
"235009","565-BX","2019/11/04 12:43:29","新北市中和區員山路36巷16-3號","121.484801666667","24.991135","6500300","中和區"
"220013","072-UY","2019/11/04 12:43:32","新北市板橋區華東街1-9號","121.448165","24.9948966666667","6500100","板橋區"
"207002","749-BX","2019/11/04 12:43:51","新北市萬里區雙興里太和路11-1號","121.656033333333","25.1740283333333","6502800","萬里區"
"207001","662-BX","2019/11/04 12:43:37","新北市萬里區萬里里獅頭路15-2號","121.694731666667","25.1793983333333","6502800","萬里區"
