"lineid","car","time","location","longitude","latitude","cityid","cityname"
"234062","337-UY","2019/11/04 14:43:32","新北市永和區環河西路二段223號","121.501028333333","25.010325","6500400","永和區"
"234068","552-UM","2019/11/04 14:43:31","新北市三重區後埔街80-1號","121.478673333333","25.0455416666667","6500400","永和區"
"234025","9371-KE","2019/11/04 14:43:39","新北市永和區雙和街3號","121.50977","25.0016716666667","6500400","永和區"
"248013","025-BX","2019/11/04 14:43:38","新北市五股區五福路42巷31號","121.434765","25.09017","6501500","五股區"
"248015","026-BX","2019/11/04 14:43:36","新北市五股區成泰路三段577巷80弄50號","121.449698333333","25.1048683333333","6501500","五股區"
"248007","KED-0815","2019/11/04 14:43:33","新北市五股區中興路二段31號","121.462578333333","25.0751","6501500","五股區"
"248019","KED-0813","2019/11/04 14:43:46","新北市五股區凌雲路三段37號","121.431623333333","25.116885","6501500","五股區"
"248011","247-BX","2019/11/04 14:43:47","新北市五股區工商路205號","121.433326666667","25.0871033333333","6501500","五股區"
"248003","677-BX","2019/11/04 14:43:30","新北市五股區成泰路一段82號","121.435685","25.07053","6501500","五股區"
"248001","678-BX","2019/11/04 14:43:33","新北市五股區成泰路三段277號","121.447121666667","25.0941816666667","6501500","五股區"
"248009","682-TV","2019/11/04 14:43:44","新北市五股區登林路79-7號","121.427218333333","25.0705283333333","6501500","五股區"
"234072","AAC-211","2019/11/04 14:43:44","新北市永和區環河東路二段54-1號","121.523326666667","25.0114966666667","6500400","永和區"
"243003","267-VK","2019/11/04 14:43:46","新北市泰山區明志路三段204巷10弄20號","121.422953333333","25.0387616666667","6501600","泰山區"
"243004","AAD-798","2019/11/04 14:43:28","新北市泰山區全興路2-2號","121.43199","25.059565","6501600","泰山區"
"243002","297-R6","2019/11/04 14:43:28","新北市泰山區明志路二段214巷13號","121.426581666667","25.0489833333333","6501600","泰山區"
"243006","KEA-2801","2019/11/04 14:43:42","新北市泰山區明志路一段180號","121.4331","25.0623683333333","6501600","泰山區"
"243008","421-VK","2019/11/04 14:33:47","新北市泰山區明志路三段478號","121.420738333333","25.0316483333333","6501600","泰山區"
"243001","KEA-2215","2019/11/04 14:43:38","新北市泰山區明志路一段124號","121.433403333333","25.0635416666667","6501600","泰山區"
"231003","001-UM","2019/11/04 14:43:46","新北市新店區中興路一段290號","121.545836666667","24.969035","6500600","新店區"
"231030","002-UM","2019/11/04 14:43:35","新北市新店區安民街128號","121.51647","24.9691633333333","6500600","新店區"
"231024","0291-UT","2019/11/04 14:43:42","新北市新店區中華路83巷47號","121.538553333333","24.9676516666667","6500600","新店區"
"231027","0293-UT","2019/11/04 14:43:43","新北市新店區中正路76巷11弄19號","121.543708333333","24.9716966666667","6500600","新店區"
"231005","046-UY","2019/11/04 14:43:44","新北市新店區北新路三段137號","121.541373333333","24.983095","6500600","新店區"
"231029","106-UY","2019/11/04 14:43:44","新北市新店區安康路三段351號","121.485061666667","24.9513716666667","6500600","新店區"
"231018","107-UY","2019/11/04 14:43:37","新北市新店區中央二街7-2號","121.52919","24.973125","6500600","新店區"
"231013","108-UY","2019/11/04 14:43:38","新北市新店區明德路9號","121.5423","24.976685","6500600","新店區"
"231036","110-UY","2019/11/04 14:43:37","新北市新店區安祥路106巷32號","121.477526666667","24.9619916666667","6500600","新店區"
"231039","187-VK","2019/11/04 14:43:42","新北市新店區安一路一段1-1號","121.519566666667","24.9612333333333","6500600","新店區"
"231023","260-TV","2019/11/04 14:43:41","新北市新店區檳榔路109號","121.544501666667","24.9616533333333","6500600","新店區"
"231035","278-BY","2019/11/04 14:43:38","新北市新店區安和路一段52巷2-1號","121.517603333333","24.96627","6500600","新店區"
"231014","AAD-862","2019/11/04 14:43:35","新北市新店區北宜路三段221號","121.592343333333","24.953175","6500600","新店區"
"231006","355-BY","2019/11/04 14:43:34","新北市新店區北宜路二段80巷2弄14號","121.55198","24.9530516666667","6500600","新店區"
"231038","3712-VJ","2019/11/04 14:43:48","新北市新店區安華路28-1號","121.519543333333","24.9608883333333","6500600","新店區"
"231019","513-UM","2019/11/04 14:43:33","新北市新店區桂山路38號","121.558138333333","24.9029316666667","6500600","新店區"
"231034","616-UM","2019/11/04 14:43:48","新北市新店區車子路14號","121.50481","24.9539416666667","6500600","新店區"
"231001","617-UM","2019/11/04 14:43:47","新北市新店區中正路98號","121.543408333333","24.9704616666667","6500600","新店區"
"231002","619-UM","2019/11/04 14:43:35","新北市新店區中正路489號","121.533716666667","24.982275","6500600","新店區"
"231011","KED-0819","2019/11/04 14:43:28","新北市新店區寶橋路75號","121.545746666667","24.9751633333333","6500600","新店區"
"231026","720-UM","2019/11/04 14:43:30","新北市新店區安一路一段1-1號","121.520093333333","24.96127","6500600","新店區"
"231028","897-TW","2019/11/04 14:43:42","新北市新店區安德街40號","121.511418333333","24.96262","6500600","新店區"
"231004","899-TW","2019/11/04 14:43:44","新北市新店區民族路161號","121.537593333333","24.976825","6500600","新店區"
"231037","AKT-0513","2019/11/04 14:43:38","新北市新店區柴埕路2-1號","121.514676666667","24.9659033333333","6500600","新店區"
"235030","003-UY","2019/11/04 14:43:43","新北市中和區中和路196巷9弄4號","121.505366666667","24.9991016666667","6500300","中和區"
"235027","006-UY","2019/11/04 14:43:35","新北市中和區連城路263巷5弄2號","121.492136666667","24.99607","6500300","中和區"
"235020","096-UM","2019/11/04 14:43:29","新北市中和區民富街48號","121.476736666667","25.0069683333333","6500300","中和區"
"235003","097-UM","2019/11/04 14:43:46","新北市中和區安樂路189-1號","121.514721666667","24.99823","6500300","中和區"
"235029","098-UM","2019/11/04 14:43:36","新北市中和區福祥路85巷7號","121.498585","25.0055816666667","6500300","中和區"
"235004","150-BY","2019/11/04 14:43:34","新北市中和區安和路39號","121.509646666667","24.9949016666667","6500300","中和區"
"235022","151-BY","2019/11/04 14:43:46","新北市中和區員山路169號","121.481145","24.9968633333333","6500300","中和區"
"235019","183-VK","2019/11/04 14:43:43","新北市中和區民德路6號","121.46875","25.0030683333333","6500300","中和區"
"235002","185-VK","2019/11/04 14:43:38","新北市中和區立人街67號","121.519875","24.9941366666667","6500300","中和區"
"235031","255-BX","2019/11/04 14:43:37","新北市中和區新生街171號","121.483638333333","25.000855","6500300","中和區"
"235008","293-VK","2019/11/04 14:43:39","新北市中和區南山路421巷1弄3號","121.507361666667","24.9895883333333","6500300","中和區"
"235007","352-BY","2019/11/04 14:43:51","新北市中和區安和路127號","121.506981666667","24.9958866666667","6500300","中和區"
"235006","KEA-2878","2019/11/04 14:43:31","新北市中和區安樂路143巷2弄5號","121.514018333333","24.9977666666667","6500300","中和區"
"247015","KEA-2869","2019/11/04 14:43:35","新北市蘆洲區正和街79號","121.468343333333","25.080855","6501400","蘆洲區"
"235034","558-UM","2019/11/04 14:43:34","新北市中和區連勝街45號","121.498096666667","24.9974433333333","6500300","中和區"
"235018","640-BX","2019/11/04 14:43:40","新北市中和區莒光路66號","121.47226","25.0032333333333","6500300","中和區"
"235035","647-TV","2019/11/04 14:43:39","新北市中和區連城路469-1號","121.483586666667","24.9958733333333","6500300","中和區"
"235011","732-UM","2019/11/04 14:43:47","新北市中和區和平街74號","121.507708333333","24.9911133333333","6500300","中和區"
"235010","733-UM","2019/11/04 14:43:45","新北市中和區四維街37巷2號","121.512315","24.9868733333333","6500300","中和區"
"235005","802-TS","2019/11/04 14:43:43","新北市中和區宜安路142號","121.509631666667","24.9984866666667","6500300","中和區"
"235016","805-TS","2019/11/04 14:43:44","新北市中和區華新街192巷10號","121.50659","24.9827233333333","6500300","中和區"
"235012","896-TW","2019/11/04 14:43:30","新北市中和區忠孝街137號","121.512766666667","24.988295","6500300","中和區"
"235017","900-TW","2019/11/04 14:43:45","新北市中和區國光街205巷2號","121.466746666667","25.0019433333333","6500300","中和區"
"235036","911-UM","2019/11/04 14:43:51","新北市中和區保平路326巷35號","121.506148333333","25.0048","6500300","中和區"
"235015","157-BY","2019/11/04 14:43:41","新北市中和區中興街180巷33號","121.498191666667","24.98913","6500300","中和區"
"235001","AAC-213","2019/11/04 14:43:41","新北市中和區自立路54號","121.523245","24.9920883333333","6500300","中和區"
"235023","AAC-215","2019/11/04 14:43:42","新北市中和區圓通路305巷18號","121.49493","24.989095","6500300","中和區"
"220104","015-TV","2019/11/04 14:43:34","新北市板橋區金華街85巷42號","121.459155","25.0213583333333","6500100","板橋區"
"220013","072-UY","2019/11/04 14:43:32","新北市板橋區國泰街28號","121.468646666667","25.0067766666667","6500100","板橋區"
"220034","073-UY","2019/11/04 14:43:49","新北市板橋區中正路216巷142號","121.460301666667","25.019435","6500100","板橋區"
"220105","075-UY","2019/11/04 14:43:30","新北市板橋區民治街71巷33號","121.48059","25.03327","6500100","板橋區"
"220017","AAD-861","2019/11/04 14:43:28","新北市板橋區大明街20巷19弄5號","121.458283333333","25.0032033333333","6500100","板橋區"
"220047","120-SR","2019/11/04 14:43:43","新北市板橋區四維路314號","121.46251","25.0299216666667","6500100","板橋區"
"247019","546-UM","2019/11/04 14:43:42","新北市蘆洲區民義街68巷19號","121.47396","25.0897983333333","6501400","蘆洲區"
"247005","500-BY","2019/11/04 14:43:34","新北市蘆洲區中華街65號","121.462336666667","25.0808116666667","6501400","蘆洲區"
"247023","057-VK","2019/11/04 14:43:42","新北市蘆洲區中山二路222巷21弄12號","121.468903333333","25.0800866666667","6501400","蘆洲區"
"247013","056-VK","2019/11/04 14:43:44","新北市蘆洲區成功路135號","121.472256666667","25.0823633333333","6501400","蘆洲區"
"247021","007-UY","2019/11/04 14:43:38","新北市蘆洲區仁愛街212巷8號","121.464368333333","25.0941466666667","6501400","蘆洲區"
"247007","002-UY","2019/11/04 14:43:46","新北市蘆洲區信義路1號","121.47358","25.07917","6501400","蘆洲區"
"247001","001-UY","2019/11/04 14:43:49","新北市蘆洲區長安街369號","121.457331666667","25.0876116666667","6501400","蘆洲區"
"235013","251-BX","2019/11/04 14:43:37","新北市中和區中興街55號","121.500648333333","24.9937816666667","6500300","中和區"
"253003","6232-TK","2019/11/04 14:43:50","新北市石門區尖子鹿104-3號","121.579825","25.2965683333333","6502200","石門區"
"253004","6251-TK","2019/11/04 14:43:41","新北市石門區內阿里磅46號","121.580415","25.241605","6502200","石門區"
"253002","637-UY","2019/11/04 14:39:56","新北市三芝區橫山里橫山39-7號","121.545768333333","25.25464","6502200","石門區"
"253001","KEC-0718","2019/11/04 14:43:49","新北市石門區崁子腳53-2號","121.5373","25.2822716666667","6502200","石門區"
"207002","749-BX","2019/11/04 14:43:30","新北市萬里區崁腳里崁腳路73號","121.647598333333","25.1596033333333","6502800","萬里區"
"252005","073-UM","2019/11/04 14:43:42","新北市三芝區埔坪里埔頭坑92號","121.508571666667","25.25163","6502100","三芝區"
"207001","662-BX","2019/11/04 14:43:35","新北市萬里區雙興里豐稟路26號","121.641378333333","25.1877166666667","6502800","萬里區"
"236040","KED-0685","2019/11/04 14:43:33","新北市土城區裕民路92巷25弄10號","121.449823333333","24.985725","6501300","土城區"
"236074","166-UM","2019/11/04 14:43:48","新北市土城區中央路四段185巷59號","121.416861666667","24.9560216666667","6501300","土城區"
"236029","253-BX","2019/11/04 14:43:45","新北市土城區慶樂街2號","121.439816666667","24.9725633333333","6501300","土城區"
"236024","269-VK","2019/11/04 14:43:49","新北市土城區農豐街12-1號","121.442513333333","24.9738716666667","6501300","土城區"
"236012","270-VK","2019/11/04 14:43:39","新北市土城區清水路278巷26號","121.462641666667","24.9826116666667","6501300","土城區"
"236032","271-VK","2019/11/04 14:43:37","新北市土城區明德路一段221巷9號","121.463703333333","24.978045","6501300","土城區"
"236064","KEA-2877","2019/11/04 14:43:42","新北市土城區永豐路226號","121.467141666667","24.98173","6501300","土城區"
"236016","401-BY","2019/11/04 14:43:32","新北市土城區延吉街253巷31號","121.468036666667","24.983655","6501300","土城區"
"236057","912-UM","2019/11/04 14:43:45","新北市土城區中央路三段93號","121.437628333333","24.9677266666667","6501300","土城區"
"236045","913-UM","2019/11/04 14:43:44","新北市土城區青雲路124號","121.45913","24.9857133333333","6501300","土城區"
"236060","915-UM","2019/11/04 14:43:45","新北市土城區延和路125巷28號","121.46914","24.9909166666667","6501300","土城區"
"236054","AAC-216","2019/11/04 14:43:48","新北市土城區裕民路98號","121.450545","24.9870016666667","6501300","土城區"
"220027","145-BY","2019/11/04 14:43:35","新北市板橋區民權路202巷13弄21號","121.458666666667","25.0162633333333","6500100","板橋區"
"220028","200-UY","2019/11/04 14:43:40","新北市板橋區大觀路二段153巷46弄10號","121.448961666667","24.99961","6500100","板橋區"
"220030","610-BX","2019/11/04 14:43:49","新北市板橋區金門街126號","121.432893333333","24.991265","6500100","板橋區"
"220004","276-BY","2019/11/04 14:43:30","新北市板橋區國慶路31號","121.458888333333","24.9955683333333","6500100","板橋區"
"220020","277-BY","2019/11/04 14:43:33","新北市板橋區金門街215巷79號","121.434095","24.9893133333333","6500100","板橋區"
"220050","280-UM","2019/11/04 14:43:40","新北市板橋區莒光路200-1號","121.474178333333","25.0220416666667","6500100","板橋區"
"220043","283-UM","2019/11/04 14:43:39","新北市板橋區陽明街269號","121.462228333333","25.0258466666667","6500100","板橋區"
"220019","283-VK","2019/11/04 14:43:36","新北市板橋區信義路19號","121.456916666667","24.996555","6500100","板橋區"
"220001","285-VK","2019/11/04 14:43:29","新北市板橋區民享街63號","121.476361666667","25.0153933333333","6500100","板橋區"
"220031","286-VK","2019/11/04 14:43:46","新北市板橋區龍興街99巷2號","121.44434","25.00294","6500100","板橋區"
"220029","287-VK","2019/11/04 14:43:50","新北市板橋區大觀路一段29巷127-3號","121.450663333333","25.00518","6500100","板橋區"
"220039","288-VK","2019/11/04 14:43:36","新北市板橋區龍泉街90巷3號","121.456138333333","25.0247966666667","6500100","板橋區"
"220009","293-UM","2019/11/04 14:43:47","新北市板橋區觀光街33巷2-1號","121.471193333333","25.0159883333333","6500100","板橋區"
"220032","296-UM","2019/11/04 14:43:36","新北市板橋區溪崑二街112巷33弄10號","121.425323333333","24.9886866666667","6500100","板橋區"
"220023","303-R5","2019/11/04 14:43:45","新北市板橋區中正路222號","121.455896666667","25.0185833333333","6500100","板橋區"
"220010","305-R5","2019/11/04 14:43:37","新北市板橋區三民路二段81巷27弄31號","121.481338333333","25.017695","6500100","板橋區"
"220041","307-R5","2019/11/04 14:43:36","新北市板橋區裕民街128巷1號","121.458826666667","25.0277766666667","6500100","板橋區"
"220038","487-VK","2019/11/04 14:43:42","新北市板橋區龍泉街80號","121.456335","25.025585","6500100","板橋區"
"220037","491-VK","2019/11/04 14:43:48","新北市板橋區文化路二段426號","121.474351666667","25.03214","6500100","板橋區"
"220052","561-BX","2019/11/04 14:43:45","新北市板橋區文化路一段435巷31弄11號","121.466811666667","25.022895","6500100","板橋區"
"220011","609-BX","2019/11/04 14:43:44","新北市板橋區三民路一段1巷28號","121.480191666667","25.0244416666667","6500100","板橋區"
"220040","637-BX","2019/11/04 14:43:32","新北市板橋區懷德街139巷20弄8號","121.480153333333","25.0305683333333","6500100","板橋區"
"220005","686-BX","2019/11/04 14:43:37","新北市板橋區廣和街136號","121.462646666667","24.99201","6500100","板橋區"
"220025","687-BX","2019/11/04 14:43:51","新北市板橋區僑中二街10巷1號","121.446916666667","25.0107983333333","6500100","板橋區"
"220042","689-BX","2019/11/04 14:43:43","新北市板橋區長江路二段59號","121.464578333333","25.03147","6500100","板橋區"
"220002","741-BX","2019/11/04 14:43:30","新北市板橋區忠孝路192號","121.465138333333","25.00257","6500100","板橋區"
"220051","KEA-2699","2019/11/04 14:43:38","新北市板橋區仁化街7號","121.474781666667","25.031805","6500100","板橋區"
"220003","827-TW","2019/11/04 14:43:47","新北市板橋區仁愛路62巷15弄2號","121.459983333333","24.9983783333333","6500100","板橋區"
"220016","830-TW","2019/11/04 14:43:37","新北市板橋區中山路二段412巷24號","121.48345","25.019815","6500100","板橋區"
"220014","831-TW","2019/11/04 14:43:45","新北市板橋區長安街251巷40號","121.471873333333","25.0113433333333","6500100","板橋區"
"220022","895-R6","2019/11/04 14:43:31","新北市板橋區府中路93號","121.456985","25.0095333333333","6500100","板橋區"
"220021","985-R7","2019/11/04 14:43:36","新北市板橋區瑞安街58號","121.455355","25.0215933333333","6500100","板橋區"
"220046","AAC-210","2019/11/04 14:43:38","新北市板橋區光正街11-2號","121.462678333333","25.0171566666667","6500100","板橋區"
"220012","AAC-253","2019/11/04 14:43:40","新北市板橋區實踐路25號","121.463653333333","25.0073233333333","6500100","板橋區"
"235032","KEA-2873","2019/11/04 14:43:39","新北市中和區中山路二段252號","121.49765","25.0027433333333","6500300","中和區"
