"lineid","car","time","location","longitude","latitude","cityid","cityname"
"234025","9371-KE","2019/11/04 14:59:39","新北市永和區水源街21巷14弄4號","121.511398333333","25.0038216666667","6500400","永和區"
"248015","026-BX","2019/11/04 14:59:36","新北市五股區凌雲路一段158巷39弄12號","121.44656","25.1040616666667","6501500","五股區"
"248007","KED-0815","2019/11/04 14:59:33","新北市五股區四維路118巷12號","121.469191666667","25.0741833333333","6501500","五股區"
"248019","KED-0813","2019/11/04 14:59:46","新北市五股區中直路28-3號","121.423945","25.1121816666667","6501500","五股區"
"248003","677-BX","2019/11/04 14:59:50","新北市五股區成泰路一段149-2號","121.435393333333","25.073365","6501500","五股區"
"248001","678-BX","2019/11/04 14:59:33","新北市五股區成泰路三段43-3號","121.442368333333","25.0889116666667","6501500","五股區"
"248009","682-TV","2019/11/04 14:59:44","新北市五股區成泰路一段7巷48弄8號","121.432685","25.06787","6501500","五股區"
"243003","267-VK","2019/11/04 14:59:47","新北市新莊區壽山路33-6號","121.418346666667","25.0302016666667","6501600","泰山區"
"243004","AAD-798","2019/11/04 14:59:50","新北市泰山區楓江路83巷5號","121.436971666667","25.0636516666667","6501600","泰山區"
"243002","297-R6","2019/11/04 14:46:08","新北市泰山區明志路二段254號","121.426988333333","25.0477","6501600","泰山區"
"243006","KEA-2801","2019/11/04 14:59:37","新北市泰山區泰林路二段395號","121.427138333333","25.0642666666667","6501600","泰山區"
"243008","421-VK","2019/11/04 14:59:47","新北市泰山區新生路28號","121.429255","25.0446116666667","6501600","泰山區"
"243001","KEA-2215","2019/11/04 14:59:38","新北市泰山區泰林路二段114號","121.434708333333","25.0592616666667","6501600","泰山區"
"243005","646-TV","2019/11/04 14:59:38","新北市泰山區中央路5巷17弄22號","121.427321666667","25.0439483333333","6501600","泰山區"
"243007","680-BX","2019/11/04 14:59:32","新北市泰山區仁愛路94號","121.433236666667","25.0553366666667","6501600","泰山區"
"231003","001-UM","2019/11/04 14:59:46","新北市新店區中興路一段308號","121.546513333333","24.9700033333333","6500600","新店區"
"231030","002-UM","2019/11/04 14:59:35","新北市新店區安民街305號","121.517598333333","24.9738616666667","6500600","新店區"
"231024","0291-UT","2019/11/04 14:59:43","新北市新店區力行路30號","121.539096666667","24.9648116666667","6500600","新店區"
"231027","0293-UT","2019/11/04 14:59:43","新北市新店區中正路328巷1號","121.536915","24.975345","6500600","新店區"
"231005","046-UY","2019/11/04 14:59:44","新北市新店區復興路129號","121.533688333333","24.98793","6500600","新店區"
"231029","106-UY","2019/11/04 14:59:44","新北市新店區錦秀路11巷36號","121.48088","24.9439933333333","6500600","新店區"
"231018","107-UY","2019/11/04 14:59:37","新北市新店區中央路192號","121.530836666667","24.9746933333333","6500600","新店區"
"231013","108-UY","2019/11/04 14:59:38","新北市新店區北新路一段93號","121.53899","24.961915","6500600","新店區"
"231036","110-UY","2019/11/04 14:59:37","新北市新店區安祥路102巷21號","121.484771666667","24.964595","6500600","新店區"
"231039","187-VK","2019/11/04 14:59:41","新北市新店區中興路三段88號","121.545345","24.978795","6500600","新店區"
"231031","256-BX","2019/11/04 14:59:41","新北市新店區安泰路60巷55弄131號","121.484326666667","24.9469116666667","6500600","新店區"
"231023","260-TV","2019/11/04 14:59:41","新北市新店區檳榔路105號","121.54462","24.96169","6500600","新店區"
"231035","278-BY","2019/11/04 14:59:38","新北市新店區安和路二段240號","121.516636666667","24.9785316666667","6500600","新店區"
"231014","AAD-862","2019/11/04 14:59:35","新北市新店區北宜路三段221號","121.592393333333","24.95312","6500600","新店區"
"231006","355-BY","2019/11/04 14:59:34","新北市新店區北宜路一段76號","121.538628333333","24.9558466666667","6500600","新店區"
"231038","3712-VJ","2019/11/04 14:59:47","新北市新店區安華路28-1號","121.519776666667","24.9609733333333","6500600","新店區"
"231025","4715-K9","2019/11/04 14:59:47","新北市新店區大豐路68巷4號","121.539223333333","24.9797566666667","6500600","新店區"
"231019","513-UM","2019/11/04 14:59:33","新北市新店區新烏路二段9-1號","121.545391666667","24.9293233333333","6500600","新店區"
"231034","616-UM","2019/11/04 14:59:28","新北市新店區玫瑰路4-1號","121.493573333333","24.9514083333333","6500600","新店區"
"231001","617-UM","2019/11/04 14:59:47","新北市新店區中正路278號","121.538705","24.9737216666667","6500600","新店區"
"231002","619-UM","2019/11/04 14:59:35","新北市新店區民權路105號","121.53658","24.9827866666667","6500600","新店區"
"231011","KED-0819","2019/11/04 14:59:28","新北市新店區寶橋路84號","121.546488333333","24.9756466666667","6500600","新店區"
"231026","720-UM","2019/11/04 14:59:29","新北市新店區中正路118號","121.542388333333","24.971255","6500600","新店區"
"231028","897-TW","2019/11/04 14:59:42","新北市新店區安豐路27號","121.501425","24.9570383333333","6500600","新店區"
"231004","899-TW","2019/11/04 14:59:44","新北市新店區民族路28號","121.540713333333","24.9788766666667","6500600","新店區"
"231037","AKT-0513","2019/11/04 14:59:38","新北市新店區安興路56號","121.516515","24.9749766666667","6500600","新店區"
"235030","003-UY","2019/11/04 14:59:43","新北市中和區光華街22號","121.504496666667","25.0042233333333","6500300","中和區"
"235020","096-UM","2019/11/04 14:59:29","新北市中和區中山路三段170巷29號","121.472591666667","25.007315","6500300","中和區"
"235003","097-UM","2019/11/04 14:59:46","新北市中和區安樂路217巷67弄6號","121.512831666667","24.9975083333333","6500300","中和區"
"235029","098-UM","2019/11/04 14:59:36","新北市中和區永和路128巷10號","121.497043333333","25.00678","6500300","中和區"
"235004","150-BY","2019/11/04 14:59:34","新北市中和區保健路26巷5號","121.508561666667","24.9976433333333","6500300","中和區"
"235019","183-VK","2019/11/04 14:59:31","新北市三重區大有街23號","121.466726666667","25.0650483333333","6500300","中和區"
"235007","352-BY","2019/11/04 14:59:37","新北市中和區興南路二段159巷25號","121.505361666667","24.9829883333333","6500300","中和區"
"235006","KEA-2878","2019/11/04 14:59:44","新北市中和區保健路7巷1號","121.507933333333","24.998555","6500300","中和區"
"235014","4979-A6","2019/11/04 14:59:31","新北市中和區景平路189號","121.511491666667","24.992565","6500300","中和區"
"235033","4980-A6","2019/11/04 14:59:43","新北市中和區景新街64巷7弄17號","121.504595","24.9985516666667","6500300","中和區"
"235034","558-UM","2019/11/04 14:59:34","新北市中和區中正路242號","121.495933333333","24.9940916666667","6500300","中和區"
"235035","647-TV","2019/11/04 14:59:48","新北市中和區建一路136-1號","121.488025","24.9989816666667","6500300","中和區"
"235010","733-UM","2019/11/04 14:59:45","新北市中和區興南路一段105巷20弄5號","121.510303333333","24.9855383333333","6500300","中和區"
"235016","805-TS","2019/11/04 14:59:40","新北市中和區華新街192巷22弄8號","121.506965","24.9834266666667","6500300","中和區"
"235012","896-TW","2019/11/04 14:59:30","新北市中和區忠孝街2-6號","121.509136666667","24.9829866666667","6500300","中和區"
"235036","911-UM","2019/11/04 14:59:31","新北市中和區連城路249-1號","121.49313","24.996735","6500300","中和區"
"235015","157-BY","2019/11/04 14:59:41","新北市中和區景安路220巷3號","121.503183333333","24.9909833333333","6500300","中和區"
"235001","AAC-213","2019/11/04 14:59:41","新北市中和區自強路52號","121.520136666667","24.99475","6500300","中和區"
"235023","AAC-215","2019/11/04 14:59:42","新北市中和區圓通路335巷3弄3號","121.492393333333","24.9901683333333","6500300","中和區"
"220104","015-TV","2019/11/04 14:59:34","新北市板橋區金華街16號","121.456126666667","25.0202816666667","6500100","板橋區"
"220013","072-UY","2019/11/04 14:59:32","新北市板橋區海山路39號","121.467308333333","25.009725","6500100","板橋區"
"220034","073-UY","2019/11/04 14:59:49","新北市板橋區中正路123號","121.45653","25.0151933333333","6500100","板橋區"
"220105","075-UY","2019/11/04 14:59:30","新北市板橋區懷德街81號","121.47791","25.0319633333333","6500100","板橋區"
"220017","AAD-861","2019/11/04 14:59:48","新北市板橋區大明街18-5號","121.458788333333","25.0030066666667","6500100","板橋區"
"220047","120-SR","2019/11/04 14:59:43","新北市板橋區裕民街133巷1-1號","121.459195","25.0271566666667","6500100","板橋區"
"253004","6251-TK","2019/11/04 14:59:41","新北市石門區坪林52-1號","121.595478333333","25.27192","6502200","石門區"
"253002","637-UY","2019/11/04 14:59:36","新北市石門區楓林47號","121.541813333333","25.278345","6502200","石門區"
"207002","749-BX","2019/11/04 14:59:30","新北市萬里區崁腳里崁腳路73號","121.647606666667","25.1595733333333","6502800","萬里區"
"207001","662-BX","2019/11/04 14:59:35","新北市萬里區雙興里太和路30-1號","121.654696666667","25.1784366666667","6502800","萬里區"
"236040","KED-0685","2019/11/04 14:59:33","新北市土城區裕民路214巷19號","121.452825","24.98386","6501300","土城區"
"236074","166-UM","2019/11/04 14:59:48","新北市土城區中州路3巷42弄1號","121.413686666667","24.956675","6501300","土城區"
"236029","253-BX","2019/11/04 14:59:45","新北市土城區福仁街25號","121.440186666667","24.97586","6501300","土城區"
"236024","269-VK","2019/11/04 14:59:49","新北市土城區中正路56巷2號","121.443821666667","24.9752766666667","6501300","土城區"
"236012","270-VK","2019/11/04 14:59:39","新北市土城區立德路13巷22號","121.461618333333","24.9888166666667","6501300","土城區"
"236032","271-VK","2019/11/04 14:59:41","新北市土城區仁愛路17巷1號","121.46059","24.980545","6501300","土城區"
"236064","KEA-2877","2019/11/04 14:59:46","新北市土城區裕生路86巷2號","121.447263333333","24.9851516666667","6501300","土城區"
"236016","401-BY","2019/11/04 14:59:37","新北市土城區延吉街168巷9號","121.46806","24.9857816666667","6501300","土城區"
"236057","912-UM","2019/11/04 14:59:45","新北市土城區金城路二段240號","121.45675","24.98307","6501300","土城區"
"236045","913-UM","2019/11/04 14:59:37","新北市土城區明德路一段365-1號","121.453655","24.9791166666667","6501300","土城區"
"236060","915-UM","2019/11/04 14:59:45","新北市土城區延和路41巷6弄4號","121.466111666667","24.9899666666667","6501300","土城區"
"236054","AAC-216","2019/11/04 14:59:48","新北市土城區學成路160號","121.448181666667","24.9892033333333","6501300","土城區"
"238010","601-UM","2019/11/04 14:59:27","新北市樹林區八德街816號","121.394798333333","24.9687033333333","6500700","樹林區"
"238006","599-UM","2019/11/04 14:59:34","新北市樹林區育德街78號","121.387551666667","24.9684433333333","6500700","樹林區"
"238005","KEA-2217","2019/11/04 14:59:45","新北市樹林區八德街680號","121.39606","24.9689033333333","6500700","樹林區"
"238008","KEA-2539","2019/11/04 14:59:46","新北市樹林區八德街1022號","121.391158333333","24.96847","6500700","樹林區"
"238012","303-VK","2019/11/04 14:59:37","新北市樹林區育德街78號","121.387481666667","24.9684366666667","6500700","樹林區"
"238004","283-BY","2019/11/04 14:59:45","新北市樹林區育德街78-1號","121.387898333333","24.96828","6500700","樹林區"
"220027","145-BY","2019/11/04 14:59:44","新北市板橋區建國街1巷8號","121.457458333333","25.0170683333333","6500100","板橋區"
"220028","200-UY","2019/11/04 14:59:40","新北市板橋區大觀路二段163巷9號","121.446023333333","25.0003233333333","6500100","板橋區"
"220030","610-BX","2019/11/04 14:59:50","新北市板橋區溪崑一街26號","121.430145","24.991035","6500100","板橋區"
"220004","276-BY","2019/11/04 14:59:36","新北市板橋區德興街37巷24號","121.454208333333","24.9938966666667","6500100","板橋區"
"220020","277-BY","2019/11/04 14:59:33","新北市板橋區篤行路二段31巷10號","121.43236","24.9925916666667","6500100","板橋區"
"220050","280-UM","2019/11/04 14:59:40","新北市板橋區萬板路126號","121.47499","25.0233883333333","6500100","板橋區"
"220043","283-UM","2019/11/04 14:59:39","新北市板橋區文化路一段371號","121.466945","25.02154","6500100","板橋區"
"220019","283-VK","2019/11/04 14:59:42","新北市板橋區五權街32巷6號","121.4646","24.99322","6500100","板橋區"
"220001","285-VK","2019/11/04 14:59:29","新北市板橋區永豐街145號","121.47504","25.0200333333333","6500100","板橋區"
"220031","286-VK","2019/11/04 14:59:38","新北市板橋區僑中二街48巷20號","121.445521666667","25.0102516666667","6500100","板橋區"
"220029","287-VK","2019/11/04 14:59:40","新北市板橋區大觀路一段28巷107號","121.44996","25.0120166666667","6500100","板橋區"
"220009","293-UM","2019/11/04 14:59:33","新北市板橋區中山路一段36號","121.460533333333","25.0086633333333","6500100","板橋區"
"220032","296-UM","2019/11/04 14:59:46","新北市板橋區滿平街2巷10號","121.425086666667","24.989405","6500100","板橋區"
"220023","303-R5","2019/11/04 14:59:45","新北市板橋區中正路210號","121.456046666667","25.0181533333333","6500100","板橋區"
"220010","305-R5","2019/11/04 14:59:37","新北市板橋區光復街31巷1號","121.481581666667","25.01897","6500100","板橋區"
"220041","307-R5","2019/11/04 14:59:20","新北市板橋區文化路一段45巷8號","121.460155","25.0136833333333","6500100","板橋區"
"220038","487-VK","2019/11/04 14:59:42","新北市板橋區新海路385巷34弄2號","121.45739","25.0255066666667","6500100","板橋區"
"220037","491-VK","2019/11/04 14:59:50","新北市板橋區文聖街91號","121.477586666667","25.0297633333333","6500100","板橋區"
"220052","561-BX","2019/11/04 14:59:45","新北市板橋區漢生西路56號","121.463011666667","25.018725","6500100","板橋區"
"220011","609-BX","2019/11/04 14:59:45","新北市板橋區中山路二段565巷1號","121.484191666667","25.02215","6500100","板橋區"
"220040","637-BX","2019/11/04 14:59:32","新北市板橋區文聖街149巷8號","121.479008333333","25.028075","6500100","板橋區"
"220005","686-BX","2019/11/04 14:59:37","新北市板橋區四川路二段52號","121.45339","24.9952083333333","6500100","板橋區"
"220025","687-BX","2019/11/04 14:59:33","新北市板橋區僑中三街2號","121.446875","25.0045666666667","6500100","板橋區"
"220042","689-BX","2019/11/04 14:59:43","新北市板橋區文化路二段650巷15號","121.477705","25.0354083333333","6500100","板橋區"
"220002","741-BX","2019/11/04 14:59:38","新北市板橋區實踐路93巷44號","121.465653333333","25.005005","6500100","板橋區"
"220051","KEA-2699","2019/11/04 14:59:42","新北市板橋區莒光路15巷18-1號","121.470423333333","25.0256183333333","6500100","板橋區"
"220003","827-TW","2019/11/04 14:59:47","新北市板橋區仁愛路62巷17弄1號","121.460035","24.9982333333333","6500100","板橋區"
"220016","830-TW","2019/11/04 14:59:37","新北市板橋區光復街234-1號","121.484596666667","25.02147","6500100","板橋區"
"220014","831-TW","2019/11/04 14:59:35","新北市板橋區長安街331巷104-4號","121.471865","25.0126366666667","6500100","板橋區"
"220022","895-R6","2019/11/04 14:59:31","新北市板橋區文化路一段32巷21弄14號","121.460306666667","25.011455","6500100","板橋區"
"220021","985-R7","2019/11/04 14:59:43","新北市板橋區大智街93號","121.453043333333","25.0158333333333","6500100","板橋區"
"220046","AAC-210","2019/11/04 14:59:38","新北市板橋區公館街33號","121.461353333333","25.016245","6500100","板橋區"
"220012","AAC-253","2019/11/04 14:59:34","新北市板橋區民族路271號","121.470723333333","25.0067933333333","6500100","板橋區"
"235032","KEA-2873","2019/11/04 14:59:39","新北市中和區勝利路35巷1弄36號","121.500343333333","25.0079116666667","6500300","中和區"
