"lineid","car","time","location","longitude","latitude","cityid","cityname"
"234007","KED-0605","2019/11/04 18:13:27","新北市永和區環河西路二段219號","121.50113","25.0103583333333","6500400","永和區"
"234026","9371-KE","2019/11/04 18:13:29","新北市永和區大新街19巷4號","121.515045","25.00889","6500400","永和區"
"249005","172-UM","2019/11/04 18:13:30","新北市八里區荖阡坑路15-40號","121.4017","25.1398366666667","6502300","八里區"
"249001","173-UM","2019/11/04 18:13:15","新北市八里區龍米路一段442號","121.450603333333","25.1341633333333","6502300","八里區"
"249004","303-UY","2019/11/04 18:13:25","新北市八里區龍米路二段206巷2號","121.43333","25.1589283333333","6502300","八里區"
"249002","305-UY","2019/11/04 18:13:18","新北市八里區龍米路一段356巷46號","121.452108333333","25.1303433333333","6502300","八里區"
"249003","593-UM","2019/11/04 18:13:20","新北市八里區中山路三段415號","121.370793333333","25.1372683333333","6502300","八里區"
"248014","025-BX","2019/11/04 18:13:26","新北市五股區成泰路一段171巷12號","121.434553333333","25.0745333333333","6501500","五股區"
"248016","026-BX","2019/11/04 18:13:21","新北市五股區成泰路三段221巷16號","121.445728333333","25.093425","6501500","五股區"
"248006","077-UY","2019/11/04 18:13:20","新北市五股區中興路一段164-1號","121.464083333333","25.073955","6501500","五股區"
"248008","KED-0815","2019/11/04 18:13:24","新北市蘆洲區永安南路二段294號","121.457283333333","25.0817933333333","6501500","五股區"
"248018","KED-0813","2019/11/04 18:13:20","新北市五股區新五路三段1號","121.444378333333","25.0894283333333","6501500","五股區"
"248012","247-BX","2019/11/04 18:13:11","新北市五股區新五路三段1號","121.444391666667","25.0891083333333","6501500","五股區"
"248010","272-BY","2019/11/04 18:13:13","新北市五股區成泰路一段219-19號","121.434491666667","25.0776766666667","6501500","五股區"
"248004","677-BX","2019/11/04 18:13:21","新北市五股區中興路四段4號","121.438986666667","25.082725","6501500","五股區"
"248002","678-BX","2019/11/04 18:13:20","新北市五股區新五路二段367號","121.444358333333","25.0879833333333","6501500","五股區"
"232011","375-UM","2019/11/04 18:13:20","新北市坪林區坪雙路一段21號","121.712646666667","24.9415983333333","6502000","坪林區"
"244007","080-UY","2019/11/04 18:13:26","新北市林口區林口路296號","121.386268333333","25.0853583333333","6501700","林口區"
"244019","402-UM","2019/11/04 18:13:32","新北市林口區忠孝路586巷6號","121.375141666667","25.0676833333333","6501700","林口區"
"244013","KEA-2802","2019/11/04 18:13:22","新北市林口區佳林路101巷28號","121.386715","25.0794133333333","6501700","林口區"
"244023","483-VK","2019/11/04 18:13:17","新北市林口區東湖路153巷151號","121.382275","25.0737333333333","6501700","林口區"
"244017","485-VK","2019/11/04 18:13:16","新北市林口區八德路20巷3號","121.367953333333","25.0674616666667","6501700","林口區"
"244009","656-BX","2019/11/04 18:13:26","新北市林口區民生路131巷1號","121.377493333333","25.0886233333333","6501700","林口區"
"244011","701-TV","2019/11/04 18:13:28","新北市林口區仁愛路一段272巷6號","121.393618333333","25.076075","6501700","林口區"
"244025","837-TS","2019/11/04 18:13:25","新北市林口區文化北路一段192-100號","121.35773","25.0707516666667","6501700","林口區"
"244021","838-TS","2019/11/04 18:13:17","新北市林口區自強一街77號","121.4","25.077005","6501700","林口區"
"243013","646-TV","2019/11/04 18:13:15","新北市泰山區南林路93號","121.415508333333","25.051185","6501600","泰山區"
"222003","436-BY","2019/11/04 18:13:27","新北市深坑區文山路二段31號","121.616608333333","24.9988083333333","6501800","深坑區"
"222002","659-BX","2019/11/04 18:13:21","新北市深坑區文化街10號","121.620311666667","25.001335","6501800","深坑區"
"231055","0291-UT","2019/11/04 18:13:15","新北市新店區安華路28-1號","121.519745","24.9606933333333","6500600","新店區"
"231058","0293-UT","2019/11/04 18:13:09","新北市新店區安華路28-1號","121.519758333333","24.9605733333333","6500600","新店區"
"231060","106-UY","2019/11/04 18:13:22","新北市新店區安華路28-1號","121.519676666667","24.960755","6500600","新店區"
"231054","260-TV","2019/11/04 18:13:22","新北市新店區安一路一段1-1號","121.519286666667","24.9612483333333","6500600","新店區"
"231064","278-BY","2019/11/04 18:13:20","新北市新店區安一路一段1-1號","121.519701666667","24.9611233333333","6500600","新店區"
"231050","AAD-862","2019/11/04 18:13:21","新北市新店區安華路28-1號","121.519966666667","24.9610666666667","6500600","新店區"
"231067","4772-VM","2019/11/04 18:13:16","新北市新店區安華路28-1號","121.51908","24.960605","6500600","新店區"
"231052","513-UM","2019/11/04 18:13:29","新北市新店區安一路一段1-1號","121.519783333333","24.961155","6500600","新店區"
"231063","616-UM","2019/11/04 18:13:02","新北市新店區安華路1-1號","121.519451666667","24.960405","6500600","新店區"
"231040","617-UM","2019/11/04 18:13:13","新北市新店區安一路一段1-1號","121.519365","24.9610266666667","6500600","新店區"
"231043","899-TW","2019/11/04 18:13:19","新北市新店區安華路28-1號","121.518841666667","24.9608383333333","6500600","新店區"
"241033","AAC-255","2019/11/04 18:13:24","新北市三重區中興北街62號","121.468975","25.05183","6500200","三重區"
"235066","003-UY","2019/11/04 18:13:16","新北市中和區景平路666-1號","121.497388333333","25.0006866666667","6500300","中和區"
"235064","005-UY","2019/11/04 18:13:28","新北市中和區圓通路167巷6號","121.497968333333","24.99517","6500300","中和區"
"235063","006-UY","2019/11/04 18:13:14","新北市中和區中正路589巷5號","121.485883333333","24.9941966666667","6500300","中和區"
"235056","096-UM","2019/11/04 18:13:13","新北市中和區新生街34號","121.483201666667","25.003685","6500300","中和區"
"235039","097-UM","2019/11/04 18:13:31","新北市中和區中正路273號","121.495701666667","24.99381","6500300","中和區"
"235065","098-UM","2019/11/04 18:13:16","新北市中和區莊敬路49巷18號","121.501598333333","25.0061383333333","6500300","中和區"
"235040","150-BY","2019/11/04 18:13:22","新北市中和區中正路11號","121.503181666667","24.99324","6500300","中和區"
"235058","151-BY","2019/11/04 18:13:21","新北市中和區圓通路369巷2號","121.491261666667","24.9895233333333","6500300","中和區"
"235055","183-VK","2019/11/04 18:13:17","新北市中和區新生街258號","121.483746666667","24.99742","6500300","中和區"
"235038","185-VK","2019/11/04 18:13:16","新北市中和區大智街29號","121.520241666667","24.991965","6500300","中和區"
"235042","KEA-2878","2019/11/04 18:13:18","新北市中和區景平路103號","121.51718","24.9919283333333","6500300","中和區"
"235050","4979-A6","2019/11/04 18:13:17","新北市中和區錦和路350-1號","121.490548333333","24.9935616666667","6500300","中和區"
"235069","4980-A6","2019/11/04 18:13:19","新北市中和區連城路169號","121.495408333333","24.998235","6500300","中和區"
"235070","558-UM","2019/11/04 18:13:21","新北市中和區圓通路207號","121.497063333333","24.994405","6500300","中和區"
"235045","565-BX","2019/11/04 18:13:26","新北市中和區南山路291號","121.504405","24.992005","6500300","中和區"
"235060","KED-0823","2019/11/04 18:13:12","新北市中和區員山路243號","121.48127","24.9985433333333","6500300","中和區"
"235054","640-BX","2019/11/04 18:13:29","新北市中和區民享街86巷26號","121.473358333333","25.0006366666667","6500300","中和區"
"235047","732-UM","2019/11/04 18:13:18","新北市中和區中正路748號","121.485695","24.9985683333333","6500300","中和區"
"235046","733-UM","2019/11/04 18:13:30","新北市中和區員山路36巷16-3號","121.484661666667","24.9912183333333","6500300","中和區"
"235062","800-TS","2019/11/04 18:13:13","新北市中和區景平路989巷4-3號","121.495561666667","25.0052766666667","6500300","中和區"
"235057","801-TS","2019/11/04 18:13:15","新北市中和區民享街97巷21號","121.475328333333","24.9995266666667","6500300","中和區"
"235052","805-TS","2019/11/04 18:13:17","新北市中和區中正路1號","121.50323","24.9934433333333","6500300","中和區"
"235048","896-TW","2019/11/04 18:13:29","新北市中和區員山路36巷16-2號","121.485316666667","24.991655","6500300","中和區"
"235072","911-UM","2019/11/04 18:13:11","新北市中和區連城路277號","121.490513333333","24.9963666666667","6500300","中和區"
"235051","157-BY","2019/11/04 18:13:17","新北市中和區信義街9號","121.510925","24.9896266666667","6500300","中和區"
"235037","AAC-213","2019/11/04 18:13:27","新北市中和區景德街89巷1號","121.51618","24.99143","6500300","中和區"
"235059","AAC-215","2019/11/04 18:13:15","新北市中和區員山路36巷16-3號","121.485061666667","24.9913133333333","6500300","中和區"
"226004","312-R5","2019/11/04 18:11:06","新北市平溪區薯榔里薯榔寮81-4號","121.717151666667","25.0209983333333","6502400","平溪區"
"228003","097-TW","2019/11/04 18:13:20","新北市貢寮區真理里美艷山街12-8號","121.928221666667","25.0636633333333","6502600","貢寮區"
"228002","663-BX","2019/11/04 18:13:27","新北市貢寮區福連里馬崗街6號","122.001508333333","25.0137683333333","6502600","貢寮區"
"228001","670-TC","2019/11/04 18:13:26","新北市貢寮區真理里新港街26巷55弄2-1號","121.927353333333","25.0528483333333","6502600","貢寮區"
"224010","AGQ-8101","2019/11/04 18:13:20","新北市瑞芳區崙頂路5號","121.846391666667","25.1066933333333","6501200","瑞芳區"
"224006","676-BX","2019/11/04 18:13:15","新北市瑞芳區三爪子坑路106巷35號","121.809098333333","25.1039033333333","6501200","瑞芳區"
"224007","285-BY","2019/11/04 18:13:09","新北市瑞芳區四腳亭坑路49-1號","121.768565","25.1064333333333","6501200","瑞芳區"
"224009","275-VK","2019/11/04 18:13:25","新北市瑞芳區新山路43號","121.855925","25.1083083333333","6501200","瑞芳區"
"224008","273-VK","2019/11/04 18:13:21","新北市瑞芳區員山子路3-9號","121.820308333333","25.1037916666667","6501200","瑞芳區"
"224005","271-BY","2019/11/04 18:13:17","新北市瑞芳區建基路一段62巷24-1號","121.816508333333","25.128405","6501200","瑞芳區"
"227001","642-TC","2019/11/04 18:13:12","新北市雙溪區三貂里政光路3號","121.85161","25.0629266666667","6502500","雙溪區"
"227002","400-TW","2019/11/04 18:13:13","新北市雙溪區雙溪里太平路2號","121.863426666667","25.03486","6502500","雙溪區"
"253005","032-BX","2019/11/04 18:13:29","新北市石門區中央路37-1號","121.568511666667","25.2944133333333","6502200","石門區"
"253006","295-VK","2019/11/04 18:13:32","新北市石門區老梅路52巷21號","121.546318333333","25.288545","6502200","石門區"
"222001","KEA-2212","2019/11/04 18:13:20","新北市深坑區北深路二段109號","121.617115","25.0032216666667","6501800","深坑區"
"208002","KEA-2872","2019/11/04 18:13:22","新北市金山區法鼓路120號","121.624768333333","25.2340866666667","6502700","金山區"
"208003","665-BX","2019/11/04 18:13:27","新北市金山區民生路2號","121.64983","25.225095","6502700","金山區"
"251009","008-UM","2019/11/04 18:13:23","新北市淡水區大忠街34巷14號","121.443528333333","25.1754333333333","6501000","淡水區"
"251004","009-UM","2019/11/04 18:13:16","新北市淡水區民族路110巷34號","121.461703333333","25.1352666666667","6501000","淡水區"
"251005","010-UM","2019/11/04 18:13:15","新北市淡水區水源街一段124號","121.44736","25.1717","6501000","淡水區"
"251002","012-UM","2019/11/04 18:13:20","新北市淡水區中正東路一段68號","121.452916666667","25.1614866666667","6501000","淡水區"
"251015","KEA-2871","2019/11/04 18:13:30","新北市淡水區興福寮88巷1號","121.485355","25.16496","6501000","淡水區"
"251016","180-VK","2019/11/04 18:13:15","新北市淡水區淡金路三段70巷1號","121.44828","25.2003266666667","6501000","淡水區"
"251008","181-VK","2019/11/04 18:13:25","新北市淡水區中正東路二段19-1號","121.458621666667","25.157345","6501000","淡水區"
"251013","182-VK","2019/11/04 18:13:17","新北市淡水區破瓦厝子1-12號","121.476003333333","25.198725","6501000","淡水區"
"251010","413-VK","2019/11/04 18:13:26","新北市淡水區淡海路189巷25-2號","121.418423333333","25.184725","6501000","淡水區"
"251012","441-VK","2019/11/04 18:13:16","新北市淡水區北新路三段171號","121.4914","25.1913166666667","6501000","淡水區"
"251001","559-UM","2019/11/04 18:13:18","新北市淡水區自立路1巷9號","121.462663333333","25.1298","6501000","淡水區"
"251006","561-UM","2019/11/04 18:13:24","新北市淡水區真理街3巷21-1號","121.437741666667","25.1763266666667","6501000","淡水區"
"251014","577-R6","2019/11/04 18:13:24","新北市淡水區北勢子1號","121.48622","25.2230766666667","6501000","淡水區"
"251011","650-BX","2019/11/04 18:13:15","新北市淡水區三空泉9-2號","121.474115","25.1634916666667","6501000","淡水區"
"251003","673-BX","2019/11/04 18:13:20","新北市淡水區大忠街113巷29號","121.447425","25.17754","6501000","淡水區"
"207003","681-TV","2019/11/04 18:13:28","新北市萬里區野柳里港東路155號","121.689678333333","25.2050766666667","6502800","萬里區"
"207004","291-VK","2019/11/04 18:13:19","新北市萬里區中幅里中福路136號","121.674501666667","25.1662783333333","6502800","萬里區"
"252002","178-VK","2019/11/04 18:13:28","新北市三芝區中山路二段41號","121.502966666667","25.2550883333333","6502100","三芝區"
"252003","249-BX","2019/11/04 18:13:19","新北市三芝區埔頭里埔頭23號","121.490626666667","25.2607533333333","6502100","三芝區"
"208001","170-UY","2019/11/04 18:13:28","新北市金山區磺港里磺港路59號","121.648175","25.22764","6502700","金山區"
"237004","KEA-2597","2019/11/04 18:13:21","新北市三峽區大埔路323號","121.369601666667","24.8990183333333","6500900","三峽區"
"237007","153-BY","2019/11/04 18:13:28","新北市三峽區中正路二段395巷2號","121.364886666667","24.9077616666667","6500900","三峽區"
"237009","210-TH","2019/11/04 18:13:18","新北市三峽區大仁路50巷13號","121.365253333333","24.9381283333333","6500900","三峽區"
"237013","252-BX","2019/11/04 18:13:20","新北市三峽區大同路10號","121.3783","24.9299266666667","6500900","三峽區"
"237012","275-BY","2019/11/04 18:13:28","新北市三峽區民生街1巷1-28號","121.37761","24.9353","6500900","三峽區"
"237008","302-VK","2019/11/04 18:13:12","新北市三峽區白雞68-85號","121.392651666667","24.908615","6500900","三峽區"
"237014","433-BY","2019/11/04 18:13:13","新北市三峽區復興路110巷3弄11號","121.372716666667","24.9385916666667","6500900","三峽區"
"237006","5529-G3","2019/11/04 18:13:10","新北市三峽區溪東路178巷13弄13號","121.40604","24.9323966666667","6500900","三峽區"
"237011","KEA-2596","2019/11/04 18:13:15","新北市三峽區介壽路三段16號","121.39566","24.9362016666667","6500900","三峽區"
"237015","649-BX","2019/11/04 18:13:22","新北市三峽區紫新路32巷1號","121.422361666667","24.9218633333333","6500900","三峽區"
"237010","706-TV","2019/11/04 18:13:13","新北市三峽區中園街3號","121.368608333333","24.92747","6500900","三峽區"
"237005","AKY-6261","2019/11/04 18:13:12","新北市三峽區秀川街26巷3號","121.371493333333","24.9343033333333","6500900","三峽區"
"236042","KED-0685","2019/11/04 18:13:23","新北市土城區裕生路94號","121.44723","24.9849066666667","6501300","土城區"
"233002","762-BX","2019/11/04 18:13:29","新北市烏來區新烏路五段12號","121.542145","24.8812033333333","6502900","烏來區"
"236078","166-UM","2019/11/04 18:13:17","新北市土城區永安街117號","121.429506666667","24.96416","6501300","土城區"
"236030","253-BX","2019/11/04 18:13:16","新北市土城區員福街30號","121.441265","24.9787133333333","6501300","土城區"
"236026","269-VK","2019/11/04 18:13:23","新北市土城區承天路18號","121.43933","24.96365","6501300","土城區"
"236014","270-VK","2019/11/04 18:13:23","新北市土城區青雲路39巷7號","121.460363333333","24.98754","6501300","土城區"
"236039","271-VK","2019/11/04 18:13:20","新北市土城區青雲路449-1號","121.458805","24.9748066666667","6501300","土城區"
"236069","KEA-2877","2019/11/04 18:13:17","新北市土城區明德路一段128巷2號","121.463228333333","24.9790383333333","6501300","土城區"
"252001","KED-0821","2019/11/04 18:13:19","新北市三芝區中興街二段2號","121.498301666667","25.2566316666667","6502100","三芝區"
"236020","401-BY","2019/11/04 18:13:19","新北市土城區金城路二段36號","121.451158333333","24.97878","6501300","土城區"
"236059","912-UM","2019/11/04 18:13:27","新北市土城區中央路四段290號","121.414291666667","24.95633","6501300","土城區"
"236048","913-UM","2019/11/04 18:13:18","新北市土城區明德路一段365-1號","121.453535","24.9790066666667","6501300","土城區"
"236063","915-UM","2019/11/04 18:13:25","新北市土城區金城路二段252號","121.457183333333","24.9833566666667","6501300","土城區"
"236055","AAC-216","2019/11/04 18:13:24","新北市土城區中華路二段92號","121.43822","24.9747333333333","6501300","土城區"
"242042","AAC-296","2019/11/04 18:13:31","新北市新莊區天祥街127號","121.41427","25.029835","6500500","新莊區"
"242060","986-R7","2019/11/04 18:13:23","新北市新莊區新樹路233號","121.43517","25.0225466666667","6500500","新莊區"
"242004","751-BX","2019/11/04 18:13:19","新北市新莊區自立街81號","121.454455","25.0453783333333","6500500","新莊區"
"242027","705-TV","2019/11/04 18:13:28","新北市新莊區幸福路593號","121.453501666667","25.0492316666667","6500500","新莊區"
"242025","613-BX","2019/11/04 18:13:25","新北市新莊區五工二路92號","121.459385","25.0667333333333","6500500","新莊區"
"242058","612-BX","2019/11/04 18:13:29","新北市新莊區壽山路160巷21號","121.417436666667","25.0319116666667","6500500","新莊區"
"242048","566-BX","2019/11/04 18:13:16","新北市新莊區民安路98巷5號","121.42366","25.0255933333333","6500500","新莊區"
"242053","442-UM","2019/11/04 18:13:13","新北市新莊區西盛街395巷29弄9號","121.428488333333","25.0118916666667","6500500","新莊區"
"242002","441-UM","2019/11/04 18:13:16","新北市新莊區新莊路173號","121.456061666667","25.035945","6500500","新莊區"
"242007","440-UM","2019/11/04 18:13:18","新北市新莊區自立街79巷13號","121.454413333333","25.0459533333333","6500500","新莊區"
"242044","415-TV","2019/11/04 18:13:17","新北市新莊區中正路力行巷40號","121.416101666667","25.02678","6500500","新莊區"
"242013","413-TV","2019/11/04 18:13:19","新北市新莊區瓊林路59-90號","121.44095","25.02195","6500500","新莊區"
"242015","132-UY","2019/11/04 18:13:20","新北市新莊區中平路152巷11號","121.445485","25.0474466666667","6500500","新莊區"
"242056","172-VK","2019/11/04 18:13:20","新北市新莊區豐年街豐2巷17號","121.447286666667","25.0308466666667","6500500","新莊區"
"242031","175-VK","2019/11/04 18:13:25","新北市新莊區新泰路263號","121.445991666667","25.04006","6500500","新莊區"
"242021","KED-0687","2019/11/04 18:13:19","新北市新莊區新興街21巷2號","121.45065","25.0371983333333","6500500","新莊區"
"242019","346-TH","2019/11/04 18:13:11","新北市新莊區新泰路289巷40號","121.443715","25.040435","6500500","新莊區"
"242050","347-TH","2019/11/04 18:13:33","新北市新莊區民本街11巷2弄27號","121.429116666667","25.02006","6500500","新莊區"
"242036","348-TH","2019/11/04 18:13:13","新北市新莊區後港一路31巷1弄1號","121.42514","25.0262416666667","6500500","新莊區"
"242009","349-TH","2019/11/04 18:13:15","新北市新莊區昌平街59巷12號","121.454343333333","25.053385","6500500","新莊區"
"242034","350-TH","2019/11/04 18:13:18","新北市新莊區瓊林路13-4號","121.448738333333","25.0308333333333","6500500","新莊區"
"238015","755-BX","2019/11/04 18:13:15","新北市樹林區大安路323巷10弄3號","121.417638333333","24.9911766666667","6500700","樹林區"
"238023","601-UM","2019/11/04 18:13:28","新北市樹林區中正路815號","121.409423333333","25.0170166666667","6500700","樹林區"
"238019","599-UM","2019/11/04 18:13:14","新北市樹林區水源街32巷6號","121.425555","24.9816816666667","6500700","樹林區"
"238018","KEA-2217","2019/11/04 18:13:17","新北市板橋區溪崑二街56巷17號","121.427465","24.9914733333333","6500700","樹林區"
"238025","303-VK","2019/11/04 18:13:16","新北市樹林區保安二街二段6-10號","121.415781666667","25.001265","6500700","樹林區"
"238017","283-BY","2019/11/04 18:13:25","新北市樹林區中正路500號","121.412178333333","25.0132916666667","6500700","樹林區"
"238020","268-VK","2019/11/04 18:13:23","新北市樹林區三俊街65巷40弄8號","121.413931666667","25.017765","6500700","樹林區"
"238026","172-UY","2019/11/04 18:13:25","新北市樹林區佳園路一段80巷3-1號","121.39271","24.9695733333333","6500700","樹林區"
"238016","169-UY","2019/11/04 18:13:22","新北市樹林區啟智街179號","121.415655","24.9874633333333","6500700","樹林區"
"239007","AAC-297","2019/11/04 18:13:20","新北市鶯歌區尖山埔路149號","121.346358333333","24.9509783333333","6500800","鶯歌區"
"239006","891-R6","2019/11/04 18:13:30","新北市鶯歌區鶯桃路365巷96號","121.330813333333","24.96216","6500800","鶯歌區"
"239008","527-UM","2019/11/04 18:13:20","新北市鶯歌區國際一路114巷1號","121.336046666667","24.9764416666667","6500800","鶯歌區"
"239005","526-UM","2019/11/04 18:13:20","新北市鶯歌區鶯桃路668巷73號","121.329931666667","24.971775","6500800","鶯歌區"
"239001","417-VK","2019/11/04 18:13:12","新北市鶯歌區中正三路412號","121.324656666667","24.93462","6500800","鶯歌區"
"239003","360-BY","2019/11/04 18:13:17","新北市鶯歌區鶯桃路308號","121.334048333333","24.961695","6500800","鶯歌區"
"239002","359-BY","2019/11/04 18:13:19","新北市鶯歌區中山路249巷12號","121.34703","24.9565683333333","6500800","鶯歌區"
"221008","489-VK","2019/11/04 18:13:22","新北市汐止區康寧街315號","121.626983333333","25.0679766666667","6501100","汐止區"
"221036","130-UY","2019/11/04 18:13:22","新北市汐止區大同路三段116號","121.672053333333","25.0767166666667","6501100","汐止區"
"221015","131-UY","2019/11/04 18:13:22","新北市汐止區長江街327號","121.666703333333","25.0817216666667","6501100","汐止區"
"221010","269-BY","2019/11/04 18:13:25","新北市汐止區汐萬路二段275巷14號","121.645188333333","25.0888033333333","6501100","汐止區"
"221012","278-VK","2019/11/04 18:13:19","新北市汐止區保一街35巷4號","121.674806666667","25.0803933333333","6501100","汐止區"
"221023","279-VK","2019/11/04 18:13:14","新北市汐止區中興路291巷1號","121.628013333333","25.0698716666667","6501100","汐止區"
"221032","280-BY","2019/11/04 18:13:29","新北市汐止區橫科路10號","121.617821666667","25.0512366666667","6501100","汐止區"
"221027","281-BY","2019/11/04 18:13:26","新北市汐止區和平街3-1號","121.663415","25.0707133333333","6501100","汐止區"
"221029","298-VK","2019/11/04 18:13:13","新北市汐止區樟樹二路320號","121.641448333333","25.0699666666667","6501100","汐止區"
"221021","299-VK","2019/11/04 18:13:20","新北市汐止區復興路24號","121.655975","25.0638333333333","6501100","汐止區"
"221031","353-TW","2019/11/04 18:13:23","新北市汐止區中興路181巷14弄11號","121.629648333333","25.066735","6501100","汐止區"
"221035","622-UM","2019/11/04 18:13:27","新北市汐止區新江北路30巷17號","121.652055","25.0693466666667","6501100","汐止區"
"221025","623-UM","2019/11/04 18:13:26","新北市汐止區勤進路3巷27號","121.661023333333","25.06178","6501100","汐止區"
"221038","646-BX","2019/11/04 18:13:22","新北市汐止區環山路20號","121.657341666667","25.0601066666667","6501100","汐止區"
"221033","647-BX","2019/11/04 18:13:25","新北市汐止區宜興街40巷22弄2號","121.62256","25.0410566666667","6501100","汐止區"
"221002","707-TV","2019/11/04 18:13:26","新北市汐止區福德一路197號","121.635498333333","25.06562","6501100","汐止區"
"221018","753-BX","2019/11/04 18:13:17","新北市汐止區忠孝東路384號","121.665545","25.0701583333333","6501100","汐止區"
"224002","257-TC","2019/11/04 18:13:14","新北市瑞芳區三爪子坑路149巷8號","121.811031666667","25.1063816666667","6501200","瑞芳區"
"242046","281-VK","2019/11/04 18:13:19","新北市新莊區福營路226號","121.42731","25.0293466666667","6500500","新莊區"
"242011","280-VK","2019/11/04 18:13:28","新北市新莊區中榮街72-1號","121.44827","25.05273","6500500","新莊區"
"235068","KEA-2873","2019/11/04 18:13:26","新北市中和區員山路36巷16-3號","121.485181666667","24.9910433333333","6500300","中和區"
"235061","KEA-2875","2019/11/04 18:13:24","新北市中和區民德路187號","121.468438333333","24.9992516666667","6500300","中和區"
"235043","KEA-2876","2019/11/04 18:13:08","新北市中和區錦和路350-1號","121.490515","24.993565","6500300","中和區"
