"lineid","car","time","location","longitude","latitude","cityid","cityname"
"234046","148-BY","2019/11/04 18:43:22","新北市永和區秀朗路二段66巷8號","121.522696666667","25.0009066666667","6500400","永和區"
"234081","298-R6","2019/11/04 18:43:26","新北市永和區林森路81號","121.52387","25.003895","6500400","永和區"
"234064","337-UY","2019/11/04 18:43:15","新北市永和區福和路1號","121.526588333333","25.0099516666667","6500400","永和區"
"234086","338-UY","2019/11/04 18:43:27","新北市永和區中正路17號","121.514268333333","24.9957883333333","6500400","永和區"
"234017","745-BX","2019/11/04 18:43:21","新北市永和區光復街60巷25號","121.517965","25.0175683333333","6500400","永和區"
"234030","746-BX","2019/11/04 18:43:18","新北市永和區得和路328號","121.523395","24.9995133333333","6500400","永和區"
"234007","KED-0605","2019/11/04 18:43:26","新北市永和區文化路123號","121.51216","25.0153483333333","6500400","永和區"
"234013","KEA-2591","2019/11/04 18:43:19","新北市永和區保福路二段105號","121.510146666667","25.01337","6500400","永和區"
"234061","AAD-866","2019/11/04 18:43:29","新北市永和區環河東路二段92號","121.524425","25.010615","6500400","永和區"
"234042","862-TW","2019/11/04 18:43:23","新北市永和區永貞路306號","121.511891666667","25.0048716666667","6500400","永和區"
"234011","9373-KE","2019/11/04 18:43:23","新北市永和區仁愛路23號","121.514348333333","25.0133716666667","6500400","永和區"
"249005","172-UM","2019/11/04 18:43:30","新北市八里區長道坑12號","121.39319","25.1217666666667","6502300","八里區"
"249001","173-UM","2019/11/04 18:43:15","新北市八里區龍米路一段263-1號","121.449668333333","25.1373516666667","6502300","八里區"
"249004","303-UY","2019/11/04 18:43:25","新北市八里區中山路一段172號","121.417061666667","25.15955","6502300","八里區"
"249003","593-UM","2019/11/04 18:33:26","新北市八里區博物館路10-1號","121.415095","25.1639433333333","6502300","八里區"
"248014","025-BX","2019/11/04 18:43:32","新北市五股區民義路一段107巷21-1號","121.43291","25.08453","6501500","五股區"
"248016","026-BX","2019/11/04 18:43:21","新北市五股區凌雲路一段149巷13-1號","121.448611666667","25.1008516666667","6501500","五股區"
"248008","KED-0815","2019/11/04 18:43:24","新北市五股區中興路一段152號","121.46462","25.0738766666667","6501500","五股區"
"248018","KED-0813","2019/11/04 18:42:19","新北市五股區民義路二段122-3號","121.405265","25.1167683333333","6501500","五股區"
"248012","247-BX","2019/11/04 18:43:11","新北市五股區成泰路二段147巷22-3號","121.438316666667","25.0870783333333","6501500","五股區"
"248010","272-BY","2019/11/04 18:43:13","新北市五股區水碓五路128號","121.430966666667","25.07274","6501500","五股區"
"248004","677-BX","2019/11/04 18:43:21","新北市五股區民義路二段12-1號","121.421028333333","25.09634","6501500","五股區"
"248002","678-BX","2019/11/04 18:43:20","新北市五股區西雲路274號","121.449273333333","25.0977366666667","6501500","五股區"
"234023","9380-KE","2019/11/04 18:43:24","新北市永和區豫溪街191巷7弄19號","121.523188333333","25.0108033333333","6500400","永和區"
"234077","969-R7","2019/11/04 18:43:18","新北市永和區中正路31號","121.514305","24.9959016666667","6500400","永和區"
"234067","AAC-212","2019/11/04 18:43:13","新北市中和區永貞路250號","121.514165","25.0036316666667","6500400","永和區"
"234003","AAC-295","2019/11/04 18:43:19","新北市永和區福和路51號","121.523235","25.00793","6500400","永和區"
"232011","375-UM","2019/11/04 18:43:20","新北市坪林區坪雙路一段41號","121.711696666667","24.9424183333333","6502000","坪林區"
"244007","080-UY","2019/11/04 18:43:26","新北市林口區太平里23-3號","121.376325","25.1152866666667","6501700","林口區"
"244019","402-UM","2019/11/04 18:43:11","新北市林口區麗園二街3巷1-2號","121.37812","25.0695633333333","6501700","林口區"
"244013","KEA-2802","2019/11/04 18:43:21","新北市林口區麗園一街6巷3-3號","121.376091666667","25.06978","6501700","林口區"
"244023","483-VK","2019/11/04 18:43:17","新北市林口區文化二路二段72號","121.378385","25.0807316666667","6501700","林口區"
"244017","485-VK","2019/11/04 18:43:16","新北市林口區文化二路一段20巷9號","121.36529","25.0671816666667","6501700","林口區"
"244009","656-BX","2019/11/04 18:43:26","新北市林口區竹林路366巷13號","121.392593333333","25.0846883333333","6501700","林口區"
"244011","701-TV","2019/11/04 18:43:28","新北市林口區中正路57巷12弄2號","121.39515","25.0766333333333","6501700","林口區"
"244025","837-TS","2019/11/04 18:43:25","新北市林口區南勢六街242號","121.35586","25.0747266666667","6501700","林口區"
"244021","838-TS","2019/11/04 18:43:17","新北市林口區工六路92號","121.400981666667","25.076925","6501700","林口區"
"243012","AAD-798","2019/11/04 18:43:24","新北市泰山區福興三街11號","121.43449","25.05781","6501600","泰山區"
"243010","297-R6","2019/11/04 18:43:14","新北市泰山區辭修路48號","121.42841","25.0571716666667","6501600","泰山區"
"243016","421-VK","2019/11/04 18:43:20","新北市泰山區泰林路二段370號","121.428511666667","25.0639366666667","6501600","泰山區"
"243009","KEA-2215","2019/11/04 18:43:14","新北市泰山區黎明路6號","121.420855","25.0623166666667","6501600","泰山區"
"243015","680-BX","2019/11/04 18:43:22","新北市泰山區美寧街50號","121.430511666667","25.06446","6501600","泰山區"
"222003","436-BY","2019/11/04 18:43:27","新北市深坑區翠谷街17巷20號","121.626031666667","25.0095483333333","6501800","深坑區"
"222002","659-BX","2019/11/04 18:43:21","新北市深坑區文山路一段64號","121.623486666667","25.00076","6501800","深坑區"
"231042","001-UM","2019/11/04 18:43:22","新北市新店區安一路一段1-1號","121.519758333333","24.9611233333333","6500600","新店區"
"231061","002-UM","2019/11/04 18:43:20","新北市新店區安華路28-1號","121.519801666667","24.96091","6500600","新店區"
"231055","0291-UT","2019/11/04 18:43:15","新北市新店區中華路62號","121.539301666667","24.9688833333333","6500600","新店區"
"231058","0293-UT","2019/11/04 18:43:29","新北市新店區北宜路一段168號","121.540415","24.95293","6500600","新店區"
"231044","046-UY","2019/11/04 18:43:21","新北市新店區光明街139號","121.539383333333","24.9621066666667","6500600","新店區"
"231060","106-UY","2019/11/04 18:43:22","新北市新店區安華路28-1號","121.519678333333","24.9609016666667","6500600","新店區"
"231051","107-UY","2019/11/04 18:43:21","新北市新店區中央路81號","121.532276666667","24.9766566666667","6500600","新店區"
"231049","108-UY","2019/11/04 18:43:16","新北市新店區安康路一段102號","121.527378333333","24.9624033333333","6500600","新店區"
"231065","110-UY","2019/11/04 18:43:27","新北市新店區安忠路57巷11弄14號","121.515295","24.9579333333333","6500600","新店區"
"231062","256-BX","2019/11/04 18:43:27","新北市新店區安一路一段1-1號","121.519743333333","24.9611783333333","6500600","新店區"
"231054","260-TV","2019/11/04 18:43:22","新北市新店區安一路一段1-1號","121.519381666667","24.9612983333333","6500600","新店區"
"231064","278-BY","2019/11/04 18:43:20","新北市新店區安一路一段1-1號","121.519728333333","24.961095","6500600","新店區"
"231050","AAD-862","2019/11/04 18:43:21","新北市新店區安華路28-1號","121.519861666667","24.9609183333333","6500600","新店區"
"231056","4715-K9","2019/11/04 18:43:11","新北市新店區民族路75-2號","121.539188333333","24.9780183333333","6500600","新店區"
"231067","4772-VM","2019/11/04 18:43:16","新北市新店區安華路1-1號","121.519036666667","24.9606066666667","6500600","新店區"
"231052","513-UM","2019/11/04 18:43:22","新北市新店區永興路34號","121.543595","24.93877","6500600","新店區"
"231063","616-UM","2019/11/04 18:43:22","新北市新店區安華路28-1號","121.519625","24.96066","6500600","新店區"
"231040","617-UM","2019/11/04 18:43:33","新北市新店區安一路一段1-1號","121.519395","24.9610166666667","6500600","新店區"
"231041","619-UM","2019/11/04 18:43:31","新北市新店區安華路28-1號","121.520103333333","24.9606766666667","6500600","新店區"
"231047","KED-0819","2019/11/04 18:43:28","新北市新店區安康路一段222-2號","121.52294","24.963685","6500600","新店區"
"231046","719-UM","2019/11/04 18:43:25","新北市新店區直潭二街1號","121.535411666667","24.9431266666667","6500600","新店區"
"231057","720-UM","2019/11/04 18:43:19","新北市新店區新烏路一段3號","121.547433333333","24.951755","6500600","新店區"
"231059","897-TW","2019/11/04 18:43:25","新北市新店區安華路28-1號","121.51981","24.9608533333333","6500600","新店區"
"231043","899-TW","2019/11/04 18:43:19","新北市新店區安華路28-1號","121.519253333333","24.9608366666667","6500600","新店區"
"231066","AKT-0513","2019/11/04 18:43:12","新北市新店區安華路28-1號","121.519615","24.9607366666667","6500600","新店區"
"235066","003-UY","2019/11/04 18:43:16","新北市中和區水源路34巷24號","121.504613333333","25.0026983333333","6500300","中和區"
"235064","005-UY","2019/11/04 18:43:28","新北市中和區連城路75巷6弄2號","121.49808","24.99885","6500300","中和區"
"235063","006-UY","2019/11/04 18:43:14","新北市中和區錦和路196巷1號","121.489878333333","24.9948966666667","6500300","中和區"
"235056","096-UM","2019/11/04 18:43:33","新北市中和區員山路506巷2號","121.479315","25.0083566666667","6500300","中和區"
"235039","097-UM","2019/11/04 18:43:11","新北市中和區安樂路143巷26號","121.51308","24.99663","6500300","中和區"
"235065","098-UM","2019/11/04 18:43:16","新北市中和區中山路二段2巷59號","121.501605","25.00743","6500300","中和區"
"235040","150-BY","2019/11/04 18:43:22","新北市中和區保健路106巷6弄19號","121.51118","24.9958266666667","6500300","中和區"
"235058","151-BY","2019/11/04 18:43:21","新北市中和區連城路428巷10號","121.480111666667","24.9954066666667","6500300","中和區"
"235055","183-VK","2019/11/04 18:43:17","新北市中和區民生街85巷2弄1號","121.468916666667","25.0045166666667","6500300","中和區"
"235038","185-VK","2019/11/04 18:43:16","新北市中和區立人街14巷2號","121.519431666667","24.9947583333333","6500300","中和區"
"235067","255-BX","2019/11/04 18:43:13","新北市中和區新生街15號","121.483303333333","25.0042633333333","6500300","中和區"
"235044","293-VK","2019/11/04 18:43:29","新北市中和區復興路280巷44號","121.501063333333","24.9919516666667","6500300","中和區"
"235042","KEA-2878","2019/11/04 18:43:18","新北市中和區秀朗路三段135巷7弄6號","121.525498333333","24.9918483333333","6500300","中和區"
"235050","4979-A6","2019/11/04 18:43:17","新北市中和區景新街496巷26號","121.513321666667","24.9858683333333","6500300","中和區"
"235069","4980-A6","2019/11/04 18:43:19","新北市中和區南山路39號","121.502066666667","24.9987183333333","6500300","中和區"
"235070","558-UM","2019/11/04 18:43:21","新北市中和區南山路10號","121.501921666667","24.998565","6500300","中和區"
"235045","565-BX","2019/11/04 18:43:26","新北市中和區興南路一段17號","121.511396666667","24.9909366666667","6500300","中和區"
"235060","KED-0823","2019/11/04 18:43:32","新北市中和區中山路三段152-2號","121.473383333333","25.00629","6500300","中和區"
"235054","640-BX","2019/11/04 18:43:29","新北市中和區民享街35巷3號","121.474461666667","25.0039633333333","6500300","中和區"
"235047","732-UM","2019/11/04 18:43:18","新北市中和區興南路二段90號","121.50526","24.9845916666667","6500300","中和區"
"235046","733-UM","2019/11/04 18:43:10","新北市中和區仁愛街36巷24號","121.51091","24.9870933333333","6500300","中和區"
"235062","800-TS","2019/11/04 18:43:12","新北市中和區中山路二段346號","121.493168333333","25.0024216666667","6500300","中和區"
"235057","801-TS","2019/11/04 18:43:15","新北市中和區民利街11號","121.480585","24.9990666666667","6500300","中和區"
"235041","802-TS","2019/11/04 18:43:14","新北市中和區中安街218號","121.511908333333","24.998845","6500300","中和區"
"235052","805-TS","2019/11/04 18:43:17","新北市中和區興南路三段61號","121.493383333333","24.9751883333333","6500300","中和區"
"235048","896-TW","2019/11/04 18:43:29","新北市中和區南山路503號","121.508008333333","24.9876466666667","6500300","中和區"
"235053","900-TW","2019/11/04 18:43:29","新北市中和區華安街99號","121.46822","24.996225","6500300","中和區"
"235072","911-UM","2019/11/04 18:43:11","新北市中和區中山路二段79號","121.503721666667","25.004305","6500300","中和區"
"235051","157-BY","2019/11/04 18:43:33","新北市中和區工專路145號","121.508751666667","24.9790566666667","6500300","中和區"
"235037","AAC-213","2019/11/04 18:43:28","新北市中和區秀朗路三段128巷9弄1號","121.524586666667","24.9931083333333","6500300","中和區"
"235059","AAC-215","2019/11/04 18:43:15","新北市中和區錦和路400號","121.49099","24.989905","6500300","中和區"
"220065","072-UY","2019/11/04 18:43:23","新北市板橋區成都街43號","121.461335","25.0049","6500100","板橋區"
"220086","073-UY","2019/11/04 18:43:15","新北市板橋區南雅南路二段120-12號","121.452175","24.9994383333333","6500100","板橋區"
"220106","075-UY","2019/11/04 18:43:27","新北市板橋區文化路二段2號","121.468586666667","25.02382","6500100","板橋區"
"220069","AAD-861","2019/11/04 18:43:28","新北市板橋區大華街110號","121.458876666667","25.0049733333333","6500100","板橋區"
"220098","120-SR","2019/11/04 18:43:18","新北市板橋區民生路二段120號","121.470695","25.0194983333333","6500100","板橋區"
"226004","312-R5","2019/11/04 18:43:26","新北市平溪區平溪里三坑路50號","121.733556666667","25.0302066666667","6502400","平溪區"
"235049","251-BX","2019/11/04 18:43:19","新北市中和區明義街38號","121.503688333333","24.995465","6500300","中和區"
"228003","097-TW","2019/11/04 18:43:20","新北市貢寮區和美里龍洞街12-2號","121.91832","25.111725","6502600","貢寮區"
"228002","663-BX","2019/11/04 18:43:27","新北市貢寮區福隆里東興街6-11號","121.950745","25.02106","6502600","貢寮區"
"228001","670-TC","2019/11/04 18:43:26","新北市貢寮區仁理村保健街71號","121.923706666667","25.0516366666667","6502600","貢寮區"
"224010","AGQ-8101","2019/11/04 18:43:20","新北市瑞芳區基山街73號","121.845043333333","25.108415","6501200","瑞芳區"
"224006","676-BX","2019/11/04 18:43:15","新北市瑞芳區中山路15號","121.804905","25.1079483333333","6501200","瑞芳區"
"224007","285-BY","2019/11/04 18:43:29","新北市瑞芳區大埔路227號","121.762415","25.1013183333333","6501200","瑞芳區"
"224009","275-VK","2019/11/04 18:43:25","新北市瑞芳區祈堂路53-1號","121.85957","25.1104466666667","6501200","瑞芳區"
"224008","273-VK","2019/11/04 18:43:21","新北市瑞芳區逢甲路187號","121.804901666667","25.1105966666667","6501200","瑞芳區"
"224005","271-BY","2019/11/04 18:43:17","新北市瑞芳區永龍新村68號","121.818618333333","25.1187233333333","6501200","瑞芳區"
"227001","642-TC","2019/11/04 18:43:12","新北市雙溪區牡丹里下坑11號","121.85104","25.05615","6502500","雙溪區"
"227002","400-TW","2019/11/04 18:43:12","新北市雙溪區魚行里坤溪3-5號","121.87618","25.0208266666667","6502500","雙溪區"
"253005","032-BX","2019/11/04 18:43:29","新北市石門區中山路28-3號","121.565841666667","25.28989","6502200","石門區"
"253006","295-VK","2019/11/04 18:43:32","新北市石門區八甲1-10號","121.52091","25.2835833333333","6502200","石門區"
"222001","KEA-2212","2019/11/04 18:43:20","新北市深坑區松柏街43巷2號","121.638735","25.0120633333333","6501800","深坑區"
"208002","KEA-2872","2019/11/04 18:43:22","新北市金山區忠孝一路33號","121.638365","25.2195433333333","6502700","金山區"
"208003","665-BX","2019/11/04 18:43:27","新北市金山區中山路354號","121.633238333333","25.2254783333333","6502700","金山區"
"251004","009-UM","2019/11/04 18:43:16","新北市淡水區八勢二街51巷2號","121.460771666667","25.1491316666667","6501000","淡水區"
"251002","012-UM","2019/11/04 18:43:19","新北市淡水區中正東路79號","121.447601666667","25.1671833333333","6501000","淡水區"
"251015","KEA-2871","2019/11/04 18:43:30","新北市淡水區興福寮66巷16號","121.486788333333","25.1622533333333","6501000","淡水區"
"251016","180-VK","2019/11/04 18:43:15","新北市淡水區下圭柔山72-2號","121.446633333333","25.2053333333333","6501000","淡水區"
"251008","181-VK","2019/11/04 18:43:25","新北市淡水區北投子68-2號","121.454216666667","25.1816233333333","6501000","淡水區"
"251013","182-VK","2019/11/04 18:43:17","新北市淡水區雲廣坑5號","121.47523","25.213155","6501000","淡水區"
"251010","413-VK","2019/11/04 18:43:27","新北市淡水區沙崙路139號","121.42316","25.1828866666667","6501000","淡水區"
"251012","441-VK","2019/11/04 18:43:15","新北市淡水區北新路121號","121.44897","25.17868","6501000","淡水區"
"251001","559-UM","2019/11/04 18:43:18","新北市淡水區自強路419號","121.465643333333","25.1342266666667","6501000","淡水區"
"251006","561-UM","2019/11/04 18:43:24","新北市淡水區崁頂36號","121.438955","25.1946366666667","6501000","淡水區"
"251014","577-R6","2019/11/04 18:43:24","新北市淡水區崙頂12-8號","121.495588333333","25.2172","6501000","淡水區"
"251011","650-BX","2019/11/04 18:43:15","新北市淡水區平遠街3號","121.447993333333","25.1676966666667","6501000","淡水區"
"251003","673-BX","2019/11/04 18:43:20","新北市淡水區北新路69巷26號","121.44668","25.1801233333333","6501000","淡水區"
"207003","681-TV","2019/11/04 18:43:28","新北市萬里區野柳里港東路70號","121.687898333333","25.204555","6502800","萬里區"
"207004","291-VK","2019/11/04 18:43:19","新北市萬里區萬里里獅頭路23號","121.69342","25.1781683333333","6502800","萬里區"
"252002","178-VK","2019/11/04 18:43:28","新北市三芝區民生街26號","121.503706666667","25.2569066666667","6502100","三芝區"
"252003","249-BX","2019/11/04 18:43:19","新北市三芝區後厝里大片頭85-9號","121.458726666667","25.2439466666667","6502100","三芝區"
"208001","170-UY","2019/11/04 18:43:28","新北市金山區文化三路54號","121.634755","25.225435","6502700","金山區"
"237004","KEA-2597","2019/11/04 18:43:21","新北市三峽區插角82號","121.406201666667","24.8708766666667","6500900","三峽區"
"237007","153-BY","2019/11/04 18:43:28","新北市三峽區柑樹路2巷52號","121.361793333333","24.905095","6500900","三峽區"
"237009","210-TH","2019/11/04 18:43:18","新北市三峽區民權街221號","121.367753333333","24.92816","6500900","三峽區"
"237013","252-BX","2019/11/04 18:43:20","新北市三峽區光明路69巷25號","121.376611666667","24.9291433333333","6500900","三峽區"
"237012","275-BY","2019/11/04 18:43:28","新北市三峽區三樹路340號","121.383968333333","24.9433066666667","6500900","三峽區"
"237008","302-VK","2019/11/04 18:43:12","新北市三峽區白雞28-1號","121.370381666667","24.9121266666667","6500900","三峽區"
"237014","433-BY","2019/11/04 18:43:13","新北市三峽區復興路480巷52-1號","121.361941666667","24.9412333333333","6500900","三峽區"
"237006","5529-G3","2019/11/04 18:43:30","新北市三峽區溪東路315巷76號","121.411648333333","24.9315883333333","6500900","三峽區"
"237011","KEA-2596","2019/11/04 18:43:14","新北市三峽區成福路101號","121.419236666667","24.929755","6500900","三峽區"
"237015","649-BX","2019/11/04 18:43:22","新北市三峽區安坑1-6號","121.435553333333","24.9246633333333","6500900","三峽區"
"237010","706-TV","2019/11/04 18:43:33","新北市三峽區復興路489號","121.361261666667","24.9384233333333","6500900","三峽區"
"237005","AKY-6261","2019/11/04 18:43:12","新北市三峽區復興路34號","121.374136666667","24.936325","6500900","三峽區"
"236042","KED-0685","2019/11/04 18:43:23","新北市土城區裕民路55巷5號","121.449165","24.9882233333333","6501300","土城區"
"236078","166-UM","2019/11/04 18:43:17","新北市土城區中央路四段185巷23號","121.415645","24.9558283333333","6501300","土城區"
"236030","253-BX","2019/11/04 18:43:22","新北市土城區慶樂街25號","121.43922","24.9727383333333","6501300","土城區"
"236026","269-VK","2019/11/04 18:43:23","新北市土城區和平路51-1號","121.443701666667","24.971845","6501300","土城區"
"236014","270-VK","2019/11/04 18:43:24","新北市土城區清水路234巷15弄29號","121.462063333333","24.9822216666667","6501300","土城區"
"236039","271-VK","2019/11/04 18:43:20","新北市土城區明德路一段235巷16號","121.463153333333","24.9778416666667","6501300","土城區"
"236069","KEA-2877","2019/11/04 18:43:17","新北市土城區永豐路157巷29弄6-1號","121.468255","24.98146","6501300","土城區"
"252001","KED-0821","2019/11/04 18:43:19","新北市三芝區中正路三段28號","121.502461666667","25.25269","6502100","三芝區"
"236020","401-BY","2019/11/04 18:43:24","新北市土城區延吉街253巷27號","121.468038333333","24.98368","6501300","土城區"
"236059","912-UM","2019/11/04 18:43:27","新北市土城區中央路三段141-1號","121.43347","24.9653716666667","6501300","土城區"
"236048","913-UM","2019/11/04 18:43:18","新北市土城區青雲路42號","121.459855","24.9881983333333","6501300","土城區"
"236063","915-UM","2019/11/04 18:43:25","新北市土城區延壽路13巷19號","121.469958333333","24.9913316666667","6501300","土城區"
"236055","AAC-216","2019/11/04 18:43:24","新北市土城區裕民路41號","121.448455","24.9883366666667","6501300","土城區"
"242060","986-R7","2019/11/04 18:43:23","新北市新莊區民安西路38巷2號","121.42711","25.02112","6500500","新莊區"
"242058","612-BX","2019/11/04 18:43:29","新北市新莊區中正路889-3號","121.415376666667","25.0237516666667","6500500","新莊區"
"242044","415-TV","2019/11/04 18:43:13","新北市新莊區中正路新生巷9號","121.417241666667","25.024095","6500500","新莊區"
"242009","349-TH","2019/11/04 18:43:15","新北市新莊區中平路16號","121.444845","25.0429066666667","6500500","新莊區"
"238023","601-UM","2019/11/04 18:43:27","新北市樹林區三福街114號","121.406421666667","25.01632","6500700","樹林區"
"238019","599-UM","2019/11/04 18:43:14","新北市樹林區中華路190-16號","121.4118","24.9805933333333","6500700","樹林區"
"238024","5061-A6","2019/11/04 18:43:24","新北市樹林區太順街79巷17號","121.417113333333","24.9780283333333","6500700","樹林區"
"238018","KEA-2217","2019/11/04 18:43:17","新北市樹林區鎮前街165號","121.422323333333","24.9873766666667","6500700","樹林區"
"238022","KEA-2213","2019/11/04 18:43:27","新北市樹林區中華路190-1號","121.411445","24.9804866666667","6500700","樹林區"
"238020","268-VK","2019/11/04 18:43:23","新北市樹林區三俊街252巷25號","121.4211","25.0136","6500700","樹林區"
"238026","172-UY","2019/11/04 18:43:25","新北市樹林區育德街78-1號","121.388148333333","24.968075","6500700","樹林區"
"238016","169-UY","2019/11/04 18:43:22","新北市樹林區中山路一段412號","121.417403333333","24.98514","6500700","樹林區"
"239008","527-UM","2019/11/04 18:43:20","新北市鶯歌區國際一路179號","121.336268333333","24.976555","6500800","鶯歌區"
"239005","526-UM","2019/11/04 18:43:20","新北市鶯歌區鶯桃路二段27號","121.325536666667","24.97246","6500800","鶯歌區"
"239001","417-VK","2019/11/04 18:43:32","新北市鶯歌區國中街197號","121.338233333333","24.9391583333333","6500800","鶯歌區"
"239003","360-BY","2019/11/04 18:43:17","新北市鶯歌區福安街58號","121.335523333333","24.965245","6500800","鶯歌區"
"239004","193-VK","2019/11/04 18:43:25","新北市鶯歌區尖山路293巷13號","121.341578333333","24.9442083333333","6500800","鶯歌區"
"221036","130-UY","2019/11/04 18:43:22","新北市汐止區長興街一段80號","121.671038333333","25.0798666666667","6501100","汐止區"
"221015","131-UY","2019/11/04 18:43:22","新北市汐止區鄉友街54號","121.669291666667","25.0818466666667","6501100","汐止區"
"221010","269-BY","2019/11/04 18:43:25","新北市汐止區汐萬路三段235號","121.64354","25.105235","6501100","汐止區"
"221012","278-VK","2019/11/04 18:43:19","新北市汐止區大同路三段275號","121.675985","25.0758816666667","6501100","汐止區"
"221023","279-VK","2019/11/04 18:43:14","新北市汐止區康寧街607號","121.635771666667","25.070965","6501100","汐止區"
"221032","280-BY","2019/11/04 18:43:29","新北市汐止區民權街二段79號","121.619173333333","25.047955","6501100","汐止區"
"221029","298-VK","2019/11/04 18:43:13","新北市汐止區樟樹一路93號","121.642011666667","25.0635016666667","6501100","汐止區"
"221021","299-VK","2019/11/04 18:43:23","新北市汐止區水源路一段113號","121.656458333333","25.0630266666667","6501100","汐止區"
"221031","353-TW","2019/11/04 18:43:23","新北市汐止區中興路39號","121.634628333333","25.0621966666667","6501100","汐止區"
"221035","622-UM","2019/11/04 18:43:27","新北市汐止區大同路二段91號","121.64896","25.06312","6501100","汐止區"
"221025","623-UM","2019/11/04 18:43:26","新北市汐止區仁愛路119巷2號","121.662748333333","25.0637383333333","6501100","汐止區"
"221002","707-TV","2019/11/04 18:43:26","新北市汐止區大同路一段215-1號","121.633966666667","25.057455","6501100","汐止區"
"221018","753-BX","2019/11/04 18:43:17","新北市汐止區茄苳路250巷21號","121.671808333333","25.06769","6501100","汐止區"
"220079","145-BY","2019/11/04 18:43:18","新北市板橋區南雅西路二段69號","121.452756666667","25.0100483333333","6500100","板橋區"
"220080","200-UY","2019/11/04 18:43:23","新北市板橋區大觀路二段265巷3號","121.44247","24.9964633333333","6500100","板橋區"
"220082","610-BX","2019/11/04 18:43:17","新北市板橋區篤行路二段59號","121.431766666667","24.9925366666667","6500100","板橋區"
"224002","257-TC","2019/11/04 18:43:14","新北市瑞芳區中山路344號","121.795995","25.1101883333333","6501200","瑞芳區"
"220056","276-BY","2019/11/04 18:43:27","新北市板橋區四川路一段205號","121.460038333333","25.0035966666667","6500100","板橋區"
"220072","277-BY","2019/11/04 18:43:24","新北市板橋區大觀路三段50巷47號","121.432943333333","24.9958166666667","6500100","板橋區"
"220101","280-UM","2019/11/04 18:43:21","新北市板橋區民生路二段56-6號","121.471","25.0191816666667","6500100","板橋區"
"220094","283-UM","2019/11/04 18:43:17","新北市板橋區民生路二段120號","121.470795","25.0194183333333","6500100","板橋區"
"220071","283-VK","2019/11/04 18:43:22","新北市板橋區四川路一段337號","121.458521666667","25.0001716666667","6500100","板橋區"
"220053","285-VK","2019/11/04 18:43:18","新北市板橋區民生路二段107號","121.471153333333","25.0180033333333","6500100","板橋區"
"220083","286-VK","2019/11/04 18:43:11","新北市板橋區大觀路二段113號","121.446051666667","25.00159","6500100","板橋區"
"220081","287-VK","2019/11/04 18:43:27","新北市板橋區大觀路一段35巷2號","121.44928","25.00843","6500100","板橋區"
"220090","288-VK","2019/11/04 18:43:19","新北市板橋區民生路三段66-3號","121.466858333333","25.0257833333333","6500100","板橋區"
"220061","293-UM","2019/11/04 18:43:26","新北市板橋區民生路二段89-4號","121.471063333333","25.0183","6500100","板橋區"
"220084","296-UM","2019/11/04 18:43:27","新北市板橋區大觀路二段148巷15號","121.441875","24.9999333333333","6500100","板橋區"
"242046","281-VK","2019/11/04 18:43:19","新北市新莊區富國路77巷17號","121.42032","25.0264433333333","6500500","新莊區"
"220075","303-R5","2019/11/04 18:43:19","新北市板橋區華東街330號","121.452776666667","25.0035083333333","6500100","板橋區"
"220092","307-R5","2019/11/04 18:43:26","新北市板橋區民生路二段89-4號","121.471228333333","25.018615","6500100","板橋區"
"220089","487-VK","2019/11/04 18:43:26","新北市板橋區文化路二段28號","121.46908","25.0247883333333","6500100","板橋區"
"220088","491-VK","2019/11/04 18:43:17","新北市板橋區民生路二段56-6號","121.47096","25.0191366666667","6500100","板橋區"
"220103","561-BX","2019/11/04 18:43:20","新北市板橋區民生路二段89-4號","121.471211666667","25.0184766666667","6500100","板橋區"
"220063","609-BX","2019/11/04 18:43:27","新北市板橋區民生路一段133號","121.473595","25.0149966666667","6500100","板橋區"
"220091","637-BX","2019/11/04 18:43:28","新北市板橋區民生路二段89-6號","121.470713333333","25.0192816666667","6500100","板橋區"
"220057","686-BX","2019/11/04 18:43:19","新北市板橋區重慶路37號","121.461695","25.00757","6500100","板橋區"
"220077","687-BX","2019/11/04 18:43:27","新北市板橋區大觀路二段431-1號","121.441201666667","24.9950766666667","6500100","板橋區"
"220093","689-BX","2019/11/04 18:43:28","新北市板橋區民生路二段161巷1號","121.469965","25.0201633333333","6500100","板橋區"
"220054","741-BX","2019/11/04 18:43:24","新北市板橋區縣民大道一段92-1號","121.456131666667","25.0047716666667","6500100","板橋區"
"220102","KEA-2699","2019/11/04 18:43:14","新北市板橋區民生路二段120號","121.470916666667","25.0193016666667","6500100","板橋區"
"220055","827-TW","2019/11/04 18:43:30","新北市板橋區忠孝路103號","121.462565","25.0022533333333","6500100","板橋區"
"220067","831-TW","2019/11/04 18:43:33","新北市板橋區中山路二段90巷47弄2號","121.47656","25.01466","6500100","板橋區"
"220074","895-R6","2019/11/04 18:43:19","新北市板橋區南雅東路1號","121.455591666667","25.0056866666667","6500100","板橋區"
"220073","985-R7","2019/11/04 18:43:19","新北市板橋區華興街49號","121.457763333333","25.0045716666667","6500100","板橋區"
"220064","AAC-253","2019/11/04 18:43:31","新北市板橋區中山路一段275號","121.469086666667","25.0135233333333","6500100","板橋區"
"235068","KEA-2873","2019/11/04 18:43:26","新北市中和區中正路219號","121.496551666667","24.9937116666667","6500300","中和區"
"235061","KEA-2875","2019/11/04 18:43:24","新北市中和區民治街128巷11號","121.474691666667","25.0027916666667","6500300","中和區"
"235043","KEA-2876","2019/11/04 18:43:08","新北市中和區景平路59-12號","121.52116","24.9907833333333","6500300","中和區"
