"lineid","car","time","location","longitude","latitude","cityid","cityname"
"234046","148-BY","2019/11/04 19:59:22","新北市永和區成功路一段77號","121.526931666667","25.0032516666667","6500400","永和區"
"234081","298-R6","2019/11/04 19:59:31","新北市永和區永利路81巷2弄1號","121.521825","25.0036516666667","6500400","永和區"
"234038","336-UY","2019/11/04 19:59:28","新北市永和區成功路二段179-1號","121.526645","24.99662","6500400","永和區"
"234064","337-UY","2019/11/04 19:59:15","新北市永和區中正路412巷2弄11號","121.518526666667","25.0018733333333","6500400","永和區"
"234086","338-UY","2019/11/04 19:59:27","新北市永和區福和路260號","121.518243333333","25.0075666666667","6500400","永和區"
"234017","745-BX","2019/11/04 19:59:21","新北市永和區文化路69號","121.513931666667","25.0150466666667","6500400","永和區"
"234030","746-BX","2019/11/04 19:59:18","新北市永和區民權路49巷30號","121.521631666667","24.9974816666667","6500400","永和區"
"234054","KEA-2590","2019/11/04 19:59:30","新北市永和區環河東路一段124號","121.52078","25.015535","6500400","永和區"
"234007","KED-0605","2019/11/04 19:59:26","新北市永和區保生路22巷8號","121.50726","25.0080866666667","6500400","永和區"
"234013","KEA-2591","2019/11/04 19:59:19","新北市永和區保生路55號","121.504718333333","25.0105366666667","6500400","永和區"
"234061","AAD-866","2019/11/04 19:59:09","新北市永和區中正路283巷31號","121.516278333333","24.9997483333333","6500400","永和區"
"234070","748-BX","2019/11/04 19:59:28","新北市永和區國光路51號","121.51903","25.0082383333333","6500400","永和區"
"234042","862-TW","2019/11/04 19:59:23","新北市永和區雙和街17巷22號","121.508921666667","25.00141","6500400","永和區"
"234050","863-TW","2019/11/04 19:59:28","新北市永和區永平路247號","121.506575","25.0127883333333","6500400","永和區"
"234026","9371-KE","2019/11/04 19:59:29","新北市永和區水源街27巷11號","121.511351666667","25.0039066666667","6500400","永和區"
"234011","9373-KE","2019/11/04 19:56:15","新北市永和區仁愛路352巷122弄13號","121.500631666667","25.00896","6500400","永和區"
"249005","172-UM","2019/11/04 19:59:10","新北市八里區楓林路1-8號","121.386293333333","25.1311166666667","6502300","八里區"
"249001","173-UM","2019/11/04 19:59:20","新北市八里區中華路二段249-3號","121.404148333333","25.148615","6502300","八里區"
"249004","303-UY","2019/11/04 19:59:27","新北市八里區文昌路132號","121.40934","25.1583183333333","6502300","八里區"
"249002","305-UY","2019/11/04 19:59:26","新北市八里區頂寮一街39號","121.450543333333","25.1237916666667","6502300","八里區"
"249003","593-UM","2019/11/04 19:59:29","新北市八里區中華路二段560巷3號","121.39861","25.14509","6502300","八里區"
"248014","025-BX","2019/11/04 19:59:22","新北市五股區成泰路二段147巷23-15號","121.437723333333","25.0871916666667","6501500","五股區"
"248016","026-BX","2019/11/04 19:59:21","新北市五股區成泰路三段577巷80弄7號","121.449508333333","25.1042716666667","6501500","五股區"
"248008","KED-0815","2019/11/04 19:59:24","新北市五股區四維路30巷34弄2號","121.468445","25.0714783333333","6501500","五股區"
"248018","KED-0813","2019/11/04 19:59:19","新北市五股區登林路99-1號","121.413318333333","25.0764183333333","6501500","五股區"
"248012","247-BX","2019/11/04 19:59:31","新北市五股區工商路205號","121.433281666667","25.0870983333333","6501500","五股區"
"248010","272-BY","2019/11/04 19:59:13","新北市五股區登林路46巷2號","121.43207","25.0686516666667","6501500","五股區"
"248004","677-BX","2019/11/04 19:59:21","新北市五股區成泰路一段32巷62號","121.43497","25.0669533333333","6501500","五股區"
"248002","678-BX","2019/11/04 19:59:28","新北市五股區成泰路三段487號","121.450741666667","25.0992483333333","6501500","五股區"
"234023","9380-KE","2019/11/04 19:59:24","新北市永和區中正路702巷18號","121.51646","25.010565","6500400","永和區"
"234077","969-R7","2019/11/04 19:58:58","新北市永和區民有街20號","121.516585","24.9965766666667","6500400","永和區"
"234074","AAC-211","2019/11/04 19:59:19","新北市永和區豫溪街215巷7號","121.523913333333","25.0098316666667","6500400","永和區"
"234067","AAC-212","2019/11/04 19:59:20","新北市永和區永貞路376號","121.50976","25.0069283333333","6500400","永和區"
"234003","AAC-295","2019/11/04 19:59:19","新北市永和區中正路720號","121.51587","25.009995","6500400","永和區"
"243011","267-VK","2019/11/04 19:59:23","新北市泰山區明志路三段196巷39號","121.421706666667","25.039845","6501600","泰山區"
"243012","AAD-798","2019/11/04 19:59:24","新北市泰山區全興路20號","121.432363333333","25.0587983333333","6501600","泰山區"
"243010","297-R6","2019/11/04 19:37:34","新北市泰山區中港西路498巷56號","121.43136","25.05305","6501600","泰山區"
"243014","KEA-2801","2019/11/04 19:59:17","新北市泰山區泰林路二段33-1號","121.435821666667","25.0568483333333","6501600","泰山區"
"243016","421-VK","2019/11/04 19:59:20","新北市泰山區貴陽街3號","121.421053333333","25.0335766666667","6501600","泰山區"
"243009","KEA-2215","2019/11/04 19:59:14","新北市泰山區泰林路二段164巷35號","121.434211666667","25.06123","6501600","泰山區"
"222003","436-BY","2019/11/04 19:59:27","新北市深坑區埔新街14號","121.620745","25.003965","6501800","深坑區"
"222002","659-BX","2019/11/04 19:59:21","新北市深坑區北深路二段55巷12弄23號","121.618425","25.0031266666667","6501800","深坑區"
"231042","001-UM","2019/11/04 19:59:21","新北市新店區中興路一段290號","121.54586","24.9690716666667","6500600","新店區"
"231061","002-UM","2019/11/04 19:59:20","新北市新店區安民街321號","121.517473333333","24.974415","6500600","新店區"
"231055","0291-UT","2019/11/04 19:59:15","新北市新店區力行路14巷16弄2號","121.539108333333","24.9654816666667","6500600","新店區"
"231044","046-UY","2019/11/04 19:59:21","新北市新店區復興路67-1號","121.535245","24.9877466666667","6500600","新店區"
"231060","106-UY","2019/11/04 19:59:22","新北市新店區安康路二段400號","121.497016666667","24.9554183333333","6500600","新店區"
"231051","107-UY","2019/11/04 19:59:20","新北市新店區中央路216-1號","121.529846666667","24.973175","6500600","新店區"
"231049","108-UY","2019/11/04 19:59:16","新北市新店區民族路11號","121.541503333333","24.9787816666667","6500600","新店區"
"231065","110-UY","2019/11/04 19:59:27","新北市新店區安祥路106巷10號","121.478768333333","24.9626033333333","6500600","新店區"
"231068","187-VK","2019/11/04 19:59:25","新北市新店區安康路一段266巷4號","121.520048333333","24.9645216666667","6500600","新店區"
"231062","256-BX","2019/11/04 19:59:27","新北市新店區華潭街14號","121.529608333333","24.952285","6500600","新店區"
"231054","260-TV","2019/11/04 19:59:22","新北市新店區光明街204號","121.539826666667","24.9625716666667","6500600","新店區"
"231064","278-BY","2019/11/04 19:59:20","新北市新店區安和路二段1號","121.517726666667","24.9670333333333","6500600","新店區"
"231050","AAD-862","2019/11/04 19:59:21","新北市新店區北宜路二段268號","121.560755","24.9542516666667","6500600","新店區"
"231045","355-BY","2019/11/04 19:59:16","新北市新店區北宜路二段228號","121.559821666667","24.9544516666667","6500600","新店區"
"231056","4715-K9","2019/11/04 19:59:11","新北市新店區明德路26巷2號","121.542206666667","24.9777333333333","6500600","新店區"
"231067","4772-VM","2019/11/04 19:59:15","新北市新店區精忠路10-1號","121.532525","24.9590983333333","6500600","新店區"
"231052","513-UM","2019/11/04 19:59:22","新北市新店區新烏路三段寶島巷2弄3號","121.552006666667","24.898625","6500600","新店區"
"231063","616-UM","2019/11/04 19:59:22","新北市新店區車子路11號","121.503003333333","24.9517966666667","6500600","新店區"
"231040","617-UM","2019/11/04 19:59:32","新北市新店區中正路75巷71號","121.543135","24.9688933333333","6500600","新店區"
"231041","618-UM","2019/11/04 19:59:22","新北市新店區中央路218號","121.529813333333","24.97312","6500600","新店區"
"231047","KED-0819","2019/11/04 19:59:28","新北市新店區寶宏路38號","121.549513333333","24.975575","6500600","新店區"
"231057","720-UM","2019/11/04 19:59:19","新北市新店區花園二路一段11號","121.555473333333","24.932495","6500600","新店區"
"231059","897-TW","2019/11/04 19:59:26","新北市新店區安和路一段15號","121.516821666667","24.9642366666667","6500600","新店區"
"231043","899-TW","2019/11/04 19:59:19","新北市新店區中正路263-4號","121.538316666667","24.97382","6500600","新店區"
"241011","013-R5","2019/11/04 19:59:17","新北市三重區三和路二段165號","121.497928333333","25.0695566666667","6500200","三重區"
"241028","022-UY","2019/11/04 19:59:21","新北市三重區中正南路47號","121.493973333333","25.0595933333333","6500200","三重區"
"241008","059-VK","2019/11/04 19:59:24","新北市三重區永福街181號","121.47902","25.0749883333333","6500200","三重區"
"241023","060-VK","2019/11/04 19:59:28","新北市三重區頂崁街172號","121.47762","25.0659283333333","6500200","三重區"
"241031","061-VK","2019/11/04 19:59:24","新北市三重區重新路四段144巷24號","121.487126666667","25.0552616666667","6500200","三重區"
"241015","062-VK","2019/11/04 19:59:16","新北市三重區三和路二段14-2號","121.500793333333","25.067195","6500200","三重區"
"241017","063-VK","2019/11/04 19:59:16","新北市三重區自強路一段306號","121.491326666667","25.0684116666667","6500200","三重區"
"241024","065-VK","2019/11/04 19:59:17","新北市三重區大勇街51號","121.481338333333","25.07171","6500200","三重區"
"241007","066-VK","2019/11/04 19:59:30","新北市三重區溪尾街96-1號","121.489435","25.0784433333333","6500200","三重區"
"241003","091-VK","2019/11/04 19:59:28","新北市三重區五華街130號","121.491578333333","25.0834983333333","6500200","三重區"
"241006","262-UM","2019/11/04 19:59:15","新北市三重區力行路二段41號","121.482086666667","25.0738733333333","6500200","三重區"
"241016","266-UM","2019/11/04 19:59:25","新北市三重區正義北路36巷17號","121.496715","25.0633633333333","6500200","三重區"
"241009","267-UM","2019/11/04 19:59:25","新北市三重區三和路四段390巷54號","121.479955","25.0784766666667","6500200","三重區"
"241032","269-UM","2019/11/04 19:59:10","新北市三重區朝陽街26巷1弄7號","121.48313","25.05671","6500200","三重區"
"241013","270-UM","2019/11/04 19:59:16","新北市三重區三和路三段125巷28號","121.493631666667","25.073645","6500200","三重區"
"241025","271-UM","2019/11/04 19:59:17","新北市三重區頂崁街210巷16號","121.476525","25.0677316666667","6500200","三重區"
"241035","KEA-2210","2019/11/04 19:59:23","新北市三重區大榮街13號","121.498276666667","25.06307","6500200","三重區"
"241030","KED-0822","2019/11/04 19:59:25","新北市三重區成功路173號","121.485988333333","25.0526283333333","6500200","三重區"
"241018","462-BY","2019/11/04 19:59:25","新北市三重區正義北路242號","121.49586","25.0681316666667","6500200","三重區"
"241004","475-VK","2019/11/04 19:59:28","新北市三重區仁愛街425巷91-1號","121.492275","25.0826833333333","6500200","三重區"
"241020","478-VK","2019/11/04 19:59:13","新北市三重區忠孝路一段101號","121.489525","25.0721383333333","6500200","三重區"
"241026","480-VK","2019/11/04 19:59:27","新北市三重區福德南路20號","121.502836666667","25.0632233333333","6500200","三重區"
"241001","547-UM","2019/11/04 19:59:14","新北市三重區福隆路7號","121.48952","25.07712","6500200","三重區"
"241019","KEA-2593","2019/11/04 19:59:32","新北市三重區自強路二段47巷51號","121.490725","25.0701283333333","6500200","三重區"
"241005","AAD-863","2019/11/04 19:59:23","新北市三重區碧華街245號","121.489235","25.083005","6500200","三重區"
"241012","743-BX","2019/11/04 19:59:14","新北市三重區仁厚街19號","121.49948","25.07616","6500200","三重區"
"241029","942-UM","2019/11/04 19:59:20","新北市三重區重安街8號","121.490188333333","25.0582466666667","6500200","三重區"
"241033","AAC-255","2019/11/04 19:59:23","新北市三重區中興北街87號","121.469511666667","25.0480083333333","6500200","三重區"
"235066","003-UY","2019/11/04 19:59:16","新北市中和區光華街6號","121.504143333333","25.004365","6500300","中和區"
"235039","097-UM","2019/11/04 19:59:11","新北市中和區景平路278巷16弄24號","121.514416666667","24.9937783333333","6500300","中和區"
"235065","098-UM","2019/11/04 19:59:16","新北市中和區永和路90巷2弄12號","121.49772","25.0055366666667","6500300","中和區"
"235040","150-BY","2019/11/04 19:59:22","新北市中和區安平路30號","121.509561666667","24.9947883333333","6500300","中和區"
"235058","151-BY","2019/11/04 19:59:21","新北市中和區員山路108號","121.481076666667","24.995585","6500300","中和區"
"235055","183-VK","2019/11/04 19:59:16","新北市中和區中山路三段206號","121.471598333333","25.0064783333333","6500300","中和區"
"235044","293-VK","2019/11/04 19:59:29","新北市中和區南山路277號","121.504053333333","24.9923266666667","6500300","中和區"
"247016","KEA-2869","2019/11/04 19:59:10","新北市蘆洲區中正路96號","121.470035","25.0839983333333","6501400","蘆洲區"
"235050","4979-A6","2019/11/04 19:59:17","新北市中和區景平路241巷64弄14號","121.507458333333","24.9924333333333","6500300","中和區"
"235070","558-UM","2019/11/04 19:59:20","新北市中和區板南路399巷10號","121.49304","24.998205","6500300","中和區"
"235046","733-UM","2019/11/04 19:59:30","新北市中和區忠孝街31巷56號","121.509651666667","24.9855916666667","6500300","中和區"
"235052","805-TS","2019/11/04 19:59:16","新北市中和區華新街30巷3號","121.50732","24.98437","6500300","中和區"
"235051","157-BY","2019/11/04 19:59:17","新北市中和區復興路301巷16號","121.501491666667","24.98953","6500300","中和區"
"235037","AAC-213","2019/11/04 19:59:27","新北市中和區自立路141巷20號","121.523206666667","24.993595","6500300","中和區"
"235059","AAC-215","2019/11/04 19:59:15","新北市中和區圓通路335巷2弄1號","121.491985","24.9904133333333","6500300","中和區"
"220035","015-TV","2019/11/04 19:59:26","新北市板橋區金華街95號","121.458446666667","25.0207883333333","6500100","板橋區"
"220065","072-UY","2019/11/04 19:59:23","新北市板橋區海山路45號","121.466848333333","25.00995","6500100","板橋區"
"220086","073-UY","2019/11/04 19:59:15","新北市板橋區中正路125號","121.456565","25.01523","6500100","板橋區"
"220106","075-UY","2019/11/04 19:59:27","新北市板橋區懷德街66巷24號","121.47683","25.0319183333333","6500100","板橋區"
"220069","AAD-861","2019/11/04 19:59:26","新北市板橋區貴興路54號","121.456926666667","25.0030833333333","6500100","板橋區"
"220098","120-SR","2019/11/04 19:59:20","新北市板橋區四維路269巷86號","121.459863333333","25.0267266666667","6500100","板橋區"
"247020","546-UM","2019/11/04 19:59:29","新北市蘆洲區民義街53號","121.472863333333","25.08978","6501400","蘆洲區"
"247004","341-TH","2019/11/04 19:59:19","新北市蘆洲區永康街39號","121.457303333333","25.0852266666667","6501400","蘆洲區"
"247006","337-TH","2019/11/04 19:59:29","新北市蘆洲區九芎街103號","121.465891666667","25.07963","6501400","蘆洲區"
"247024","057-VK","2019/11/04 19:59:13","新北市蘆洲區光復路59號","121.463641666667","25.0850966666667","6501400","蘆洲區"
"247014","056-VK","2019/11/04 19:59:17","新北市蘆洲區中山二路100號","121.472573333333","25.0819366666667","6501400","蘆洲區"
"247018","053-VK","2019/11/04 19:59:19","新北市蘆洲區民族路290巷13號","121.47846","25.0900533333333","6501400","蘆洲區"
"247022","007-UY","2019/11/04 19:59:13","新北市蘆洲區中正路176號","121.467308333333","25.0878033333333","6501400","蘆洲區"
"247008","002-UY","2019/11/04 19:59:20","新北市蘆洲區信義路107號","121.47819","25.080155","6501400","蘆洲區"
"247002","001-UY","2019/11/04 19:59:16","新北市蘆洲區長安街274巷1號","121.457698333333","25.087055","6501400","蘆洲區"
"226004","312-R5","2019/11/04 19:59:06","新北市平溪區靜安路三段276號","121.776453333333","25.040505","6502400","平溪區"
"235049","251-BX","2019/11/04 19:59:19","新北市中和區景新街283號","121.509556666667","24.9934133333333","6500300","中和區"
"228003","097-TW","2019/11/04 19:59:20","新北市貢寮區仁理村仁和路240號","121.924016666667","25.0538766666667","6502600","貢寮區"
"227001","642-TC","2019/11/04 19:59:12","新北市雙溪區新基里新基南街25號","121.866236666667","25.03817","6502500","雙溪區"
"227002","400-TW","2019/11/04 19:59:12","新北市雙溪區雙溪里長安街16號","121.865075","25.034595","6502500","雙溪區"
"222001","KEA-2212","2019/11/04 19:59:20","新北市深坑區北深路三段157號","121.602051666667","25.0032616666667","6501800","深坑區"
"208002","KEA-2872","2019/11/04 19:59:22","新北市金山區中正路134-3號","121.632573333333","25.22015","6502700","金山區"
"208003","665-BX","2019/11/04 19:59:27","新北市金山區永興里濆水路1-1號","121.63014","25.2643916666667","6502700","金山區"
"251009","008-UM","2019/11/04 19:59:23","新北市淡水區英專路21巷16號","121.444808333333","25.169805","6501000","淡水區"
"251004","009-UM","2019/11/04 19:59:16","新北市淡水區民權路177巷11號","121.460755","25.13525","6501000","淡水區"
"251005","010-UM","2019/11/04 19:59:07","新北市淡水區學府路136巷20號","121.451236666667","25.1727383333333","6501000","淡水區"
"251002","012-UM","2019/11/04 19:59:33","新北市淡水區新市一路一段6號","121.429008333333","25.1873433333333","6501000","淡水區"
"251015","KEA-2871","2019/11/04 19:59:30","新北市淡水區大埤頭1-3號","121.492416666667","25.1951966666667","6501000","淡水區"
"251016","180-VK","2019/11/04 19:55:54","新北市淡水區淡金路三段446號","121.450726666667","25.2143433333333","6501000","淡水區"
"251008","181-VK","2019/11/04 19:59:30","新北市淡水區淡海路63巷2號","121.422836666667","25.1808683333333","6501000","淡水區"
"251013","182-VK","2019/11/04 19:59:17","新北市淡水區下圭柔山63-7號","121.451868333333","25.206155","6501000","淡水區"
"251012","441-VK","2019/11/04 19:59:15","新北市淡水區下圭柔山93號","121.435993333333","25.2089566666667","6501000","淡水區"
"251001","559-UM","2019/11/04 19:59:18","新北市淡水區淡金路一段166-6號","121.453816666667","25.180055","6501000","淡水區"
"251006","561-UM","2019/11/04 19:59:24","新北市淡水區水碓街55號","121.44424","25.1774083333333","6501000","淡水區"
"251014","577-R6","2019/11/04 19:59:23","新北市淡水區石頭厝2-1號","121.458101666667","25.2356966666667","6501000","淡水區"
"251011","650-BX","2019/11/04 19:59:21","新北市淡水區淡金路一段571號","121.45307","25.1807433333333","6501000","淡水區"
"251003","673-BX","2019/11/04 19:59:20","新北市淡水區中山北路三段165-1號","121.445241666667","25.196755","6501000","淡水區"
"207003","681-TV","2019/11/04 19:59:28","新北市萬里區大鵬里萬里加投68號","121.642213333333","25.214535","6502800","萬里區"
"207004","291-VK","2019/11/04 19:59:19","新北市萬里區北基里忠一街1號","121.686373333333","25.176245","6502800","萬里區"
"252002","178-VK","2019/11/04 19:59:28","新北市三芝區忠孝街116-3號","121.505486666667","25.2574566666667","6502100","三芝區"
"208001","170-UY","2019/11/04 19:59:28","新北市金山區南勢湖39號","121.61186","25.21781","6502700","金山區"
"237004","KEA-2597","2019/11/04 19:59:21","新北市三峽區添福6號","121.372031666667","24.9058283333333","6500900","三峽區"
"237007","153-BY","2019/11/04 19:59:28","新北市三峽區麻園46號","121.363753333333","24.921295","6500900","三峽區"
"237009","210-TH","2019/11/04 19:59:18","新北市三峽區民族街78巷1號","121.369061666667","24.9298733333333","6500900","三峽區"
"237013","252-BX","2019/11/04 19:59:20","新北市三峽區介壽路二段155號","121.393628333333","24.9358383333333","6500900","三峽區"
"237012","275-BY","2019/11/04 19:59:28","新北市三峽區中華路66號","121.37166","24.9297033333333","6500900","三峽區"
"237008","302-VK","2019/11/04 19:59:32","新北市三峽區中正路一段174巷9號","121.371888333333","24.9288833333333","6500900","三峽區"
"237014","433-BY","2019/11/04 19:59:13","新北市三峽區添福9-40號","121.371968333333","24.9067316666667","6500900","三峽區"
"237006","5529-G3","2019/11/04 19:59:23","新北市三峽區中正路二段156號","121.366108333333","24.9159066666667","6500900","三峽區"
"237015","649-BX","2019/11/04 19:59:22","新北市三峽區介壽路三段9號","121.395596666667","24.9362933333333","6500900","三峽區"
"237005","AKY-6261","2019/11/04 19:59:12","新北市三峽區民生街1巷3號","121.38304","24.9328316666667","6500900","三峽區"
"236042","KED-0685","2019/11/04 19:59:23","新北市土城區學府路一段98巷16號","121.455846666667","24.98856","6501300","土城區"
"236078","166-UM","2019/11/04 19:59:17","新北市土城區三民路23巷8弄2號","121.41982","24.963365","6501300","土城區"
"236030","253-BX","2019/11/04 19:59:16","新北市土城區中央路一段250巷2號","121.444248333333","24.9847483333333","6501300","土城區"
"236026","269-VK","2019/11/04 19:59:26","新北市土城區中央路二段89號","121.442288333333","24.978155","6501300","土城區"
"236014","270-VK","2019/11/04 19:59:22","新北市土城區廣福街123號","121.45629","24.9928283333333","6501300","土城區"
"236039","271-VK","2019/11/04 19:59:21","新北市土城區國際路139巷24號","121.468461666667","24.97694","6501300","土城區"
"236069","KEA-2877","2019/11/04 19:59:17","新北市土城區忠義路75號","121.442518333333","24.9655916666667","6501300","土城區"
"252001","KED-0821","2019/11/04 19:59:19","新北市三芝區公正街66號","121.499803333333","25.2574866666667","6502100","三芝區"
"236020","401-BY","2019/11/04 19:59:19","新北市土城區延吉街64號","121.471378333333","24.986735","6501300","土城區"
"236059","912-UM","2019/11/04 19:59:32","新北市土城區中央路一段306號","121.443266666667","24.9818016666667","6501300","土城區"
"236048","913-UM","2019/11/04 19:59:17","新北市土城區金城路三段180號","121.467918333333","24.9877416666667","6501300","土城區"
"236063","915-UM","2019/11/04 19:59:25","新北市土城區延和路112號","121.467275","24.989945","6501300","土城區"
"236055","AAC-216","2019/11/04 19:59:24","新北市土城區學府路一段39號","121.457776666667","24.9884283333333","6501300","土城區"
"242060","986-R7","2019/11/04 19:59:23","新北市新莊區瓊林路90號","121.444551666667","25.0279516666667","6500500","新莊區"
"242004","751-BX","2019/11/04 19:59:19","新北市新莊區化成路314巷9號","121.466321666667","25.04832","6500500","新莊區"
"242027","705-TV","2019/11/04 19:59:17","新北市新莊區立信三街35巷2號","121.443153333333","25.0509933333333","6500500","新莊區"
"242029","615-BX","2019/11/04 19:59:27","新北市新莊區中平路375號","121.444631666667","25.0523333333333","6500500","新莊區"
"242025","613-BX","2019/11/04 19:59:26","新北市新莊區五工二路86巷12-1號","121.46003","25.0667783333333","6500500","新莊區"
"242058","612-BX","2019/11/04 19:59:29","新北市新莊區八德街97號","121.42429","25.0213583333333","6500500","新莊區"
"242048","566-BX","2019/11/04 19:59:16","新北市新莊區民安路209號","121.426378333333","25.0223533333333","6500500","新莊區"
"242053","442-UM","2019/11/04 19:59:27","新北市新莊區西盛街418號","121.427215","25.0121966666667","6500500","新莊區"
"242002","441-UM","2019/11/04 19:59:16","新北市新莊區新泰路80號","121.448985","25.035075","6500500","新莊區"
"242007","440-UM","2019/11/04 19:59:25","新北市新莊區思源路539號","121.459738333333","25.0570883333333","6500500","新莊區"
"242013","413-TV","2019/11/04 19:59:17","新北市新莊區中誠街53巷38號","121.451308333333","25.0469933333333","6500500","新莊區"
"242023","353-BY","2019/11/04 19:59:21","新北市新莊區化成路370號","121.465873333333","25.0497066666667","6500500","新莊區"
"242015","132-UY","2019/11/04 19:59:31","新北市新莊區復興路一段47巷11號","121.446758333333","25.0426383333333","6500500","新莊區"
"242039","135-UY","2019/11/04 19:59:28","新北市新莊區民安路287-3號","121.428821666667","25.0229833333333","6500500","新莊區"
"242056","172-VK","2019/11/04 19:59:20","新北市新莊區中正路347巷15號","121.447335","25.0343783333333","6500500","新莊區"
"242017","173-VK","2019/11/04 19:59:27","新北市新莊區中安街1號","121.452836666667","25.0452433333333","6500500","新莊區"
"242031","175-VK","2019/11/04 19:59:13","新北市新莊區公園一路38號","121.443335","25.0354583333333","6500500","新莊區"
"242021","KED-0687","2019/11/04 19:59:30","新北市新莊區建中街16巷29號","121.448905","25.0386316666667","6500500","新莊區"
"242019","346-TH","2019/11/04 19:59:27","新北市新莊區民生街15巷9號","121.455258333333","25.042595","6500500","新莊區"
"242050","347-TH","2019/11/04 19:59:13","新北市新莊區西盛街180號","121.428151666667","25.0187616666667","6500500","新莊區"
"242036","348-TH","2019/11/04 19:59:18","新北市新莊區建安街27號","121.429008333333","25.0260116666667","6500500","新莊區"
"242034","350-TH","2019/11/04 19:59:25","新北市新莊區中正路318巷27號","121.446278333333","25.0364416666667","6500500","新莊區"
"239006","891-R6","2019/11/04 19:59:30","新北市鶯歌區文化路54號","121.356466666667","24.95475","6500800","鶯歌區"
"239001","417-VK","2019/11/04 19:59:11","新北市鶯歌區鶯桃路39-2號","121.342553333333","24.9509516666667","6500800","鶯歌區"
"239002","359-BY","2019/11/04 19:59:19","新北市鶯歌區大湖路70號","121.34263","24.9625366666667","6500800","鶯歌區"
"221008","489-VK","2019/11/04 19:59:22","新北市汐止區康寧街143號","121.621428333333","25.06682","6501100","汐止區"
"221015","131-UY","2019/11/04 19:59:22","新北市汐止區橋東街19號","121.666525","25.075625","6501100","汐止區"
"221010","269-BY","2019/11/04 19:59:24","新北市汐止區汐萬路一段420號","121.64993","25.0779216666667","6501100","汐止區"
"221012","278-VK","2019/11/04 19:59:19","新北市汐止區大同路三段579號","121.682721666667","25.0733983333333","6501100","汐止區"
"221023","279-VK","2019/11/04 19:59:14","新北市汐止區民族六街5巷1號","121.629853333333","25.0698283333333","6501100","汐止區"
"221027","281-BY","2019/11/04 19:59:18","新北市汐止區中正路87號","121.661256666667","25.0694683333333","6501100","汐止區"
"221029","298-VK","2019/11/04 19:59:13","新北市汐止區樟樹一路137巷24號","121.641063333333","25.0660066666667","6501100","汐止區"
"221021","299-VK","2019/11/04 19:59:20","新北市汐止區水源路一段166-1號","121.655331666667","25.062025","6501100","汐止區"
"221031","353-TW","2019/11/04 19:59:22","新北市汐止區福德一路176巷7弄14號","121.634748333333","25.066415","6501100","汐止區"
"221035","622-UM","2019/11/04 19:59:27","新北市汐止區汐萬路一段160號","121.652645","25.0714983333333","6501100","汐止區"
"221025","623-UM","2019/11/04 19:59:26","新北市汐止區秀峰路109巷26弄7號","121.661261666667","25.0635033333333","6501100","汐止區"
"221038","646-BX","2019/11/04 19:59:24","新北市汐止區忠孝東路486號","121.666221666667","25.0740016666667","6501100","汐止區"
"221033","647-BX","2019/11/04 19:59:24","新北市汐止區東勢街190巷5號","121.633876666667","25.0415766666667","6501100","汐止區"
"220079","145-BY","2019/11/04 19:59:18","新北市板橋區民權路202巷9弄76號","121.459228333333","25.0161716666667","6500100","板橋區"
"233001","KEA-2870","2019/11/04 19:59:28","新北市烏來區啦卡路70-1號","121.565365","24.8559066666667","6502900","烏來區"
"220080","200-UY","2019/11/04 19:59:14","新北市板橋區大觀路二段163巷23號","121.446653333333","25.0000683333333","6500100","板橋區"
"220082","610-BX","2019/11/04 19:59:16","新北市板橋區存德街3號","121.429908333333","24.9919333333333","6500100","板橋區"
"224002","257-TC","2019/11/04 19:59:28","新北市瑞芳區員山子路員山巷49-1號","121.816621666667","25.103885","6501200","瑞芳區"
"220056","276-BY","2019/11/04 19:59:29","新北市板橋區四川路二段88號","121.452006666667","24.9946233333333","6500100","板橋區"
"220072","277-BY","2019/11/04 19:59:24","新北市板橋區金門街109巷35號","121.434156666667","24.9912566666667","6500100","板橋區"
"220101","280-UM","2019/11/04 19:59:21","新北市板橋區莒光路171巷1弄18-4號","121.474483333333","25.0246483333333","6500100","板橋區"
"220094","283-UM","2019/11/04 19:59:17","新北市板橋區文化路一段160號","121.46555","25.0191866666667","6500100","板橋區"
"220071","283-VK","2019/11/04 19:59:22","新北市板橋區和平路174巷1弄8號","121.464416666667","24.9952416666667","6500100","板橋區"
"220053","285-VK","2019/11/04 19:59:18","新北市板橋區懷仁街55號","121.476956666667","25.0189183333333","6500100","板橋區"
"220083","286-VK","2019/11/04 19:59:11","新北市板橋區僑中二街10巷8號","121.446698333333","25.0110016666667","6500100","板橋區"
"220081","287-VK","2019/11/04 19:59:27","新北市板橋區大觀路一段28巷73號","121.449696666667","25.0111233333333","6500100","板橋區"
"220090","288-VK","2019/11/04 19:59:19","新北市板橋區新海路72巷5弄17號","121.461736666667","25.0226966666667","6500100","板橋區"
"220061","293-UM","2019/11/04 19:59:26","新北市板橋區中山路一段156號","121.465183333333","25.0117366666667","6500100","板橋區"
"220084","296-UM","2019/11/04 19:59:32","新北市板橋區溪崑二街112巷22號","121.425918333333","24.9890966666667","6500100","板橋區"
"220075","303-R5","2019/11/04 19:59:19","新北市板橋區金華街10巷50號","121.457033333333","25.020095","6500100","板橋區"
"220062","305-R5","2019/11/04 19:59:23","新北市板橋區光復街99號","121.483895","25.0189616666667","6500100","板橋區"
"220092","307-R5","2019/11/04 19:59:26","新北市板橋區民權路174號","121.459555","25.0132666666667","6500100","板橋區"
"220089","487-VK","2019/11/04 19:59:26","新北市板橋區四維路325號","121.46276","25.0291983333333","6500100","板橋區"
"242011","280-VK","2019/11/04 19:59:28","新北市新莊區中港路531巷35號","121.449985","25.05145","6500500","新莊區"
"220088","491-VK","2019/11/04 19:59:17","新北市板橋區懷德街127巷23弄7號","121.479286666667","25.031785","6500100","板橋區"
"220103","561-BX","2019/11/04 19:59:20","新北市板橋區漢生西路71號","121.462996666667","25.0186133333333","6500100","板橋區"
"220063","609-BX","2019/11/04 19:59:27","新北市板橋區中山路二段84-4號","121.474853333333","25.0161983333333","6500100","板橋區"
"220091","637-BX","2019/11/04 19:59:28","新北市板橋區文聖街89巷19號","121.47818","25.0303566666667","6500100","板橋區"
"220077","687-BX","2019/11/04 19:59:27","新北市板橋區僑中一街136號","121.445426666667","25.01186","6500100","板橋區"
"220093","689-BX","2019/11/04 19:59:27","新北市板橋區長江路二段181號","121.466633333333","25.0320266666667","6500100","板橋區"
"220054","741-BX","2019/11/04 19:59:24","新北市板橋區忠孝路忠義巷15弄106號","121.465356666667","25.0059933333333","6500100","板橋區"
"220102","KEA-2699","2019/11/04 19:59:14","新北市板橋區莒光路16巷7號","121.469616666667","25.0242916666667","6500100","板橋區"
"220055","827-TW","2019/11/04 19:59:30","新北市板橋區國慶路149巷37弄15號","121.460195","24.9979166666667","6500100","板橋區"
"220068","830-TW","2019/11/04 19:59:09","新北市板橋區中山路二段448號","121.484246666667","25.0217133333333","6500100","板橋區"
"220067","831-TW","2019/11/04 19:59:28","新北市板橋區中山路一段184-1號","121.469038333333","25.0126983333333","6500100","板橋區"
"220074","895-R6","2019/11/04 19:59:19","新北市板橋區民權路71號","121.461441666667","25.011615","6500100","板橋區"
"220073","985-R7","2019/11/04 19:59:19","新北市板橋區大仁街105號","121.452745","25.0157766666667","6500100","板橋區"
"220097","AAC-210","2019/11/04 19:59:28","新北市板橋區光正街57號","121.461696666667","25.0177983333333","6500100","板橋區"
"220064","AAC-253","2019/11/04 19:59:28","新北市板橋區長安街331巷57號","121.473106666667","25.0132033333333","6500100","板橋區"
"235068","KEA-2873","2019/11/04 19:59:26","新北市中和區福美路301巷39號","121.497853333333","25.0034766666667","6500300","中和區"
