"lineid","car","time","location","longitude","latitude","cityid","cityname"
"234081","298-R6","2019/11/04 20:43:25","新北市永和區永貞路80號","121.520206666667","25.0050633333333","6500400","永和區"
"234042","862-TW","2019/11/04 20:43:23","新北市永和區永利路156號","121.522646666667","25.00277","6500400","永和區"
"249001","173-UM","2019/11/04 20:43:19","新北市八里區中山路三段227號","121.381953333333","25.140385","6502300","八里區"
"249004","303-UY","2019/11/04 20:43:27","新北市八里區中山路一段217巷60號","121.411638333333","25.1575766666667","6502300","八里區"
"234074","AAC-211","2019/11/04 20:43:19","新北市永和區環河東路一段122號","121.520586666667","25.0154483333333","6500400","永和區"
"222003","436-BY","2019/11/04 20:43:27","新北市深坑區阿柔洋40號","121.61025","24.9985066666667","6501800","深坑區"
"222002","659-BX","2019/11/04 20:43:21","新北市深坑區北深路三段272號","121.598198333333","25.0047916666667","6501800","深坑區"
"231042","001-UM","2019/11/04 20:43:21","新北市新店區寶高路120巷1號","121.554585","24.9760533333333","6500600","新店區"
"231061","002-UM","2019/11/04 20:43:20","新北市新店區新和街52號","121.519653333333","24.9852933333333","6500600","新店區"
"231058","0293-UT","2019/11/04 20:43:29","新北市新店區平等街1號","121.537125","24.9743383333333","6500600","新店區"
"231044","046-UY","2019/11/04 20:43:21","新北市新店區建國路291巷1號","121.536975","24.9855766666667","6500600","新店區"
"231060","106-UY","2019/11/04 20:43:22","新北市新店區安康路三段628號","121.478946666667","24.94603","6500600","新店區"
"231051","107-UY","2019/11/04 20:43:21","新北市新店區中央八街94號","121.526626666667","24.977515","6500600","新店區"
"231049","108-UY","2019/11/04 20:43:16","新北市新店區永業路81巷3弄34號","121.53091","24.950135","6500600","新店區"
"231065","110-UY","2019/11/04 20:43:27","新北市新店區安祥路104巷11弄2號","121.48128","24.9635966666667","6500600","新店區"
"231068","187-VK","2019/11/04 20:43:25","新北市新店區寶元路一段87巷1號","121.543006666667","24.9853866666667","6500600","新店區"
"231062","256-BX","2019/11/04 20:43:27","新北市新店區安康路三段352號","121.486305","24.9518133333333","6500600","新店區"
"231054","260-TV","2019/11/04 20:43:22","新北市新店區北新路一段88巷1號","121.541726666667","24.967845","6500600","新店區"
"231064","278-BY","2019/11/04 20:43:20","新北市新店區安和路二段232-1號","121.516671666667","24.9770266666667","6500600","新店區"
"231050","AAD-862","2019/11/04 20:43:21","新北市新店區中正路247巷4弄1號","121.538825","24.9729683333333","6500600","新店區"
"231045","355-BY","2019/11/04 20:43:16","新北市新店區長春路24號","121.549916666667","24.957485","6500600","新店區"
"231056","4715-K9","2019/11/04 20:43:11","新北市新店區溪園路401號","121.523838333333","24.9780916666667","6500600","新店區"
"231067","4772-VM","2019/11/04 20:43:15","新北市新店區安華路28-1號","121.5196","24.960695","6500600","新店區"
"231052","513-UM","2019/11/04 20:43:22","新北市新店區新烏路二段300號","121.54864","24.913","6500600","新店區"
"231063","616-UM","2019/11/04 20:43:22","新北市新店區如意街1巷2號","121.49573","24.9494683333333","6500600","新店區"
"231040","617-UM","2019/11/04 20:43:12","新北市新店區中正路272號","121.53895","24.9736366666667","6500600","新店區"
"231041","618-UM","2019/11/04 20:43:22","新北市新店區中正路695巷6-1號","121.533851666667","24.9908233333333","6500600","新店區"
"231047","KED-0819","2019/11/04 20:43:28","新北市新店區寶元路一段109號","121.54588","24.9830716666667","6500600","新店區"
"231057","720-UM","2019/11/04 20:43:23","新北市新店區花園一路二段30號","121.55274","24.93251","6500600","新店區"
"231059","897-TW","2019/11/04 20:43:27","新北市新店區安豐路56-3號","121.49968","24.9546716666667","6500600","新店區"
"231043","899-TW","2019/11/04 20:43:19","新北市新店區博愛街13巷24號","121.540286666667","24.97406","6500600","新店區"
"231066","AKT-0513","2019/11/04 20:43:31","新北市新店區安興路81號","121.515393333333","24.9754433333333","6500600","新店區"
"241011","013-R5","2019/11/04 20:43:17","新北市三重區河邊北街140號","121.503291666667","25.0720533333333","6500200","三重區"
"241028","022-UY","2019/11/04 20:43:21","新北市三重區中正南路50號","121.493995","25.0599716666667","6500200","三重區"
"241008","059-VK","2019/11/04 20:43:24","新北市三重區下竹圍街42-1號","121.480985","25.07487","6500200","三重區"
"241023","060-VK","2019/11/04 20:43:28","新北市三重區忠孝路三段75巷5號","121.480386666667","25.0659966666667","6500200","三重區"
"241031","061-VK","2019/11/04 20:43:23","新北市三重區重陽路一段43巷30號","121.488193333333","25.0585833333333","6500200","三重區"
"241015","062-VK","2019/11/04 20:43:23","新北市三重區文化北路149-1號","121.497565","25.069495","6500200","三重區"
"241017","063-VK","2019/11/04 20:43:16","新北市三重區民生街58號","121.491445","25.0667083333333","6500200","三重區"
"241024","065-VK","2019/11/04 20:43:17","新北市三重區自由街17巷1號","121.479975","25.0666733333333","6500200","三重區"
"241007","066-VK","2019/11/04 20:43:30","新北市三重區慈愛街10號","121.484536666667","25.0784066666667","6500200","三重區"
"241002","090-VK","2019/11/04 20:43:14","新北市三重區仁義街151號","121.497275","25.0810533333333","6500200","三重區"
"241003","091-VK","2019/11/04 20:43:28","新北市三重區集賢路87-1號","121.493625","25.0868016666667","6500200","三重區"
"241006","262-UM","2019/11/04 20:43:15","新北市三重區車路頭街139巷14號","121.484285","25.0762516666667","6500200","三重區"
"241016","266-UM","2019/11/04 20:42:45","新北市三重區正義北路208號","121.496081666667","25.067465","6500200","三重區"
"241009","267-UM","2019/11/04 20:43:25","新北市三重區碧華街57號","121.484776666667","25.0813883333333","6500200","三重區"
"241032","269-UM","2019/11/04 20:43:30","新北市三重區重陽路一段120巷48號","121.48505","25.0601583333333","6500200","三重區"
"241013","270-UM","2019/11/04 20:43:16","新北市三重區自強路四段1號","121.488368333333","25.07604","6500200","三重區"
"241025","271-UM","2019/11/04 20:43:17","新北市三重區忠孝路三段99巷11號","121.479948333333","25.0646133333333","6500200","三重區"
"241035","KEA-2210","2019/11/04 20:43:23","新北市三重區三和路三段41號","121.4955","25.07125","6500200","三重區"
"241030","KED-0822","2019/11/04 20:43:14","新北市三重區成功路73巷11號","121.48948","25.0519216666667","6500200","三重區"
"241018","462-BY","2019/11/04 20:43:25","新北市三重區龍門路1號","121.494618333333","25.0708866666667","6500200","三重區"
"241004","475-VK","2019/11/04 20:43:28","新北市三重區仁愛街416號","121.490665","25.0813166666667","6500200","三重區"
"241020","478-VK","2019/11/04 20:43:13","新北市三重區忠孝路一段101號","121.489448333333","25.0721683333333","6500200","三重區"
"241026","480-VK","2019/11/04 20:43:27","新北市三重區和平街1號","121.50011","25.0623216666667","6500200","三重區"
"241001","547-UM","2019/11/04 20:43:14","新北市三重區車路頭街109巷8號","121.48525","25.0743783333333","6500200","三重區"
"241019","KEA-2593","2019/11/04 20:43:32","新北市三重區重陽路四段124號","121.492431666667","25.0711166666667","6500200","三重區"
"241005","AAD-863","2019/11/04 20:43:23","新北市三重區五華街184號","121.48878","25.0864016666667","6500200","三重區"
"241012","743-BX","2019/11/04 20:43:14","新北市三重區龍濱路251號","121.501458333333","25.0727333333333","6500200","三重區"
"241022","KED-0820","2019/11/04 20:43:15","新北市三重區貴陽街20號","121.484155","25.0620183333333","6500200","三重區"
"241029","942-UM","2019/11/04 20:43:20","新北市三重區環河南路220-4號","121.493921666667","25.0528783333333","6500200","三重區"
"241033","AAC-255","2019/11/04 20:43:23","新北市三重區中興北街177號","121.469035","25.05602","6500200","三重區"
"235055","183-VK","2019/11/04 20:43:16","新北市五股區凌雲路三段24巷22號","121.433105","25.107695","6500300","中和區"
"247016","KEA-2869","2019/11/04 20:43:10","新北市蘆洲區中山一路312號","121.46923","25.077095","6501400","蘆洲區"
"247010","KED-0682","2019/11/04 20:43:16","新北市蘆洲區中山一路136號","121.476341666667","25.0816383333333","6501400","蘆洲區"
"235069","4980-A6","2019/11/04 20:43:19","新北市中和區員山路359巷1弄10號","121.480881666667","25.0015683333333","6500300","中和區"
"235037","AAC-213","2019/11/04 20:43:27","新北市林口區太平里180號","121.366436666667","25.1344716666667","6500300","中和區"
"247004","341-TH","2019/11/04 20:43:21","新北市蘆洲區長安街241號","121.459188333333","25.0831316666667","6501400","蘆洲區"
"247006","337-TH","2019/11/04 20:43:19","新北市蘆洲區和平路130號","121.467213333333","25.08043","6501400","蘆洲區"
"247024","057-VK","2019/11/04 20:43:13","新北市蘆洲區長樂路215號","121.461821666667","25.08916","6501400","蘆洲區"
"247014","056-VK","2019/11/04 20:43:17","新北市蘆洲區成功路76號","121.473093333333","25.081195","6501400","蘆洲區"
"247022","007-UY","2019/11/04 20:43:13","新北市蘆洲區三民路157-1號","121.470738333333","25.0866066666667","6501400","蘆洲區"
"247008","002-UY","2019/11/04 20:43:20","新北市蘆洲區重陽街2號","121.480466666667","25.0812083333333","6501400","蘆洲區"
"247002","001-UY","2019/11/04 20:43:31","新北市蘆洲區長榮路341號","121.459585","25.0874833333333","6501400","蘆洲區"
"222001","KEA-2212","2019/11/04 20:43:20","新北市深坑區北深路三段218號","121.601015","25.0039066666667","6501800","深坑區"
"251002","012-UM","2019/11/04 20:43:33","新北市淡水區中正路32號","121.443848333333","25.1692666666667","6501000","淡水區"
"251015","KEA-2871","2019/11/04 20:43:27","新北市淡水區淡金路三段446號","121.450835","25.2144183333333","6501000","淡水區"
"251016","180-VK","2019/11/04 20:43:13","新北市淡水區後洲子9-4號","121.447375","25.2243066666667","6501000","淡水區"
"251013","182-VK","2019/11/04 20:43:17","新北市淡水區下圭柔山27-2號","121.458713333333","25.20334","6501000","淡水區"
"251010","413-VK","2019/11/04 20:43:26","新北市淡水區沙崙路110巷5號","121.422983333333","25.1825933333333","6501000","淡水區"
"251012","441-VK","2019/11/04 20:43:15","新北市淡水區興仁路103巷31號","121.450285","25.21723","6501000","淡水區"
"251007","442-VK","2019/11/04 20:43:15","新北市淡水區學府路102巷121號","121.453566666667","25.1713383333333","6501000","淡水區"
"251001","559-UM","2019/11/04 20:43:25","新北市淡水區淡金路一段8號","121.460733333333","25.16917","6501000","淡水區"
"251006","561-UM","2019/11/04 20:43:24","新北市淡水區商工路143號","121.447325","25.188275","6501000","淡水區"
"251014","577-R6","2019/11/04 20:43:23","新北市淡水區公埔子32-8號","121.461635","25.2323933333333","6501000","淡水區"
"251003","673-BX","2019/11/04 20:43:20","新北市淡水區新民街152巷6弄22號","121.438771666667","25.1785783333333","6501000","淡水區"
"247012","KED-0683","2019/11/04 20:43:20","新北市蘆洲區中興街74號","121.482271666667","25.08811","6501400","蘆洲區"
"242042","AAC-296","2019/11/04 20:43:31","新北市新莊區天祥街19巷1-1號","121.417378333333","25.0277933333333","6500500","新莊區"
"242060","986-R7","2019/11/04 20:43:23","新北市新莊區新樹路258巷3號","121.432111666667","25.015565","6500500","新莊區"
"242004","751-BX","2019/11/04 20:43:18","新北市新莊區化成路371巷28弄1號","121.463455","25.057015","6500500","新莊區"
"242027","705-TV","2019/11/04 20:43:28","新北市新莊區思源路167號","121.459746666667","25.0449233333333","6500500","新莊區"
"242029","615-BX","2019/11/04 20:43:27","新北市新莊區中華路二段26-1號","121.453556666667","25.045145","6500500","新莊區"
"242025","613-BX","2019/11/04 20:43:26","新北市新莊區化成路579巷1號","121.464296666667","25.0660733333333","6500500","新莊區"
"242058","612-BX","2019/11/04 20:43:29","新北市新莊區民安路138號","121.424213333333","25.02542","6500500","新莊區"
"242048","566-BX","2019/11/04 20:43:16","新北市新莊區中正路857-4號","121.419043333333","25.027915","6500500","新莊區"
"242053","442-UM","2019/11/04 20:43:28","新北市新莊區民安西路229巷7弄19號","121.426461666667","25.014665","6500500","新莊區"
"242002","441-UM","2019/11/04 20:43:15","新北市新莊區中港路31號","121.455035","25.0375933333333","6500500","新莊區"
"242007","440-UM","2019/11/04 20:43:25","新北市新莊區思源路287巷1弄1號","121.459343333333","25.0482883333333","6500500","新莊區"
"242044","415-TV","2019/11/04 20:43:17","新北市新莊區中正路新生巷85弄1號","121.417076666667","25.0217816666667","6500500","新莊區"
"242013","413-TV","2019/11/04 20:43:17","新北市新莊區中和街216號","121.448066666667","25.0509433333333","6500500","新莊區"
"242023","353-BY","2019/11/04 20:43:21","新北市新莊區化成路416號","121.465965","25.05093","6500500","新莊區"
"242015","132-UY","2019/11/04 20:43:31","新北市新莊區復興路二段135號","121.45716","25.044495","6500500","新莊區"
"242039","135-UY","2019/11/04 20:43:28","新北市新莊區民安路457號","121.434575","25.0225433333333","6500500","新莊區"
"242056","172-VK","2019/11/04 20:43:20","新北市新莊區瓊泰路94巷43號","121.444375","25.0295316666667","6500500","新莊區"
"242017","173-VK","2019/11/04 20:43:27","新北市新莊區中港一街161號","121.447198333333","25.044975","6500500","新莊區"
"242031","175-VK","2019/11/04 20:43:13","新北市新莊區中正路508巷2號","121.436008333333","25.0331766666667","6500500","新莊區"
"242019","346-TH","2019/11/04 20:43:27","新北市新莊區新莊路257號","121.454343333333","25.034875","6500500","新莊區"
"242050","347-TH","2019/11/04 20:43:13","新北市新莊區民安西路168號","121.426051666667","25.0160533333333","6500500","新莊區"
"242036","348-TH","2019/11/04 20:43:18","新北市新莊區建安街10號","121.428625","25.0266116666667","6500500","新莊區"
"242009","349-TH","2019/11/04 20:43:23","新北市新莊區昌隆街67號","121.457068333333","25.0509616666667","6500500","新莊區"
"242034","350-TH","2019/11/04 20:43:25","新北市新莊區中正路437號","121.443436666667","25.0341266666667","6500500","新莊區"
"221008","489-VK","2019/11/04 20:43:22","新北市汐止區康寧街602號","121.635808333333","25.070535","6501100","汐止區"
"221036","130-UY","2019/11/04 20:43:21","新北市汐止區新昌路22號","121.66213","25.0677183333333","6501100","汐止區"
"221015","131-UY","2019/11/04 20:43:22","新北市汐止區建成路21號","121.664378333333","25.0726183333333","6501100","汐止區"
"221012","278-VK","2019/11/04 20:43:19","新北市汐止區保新街283號","121.69272","25.0683133333333","6501100","汐止區"
"221023","279-VK","2019/11/04 20:43:14","新北市汐止區湖東街31號","121.634636666667","25.0726133333333","6501100","汐止區"
"221027","281-BY","2019/11/04 20:43:18","新北市汐止區大同路二段457號","121.660006666667","25.0678733333333","6501100","汐止區"
"221029","298-VK","2019/11/04 20:43:13","新北市汐止區大同路一段433號","121.642845","25.0612733333333","6501100","汐止區"
"221021","299-VK","2019/11/04 20:43:20","新北市汐止區水源路一段282巷3號","121.653998333333","25.05822","6501100","汐止區"
"221031","353-TW","2019/11/04 20:43:22","新北市汐止區工建路316號","121.634098333333","25.06082","6501100","汐止區"
"221035","622-UM","2019/11/04 20:43:27","新北市汐止區長江街101-5號","121.658735","25.0731933333333","6501100","汐止區"
"221025","623-UM","2019/11/04 20:43:26","新北市汐止區水源路二段236號","121.658721666667","25.051065","6501100","汐止區"
"221033","647-BX","2019/11/04 20:43:24","新北市汐止區合順街18巷8弄5號","121.620353333333","25.0419316666667","6501100","汐止區"
"221002","707-TV","2019/11/04 20:43:26","新北市汐止區福德二路134號","121.630975","25.0652433333333","6501100","汐止區"
"221018","753-BX","2019/11/04 20:39:53","新北市汐止區茄苳路59號","121.666565","25.070725","6501100","汐止區"
"242046","281-VK","2019/11/04 20:43:19","新北市新莊區富國路22巷19號","121.418318333333","25.025825","6500500","新莊區"
"242011","280-VK","2019/11/04 20:43:28","新北市新莊區中榮街122巷3號","121.44653","25.0531416666667","6500500","新莊區"
