"lineid","car","time","location","longitude","latitude","cityid","cityname"
"251004","009-UM","2019/11/04 21:59:29","新北市淡水區自強路201巷39號","121.462188333333","25.12677","6501000","淡水區"
"251005","010-UM","2019/11/04 21:59:27","新北市淡水區鄧公路30巷2弄63號","121.454478333333","25.1692983333333","6501000","淡水區"
"251008","181-VK","2019/11/04 21:59:25","新北市淡水區學府路104號","121.449871666667","25.1717983333333","6501000","淡水區"
"251010","413-VK","2019/11/04 21:59:26","新北市淡水區中正路二段211號","121.426203333333","25.1891066666667","6501000","淡水區"
"251007","442-VK","2019/11/04 21:59:15","新北市淡水區北新路184巷48號","121.45063","25.177835","6501000","淡水區"
"251006","561-UM","2019/11/04 21:47:15","新北市淡水區中正路11巷3號","121.437898333333","25.1707283333333","6501000","淡水區"
"251011","650-BX","2019/11/04 21:59:20","新北市淡水區水碓街7號","121.443163333333","25.1770816666667","6501000","淡水區"
"251003","673-BX","2019/11/04 21:59:20","新北市淡水區新春街83號","121.438836666667","25.1824683333333","6501000","淡水區"
