"lineid","car","time","location","longitude","latitude","cityid","cityname"
"251004","009-UM","2019/11/04 22:29:29","新北市淡水區民族路33號","121.462293333333","25.135835","6501000","淡水區"
"251008","181-VK","2019/11/04 22:29:25","新北市淡水區學府路104號","121.449846666667","25.1718166666667","6501000","淡水區"
"251010","413-VK","2019/11/04 22:29:26","新北市淡水區沙崙路200號","121.424675","25.1838983333333","6501000","淡水區"
"251007","442-VK","2019/11/04 22:29:15","新北市淡水區北新路180號","121.44946","25.1787","6501000","淡水區"
"251011","650-BX","2019/11/04 22:29:20","新北市淡水區水碓街7號","121.443165","25.1771266666667","6501000","淡水區"
"242019","351-TH","2019/11/04 22:20:21","新北市新莊區新泰路357巷3弄57號","121.441945","25.0395333333333","6500500","新莊區"
