"lineid","car","time","location","longitude","latitude","cityid","cityname"
"231007","189-VK","2019/10/29 09:59:37","新北市新店區新潭路三段116號","121.506973333333","24.9098333333333","6500600","新店區"
"231009","192-VK","2019/10/29 09:59:44","新北市新店區小坑一路21-1號","121.5321","24.9125066666667","6500600","新店區"
"227004","282-VK","2019/10/29 09:59:44","新北市雙溪區長源里盤山坑13-1號","121.772895","24.9961316666667","6502500","雙溪區"
"227006","030-BX","2019/10/29 09:59:41","新北市雙溪區泰平里烏山路13號","121.794738333333","24.9502066666667","6502500","雙溪區"
"252004","249-BX","2019/10/29 09:59:55","新北市三芝區福德里埔尾34號","121.508326666667","25.238085","6502100","三芝區"
"252007","AAC-283","2019/10/29 09:59:35","新北市三芝區新庄里新庄子51-14號","121.50734","25.2776933333333","6502100","三芝區"
"237013","760-BX","2019/10/29 09:59:53","新北市三峽區介壽路三段187號","121.401578333333","24.9436933333333","6500900","三峽區"
