"lineid","car","time","location","longitude","latitude","cityid","cityname"
"234044","148-BY","2019/10/29 12:43:42","新北市永和區永元路40巷45號","121.523861666667","25.0006466666667","6500400","永和區"
"234078","298-R6","2019/10/29 12:43:53","新北市永和區林森路81號","121.523926666667","25.0038616666667","6500400","永和區"
"234036","336-UY","2019/10/29 12:43:48","新北市永和區福和路7巷5弄7號","121.525566666667","25.008275","6500400","永和區"
"234062","337-UY","2019/10/29 12:43:45","新北市永和區福和路1號","121.526551666667","25.0099983333333","6500400","永和區"
"234084","338-UY","2019/10/29 12:43:45","新北市中和區安樂路77號","121.512728333333","24.9942366666667","6500400","永和區"
"234068","552-UM","2019/10/29 12:43:54","新北市永和區福和路1號","121.525465","25.0095233333333","6500400","永和區"
"234015","745-BX","2019/10/29 12:43:51","新北市永和區光復街60巷4弄10號","121.516946666667","25.0178883333333","6500400","永和區"
"234028","746-BX","2019/10/29 12:43:37","新北市永和區得和路321號","121.523385","24.99957","6500400","永和區"
"234052","KEA-2590","2019/10/29 12:43:39","新北市永和區福和路1號","121.526046666667","25.0096083333333","6500400","永和區"
"234005","KED-0605","2019/10/29 12:43:41","新北市永和區福和路1號","121.52655","25.0100016666667","6500400","永和區"
"234012","KEA-2591","2019/10/29 12:43:35","新北市永和區保福路二段96號","121.51013","25.0134616666667","6500400","永和區"
"234060","AAD-866","2019/10/29 12:43:39","新北市永和區福和路12巷2號","121.524415","25.008655","6500400","永和區"
"234040","862-TW","2019/10/29 12:43:44","新北市永和區中和路573號","121.511643333333","25.0034416666667","6500400","永和區"
"234025","9371-KE","2019/10/29 12:43:44","新北市永和區豫溪街165號","121.521798333333","25.01051","6500400","永和區"
"234010","9373-KE","2019/10/29 12:43:38","新北市永和區保生路55-1號","121.504528333333","25.01089","6500400","永和區"
"234022","9380-KE","2019/10/29 12:43:43","新北市永和區豫溪街191巷7弄21號","121.523186666667","25.0108816666667","6500400","永和區"
"234076","969-R7","2019/10/29 12:43:44","新北市永和區中正路252號","121.516636666667","24.9984716666667","6500400","永和區"
"234066","AAC-212","2019/10/29 12:43:51","新北市永和區永和路一段4號","121.51278","25.0044866666667","6500400","永和區"
"234001","AAC-295","2019/10/29 12:43:50","新北市永和區福和路26號","121.5239","25.0084766666667","6500400","永和區"
"231013","108-UY","2019/10/29 12:43:40","新北市新店區安一路一段1-1號","121.519343333333","24.961255","6500600","新店區"
"231023","260-TV","2019/10/29 12:43:50","新北市新店區安一路一段1-1號","121.519171666667","24.96115","6500600","新店區"
"231020","513-UM","2019/10/29 12:43:47","新北市新店區安一路一段1-1號","121.519703333333","24.96122","6500600","新店區"
"231010","719-UM","2019/10/29 12:43:48","新北市新店區安一路一段1-1號","121.519508333333","24.9613133333333","6500600","新店區"
"235027","006-UY","2019/10/29 12:43:52","新北市中和區員山路36巷16-2號","121.485295","24.9913933333333","6500300","中和區"
"235029","098-UM","2019/10/29 12:43:42","新北市中和區員山路36巷16-2號","121.485226666667","24.9913166666667","6500300","中和區"
"235031","255-BX","2019/10/29 12:43:44","新北市中和區新生街215號","121.483831666667","24.999565","6500300","中和區"
"220013","072-UY","2019/10/29 12:43:51","新北市板橋區華東街1-9號","121.448215","24.9949866666667","6500100","板橋區"
"228004","212-TW","2019/10/29 12:43:41","新北市貢寮區吉林里枋腳街42-6號","121.889426666667","25.0001066666667","6502600","貢寮區"
"228005","828-UM","2019/10/29 12:43:58","新北市貢寮區福連里福興街39-3號","121.99417","25.01398","6502600","貢寮區"
"207002","749-BX","2019/10/29 12:43:46","新北市萬里區雙興里太和路17-1號","121.655633333333","25.1751116666667","6502800","萬里區"
"207001","662-BX","2019/10/29 12:43:39","新北市萬里區萬里里獅頭路15號","121.694276666667","25.1795783333333","6502800","萬里區"
"235025","KEA-2875","2019/10/29 12:36:50","新北市中和區員山路36巷16-2號","121.485245","24.9917383333333","6500300","中和區"
