"lineid","car","time","location","longitude","latitude","cityid","cityname"
"234046","148-BY","2019/10/29 18:59:48","新北市永和區得和路373巷31弄6號","121.524808333333","25.0006033333333","6500400","永和區"
"234081","298-R6","2019/10/29 18:59:49","新北市永和區國中路206號","121.52216","25.0059466666667","6500400","永和區"
"234038","336-UY","2019/10/29 18:59:40","新北市永和區成功路二段207號","121.526566666667","24.9958883333333","6500400","永和區"
"234064","337-UY","2019/10/29 18:59:54","新北市永和區秀朗路一段162號","121.518445","25.0033783333333","6500400","永和區"
"234086","338-UY","2019/10/29 18:59:40","新北市永和區中正路470號","121.517411666667","25.0031266666667","6500400","永和區"
"234070","552-UM","2019/10/29 18:59:57","新北市永和區竹林路96巷21號","121.518631666667","25.011885","6500400","永和區"
"234050","553-UM","2019/10/29 18:59:45","新北市永和區文化路135巷10號","121.510726666667","25.0156833333333","6500400","永和區"
"234017","745-BX","2019/10/29 18:59:51","新北市永和區永和路二段297號","121.516038333333","25.0160716666667","6500400","永和區"
"234030","746-BX","2019/10/29 18:59:55","新北市永和區厚德街5號","121.525681666667","24.9980216666667","6500400","永和區"
"234054","KEA-2590","2019/10/29 18:59:46","新北市永和區竹林路66巷4號","121.518101666667","25.0133816666667","6500400","永和區"
"234007","KED-0605","2019/10/29 18:59:46","新北市永和區中山路一段58號","121.512938333333","25.01068","6500400","永和區"
"234013","KEA-2591","2019/10/29 18:59:51","新北市永和區信義路17巷22號","121.513185","25.011135","6500400","永和區"
"234061","AAD-866","2019/10/29 18:59:43","新北市永和區福和路309巷1號","121.516321666667","25.0070283333333","6500400","永和區"
"234042","862-TW","2019/10/29 18:59:51","新北市永和區永貞路271號","121.511776666667","25.0048366666667","6500400","永和區"
"234026","9371-KE","2019/10/29 18:59:49","新北市永和區安樂路449號","121.51429","25.0049066666667","6500400","永和區"
"234011","9373-KE","2019/10/29 18:59:59","新北市永和區忠孝街11-1號","121.514698333333","25.0157083333333","6500400","永和區"
"249005","172-UM","2019/10/29 18:59:59","新北市八里區中華路三段169-1號","121.392355","25.129625","6502300","八里區"
"249002","305-UY","2019/10/29 18:59:48","新北市八里區頂寮二街138號","121.4493","25.1294166666667","6502300","八里區"
"249001","759-BX","2019/10/29 18:59:41","新北市八里區龍米路二段228-1號","121.432798333333","25.1583966666667","6502300","八里區"
"248016","026-BX","2019/10/29 18:59:42","新北市五股區成泰路三段577巷19號","121.45149","25.1026266666667","6501500","五股區"
"248006","077-UY","2019/10/29 18:59:41","新北市蘆洲區中山二路320號","121.46843","25.07659","6501500","五股區"
"248008","KED-0815","2019/10/29 18:59:50","新北市五股區中興路一段128巷32號","121.465771666667","25.07514","6501500","五股區"
"248020","KED-0813","2019/10/29 18:59:50","新北市五股區凌雲路三段57號","121.425301666667","25.1249666666667","6501500","五股區"
"248012","247-BX","2019/10/29 18:59:52","新北市五股區中興路四段48巷16號","121.438651666667","25.0833966666667","6501500","五股區"
"248004","677-BX","2019/10/29 18:59:55","新北市五股區民義路二段23號","121.416773333333","25.0990983333333","6501500","五股區"
"248002","678-BX","2019/10/29 18:59:53","新北市五股區凌雲路一段161號","121.448945","25.1025783333333","6501500","五股區"
"248010","682-TV","2019/10/29 18:59:48","新北市五股區水碓三路1號","121.42888","25.0707","6501500","五股區"
"234023","9380-KE","2019/10/29 18:59:59","新北市永和區竹林路75巷33弄21號","121.520845","25.0144333333333","6500400","永和區"
"234077","969-R7","2019/10/29 18:59:42","新北市永和區智光街22號","121.51807","24.999205","6500400","永和區"
"234074","AAC-211","2019/10/29 18:59:39","新北市永和區環河東路二段92號","121.52443","25.0106183333333","6500400","永和區"
"234067","AAC-212","2019/10/29 18:59:45","新北市永和區自由街49號","121.514065","25.0058516666667","6500400","永和區"
"234003","AAC-295","2019/10/29 18:59:45","新北市永和區和平街38號","121.513051666667","25.0099283333333","6500400","永和區"
"232011","076-UY","2019/10/29 18:59:46","新北市坪林區水聳淒坑19-1號","121.712676666667","24.934985","6502000","坪林區"
"244019","402-UM","2019/10/29 18:59:39","新北市林口區文化二路一段555號","121.374973333333","25.07717","6501700","林口區"
"244013","KEA-2802","2019/10/29 18:59:56","新北市林口區麗園一街2巷1號","121.375818333333","25.0719316666667","6501700","林口區"
"244023","483-VK","2019/10/29 18:59:44","新北市林口區民權路151號","121.373676666667","25.083335","6501700","林口區"
"244017","485-VK","2019/10/29 18:59:39","新北市林口區文化二路一段120巷3號","121.367886666667","25.070055","6501700","林口區"
"244011","701-TV","2019/10/29 18:59:47","新北市林口區中正路283號","121.38979","25.0775766666667","6501700","林口區"
"244025","837-TS","2019/10/29 18:59:45","新北市林口區南勢一街30號","121.361043333333","25.0758933333333","6501700","林口區"
"243014","KEA-2801","2019/10/29 18:59:59","新北市泰山區泰林路二段593號","121.421733333333","25.06352","6501600","泰山區"
"243016","421-VK","2019/10/29 18:59:49","新北市泰山區明志路二段137號","121.427816666667","25.0506566666667","6501600","泰山區"
"243009","KEA-2215","2019/10/29 18:59:42","新北市泰山區泰林路二段362號","121.428746666667","25.063675","6501600","泰山區"
"243011","KEA-2216","2019/10/29 18:59:54","新北市泰山區明志路二段256號","121.426913333333","25.0473783333333","6501600","泰山區"
"222003","436-BY","2019/10/29 18:59:53","新北市深坑區深南路88巷1號","121.621461666667","25.010525","6501800","深坑區"
"222002","659-BX","2019/10/29 18:59:54","新北市深坑區文山路一段31巷2號","121.629851666667","25.0033716666667","6501800","深坑區"
"231061","002-UM","2019/10/29 18:59:46","新北市新店區安華路30巷1號","121.519446666667","24.9597316666667","6500600","新店區"
"231055","0291-UT","2019/10/29 18:59:56","新北市新店區新生街13巷17號","121.539245","24.96587","6500600","新店區"
"231042","047-UY","2019/10/29 18:59:43","新北市新店區中興路一段298號","121.546115","24.9695233333333","6500600","新店區"
"231060","106-UY","2019/10/29 18:59:39","新北市新店區安華路30巷12-1號","121.518396666667","24.9581","6500600","新店區"
"231051","107-UY","2019/10/29 18:59:42","新北市新店區三民路189號","121.535318333333","24.9755433333333","6500600","新店區"
"231049","108-UY","2019/10/29 18:59:48","新北市新店區二十張路143-1號","121.535241666667","24.978895","6500600","新店區"
"231065","KEA-2219","2019/10/29 18:59:52","新北市新店區安祥路147巷12號","121.475416666667","24.9558416666667","6500600","新店區"
"231062","256-BX","2019/10/29 18:59:50","新北市新店區安豐路56-3號","121.499503333333","24.9545366666667","6500600","新店區"
"231054","260-TV","2019/10/29 18:59:40","新北市新店區北新路一段41號","121.538008333333","24.9593666666667","6500600","新店區"
"231050","AAD-862","2019/10/29 18:59:59","新北市新店區新烏路一段11巷1弄2號","121.547341666667","24.9513766666667","6500600","新店區"
"231045","355-BY","2019/10/29 18:59:47","新北市新店區秀山路43號","121.531508333333","24.9607816666667","6500600","新店區"
"231058","3713-VJ","2019/10/29 18:59:51","新北市新店區中正路1巷2號","121.545648333333","24.9689533333333","6500600","新店區"
"231056","4715-K9","2019/10/29 18:59:45","新北市新店區二十張路46巷37弄25號","121.536085","24.9815216666667","6500600","新店區"
"231067","4772-VM","2019/10/29 18:59:45","新北市新店區安康路一段76巷24號","121.528238333333","24.9631816666667","6500600","新店區"
"231053","513-UM","2019/10/29 18:59:44","新北市新店區新烏路二段42-1號","121.546195","24.9292316666667","6500600","新店區"
"231063","616-UM","2019/10/29 18:59:43","新北市新店區安華路28-1號","121.519625","24.9606516666667","6500600","新店區"
"231040","617-UM","2019/10/29 18:59:55","新北市新店區中央路87號","121.532161666667","24.9763616666667","6500600","新店區"
"231044","618-UM","2019/10/29 18:59:36","新北市新店區寶中路77號","121.547721666667","24.980585","6500600","新店區"
"231041","619-UM","2019/10/29 18:59:44","新北市新店區安康路一段3-1號","121.534908333333","24.9608316666667","6500600","新店區"
"231048","KED-0819","2019/10/29 18:59:38","新北市新店區德正街23巷12-1號","121.544726666667","24.97214","6500600","新店區"
"231064","718-UY","2019/10/29 18:59:43","新北市新店區安康路一段266巷4號","121.519838333333","24.9640633333333","6500600","新店區"
"231046","719-UM","2019/10/29 18:58:12","新北市新店區直潭四街31號","121.533788333333","24.9415683333333","6500600","新店區"
"231057","720-UM","2019/10/29 18:59:40","新北市新店區百齡一路12號","121.553073333333","24.93247","6500600","新店區"
"231059","897-TW","2019/10/29 18:59:38","新北市新店區安華路28-1號","121.519728333333","24.960765","6500600","新店區"
"231043","899-TW","2019/10/29 18:59:48","新北市新店區北新路一段100號","121.54209","24.969665","6500600","新店區"
"231066","AKT-0513","2019/10/29 18:59:47","新北市新店區安豐路22巷5-5號","121.501705","24.9560183333333","6500600","新店區"
"241035","462-BY","2019/10/29 18:59:45","新北市三重區重新路四段121號","121.484885","25.0519316666667","6500200","三重區"
"235066","003-UY","2019/10/29 18:59:43","新北市中和區中山路二段131巷5弄6號","121.503006666667","25.0029483333333","6500300","中和區"
"235064","005-UY","2019/10/29 18:59:46","新北市中和區泰和街38巷5號","121.49912","25.00019","6500300","中和區"
"235063","006-UY","2019/10/29 18:59:51","新北市中和區中正路592號","121.485813333333","24.9951316666667","6500300","中和區"
"235056","096-UM","2019/10/29 18:59:47","新北市板橋區三民路二段204-4號","121.478983333333","25.0124533333333","6500300","中和區"
"235039","097-UM","2019/10/29 18:59:57","新北市中和區大智街57號","121.521098333333","24.9921933333333","6500300","中和區"
"235065","098-UM","2019/10/29 18:59:58","新北市中和區福祥路158號","121.498525","25.0077","6500300","中和區"
"235040","150-BY","2019/10/29 18:59:47","新北市中和區宜安路1巷6號","121.513191666667","24.99517","6500300","中和區"
"235058","151-BY","2019/10/29 18:59:42","新北市中和區連城路569巷9弄11號","121.479691666667","24.9941016666667","6500300","中和區"
"235055","183-VK","2019/10/29 18:59:47","新北市中和區莒光路2號","121.471791666667","25.0046916666667","6500300","中和區"
"235038","185-VK","2019/10/29 18:59:37","新北市中和區立人街24-4號","121.518956666667","24.9941833333333","6500300","中和區"
"235067","255-BX","2019/10/29 18:59:57","新北市中和區新生街150號","121.483548333333","25.0006733333333","6500300","中和區"
"235044","293-VK","2019/10/29 18:59:49","新北市中和區中興街161巷10弄2號","121.501221666667","24.9909","6500300","中和區"
"235072","301-VK","2019/10/29 18:59:54","新北市中和區中山路二段257號","121.497346666667","25.002405","6500300","中和區"
"235043","352-BY","2019/10/29 18:59:50","新北市中和區景平路2號","121.524873333333","24.9905416666667","6500300","中和區"
"235042","KEA-2878","2019/10/29 18:59:42","新北市中和區秀朗路三段22巷7號","121.525851666667","24.9962216666667","6500300","中和區"
"235050","4979-A6","2019/10/29 18:59:54","新北市中和區忠孝街39-1號","121.511508333333","24.9836933333333","6500300","中和區"
"235069","4980-A6","2019/10/29 18:59:44","新北市中和區景平路459巷2弄2號","121.500363333333","24.9964483333333","6500300","中和區"
"235070","558-UM","2019/10/29 18:59:40","新北市中和區中和路131號","121.501806666667","25.0000216666667","6500300","中和區"
"235045","565-BX","2019/10/29 18:59:50","新北市中和區景新街467巷35弄7號","121.514253333333","24.988975","6500300","中和區"
"235060","KED-0823","2019/10/29 18:59:50","新北市中和區民有街92號","121.476218333333","25.00364","6500300","中和區"
"235054","640-BX","2019/10/29 18:59:50","新北市中和區國光街109巷2弄15號","121.469201666667","25.0006433333333","6500300","中和區"
"235047","732-UM","2019/10/29 18:59:55","新北市中和區興南路二段113巷2號","121.505508333333","24.9842566666667","6500300","中和區"
"235046","733-UM","2019/10/29 18:59:51","新北市中和區興南路二段33號","121.507791666667","24.9857416666667","6500300","中和區"
"235057","801-TS","2019/10/29 18:59:58","新北市中和區民利街74號","121.478385","24.9983633333333","6500300","中和區"
"235041","802-TS","2019/10/29 18:59:34","新北市中和區景安路67號","121.506946666667","24.9977816666667","6500300","中和區"
"235052","805-TS","2019/10/29 18:59:44","新北市中和區興南路二段261巷1號","121.502695","24.9814166666667","6500300","中和區"
"235048","896-TW","2019/10/29 18:59:44","新北市中和區華新街109巷11弄2-8號","121.507985","24.979735","6500300","中和區"
"235053","900-TW","2019/10/29 18:59:44","新北市板橋區和平路190巷22號","121.464791666667","24.99477","6500300","中和區"
"235051","157-BY","2019/10/29 18:59:54","新北市中和區忠孝街19巷33號","121.509618333333","24.9845966666667","6500300","中和區"
"235037","AAC-213","2019/10/29 18:59:48","新北市中和區秀朗路三段60巷37號","121.525136666667","24.99491","6500300","中和區"
"235059","AAC-215","2019/10/29 18:59:46","新北市中和區圓通路369巷33弄7號","121.491146666667","24.9879666666667","6500300","中和區"
"220035","015-TV","2019/10/29 18:59:54","新北市板橋區中正路341巷33號","121.45409","25.0199533333333","6500100","板橋區"
"220065","072-UY","2019/10/29 18:59:56","新北市板橋區漢生東路330-1號","121.471795","25.0078816666667","6500100","板橋區"
"220086","073-UY","2019/10/29 18:59:52","新北市板橋區中正路101號","121.45624","25.014765","6500100","板橋區"
"220106","075-UY","2019/10/29 18:59:55","新北市板橋區雙十路三段10巷16號","121.472338333333","25.0309333333333","6500100","板橋區"
"220069","AAD-861","2019/10/29 18:59:50","新北市板橋區華興街43號","121.457931666667","25.0047266666667","6500100","板橋區"
"220068","120-SR","2019/10/29 18:59:37","新北市板橋區三民路一段1巷29號","121.480093333333","25.024535","6500100","板橋區"
"226004","312-R5","2019/10/29 18:59:49","新北市平溪區嶺腳里中華街58號","121.739728333333","25.024745","6502400","平溪區"
"235049","251-BX","2019/10/29 18:59:38","新北市中和區景新街170號","121.505883333333","24.9966116666667","6500300","中和區"
"228001","212-TW","2019/10/29 18:59:53","新北市貢寮區仁理村仁義街10號","121.923875","25.0520683333333","6502600","貢寮區"
"228002","663-BX","2019/10/29 18:59:45","新北市貢寮區福隆里興隆街2巷4號","121.945921666667","25.0174766666667","6502600","貢寮區"
"228003","828-UM","2019/10/29 18:59:44","新北市貢寮區和美里龍洞街52-1號","121.91179","25.1132583333333","6502600","貢寮區"
"224010","AGQ-8101","2019/10/29 18:59:41","新北市瑞芳區崙頂路3-1號","121.847383333333","25.1040733333333","6501200","瑞芳區"
"224006","676-BX","2019/10/29 18:59:45","新北市瑞芳區中山路153-2號","121.802348333333","25.1064683333333","6501200","瑞芳區"
"224007","285-BY","2019/10/29 18:59:41","新北市瑞芳區瑞竹路46號","121.763485","25.1033283333333","6501200","瑞芳區"
"224009","275-VK","2019/10/29 18:59:40","新北市瑞芳區長仁路40號","121.863611666667","25.1177816666667","6501200","瑞芳區"
"224008","273-VK","2019/10/29 18:59:53","新北市瑞芳區逢甲路340-9號","121.798211666667","25.1162733333333","6501200","瑞芳區"
"224005","271-BY","2019/10/29 18:59:52","新北市瑞芳區中正路4號","121.808875","25.107025","6501200","瑞芳區"
"227002","642-TC","2019/10/29 18:59:37","新北市雙溪區平林里外平林16號","121.858628333333","25.03789","6502500","雙溪區"
"227001","400-TW","2019/10/29 18:59:52","新北市雙溪區牡丹里中正路60號","121.866145","25.0422116666667","6502500","雙溪區"
"253005","032-BX","2019/10/29 18:59:55","新北市石門區崁子腳76-1號","121.571123333333","25.29685","6502200","石門區"
"253006","295-VK","2019/10/29 18:59:51","新北市石門區八甲3-2號","121.521238333333","25.2837733333333","6502200","石門區"
"222001","KEA-2212","2019/10/29 18:59:47","新北市深坑區北深路一段300號","121.624241666667","25.0057783333333","6501800","深坑區"
"208002","KEA-2872","2019/10/29 18:59:47","新北市金山區仁愛路67巷16號","121.634481666667","25.22088","6502700","金山區"
"208003","665-BX","2019/10/29 18:59:39","新北市金山區中正路143-1號","121.632223333333","25.2214633333333","6502700","金山區"
"251001","011-UM","2019/10/29 18:59:42","新北市淡水區自強路58號","121.463175","25.1274833333333","6501000","淡水區"
"251002","012-UM","2019/10/29 18:59:49","新北市淡水區中正東路45-1號","121.446516666667","25.167975","6501000","淡水區"
"251015","KEA-2871","2019/10/29 18:59:55","新北市淡水區糞箕湖60號","121.485128333333","25.1722533333333","6501000","淡水區"
"251016","179-VK","2019/10/29 18:59:53","新北市淡水區淡金路三段193號","121.448775","25.2046516666667","6501000","淡水區"
"251013","182-VK","2019/10/29 18:59:52","新北市淡水區安子內3號","121.487805","25.2154866666667","6501000","淡水區"
"251010","413-VK","2019/10/29 18:59:36","新北市淡水區中正路一段156巷8號","121.421593333333","25.1806916666667","6501000","淡水區"
"251012","441-VK","2019/10/29 18:59:46","新北市淡水區新春街126巷15弄19號","121.440776666667","25.1810283333333","6501000","淡水區"
"251007","442-VK","2019/10/29 18:59:53","新北市淡水區民生路113巷1弄43號","121.462813333333","25.1385733333333","6501000","淡水區"
"251009","575-R6","2019/10/29 18:59:51","新北市淡水區重建街125-4號","121.44034","25.1731816666667","6501000","淡水區"
"251014","577-R6","2019/10/29 18:59:26","新北市淡水區小中寮32-1號","121.491633333333","25.2266983333333","6501000","淡水區"
"251011","650-BX","2019/10/29 18:59:57","新北市淡水區鄧公路30巷2弄22號","121.453446666667","25.1690933333333","6501000","淡水區"
"251003","673-BX","2019/10/29 18:59:53","新北市淡水區中山北路一段149巷29號","121.443056666667","25.1778633333333","6501000","淡水區"
"207003","550-UM","2019/10/29 18:59:53","新北市萬里區大鵬里頂社2-1號","121.660353333333","25.207225","6502800","萬里區"
"207004","291-VK","2019/10/29 18:59:38","新北市萬里區萬里里獅頭路23號","121.693448333333","25.1780966666667","6502800","萬里區"
"252002","178-VK","2019/10/29 18:59:41","新北市三芝區中正路一段37號","121.503168333333","25.2583533333333","6502100","三芝區"
"252003","249-BX","2019/10/29 18:59:47","新北市三芝區後厝里北勢子22-16號","121.473106666667","25.2533133333333","6502100","三芝區"
"208001","170-UY","2019/10/29 18:59:40","新北市金山區金包里街2號","121.6407","25.2204966666667","6502700","金山區"
"237004","KEA-2597","2019/10/29 18:59:49","新北市三峽區有木205-1號","121.439048333333","24.8515466666667","6500900","三峽區"
"237007","153-BY","2019/10/29 18:59:46","新北市三峽區中正路二段277號","121.366013333333","24.9113733333333","6500900","三峽區"
"237013","252-BX","2019/10/29 18:59:49","新北市三峽區大同路48巷17弄8-1號","121.376776666667","24.9290216666667","6500900","三峽區"
"237012","275-BY","2019/10/29 18:59:43","新北市三峽區三樹路222巷69號","121.384018333333","24.9422733333333","6500900","三峽區"
"237008","302-VK","2019/10/29 18:59:41","新北市三峽區大同路127號","121.374015","24.92673","6500900","三峽區"
"237014","433-BY","2019/10/29 18:59:43","新北市三峽區隆恩街174號","121.36249","24.942705","6500900","三峽區"
"237010","280-TH","2019/10/29 18:59:44","新北市三峽區復興路449號","121.362656666667","24.938525","6500900","三峽區"
"237006","5529-G3","2019/10/29 18:59:55","新北市三峽區溪東路132號","121.404635","24.9333683333333","6500900","三峽區"
"237011","KEA-2596","2019/10/29 18:59:39","新北市三峽區介壽路三段73號","121.395616666667","24.9382733333333","6500900","三峽區"
"237015","649-BX","2019/10/29 18:59:54","新北市三峽區建安71號","121.448831666667","24.9261166666667","6500900","三峽區"
"237005","AKY-6261","2019/10/29 18:59:40","新北市三峽區中山路459巷135號","121.348858333333","24.9330883333333","6500900","三峽區"
"236042","KED-0685","2019/10/29 18:59:50","新北市土城區學府路一段209巷10號","121.452071666667","24.9839933333333","6501300","土城區"
"236079","166-UM","2019/10/29 18:59:53","新北市土城區中央路四段448號","121.410558333333","24.9513333333333","6501300","土城區"
"236030","253-BX","2019/10/29 18:59:50","新北市土城區中央路二段243號","121.440103333333","24.97168","6501300","土城區"
"236026","269-VK","2019/10/29 18:59:50","新北市土城區光明街1號","121.442061666667","24.9749216666667","6501300","土城區"
"236014","270-VK","2019/10/29 18:59:58","新北市土城區立德路47號","121.462473333333","24.988165","6501300","土城區"
"236038","271-VK","2019/10/29 18:59:40","新北市土城區仁愛路17巷1號","121.460485","24.9805983333333","6501300","土城區"
"236070","KEA-2877","2019/10/29 18:59:44","新北市土城區金城路二段188號","121.454306666667","24.9815283333333","6501300","土城區"
"252001","KED-0821","2019/10/29 18:59:50","新北市三芝區中興街二段260號","121.501766666667","25.25299","6502100","三芝區"
"236021","401-BY","2019/10/29 18:59:57","新北市土城區延吉街168巷3號","121.468258333333","24.9855566666667","6501300","土城區"
"236063","752-BX","2019/10/29 18:56:50","新北市土城區延和路108巷2弄1號","121.46725","24.98942","6501300","土城區"
"236059","912-UM","2019/10/29 18:59:41","新北市土城區金城路二段206號","121.455238333333","24.9819566666667","6501300","土城區"
"236049","913-UM","2019/10/29 18:59:53","新北市土城區青雲路322巷2弄4號","121.457898333333","24.9773833333333","6501300","土城區"
"236055","AAC-216","2019/10/29 18:59:54","新北市土城區學成路90號","121.450485","24.988795","6501300","土城區"
"242061","986-R7","2019/10/29 18:59:57","新北市新莊區新樹路13號","121.440781666667","25.0328616666667","6500500","新莊區"
"242009","349-TH","2019/10/29 18:59:21","新北市樹林區中山路三段214號","121.380036666667","24.96788","6500500","新莊區"
"238023","601-UM","2019/10/29 18:59:41","新北市樹林區大慶街102號","121.395941666667","25.013595","6500700","樹林區"
"238019","599-UM","2019/10/29 18:59:42","新北市樹林區東榮街169號","121.414005","24.98142","6500700","樹林區"
"238022","KEA-2213","2019/10/29 18:59:52","新北市樹林區東順街60巷2號","121.411351666667","24.9781583333333","6500700","樹林區"
"238021","KEA-2539","2019/10/29 18:59:51","新北市樹林區柑園街二段316號","121.373381666667","24.9517233333333","6500700","樹林區"
"238025","303-VK","2019/10/29 18:59:47","新北市樹林區中山路三段24號","121.395495","24.9728733333333","6500700","樹林區"
"238017","283-BY","2019/10/29 18:59:40","新北市樹林區光興街50號","121.409846666667","25.0027516666667","6500700","樹林區"
"238014","282-BY","2019/10/29 18:59:42","新北市樹林區中正路71號","121.425851666667","24.99992","6500700","樹林區"
"238020","268-VK","2019/10/29 18:59:41","新北市樹林區俊英街219巷29號","121.420658333333","25.011435","6500700","樹林區"
"238026","172-UY","2019/10/29 18:59:46","新北市樹林區中和街11號","121.392068333333","24.9729216666667","6500700","樹林區"
"238016","169-UY","2019/10/29 18:59:49","新北市樹林區文化街45號","121.418175","24.9882433333333","6500700","樹林區"
"239007","AAC-297","2019/10/29 18:59:47","新北市鶯歌區中正一路建德巷12號","121.364831666667","24.957045","6500800","鶯歌區"
"239006","891-R6","2019/10/29 18:59:53","新北市鶯歌區鶯桃路296巷84弄6號","121.336878333333","24.9616866666667","6500800","鶯歌區"
"239008","527-UM","2019/10/29 18:59:50","新北市鶯歌區晨曦街28號","121.337823333333","24.9767383333333","6500800","鶯歌區"
"239005","526-UM","2019/10/29 18:59:58","新北市鶯歌區鳳吉一街82號","121.326961666667","24.9742966666667","6500800","鶯歌區"
"239001","417-VK","2019/10/29 18:59:53","新北市鶯歌區鶯桃路39-7號","121.342321666667","24.9513983333333","6500800","鶯歌區"
"239003","360-BY","2019/10/29 18:59:47","新北市鶯歌區鶯桃路605號","121.329193333333","24.9691033333333","6500800","鶯歌區"
"239002","359-BY","2019/10/29 18:59:43","新北市鶯歌區中山路300號","121.34287","24.95725","6500800","鶯歌區"
"239004","193-VK","2019/10/29 18:59:47","新北市鶯歌區中正三路247巷50弄1號","121.333213333333","24.9373983333333","6500800","鶯歌區"
"221008","489-VK","2019/10/29 18:59:46","新北市汐止區康寧街582號","121.63499","25.0698416666667","6501100","汐止區"
"221036","130-UY","2019/10/29 18:59:55","新北市汐止區水碓街36號","121.66509","25.0687733333333","6501100","汐止區"
"221015","131-UY","2019/10/29 18:59:50","新北市汐止區鄉長路一段55巷22號","121.664818333333","25.0763366666667","6501100","汐止區"
"221032","280-BY","2019/10/29 18:59:43","新北市汐止區橫科路407巷81弄5號","121.628621666667","25.0481483333333","6501100","汐止區"
"221029","298-VK","2019/10/29 18:59:53","新北市汐止區樟樹一路244號","121.64241","25.066975","6501100","汐止區"
"221031","353-TW","2019/10/29 18:59:43","新北市汐止區福德二路187巷10號","121.630203333333","25.0646866666667","6501100","汐止區"
"221035","622-UM","2019/10/29 18:59:44","新北市汐止區大同路二段264號","121.654548333333","25.0660466666667","6501100","汐止區"
"221002","707-TV","2019/10/29 18:59:41","新北市汐止區大同路一段2號","121.620815","25.0549466666667","6501100","汐止區"
"220079","145-BY","2019/10/29 18:59:49","新北市板橋區大智街86號","121.453563333333","25.01565","6500100","板橋區"
"220080","200-UY","2019/10/29 18:59:45","新北市板橋區大觀路二段265巷3弄33號","121.444215","24.9979216666667","6500100","板橋區"
"220082","610-BX","2019/10/29 18:59:49","新北市板橋區滿平街111號","121.428431666667","24.9886066666667","6500100","板橋區"
"224002","257-TC","2019/10/29 18:59:42","新北市瑞芳區靜安路四段3號","121.793433333333","25.0818366666667","6501200","瑞芳區"
"220056","276-BY","2019/10/29 18:59:53","新北市板橋區信義路161號","121.45866","24.9923933333333","6500100","板橋區"
"220072","277-BY","2019/10/29 18:59:51","新北市板橋區大觀路三段5-4號","121.432813333333","24.9959283333333","6500100","板橋區"
"220094","283-UM","2019/10/29 18:59:42","新北市板橋區光武街153號","121.465408333333","25.0295283333333","6500100","板橋區"
"220071","283-VK","2019/10/29 18:59:56","新北市板橋區忠孝路196巷43號","121.465568333333","25.00164","6500100","板橋區"
"220101","285-UM","2019/10/29 18:59:51","新北市板橋區民生路二段188號","121.470063333333","25.0206","6500100","板橋區"
"220053","285-VK","2019/10/29 18:59:51","新北市板橋區永豐街89巷5弄2號","121.473073333333","25.0196633333333","6500100","板橋區"
"220081","287-VK","2019/10/29 18:59:44","新北市板橋區光華街15巷15號","121.453468333333","25.0116783333333","6500100","板橋區"
"220090","288-VK","2019/10/29 18:59:41","新北市板橋區裕民街21號","121.462166666667","25.0290233333333","6500100","板橋區"
"220061","293-UM","2019/10/29 18:59:53","新北市板橋區中山路二段295巷17號","121.477811666667","25.018705","6500100","板橋區"
"220062","295-UM","2019/10/29 18:59:50","新北市板橋區三民路二段245巷1號","121.47937","25.012575","6500100","板橋區"
"220084","296-UM","2019/10/29 18:59:43","新北市板橋區龍興街36號","121.443083333333","25.0005616666667","6500100","板橋區"
"220075","303-R5","2019/10/29 18:59:46","新北市板橋區後菜園街34號","121.456711666667","25.0101966666667","6500100","板橋區"
"220092","307-R5","2019/10/29 18:59:44","新北市板橋區文化路二段225巷60弄59號","121.469061666667","25.0297716666667","6500100","板橋區"
"220098","317-R6","2019/10/29 18:59:53","新北市板橋區民生路二段226巷46號","121.471536666667","25.0223066666667","6500100","板橋區"
"220083","461-BY","2019/10/29 18:59:41","新北市板橋區大觀路一段38巷156弄28號","121.442458333333","25.005015","6500100","板橋區"
"220089","487-VK","2019/10/29 18:59:54","新北市板橋區文化路二段141號","121.470123333333","25.0268716666667","6500100","板橋區"
"220088","491-VK","2019/10/29 18:59:52","新北市板橋區文化路二段182巷3弄20號","121.47195","25.0278583333333","6500100","板橋區"
"220103","561-BX","2019/10/29 18:59:37","新北市板橋區介壽街41號","121.468683333333","25.0198233333333","6500100","板橋區"
"220063","609-BX","2019/10/29 18:59:49","新北市板橋區三民路二段72號","121.479301666667","25.01709","6500100","板橋區"
"220091","637-BX","2019/10/29 18:59:53","新北市板橋區大同街23號","121.477435","25.0270166666667","6500100","板橋區"
"220057","686-BX","2019/10/29 18:59:46","新北市板橋區重慶路319號","121.46388","24.9985783333333","6500100","板橋區"
"220077","687-BX","2019/10/29 18:59:40","新北市板橋區龍興街59號","121.443243333333","25.00118","6500100","板橋區"
"220093","689-BX","2019/10/29 18:59:57","新北市板橋區民生路三段183號","121.46547","25.0273966666667","6500100","板橋區"
"220054","741-BX","2019/10/29 18:59:52","新北市板橋區重慶路127巷15-2號","121.463381666667","25.0049916666667","6500100","板橋區"
"220102","KEA-2699","2019/10/29 18:59:40","新北市板橋區田單街2巷38號","121.482275","25.0276766666667","6500100","板橋區"
"220055","827-TW","2019/10/29 18:59:45","新北市板橋區民安街18號","121.466828333333","25.0116133333333","6500100","板橋區"
"220067","831-TW","2019/10/29 18:59:52","新北市板橋區民享街116巷2弄7號","121.477578333333","25.0155466666667","6500100","板橋區"
"220074","895-R6","2019/10/29 18:59:56","新北市板橋區林園街4號","121.454088333333","25.0093366666667","6500100","板橋區"
"220073","985-R7","2019/10/29 18:59:47","新北市板橋區中正路146號","121.45694","25.0161616666667","6500100","板橋區"
"220097","AAC-210","2019/10/29 18:59:51","新北市板橋區幸福路70巷26號","121.460335","25.0207783333333","6500100","板橋區"
"220064","AAC-253","2019/10/29 18:59:56","新北市板橋區板新路13號","121.475076666667","25.0126916666667","6500100","板橋區"
"235068","KEA-2873","2019/10/29 18:59:49","新北市中和區圓通路162巷1號","121.49716","24.9952966666667","6500300","中和區"
"235061","KEA-2875","2019/10/29 18:59:37","新北市中和區民有街63號","121.476568333333","25.00339","6500300","中和區"
