"lineid","car","time","location","longitude","latitude","cityid","cityname"
"234044","148-BY","2019/11/07 13:29:21","新北市永和區秀朗路二段178號","121.526456666667","25.0012116666667","6500400","永和區"
"234078","298-R6","2019/11/07 13:29:26","新北市永和區林森路4號","121.5267","25.0057566666667","6500400","永和區"
"234036","336-UY","2019/11/07 13:29:26","新北市永和區民樂街37巷1號","121.527666666667","25.000805","6500400","永和區"
"234062","337-UY","2019/11/07 13:29:29","新北市永和區中正路368巷1弄75號","121.520528333333","25.0008","6500400","永和區"
"234084","338-UY","2019/11/07 13:29:31","新北市永和區林森路107號","121.522993333333","25.003325","6500400","永和區"
"234068","552-UM","2019/11/07 13:29:35","新北市永和區警光街4號","121.520051666667","25.0096516666667","6500400","永和區"
"234015","745-BX","2019/11/07 13:29:41","新北市永和區環河西路一段1號","121.515106666667","25.0180766666667","6500400","永和區"
"234028","746-BX","2019/11/07 13:29:38","新北市永和區民權路7號","121.52014","24.9981616666667","6500400","永和區"
"234052","KEA-2590","2019/11/07 13:29:23","新北市永和區復興街19巷2號","121.516146666667","25.0131066666667","6500400","永和區"
"234005","KED-0605","2019/11/07 13:29:38","新北市永和區中山路一段215-1號","121.50831","25.00807","6500400","永和區"
"234012","KEA-2591","2019/11/07 13:29:30","新北市永和區中山路一段184巷9弄19號","121.508305","25.009105","6500400","永和區"
"234060","AAD-866","2019/11/07 13:29:39","新北市永和區中正路512號","121.517263333333","25.0046233333333","6500400","永和區"
"234040","862-TW","2019/11/07 13:29:26","新北市永和區水源街39巷30號","121.51076","25.00306","6500400","永和區"
"234048","863-TW","2019/11/07 13:29:42","新北市永和區信義路120號","121.512406666667","25.014715","6500400","永和區"
"234025","9371-KE","2019/11/07 13:29:34","新北市永和區中山路一段17巷4弄16號","121.51313","25.0101683333333","6500400","永和區"
"234010","9373-KE","2019/11/07 13:29:26","新北市永和區仁愛路141巷3弄4號","121.511846666667","25.0124","6500400","永和區"
"248013","025-BX","2019/11/07 13:29:24","新北市五股區成泰路一段133號","121.435596666667","25.072765","6501500","五股區"
"248015","026-BX","2019/11/07 13:29:35","新北市五股區凌雲路一段83巷1-4號","121.450391666667","25.1008033333333","6501500","五股區"
"248006","077-UY","2019/11/07 13:29:30","新北市五股區中興路一段48號","121.468166666667","25.0726166666667","6501500","五股區"
"248007","KED-0815","2019/11/07 13:29:22","新北市五股區中興路二段88號","121.461185","25.0786933333333","6501500","五股區"
"248017","KED-0813","2019/11/07 13:29:31","新北市五股區民義路二段52巷22號","121.416086666667","25.1107866666667","6501500","五股區"
"248011","247-BX","2019/11/07 13:29:24","新北市五股區御史路27號","121.441938333333","25.0913583333333","6501500","五股區"
"248010","272-BY","2019/11/07 13:29:38","新北市五股區水碓路16巷9號","121.433985","25.07297","6501500","五股區"
"248001","678-BX","2019/11/07 13:29:35","新北市五股區西雲路163號","121.446088333333","25.0944133333333","6501500","五股區"
"234022","9380-KE","2019/11/07 13:29:37","新北市永和區環河東路二段90號","121.523981666667","25.0105966666667","6500400","永和區"
"234076","969-R7","2019/11/07 13:29:42","新北市永和區民有街21巷9弄4號","121.517291666667","24.9978183333333","6500400","永和區"
"234072","AAC-211","2019/11/07 13:29:32","新北市永和區永和路二段237-1號","121.515696666667","25.0144383333333","6500400","永和區"
"234066","AAC-212","2019/11/07 13:29:39","新北市永和區永貞路355巷2號","121.508995","25.0076633333333","6500400","永和區"
"234001","AAC-295","2019/11/07 13:29:38","新北市永和區永和路一段140號","121.514061666667","25.0081816666667","6500400","永和區"
"244003","248-BX","2019/11/07 13:29:39","新北市林口區瑞平里60-2號","121.33722","25.1239116666667","6501700","林口區"
"243002","297-R6","2019/11/07 13:29:38","新北市泰山區黎明路26號","121.42141","25.060765","6501600","泰山區"
"231003","001-UM","2019/11/07 13:29:42","新北市新店區中興路二段121巷1號","121.547536666667","24.9722866666667","6500600","新店區"
"231030","002-UM","2019/11/07 13:29:23","新北市新店區安華路28-1號","121.51997","24.9609116666667","6500600","新店區"
"231027","0293-UT","2019/11/07 13:29:43","新北市新店區環河路21號","121.537521666667","24.9612666666667","6500600","新店區"
"231029","106-UY","2019/11/07 13:29:27","新北市新店區安華路30巷12-1號","121.51825","24.9580233333333","6500600","新店區"
"231018","107-UY","2019/11/07 13:29:23","新北市新店區中央路81號","121.532311666667","24.9765283333333","6500600","新店區"
"231013","108-UY","2019/11/07 13:29:26","新北市新店區中央路137號","121.530208333333","24.97357","6500600","新店區"
"231036","110-UY","2019/11/07 13:29:34","新北市新店區安祥路195號","121.475115","24.9542466666667","6500600","新店區"
"231031","256-BX","2019/11/07 13:29:28","新北市新店區安豐路60-1號","121.497805","24.953555","6500600","新店區"
"231023","260-TV","2019/11/07 13:29:38","新北市新店區北宜路一段168號","121.540338333333","24.9529633333333","6500600","新店區"
"231035","278-BY","2019/11/07 13:29:38","新北市新店區安康路一段266巷4號","121.519945","24.9639133333333","6500600","新店區"
"231017","AAD-862","2019/11/07 13:29:32","新北市新店區新烏路一段11巷7號","121.54727","24.951335","6500600","新店區"
"231006","355-BY","2019/11/07 13:29:22","新北市新店區安華路28-1號","121.519368333333","24.960975","6500600","新店區"
"231038","3712-VJ","2019/11/07 13:29:26","新北市新店區安華路28-1號","121.51933","24.9606083333333","6500600","新店區"
"231024","4716-K9","2019/11/07 13:29:25","新北市新店區中正路130號","121.542","24.9713416666667","6500600","新店區"
"231025","4715-K9","2019/11/07 13:29:34","新北市新店區中央五街38號","121.528461666667","24.9749883333333","6500600","新店區"
"231021","513-UM","2019/11/07 13:29:32","新北市新店區秀山路66號","121.530853333333","24.960975","6500600","新店區"
"231002","618-UM","2019/11/07 13:29:44","新北市新店區安康路一段35-1號","121.531981666667","24.9606783333333","6500600","新店區"
"231034","641-BX","2019/11/07 13:29:24","新北市新店區安華路28-1號","121.519663333333","24.960635","6500600","新店區"
"231011","KED-0819","2019/11/07 13:29:21","新北市新店區北新路一段98號","121.542063333333","24.9692","6500600","新店區"
"231010","719-UM","2019/11/07 13:29:39","新北市新店區自由街19號","121.535226666667","24.9746416666667","6500600","新店區"
"231026","720-UM","2019/11/07 13:29:25","新北市新店區安一路一段1-1號","121.519963333333","24.9616083333333","6500600","新店區"
"231028","897-TW","2019/11/07 13:29:27","新北市新店區安華路28-1號","121.519655","24.9607783333333","6500600","新店區"
"231001","898-TW","2019/11/07 13:29:39","新北市新店區安康路一段116號","121.527146666667","24.962575","6500600","新店區"
"231004","899-TW","2019/11/07 13:29:37","新北市新店區安一路一段1-1號","121.519638333333","24.9616216666667","6500600","新店區"
"231037","AKT-0513","2019/11/07 13:29:31","新北市新店區薏仁坑路22號","121.498315","24.9592066666667","6500600","新店區"
"235030","003-UY","2019/11/07 13:29:21","新北市中和區中山路二段120號","121.502881666667","25.0038366666667","6500300","中和區"
"235028","005-UY","2019/11/07 13:29:41","新北市中和區連城路109巷38號","121.49717","24.9979783333333","6500300","中和區"
"235027","006-UY","2019/11/07 13:29:27","新北市中和區連城路347巷4弄1-3號","121.488253333333","24.9955933333333","6500300","中和區"
"235020","096-UM","2019/11/07 13:29:31","新北市中和區新民街93號","121.480813333333","25.008325","6500300","中和區"
"235003","097-UM","2019/11/07 13:29:22","新北市中和區大仁街19巷8號","121.517306666667","24.9933233333333","6500300","中和區"
"235029","098-UM","2019/11/07 13:29:28","新北市中和區莊敬路49巷20弄32號","121.503296666667","25.0051233333333","6500300","中和區"
"235004","150-BY","2019/11/07 13:29:38","新北市中和區安平路59號","121.509428333333","24.9952","6500300","中和區"
"235022","151-BY","2019/11/07 13:29:15","新北市中和區圓通路369巷66號","121.490463333333","24.982445","6500300","中和區"
"235019","183-VK","2019/11/07 13:29:41","新北市中和區國光街102巷29號","121.471378333333","25.0007333333333","6500300","中和區"
"235002","185-VK","2019/11/07 13:29:38","新北市中和區自強路54號","121.520105","24.9947316666667","6500300","中和區"
"235031","255-BX","2019/11/07 13:29:25","新北市中和區新生街220巷15弄11-2號","121.482931666667","24.99788","6500300","中和區"
"235006","KEA-2878","2019/11/07 13:29:36","新北市中和區秀朗路三段150巷25號","121.523313333333","24.9910383333333","6500300","中和區"
"235014","4979-A6","2019/11/07 13:29:24","新北市中和區景新街372號","121.51206","24.99019","6500300","中和區"
"235033","4980-A6","2019/11/07 13:29:42","新北市中和區連城路99巷50號","121.49705","24.9986233333333","6500300","中和區"
"235036","551-UM","2019/11/07 13:29:28","新北市中和區連城路237-1號","121.493693333333","24.99735","6500300","中和區"
"235034","558-UM","2019/11/07 13:29:26","新北市中和區南華路32號","121.503485","24.9962033333333","6500300","中和區"
"235009","565-BX","2019/11/07 13:29:31","新北市中和區復興路14號","121.505688333333","24.9898016666667","6500300","中和區"
"235024","KED-0823","2019/11/07 13:29:30","新北市中和區中山路三段27號","121.479218333333","25.0058133333333","6500300","中和區"
"235018","640-BX","2019/11/07 13:29:35","新北市中和區民享街86巷38號","121.472713333333","25.00046","6500300","中和區"
"235035","647-TV","2019/11/07 13:29:27","新北市中和區中板路18巷1弄2號","121.484108333333","25.0125916666667","6500300","中和區"
"235011","732-UM","2019/11/07 13:29:36","新北市中和區南山路493號","121.50805","24.987845","6500300","中和區"
"235010","733-UM","2019/11/07 13:29:38","新北市中和區仁愛街69號","121.511491666667","24.9874816666667","6500300","中和區"
"235026","800-TS","2019/11/07 13:29:29","新北市中和區中山路二段312巷6號","121.495603333333","25.0028233333333","6500300","中和區"
"235021","801-TS","2019/11/07 13:29:22","新北市中和區員山路327巷8號","121.480926666667","25.00116","6500300","中和區"
"235005","802-TS","2019/11/07 13:29:29","新北市中和區中和路320號","121.509606666667","25.00073","6500300","中和區"
"235016","805-TS","2019/11/07 13:29:23","新北市中和區興南路二段96號","121.505168333333","24.9841416666667","6500300","中和區"
"235012","896-TW","2019/11/07 13:29:40","新北市中和區中正路589巷15號","121.485756666667","24.9936466666667","6500300","中和區"
"235017","900-TW","2019/11/07 13:29:33","新北市中和區連城路607號","121.47838","24.9930533333333","6500300","中和區"
"235015","157-BY","2019/11/07 13:29:41","新北市中和區興南路二段114巷12號","121.504036666667","24.9845633333333","6500300","中和區"
"235001","AAC-213","2019/11/07 13:29:39","新北市中和區景平路111巷58號","121.515256666667","24.9903816666667","6500300","中和區"
"220013","072-UY","2019/11/07 13:29:39","新北市板橋區稚暉街20號","121.455715","25.0044266666667","6500100","板橋區"
"220017","AAD-861","2019/11/07 13:29:37","新北市板橋區華東街1-10號","121.448433333333","24.995105","6500100","板橋區"
"247023","500-BY","2019/11/07 13:29:22","新北市五股區中興路三段163號","121.449141666667","25.0807516666667","6501400","蘆洲區"
"247017","337-TH","2019/11/07 13:29:35","新北市五股區中興路三段163號","121.449181666667","25.0805983333333","6501400","蘆洲區"
"247013","056-VK","2019/11/07 13:29:30","新北市五股區中興路三段2巷10號","121.4491","25.08116","6501400","蘆洲區"
"235013","251-BX","2019/11/07 13:29:24","新北市中和區景新街170號","121.505821666667","24.9964966666667","6500300","中和區"
"228005","097-TW","2019/11/07 13:29:30","新北市貢寮區美豐里文秀坑8號","121.90258","25.0504166666667","6502600","貢寮區"
"228004","212-TW","2019/11/07 13:29:22","新北市貢寮區龍崗里石壁坑街17號","121.9104","24.9896033333333","6502600","貢寮區"
"253003","6232-TK","2019/11/07 13:29:36","新北市石門區內石門50-1號","121.572498333333","25.2622533333333","6502200","石門區"
"253004","6251-TK","2019/11/07 13:24:03","新北市石門區竹子湖11號","121.617825","25.2588966666667","6502200","石門區"
"253002","637-UY","2019/11/07 13:29:32","新北市石門區九芎林13-1號","121.564876666667","25.26395","6502200","石門區"
"253001","KEC-0718","2019/11/07 13:29:04","新北市石門區下員坑20號","121.511383333333","25.2790183333333","6502200","石門區"
"207002","749-BX","2019/11/07 13:29:39","新北市萬里區崁腳里崁腳路166號","121.645068333333","25.1557933333333","6502800","萬里區"
"207001","662-BX","2019/11/07 13:29:23","新北市萬里區大鵬里頂社24-5號","121.663363333333","25.206045","6502800","萬里區"
"252005","AAC-283","2019/11/07 13:29:40","新北市三芝區圓山里八連溪頭8-1號","121.527913333333","25.2208783333333","6502100","三芝區"
"220028","200-UY","2019/11/07 13:29:36","新北市板橋區華東街1-9號","121.448248333333","24.9949216666667","6500100","板橋區"
"220004","276-BY","2019/11/07 13:29:24","新北市板橋區華東街1-9號","121.44812","24.9949466666667","6500100","板橋區"
"220043","283-UM","2019/11/07 13:29:38","新北市板橋區民生路二段120號","121.47032","25.0198683333333","6500100","板橋區"
"220031","286-VK","2019/11/07 13:29:39","新北市板橋區華東街1-10號","121.448436666667","24.9951083333333","6500100","板橋區"
"220029","287-VK","2019/11/07 13:29:24","新北市板橋區華東街1-10號","121.448283333333","24.9950133333333","6500100","板橋區"
"220104","560-BX","2019/11/07 13:29:35","新北市板橋區四川路二段130巷25弄4號","121.449158333333","24.994465","6500100","板橋區"
"220025","687-BX","2019/11/07 13:29:26","新北市板橋區篤行路一段32號","121.431833333333","24.9940033333333","6500100","板橋區"
"220022","895-R6","2019/11/07 13:29:33","新北市板橋區南雅南路二段146號","121.451656666667","24.9962316666667","6500100","板橋區"
"220021","985-R7","2019/11/07 13:29:23","新北市板橋區四川路二段140巷18號","121.449315","24.9933833333333","6500100","板橋區"
"220046","AAC-210","2019/11/07 13:29:33","新北市板橋區民生路二段161巷5號","121.47017","25.019705","6500100","板橋區"
"220012","AAC-253","2019/11/07 13:29:30","新北市板橋區南雅南路二段120-1號","121.452305","24.99971","6500100","板橋區"
"235032","KEA-2873","2019/11/07 13:29:37","新北市中和區中正路273-5號","121.495646666667","24.99325","6500300","中和區"
"235025","KEA-2875","2019/11/07 13:29:29","新北市中和區民享街114巷4號","121.474273333333","24.99931","6500300","中和區"
