"lineid","car","time","location","longitude","latitude","cityid","cityname"
"234044","148-BY","2019/11/07 13:43:41","新北市永和區永亨路166號","121.52615","25.0034883333333","6500400","永和區"
"234078","298-R6","2019/11/07 13:43:39","新北市永和區林森路24號","121.52586","25.0052516666667","6500400","永和區"
"234036","336-UY","2019/11/07 13:43:26","新北市永和區環河東路四段20號","121.528635","24.999635","6500400","永和區"
"234062","337-UY","2019/11/07 13:43:29","新北市永和區秀朗路一段192巷6弄12號","121.51907","25.002325","6500400","永和區"
"234084","338-UY","2019/11/07 13:43:31","新北市永和區永亨路157號","121.525978333333","25.003895","6500400","永和區"
"234068","552-UM","2019/11/07 13:43:25","新北市永和區永和路二段243號","121.515765","25.0147233333333","6500400","永和區"
"234015","745-BX","2019/11/07 13:43:21","新北市永和區永和路二段299號","121.515986666667","25.0161","6500400","永和區"
"234028","746-BX","2019/11/07 13:43:30","新北市永和區民生路49號","121.522905","24.99776","6500400","永和區"
"234052","KEA-2590","2019/11/07 13:43:32","新北市永和區竹林路39巷24弄18號","121.519236666667","25.0141483333333","6500400","永和區"
"234005","KED-0605","2019/11/07 13:43:38","新北市永和區自強街2號","121.514058333333","25.008095","6500400","永和區"
"234012","KEA-2591","2019/11/07 13:43:28","新北市永和區仁愛路188號","121.50976","25.012575","6500400","永和區"
"234060","AAD-866","2019/11/07 13:43:39","新北市永和區中正路261號","121.517586666667","25.0005566666667","6500400","永和區"
"234040","862-TW","2019/11/07 13:43:27","新北市永和區中和路305巷16弄2號","121.507373333333","25.0014216666667","6500400","永和區"
"234048","863-TW","2019/11/07 13:43:42","新北市永和區保安路28號","121.510465","25.0171016666667","6500400","永和區"
"234010","9373-KE","2019/11/07 13:43:26","新北市永和區保福路二段133巷2號","121.509478333333","25.01385","6500400","永和區"
"248013","025-BX","2019/11/07 13:43:24","新北市五股區成泰路二段252號","121.440553333333","25.087305","6501500","五股區"
"248015","026-BX","2019/11/07 13:43:32","新北市五股區凌雲路一段149巷42號","121.448623333333","25.1009483333333","6501500","五股區"
"248006","077-UY","2019/11/07 13:43:30","新北市五股區四維路177號","121.467951666667","25.0751516666667","6501500","五股區"
"248007","KED-0815","2019/11/07 13:43:28","新北市五股區中興路一段149號","121.465135","25.0734666666667","6501500","五股區"
"248017","KED-0813","2019/11/07 13:43:31","新北市五股區民義路二段48巷1-8號","121.414175","25.10297","6501500","五股區"
"248011","247-BX","2019/11/07 13:43:24","新北市五股區成泰路三段6號","121.441096666667","25.08757","6501500","五股區"
"248010","272-BY","2019/11/07 13:43:38","新北市五股區水碓三路42號","121.431411666667","25.07257","6501500","五股區"
"248001","678-BX","2019/11/07 13:43:35","新北市五股區西雲路247號","121.449221666667","25.0978816666667","6501500","五股區"
"234022","9380-KE","2019/11/07 13:43:37","新北市永和區中正路662巷10號","121.517511666667","25.0087633333333","6500400","永和區"
"234076","969-R7","2019/11/07 13:43:42","新北市永和區民權路3號","121.52026","24.9984333333333","6500400","永和區"
"234072","AAC-211","2019/11/07 13:43:32","新北市永和區竹林路179巷17弄1號","121.521201666667","25.0100066666667","6500400","永和區"
"234066","AAC-212","2019/11/07 13:43:37","新北市永和區永平路173巷14弄2號","121.510198333333","25.0085233333333","6500400","永和區"
"234001","AAC-295","2019/11/07 13:43:38","新北市永和區自由街53號","121.513713333333","25.0056733333333","6500400","永和區"
"244003","248-BX","2019/11/07 13:43:39","新北市林口區瑞平里8鄰56號","121.343695","25.1213316666667","6501700","林口區"
"243002","297-R6","2019/11/07 13:43:38","新北市泰山區辭修路48號","121.428555","25.05717","6501600","泰山區"
"243006","KEA-2801","2019/11/07 13:43:29","新北市泰山區黎明路33號","121.421886666667","25.0605683333333","6501600","泰山區"
"243008","421-VK","2019/11/07 13:43:04","新北市泰山區美寧街59號","121.430868333333","25.0660783333333","6501600","泰山區"
"243003","KEA-2216","2019/11/07 13:43:31","新北市泰山區公園路54號","121.42835","25.054825","6501600","泰山區"
"243007","680-BX","2019/11/07 13:43:41","新北市泰山區泰林路二段541號","121.423196666667","25.0637083333333","6501600","泰山區"
"231003","001-UM","2019/11/07 13:43:22","新北市新店區中興路一段264號","121.54481","24.9671966666667","6500600","新店區"
"231030","002-UM","2019/11/07 13:43:43","新北市新店區安康路一段223號","121.525691666667","24.963045","6500600","新店區"
"231027","0293-UT","2019/11/07 13:43:23","新北市新店區國校路68號","121.538585","24.9531733333333","6500600","新店區"
"231005","046-UY","2019/11/07 13:43:39","新北市新店區寶中路72號","121.547885","24.9806483333333","6500600","新店區"
"231029","106-UY","2019/11/07 13:43:27","新北市新店區安康路二段252號","121.509025","24.959055","6500600","新店區"
"231018","107-UY","2019/11/07 13:43:23","新北市新店區百忍街11號","121.534698333333","24.9755866666667","6500600","新店區"
"231013","108-UY","2019/11/07 13:43:25","新北市新店區二十張路83號","121.536921666667","24.98021","6500600","新店區"
"231036","110-UY","2019/11/07 13:43:34","新北市新店區安祥路147巷6號","121.475311666667","24.955625","6500600","新店區"
"231031","256-BX","2019/11/07 13:43:42","新北市新店區莒光路44巷21弄11-6號","121.51864","24.9522566666667","6500600","新店區"
"231023","260-TV","2019/11/07 13:43:39","新北市新店區新店路228號","121.537238333333","24.9568716666667","6500600","新店區"
"231035","278-BY","2019/11/07 13:43:38","新北市新店區安忠路57巷1-8號","121.513501666667","24.959255","6500600","新店區"
"231017","AAD-862","2019/11/07 13:43:24","新北市新店區竹林路2巷27弄11號","121.550923333333","24.950875","6500600","新店區"
"231006","355-BY","2019/11/07 13:43:42","新北市新店區北宜路一段2號","121.538021666667","24.9586216666667","6500600","新店區"
"231038","3712-VJ","2019/11/07 13:43:26","新北市新店區安華路30巷1號","121.519521666667","24.9593","6500600","新店區"
"231024","4716-K9","2019/11/07 13:43:41","新北市新店區華興街38巷3號","121.537166666667","24.969245","6500600","新店區"
"231025","4715-K9","2019/11/07 13:43:35","新北市新店區中央五街2號","121.530066666667","24.97398","6500600","新店區"
"231021","513-UM","2019/11/07 13:43:32","新北市新店區永興路125號","121.544176666667","24.9309433333333","6500600","新店區"
"231002","618-UM","2019/11/07 13:43:24","新北市新店區溪園路393號","121.524258333333","24.979005","6500600","新店區"
"231034","641-BX","2019/11/07 13:43:24","新北市新店區達觀路14巷5號","121.503815","24.9424116666667","6500600","新店區"
"231011","KED-0819","2019/11/07 13:43:21","新北市新店區德正街27巷29弄14號","121.5458","24.9719683333333","6500600","新店區"
"231010","719-UM","2019/11/07 13:43:33","新北市新店區平等街65號","121.53603","24.9724766666667","6500600","新店區"
"231026","720-UM","2019/11/07 13:43:25","新北市新店區中正路114號","121.542471666667","24.9710783333333","6500600","新店區"
"231028","897-TW","2019/11/07 13:43:27","新北市新店區安和路一段52巷2-1號","121.517653333333","24.9664","6500600","新店區"
"231001","898-TW","2019/11/07 13:43:39","新北市新店區中正路397號","121.534508333333","24.9772516666667","6500600","新店區"
"231004","899-TW","2019/11/07 13:43:37","新北市新店區北新路二段57號","121.542883333333","24.9731883333333","6500600","新店區"
"231037","AKT-0513","2019/11/07 13:43:30","新北市新店區安康路二段408號","121.496768333333","24.9552366666667","6500600","新店區"
"235030","003-UY","2019/11/07 13:43:41","新北市中和區光華街44號","121.50494","25.00363","6500300","中和區"
"235028","005-UY","2019/11/07 13:43:21","新北市中和區景平路549號","121.498565","24.9995733333333","6500300","中和區"
"235027","006-UY","2019/11/07 13:43:27","新北市中和區連城路317-1號","121.489218333333","24.9962233333333","6500300","中和區"
"235020","096-UM","2019/11/07 13:43:31","新北市中和區中正路1163號","121.481695","25.0092233333333","6500300","中和區"
"235003","097-UM","2019/11/07 13:43:22","新北市中和區大勇街29巷14號","121.515768333333","24.9947533333333","6500300","中和區"
"235029","098-UM","2019/11/07 13:43:29","新北市中和區中山路二段2巷45弄7號","121.502221666667","25.00674","6500300","中和區"
"235004","150-BY","2019/11/07 13:43:38","新北市中和區安平路59號","121.50954","24.9953433333333","6500300","中和區"
"235022","151-BY","2019/11/07 13:43:35","新北市中和區連城路428巷11號","121.479905","24.9954533333333","6500300","中和區"
"235019","183-VK","2019/11/07 13:43:36","新北市中和區民生街93-2號","121.468561666667","25.0047733333333","6500300","中和區"
"235002","185-VK","2019/11/07 13:43:38","新北市中和區立人街67號","121.520045","24.994275","6500300","中和區"
"235031","255-BX","2019/11/07 13:43:25","新北市中和區連城路340巷14弄2號","121.48339","24.9972883333333","6500300","中和區"
"235008","293-VK","2019/11/07 13:43:25","新北市中和區復興路280巷25號","121.5019","24.9916883333333","6500300","中和區"
"235006","KEA-2878","2019/11/07 13:43:36","新北市中和區秀朗路三段135巷8號","121.525355","24.9924216666667","6500300","中和區"
"235014","4979-A6","2019/11/07 13:43:31","新北市中和區景新街496巷30弄8號","121.513183333333","24.9856616666667","6500300","中和區"
"235033","4980-A6","2019/11/07 13:43:33","新北市中和區南山路111巷5號","121.502691666667","24.997845","6500300","中和區"
"235036","551-UM","2019/11/07 13:43:28","新北市中和區連城路2號","121.499325","25.0024833333333","6500300","中和區"
"235034","558-UM","2019/11/07 13:43:26","新北市中和區景平路620號","121.500521666667","24.99703","6500300","中和區"
"235009","565-BX","2019/11/07 13:43:31","新北市中和區景新街410巷2號","121.512591666667","24.9892066666667","6500300","中和區"
"235024","KED-0823","2019/11/07 13:43:30","新北市中和區民治街7巷1號","121.475036666667","25.004885","6500300","中和區"
"235018","640-BX","2019/11/07 13:43:35","新北市中和區民享街35巷5號","121.474571666667","25.004015","6500300","中和區"
"235035","647-TV","2019/11/07 13:43:27","新北市中和區光環路二段201-1號","121.486436666667","25.01374","6500300","中和區"
"235011","732-UM","2019/11/07 13:43:36","新北市中和區興南路二段111號","121.505718333333","24.9844466666667","6500300","中和區"
"235010","733-UM","2019/11/07 13:43:38","新北市中和區仁愛街36巷20號","121.51085","24.987355","6500300","中和區"
"235026","800-TS","2019/11/07 13:43:29","新北市中和區中山路二段340巷25號","121.493408333333","25.003375","6500300","中和區"
"235021","801-TS","2019/11/07 13:43:22","新北市中和區民安街53-5號","121.479483333333","24.9996933333333","6500300","中和區"
"235005","802-TS","2019/11/07 13:43:29","新北市中和區永貞路249巷10號","121.512545","25.0037616666667","6500300","中和區"
"235016","805-TS","2019/11/07 13:43:42","新北市中和區興南路三段61號","121.49328","24.9750833333333","6500300","中和區"
"235012","896-TW","2019/11/07 13:43:40","新北市中和區板南路100號","121.503916666667","24.9924366666667","6500300","中和區"
"235017","900-TW","2019/11/07 13:43:33","新北市中和區華順街103巷7號","121.465846666667","24.99735","6500300","中和區"
"235015","157-BY","2019/11/07 13:43:28","新北市中和區華新街109巷11弄2-4號","121.508758333333","24.9797016666667","6500300","中和區"
"235001","AAC-213","2019/11/07 13:43:39","新北市中和區秀朗路三段128巷25弄5號","121.524045","24.993885","6500300","中和區"
"235023","AAC-215","2019/11/07 13:43:34","新北市中和區錦和路201號","121.490835","24.9903266666667","6500300","中和區"
"220013","072-UY","2019/11/07 13:43:39","新北市板橋區成都街43號","121.461363333333","25.0048116666667","6500100","板橋區"
"220034","073-UY","2019/11/07 13:43:33","新北市板橋區南雅南路二段120-2號","121.452381666667","24.9999566666667","6500100","板橋區"
"220105","075-UY","2019/11/07 13:43:25","新北市板橋區民生路二段120號","121.470483333333","25.0195166666667","6500100","板橋區"
"220017","AAD-861","2019/11/07 13:43:37","新北市板橋區大華街70號","121.459085","25.0058683333333","6500100","板橋區"
"247023","500-BY","2019/11/07 13:43:22","新北市蘆洲區長樂路215號","121.461711666667","25.0890433333333","6501400","蘆洲區"
"247003","341-TH","2019/11/07 13:43:40","新北市蘆洲區長安街144號","121.460075","25.0822833333333","6501400","蘆洲區"
"247017","337-TH","2019/11/07 13:43:35","新北市蘆洲區中正路507號","121.461033333333","25.0976633333333","6501400","蘆洲區"
"247013","056-VK","2019/11/07 13:43:30","新北市蘆洲區環堤大道365號","121.458945","25.0977166666667","6501400","蘆洲區"
"235013","251-BX","2019/11/07 13:43:24","新北市中和區景安路132巷4弄2號","121.504808333333","24.9943933333333","6500300","中和區"
"228005","097-TW","2019/11/07 13:43:30","新北市貢寮區美豐里文秀坑2-2號","121.899563333333","25.0544666666667","6502600","貢寮區"
"228004","212-TW","2019/11/07 13:43:42","新北市貢寮區龍崗里嵩陽街8號","121.901848333333","25.010725","6502600","貢寮區"
"253003","6232-TK","2019/11/07 13:43:36","新北市石門區內石門14-2號","121.573675","25.277765","6502200","石門區"
"253004","6251-TK","2019/11/07 13:43:24","新北市石門區阿里荖60-1號","121.60772","25.2698516666667","6502200","石門區"
"253002","637-UY","2019/11/07 13:43:12","新北市石門區九芎林35-1號","121.567166666667","25.25629","6502200","石門區"
"253001","KEC-0718","2019/11/07 13:43:24","新北市石門區八甲60-5號","121.526461666667","25.2715166666667","6502200","石門區"
"207002","749-BX","2019/11/07 13:43:39","新北市萬里區崁腳里崁腳路166號","121.645078333333","25.1557733333333","6502800","萬里區"
"207001","662-BX","2019/11/07 13:43:43","新北市萬里區磺潭里公館崙17-1號","121.639745","25.2132766666667","6502800","萬里區"
"252005","AAC-283","2019/11/07 13:43:20","新北市三芝區圓山里內柑宅25-2號","121.536955","25.2254866666667","6502100","三芝區"
"236040","KED-0685","2019/11/07 13:43:34","新北市土城區城林路6巷80號","121.43853","24.9797916666667","6501300","土城區"
"236074","166-UM","2019/11/07 13:43:38","新北市土城區中華路二段168-1號","121.437425","24.9722516666667","6501300","土城區"
"236029","253-BX","2019/11/07 13:43:30","新北市土城區中華路二段2號","121.438766666667","24.97996","6501300","土城區"
"236012","270-VK","2019/11/07 13:43:38","新北市土城區城林路6巷80號","121.438645","24.97976","6501300","土城區"
"236032","271-VK","2019/11/07 13:43:37","新北市土城區城林路6巷80號","121.438518333333","24.979825","6501300","土城區"
"247011","KED-0683","2019/11/07 13:43:34","新北市五股區成洲一路23號","121.450203333333","25.096005","6501400","蘆洲區"
"236068","KEA-2877","2019/11/07 13:43:38","新北市土城區城林路6巷80號","121.438698333333","24.9797133333333","6501300","土城區"
"236017","401-BY","2019/11/07 13:43:34","新北市土城區城林路6巷80號","121.438621666667","24.9797683333333","6501300","土城區"
"236057","912-UM","2019/11/07 13:43:35","新北市土城區城林路6巷80號","121.438573333333","24.979695","6501300","土城區"
"236045","913-UM","2019/11/07 13:43:27","新北市土城區城林路6巷80號","121.438586666667","24.9796733333333","6501300","土城區"
"236060","915-UM","2019/11/07 13:43:37","新北市土城區城林路6巷80號","121.438506666667","24.9797766666667","6501300","土城區"
"220027","145-BY","2019/11/07 13:43:34","新北市板橋區南雅西路二段141號","121.452265","25.01165","6500100","板橋區"
"220028","200-UY","2019/11/07 13:43:37","新北市板橋區大觀路二段443-2號","121.441183333333","24.9951733333333","6500100","板橋區"
"220030","610-BX","2019/11/07 13:43:33","新北市板橋區篤行路二段57巷2號","121.431926666667","24.992405","6500100","板橋區"
"220004","276-BY","2019/11/07 13:43:37","新北市板橋區四川路一段147號","121.459916666667","25.0042333333333","6500100","板橋區"
"220020","277-BY","2019/11/07 13:43:37","新北市板橋區大觀路三段50巷49號","121.432236666667","24.995725","6500100","板橋區"
"220050","280-UM","2019/11/07 13:43:30","新北市板橋區民生路二段188號","121.470178333333","25.02024","6500100","板橋區"
"220043","283-UM","2019/11/07 13:43:38","新北市板橋區民生路二段120號","121.470315","25.0197833333333","6500100","板橋區"
"220019","283-VK","2019/11/07 13:43:25","新北市板橋區四川路一段331號","121.458561666667","25.000295","6500100","板橋區"
"220031","286-VK","2019/11/07 13:43:39","新北市板橋區大觀路二段5號","121.446948333333","25.00389","6500100","板橋區"
"220029","287-VK","2019/11/07 13:43:24","新北市板橋區南雅東路89號","121.453306666667","25.00868","6500100","板橋區"
"220039","288-VK","2019/11/07 13:43:28","新北市板橋區民生路三段107號","121.466566666667","25.0252183333333","6500100","板橋區"
"220009","293-UM","2019/11/07 13:43:28","新北市板橋區太和街6巷2號","121.473765","25.0200133333333","6500100","板橋區"
"220032","296-UM","2019/11/07 13:43:27","新北市板橋區大觀路二段148巷68號","121.441835","25.0008","6500100","板橋區"
"220023","303-R5","2019/11/07 13:43:40","新北市板橋區南雅南路二段120-2號","121.452291666667","25.0000683333333","6500100","板橋區"
"220010","305-R5","2019/11/07 13:43:23","新北市板橋區民生路二段120號","121.470563333333","25.019435","6500100","板橋區"
"220041","307-R5","2019/11/07 13:43:33","新北市板橋區漢生東路21-1號","121.464998333333","25.0170933333333","6500100","板橋區"
"220038","487-VK","2019/11/07 13:43:28","新北市板橋區文化路二段231號","121.471115","25.028475","6500100","板橋區"
"220037","491-VK","2019/11/07 13:43:34","新北市板橋區民生路二段148號","121.47145","25.019865","6500100","板橋區"
"220104","560-BX","2019/11/07 13:43:35","新北市板橋區大勇街56號","121.452488333333","25.01661","6500100","板橋區"
"220052","561-BX","2019/11/07 13:43:35","新北市板橋區民生路二段89-4號","121.471441666667","25.01862","6500100","板橋區"
"220040","637-BX","2019/11/07 13:43:42","新北市板橋區民生路二段89-6號","121.470596666667","25.0193483333333","6500100","板橋區"
"220005","686-BX","2019/11/07 13:43:38","新北市板橋區館前東路26號","121.46064","25.0071366666667","6500100","板橋區"
"220025","687-BX","2019/11/07 13:43:43","新北市板橋區大觀路三段133巷19號","121.432741666667","24.9944716666667","6500100","板橋區"
"220042","689-BX","2019/11/07 13:43:30","新北市板橋區民生路二段161巷1號","121.470216666667","25.019975","6500100","板橋區"
"220002","741-BX","2019/11/07 13:43:26","新北市板橋區縣民大道一段92-1號","121.456111666667","25.0048033333333","6500100","板橋區"
"220051","KEA-2699","2019/11/07 13:43:29","新北市板橋區民生路二段120號","121.47053","25.0200416666667","6500100","板橋區"
"220003","827-TW","2019/11/07 13:43:32","新北市板橋區忠孝路86號","121.461561666667","25.0020883333333","6500100","板橋區"
"220016","830-TW","2019/11/07 13:43:31","新北市板橋區萬板路163號","121.473993333333","25.0233983333333","6500100","板橋區"
"220022","895-R6","2019/11/07 13:43:33","新北市板橋區南門街53號","121.457118333333","25.00837","6500100","板橋區"
"220021","985-R7","2019/11/07 13:43:23","新北市板橋區館前西路50號","121.45843","25.0070666666667","6500100","板橋區"
"220046","AAC-210","2019/11/07 13:43:33","新北市板橋區民生路二段89-6號","121.470748333333","25.0190216666667","6500100","板橋區"
"220012","AAC-253","2019/11/07 13:43:30","新北市板橋區中山路一段293-2號","121.470791666667","25.0143933333333","6500100","板橋區"
"235032","KEA-2873","2019/11/07 13:43:37","新北市中和區圓通路289號","121.495088333333","24.992635","6500300","中和區"
"235025","KEA-2875","2019/11/07 13:43:26","新北市中和區民享街69巷3號","121.4745","25.0022283333333","6500300","中和區"
