"lineid","car","time","location","longitude","latitude","cityid","cityname"
"234078","298-R6","2019/11/07 14:30:06","新北市永和區永貞路16號","121.520883333333","25.007135","6500400","永和區"
"234062","337-UY","2019/11/07 14:30:09","新北市永和區中正路439號","121.517078333333","25.005205","6500400","永和區"
"234084","338-UY","2019/11/07 14:30:11","新北市永和區永和路二段334號","121.516338333333","25.0165733333333","6500400","永和區"
"234068","552-UM","2019/11/07 14:30:05","新北市永和區永亨路7號","121.519455","25.0056933333333","6500400","永和區"
"234028","746-BX","2019/11/07 14:30:10","新北市中和區景平路370號","121.510965","24.992895","6500400","永和區"
"234052","KEA-2590","2019/11/07 14:30:03","新北市永和區環河東路一段80號","121.519563333333","25.01643","6500400","永和區"
"234005","KED-0605","2019/11/07 14:29:58","新北市永和區中正路486號","121.517371666667","25.0038766666667","6500400","永和區"
"234060","AAD-866","2019/11/07 14:29:59","新北市永和區秀安街17號","121.516093333333","25.0036433333333","6500400","永和區"
"234040","862-TW","2019/11/07 14:30:06","新北市永和區安樂路330號","121.514468333333","25.00587","6500400","永和區"
"234048","863-TW","2019/11/07 14:30:02","新北市永和區新生路90號","121.507356666667","25.0149116666667","6500400","永和區"
"234025","9371-KE","2019/11/07 14:29:56","新北市中和區安平路220號","121.513858333333","25.000035","6500400","永和區"
"248015","026-BX","2019/11/07 14:30:05","新北市五股區成泰路四段22巷27-1號","121.455325","25.108015","6501500","五股區"
"248007","KED-0815","2019/11/07 14:30:02","新北市五股區中興路二段83巷26-6號","121.459943333333","25.0752783333333","6501500","五股區"
"248017","KED-0813","2019/11/07 14:30:10","新北市五股區外寮路13-1號","121.424863333333","25.08123","6501500","五股區"
"248011","247-BX","2019/11/07 14:30:04","新北市五股區成泰路一段235號","121.436043333333","25.0794766666667","6501500","五股區"
"248010","272-BY","2019/11/07 14:29:58","新北市五股區水碓一路23號","121.430571666667","25.0712883333333","6501500","五股區"
"248001","678-BX","2019/11/07 14:29:55","新北市五股區凌雲路一段43號","121.451605","25.1007183333333","6501500","五股區"
"234072","AAC-211","2019/11/07 14:29:52","新北市永和區環河東路一段124號","121.520686666667","25.01539","6500400","永和區"
"234001","AAC-295","2019/11/07 14:30:00","新北市永和區自強街19巷3號","121.51472","25.0084516666667","6500400","永和區"
"244003","248-BX","2019/11/07 14:29:59","新北市林口區太平里8-2號","121.36262","25.1343566666667","6501700","林口區"
"243004","AAD-798","2019/11/07 14:29:58","新北市泰山區明志路一段384號","121.430745","25.0574183333333","6501600","泰山區"
"243002","297-R6","2019/11/07 14:17:37","新北市泰山區明志路一段508號","121.43031","25.0541583333333","6501600","泰山區"
"243006","KEA-2801","2019/11/07 14:30:09","新北市泰山區中港西路418號","121.433966666667","25.0539366666667","6501600","泰山區"
"243008","421-VK","2019/11/07 14:30:14","新北市泰山區中山路三段19號","121.420018333333","25.03201","6501600","泰山區"
"243001","KEA-2215","2019/11/07 14:30:03","新北市五股區成泰路一段7巷3號","121.433543333333","25.0665283333333","6501600","泰山區"
"243003","KEA-2216","2019/11/07 14:29:51","新北市泰山區貴子路69號","121.43112","25.0399483333333","6501600","泰山區"
"243005","646-TV","2019/11/07 14:29:48","新北市泰山區貴子路14號","121.425396666667","25.0419833333333","6501600","泰山區"
"243007","680-BX","2019/11/07 14:30:01","新北市泰山區民權街57號","121.428943333333","25.0502633333333","6501600","泰山區"
"231003","001-UM","2019/11/07 14:30:02","新北市新店區中興路一段268-2號","121.545118333333","24.9678366666667","6500600","新店區"
"231030","002-UM","2019/11/07 14:30:06","新北市新店區安民街74號","121.516576666667","24.966835","6500600","新店區"
"231027","0293-UT","2019/11/07 14:30:03","新北市新店區中正路75巷71號","121.543073333333","24.9689933333333","6500600","新店區"
"231005","046-UY","2019/11/07 14:29:59","新北市新店區北新路二段268號","121.5428","24.9786783333333","6500600","新店區"
"231029","106-UY","2019/11/07 14:30:07","新北市新店區安康路二段380號","121.500595","24.9570533333333","6500600","新店區"
"231018","107-UY","2019/11/07 14:30:03","新北市新店區中央四街27號","121.528828333333","24.974405","6500600","新店區"
"231013","108-UY","2019/11/07 14:30:05","新北市新店區民權路88-4號","121.536455","24.9833466666667","6500600","新店區"
"231036","110-UY","2019/11/07 14:29:57","新北市新店區安祥路105號","121.478851666667","24.9620216666667","6500600","新店區"
"231031","256-BX","2019/11/07 14:30:08","新北市新店區安業街185號","121.5276","24.966425","6500600","新店區"
"231023","260-TV","2019/11/07 14:30:05","新北市新店區光明街189號","121.54013","24.963345","6500600","新店區"
"231035","278-BY","2019/11/07 14:29:58","新北市新店區安光路10-1號","121.513796666667","24.9641266666667","6500600","新店區"
"231017","AAD-862","2019/11/07 14:30:04","新北市新店區北宜路三段100號","121.579723333333","24.9504116666667","6500600","新店區"
"231006","355-BY","2019/11/07 14:30:02","新北市新店區北宜路二段521號","121.563481666667","24.953575","6500600","新店區"
"231038","3712-VJ","2019/11/07 14:30:06","新北市新店區溪洲路174號","121.529058333333","24.96555","6500600","新店區"
"231021","513-UM","2019/11/07 14:29:52","新北市新店區新烏路三段69號","121.555615","24.903995","6500600","新店區"
"231002","618-UM","2019/11/07 14:30:03","新北市新店區中央路67號","121.532535","24.9769016666667","6500600","新店區"
"231034","641-BX","2019/11/07 14:30:04","新北市新店區黎明路45號","121.501978333333","24.9495566666667","6500600","新店區"
"231011","KED-0819","2019/11/07 14:30:01","新北市新店區中興路二段236巷7號","121.547828333333","24.9759766666667","6500600","新店區"
"231028","897-TW","2019/11/07 14:30:06","新北市新店區安和路二段1-1號","121.517883333333","24.96693","6500600","新店區"
"231001","898-TW","2019/11/07 14:29:59","新北市新店區中正路75巷71號","121.543088333333","24.9687466666667","6500600","新店區"
"231004","899-TW","2019/11/07 14:29:57","新北市新店區中正路263-2號","121.538406666667","24.973755","6500600","新店區"
"235030","003-UY","2019/11/07 14:30:01","新北市中和區景新街48號","121.503721666667","24.99915","6500300","中和區"
"235028","005-UY","2019/11/07 14:30:01","新北市中和區圓通路21號","121.501433333333","24.9977766666667","6500300","中和區"
"235027","006-UY","2019/11/07 14:30:07","新北市中和區連城路165號","121.495616666667","24.9985666666667","6500300","中和區"
"235020","096-UM","2019/11/07 14:29:59","新北市中和區員山路581巷2弄1號","121.478015","25.0094116666667","6500300","中和區"
"235003","097-UM","2019/11/07 14:30:02","新北市中和區景平路314號","121.512371666667","24.9926883333333","6500300","中和區"
"235029","098-UM","2019/11/07 14:30:08","新北市中和區莊敬路25號","121.500146666667","25.004615","6500300","中和區"
"235004","150-BY","2019/11/07 14:29:58","新北市中和區宜安路1巷31號","121.512391666667","24.9941066666667","6500300","中和區"
"235022","151-BY","2019/11/07 14:29:55","新北市中和區員山路132巷20號","121.482238333333","24.99625","6500300","中和區"
"235019","183-VK","2019/11/07 14:29:56","新北市中和區德光路30號","121.47065","25.0044283333333","6500300","中和區"
"235002","185-VK","2019/11/07 14:29:58","新北市中和區自立路41號","121.522091666667","24.9951316666667","6500300","中和區"
"235031","255-BX","2019/11/07 14:30:05","新北市中和區新生街226號","121.483811666667","24.998325","6500300","中和區"
"235008","293-VK","2019/11/07 14:30:05","新北市中和區捷運路48-3號","121.507995","24.9904016666667","6500300","中和區"
"235006","KEA-2878","2019/11/07 14:29:55","新北市中和區中和路350巷8弄16號","121.510216666667","25.0001016666667","6500300","中和區"
"247015","KEA-2869","2019/11/07 14:29:53","新北市蘆洲區中正路185巷68弄13號","121.466483333333","25.0849866666667","6501400","蘆洲區"
"247009","KED-0682","2019/11/07 14:30:09","新北市蘆洲區鷺江街1號","121.479415","25.0827716666667","6501400","蘆洲區"
"235014","4979-A6","2019/11/07 14:30:03","新北市中和區中正路571巷2弄5號","121.486328333333","24.99377","6500300","中和區"
"235036","551-UM","2019/11/07 14:30:08","新北市中和區永和路52號","121.499165","25.0040466666667","6500300","中和區"
"235034","558-UM","2019/11/07 14:30:06","新北市中和區景平路634號","121.500238333333","24.9980966666667","6500300","中和區"
"235009","565-BX","2019/11/07 14:30:11","新北市中和區景新街426號","121.51301","24.9887366666667","6500300","中和區"
"235024","KED-0823","2019/11/07 14:30:10","新北市中和區新生街41號","121.483295","25.0032016666667","6500300","中和區"
"235018","640-BX","2019/11/07 14:29:55","新北市中和區國光街112巷14弄15號","121.47059","25.0013966666667","6500300","中和區"
"235035","647-TV","2019/11/07 14:30:08","新北市中和區中正路637巷52弄1號","121.485501666667","24.9939766666667","6500300","中和區"
"235011","732-UM","2019/11/07 14:29:56","新北市中和區景平路329巷2弄12號","121.505371666667","24.9929516666667","6500300","中和區"
"235010","733-UM","2019/11/07 14:29:58","新北市中和區忠孝街37巷52號","121.51108","24.98498","6500300","中和區"
"235026","800-TS","2019/11/07 14:30:08","新北市中和區建六路67巷18號","121.486711666667","25.002875","6500300","中和區"
"235021","801-TS","2019/11/07 14:30:02","新北市中和區員山路150-14號","121.481318333333","24.99773","6500300","中和區"
"235005","802-TS","2019/11/07 14:30:09","新北市中和區宜安路153號","121.508993333333","24.9987966666667","6500300","中和區"
"235016","805-TS","2019/11/07 14:30:02","新北市中和區華新街143巷47號","121.506328333333","24.98034","6500300","中和區"
"235012","896-TW","2019/11/07 14:30:00","新北市中和區忠孝街60巷2弄2號","121.511643333333","24.98374","6500300","中和區"
"235017","900-TW","2019/11/07 14:30:13","新北市中和區民德路197號","121.469065","24.9982383333333","6500300","中和區"
"235015","157-BY","2019/11/07 14:30:08","新北市中和區中興街132巷26號","121.498795","24.9916966666667","6500300","中和區"
"235001","AAC-213","2019/11/07 14:29:59","新北市中和區秀朗路三段50巷4弄4號","121.525696666667","24.9956883333333","6500300","中和區"
"235023","AAC-215","2019/11/07 14:29:54","新北市中和區圓通路337號","121.49187","24.99056","6500300","中和區"
"220013","072-UY","2019/11/07 14:30:07","新北市板橋區國泰街75巷45號","121.468296666667","25.00476","6500100","板橋區"
"220034","073-UY","2019/11/07 14:29:53","新北市板橋區中正路216巷11號","121.456375","25.0184766666667","6500100","板橋區"
"220105","075-UY","2019/11/07 14:30:05","新北市板橋區雙十路三段10巷1弄31號","121.471298333333","25.0317166666667","6500100","板橋區"
"220017","AAD-861","2019/11/07 14:30:09","新北市板橋區貴興路104號","121.455476666667","25.0024866666667","6500100","板橋區"
"220047","120-SR","2019/11/07 14:30:13","新北市板橋區民有街91號","121.464598333333","25.02758","6500100","板橋區"
"247005","893-R6","2019/11/07 14:29:55","新北市蘆洲區中華街103號","121.461323333333","25.0796583333333","6501400","蘆洲區"
"247019","546-UM","2019/11/07 14:30:06","新北市蘆洲區水湳街257號","121.469506666667","25.09244","6501400","蘆洲區"
"247023","500-BY","2019/11/07 14:30:02","新北市蘆洲區中正路263巷2號","121.467255","25.08754","6501400","蘆洲區"
"247003","341-TH","2019/11/07 14:30:00","新北市蘆洲區長安街283號","121.458351666667","25.0843583333333","6501400","蘆洲區"
"247017","337-TH","2019/11/07 14:29:54","新北市蘆洲區民族路364號","121.475896666667","25.0908783333333","6501400","蘆洲區"
"247013","056-VK","2019/11/07 14:29:50","新北市蘆洲區中山二路204號","121.470101666667","25.0802333333333","6501400","蘆洲區"
"247021","007-UY","2019/11/07 14:29:53","新北市蘆洲區三民路128巷47號","121.46979","25.0899633333333","6501400","蘆洲區"
"247007","002-UY","2019/11/07 14:29:50","新北市蘆洲區信義路83號","121.47689","25.0796416666667","6501400","蘆洲區"
"247001","001-UY","2019/11/07 14:30:00","新北市蘆洲區永樂街38巷33弄27號","121.457003333333","25.0896983333333","6501400","蘆洲區"
"235013","251-BX","2019/11/07 14:30:04","新北市中和區安平路22號","121.509253333333","24.99424","6500300","中和區"
"228005","097-TW","2019/11/07 14:30:10","新北市貢寮區美豐里巫里岸9-1號","121.901976666667","25.0701016666667","6502600","貢寮區"
"228004","212-TW","2019/11/07 14:30:02","新北市貢寮區雙玉里田寮洋街33-1號","121.932153333333","25.01376","6502600","貢寮區"
"253003","6232-TK","2019/11/07 14:29:56","新北市石門區尖子鹿11號","121.576705","25.2806583333333","6502200","石門區"
"253004","6251-TK","2019/11/07 14:30:03","新北市石門區內阿里磅31-2號","121.586846666667","25.2409583333333","6502200","石門區"
"253002","637-UY","2019/11/07 14:29:52","新北市石門區楓林35號","121.545401666667","25.2779683333333","6502200","石門區"
"253001","KEC-0718","2019/11/07 14:30:04","新北市石門區崁子腳84號","121.53341","25.2777116666667","6502200","石門區"
"207002","749-BX","2019/11/07 14:29:59","新北市萬里區溪底里香員林路17-1號","121.635603333333","25.1597383333333","6502800","萬里區"
"207001","662-BX","2019/11/07 14:30:03","新北市萬里區磺潭里清水18-2號","121.63854","25.198315","6502800","萬里區"
"252005","AAC-283","2019/11/07 14:30:00","新北市三芝區茂長里陳厝坑15號","121.516746666667","25.2552116666667","6502100","三芝區"
"236040","KED-0685","2019/11/07 14:29:56","新北市土城區學成路91巷2號","121.450866666667","24.9883233333333","6501300","土城區"
"236074","166-UM","2019/11/07 14:30:09","新北市土城區大暖路53-2號","121.42241","24.9586166666667","6501300","土城區"
"236029","253-BX","2019/11/07 14:30:10","新北市土城區中央路二段254號","121.441488333333","24.9748833333333","6501300","土城區"
"236024","269-VK","2019/11/07 14:30:08","新北市土城區承天路77號","121.440291666667","24.9627833333333","6501300","土城區"
"236012","270-VK","2019/11/07 14:29:58","新北市土城區青雲路39巷7號","121.46036","24.987555","6501300","土城區"
"236032","271-VK","2019/11/07 14:29:57","新北市土城區青山路2巷11號","121.461165","24.97653","6501300","土城區"
"247011","KED-0683","2019/11/07 14:29:54","新北市蘆洲區三民路89號","121.474475","25.0845433333333","6501400","蘆洲區"
"236068","KEA-2877","2019/11/07 14:29:58","新北市土城區永豐路358號","121.474275","24.9751233333333","6501300","土城區"
"236017","401-BY","2019/11/07 14:29:53","新北市土城區永豐路202巷14號","121.466161666667","24.983575","6501300","土城區"
"236057","912-UM","2019/11/07 14:29:55","新北市土城區中央路三段283號","121.426328333333","24.96329","6501300","土城區"
"236045","913-UM","2019/11/07 14:30:08","新北市土城區青雲路364號","121.45871","24.9739083333333","6501300","土城區"
"236060","915-UM","2019/11/07 14:29:57","新北市土城區延壽路77巷2號","121.469203333333","24.992655","6501300","土城區"
"236054","AAC-216","2019/11/07 14:30:05","新北市土城區中華路一段205號","121.442865","24.9848616666667","6501300","土城區"
"220027","145-BY","2019/11/07 14:29:54","新北市板橋區公館街84號","121.461155","25.0150883333333","6500100","板橋區"
"220028","200-UY","2019/11/07 14:29:56","新北市板橋區大觀路二段3巷87號","121.450126666667","25.0033083333333","6500100","板橋區"
"220030","610-BX","2019/11/07 14:29:53","新北市板橋區溪城路121-10號","121.4277","24.9823483333333","6500100","板橋區"
"220004","276-BY","2019/11/07 14:30:04","新北市板橋區信義路105-1號","121.457455","24.99366","6500100","板橋區"
"220020","277-BY","2019/11/07 14:29:57","新北市板橋區篤行路二段161巷13號","121.430098333333","24.9875816666667","6500100","板橋區"
"220050","280-UM","2019/11/07 14:30:10","新北市板橋區莊敬路220巷29弄2號","121.472746666667","25.0203933333333","6500100","板橋區"
"220043","283-UM","2019/11/07 14:29:58","新北市板橋區銘傳街39號","121.468698333333","25.0311","6500100","板橋區"
"220019","283-VK","2019/11/07 14:30:05","新北市板橋區忠孝路48巷28號","121.460876666667","25.0008183333333","6500100","板橋區"
"220001","285-VK","2019/11/07 14:30:01","新北市板橋區永豐街130號","121.477688333333","25.021255","6500100","板橋區"
"220031","286-VK","2019/11/07 14:29:59","新北市板橋區龍興街71巷31號","121.442491666667","25.0022733333333","6500100","板橋區"
"220029","287-VK","2019/11/07 14:30:04","新北市板橋區大觀路一段75巷39號","121.448921666667","25.00409","6500100","板橋區"
"220039","288-VK","2019/11/07 14:30:08","新北市板橋區新海路431巷1號","121.457773333333","25.027495","6500100","板橋區"
"220009","293-UM","2019/11/07 14:30:08","新北市板橋區漢生東路113巷11號","121.467716666667","25.0154333333333","6500100","板橋區"
"220032","296-UM","2019/11/07 14:30:08","新北市板橋區篤行路三段玉平巷95號","121.428005","24.9854716666667","6500100","板橋區"
"220023","303-R5","2019/11/07 14:30:00","新北市板橋區南雅西路一段63巷12號","121.45199","25.0081266666667","6500100","板橋區"
"220010","305-R5","2019/11/07 14:30:03","新北市板橋區三民路二段153巷2弄12-5號","121.479483333333","25.01436","6500100","板橋區"
"220041","307-R5","2019/11/07 14:29:53","新北市板橋區四維路137巷1弄21號","121.4653","25.0245183333333","6500100","板橋區"
"220038","487-VK","2019/11/07 14:30:08","新北市板橋區英士路199號","121.458655","25.0235716666667","6500100","板橋區"
"220037","491-VK","2019/11/07 14:29:54","新北市板橋區縣民大道三段153號","121.478381666667","25.0238933333333","6500100","板橋區"
"220104","560-BX","2019/11/07 14:30:09","新北市板橋區中正路415號","121.454146666667","25.022765","6500100","板橋區"
"220052","561-BX","2019/11/07 14:29:57","新北市板橋區陽明街29號","121.465298333333","25.0218833333333","6500100","板橋區"
"220040","637-BX","2019/11/07 14:30:02","新北市板橋區文聖街149巷18號","121.479326666667","25.0283433333333","6500100","板橋區"
"220005","686-BX","2019/11/07 14:30:11","新北市板橋區和平路58號","121.461006666667","24.9944183333333","6500100","板橋區"
"220025","687-BX","2019/11/07 14:30:06","新北市板橋區大觀路二段39號","121.446715","25.002955","6500100","板橋區"
"220042","689-BX","2019/11/07 14:30:10","新北市板橋區新海路370號","121.459411666667","25.0253816666667","6500100","板橋區"
"220002","741-BX","2019/11/07 14:30:11","新北市板橋區光明街16號","121.46013","25.0022433333333","6500100","板橋區"
"220051","KEA-2699","2019/11/07 14:30:08","新北市板橋區雙十路二段46巷20號","121.476235","25.0281133333333","6500100","板橋區"
"220003","827-TW","2019/11/07 14:29:52","新北市板橋區實踐路132號","121.464506666667","25.0026283333333","6500100","板橋區"
"220016","830-TW","2019/11/07 14:29:55","新北市板橋區萬安街23號","121.484568333333","25.0228383333333","6500100","板橋區"
"220014","831-TW","2019/11/07 14:30:08","新北市板橋區漢生東路315號","121.471971666667","25.008105","6500100","板橋區"
"220022","895-R6","2019/11/07 14:29:52","新北市板橋區北門街23-1號","121.456665","25.01112","6500100","板橋區"
"220021","985-R7","2019/11/07 14:30:12","新北市板橋區中正路370號","121.454551666667","25.024425","6500100","板橋區"
"220046","AAC-210","2019/11/07 14:30:13","新北市板橋區漢生西路58巷6號","121.463403333333","25.0188633333333","6500100","板橋區"
"220012","AAC-253","2019/11/07 14:30:10","新北市板橋區中山路一段48號","121.460886666667","25.0090416666667","6500100","板橋區"
"235032","KEA-2873","2019/11/07 14:30:07","新北市中和區莊敬路16巷6號","121.499966666667","25.004015","6500300","中和區"
"235025","KEA-2875","2019/11/07 14:29:56","新北市中和區員山路226巷7弄2號","121.48186","25.000505","6500300","中和區"
