"lineid","car","time","location","longitude","latitude","cityid","cityname"
"234062","337-UY","2019/11/07 14:44:09","新北市中和區光環路二段27號","121.487755","25.01335","6500400","永和區"
"234025","9371-KE","2019/11/07 14:43:54","新北市永和區雙和街3號","121.50979","25.0016816666667","6500400","永和區"
"248015","026-BX","2019/11/07 14:43:52","新北市五股區成泰路三段577巷80弄50號","121.449738333333","25.1048516666667","6501500","五股區"
"248007","KED-0815","2019/11/07 14:44:02","新北市五股區中興路一段169號","121.464665","25.0737833333333","6501500","五股區"
"248017","KED-0813","2019/11/07 14:31:11","新北市五股區外寮路13-1號","121.424863333333","25.0812316666667","6501500","五股區"
"248011","247-BX","2019/11/07 14:44:04","新北市五股區民義路一段212號","121.430551666667","25.0894483333333","6501500","五股區"
"248010","272-BY","2019/11/07 14:43:58","新北市五股區登林路79-7號","121.427205","25.0705183333333","6501500","五股區"
"248001","678-BX","2019/11/07 14:43:55","新北市五股區成泰路三段279號","121.447153333333","25.09418","6501500","五股區"
"234001","AAC-295","2019/11/07 14:43:59","新北市永和區中正路616巷1號","121.517283333333","25.0077716666667","6500400","永和區"
"244003","248-BX","2019/11/07 14:43:59","新北市林口區後坑35號","121.355488333333","25.1313366666667","6501700","林口區"
"243004","AAD-798","2019/11/07 14:43:58","新北市泰山區楓江路46巷1號","121.435178333333","25.0621983333333","6501600","泰山區"
"243002","297-R6","2019/11/07 14:35:17","新北市泰山區中華街11號","121.427725","25.05233","6501600","泰山區"
"243006","KEA-2801","2019/11/07 14:44:08","新北市泰山區明志路一段174號","121.43316","25.0625233333333","6501600","泰山區"
"243008","421-VK","2019/11/07 14:44:07","新北市泰山區新北大道六段330號","121.425431666667","25.0354383333333","6501600","泰山區"
"243001","KEA-2215","2019/11/07 14:44:03","新北市泰山區泰林路二段142巷7弄10號","121.43453","25.0605683333333","6501600","泰山區"
"243003","KEA-2216","2019/11/07 14:44:11","新北市泰山區明志路三段196巷54號","121.42153","25.0400916666667","6501600","泰山區"
"231003","001-UM","2019/11/07 14:44:02","新北市新店區中興路一段292號","121.545951666667","24.9690883333333","6500600","新店區"
"231030","002-UM","2019/11/07 14:44:03","新北市新店區安民街158號","121.516771666667","24.9701716666667","6500600","新店區"
"231027","0293-UT","2019/11/07 14:44:06","新北市新店區中正路102巷8弄1號","121.543651666667","24.9712416666667","6500600","新店區"
"231005","046-UY","2019/11/07 14:43:59","新北市新店區復興路44-2號","121.538546666667","24.9868133333333","6500600","新店區"
"231029","106-UY","2019/11/07 14:44:07","新北市新店區安康路三段275號","121.486161666667","24.9516133333333","6500600","新店區"
"231018","107-UY","2019/11/07 14:44:03","新北市新店區中央二街27號","121.528296666667","24.9737566666667","6500600","新店區"
"231013","108-UY","2019/11/07 14:44:05","新北市新店區北新路二段139巷12弄20號","121.542163333333","24.9760733333333","6500600","新店區"
"231036","110-UY","2019/11/07 14:43:55","新北市新店區安祥路106巷30號","121.477558333333","24.962025","6500600","新店區"
"231031","256-BX","2019/11/07 14:44:08","新北市新店區安康路二段320巷6號","121.50475","24.95985","6500600","新店區"
"231023","260-TV","2019/11/07 14:43:58","新北市新店區檳榔路109號","121.54446","24.9616866666667","6500600","新店區"
"231035","278-BY","2019/11/07 14:43:58","新北市新店區安和路二段68號","121.518316666667","24.9684066666667","6500600","新店區"
"231017","AAD-862","2019/11/07 14:44:04","新北市新店區北宜路三段221號","121.59233","24.9531116666667","6500600","新店區"
"231006","355-BY","2019/11/07 14:44:02","新北市新店區北宜路二段80巷2弄14號","121.551883333333","24.9530433333333","6500600","新店區"
"231038","3712-VJ","2019/11/07 14:44:06","新北市新店區安華路28-1號","121.519603333333","24.9609016666667","6500600","新店區"
"231024","4716-K9","2019/11/07 14:44:01","新北市新店區中華路83巷49號","121.538506666667","24.9675983333333","6500600","新店區"
"231021","513-UM","2019/11/07 14:44:12","新北市新店區桂山路38號","121.558326666667","24.9028933333333","6500600","新店區"
"231002","618-UM","2019/11/07 14:44:03","新北市新店區民權路125號","121.535621666667","24.9828016666667","6500600","新店區"
"231034","641-BX","2019/11/07 14:44:04","新北市新店區車子路3號","121.504595","24.9559116666667","6500600","新店區"
"231011","KED-0819","2019/11/07 14:44:01","新北市新店區寶橋路75號","121.545693333333","24.9752916666667","6500600","新店區"
"231028","897-TW","2019/11/07 14:44:06","新北市新店區安德街37號","121.511376666667","24.9625333333333","6500600","新店區"
"231001","898-TW","2019/11/07 14:43:59","新北市新店區中正路80號","121.543776666667","24.9703033333333","6500600","新店區"
"231004","899-TW","2019/11/07 14:43:57","新北市新店區民族路161號","121.53764","24.97684","6500600","新店區"
"231037","AKT-0513","2019/11/07 14:44:10","新北市新店區吉安街39號","121.515381666667","24.9663366666667","6500600","新店區"
"235030","003-UY","2019/11/07 14:44:01","新北市中和區中和路196巷9弄4號","121.505375","24.9990916666667","6500300","中和區"
"235027","006-UY","2019/11/07 14:44:07","新北市中和區連城路263巷23號","121.492631666667","24.9948216666667","6500300","中和區"
"235020","096-UM","2019/11/07 14:44:11","新北市中和區中山路三段120號","121.475465","25.0065483333333","6500300","中和區"
"235003","097-UM","2019/11/07 14:44:02","新北市永和區安樂路90號","121.514366666667","24.9987866666667","6500300","中和區"
"235029","098-UM","2019/11/07 14:44:08","新北市中和區福祥路85巷15號","121.498268333333","25.0055033333333","6500300","中和區"
"235004","150-BY","2019/11/07 14:43:58","新北市中和區安平路38號","121.509895","24.9949983333333","6500300","中和區"
"235022","151-BY","2019/11/07 14:43:55","新北市中和區員山路150巷2弄5號","121.481681666667","24.998135","6500300","中和區"
"235019","183-VK","2019/11/07 14:43:56","新北市中和區民德路10號","121.468776666667","25.0028083333333","6500300","中和區"
"235002","185-VK","2019/11/07 14:43:58","新北市中和區自強路64號","121.520005","24.99438","6500300","中和區"
"235008","293-VK","2019/11/07 14:44:05","新北市中和區南山路405號","121.506936666667","24.9899433333333","6500300","中和區"
"235006","KEA-2878","2019/11/07 14:43:55","新北市中和區宜安路176號","121.508726666667","24.9992166666667","6500300","中和區"
"247015","KEA-2869","2019/11/07 14:43:53","新北市蘆洲區正和街94號","121.468083333333","25.080815","6501400","蘆洲區"
"235034","558-UM","2019/11/07 14:44:06","新北市中和區連勝街67號","121.497386666667","24.9969983333333","6500300","中和區"
"235024","KED-0823","2019/11/07 14:44:10","新北市三重區重新路5段221巷6弄11-1號","121.478813333333","25.0519283333333","6500300","中和區"
"235018","640-BX","2019/11/07 14:43:55","新北市中和區莒光路65號","121.472333333333","25.0034633333333","6500300","中和區"
"235035","647-TV","2019/11/07 14:44:07","新北市中和區建一路198號","121.487796666667","24.9963033333333","6500300","中和區"
"235011","732-UM","2019/11/07 14:43:56","新北市中和區和平街97-1號","121.505238333333","24.9922433333333","6500300","中和區"
"235010","733-UM","2019/11/07 14:43:58","新北市中和區四維街37巷3號","121.51256","24.98682","6500300","中和區"
"235026","800-TS","2019/11/07 14:44:08","新北市中和區中山路二段327巷11弄11號","121.493981666667","25.0000966666667","6500300","中和區"
"235005","802-TS","2019/11/07 14:44:09","新北市中和區宜安路142號","121.509656666667","24.9984916666667","6500300","中和區"
"235016","805-TS","2019/11/07 14:44:02","新北市中和區華新街192巷10號","121.506565","24.9827583333333","6500300","中和區"
"235012","896-TW","2019/11/07 14:44:00","新北市中和區景新街418巷11弄15號","121.51275","24.9883233333333","6500300","中和區"
"235017","900-TW","2019/11/07 14:44:13","新北市中和區國光街186巷1號","121.46651","25.0019533333333","6500300","中和區"
"235015","157-BY","2019/11/07 14:44:08","新北市中和區復興路301巷18號","121.501278333333","24.9895766666667","6500300","中和區"
"235001","AAC-213","2019/11/07 14:43:59","新北市中和區自立路173號","121.523173333333","24.992225","6500300","中和區"
"235023","AAC-215","2019/11/07 14:43:54","新北市中和區圓通路305巷5弄44號","121.494815","24.9901733333333","6500300","中和區"
"220013","072-UY","2019/11/07 14:44:08","新北市板橋區國泰街28號","121.468558333333","25.0067716666667","6500100","板橋區"
"220034","073-UY","2019/11/07 14:44:06","新北市板橋區中正路216巷133號","121.460411666667","25.01952","6500100","板橋區"
"220105","075-UY","2019/11/07 14:44:05","新北市板橋區民治街57巷22號","121.480085","25.0338366666667","6500100","板橋區"
"220017","AAD-861","2019/11/07 14:43:57","新北市板橋區貴興路60號","121.45677","25.0030466666667","6500100","板橋區"
"220047","120-SR","2019/11/07 14:44:11","新北市板橋區民生路三段299巷15號","121.462933333333","25.0300866666667","6500100","板橋區"
"247005","893-R6","2019/11/07 14:43:55","新北市蘆洲區中華街71號","121.46225","25.0805783333333","6501400","蘆洲區"
"247019","546-UM","2019/11/07 14:44:06","新北市蘆洲區民義街68巷17號","121.473891666667","25.0897866666667","6501400","蘆洲區"
"247023","500-BY","2019/11/07 14:44:02","新北市蘆洲區中山二路222巷21弄23號","121.4686","25.0796766666667","6501400","蘆洲區"
"247003","341-TH","2019/11/07 14:44:00","新北市蘆洲區長安街307號","121.457636666667","25.085345","6501400","蘆洲區"
"247013","056-VK","2019/11/07 14:43:50","新北市蘆洲區成功路133號","121.472335","25.082345","6501400","蘆洲區"
"247021","007-UY","2019/11/07 14:43:54","新北市蘆洲區中正路476巷16號","121.463048333333","25.0957216666667","6501400","蘆洲區"
"247007","002-UY","2019/11/07 14:44:10","新北市蘆洲區信義路7號","121.47383","25.0792066666667","6501400","蘆洲區"
"247001","001-UY","2019/11/07 14:44:00","新北市蘆洲區長安街260號","121.45746","25.0865316666667","6501400","蘆洲區"
"235013","251-BX","2019/11/07 14:44:04","新北市中和區景平路385巷57號","121.501421666667","24.9943266666667","6500300","中和區"
"228005","097-TW","2019/11/07 14:44:10","新北市貢寮區美豐里雞母嶺街1號","121.90308","25.06455","6502600","貢寮區"
"228004","212-TW","2019/11/07 14:44:02","新北市貢寮區福隆里虎子山街28號","121.94521","25.0152016666667","6502600","貢寮區"
"253003","6232-TK","2019/11/07 14:43:56","新北市石門區尖子鹿103-3號","121.581015","25.2932366666667","6502200","石門區"
"253004","6251-TK","2019/11/07 14:44:03","新北市石門區內阿里磅25號","121.59224","25.24399","6502200","石門區"
"253002","637-UY","2019/11/07 14:38:52","新北市三芝區橫山里橫山39-5號","121.545745","25.2532466666667","6502200","石門區"
"253001","KEC-0718","2019/11/07 14:44:04","新北市石門區崁子腳53-2號","121.537338333333","25.2822283333333","6502200","石門區"
"207002","749-BX","2019/11/07 14:43:59","新北市萬里區崁腳里崁腳路73號","121.647608333333","25.1595633333333","6502800","萬里區"
"207001","662-BX","2019/11/07 14:43:23","新北市萬里區雙興里豐稟路22-1號","121.640071666667","25.1845183333333","6502800","萬里區"
"252005","AAC-283","2019/11/07 14:44:00","新北市三芝區埔坪里埔頭坑142-1號","121.513003333333","25.24771","6502100","三芝區"
"236040","KED-0685","2019/11/07 14:44:10","新北市土城區裕民路92巷27弄9號","121.449806666667","24.9855816666667","6501300","土城區"
"236074","166-UM","2019/11/07 14:43:58","新北市土城區中央路四段125巷15-2號","121.417045","24.956785","6501300","土城區"
"236029","253-BX","2019/11/07 14:44:12","新北市土城區忠義路26巷21號","121.43967","24.9697733333333","6501300","土城區"
"236024","269-VK","2019/11/07 14:44:08","新北市土城區農豐街12-1號","121.442468333333","24.9738933333333","6501300","土城區"
"236012","270-VK","2019/11/07 14:43:59","新北市土城區清水路278巷28弄2號","121.462636666667","24.982555","6501300","土城區"
"236032","271-VK","2019/11/07 14:43:57","新北市土城區明德路一段221巷9號","121.463736666667","24.9780566666667","6501300","土城區"
"247011","KED-0683","2019/11/07 14:43:54","新北市蘆洲區集賢路224巷37弄1號","121.480708333333","25.0879616666667","6501400","蘆洲區"
"236068","KEA-2877","2019/11/07 14:43:58","新北市土城區永豐路254-1號","121.4691","24.9795483333333","6501300","土城區"
"236017","401-BY","2019/11/07 14:43:53","新北市土城區延吉街253巷30號","121.467986666667","24.9836766666667","6501300","土城區"
"236057","912-UM","2019/11/07 14:43:55","新北市土城區金城路二段2巷5號","121.44728","24.97586","6501300","土城區"
"236045","913-UM","2019/11/07 14:44:08","新北市土城區青雲路95-1號","121.459188333333","24.9857216666667","6501300","土城區"
"236060","915-UM","2019/11/07 14:43:57","新北市土城區延壽路55巷7弄4號","121.46964","24.99165","6501300","土城區"
"236054","AAC-216","2019/11/07 14:44:05","新北市土城區裕民路140號","121.451775","24.9861566666667","6501300","土城區"
"220027","145-BY","2019/11/07 14:44:03","新北市板橋區民權路202巷13弄21號","121.458651666667","25.016215","6500100","板橋區"
"220028","200-UY","2019/11/07 14:43:56","新北市板橋區大觀路二段37巷332號","121.44999","25.0023833333333","6500100","板橋區"
"220030","610-BX","2019/11/07 14:44:13","新北市板橋區金門街215號","121.432413333333","24.9899233333333","6500100","板橋區"
"220004","276-BY","2019/11/07 14:44:04","新北市板橋區和平路21號","121.459606666667","24.9951283333333","6500100","板橋區"
"220020","277-BY","2019/11/07 14:43:57","新北市板橋區金門街215巷2弄28號","121.432401666667","24.9888633333333","6500100","板橋區"
"220050","280-UM","2019/11/07 14:44:10","新北市板橋區縣民大道三段93巷28號","121.47479","25.0225183333333","6500100","板橋區"
"220043","283-UM","2019/11/07 14:43:58","新北市板橋區陽明街269號","121.462266666667","25.025885","6500100","板橋區"
"220019","283-VK","2019/11/07 14:44:05","新北市板橋區和平路174巷1弄2號","121.464171666667","24.9950516666667","6500100","板橋區"
"220001","285-VK","2019/11/07 14:44:01","新北市板橋區民享街63號","121.476388333333","25.0153483333333","6500100","板橋區"
"220031","286-VK","2019/11/07 14:43:59","新北市板橋區僑中三街36號","121.445495","25.0052083333333","6500100","板橋區"
"220029","287-VK","2019/11/07 14:44:04","新北市板橋區大觀路一段29巷131弄12號","121.450653333333","25.005035","6500100","板橋區"
"220039","288-VK","2019/11/07 14:44:08","新北市板橋區龍泉街90巷3號","121.456145","25.0247916666667","6500100","板橋區"
"220009","293-UM","2019/11/07 14:44:08","新北市板橋區觀光街3巷1號","121.47187","25.0157","6500100","板橋區"
"220032","296-UM","2019/11/07 14:44:08","新北市板橋區滿平二街4號","121.425511666667","24.986385","6500100","板橋區"
"220023","303-R5","2019/11/07 14:44:00","新北市板橋區中正路242號","121.455668333333","25.019055","6500100","板橋區"
"220010","305-R5","2019/11/07 14:44:03","新北市板橋區三民路二段29巷31弄15號","121.482093333333","25.0178633333333","6500100","板橋區"
"220041","307-R5","2019/11/07 14:43:53","新北市板橋區裕民街145號","121.458786666667","25.027255","6500100","板橋區"
"220038","487-VK","2019/11/07 14:44:04","新北市板橋區龍泉街128號","121.456933333333","25.024035","6500100","板橋區"
"220037","491-VK","2019/11/07 14:44:04","新北市板橋區文化路二段382號","121.473211666667","25.0309683333333","6500100","板橋區"
"220104","560-BX","2019/11/07 14:43:55","新北市板橋區新生街98巷14號","121.458843333333","25.02174","6500100","板橋區"
"220052","561-BX","2019/11/07 14:43:57","新北市板橋區文化路一段421巷9號","121.46695","25.0228583333333","6500100","板橋區"
"220040","637-BX","2019/11/07 14:44:02","新北市板橋區懷德街139巷20弄1號","121.48011","25.0307183333333","6500100","板橋區"
"220005","686-BX","2019/11/07 14:43:58","新北市板橋區和平路安樂巷35號","121.461803333333","24.9933066666667","6500100","板橋區"
"220025","687-BX","2019/11/07 14:44:07","新北市板橋區僑中二街92巷1號","121.446383333333","25.0088083333333","6500100","板橋區"
"220042","689-BX","2019/11/07 14:44:10","新北市板橋區長江路二段59號","121.464623333333","25.0315183333333","6500100","板橋區"
"220002","741-BX","2019/11/07 14:44:05","新北市板橋區實踐路81號","121.463953333333","25.0057583333333","6500100","板橋區"
"220051","KEA-2699","2019/11/07 14:44:08","新北市板橋區仁化街64巷14號","121.475711666667","25.031515","6500100","板橋區"
"220003","827-TW","2019/11/07 14:43:52","新北市板橋區國慶路147號","121.461421666667","24.996065","6500100","板橋區"
"220016","830-TW","2019/11/07 14:44:11","新北市板橋區中山路二段416巷36-1號","121.483175","25.019835","6500100","板橋區"
"220014","831-TW","2019/11/07 14:43:59","新北市板橋區長安街255巷40號","121.472476666667","25.0112483333333","6500100","板橋區"
"220022","895-R6","2019/11/07 14:43:52","新北市板橋區府中路79號","121.45743","25.009505","6500100","板橋區"
"220021","985-R7","2019/11/07 14:44:03","新北市板橋區中正路316號","121.454846666667","25.0208016666667","6500100","板橋區"
"220046","AAC-210","2019/11/07 14:44:06","新北市板橋區光正街16巷5號","121.463038333333","25.0173816666667","6500100","板橋區"
"220012","AAC-253","2019/11/07 14:44:10","新北市板橋區公園街34巷2號","121.462448333333","25.0084","6500100","板橋區"
"235032","KEA-2873","2019/11/07 14:44:07","新北市中和區中山路二段258號","121.497365","25.0024416666667","6500300","中和區"
