"lineid","car","time","location","longitude","latitude","cityid","cityname"
"234046","148-BY","2019/11/07 18:44:10","新北市永和區永元路40巷51號","121.52408","25.000555","6500400","永和區"
"234081","298-R6","2019/11/07 18:44:08","新北市永和區林森路81號","121.52389","25.00386","6500400","永和區"
"234064","337-UY","2019/11/07 18:44:00","新北市永和區豫溪街217巷27號","121.524606666667","25.0104283333333","6500400","永和區"
"234086","338-UY","2019/11/07 18:43:57","新北市永和區中正路3-1號","121.513905","24.9954166666667","6500400","永和區"
"234017","745-BX","2019/11/07 18:44:04","新北市永和區環河西路一段1號","121.515465","25.018035","6500400","永和區"
"234030","746-BX","2019/11/07 18:43:58","新北市永和區得和路325號","121.523458333333","24.999645","6500400","永和區"
"234007","KED-0605","2019/11/07 18:43:55","新北市永和區文化路170號","121.511813333333","25.0155083333333","6500400","永和區"
"234013","KEA-2591","2019/11/07 18:44:03","新北市永和區保福路二段105號","121.510165","25.0133866666667","6500400","永和區"
"234061","AAD-866","2019/11/07 18:43:53","新北市永和區福和路1號","121.5255","25.0095183333333","6500400","永和區"
"234042","862-TW","2019/11/07 18:44:00","新北市永和區福和路191號","121.519691666667","25.0075633333333","6500400","永和區"
"234050","863-TW","2019/11/07 18:44:09","新北市永和區福和路1號","121.525506666667","25.0095366666667","6500400","永和區"
"234010","9373-KE","2019/11/07 18:43:55","新北市永和區仁愛路31巷2弄2號","121.51424","25.0129783333333","6500400","永和區"
"249005","172-UM","2019/11/07 18:44:04","新北市八里區長道坑14-1號","121.393806666667","25.1200766666667","6502300","八里區"
"249001","173-UM","2019/11/07 18:44:12","新北市八里區龍米路一段432號","121.450903333333","25.1339566666667","6502300","八里區"
"249004","303-UY","2019/11/07 18:43:59","新北市八里區龍米路三段60號","121.423638333333","25.1589966666667","6502300","八里區"
"249002","305-UY","2019/11/07 18:43:53","新北市八里區頂寮二街138號","121.449323333333","25.1294333333333","6502300","八里區"
"249003","593-UM","2019/11/07 18:36:33","新北市八里區博物館路10-1號","121.415093333333","25.1639583333333","6502300","八里區"
"248016","026-BX","2019/11/07 18:44:09","新北市五股區凌雲路一段133巷27-3號","121.448633333333","25.1008533333333","6501500","五股區"
"248008","KED-0815","2019/11/07 18:43:56","新北市五股區中興路一段151巷19號","121.46521","25.0724883333333","6501500","五股區"
"248020","KED-0813","2019/11/07 18:44:02","新北市五股區凌雲路三段田埔巷13號","121.435608333333","25.1207733333333","6501500","五股區"
"248002","678-BX","2019/11/07 18:44:04","新北市五股區西雲路245號","121.44917","25.0977866666667","6501500","五股區"
"234023","9380-KE","2019/11/07 18:44:09","新北市永和區豫溪街191巷7弄8號","121.52367","25.010735","6500400","永和區"
"234077","969-R7","2019/11/07 18:44:08","新北市永和區福和路213號","121.5192","25.0075733333333","6500400","永和區"
"234067","AAC-212","2019/11/07 18:44:05","新北市永和區永貞路102號","121.51912","25.0044383333333","6500400","永和區"
"234003","AAC-295","2019/11/07 18:43:52","新北市永和區環河東路二段92號","121.524213333333","25.0106","6500400","永和區"
"232011","375-UM","2019/11/07 18:44:02","新北市坪林區坪雙路一段41號","121.711698333333","24.9424383333333","6502000","坪林區"
"244007","080-UY","2019/11/07 18:44:09","新北市林口區太平里2鄰10號","121.3789","25.1144583333333","6501700","林口區"
"244019","402-UM","2019/11/07 18:44:09","新北市林口區麗園二街15號","121.379281666667","25.0695816666667","6501700","林口區"
"244013","KEA-2802","2019/11/07 18:44:10","新北市林口區麗園二街1巷3號","121.377036666667","25.0701","6501700","林口區"
"244023","483-VK","2019/11/07 18:43:54","新北市林口區中山路555號","121.38058","25.0811966666667","6501700","林口區"
"244017","485-VK","2019/11/07 18:44:01","新北市林口區文化二路一段20巷25弄61號","121.366085","25.0675966666667","6501700","林口區"
"244009","656-BX","2019/11/07 18:44:01","新北市林口區竹林路358巷18號","121.392901666667","25.0839583333333","6501700","林口區"
"244011","701-TV","2019/11/07 18:44:05","新北市林口區粉寮路一段15號","121.396396666667","25.0764833333333","6501700","林口區"
"244025","837-TS","2019/11/07 18:44:00","新北市林口區南勢六街238號","121.355726666667","25.0743016666667","6501700","林口區"
"244021","838-TS","2019/11/07 18:44:08","新北市林口區工六路19號","121.400393333333","25.0773333333333","6501700","林口區"
"243012","AAD-798","2019/11/07 18:43:59","新北市泰山區福興三街11號","121.434486666667","25.05779","6501600","泰山區"
"243010","297-R6","2019/11/07 18:44:11","新北市泰山區辭修路48號","121.42852","25.0571016666667","6501600","泰山區"
"243016","421-VK","2019/11/07 18:42:44","新北市泰山區泰林路二段437號","121.426105","25.0640166666667","6501600","泰山區"
"243009","KEA-2215","2019/11/07 18:43:59","新北市泰山區黎明路6-1號","121.42111","25.0617233333333","6501600","泰山區"
"243011","KEA-2216","2019/11/07 18:43:56","新北市泰山區全興路111號","121.433773333333","25.0564383333333","6501600","泰山區"
"243015","680-BX","2019/11/07 18:44:03","新北市泰山區憲訓路36號","121.429016666667","25.06463","6501600","泰山區"
"222003","436-BY","2019/11/07 18:44:07","新北市深坑區翠谷街17巷40號","121.625323333333","25.010135","6501800","深坑區"
"222002","659-BX","2019/11/07 18:43:56","新北市深坑區文山路一段69號","121.627025","25.001895","6501800","深坑區"
"231042","001-UM","2019/11/07 18:43:52","新北市新店區安華路28-1號","121.519613333333","24.9609983333333","6500600","新店區"
"231061","002-UM","2019/11/07 18:43:56","新北市新店區安華路28-1號","121.519816666667","24.9607166666667","6500600","新店區"
"231058","0293-UT","2019/11/07 18:44:09","新北市新店區新店路14號","121.538035","24.9525816666667","6500600","新店區"
"231044","046-UY","2019/11/07 18:44:13","新北市新店區北新路一段91號","121.538675","24.9617366666667","6500600","新店區"
"231060","106-UY","2019/11/07 18:44:01","新北市新店區安華路28-1號","121.519835","24.960975","6500600","新店區"
"231051","107-UY","2019/11/07 18:44:08","新北市新店區中央路234號","121.529398333333","24.9725716666667","6500600","新店區"
"231049","108-UY","2019/11/07 18:44:00","新北市新店區安康路一段33-1號","121.532261666667","24.9604833333333","6500600","新店區"
"231065","110-UY","2019/11/07 18:44:00","新北市新店區車子路18-1號","121.506256666667","24.9546366666667","6500600","新店區"
"231062","256-BX","2019/11/07 18:43:55","新北市新店區安一路一段1-1號","121.519706666667","24.961155","6500600","新店區"
"231054","260-TV","2019/11/07 18:44:07","新北市新店區安一路一段1-1號","121.519243333333","24.9612416666667","6500600","新店區"
"231064","278-BY","2019/11/07 18:44:08","新北市新店區安一路一段1-1號","121.519813333333","24.9611833333333","6500600","新店區"
"231050","AAD-862","2019/11/07 18:43:51","新北市新店區安華路28-1號","121.519985","24.9610866666667","6500600","新店區"
"231045","355-BY","2019/11/07 18:44:07","新北市新店區安華路28-1號","121.519116666667","24.9609116666667","6500600","新店區"
"231055","4716-K9","2019/11/07 18:43:53","新北市新店區中華路83巷67號","121.538366666667","24.9672816666667","6500600","新店區"
"231056","4715-K9","2019/11/07 18:43:54","新北市新店區大豐路68巷40號","121.538251666667","24.9802866666667","6500600","新店區"
"231067","4772-VM","2019/11/07 18:44:07","新北市新店區安華路1-1號","121.519053333333","24.960525","6500600","新店區"
"231052","513-UM","2019/11/07 18:43:51","新北市新店區永興路34號","121.543571666667","24.938765","6500600","新店區"
"231063","641-BX","2019/11/07 18:43:56","新北市新店區安華路28-1號","121.519683333333","24.9606033333333","6500600","新店區"
"231047","KED-0819","2019/11/07 18:43:58","新北市新店區安一路一段1-1號","121.51987","24.9611833333333","6500600","新店區"
"231046","719-UM","2019/11/07 18:43:55","新北市新店區直潭二街1號","121.535428333333","24.94313","6500600","新店區"
"231057","720-UM","2019/11/07 18:43:57","新北市新店區新烏路一段127-1號","121.54695","24.9368833333333","6500600","新店區"
"231059","897-TW","2019/11/07 18:43:55","新北市新店區安華路28-1號","121.519518333333","24.9607216666667","6500600","新店區"
"231040","898-TW","2019/11/07 18:44:03","新北市新店區安華路28-1號","121.519265","24.9607466666667","6500600","新店區"
"231043","899-TW","2019/11/07 18:43:59","新北市新店區安華路28-1號","121.51928","24.96089","6500600","新店區"
"231066","AKT-0513","2019/11/07 18:44:06","新北市新店區安華路1-1號","121.519618333333","24.9604583333333","6500600","新店區"
"235066","003-UY","2019/11/07 18:44:04","新北市中和區水源路34巷6號","121.504698333333","25.0031533333333","6500300","中和區"
"235064","005-UY","2019/11/07 18:43:53","新北市中和區泰和街40號","121.49915","24.9998916666667","6500300","中和區"
"235063","006-UY","2019/11/07 18:44:06","新北市中和區錦和路99號","121.490068333333","24.9954616666667","6500300","中和區"
"235056","096-UM","2019/11/07 18:43:57","新北市中和區員山路502號","121.479676666667","25.0073233333333","6500300","中和區"
"235039","097-UM","2019/11/07 18:44:06","新北市中和區安樂路143巷38弄1號","121.512858333333","24.9963966666667","6500300","中和區"
"235065","098-UM","2019/11/07 18:44:08","新北市中和區中山路二段2巷45弄12號","121.502111666667","25.0067183333333","6500300","中和區"
"235040","150-BY","2019/11/07 18:44:12","新北市中和區保健路106巷6弄19號","121.511261666667","24.9958083333333","6500300","中和區"
"235058","151-BY","2019/11/07 18:44:10","新北市中和區員山路143巷13號","121.480173333333","24.9959166666667","6500300","中和區"
"235055","183-VK","2019/11/07 18:44:10","新北市中和區民生街85巷1弄2號","121.468998333333","25.004505","6500300","中和區"
"235038","185-VK","2019/11/07 18:43:57","新北市中和區自強路62巷12號","121.519391666667","24.9945833333333","6500300","中和區"
"235067","255-BX","2019/11/07 18:43:59","新北市中和區中正路849巷1號","121.484635","25.002745","6500300","中和區"
"235044","293-VK","2019/11/07 18:44:08","新北市中和區復興路280巷38號","121.501356666667","24.9918483333333","6500300","中和區"
"235042","KEA-2878","2019/11/07 18:43:55","新北市中和區秀朗路三段135巷7弄14號","121.525725","24.99179","6500300","中和區"
"235050","4979-A6","2019/11/07 18:44:04","新北市中和區景新街496巷30弄17號","121.512945","24.9855383333333","6500300","中和區"
"235069","4980-A6","2019/11/07 18:43:57","新北市中和區南山路111巷16號","121.502628333333","24.9976833333333","6500300","中和區"
"235072","551-UM","2019/11/07 18:44:00","新北市永和區中山路一段334號","121.506143333333","25.00648","6500300","中和區"
"235070","558-UM","2019/11/07 18:44:09","新北市中和區中和路281號","121.5059","24.9996666666667","6500300","中和區"
"235045","565-BX","2019/11/07 18:43:51","新北市中和區興南路一段1號","121.511491666667","24.991195","6500300","中和區"
"235060","KED-0823","2019/11/07 18:43:58","新北市中和區中山路三段214號","121.471391666667","25.006515","6500300","中和區"
"235054","640-BX","2019/11/07 18:43:51","新北市中和區民享街35巷3號","121.474435","25.003925","6500300","中和區"
"235047","732-UM","2019/11/07 18:43:55","新北市中和區興南路二段34巷56弄1號","121.504866666667","24.985105","6500300","中和區"
"235046","733-UM","2019/11/07 18:43:52","新北市中和區仁愛街36巷28號","121.511013333333","24.9869916666667","6500300","中和區"
"235062","800-TS","2019/11/07 18:43:55","新北市中和區中山路二段356號","121.492836666667","25.0030066666667","6500300","中和區"
"235057","801-TS","2019/11/07 18:44:08","新北市中和區民利街14巷5弄20號","121.47976","24.9993316666667","6500300","中和區"
"235041","802-TS","2019/11/07 18:44:10","新北市中和區中安街218號","121.511955","24.9987766666667","6500300","中和區"
"235052","805-TS","2019/11/07 18:44:00","新北市中和區興南路二段399巷38號","121.499286666667","24.9788366666667","6500300","中和區"
"235048","896-TW","2019/11/07 18:43:52","新北市中和區南山路513號","121.507945","24.9874633333333","6500300","中和區"
"235053","900-TW","2019/11/07 18:44:11","新北市土城區和城路二段133-2號","121.475015","24.9890283333333","6500300","中和區"
"235051","157-BY","2019/11/07 18:43:52","新北市中和區華新街109巷22號","121.508276666667","24.98073","6500300","中和區"
"235037","AAC-213","2019/11/07 18:43:57","新北市中和區秀朗路三段128巷11號","121.524486666667","24.993255","6500300","中和區"
"235059","AAC-215","2019/11/07 18:44:00","新北市中和區錦和路356號","121.490636666667","24.9914166666667","6500300","中和區"
"220065","072-UY","2019/11/07 18:44:10","新北市板橋區成都街16號","121.460578333333","25.004755","6500100","板橋區"
"220086","073-UY","2019/11/07 18:44:00","新北市板橋區華東街328號","121.452825","25.0032516666667","6500100","板橋區"
"220106","075-UY","2019/11/07 18:44:03","新北市板橋區民生路二段236號","121.468451666667","25.0229566666667","6500100","板橋區"
"220069","AAD-861","2019/11/07 18:43:53","新北市板橋區大華街108號","121.459378333333","25.005315","6500100","板橋區"
"220098","120-SR","2019/11/07 18:43:58","新北市板橋區民生路二段89-6號","121.470771666667","25.0192716666667","6500100","板橋區"
"226004","312-R5","2019/11/07 18:43:58","新北市平溪區平溪里三坑路49-1號","121.731615","25.0317083333333","6502400","平溪區"
"235049","251-BX","2019/11/07 18:43:57","新北市中和區景安路132巷3號","121.504783333333","24.9943133333333","6500300","中和區"
"228003","097-TW","2019/11/07 18:44:10","新北市貢寮區和美里龍洞街1-5號","121.919206666667","25.1124216666667","6502600","貢寮區"
"228001","212-TW","2019/11/07 18:44:09","新北市貢寮區仁理村研海街12-1號","121.923758333333","25.0516933333333","6502600","貢寮區"
"228002","663-BX","2019/11/07 18:44:01","新北市貢寮區福隆里東興街6-11號","121.950763333333","25.0210633333333","6502600","貢寮區"
"224010","AGQ-8101","2019/11/07 18:44:08","新北市瑞芳區基山街29號","121.845453333333","25.1092466666667","6501200","瑞芳區"
"224006","676-BX","2019/11/07 18:44:10","新北市瑞芳區中正路79號","121.805426666667","25.1076066666667","6501200","瑞芳區"
"224007","285-BY","2019/11/07 18:44:12","新北市瑞芳區大埔路96號","121.762086666667","25.1008616666667","6501200","瑞芳區"
"224009","275-VK","2019/11/07 18:43:59","新北市瑞芳區祈堂路53-1號","121.859523333333","25.1104216666667","6501200","瑞芳區"
"224008","273-VK","2019/11/07 18:44:10","新北市瑞芳區瑞芳街139號","121.805156666667","25.1098666666667","6501200","瑞芳區"
"224005","271-BY","2019/11/07 18:44:05","新北市瑞芳區瑞濱路12號","121.826243333333","25.12146","6501200","瑞芳區"
"227001","642-TC","2019/11/07 18:44:06","新北市雙溪區牡丹里下坑11號","121.851005","25.0561733333333","6502500","雙溪區"
"227002","400-TW","2019/11/07 18:43:58","新北市雙溪區魚行里坤溪3-5號","121.876188333333","25.0208316666667","6502500","雙溪區"
"253005","032-BX","2019/11/07 18:44:02","新北市石門區中山路28-3號","121.565821666667","25.2899233333333","6502200","石門區"
"253006","295-VK","2019/11/07 18:43:52","新北市石門區八甲1-4號","121.520983333333","25.2836633333333","6502200","石門區"
"222001","KEA-2212","2019/11/07 18:44:06","新北市深坑區松柏街43巷2號","121.638763333333","25.0120833333333","6501800","深坑區"
"208002","KEA-2872","2019/11/07 18:43:55","新北市金山區仁愛路35號","121.636495","25.2194383333333","6502700","金山區"
"208003","665-BX","2019/11/07 18:44:00","新北市金山區中山路354號","121.633206666667","25.22548","6502700","金山區"
"251015","KEA-2871","2019/11/07 18:44:08","新北市淡水區興福寮66巷62號","121.487515","25.1628416666667","6501000","淡水區"
"251016","180-VK","2019/11/07 18:44:01","新北市淡水區下圭柔山56巷10號","121.446601666667","25.204835","6501000","淡水區"
"251008","181-VK","2019/11/07 18:43:55","新北市淡水區北投子17-1號","121.453958333333","25.1835683333333","6501000","淡水區"
"251013","182-VK","2019/11/07 18:43:57","新北市淡水區雲廣坑5號","121.475368333333","25.2131716666667","6501000","淡水區"
"251010","413-VK","2019/11/07 18:44:12","新北市淡水區沙崙路133號","121.422846666667","25.18261","6501000","淡水區"
"251012","441-VK","2019/11/07 18:44:01","新北市淡水區北新路121號","121.448971666667","25.178665","6501000","淡水區"
"251001","559-UM","2019/11/07 18:44:10","新北市淡水區自強路166號","121.465623333333","25.1341366666667","6501000","淡水區"
"251006","561-UM","2019/11/07 18:44:12","新北市淡水區濱海路一段306巷80號","121.440878333333","25.1928583333333","6501000","淡水區"
"251014","577-R6","2019/11/07 18:44:08","新北市淡水區崙頂12-8號","121.495583333333","25.2172083333333","6501000","淡水區"
"251011","650-BX","2019/11/07 18:43:53","新北市淡水區平遠街3號","121.447981666667","25.1677066666667","6501000","淡水區"
"251002","672-BX","2019/11/07 18:43:50","新北市淡水區中正東路71號","121.44731","25.1675016666667","6501000","淡水區"
"251003","673-BX","2019/11/07 18:43:57","新北市淡水區北新路69巷26號","121.446645","25.1801116666667","6501000","淡水區"
"207003","681-TV","2019/11/07 18:44:13","新北市萬里區野柳里港東路73號","121.688333333333","25.2050733333333","6502800","萬里區"
"207004","291-VK","2019/11/07 18:44:12","新北市萬里區萬里里獅頭路23號","121.693286666667","25.1782566666667","6502800","萬里區"
"252002","178-VK","2019/11/07 18:44:07","新北市三芝區民生街10號","121.5037","25.2572266666667","6502100","三芝區"
"252003","249-BX","2019/11/07 18:43:55","新北市三芝區後厝里大片頭83-6號","121.458533333333","25.2433433333333","6502100","三芝區"
"208001","170-UY","2019/11/07 18:44:10","新北市金山區文化三路66巷1號","121.63421","25.2256016666667","6502700","金山區"
"237004","KEA-2597","2019/11/07 18:43:59","新北市三峽區插角235號","121.411916666667","24.869345","6500900","三峽區"
"237007","153-BY","2019/11/07 18:44:02","新北市三峽區柑樹路2巷11號","121.36205","24.905065","6500900","三峽區"
"237009","210-TH","2019/11/07 18:44:04","新北市三峽區弘園街37號","121.367125","24.9276383333333","6500900","三峽區"
"237013","252-BX","2019/11/07 18:44:04","新北市三峽區光明路69巷25號","121.376638333333","24.92919","6500900","三峽區"
"237012","275-BY","2019/11/07 18:44:02","新北市三峽區三樹路340號","121.383993333333","24.9433283333333","6500900","三峽區"
"237008","302-VK","2019/11/07 18:44:09","新北市三峽區白雞33-61號","121.370916666667","24.9131","6500900","三峽區"
"237014","433-BY","2019/11/07 18:44:08","新北市三峽區復興路480巷15號","121.358613333333","24.9394","6500900","三峽區"
"237006","5529-G3","2019/11/07 18:43:53","新北市三峽區溪東路315巷102號","121.412281666667","24.931535","6500900","三峽區"
"237011","KEA-2596","2019/11/07 18:43:56","新北市三峽區溪東路416號","121.414893333333","24.92767","6500900","三峽區"
"237015","649-BX","2019/11/07 18:43:59","新北市三峽區成福路294號","121.428676666667","24.9234733333333","6500900","三峽區"
"237010","706-TV","2019/11/07 18:43:58","新北市三峽區復興路487號","121.361293333333","24.9384266666667","6500900","三峽區"
"237005","AKY-6261","2019/11/07 18:44:06","新北市三峽區民生街98號","121.374018333333","24.9355483333333","6500900","三峽區"
"236042","KED-0685","2019/11/07 18:43:58","新北市土城區裕民路86號","121.450086666667","24.9871116666667","6501300","土城區"
"220089","KED-0812","2019/11/07 18:44:01","新北市板橋區文化路二段80號","121.469465","25.0254316666667","6500100","板橋區"
"236078","166-UM","2019/11/07 18:44:02","新北市土城區中央路四段185巷53號","121.41654","24.955905","6501300","土城區"
"236030","253-BX","2019/11/07 18:44:10","新北市土城區慶樂街2號","121.439831666667","24.97257","6501300","土城區"
"236026","269-VK","2019/11/07 18:43:56","新北市土城區農豐街12-1號","121.442546666667","24.973885","6501300","土城區"
"236014","270-VK","2019/11/07 18:44:03","新北市土城區清水路278巷28弄2號","121.462631666667","24.9824933333333","6501300","土城區"
"236038","271-VK","2019/11/07 18:44:08","新北市土城區明德路一段235巷38號","121.46317","24.9774116666667","6501300","土城區"
"236070","KEA-2877","2019/11/07 18:44:06","新北市土城區永豐路148號","121.46494","24.9853883333333","6501300","土城區"
"252001","KED-0821","2019/11/07 18:44:03","新北市三芝區中正路三段5號","121.503016666667","25.25414","6502100","三芝區"
"236021","401-BY","2019/11/07 18:43:54","新北市土城區延吉街253巷15號","121.46781","24.9841633333333","6501300","土城區"
"236059","912-UM","2019/11/07 18:44:08","新北市土城區中央路三段99-6號","121.436351666667","24.9668116666667","6501300","土城區"
"236049","913-UM","2019/11/07 18:43:56","新北市土城區金城路三段4號","121.464553333333","24.98587","6501300","土城區"
"236063","915-UM","2019/11/07 18:44:12","新北市土城區延壽路55巷7弄2號","121.469545","24.9916933333333","6501300","土城區"
"236055","AAC-216","2019/11/07 18:44:09","新北市土城區裕民路145號","121.45187","24.9862233333333","6501300","土城區"
"242061","986-R7","2019/11/07 18:44:04","新北市新莊區民安路188巷4號","121.42521","25.023525","6500500","新莊區"
"242058","612-BX","2019/11/07 18:44:00","新北市新莊區中正路881-5號","121.417443333333","25.0254783333333","6500500","新莊區"
"242002","441-UM","2019/11/07 18:43:58","新北市新莊區瓊林路59-66號","121.44156","25.022935","6500500","新莊區"
"238023","601-UM","2019/11/07 18:44:09","新北市樹林區三福街114號","121.40642","25.0162616666667","6500700","樹林區"
"238024","5061-A6","2019/11/07 18:43:55","新北市樹林區大安路593號","121.411856666667","24.982945","6500700","樹林區"
"238018","KEA-2217","2019/11/07 18:44:07","新北市樹林區鎮前街165號","121.4222","24.987175","6500700","樹林區"
"238022","KEA-2213","2019/11/07 18:43:57","新北市樹林區中華路393號","121.41139","24.9804533333333","6500700","樹林區"
"238020","268-VK","2019/11/07 18:44:06","新北市樹林區三俊街252巷25號","121.420971666667","25.013815","6500700","樹林區"
"238026","172-UY","2019/11/07 18:44:05","新北市樹林區育德街78-1號","121.388045","24.9681066666667","6500700","樹林區"
"238016","169-UY","2019/11/07 18:21:49","新北市樹林區中山路二段34號","121.417356666667","24.9851583333333","6500700","樹林區"
"239008","527-UM","2019/11/07 18:44:08","新北市鶯歌區朝陽街1號","121.336273333333","24.9765683333333","6500800","鶯歌區"
"239005","526-UM","2019/11/07 18:44:06","新北市鶯歌區鶯桃路二段50號","121.325305","24.9727516666667","6500800","鶯歌區"
"239001","417-VK","2019/11/07 18:44:06","新北市鶯歌區國中街197號","121.338211666667","24.9391716666667","6500800","鶯歌區"
"239003","360-BY","2019/11/07 18:44:11","新北市鶯歌區福安街58號","121.33561","24.9652","6500800","鶯歌區"
"239002","359-BY","2019/11/07 18:43:56","新北市鶯歌區中山路109號","121.350223333333","24.9569216666667","6500800","鶯歌區"
"239004","193-VK","2019/11/07 18:44:10","新北市鶯歌區尖山路240巷18號","121.342546666667","24.94712","6500800","鶯歌區"
"221036","130-UY","2019/11/07 18:43:54","新北市汐止區長興街一段50號","121.670603333333","25.0792616666667","6501100","汐止區"
"221015","131-UY","2019/11/07 18:44:11","新北市汐止區鄉友街30號","121.66876","25.081235","6501100","汐止區"
"221010","269-BY","2019/11/07 18:44:07","新北市汐止區汐萬路三段288號","121.640826666667","25.1089016666667","6501100","汐止區"
"221012","278-VK","2019/11/07 18:44:09","新北市汐止區保長路147巷2號","121.677153333333","25.0767216666667","6501100","汐止區"
"221032","280-BY","2019/11/07 18:43:56","新北市汐止區民權街二段93號","121.618995","25.04747","6501100","汐止區"
"221029","298-VK","2019/11/07 18:44:03","新北市汐止區樟樹一路97號","121.641983333333","25.0635866666667","6501100","汐止區"
"221021","299-VK","2019/11/07 18:43:57","新北市汐止區新台五路一段160號","121.654326666667","25.0624433333333","6501100","汐止區"
"221031","353-TW","2019/11/07 18:43:59","新北市汐止區中興路25號","121.636923333333","25.05968","6501100","汐止區"
"221035","622-UM","2019/11/07 18:43:58","新北市汐止區大同路二段179號","121.652036666667","25.064195","6501100","汐止區"
"221025","623-UM","2019/11/07 18:44:09","新北市汐止區仁愛路119巷20號","121.662125","25.0644","6501100","汐止區"
"221033","647-BX","2019/11/07 18:43:54","新北市汐止區宜興街1號","121.620795","25.0411816666667","6501100","汐止區"
"221002","707-TV","2019/11/07 18:43:57","新北市汐止區大同路一段233-1號","121.634506666667","25.0577583333333","6501100","汐止區"
"221018","753-BX","2019/11/07 18:44:02","新北市汐止區茄苳路224巷3弄23號","121.671286666667","25.068115","6501100","汐止區"
"220079","145-BY","2019/11/07 18:44:07","新北市板橋區南雅西路二段175巷2號","121.451581666667","25.012495","6500100","板橋區"
"220080","200-UY","2019/11/07 18:44:01","新北市板橋區大觀路二段265巷76弄23號","121.44169","24.99669","6500100","板橋區"
"220082","610-BX","2019/11/07 18:44:09","新北市板橋區篤行路二段31號","121.431808333333","24.9925816666667","6500100","板橋區"
"224002","257-TC","2019/11/07 18:44:06","新北市瑞芳區三爪子坑路9號","121.813995","25.1076883333333","6501200","瑞芳區"
"220056","276-BY","2019/11/07 18:44:12","新北市板橋區四川路一段158號","121.460013333333","25.0033166666667","6500100","板橋區"
"220072","277-BY","2019/11/07 18:44:09","新北市板橋區大觀路三段68號","121.433123333333","24.994985","6500100","板橋區"
"220101","280-UM","2019/11/07 18:44:09","新北市板橋區文化路二段26號","121.468985","25.024475","6500100","板橋區"
"220094","283-UM","2019/11/07 18:44:00","新北市板橋區民生路二段89-6號","121.4706","25.019245","6500100","板橋區"
"220071","283-VK","2019/11/07 18:44:07","新北市板橋區四川路一段281號","121.459373333333","25.0019116666667","6500100","板橋區"
"220053","285-VK","2019/11/07 18:44:01","新北市板橋區民生路二段80號","121.471998333333","25.01845","6500100","板橋區"
"220083","286-VK","2019/11/07 18:44:13","新北市板橋區大觀路二段22號","121.446493333333","25.003295","6500100","板橋區"
"220081","287-VK","2019/11/07 18:43:54","新北市板橋區大觀路一段31號","121.449818333333","25.0084733333333","6500100","板橋區"
"220090","288-VK","2019/11/07 18:44:07","新北市板橋區民生路三段105號","121.466566666667","25.0251733333333","6500100","板橋區"
"220061","293-UM","2019/11/07 18:43:57","新北市板橋區永豐街89巷5弄4號","121.472926666667","25.01961","6500100","板橋區"
"220084","296-UM","2019/11/07 18:44:05","新北市板橋區大觀路二段148巷15號","121.441866666667","24.9999366666667","6500100","板橋區"
"220075","303-R5","2019/11/07 18:44:05","新北市板橋區南雅西路二段95巷18號","121.451771666667","25.010385","6500100","板橋區"
"220062","305-R5","2019/11/07 18:43:55","新北市板橋區民生路二段120號","121.470463333333","25.0195816666667","6500100","板橋區"
"220092","307-R5","2019/11/07 18:44:04","新北市板橋區漢生東路21號","121.465046666667","25.0172133333333","6500100","板橋區"
"220088","491-VK","2019/11/07 18:44:01","新北市板橋區民生路二段56-6號","121.470983333333","25.01911","6500100","板橋區"
"220035","560-BX","2019/11/07 18:44:02","新北市板橋區南雅西路二段261號","121.451783333333","25.0148533333333","6500100","板橋區"
"220103","561-BX","2019/11/07 18:44:02","新北市板橋區縣民大道二段279號","121.469923333333","25.0178033333333","6500100","板橋區"
"220091","637-BX","2019/11/07 18:43:56","新北市板橋區民生路二段120號","121.470963333333","25.0194633333333","6500100","板橋區"
"220057","686-BX","2019/11/07 18:44:05","新北市板橋區館前東路80號","121.461683333333","25.007455","6500100","板橋區"
"220077","687-BX","2019/11/07 18:44:10","新北市板橋區大觀路二段170號","121.440981666667","24.998725","6500100","板橋區"
"220093","689-BX","2019/11/07 18:44:07","新北市板橋區民生路二段161巷1號","121.470066666667","25.020155","6500100","板橋區"
"220054","741-BX","2019/11/07 18:44:01","新北市板橋區縣民大道一段92-1號","121.456108333333","25.00475","6500100","板橋區"
"220102","KEA-2699","2019/11/07 18:44:13","新北市板橋區民生路二段120號","121.470371666667","25.0199283333333","6500100","板橋區"
"220055","827-TW","2019/11/07 18:44:03","新北市板橋區實踐路132號","121.464408333333","25.0025916666667","6500100","板橋區"
"220068","830-TW","2019/11/07 18:44:02","新北市板橋區莒光路165巷4-4號","121.474163333333","25.02402","6500100","板橋區"
"220067","831-TW","2019/11/07 18:44:00","新北市板橋區三民路二段正隆巷59號","121.476613333333","25.0134","6500100","板橋區"
"220074","895-R6","2019/11/07 18:44:03","新北市板橋區南雅南路一段8-5號","121.456003333333","25.0064216666667","6500100","板橋區"
"220073","985-R7","2019/11/07 18:43:54","新北市板橋區華興街49號","121.457741666667","25.0046133333333","6500100","板橋區"
"220097","AAC-210","2019/11/07 18:43:55","新北市板橋區民生路三段111號","121.466478333333","25.02533","6500100","板橋區"
"220064","AAC-253","2019/11/07 18:43:56","新北市板橋區中山路二段18號","121.472408333333","25.0150416666667","6500100","板橋區"
"235068","KEA-2873","2019/11/07 18:44:09","新北市中和區中正路213號","121.49696","24.9936883333333","6500300","中和區"
"235061","KEA-2875","2019/11/07 18:44:11","新北市中和區民治街19巷2號","121.475271666667","25.0025666666667","6500300","中和區"
