"lineid","car","time","location","longitude","latitude","cityid","cityname"
"234046","148-BY","2019/11/07 20:28:09","新北市新店區安民街35巷9弄12號","121.514761666667","24.9656016666667","6500400","永和區"
"234081","298-R6","2019/11/07 20:28:08","新北市永和區國中路146號","121.523103333333","25.0069916666667","6500400","永和區"
"234038","336-UY","2019/11/07 20:27:52","新北市永和區民樂街31巷17弄2號","121.528663333333","25.0019883333333","6500400","永和區"
"234064","337-UY","2019/11/07 20:28:00","新北市永和區中正路401號","121.517238333333","25.004455","6500400","永和區"
"234086","338-UY","2019/11/07 20:28:00","新北市永和區永和路二段290號","121.516033333333","25.01558","6500400","永和區"
"234070","552-UM","2019/11/07 20:28:01","新北市永和區永亨路7號","121.5194","25.0057283333333","6500400","永和區"
"234030","746-BX","2019/11/07 20:27:58","新北市新店區安興路69-1號","121.515748333333","24.9751716666667","6500400","永和區"
"234054","KEA-2590","2019/11/07 20:28:06","新北市永和區環河東路一段36號","121.5184","25.017215","6500400","永和區"
"234013","KEA-2591","2019/11/07 20:28:03","新北市永和區仁愛路284號","121.50332","25.0085633333333","6500400","永和區"
"234061","AAD-866","2019/11/07 20:27:52","新北市永和區安樂路194巷39弄2號","121.516533333333","25.001285","6500400","永和區"
"234042","862-TW","2019/11/07 20:28:00","新北市永和區安樂路240號","121.514896666667","25.0027166666667","6500400","永和區"
"234050","863-TW","2019/11/07 20:28:08","新北市永和區新生路88號","121.507346666667","25.0149633333333","6500400","永和區"
"249001","173-UM","2019/11/07 20:28:02","新北市八里區商港路48號","121.396208333333","25.1453883333333","6502300","八里區"
"249004","303-UY","2019/11/07 20:28:08","新北市八里區中山路一段129巷19-1號","121.413926666667","25.15859","6502300","八里區"
"249002","305-UY","2019/11/07 20:27:53","新北市八里區龍米路二段121-3號","121.447031666667","25.1436416666667","6502300","八里區"
"249003","593-UM","2019/11/07 20:28:08","新北市八里區華峰一街27-1號","121.399186666667","25.1465666666667","6502300","八里區"
"248002","678-BX","2019/11/07 20:28:04","新北市五股區成泰路三段43-7號","121.442501666667","25.0890216666667","6501500","五股區"
"234023","9380-KE","2019/11/07 20:28:09","新北市永和區博愛街32巷17-1號","121.518925","25.0152733333333","6500400","永和區"
"234074","AAC-211","2019/11/07 20:28:06","新北市永和區環河東路二段102號","121.524265","25.0103166666667","6500400","永和區"
"234067","AAC-212","2019/11/07 20:28:05","新北市永和區保平路292巷46弄2號","121.507481666667","25.0053916666667","6500400","永和區"
"234003","AAC-295","2019/11/07 20:27:52","新北市永和區中正路618號","121.517","25.0076716666667","6500400","永和區"
"243012","AAD-798","2019/11/07 20:27:58","新北市泰山區楓樹街33巷29號","121.434758333333","25.06356","6501600","泰山區"
"243014","KEA-2801","2019/11/07 20:28:01","新北市泰山區泰林路二段445號","121.42588","25.0640816666667","6501600","泰山區"
"243016","421-VK","2019/11/07 20:28:11","新北市泰山區明志路二段210-2號","121.427371666667","25.04907","6501600","泰山區"
"243009","KEA-2215","2019/11/07 20:27:58","新北市泰山區忠孝街41巷2號","121.428686666667","25.0654683333333","6501600","泰山區"
"243011","KEA-2216","2019/11/07 20:27:56","新北市泰山區漢口街50號","121.424121666667","25.0362883333333","6501600","泰山區"
"243013","646-TV","2019/11/07 20:27:54","新北市泰山區中央路5巷14號","121.42717","25.0432566666667","6501600","泰山區"
"243015","680-BX","2019/11/07 20:28:03","新北市泰山區仁德路127號","121.432598333333","25.05611","6501600","泰山區"
"222003","436-BY","2019/11/07 20:28:07","新北市深坑區深坑街45號","121.615418333333","25.0018566666667","6501800","深坑區"
"222002","659-BX","2019/11/07 20:27:36","新北市深坑區萬福路16巷36-1號","121.612198333333","25.0085083333333","6501800","深坑區"
"231042","001-UM","2019/11/07 20:28:12","新北市新店區寶橋路236號","121.551555","24.9788766666667","6500600","新店區"
"231061","002-UM","2019/11/07 20:27:56","新北市新店區安興路33-1號","121.515841666667","24.970385","6500600","新店區"
"231058","0293-UT","2019/11/07 20:28:09","新北市新店區溪園路389-12號","121.52325","24.9789083333333","6500600","新店區"
"231044","046-UY","2019/11/07 20:28:13","新北市新店區建國路132號","121.53909","24.9789016666667","6500600","新店區"
"231060","106-UY","2019/11/07 20:28:01","新北市新店區錦秀路11巷96弄2號","121.480098333333","24.9421116666667","6500600","新店區"
"231051","107-UY","2019/11/07 20:28:08","新北市新店區中央七街79號","121.527226666667","24.9767716666667","6500600","新店區"
"231049","108-UY","2019/11/07 20:28:05","新北市新店區永業路81巷3弄1號","121.529795","24.949215","6500600","新店區"
"231065","110-UY","2019/11/07 20:28:00","新北市新店區安祥路102巷46弄87號","121.487283333333","24.963215","6500600","新店區"
"231068","187-VK","2019/11/07 20:28:08","新北市新店區民權路9號","121.542443333333","24.9828416666667","6500600","新店區"
"231062","256-BX","2019/11/07 20:27:54","新北市新店區安泰路7巷17號","121.485656666667","24.9506166666667","6500600","新店區"
"231054","260-TV","2019/11/07 20:28:07","新北市新店區檳榔路109號","121.54447","24.96151","6500600","新店區"
"231064","278-BY","2019/11/07 20:28:08","新北市新店區新和街59巷17號","121.51934","24.9860416666667","6500600","新店區"
"231050","AAD-862","2019/11/07 20:28:11","新北市新店區建興街9巷1號","121.539856666667","24.976305","6500600","新店區"
"231045","355-BY","2019/11/07 20:28:07","新北市新店區新坡一街17號","121.549528333333","24.9629533333333","6500600","新店區"
"231055","4716-K9","2019/11/07 20:28:13","新北市新店區北新路一段72號","121.541576666667","24.9673983333333","6500600","新店區"
"231056","4715-K9","2019/11/07 20:28:14","新北市新店區民生路75巷225-2號","121.533258333333","24.9809633333333","6500600","新店區"
"231067","4772-VM","2019/11/07 20:28:07","新北市新店區安華路28-1號","121.519676666667","24.9608816666667","6500600","新店區"
"231052","513-UM","2019/11/07 20:28:09","新北市新店區松林路16巷31號","121.545815","24.9102333333333","6500600","新店區"
"231041","618-UM","2019/11/07 20:28:09","新北市新店區民權路131號","121.535158333333","24.9825716666667","6500600","新店區"
"231063","641-BX","2019/11/07 20:27:56","新北市新店區安康路二段382號","121.500448333333","24.95711","6500600","新店區"
"231047","KED-0819","2019/11/07 20:27:58","新北市新店區寶元路一段15巷11號","121.542013333333","24.9872133333333","6500600","新店區"
"231057","720-UM","2019/11/07 20:27:59","新北市新店區花園十路二段3號","121.555075","24.93393","6500600","新店區"
"231059","897-TW","2019/11/07 20:27:55","新北市新店區安德街116巷40號","121.508513333333","24.96122","6500600","新店區"
"231040","898-TW","2019/11/07 20:28:03","新北市新店區三民路34-1號","121.536513333333","24.9713366666667","6500600","新店區"
"231043","899-TW","2019/11/07 20:27:59","新北市新店區建國路94號","121.5401","24.9775616666667","6500600","新店區"
"231066","AKT-0513","2019/11/07 20:28:06","新北市新店區柴埕路59號","121.513753333333","24.96496","6500600","新店區"
"241011","013-R5","2019/11/07 20:27:57","新北市三重區龍門路56號","121.496565","25.0725416666667","6500200","三重區"
"241028","022-UY","2019/11/07 20:27:55","新北市三重區光興街93號","121.497325","25.0598866666667","6500200","三重區"
"241008","059-VK","2019/11/07 20:28:02","新北市三重區永福街303-1號","121.484073333333","25.0746466666667","6500200","三重區"
"241023","060-VK","2019/11/07 20:28:07","新北市三重區自由街17巷1號","121.479891666667","25.066545","6500200","三重區"
"241031","061-VK","2019/11/07 20:28:03","新北市三重區三寧街18號","121.48937","25.059865","6500200","三重區"
"241015","062-VK","2019/11/07 20:27:53","新北市三重區文化北路35號","121.499001666667","25.0648966666667","6500200","三重區"
"241017","063-VK","2019/11/07 20:28:02","新北市三重區自強路一段288號","121.49157","25.0682233333333","6500200","三重區"
"241024","065-VK","2019/11/07 20:27:57","新北市三重區忠孝路三段15巷14號","121.480963333333","25.06759","6500200","三重區"
"241002","090-VK","2019/11/07 20:28:00","新北市三重區仁義街190號","121.496698333333","25.0817566666667","6500200","三重區"
"241003","091-VK","2019/11/07 20:28:01","新北市三重區富華街150號","121.492278333333","25.084395","6500200","三重區"
"241009","742-BX","2019/11/07 20:27:55","新北市三重區永福街46-1號","121.482183333333","25.0782283333333","6500200","三重區"
"241006","262-UM","2019/11/07 20:27:55","新北市三重區車路頭街133號","121.484666666667","25.0763216666667","6500200","三重區"
"241016","266-UM","2019/11/07 20:28:12","新北市三重區正義北路190巷5號","121.49605","25.06693","6500200","三重區"
"241018","268-UM","2019/11/07 20:27:57","新北市三重區正義北路216巷4號","121.495951666667","25.06747","6500200","三重區"
"241013","270-UM","2019/11/07 20:27:51","新北市三重區溪尾街5巷28號","121.492585","25.074625","6500200","三重區"
"241025","271-UM","2019/11/07 20:27:52","新北市三重區頂崁街210巷27號","121.475758333333","25.0682316666667","6500200","三重區"
"241035","KEA-2210","2019/11/07 20:28:06","新北市三重區正義北路61-1號","121.497218333333","25.0644866666667","6500200","三重區"
"241030","KED-0822","2019/11/07 20:27:55","新北市三重區成功路62號","121.488591666667","25.0510033333333","6500200","三重區"
"241014","462-BY","2019/11/07 20:28:12","新北市三重區長壽街120巷10-1號","121.502058333333","25.0692266666667","6500200","三重區"
"241004","475-VK","2019/11/07 20:27:56","新北市三重區慈愛街122號","121.490081666667","25.0804016666667","6500200","三重區"
"241020","478-VK","2019/11/07 20:28:02","新北市三重區三和路三段140號","121.49349","25.0724533333333","6500200","三重區"
"241026","480-VK","2019/11/07 20:28:00","新北市三重區福德南路24巷15號","121.503455","25.0632283333333","6500200","三重區"
"241001","547-UM","2019/11/07 20:28:10","新北市三重區福隆路12號","121.490313333333","25.07746","6500200","三重區"
"241019","KEA-2593","2019/11/07 20:28:03","新北市三重區重陽路四段77號","121.492535","25.0710016666667","6500200","三重區"
"241005","AAD-863","2019/11/07 20:27:59","新北市三重區五華街141巷57號","121.493371666667","25.0864","6500200","三重區"
"241012","743-BX","2019/11/07 20:28:01","新北市三重區龍門路270號","121.501388333333","25.0739583333333","6500200","三重區"
"241022","KED-0820","2019/11/07 20:27:53","新北市三重區過圳街27-5號","121.487945","25.0624233333333","6500200","三重區"
"241029","942-UM","2019/11/07 20:28:05","新北市三重區集美街227號","121.492135","25.0551366666667","6500200","三重區"
"241033","AAC-255","2019/11/07 20:28:01","新北市三重區五谷王北街80巷60號","121.474643333333","25.0528533333333","6500200","三重區"
"235066","003-UY","2019/11/07 20:28:04","新北市中和區光華街69號","121.506661666667","25.0027916666667","6500300","中和區"
"235055","183-VK","2019/11/07 20:28:10","新北市八里區中山路三段409號","121.368715","25.1343933333333","6500300","中和區"
"247016","KEA-2869","2019/11/07 20:28:00","新北市蘆洲區和平路208號","121.465835","25.0822116666667","6501400","蘆洲區"
"247010","KED-0682","2019/11/07 20:28:07","新北市蘆洲區民族路57號","121.478883333333","25.08562","6501400","蘆洲區"
"235020","4978-A6","2019/11/07 20:27:50","新北市中和區連勝街137號","121.494646666667","24.99596","6500300","中和區"
"235050","4979-A6","2019/11/07 20:28:04","新北市中和區景新街160巷8-1號","121.505291666667","24.9970166666667","6500300","中和區"
"235069","4980-A6","2019/11/07 20:27:57","新北市中和區錦和路111-1號","121.490268333333","24.9951033333333","6500300","中和區"
"235059","AAC-215","2019/11/07 20:28:00","新北市中和區員山路49-7號","121.481005","24.9915166666667","6500300","中和區"
"247006","893-R6","2019/11/07 20:28:10","新北市蘆洲區永安南路二段76號","121.464531666667","25.0781866666667","6501400","蘆洲區"
"247024","500-BY","2019/11/07 20:28:03","新北市蘆洲區長興路50巷5號","121.464133333333","25.084105","6501400","蘆洲區"
"247004","341-TH","2019/11/07 20:27:59","新北市蘆洲區長安街299巷46號","121.456605","25.0845883333333","6501400","蘆洲區"
"247018","337-TH","2019/11/07 20:27:51","新北市蘆洲區民族路314巷3弄13號","121.476911666667","25.0906183333333","6501400","蘆洲區"
"247013","056-VK","2019/11/07 20:28:03","新北市蘆洲區中山二路134號","121.471423333333","25.081675","6501400","蘆洲區"
"247022","007-UY","2019/11/07 20:27:54","新北市蘆洲區中正路325號","121.466078333333","25.0888516666667","6501400","蘆洲區"
"247008","002-UY","2019/11/07 20:27:52","新北市三重區永安北路二段177號","121.483868333333","25.0853383333333","6501400","蘆洲區"
"247002","001-UY","2019/11/07 20:28:09","新北市蘆洲區環堤大道122號","121.45541","25.08733","6501400","蘆洲區"
"222001","KEA-2212","2019/11/07 20:28:06","新北市深坑區北深路三段345號","121.597165","25.0050633333333","6501800","深坑區"
"251015","KEA-2871","2019/11/07 20:28:08","新北市淡水區淡金路二段507號","121.447311666667","25.1896","6501000","淡水區"
"251016","180-VK","2019/11/07 20:28:00","新北市淡水區新埔子11-7號","121.447475","25.228505","6501000","淡水區"
"251008","181-VK","2019/11/07 20:27:55","新北市淡水區淡海路208巷25號","121.421528333333","25.18591","6501000","淡水區"
"251013","182-VK","2019/11/07 20:27:57","新北市淡水區奎柔山路460號","121.46382","25.204715","6501000","淡水區"
"251010","413-VK","2019/11/07 20:27:52","新北市淡水區沙崙路181巷15號","121.42399","25.1843566666667","6501000","淡水區"
"251012","441-VK","2019/11/07 20:28:12","新北市淡水區興仁路46巷1號","121.453246666667","25.2164916666667","6501000","淡水區"
"251001","559-UM","2019/11/07 20:28:10","新北市淡水區中山北路二段98號","121.44444","25.18391","6501000","淡水區"
"251006","561-UM","2019/11/07 20:28:12","新北市淡水區北新路一段303號","121.464483333333","25.1821633333333","6501000","淡水區"
"251014","577-R6","2019/11/07 20:28:08","新北市淡水區石頭厝8-4號","121.460383333333","25.2377966666667","6501000","淡水區"
"251002","672-BX","2019/11/07 20:28:10","新北市淡水區中正路63號","121.441341666667","25.1694833333333","6501000","淡水區"
"251003","673-BX","2019/11/07 20:27:57","新北市淡水區新生街108巷2號","121.440143333333","25.17476","6501000","淡水區"
"207004","291-VK","2019/11/07 20:27:52","新北市萬里區北基里孝一街7號","121.68458","25.1771733333333","6502800","萬里區"
"252002","178-VK","2019/11/07 20:28:07","新北市三芝區淡金路二段47-2號","121.503638333333","25.26065","6502100","三芝區"
"247012","KED-0683","2019/11/07 20:27:56","新北市蘆洲區復興路233號","121.480175","25.0898766666667","6501400","蘆洲區"
"252001","KED-0821","2019/11/07 20:28:03","新北市三芝區中山路一段31號","121.500628333333","25.2580583333333","6502100","三芝區"
"242042","AAC-296","2019/11/07 20:28:12","新北市新莊區天祥街92巷3號","121.415375","25.0298066666667","6500500","新莊區"
"242061","986-R7","2019/11/07 20:28:04","新北市新莊區民安東路141號","121.431468333333","25.0207366666667","6500500","新莊區"
"242004","751-BX","2019/11/07 20:28:13","新北市新莊區頭前路15巷11號","121.467711666667","25.0516083333333","6500500","新莊區"
"242029","615-BX","2019/11/07 20:28:03","新北市新莊區中華路二段149號","121.452883333333","25.0514066666667","6500500","新莊區"
"242027","613-BX","2019/11/07 20:28:06","新北市新莊區幸福路606號","121.45193","25.0492733333333","6500500","新莊區"
"242058","612-BX","2019/11/07 20:28:13","新北市新莊區四維路183號","121.42214","25.02108","6500500","新莊區"
"242048","566-BX","2019/11/07 20:28:07","新北市新莊區龍安路252號","121.4211","25.0196483333333","6500500","新莊區"
"242053","497-BY","2019/11/07 20:28:05","新北市新莊區民安西路245巷7號","121.426516666667","25.01369","6500500","新莊區"
"242002","441-UM","2019/11/07 20:27:57","新北市新莊區中正路46號","121.464358333333","25.0414716666667","6500500","新莊區"
"242044","415-TV","2019/11/07 20:27:53","新北市新莊區中正路新建巷26號","121.414281666667","25.0217933333333","6500500","新莊區"
"242013","413-TV","2019/11/07 20:28:00","新北市新莊區中平路270巷7弄24號","121.446098333333","25.050915","6500500","新莊區"
"242025","362-BY","2019/11/07 20:28:09","新北市新莊區五工三路60號","121.459615","25.0644966666667","6500500","新莊區"
"242023","353-BY","2019/11/07 20:28:06","新北市新莊區化成路842號","121.464836666667","25.060375","6500500","新莊區"
"242015","132-UY","2019/11/07 20:28:07","新北市新莊區中平路36巷17號","121.44556","25.0436083333333","6500500","新莊區"
"242039","135-UY","2019/11/07 20:28:11","新北市新莊區民安路280號","121.427843333333","25.0214383333333","6500500","新莊區"
"242056","172-VK","2019/11/07 20:28:02","新北市新莊區新莊路713巷1弄2號","121.443663333333","25.032375","6500500","新莊區"
"242017","173-VK","2019/11/07 20:28:04","新北市新莊區中港二街122號","121.448578333333","25.0457116666667","6500500","新莊區"
"242031","175-VK","2019/11/07 20:28:06","新北市新莊區三和路60-12號","121.437606666667","25.0402766666667","6500500","新莊區"
"242021","KED-0687","2019/11/07 20:28:05","新北市新莊區公園路10巷1號","121.447868333333","25.03878","6500500","新莊區"
"242007","346-TH","2019/11/07 20:28:09","新北市新莊區福壽街124巷27號","121.45878","25.0513183333333","6500500","新莊區"
"242051","347-TH","2019/11/07 20:28:08","新北市新莊區民安西路259號","121.426135","25.01319","6500500","新莊區"
"242036","348-TH","2019/11/07 20:28:07","新北市新莊區後港一路76巷10弄1號","121.427136666667","25.0260233333333","6500500","新莊區"
"242009","349-TH","2019/11/07 20:27:58","新北市新莊區昌盛街65巷2弄1號","121.454948333333","25.0501283333333","6500500","新莊區"
"242034","350-TH","2019/11/07 20:28:03","新北市新莊區中正路387號","121.445963333333","25.03467","6500500","新莊區"
"242019","351-TH","2019/11/07 20:28:10","新北市新莊區民樂街83號","121.457925","25.04314","6500500","新莊區"
"221008","489-VK","2019/11/07 20:27:59","新北市汐止區康寧街237號","121.624248333333","25.0667966666667","6501100","汐止區"
"221036","130-UY","2019/11/07 20:28:05","新北市汐止區福安街37巷1號","121.662918333333","25.0649266666667","6501100","汐止區"
"221015","131-UY","2019/11/07 20:28:11","新北市汐止區建成路160巷23號","121.66174","25.0739933333333","6501100","汐止區"
"221010","269-BY","2019/11/07 20:28:07","新北市汐止區八連路一段530巷4號","121.639645","25.092185","6501100","汐止區"
"221012","278-VK","2019/11/07 20:28:09","新北市汐止區汐平路二段66號","121.698663333333","25.0610216666667","6501100","汐止區"
"221023","279-VK","2019/11/07 20:28:00","新北市汐止區康寧街307巷1弄10號","121.62685","25.06817","6501100","汐止區"
"221032","280-BY","2019/11/07 20:27:56","新北市汐止區民權街二段79-1號","121.619305","25.0484966666667","6501100","汐止區"
"221027","281-BY","2019/11/07 20:27:59","新北市汐止區中正路235號","121.657798333333","25.0687166666667","6501100","汐止區"
"221029","298-VK","2019/11/07 20:28:09","新北市汐止區樟樹二路106巷9-1號","121.640338333333","25.06467","6501100","汐止區"
"221021","299-VK","2019/11/07 20:27:57","新北市汐止區水源路一段282巷3號","121.653985","25.05816","6501100","汐止區"
"221031","353-TW","2019/11/07 20:27:59","新北市汐止區中興路150巷11號","121.632761666667","25.065005","6501100","汐止區"
"221035","622-UM","2019/11/07 20:27:58","新北市汐止區長江街79巷14號","121.657753333333","25.0728766666667","6501100","汐止區"
"221025","623-UM","2019/11/07 20:27:59","新北市汐止區水源路二段90號","121.656525","25.0560516666667","6501100","汐止區"
"221038","646-BX","2019/11/07 20:28:12","新北市汐止區水源路一段56號","121.657543333333","25.0656516666667","6501100","汐止區"
"221033","647-BX","2019/11/07 20:27:54","新北市汐止區林森街73巷5號","121.623525","25.04093","6501100","汐止區"
"221002","707-TV","2019/11/07 20:28:10","新北市汐止區福德二路28號","121.634755","25.06767","6501100","汐止區"
"221018","753-BX","2019/11/07 20:27:22","新北市汐止區茄苳路225巷11弄1號","121.671418333333","25.0692066666667","6501100","汐止區"
"220083","286-VK","2019/11/07 20:28:05","新北市板橋區僑中二街102巷24號","121.445158333333","25.0085466666667","6500100","板橋區"
"220081","287-VK","2019/11/07 20:27:54","新北市板橋區僑中一街104號","121.446611666667","25.0117383333333","6500100","板橋區"
"242046","281-VK","2019/11/07 20:28:08","新北市新莊區中正路新雅巷2弄20號","121.41778","25.0248466666667","6500500","新莊區"
"242011","280-VK","2019/11/07 20:28:10","新北市新莊區中義街14號","121.451091666667","25.0512183333333","6500500","新莊區"
