"lineid","car","time","location","longitude","latitude","cityid","cityname"
"251004","009-UM","2019/11/07 22:13:54","新北市淡水區民族路33號","121.462288333333","25.13583","6501000","淡水區"
"251008","181-VK","2019/11/07 22:13:55","新北市淡水區學府路104號","121.449891666667","25.1718433333333","6501000","淡水區"
"251007","442-VK","2019/11/07 22:14:09","新北市淡水區北新路180號","121.449495","25.178685","6501000","淡水區"
"251006","561-UM","2019/11/07 22:14:00","新北市淡水區中山北路二段227號","121.44428","25.185925","6501000","淡水區"
"251011","650-BX","2019/11/07 22:13:58","新北市淡水區水碓街7號","121.443155","25.1771083333333","6501000","淡水區"
