"lineid","car","time","location","longitude","latitude","cityid","cityname"
"244006","080-UY","2019/08/22 08:59:36","新北市林口區林口路113巷6弄1號","121.388698333333","25.0806233333333","6501700","林口區"
"244003","248-BX","2019/08/22 08:58:28","新北市林口區寶斗厝坑67-5號","121.338333333333","25.1115783333333","6501700","林口區"
"244018","402-UM","2019/08/22 08:59:42","新北市林口區文化一路一段30號","121.370678333333","25.06906","6501700","林口區"
"244012","KEA-2802","2019/08/22 08:59:32","新北市林口區中正路512號","121.381946666667","25.0771066666667","6501700","林口區"
"244022","483-VK","2019/08/22 08:59:39","新北市林口區東湖路55巷11號","121.385711666667","25.0736766666667","6501700","林口區"
"244016","485-VK","2019/08/22 08:59:26","新北市林口區八德路78號","121.365568333333","25.0656266666667","6501700","林口區"
"244008","656-BX","2019/08/22 08:59:38","新北市林口區松柏路71號","121.379685","25.08984","6501700","林口區"
"244010","701-TV","2019/08/22 08:59:35","新北市林口區興林路17巷3弄2號","121.390291666667","25.0769883333333","6501700","林口區"
"244024","837-TS","2019/08/22 08:59:46","新北市林口區南勢六街248-1號","121.356023333333","25.0748633333333","6501700","林口區"
"222006","289-BY","2019/08/22 08:59:38","新北市深坑區土庫尖路75-1號","121.631121666667","25.0182966666667","6501800","深坑區"
"231069","189-VK","2019/08/22 08:59:40","新北市新店區新潭路三段215巷25號","121.508128333333","24.90407","6500600","新店區"
"231008","515-UM","2019/08/22 08:59:34","新北市新店區廣興路60巷35號","121.54255","24.91646","6500600","新店區"
"226007","8452-VL","2019/08/22 08:59:29","新北市平溪區東勢里芊蓁坑30號","121.727515","24.9791816666667","6502400","平溪區"
"226003","AGD-0702","2019/08/22 08:59:25","新北市平溪區靜安路三段86號","121.770226666667","25.0349866666667","6502400","平溪區"
"223003","205-TH","2019/08/22 08:59:37","新北市石碇區北宜路六段水底寮巷12號","121.66485","24.9420733333333","6501900","石碇區"
"223008","406-TH","2019/08/22 08:59:29","新北市石碇區光明路16號","121.683411666667","25.0330416666667","6501900","石碇區"
"223001","592-UM","2019/08/22 08:59:32","新北市石碇區北宜路六段水底寮巷12號","121.664985","24.9421166666667","6501900","石碇區"
"223004","660-BX","2019/08/22 08:59:42","新北市石碇區崩山53號","121.68237","24.9689016666667","6501900","石碇區"
"223007","661-BX","2019/08/22 08:59:37","新北市石碇區碇南路二段7號","121.670853333333","25.0310216666667","6501900","石碇區"
"223005","677-TV","2019/08/22 08:55:50","新北市石碇區崩山53號","121.682396666667","24.9688683333333","6501900","石碇區"
"252004","249-BX","2019/08/22 08:59:30","新北市三芝區興華里田心子31號","121.488551666667","25.2005766666667","6502100","三芝區"
"252007","AAC-283","2019/08/22 08:59:42","新北市三芝區古庄里四棧橋24號","121.486791666667","25.26027","6502100","三芝區"
"237014","760-BX","2019/08/22 08:59:34","新北市三峽區金敏32號","121.391345","24.881685","6500900","三峽區"
"242038","AAC-296","2019/08/22 08:59:37","新北市新莊區民安路268號","121.427513333333","25.0213216666667","6500500","新莊區"
"242059","986-R7","2019/08/22 08:59:26","新北市新莊區富國路176巷1號","121.42423","25.0244","6500500","新莊區"
"242001","751-BX","2019/08/22 08:59:28","新北市新莊區中正路33號","121.463923333333","25.0409716666667","6500500","新莊區"
"242028","615-BX","2019/08/22 08:59:42","新北市新莊區中原路205號","121.450923333333","25.0541833333333","6500500","新莊區"
"242026","613-BX","2019/08/22 08:59:28","新北市新莊區立信三街12巷1號","121.444073333333","25.0506283333333","6500500","新莊區"
"242057","612-BX","2019/08/22 08:59:40","新北市新莊區民安路178號","121.425188333333","25.023855","6500500","新莊區"
"242045","566-BX","2019/08/22 08:59:43","新北市新莊區民安路16-29號","121.422515","25.0279516666667","6500500","新莊區"
"242049","497-BY","2019/08/22 08:59:40","新北市新莊區西盛街280巷3-1號","121.427646666667","25.015235","6500500","新莊區"
"242055","442-UM","2019/08/22 08:59:27","新北市新莊區景德路532號","121.44391","25.033245","6500500","新莊區"
"242003","440-UM","2019/08/22 08:59:45","新北市新莊區化成路63巷20-1號","121.463503333333","25.045925","6500500","新莊區"
"242040","415-TV","2019/08/22 08:59:43","新北市新莊區青山路一段24號","121.410991666667","25.0275616666667","6500500","新莊區"
"242010","413-TV","2019/08/22 08:59:34","新北市新莊區中信街67巷6號","121.448606666667","25.050735","6500500","新莊區"
"242047","400-BY","2019/08/22 08:59:30","新北市新莊區民安路199號","121.426176666667","25.0224583333333","6500500","新莊區"
"242024","362-BY","2019/08/22 08:59:29","新北市新莊區五工三路78巷10號","121.459358333333","25.0653466666667","6500500","新莊區"
"242022","353-BY","2019/08/22 08:59:45","新北市新莊區化成路421號","121.465001666667","25.0593966666667","6500500","新莊區"
"242012","132-UY","2019/08/22 08:59:46","新北市新莊區中信街63巷4弄1號","121.448998333333","25.0502233333333","6500500","新莊區"
"242035","135-UY","2019/08/22 08:59:44","新北市新莊區建安街41巷8號","121.42901","25.0253616666667","6500500","新莊區"
"242052","172-VK","2019/08/22 08:59:30","新北市新莊區西盛街395巷37弄1號","121.429056666667","25.0119483333333","6500500","新莊區"
"242014","173-VK","2019/08/22 08:59:29","新北市新莊區中和街31巷22號","121.447171666667","25.0439","6500500","新莊區"
"242020","175-VK","2019/08/22 08:59:26","新北市新莊區新泰路300號","121.445401666667","25.040965","6500500","新莊區"
"242030","176-VK","2019/08/22 08:59:26","新北市新莊區新泰路213巷56號","121.44489","25.0384483333333","6500500","新莊區"
"242018","347-TH","2019/08/22 08:59:41","新北市新莊區復興路二段191號","121.459405","25.0445533333333","6500500","新莊區"
"242033","348-TH","2019/08/22 08:59:38","新北市新莊區建中街90巷1弄23號","121.445765","25.0367366666667","6500500","新莊區"
"242006","349-TH","2019/08/22 08:59:30","新北市新莊區福壽街124巷34弄1號","121.459308333333","25.0512633333333","6500500","新莊區"
"242016","351-TH","2019/08/22 08:59:44","新北市新莊區中港三街21號","121.450491666667","25.0463266666667","6500500","新莊區"
"233001","KEA-2870","2019/08/22 08:59:31","新北市烏來區屯鹿63號","121.493141666667","24.79526","6502900","烏來區"
"242043","281-VK","2019/08/22 08:59:34","新北市新莊區中正路新旺巷38號","121.416361666667","25.0225133333333","6500500","新莊區"
"242008","280-VK","2019/08/22 08:59:29","新北市新莊區昌隆街116號","121.4571","25.0509533333333","6500500","新莊區"
