"lineid","car","time","location","longitude","latitude","cityid","cityname"
"244018","402-UM","2019/08/22 09:49:42","新北市林口區麗園二街1巷6-2號","121.377955","25.0700683333333","6501700","林口區"
"244022","483-VK","2019/08/22 09:49:27","新北市林口區文化二路二段88巷36號","121.379453333333","25.0806466666667","6501700","林口區"
"222006","289-BY","2019/08/22 09:49:37","新北市深坑區文山路二段30巷31號","121.615243333333","24.99854","6501800","深坑區"
"231008","515-UM","2019/08/22 09:49:34","新北市新店區廣興路136號","121.535206666667","24.9108483333333","6500600","新店區"
"252004","249-BX","2019/08/22 09:49:30","新北市三芝區圓山里石曹子坑43-6號","121.515995","25.216955","6502100","三芝區"
"252007","AAC-283","2019/08/22 09:49:42","新北市三芝區新庄里新庄子56號","121.505536666667","25.27569","6502100","三芝區"
"237014","760-BX","2019/08/22 09:49:34","新北市三峽區中山路459巷135號","121.348853333333","24.93313","6500900","三峽區"
"242059","986-R7","2019/08/22 09:49:46","新北市新莊區民安東路41號","121.429008333333","25.02096","6500500","新莊區"
"242026","613-BX","2019/08/22 09:49:39","新北市新莊區三和路12-17號","121.442288333333","25.0374766666667","6500500","新莊區"
"242057","612-BX","2019/08/22 09:49:40","新北市新莊區民安西路26號","121.426845","25.021245","6500500","新莊區"
"242003","440-UM","2019/08/22 09:49:32","新北市新莊區福前街253號","121.462736666667","25.0584716666667","6500500","新莊區"
"242030","176-VK","2019/08/22 09:49:39","新北市新莊區三和路6號","121.440396666667","25.034535","6500500","新莊區"
"233001","KEA-2870","2019/08/22 09:49:31","新北市烏來區信福路150號","121.51811","24.8225766666667","6502900","烏來區"
"242043","281-VK","2019/08/22 09:49:34","新北市新莊區龍安路74號","121.416895","25.0210916666667","6500500","新莊區"
