"lineid","car","time","location","longitude","latitude","cityid","cityname"
"244018","402-UM","2019/08/22 10:09:42","新北市林口區粉寮路一段68號","121.397025","25.0788016666667","6501700","林口區"
"244022","483-VK","2019/08/22 10:09:27","新北市林口區民權路17號","121.371206666667","25.0802016666667","6501700","林口區"
"222006","289-BY","2019/08/22 10:09:17","新北市深坑區大崙尾8號","121.614268333333","24.9794716666667","6501800","深坑區"
"231008","515-UM","2019/08/22 10:09:34","新北市新店區小坑一路35巷2號","121.528046666667","24.9091466666667","6500600","新店區"
"252004","249-BX","2019/08/22 10:09:30","新北市三芝區福德里埔尾13-1號","121.504351666667","25.24455","6502100","三芝區"
"252007","AAC-283","2019/08/22 10:09:42","新北市三芝區車新路87號","121.494393333333","25.2675633333333","6502100","三芝區"
"237014","760-BX","2019/08/22 09:53:01","新北市三峽區中山路459巷135號","121.348858333333","24.933015","6500900","三峽區"
"242059","986-R7","2019/08/22 10:09:26","新北市新莊區新樹路357號","121.432926666667","25.0183633333333","6500500","新莊區"
"233001","KEA-2870","2019/08/22 10:09:31","新北市烏來區環山路71號","121.548723333333","24.862265","6502900","烏來區"
