"lineid","car","time","location","longitude","latitude","cityid","cityname"
"244018","402-UM","2019/08/22 10:19:42","新北市林口區粉寮69號","121.405125","25.0908266666667","6501700","林口區"
"244022","483-VK","2019/08/22 10:19:27","新北市林口區民族路241號","121.370465","25.079355","6501700","林口區"
"222006","289-BY","2019/08/22 10:19:37","新北市深坑區王軍寮7號","121.616465","24.9845183333333","6501800","深坑區"
"231008","515-UM","2019/08/22 10:19:34","新北市新店區廣興路5巷19號","121.545343333333","24.914585","6500600","新店區"
"252007","AAC-283","2019/08/22 10:19:42","新北市三芝區新庄里番社后27號","121.499938333333","25.27328","6502100","三芝區"
"237014","760-BX","2019/08/22 09:53:01","新北市三峽區中山路459巷135號","121.348858333333","24.933015","6500900","三峽區"
"242059","986-R7","2019/08/22 10:19:26","新北市新莊區中正路457巷21號","121.44242","25.0332416666667","6500500","新莊區"
"233001","KEA-2870","2019/08/22 10:19:31","新北市烏來區烏來街83號","121.551791666667","24.864165","6502900","烏來區"
