"lineid","car","time","location","longitude","latitude","cityid","cityname"
"244018","402-UM","2019/08/22 10:49:42","新北市林口區粉寮69號","121.405105","25.0907833333333","6501700","林口區"
"222006","289-BY","2019/08/22 10:49:37","新北市深坑區公館後13號","121.602635","24.9922116666667","6501800","深坑區"
"231069","189-VK","2019/08/22 10:49:44","新北市新店區新潭路三段76號","121.505946666667","24.911505","6500600","新店區"
"231008","515-UM","2019/08/22 10:49:34","新北市新店區成功路50巷1號","121.54125","24.9001616666667","6500600","新店區"
"242059","986-R7","2019/08/22 10:49:46","新北市新莊區新泰路255巷83號","121.442191666667","25.0390766666667","6500500","新莊區"
"233001","KEA-2870","2019/08/22 10:29:07","新北市烏來區啦卡路70-1號","121.56528","24.8557883333333","6502900","烏來區"
