"lineid","car","time","location","longitude","latitude","cityid","cityname"
"234044","148-BY","2019/08/22 12:57:31","新北市永和區秀朗路二段176巷25號","121.525941666667","25.000395","6500400","永和區"
"234078","298-R6","2019/08/22 12:57:34","新北市永和區福和路57巷14弄1號","121.5227","25.00694","6500400","永和區"
"234036","336-UY","2019/08/22 12:57:41","新北市永和區成功路二段207號","121.52654","24.9959316666667","6500400","永和區"
"234062","337-UY","2019/08/22 12:57:33","新北市永和區秀朗路一段136號","121.517871666667","25.003405","6500400","永和區"
"234084","338-UY","2019/08/22 12:57:39","新北市永和區中正路195號","121.517053333333","24.999385","6500400","永和區"
"234068","552-UM","2019/08/22 12:57:40","新北市永和區竹林路96巷9號","121.519143333333","25.01204","6500400","永和區"
"234015","745-BX","2019/08/22 12:57:29","新北市永和區永和路二段299號","121.51603","25.0161066666667","6500400","永和區"
"234028","746-BX","2019/08/22 12:57:36","新北市永和區得和路402號","121.525566666667","24.9991533333333","6500400","永和區"
"234052","KEA-2590","2019/08/22 12:57:38","新北市永和區竹林路66巷2號","121.518238333333","25.0133866666667","6500400","永和區"
"234005","KED-0605","2019/08/22 12:57:30","新北市永和區永和路二段82號","121.51497","25.0114266666667","6500400","永和區"
"234012","KEA-2591","2019/08/22 12:57:35","新北市永和區中山路一段60巷4號","121.513055","25.0109083333333","6500400","永和區"
"234060","AAD-866","2019/08/22 12:57:46","新北市永和區福和路307號","121.516266666667","25.0071083333333","6500400","永和區"
"234040","862-TW","2019/08/22 12:57:26","新北市永和區永貞路308號","121.511843333333","25.004855","6500400","永和區"
"234048","863-TW","2019/08/22 12:57:31","新北市永和區保安路23號","121.510335","25.0166966666667","6500400","永和區"
"234025","9371-KE","2019/08/22 12:57:33","新北市永和區永和路一段45-1號","121.512785","25.0062816666667","6500400","永和區"
"234010","9373-KE","2019/08/22 12:57:39","新北市永和區文化路113巷19號","121.513145","25.014015","6500400","永和區"
"248013","025-BX","2019/08/22 12:57:42","新北市五股區中興路二段182巷3號","121.456735","25.07813","6501500","五股區"
"248015","026-BX","2019/08/22 12:57:41","新北市五股區中興路二段37巷28號","121.46019","25.0750183333333","6501500","五股區"
"248007","KED-0815","2019/08/22 12:57:25","新北市五股區中興路二段57-6號","121.460421666667","25.0753683333333","6501500","五股區"
"248017","KED-0813","2019/08/22 12:57:41","新北市五股區中興路二段57-6號","121.460351666667","25.0752433333333","6501500","五股區"
"248009","272-BY","2019/08/22 12:57:47","新北市五股區中興路二段83巷26-6號","121.460175","25.07526","6501500","五股區"
"248003","677-BX","2019/08/22 12:57:37","新北市五股區中興路二段37巷26號","121.460525","25.0748083333333","6501500","五股區"
"248001","678-BX","2019/08/22 12:57:26","新北市五股區中興路二段83巷26-3號","121.460151666667","25.0752933333333","6501500","五股區"
"234022","9380-KE","2019/08/22 12:57:37","新北市永和區竹林路75巷33弄47號","121.521101666667","25.0145916666667","6500400","永和區"
"234076","969-R7","2019/08/22 12:57:40","新北市永和區民享街2巷2號","121.514648333333","24.9958416666667","6500400","永和區"
"234066","AAC-212","2019/08/22 12:57:43","新北市永和區中和路625號","121.513005","25.0049033333333","6500400","永和區"
"234001","AAC-295","2019/08/22 12:57:30","新北市永和區永和路一段204號","121.514328333333","25.0093316666667","6500400","永和區"
"231029","106-UY","2019/08/22 12:57:38","新北市新店區安華路28-1號","121.519703333333","24.9607433333333","6500600","新店區"
"231036","110-UY","2019/08/22 12:57:27","新北市新店區安一路一段1-1號","121.51923","24.9611816666667","6500600","新店區"
"231023","260-TV","2019/08/22 12:57:34","新北市新店區安一路一段1-1號","121.519305","24.96113","6500600","新店區"
"231003","268-BY","2019/08/22 12:57:27","新北市新店區安一路一段1-1號","121.519661666667","24.9613066666667","6500600","新店區"
"231035","278-BY","2019/08/22 12:57:33","新北市新店區安一路一段1-1號","121.519808333333","24.9610916666667","6500600","新店區"
"231017","AAD-862","2019/08/22 12:57:45","新北市新店區安一路一段1-1號","121.519575","24.9611866666667","6500600","新店區"
"231006","355-BY","2019/08/22 12:57:43","新北市新店區安華路28-1號","121.519098333333","24.9609183333333","6500600","新店區"
"231021","515-UM","2019/08/22 12:57:43","新北市新店區安一路一段1-1號","121.51907","24.9611666666667","6500600","新店區"
"231034","616-UM","2019/08/22 12:57:29","新北市新店區安華路28-1號","121.5194","24.9605616666667","6500600","新店區"
"231011","KED-0819","2019/08/22 12:57:37","新北市新店區安一路一段1-1號","121.519768333333","24.961255","6500600","新店區"
"231010","719-UM","2019/08/22 12:57:29","新北市新店區安一路一段1-1號","121.519466666667","24.9612333333333","6500600","新店區"
"231026","720-UM","2019/08/22 12:57:28","新北市新店區安華路28-1號","121.519531666667","24.9609966666667","6500600","新店區"
"231001","898-TW","2019/08/22 12:57:27","新北市新店區安華路28-1號","121.519361666667","24.9609266666667","6500600","新店區"
"231037","AKT-0513","2019/08/22 12:57:23","新北市新店區安華路28-1號","121.519375","24.960665","6500600","新店區"
"235028","005-UY","2019/08/22 12:57:30","新北市中和區錦和路350-1號","121.490615","24.9935416666667","6500300","中和區"
"235027","006-UY","2019/08/22 12:57:34","新北市中和區員山路36巷16-3號","121.484898333333","24.9912316666667","6500300","中和區"
"235029","098-UM","2019/08/22 12:57:37","新北市中和區錦和路156號","121.489813333333","24.9960533333333","6500300","中和區"
"235022","151-BY","2019/08/22 12:57:40","新北市中和區圓通路367巷29號","121.492126666667","24.9851716666667","6500300","中和區"
"235002","185-VK","2019/08/22 12:57:25","新北市中和區景平路1號","121.525113333333","24.990115","6500300","中和區"
"235031","255-BX","2019/08/22 12:57:34","新北市中和區中山路二段449巷1弄9-2號","121.483953333333","25.004","6500300","中和區"
"235009","565-BX","2019/08/22 12:57:45","新北市中和區員山路36巷13號","121.484206666667","24.9908883333333","6500300","中和區"
"235024","KED-0823","2019/08/22 12:57:29","新北市中和區員山路36巷16-3號","121.484725","24.991355","6500300","中和區"
"235035","783-BX","2019/08/22 12:57:39","新北市中和區新生街229號","121.4838","24.9992483333333","6500300","中和區"
"235026","800-TS","2019/08/22 12:57:32","新北市中和區中正路637巷60弄61號","121.48542","24.9930466666667","6500300","中和區"
"235021","801-TS","2019/08/22 12:57:35","新北市中和區和城路一段271巷1號","121.485505","24.9919566666667","6500300","中和區"
"235017","900-TW","2019/08/22 12:57:40","新北市中和區員山路36巷16-2號","121.48531","24.99149","6500300","中和區"
"235001","AAC-213","2019/08/22 12:57:33","新北市中和區景平路353號","121.504805","24.9934183333333","6500300","中和區"
"235005","251-BX","2019/08/22 12:57:26","新北市中和區員山路36巷16-2號","121.48512","24.9917166666667","6500300","中和區"
"228005","097-TW","2019/08/22 12:57:34","新北市貢寮區福連里香蘭街5號","121.97512","25.024265","6502600","貢寮區"
"228004","212-TW","2019/08/22 12:57:41","新北市萬里區雙興里豐稟路20-2號","121.88995","24.99453","6502600","貢寮區"
"207002","749-BX","2019/08/22 12:57:38","新北市萬里區雙興里大坪路29-1號","121.635763333333","25.1683416666667","6502800","萬里區"
"252005","073-UM","2019/08/22 12:57:29","新北市三芝區埔坪里埔頭坑41號","121.504565","25.2646033333333","6502100","三芝區"
"207001","662-BX","2019/08/22 12:57:42","新北市萬里區萬里里獅頭路22-1號","121.693045","25.17822","6502800","萬里區"
"221029","298-VK","2019/08/22 12:57:44","新北市汐止區康寧街901號","121.651733333333","25.07494","6501100","汐止區"
"220022","256-TC","2019/08/22 12:57:33","新北市板橋區華東街1-9號","121.44812","24.9947833333333","6500100","板橋區"
"220021","985-R7","2019/08/22 12:57:42","新北市板橋區華東街1-10號","121.448303333333","24.9949166666667","6500100","板橋區"
"235025","KEA-2875","2019/08/22 12:57:16","新北市中和區中正路637巷60弄61號","121.485495","24.992645","6500300","中和區"
