"lineid","car","time","location","longitude","latitude","cityid","cityname"
"234044","148-BY","2019/08/22 13:49:31","新北市永和區永利路163號","121.524913333333","25.0034433333333","6500400","永和區"
"234078","298-R6","2019/08/22 13:49:34","新北市永和區永亨路100號","121.523105","25.0049116666667","6500400","永和區"
"234036","336-UY","2019/08/22 13:49:41","新北市永和區民樂街39巷18弄44號","121.528433333333","24.9989283333333","6500400","永和區"
"234062","337-UY","2019/08/22 13:49:33","新北市永和區中正路368巷2號","121.517951666667","25.000825","6500400","永和區"
"234084","338-UY","2019/08/22 13:49:39","新北市永和區永亨路39號","121.520006666667","25.0062916666667","6500400","永和區"
"234068","552-UM","2019/08/22 13:49:40","新北市永和區竹林路57號","121.518363333333","25.01369","6500400","永和區"
"234015","745-BX","2019/08/22 13:49:29","新北市永和區文化路39號","121.51465","25.0150066666667","6500400","永和區"
"234028","746-BX","2019/08/22 13:49:40","新北市永和區民生路47巷4號","121.523165","24.997795","6500400","永和區"
"234052","KEA-2590","2019/08/22 13:49:38","新北市永和區竹林路39巷28弄11號","121.519475","25.0145866666667","6500400","永和區"
"234005","KED-0605","2019/08/22 13:49:30","新北市永和區中和路625號","121.513016666667","25.0049516666667","6500400","永和區"
"234012","KEA-2591","2019/08/22 13:49:35","新北市永和區永平路286號","121.507638333333","25.0119116666667","6500400","永和區"
"234060","AAD-866","2019/08/22 13:49:26","新北市永和區安樂路44號","121.51457","24.9968733333333","6500400","永和區"
"234040","862-TW","2019/08/22 13:49:33","新北市永和區中和路389巷32號","121.508208333333","25.0016066666667","6500400","永和區"
"234048","863-TW","2019/08/22 13:49:31","新北市永和區保安路140號","121.508618333333","25.0150116666667","6500400","永和區"
"248013","025-BX","2019/08/22 13:49:42","新北市五股區民義路一段107巷32號","121.432505","25.0847333333333","6501500","五股區"
"248015","026-BX","2019/08/22 13:49:41","新北市五股區成泰路三段543巷60號","121.44953","25.1031683333333","6501500","五股區"
"248007","KED-0815","2019/08/22 13:49:41","新北市五股區中興路一段128巷4號","121.465716666667","25.0739833333333","6501500","五股區"
"248017","KED-0813","2019/08/22 13:49:41","新北市五股區民義路二段32號","121.418411666667","25.09795","6501500","五股區"
"248011","247-BX","2019/08/22 13:49:44","新北市五股區成泰路二段195巷1號","121.440415","25.0873983333333","6501500","五股區"
"248009","272-BY","2019/08/22 13:49:28","新北市五股區水碓九路22號","121.428103333333","25.0717933333333","6501500","五股區"
"248003","677-BX","2019/08/22 13:49:37","新北市五股區民義路二段41-1號","121.411186666667","25.1037","6501500","五股區"
"248001","678-BX","2019/08/22 13:49:26","新北市五股區成泰路三段454號","121.45143","25.100375","6501500","五股區"
"234022","9380-KE","2019/08/22 13:49:32","新北市永和區中正路605號","121.516371666667","25.0096816666667","6500400","永和區"
"234076","969-R7","2019/08/22 13:49:40","新北市永和區民族街27巷15號","121.51967","24.9995916666667","6500400","永和區"
"234072","AAC-211","2019/08/22 13:49:41","新北市永和區豫溪街215巷26號","121.523838333333","25.01025","6500400","永和區"
"234066","AAC-212","2019/08/22 13:49:43","新北市永和區保平路236巷46號","121.507513333333","25.006785","6500400","永和區"
"234001","AAC-295","2019/08/22 13:49:45","新北市永和區永和路一段114-1號","121.513635","25.007445","6500400","永和區"
"244003","248-BX","2019/08/22 13:49:40","新北市林口區瑞樹坑58號","121.343671666667","25.1263366666667","6501700","林口區"
"243002","297-R6","2019/08/22 13:49:42","新北市泰山區辭修路48號","121.42838","25.0571633333333","6501600","泰山區"
"243006","KEA-2801","2019/08/22 13:49:29","新北市泰山區犁頭窠3-1號","121.422385","25.0605633333333","6501600","泰山區"
"243008","421-VK","2019/08/22 13:49:25","新北市泰山區明志路二段135號","121.427768333333","25.0507766666667","6501600","泰山區"
"243003","KEA-2216","2019/08/22 13:49:31","新北市泰山區明志路二段214巷16弄3號","121.426781666667","25.0493883333333","6501600","泰山區"
"243007","680-BX","2019/08/22 13:49:43","新北市泰山區美寧街50號","121.430628333333","25.0644433333333","6501600","泰山區"
"231030","002-UM","2019/08/22 13:49:37","新北市新店區安康路一段48號","121.530398333333","24.9611383333333","6500600","新店區"
"231024","0291-UT","2019/08/22 13:49:30","新北市新店區中華路47巷2弄2號","121.539721666667","24.9676183333333","6500600","新店區"
"231027","0293-UT","2019/08/22 13:49:40","新北市新店區新店路41號","121.539575","24.952705","6500600","新店區"
"231005","046-UY","2019/08/22 13:49:30","新北市新店區寶中路107號","121.549051666667","24.9801133333333","6500600","新店區"
"231029","106-UY","2019/08/22 13:49:38","新北市新店區安康路二段125-1號","121.51237","24.9608883333333","6500600","新店區"
"231018","107-UY","2019/08/22 13:49:39","新北市新店區中正路400巷15號","121.535118333333","24.97822","6500600","新店區"
"231013","108-UY","2019/08/22 13:49:34","新北市新店區二十張路25巷1號","121.53878","24.9822016666667","6500600","新店區"
"231036","110-UY","2019/08/22 13:49:27","新北市新店區安祥路143號","121.474496666667","24.9558666666667","6500600","新店區"
"231031","256-BX","2019/08/22 13:49:37","新北市新店區莒光路44巷21弄11-3號","121.51849","24.9521983333333","6500600","新店區"
"231023","260-TV","2019/08/22 13:49:34","新北市新店區國校路6-2號","121.53795","24.9561616666667","6500600","新店區"
"231003","268-BY","2019/08/22 13:49:27","新北市新店區中興路一段201號","121.54351","24.9654266666667","6500600","新店區"
"231035","278-BY","2019/08/22 13:49:33","新北市新店區安忠路57巷5-6號","121.513245","24.95874","6500600","新店區"
"231017","AAD-862","2019/08/22 13:49:45","新北市新店區竹林路63-1號","121.552878333333","24.9512516666667","6500600","新店區"
"231006","355-BY","2019/08/22 13:49:43","新北市新店區北宜路一段140巷13號","121.540016666667","24.95432","6500600","新店區"
"231038","3712-VJ","2019/08/22 13:49:38","新北市新店區安華路30巷1號","121.519546666667","24.9592383333333","6500600","新店區"
"231025","4715-K9","2019/08/22 13:49:42","新北市新店區中正路275巷19號","121.537121666667","24.97339","6500600","新店區"
"231021","515-UM","2019/08/22 13:49:43","新北市新店區新烏路一段171號","121.544991666667","24.9346366666667","6500600","新店區"
"231034","616-UM","2019/08/22 13:49:30","新北市新店區達觀路14巷2號","121.503163333333","24.9413566666667","6500600","新店區"
"231002","619-UM","2019/08/22 13:49:32","新北市新店區溪園路393號","121.524203333333","24.979055","6500600","新店區"
"231011","KED-0819","2019/08/22 13:49:37","新北市新店區德正街27巷29弄28號","121.545766666667","24.972285","6500600","新店區"
"231010","719-UM","2019/08/22 13:49:29","新北市新店區平等街48巷12號","121.535645","24.9733333333333","6500600","新店區"
"231026","720-UM","2019/08/22 13:49:28","新北市新店區中正路331號","121.535955","24.975025","6500600","新店區"
"231028","897-TW","2019/08/22 13:49:45","新北市新店區安和路二段138號","121.519623333333","24.9723833333333","6500600","新店區"
"231001","898-TW","2019/08/22 13:49:47","新北市新店區三民路112號","121.534281666667","24.9741433333333","6500600","新店區"
"231004","899-TW","2019/08/22 13:49:29","新北市新店區中興路三段1-20號","121.546636666667","24.9761433333333","6500600","新店區"
"231037","AKT-0513","2019/08/22 13:49:43","新北市新店區安康路三段359巷10弄1號","121.48428","24.95032","6500600","新店區"
"241020","478-VK","2019/08/22 13:49:26","新北市三重區中正北路165巷2號","121.478818333333","25.06956","6500200","三重區"
"235028","005-UY","2019/08/22 13:49:30","新北市中和區泰和街44巷8號","121.498841666667","25.0000566666667","6500300","中和區"
"235027","006-UY","2019/08/22 13:49:34","新北市中和區連城路319巷3弄11號","121.489623333333","24.9957616666667","6500300","中和區"
"235020","096-UM","2019/08/22 13:49:45","新北市中和區新民街94巷18號","121.481545","25.0091716666667","6500300","中和區"
"235003","097-UM","2019/08/22 13:49:36","新北市中和區自強路5號","121.520041666667","24.9937183333333","6500300","中和區"
"235029","098-UM","2019/08/22 13:49:37","新北市中和區中山路二段2巷45弄26-7號","121.50127","25.006975","6500300","中和區"
"235004","150-BY","2019/08/22 13:49:36","新北市中和區保健路48巷2號","121.50995","24.9969316666667","6500300","中和區"
"235022","151-BY","2019/08/22 13:49:40","新北市中和區連城路518巷8號","121.476435","24.9926083333333","6500300","中和區"
"235019","183-VK","2019/08/22 13:49:30","新北市板橋區民族路276巷11號","121.469796666667","25.0060433333333","6500300","中和區"
"235002","185-VK","2019/08/22 13:49:45","新北市中和區大勇街43巷4號","121.517696666667","24.99483","6500300","中和區"
"235013","186-VK","2019/08/22 13:49:33","新北市中和區景新街210巷27號","121.507103333333","24.99418","6500300","中和區"
"235031","255-BX","2019/08/22 13:49:34","新北市中和區新生街176巷2號","121.483538333333","24.9999783333333","6500300","中和區"
"235008","293-VK","2019/08/22 13:49:35","新北市中和區中興街139號","121.500048333333","24.99133","6500300","中和區"
"235036","301-VK","2019/08/22 13:49:41","新北市中和區中山路二段15號","121.505143333333","25.00549","6500300","中和區"
"235007","352-BY","2019/08/22 13:49:25","新北市中和區成功路59號","121.526173333333","24.9926633333333","6500300","中和區"
"235006","KEA-2878","2019/08/22 13:49:37","新北市中和區秀朗路三段76巷1號","121.526068333333","24.9940833333333","6500300","中和區"
"247007","KED-0682","2019/08/22 13:49:28","新北市蘆洲區重陽街29號","121.481275","25.0831216666667","6501400","蘆洲區"
"235033","4980-A6","2019/08/22 13:49:35","新北市中和區南山路50號","121.502005","24.9974683333333","6500300","中和區"
"235034","558-UM","2019/08/22 13:49:37","新北市中和區南工路1號","121.50519","24.9997783333333","6500300","中和區"
"235009","565-BX","2019/08/22 13:49:25","新北市中和區景新街410巷2號","121.512561666667","24.98923","6500300","中和區"
"235024","KED-0823","2019/08/22 13:49:29","新北市中和區民治街23巷2號","121.475375","25.00208","6500300","中和區"
"235018","640-BX","2019/08/22 13:49:27","新北市中和區民享街6號","121.474025","25.0048983333333","6500300","中和區"
"235011","732-UM","2019/08/22 13:49:26","新北市中和區興南路二段34巷28弄1號","121.504968333333","24.98649","6500300","中和區"
"235010","733-UM","2019/08/22 13:49:36","新北市中和區興南路一段85巷2號","121.509968333333","24.9886716666667","6500300","中和區"
"235035","783-BX","2019/08/22 13:49:39","新北市中和區中山路二段488號","121.487428333333","25.0054666666667","6500300","中和區"
"235026","800-TS","2019/08/22 13:49:32","新北市中和區中山路二段340巷58號","121.493283333333","25.004555","6500300","中和區"
"235021","801-TS","2019/08/22 13:49:35","新北市中和區民利街58巷3弄1號","121.478828333333","24.99907","6500300","中和區"
"235016","805-TS","2019/08/22 13:49:27","新北市中和區興南路二段399巷38號","121.499293333333","24.978815","6500300","中和區"
"235012","896-TW","2019/08/22 13:49:31","新北市中和區南山路359號","121.505956666667","24.9906416666667","6500300","中和區"
"235017","900-TW","2019/08/22 13:49:40","新北市中和區民德路304號","121.46738","24.9952433333333","6500300","中和區"
"235030","911-UM","2019/08/22 13:49:30","新北市中和區中山路二段131巷33號","121.50391","25.0028416666667","6500300","中和區"
"235015","157-BY","2019/08/22 13:49:42","新北市中和區忠孝街106巷29號","121.513238333333","24.9843566666667","6500300","中和區"
"235001","AAC-213","2019/08/22 13:49:33","新北市中和區自立路99巷8號","121.52246","24.99478","6500300","中和區"
"235023","AAC-215","2019/08/22 13:49:38","新北市中和區圓通路393巷16號","121.489783333333","24.988635","6500300","中和區"
"220013","072-UY","2019/08/22 13:49:42","新北市板橋區館前東路112號","121.463351666667","25.007745","6500100","板橋區"
"220034","073-UY","2019/08/22 13:49:35","新北市板橋區南雅南路二段11-4號","121.454048333333","25.002405","6500100","板橋區"
"220105","075-UY","2019/08/22 13:49:39","新北市板橋區莒光路48-1號","121.470665","25.0243116666667","6500100","板橋區"
"220017","AAD-861","2019/08/22 13:49:40","新北市板橋區華興街61號","121.457366666667","25.00489","6500100","板橋區"
"220016","120-SR","2019/08/22 13:49:44","新北市板橋區大同街35巷21號","121.476913333333","25.0277416666667","6500100","板橋區"
"247011","056-VK","2019/08/22 13:49:29","新北市蘆洲區環堤大道365號","121.45865","25.0977266666667","6501400","蘆洲區"
"247015","053-VK","2019/08/22 13:49:45","新北市蘆洲區光華路29號","121.469245","25.0831966666667","6501400","蘆洲區"
"247005","002-UY","2019/08/22 13:49:40","新北市蘆洲區中山二路256號","121.469273333333","25.0789283333333","6501400","蘆洲區"
"235005","251-BX","2019/08/22 13:49:46","新北市中和區永貞路280號","121.513105","25.0039466666667","6500300","中和區"
"228005","097-TW","2019/08/22 13:49:34","新北市貢寮區美豐里土地公嶺10號","121.890771666667","25.0568433333333","6502600","貢寮區"
"228004","212-TW","2019/08/22 13:49:41","新北市貢寮區龍崗里嵩陽街12號","121.90357","25.01164","6502600","貢寮區"
"253003","4710-YM","2019/08/22 13:49:29","新北市石門區尖子鹿10-2號","121.574616666667","25.2824983333333","6502200","石門區"
"253004","6251-TK","2019/08/22 13:49:40","新北市石門區阿里荖47-2號","121.606286666667","25.2776566666667","6502200","石門區"
"253002","637-UY","2019/08/22 13:49:32","新北市石門區尖山湖16-2號","121.562146666667","25.2437933333333","6502200","石門區"
"253001","KEC-0718","2019/08/22 13:49:19","新北市石門區八甲60-5號","121.526106666667","25.2710133333333","6502200","石門區"
"207002","749-BX","2019/08/22 13:49:38","新北市萬里區崁腳里崁腳路166號","121.645125","25.155835","6502800","萬里區"
"252005","073-UM","2019/08/22 13:49:29","新北市三芝區圓山里內柑宅28-1號","121.536028333333","25.2224083333333","6502100","三芝區"
"207001","662-BX","2019/08/22 13:49:42","新北市萬里區磺潭里公館崙35號","121.631845","25.21092","6502800","萬里區"
"236040","KED-0685","2019/08/22 13:49:38","新北市土城區城林路6巷80號","121.438551666667","24.9797116666667","6501300","土城區"
"236074","166-UM","2019/08/22 13:49:30","新北市土城區中華路二段87-1號","121.43921","24.977795","6501300","土城區"
"236029","253-BX","2019/08/22 13:49:37","新北市土城區城林路6巷80號","121.438525","24.9797333333333","6501300","土城區"
"236012","270-VK","2019/08/22 13:49:33","新北市土城區城林路6巷80號","121.43846","24.9797183333333","6501300","土城區"
"236032","271-VK","2019/08/22 13:49:40","新北市土城區城林路6巷80號","121.438496666667","24.979775","6501300","土城區"
"247009","KED-0683","2019/08/22 13:49:41","新北市蘆洲區復興路323巷168-11號","121.477711666667","25.0965766666667","6501400","蘆洲區"
"236068","KEA-2877","2019/08/22 13:49:39","新北市土城區城林路6巷80號","121.438205","24.979815","6501300","土城區"
"236057","912-UM","2019/08/22 13:49:34","新北市土城區中央路三段200號","121.430205","24.964965","6501300","土城區"
"236060","915-UM","2019/08/22 13:49:36","新北市土城區城林路6巷80號","121.438316666667","24.9792983333333","6501300","土城區"
"236054","AAC-216","2019/08/22 13:49:37","新北市土城區城林路6巷80號","121.438465","24.97976","6501300","土城區"
"221029","298-VK","2019/08/22 13:49:05","新北市汐止區中興路150巷21號","121.633245","25.0653166666667","6501100","汐止區"
"220027","145-BY","2019/08/22 13:49:28","新北市板橋區大智街71巷8弄13號","121.452576666667","25.0154666666667","6500100","板橋區"
"220028","200-UY","2019/08/22 13:49:33","新北市板橋區大觀路二段265巷128號","121.442263333333","24.9962583333333","6500100","板橋區"
"220030","610-BX","2019/08/22 13:49:40","新北市板橋區篤行路三段34號","121.428083333333","24.98645","6500100","板橋區"
"220022","256-TC","2019/08/22 13:49:33","新北市板橋區中正路439號","121.453981666667","25.0257566666667","6500100","板橋區"
"220004","276-BY","2019/08/22 13:49:36","新北市板橋區四川路一段281號","121.459456666667","25.0019816666667","6500100","板橋區"
"220020","277-BY","2019/08/22 13:49:35","新北市板橋區金門街23號","121.433435","24.9945283333333","6500100","板橋區"
"220050","280-UM","2019/08/22 13:49:41","新北市板橋區莊敬路107號","121.472393333333","25.026","6500100","板橋區"
"220019","283-VK","2019/08/22 13:49:38","新北市板橋區四川路一段57號","121.459711666667","25.0062283333333","6500100","板橋區"
"220043","285-UM","2019/08/22 13:49:36","新北市板橋區文化路二段39號","121.468945","25.0249516666667","6500100","板橋區"
"220001","285-VK","2019/08/22 13:49:42","新北市板橋區成功路51號","121.47485","25.0179733333333","6500100","板橋區"
"220031","286-VK","2019/08/22 13:49:46","新北市板橋區大觀路二段22巷35號","121.44482","25.00354","6500100","板橋區"
"220029","287-VK","2019/08/22 13:49:37","新北市板橋區光華街13巷34號","121.453096666667","25.01136","6500100","板橋區"
"220039","288-VK","2019/08/22 13:49:29","新北市板橋區四維路177巷4弄18號","121.463446666667","25.0265483333333","6500100","板橋區"
"220009","293-UM","2019/08/22 13:49:45","新北市板橋區太和街6巷1號","121.47371","25.0200566666667","6500100","板橋區"
"220032","296-UM","2019/08/22 13:49:47","新北市板橋區大觀路二段156巷2-1號","121.441453333333","24.99919","6500100","板橋區"
"220023","303-R5","2019/08/22 13:49:28","新北市板橋區大觀路一段28巷96號","121.4505","25.01099","6500100","板橋區"
"220010","305-R5","2019/08/22 13:49:33","新北市板橋區中山路二段28號","121.472653333333","25.0151033333333","6500100","板橋區"
"220041","307-R5","2019/08/22 13:49:42","新北市板橋區文化路一段162號","121.465575","25.01926","6500100","板橋區"
"220047","317-R6","2019/08/22 13:49:42","新北市板橋區民生路二段240巷31號","121.469303333333","25.0231333333333","6500100","板橋區"
"220038","487-VK","2019/08/22 13:49:42","新北市板橋區文化路二段419號","121.474405","25.0328716666667","6500100","板橋區"
"220037","491-VK","2019/08/22 13:49:43","新北市板橋區文化路二段16-2號","121.468838333333","25.02421","6500100","板橋區"
"220052","561-BX","2019/08/22 13:49:39","新北市板橋區文化路一段188巷11弄54號","121.469051666667","25.0187466666667","6500100","板橋區"
"220011","609-BX","2019/08/22 13:49:29","新北市板橋區中山路二段87號","121.4741","25.015835","6500100","板橋區"
"220104","630-UY","2019/08/22 13:49:33","新北市板橋區中正路275巷79弄13號","121.452026666667","25.0174166666667","6500100","板橋區"
"220040","637-BX","2019/08/22 13:49:35","新北市板橋區雙十路二段47巷36號","121.475311666667","25.0257116666667","6500100","板橋區"
"220005","686-BX","2019/08/22 13:49:43","新北市板橋區重慶路97號","121.462115","25.0056","6500100","板橋區"
"220025","687-BX","2019/08/22 13:49:48","新北市板橋區金門街50號","121.433233333333","24.9930783333333","6500100","板橋區"
"220042","689-BX","2019/08/22 13:49:43","新北市板橋區民生路三段120-2號","121.466436666667","25.0267766666667","6500100","板橋區"
"220002","741-BX","2019/08/22 13:49:20","新北市板橋區館前西路19號","121.458686666667","25.0068766666667","6500100","板橋區"
"220051","KEA-2699","2019/08/22 13:49:39","新北市板橋區田單街2巷24號","121.481435","25.0278683333333","6500100","板橋區"
"220003","827-TW","2019/08/22 13:49:35","新北市板橋區忠孝路147號","121.463425","25.00242","6500100","板橋區"
"220014","829-TW","2019/08/22 13:49:31","新北市板橋區民生路二段89-1號","121.471673333333","25.0173716666667","6500100","板橋區"
"220022","895-R6","2019/08/22 13:49:40","新北市板橋區府中路30號","121.458648333333","25.00952","6500100","板橋區"
"220021","985-R7","2019/08/22 13:49:22","新北市板橋區府中路32號","121.458206666667","25.009555","6500100","板橋區"
"220046","AAC-210","2019/08/22 13:49:33","新北市板橋區四維路137巷31號","121.463816666667","25.024655","6500100","板橋區"
"220012","AAC-253","2019/08/22 13:49:44","新北市板橋區漢生東路125號","121.467636666667","25.0144783333333","6500100","板橋區"
"235032","KEA-2873","2019/08/22 13:49:31","新北市中和區圓通路169號","121.497615","24.9953566666667","6500300","中和區"
"235025","KEA-2875","2019/08/22 13:49:46","新北市中和區中山路三段65號","121.47656","25.0058033333333","6500300","中和區"
