"lineid","car","time","location","longitude","latitude","cityid","cityname"
"234044","148-BY","2019/08/22 14:19:31","新北市永和區永元路118號","121.522771666667","25.00257","6500400","永和區"
"234078","298-R6","2019/08/22 14:19:40","新北市永和區國中路132巷10號","121.523908333333","25.00748","6500400","永和區"
"234036","336-UY","2019/08/22 14:19:41","新北市永和區成功路一段108號","121.526865","25.0027016666667","6500400","永和區"
"234062","337-UY","2019/08/22 14:17:13","新北市永和區得和路190號","121.520041666667","25.00007","6500400","永和區"
"234084","338-UY","2019/08/22 14:19:44","新北市永和區中正路581-3號","121.516698333333","25.0091783333333","6500400","永和區"
"234068","552-UM","2019/08/22 14:19:40","新北市永和區永寧街115巷9號","121.518486666667","25.0061616666667","6500400","永和區"
"234028","746-BX","2019/08/22 14:19:36","新北市永和區民權路49巷5弄7號","121.52045","24.997505","6500400","永和區"
"234052","KEA-2590","2019/08/22 14:19:38","新北市永和區光復街2巷14號","121.517016666667","25.016365","6500400","永和區"
"234005","KED-0605","2019/08/22 14:19:30","新北市永和區永貞路313號","121.51","25.0066316666667","6500400","永和區"
"234012","KEA-2591","2019/08/22 14:19:35","新北市永和區保生路30號","121.506178333333","25.0076183333333","6500400","永和區"
"234060","AAD-866","2019/08/22 14:19:26","新北市永和區安樂路168號","121.514736666667","25.0007366666667","6500400","永和區"
"234040","862-TW","2019/08/22 14:19:46","新北市中和區中安街202-1號","121.511761666667","24.9990433333333","6500400","永和區"
"234048","863-TW","2019/08/22 14:19:31","新北市永和區文化路230號","121.509835","25.0169266666667","6500400","永和區"
"234025","9371-KE","2019/08/22 14:19:33","新北市永和區得和路42巷23號","121.515403333333","24.9996683333333","6500400","永和區"
"248013","025-BX","2019/08/22 14:19:42","新北市五股區民義路一段198號","121.43256","25.0881033333333","6501500","五股區"
"248015","026-BX","2019/08/22 14:19:41","新北市五股區凌雲路一段46號","121.451738333333","25.10075","6501500","五股區"
"248007","KED-0815","2019/08/22 14:19:44","新北市五股區中興路二段63巷17號","121.460325","25.07539","6501500","五股區"
"248017","KED-0813","2019/08/22 14:19:41","新北市五股區壟路7-2號","121.416325","25.0896516666667","6501500","五股區"
"248011","247-BX","2019/08/22 14:19:44","新北市五股區成泰路二段91巷8號","121.437763333333","25.0845966666667","6501500","五股區"
"248003","677-BX","2019/08/22 14:19:37","新北市五股區五福路69號","121.432633333333","25.0901916666667","6501500","五股區"
"248001","678-BX","2019/08/22 14:19:46","新北市五股區成泰路三段544-18號","121.452795","25.10345","6501500","五股區"
"234076","969-R7","2019/08/22 14:19:40","新北市永和區民族街81巷28號","121.519005","24.9966033333333","6500400","永和區"
"234072","AAC-211","2019/08/22 14:19:41","新北市永和區竹林路119巷30弄9號","121.522596666667","25.011665","6500400","永和區"
"234066","AAC-212","2019/08/22 14:19:47","新北市永和區保平路292巷42號","121.507598333333","25.0052033333333","6500400","永和區"
"234001","AAC-295","2019/08/22 14:19:25","新北市永和區中正路620號","121.517003333333","25.0078966666667","6500400","永和區"
"243004","AAD-798","2019/08/22 14:19:46","新北市泰山區仁武街96號","121.432678333333","25.0545616666667","6501600","泰山區"
"243002","297-R6","2019/08/22 14:19:42","新北市泰山區明志路二段7巷11號","121.43068","25.05333","6501600","泰山區"
"243006","KEA-2801","2019/08/22 14:19:29","新北市泰山區泰林路二段208號","121.4333","25.0614466666667","6501600","泰山區"
"243008","421-VK","2019/08/22 14:19:45","新北市泰山區工專路10號","121.423963333333","25.0396033333333","6501600","泰山區"
"243001","KEA-2215","2019/08/22 14:19:43","新北市泰山區和平街13巷68號","121.434405","25.0664116666667","6501600","泰山區"
"243003","KEA-2216","2019/08/22 14:19:31","新北市泰山區貴子路15巷6弄2號","121.4268","25.0425216666667","6501600","泰山區"
"243005","646-TV","2019/08/22 14:19:47","新北市泰山區明志路三段145巷9號","121.42555","25.03991","6501600","泰山區"
"243007","680-BX","2019/08/22 14:19:43","新北市泰山區公園路36號","121.428988333333","25.054365","6501600","泰山區"
"231030","002-UM","2019/08/22 14:19:37","新北市新店區安民街65巷11號","121.515261666667","24.9664916666667","6500600","新店區"
"231027","0293-UT","2019/08/22 14:19:40","新北市新店區檳榔路36巷14號","121.541086666667","24.9632916666667","6500600","新店區"
"231005","046-UY","2019/08/22 14:19:30","新北市新店區中興路三段219-1號","121.543415","24.9824033333333","6500600","新店區"
"231029","106-UY","2019/08/22 14:19:38","新北市新店區安康路二段204號","121.510293333333","24.9596616666667","6500600","新店區"
"231018","107-UY","2019/08/22 14:19:39","新北市新店區中央三街101號","121.525103333333","24.976195","6500600","新店區"
"231013","108-UY","2019/08/22 14:19:34","新北市新店區大豐路40號","121.54031","24.979945","6500600","新店區"
"231036","110-UY","2019/08/22 14:19:36","新北市新店區安祥路109巷90弄82號","121.475891666667","24.958345","6500600","新店區"
"231031","256-BX","2019/08/22 14:19:37","新北市新店區永業路57號","121.531956666667","24.9542466666667","6500600","新店區"
"231023","260-TV","2019/08/22 14:19:34","新北市新店區光明街13號","121.538413333333","24.9593033333333","6500600","新店區"
"231003","268-BY","2019/08/22 14:19:27","新北市新店區中興路一段203號","121.543596666667","24.9654916666667","6500600","新店區"
"231035","278-BY","2019/08/22 14:19:33","新北市新店區光華街8巷14號","121.518025","24.9694616666667","6500600","新店區"
"231017","AAD-862","2019/08/22 14:19:25","新北市新店區中生路83巷3號","121.564745","24.95167","6500600","新店區"
"231006","355-BY","2019/08/22 14:19:43","新北市新店區北宜路二段220號","121.559635","24.9543516666667","6500600","新店區"
"231038","3712-VJ","2019/08/22 14:19:38","新北市新店區溪洲路8巷34號","121.533445","24.9619983333333","6500600","新店區"
"231021","515-UM","2019/08/22 14:19:43","新北市新店區新烏路二段198巷2弄2號","121.54777","24.91703","6500600","新店區"
"231034","616-UM","2019/08/22 14:19:30","新北市新店區車子路11號","121.503055","24.95205","6500600","新店區"
"231002","619-UM","2019/08/22 14:19:31","新北市新店區中正路487號","121.53382","24.9821083333333","6500600","新店區"
"231011","KED-0819","2019/08/22 14:19:37","新北市新店區五峰路63巷14號","121.546675","24.968685","6500600","新店區"
"231028","897-TW","2019/08/22 14:19:45","新北市新店區安和路三段83號","121.517905","24.98375","6500600","新店區"
"231001","898-TW","2019/08/22 14:19:27","新北市新店區北新路一段251號","121.54087","24.9660383333333","6500600","新店區"
"231004","899-TW","2019/08/22 14:19:29","新北市新店區北新路二段6號","121.542833333333","24.9710416666667","6500600","新店區"
"231037","AKT-0513","2019/08/22 14:19:43","新北市新店區安康路二段341巷1號","121.496865","24.9551383333333","6500600","新店區"
"235028","005-UY","2019/08/22 14:19:30","新北市中和區南山路81巷24號","121.502663333333","24.99802","6500300","中和區"
"235027","006-UY","2019/08/22 14:19:34","新北市中和區連城路227號","121.494036666667","24.9975033333333","6500300","中和區"
"235020","096-UM","2019/08/22 14:19:25","新北市中和區中山路二段585號","121.480113333333","25.0058016666667","6500300","中和區"
"235003","097-UM","2019/08/22 14:19:36","新北市中和區秀峰街127巷4號","121.519331666667","24.9910216666667","6500300","中和區"
"235029","098-UM","2019/08/22 14:19:37","新北市中和區中山路二段2巷17號","121.50382","25.0068183333333","6500300","中和區"
"235004","150-BY","2019/08/22 14:19:36","新北市中和區安平路38號","121.509901666667","24.994945","6500300","中和區"
"235022","151-BY","2019/08/22 14:19:40","新北市中和區連城路374巷4弄1號","121.481503333333","24.9957916666667","6500300","中和區"
"235019","183-VK","2019/08/22 14:19:30","新北市中和區中山路三段181巷18弄5號","121.472611666667","25.0051466666667","6500300","中和區"
"235002","185-VK","2019/08/22 14:19:45","新北市中和區大仁街10巷52號","121.520658333333","24.9926866666667","6500300","中和區"
"235013","186-VK","2019/08/22 14:19:43","新北市中和區景平路396-2號","121.509763333333","24.9932183333333","6500300","中和區"
"235031","255-BX","2019/08/22 14:19:34","新北市中和區連城路340巷6號","121.482753333333","24.9961166666667","6500300","中和區"
"235008","293-VK","2019/08/22 14:19:35","新北市中和區復興路306號","121.501246666667","24.99035","6500300","中和區"
"235036","301-VK","2019/08/22 14:19:41","新北市中和區永和路1-2號","121.499823333333","25.003025","6500300","中和區"
"235007","352-BY","2019/08/22 14:19:25","新北市中和區景平路290號","121.513143333333","24.99284","6500300","中和區"
"235006","KEA-2878","2019/08/22 14:19:37","新北市中和區安樂路217巷21弄14號","121.513961666667","24.9978683333333","6500300","中和區"
"247013","KEA-2869","2019/08/22 14:19:33","新北市蘆洲區中山一路196號","121.473716666667","25.0808316666667","6501400","蘆洲區"
"247007","KED-0682","2019/08/22 14:19:28","新北市蘆洲區中山一路197巷6弄21號","121.474148333333","25.08017","6501400","蘆洲區"
"235033","4980-A6","2019/08/22 14:19:31","新北市中和區福祥路36號","121.499361666667","25.00371","6500300","中和區"
"235034","558-UM","2019/08/22 14:19:37","新北市中和區中山路二段226號","121.49918","25.0028","6500300","中和區"
"235009","565-BX","2019/08/22 14:19:25","新北市中和區景新街383巷49號","121.513478333333","24.9906733333333","6500300","中和區"
"235024","KED-0823","2019/08/22 14:19:28","新北市中和區新生街52號","121.48314","25.003005","6500300","中和區"
"235018","640-BX","2019/08/22 14:19:35","新北市中和區國光街102巷11弄5號","121.470635","25.00089","6500300","中和區"
"235011","732-UM","2019/08/22 14:19:26","新北市中和區景平路241巷57號","121.508086666667","24.9920966666667","6500300","中和區"
"235010","733-UM","2019/08/22 14:19:36","新北市中和區忠孝街2巷16號","121.51077","24.9813883333333","6500300","中和區"
"235035","783-BX","2019/08/22 14:19:39","新北市中和區建康路3號","121.485583333333","25.000145","6500300","中和區"
"235026","800-TS","2019/08/22 14:19:31","新北市中和區中山路二段526巷23號","121.485763333333","25.0056916666667","6500300","中和區"
"235021","801-TS","2019/08/22 14:19:35","新北市中和區員山路318號","121.481316666667","25.00301","6500300","中和區"
"235016","805-TS","2019/08/22 14:19:27","新北市中和區興南路二段142巷31弄63號","121.501638333333","24.983645","6500300","中和區"
"235012","896-TW","2019/08/22 14:19:31","新北市中和區華新街109巷26號","121.508418333333","24.980225","6500300","中和區"
"235017","900-TW","2019/08/22 14:19:40","新北市中和區華順街26號","121.46692","24.9987716666667","6500300","中和區"
"235030","911-UM","2019/08/22 14:19:30","新北市中和區中和路102號","121.502668333333","24.9997716666667","6500300","中和區"
"235015","157-BY","2019/08/22 14:19:42","新北市中和區景平路239巷55號","121.508755","24.9922333333333","6500300","中和區"
"235001","AAC-213","2019/08/22 14:19:33","新北市中和區秀朗路三段10巷14弄50號","121.524263333333","24.996535","6500300","中和區"
"235023","AAC-215","2019/08/22 14:19:38","新北市中和區圓通路252巷18弄1號","121.49236","24.9924433333333","6500300","中和區"
"220013","072-UY","2019/08/22 14:19:42","新北市板橋區民族路129巷10號","121.467615","25.0084483333333","6500100","板橋區"
"220034","073-UY","2019/08/22 14:19:35","新北市板橋區中正路236巷75號","121.458968333333","25.0196816666667","6500100","板橋區"
"220105","075-UY","2019/08/22 14:19:39","新北市板橋區文化路二段441巷16號","121.47436","25.033885","6500100","板橋區"
"220017","AAD-861","2019/08/22 14:19:40","新北市板橋區貴興路31號","121.457736666667","25.003955","6500100","板橋區"
"220016","120-SR","2019/08/22 14:19:44","新北市板橋區林森街1巷23號","121.482551666667","25.0242616666667","6500100","板橋區"
"247003","893-R6","2019/08/22 14:19:30","新北市蘆洲區中原路13-5號","121.460836666667","25.08306","6501400","蘆洲區"
"247017","546-UM","2019/08/22 14:19:31","新北市蘆洲區民權路87號","121.473115","25.0887516666667","6501400","蘆洲區"
"247001","500-BY","2019/08/22 14:19:31","新北市蘆洲區永樂街60號","121.457318333333","25.0884683333333","6501400","蘆洲區"
"247021","057-VK","2019/08/22 14:19:27","新北市蘆洲區民族路411號","121.468845","25.0897333333333","6501400","蘆洲區"
"247011","056-VK","2019/08/22 14:19:29","新北市蘆洲區信義路351巷18號","121.476713333333","25.0868283333333","6501400","蘆洲區"
"247015","053-VK","2019/08/22 14:19:25","新北市蘆洲區光華路70巷8號","121.467663333333","25.0834083333333","6501400","蘆洲區"
"247019","007-UY","2019/08/22 14:19:30","新北市蘆洲區民族路426號","121.473608333333","25.09195","6501400","蘆洲區"
"247005","002-UY","2019/08/22 14:19:40","新北市蘆洲區九芎街153巷6號","121.465355","25.07887","6501400","蘆洲區"
"247023","001-UY","2019/08/22 14:19:38","新北市蘆洲區長榮路703號","121.461035","25.0928933333333","6501400","蘆洲區"
"235005","251-BX","2019/08/22 14:19:26","新北市中和區宜安路133-1號","121.509476666667","24.998195","6500300","中和區"
"228005","097-TW","2019/08/22 14:19:34","新北市貢寮區美豐里土地公嶺55號","121.89452","25.06506","6502600","貢寮區"
"228004","212-TW","2019/08/22 14:19:41","新北市貢寮區雙玉里田寮洋街39號","121.924966666667","25.013955","6502600","貢寮區"
"253003","4710-YM","2019/08/22 14:19:29","新北市石門區內石門65號","121.579705","25.2621983333333","6502200","石門區"
"253004","6251-TK","2019/08/22 14:19:20","新北市石門區坪林31號","121.590045","25.264495","6502200","石門區"
"253002","637-UY","2019/08/22 14:19:32","新北市石門區大溪墘3-1號","121.551803333333","25.2808566666667","6502200","石門區"
"253001","KEC-0718","2019/08/22 14:18:59","新北市石門區八甲15號","121.523215","25.2812583333333","6502200","石門區"
"207002","749-BX","2019/08/22 14:19:38","新北市萬里區溪底里瑞泉路7號","121.60386","25.1391783333333","6502800","萬里區"
"252005","073-UM","2019/08/22 14:19:29","新北市三芝區橫山里橫山33號","121.543026666667","25.258785","6502100","三芝區"
"252002","178-VK","2019/08/22 14:19:25","新北市三芝區錫板里海尾11-7號","121.478586666667","25.260665","6502100","三芝區"
"207001","662-BX","2019/08/22 14:19:42","新北市萬里區磺潭里清水18號","121.637785","25.19766","6502800","萬里區"
"236040","KED-0685","2019/08/22 14:19:38","新北市土城區樂利街3巷18號","121.44853","24.98647","6501300","土城區"
"236074","166-UM","2019/08/22 14:19:30","新北市土城區中央路三段281巷23弄19號","121.426358333333","24.9616066666667","6501300","土城區"
"236029","253-BX","2019/08/22 14:19:37","新北市土城區順風路46號","121.4402","24.977095","6501300","土城區"
"236024","269-VK","2019/08/22 14:19:37","新北市土城區承天路18號","121.439425","24.9635116666667","6501300","土城區"
"236012","270-VK","2019/08/22 14:19:33","新北市土城區青雲路39巷7號","121.460305","24.9875016666667","6501300","土城區"
"236032","271-VK","2019/08/22 14:19:46","新北市土城區青雲路483巷5號","121.459451666667","24.9739716666667","6501300","土城區"
"247009","KED-0683","2019/08/22 14:19:41","新北市蘆洲區三民路26巷22號","121.477456666667","25.0829583333333","6501400","蘆洲區"
"236068","KEA-2877","2019/08/22 14:19:39","新北市土城區明德路一段161號","121.464676666667","24.9796266666667","6501300","土城區"
"236017","401-BY","2019/08/22 14:19:31","新北市土城區明德路一段158號","121.463013333333","24.9785316666667","6501300","土城區"
"236057","912-UM","2019/08/22 14:19:34","新北市土城區中央路四段290號","121.414348333333","24.9562583333333","6501300","土城區"
"236045","913-UM","2019/08/22 14:19:37","新北市土城區明德路一段361-3號","121.456086666667","24.9778116666667","6501300","土城區"
"236060","915-UM","2019/08/22 14:19:36","新北市土城區金城路三段186號","121.468068333333","24.98792","6501300","土城區"
"236054","AAC-216","2019/08/22 14:19:40","新北市土城區中華路二段174號","121.437388333333","24.9719566666667","6501300","土城區"
"221029","298-VK","2019/08/22 14:19:44","新北市汐止區福德二路55巷6弄10號","121.634018333333","25.0668683333333","6501100","汐止區"
"220027","145-BY","2019/08/22 14:19:28","新北市板橋區民權路260巷1弄7號","121.45803","25.0157716666667","6500100","板橋區"
"220028","200-UY","2019/08/22 14:19:33","新北市板橋區大觀路二段3巷71號","121.449763333333","25.0038183333333","6500100","板橋區"
"220030","610-BX","2019/08/22 14:19:40","新北市板橋區溪崑二街134號","121.425935","24.98776","6500100","板橋區"
"220022","256-TC","2019/08/22 14:19:33","新北市板橋區館前西路43號","121.458135","25.0067833333333","6500100","板橋區"
"220004","276-BY","2019/08/22 14:19:36","新北市土城區永豐路13巷5弄7-3號","121.461398333333","24.9893283333333","6500100","板橋區"
"220020","277-BY","2019/08/22 14:19:33","新北市板橋區金門街370號","121.427135","24.9838683333333","6500100","板橋區"
"220050","280-UM","2019/08/22 14:19:41","新北市板橋區縣民大道三段127巷24號","121.476846666667","25.023685","6500100","板橋區"
"220019","283-VK","2019/08/22 14:19:38","新北市板橋區重慶路265號","121.463376666667","25.0000083333333","6500100","板橋區"
"220043","285-UM","2019/08/22 14:19:41","新北市板橋區吳鳳路50巷42弄2號","121.47019","25.03033","6500100","板橋區"
"220001","285-VK","2019/08/22 14:19:42","新北市板橋區縣民大道三段270巷12號","121.478423333333","25.0229216666667","6500100","板橋區"
"220031","286-VK","2019/08/22 14:19:26","新北市板橋區大觀路二段174巷184號","121.442096666667","25.0036933333333","6500100","板橋區"
"220029","287-VK","2019/08/22 14:19:37","新北市板橋區南雅西路一段35號","121.453843333333","25.0045066666667","6500100","板橋區"
"220039","288-VK","2019/08/22 14:19:28","新北市板橋區裕民街51號","121.461185","25.0284483333333","6500100","板橋區"
"220009","293-UM","2019/08/22 14:19:25","新北市板橋區中山路一段272巷18-1號","121.469351666667","25.0136766666667","6500100","板橋區"
"220032","296-UM","2019/08/22 14:19:38","新北市板橋區滿平街136巷2弄24號","121.42806","24.9882816666667","6500100","板橋區"
"220023","303-R5","2019/08/22 14:19:28","新北市板橋區館前西路122號","121.456636666667","25.007755","6500100","板橋區"
"220010","305-R5","2019/08/22 14:19:36","新北市板橋區三民路二段153巷30弄35號","121.481131666667","25.0145266666667","6500100","板橋區"
"220041","307-R5","2019/08/22 14:19:42","新北市板橋區松江街5號","121.469083333333","25.0261333333333","6500100","板橋區"
"220047","317-R6","2019/08/22 14:19:42","新北市板橋區四維路100號","121.465746666667","25.0243766666667","6500100","板橋區"
"220038","487-VK","2019/08/22 14:19:42","新北市板橋區英士路49-1號","121.461105","25.0244816666667","6500100","板橋區"
"220037","491-VK","2019/08/22 14:19:23","新北市板橋區雙十路二段231號","121.472848333333","25.0290316666667","6500100","板橋區"
"220052","561-BX","2019/08/22 14:19:39","新北市板橋區文化路一段341號","121.466601666667","25.0208216666667","6500100","板橋區"
"220011","609-BX","2019/08/22 14:19:28","新北市板橋區三民路二段202-28號","121.47894","25.0125433333333","6500100","板橋區"
"220104","630-UY","2019/08/22 14:19:41","新北市板橋區瑞安街31巷8-1號","121.455958333333","25.022665","6500100","板橋區"
"220040","637-BX","2019/08/22 14:19:35","新北市板橋區縣民大道三段245巷2號","121.481515","25.0260466666667","6500100","板橋區"
"220005","686-BX","2019/08/22 14:19:43","新北市板橋區五權街8-3號","121.46426","24.994185","6500100","板橋區"
"220025","687-BX","2019/08/22 14:19:28","新北市板橋區龍興街31號","121.442921666667","25.0002083333333","6500100","板橋區"
"220042","689-BX","2019/08/22 14:19:43","新北市板橋區雨農路50號","121.461155","25.0243316666667","6500100","板橋區"
"220002","741-BX","2019/08/22 14:19:40","新北市板橋區校前街38號","121.461006666667","25.00312","6500100","板橋區"
"220051","KEA-2699","2019/08/22 14:19:39","新北市板橋區松柏街22巷36號","121.475016666667","25.0288916666667","6500100","板橋區"
"220003","827-TW","2019/08/22 14:19:37","新北市板橋區新民街6巷20號","121.465346666667","25.0101033333333","6500100","板橋區"
"220014","829-TW","2019/08/22 14:19:31","新北市板橋區長安街138巷1弄67號","121.474496666667","25.0107283333333","6500100","板橋區"
"220022","895-R6","2019/08/22 14:19:40","新北市板橋區北門街59號","121.456168333333","25.0118","6500100","板橋區"
"220021","985-R7","2019/08/22 14:19:41","新北市板橋區中正路212號","121.455978333333","25.0181916666667","6500100","板橋區"
"220046","AAC-210","2019/08/22 14:19:33","新北市板橋區幸福路32巷3號","121.461535","25.0205533333333","6500100","板橋區"
"220012","AAC-253","2019/08/22 14:19:43","新北市板橋區中山路一段48號","121.46083","25.0089583333333","6500100","板橋區"
"235032","KEA-2873","2019/08/22 14:19:30","新北市中和區廟美街13號","121.500283333333","25.002215","6500300","中和區"
"235025","KEA-2875","2019/08/22 14:19:45","新北市中和區員山路325-5號","121.481061666667","25.0010633333333","6500300","中和區"
