"lineid","car","time","location","longitude","latitude","cityid","cityname"
"231030","002-UM","2019/08/22 15:29:37","新北市新店區安和路三段61號","121.517981666667","24.9832466666667","6500600","新店區"
"231024","0291-UT","2019/08/22 15:29:30","新北市新店區安康路一段235號","121.525223333333","24.963255","6500600","新店區"
"231005","046-UY","2019/08/22 15:29:29","新北市新店區建國路291巷1號","121.536921666667","24.9853583333333","6500600","新店區"
"231029","106-UY","2019/08/22 15:29:38","新北市新店區安康路三段628號","121.478681666667","24.945835","6500600","新店區"
"231018","107-UY","2019/08/22 15:29:38","新北市新店區民生路126號","121.529801666667","24.9825883333333","6500600","新店區"
"231013","108-UY","2019/08/22 15:29:34","新北市新店區華潭街1巷9號","121.529353333333","24.9493983333333","6500600","新店區"
"231036","110-UY","2019/08/22 15:29:27","新北市新店區安祥路67巷50弄2號","121.484838333333","24.9590566666667","6500600","新店區"
"231039","187-VK","2019/08/22 15:29:32","新北市新店區寶元路一段89號","121.543235","24.9852166666667","6500600","新店區"
"231031","256-BX","2019/08/22 15:29:37","新北市新店區和成街5號","121.48851","24.9481633333333","6500600","新店區"
"231023","260-TV","2019/08/22 15:29:34","新北市新店區大新街3號","121.543628333333","24.96887","6500600","新店區"
"231003","268-BY","2019/08/22 15:29:27","新北市新店區寶高路120巷1號","121.554586666667","24.97614","6500600","新店區"
"231035","278-BY","2019/08/22 15:29:33","新北市新店區安興路141號","121.516738333333","24.9797333333333","6500600","新店區"
"231017","AAD-862","2019/08/22 15:29:25","新北市新店區明山路129號","121.566963333333","24.96102","6500600","新店區"
"231038","3712-VJ","2019/08/22 15:29:42","新北市新店區安康路一段266巷4號","121.519801666667","24.9640916666667","6500600","新店區"
"231025","4715-K9","2019/08/22 15:29:42","新北市新店區薏仁坑路6-1號","121.499933333333","24.9584683333333","6500600","新店區"
"231021","515-UM","2019/08/22 15:29:43","新北市新店區湖興路109號","121.56186","24.9370266666667","6500600","新店區"
"231034","616-UM","2019/08/22 15:29:30","新北市新店區富貴街8巷1號","121.494338333333","24.9498533333333","6500600","新店區"
"231002","619-UM","2019/08/22 15:29:31","新北市新店區環河路121-2號","121.530285","24.9713666666667","6500600","新店區"
"231011","KED-0819","2019/08/22 15:29:37","新北市新店區寶元路一段109號","121.545695","24.9831133333333","6500600","新店區"
"231026","720-UM","2019/08/22 15:29:31","新北市新店區三民路20巷41號","121.538045","24.9718233333333","6500600","新店區"
"231028","897-TW","2019/08/22 15:29:25","新北市新店區僑信路134號","121.500765","24.9458","6500600","新店區"
"231001","898-TW","2019/08/22 15:29:27","新北市新店區光明街231號","121.54032","24.9643516666667","6500600","新店區"
"231004","899-TW","2019/08/22 15:29:29","新北市新店區民族路175號","121.537496666667","24.976525","6500600","新店區"
"231037","AKT-0513","2019/08/22 15:29:43","新北市新店區安興路81號","121.515521666667","24.9753766666667","6500600","新店區"
"241011","013-R5","2019/08/22 15:29:27","新北市三重區環河南路100號","121.499785","25.0569016666667","6500200","三重區"
"241018","268-UM","2019/08/22 15:29:29","新北市三重區重新路四段121號","121.485231666667","25.0521533333333","6500200","三重區"
"241020","478-VK","2019/08/22 15:29:26","新北市三重區重新路四段121號","121.48475","25.0519016666667","6500200","三重區"
"241012","941-UM","2019/08/22 15:29:34","新北市三重區泉州街84巷20號","121.495865","25.0543833333333","6500200","三重區"
"241029","942-UM","2019/08/22 15:29:29","新北市三重區成功路1號","121.490665","25.0499016666667","6500200","三重區"
"241033","AAC-255","2019/08/22 15:29:46","新北市三重區重新路四段121號","121.485116666667","25.0522633333333","6500200","三重區"
"235019","183-VK","2019/08/22 15:29:30","新北市八里區中山路三段409號","121.368613333333","25.1349216666667","6500300","中和區"
"235033","4980-A6","2019/08/22 15:29:35","新北市中和區連城路467-3號","121.483908333333","24.9961983333333","6500300","中和區"
"235026","800-TS","2019/08/22 15:29:31","新北市中和區橋和路88-12號","121.490151666667","25.00536","6500300","中和區"
"235023","AAC-215","2019/08/22 15:29:38","新北市中和區圓通路356-3號","121.485221666667","24.986785","6500300","中和區"
"228005","097-TW","2019/08/22 15:29:34","新北市貢寮區龍門里水返港1-2號","121.920496666667","25.0264116666667","6502600","貢寮區"
"207001","662-BX","2019/08/22 15:29:42","新北市萬里區龜吼里翡翠路17號","121.683133333333","25.187755","6502800","萬里區"
"236040","KED-0685","2019/08/22 15:29:38","新北市土城區學府路一段111號","121.4557","24.9875833333333","6501300","土城區"
"236074","166-UM","2019/08/22 15:29:30","新北市土城區龍泉路38-2號","121.412131666667","24.94564","6501300","土城區"
"236029","253-BX","2019/08/22 15:29:37","新北市土城區中華路一段207號","121.442815","24.98479","6501300","土城區"
"236024","269-VK","2019/08/22 15:29:37","新北市土城區中央路二段79號","121.442346666667","24.978405","6501300","土城區"
"236012","270-VK","2019/08/22 15:29:35","新北市土城區廣明街22號","121.455756666667","24.992335","6501300","土城區"
"236032","271-VK","2019/08/22 15:29:40","新北市土城區明德路一段143號","121.465168333333","24.980095","6501300","土城區"
"236068","KEA-2877","2019/08/22 15:29:04","新北市土城區中央路二段280號","121.44064","24.9742483333333","6501300","土城區"
"236017","401-BY","2019/08/22 15:29:31","新北市土城區延吉街137巷6號","121.470856666667","24.9857816666667","6501300","土城區"
"236057","912-UM","2019/08/22 15:29:34","新北市土城區中央路二段215號","121.441146666667","24.9740716666667","6501300","土城區"
"236045","913-UM","2019/08/22 15:29:36","新北市土城區青雲路250-1號","121.458973333333","24.97997","6501300","土城區"
"236060","915-UM","2019/08/22 15:29:36","新北市土城區延和路18巷2號","121.464403333333","24.9882116666667","6501300","土城區"
"236054","AAC-216","2019/08/22 15:29:37","新北市土城區金城路三段157號","121.468801666667","24.988495","6501300","土城區"
"238002","755-BX","2019/08/22 15:29:45","新北市樹林區復興路189號","121.420733333333","24.9919883333333","6500700","樹林區"
"238010","601-UM","2019/08/22 15:29:45","新北市樹林區三福街114號","121.406265","25.0163","6500700","樹林區"
"238006","599-UM","2019/08/22 15:29:37","新北市樹林區太平路94-3號","121.418935","24.9799233333333","6500700","樹林區"
"238011","5061-A6","2019/08/22 15:29:39","新北市樹林區八德街212巷20號","121.41528","24.9733566666667","6500700","樹林區"
"238005","KEA-2217","2019/08/22 15:29:45","新北市樹林區鎮前街6號","121.426306666667","24.9935333333333","6500700","樹林區"
"238009","KEA-2213","2019/08/22 15:29:30","新北市樹林區信義街14號","121.422705","24.9818866666667","6500700","樹林區"
"238008","KEA-2539","2019/08/22 15:29:28","新北市樹林區柑園街一段21巷2號","121.404796666667","24.9605283333333","6500700","樹林區"
"238012","303-VK","2019/08/22 15:29:32","新北市樹林區中山路一段172號","121.42195","24.9891583333333","6500700","樹林區"
"238004","283-BY","2019/08/22 15:29:48","新北市樹林區保安街二段333巷2號","121.412465","25.0074916666667","6500700","樹林區"
"238001","282-BY","2019/08/22 15:29:40","新北市樹林區潭興街105號","121.42504","24.9988983333333","6500700","樹林區"
"238007","268-VK","2019/08/22 15:29:46","新北市樹林區俊英街116巷21號","121.428103333333","25.005935","6500700","樹林區"
"238013","172-UY","2019/08/22 15:29:25","新北市樹林區中山路三段27巷3弄12-5號","121.401975","24.9735466666667","6500700","樹林區"
"238003","169-UY","2019/08/22 15:29:34","新北市樹林區中山路一段2巷10號","121.423838333333","24.9941583333333","6500700","樹林區"
"221032","280-BY","2019/08/22 15:29:30","新北市汐止區復興路23號","121.656203333333","25.06516","6501100","汐止區"
"220031","286-VK","2019/08/22 15:29:46","新北市板橋區僑中二街102巷1-4號","121.445998333333","25.0082166666667","6500100","板橋區"
"220012","AAC-253","2019/08/22 15:29:43","新北市板橋區長安街331巷79號","121.47246","25.01294","6500100","板橋區"
