"lineid","car","time","location","longitude","latitude","cityid","cityname"
"249005","172-UM","2019/08/22 17:09:27","新北市八里區華富山6-8號","121.41964","25.1434016666667","6502300","八里區"
"249001","173-UM","2019/08/22 17:09:34","新北市八里區中華路二段205巷8-1號","121.405006666667","25.149255","6502300","八里區"
"249004","303-UY","2019/08/22 17:09:39","新北市八里區忠孝路85號","121.42492","25.1603566666667","6502300","八里區"
"249002","305-UY","2019/08/22 17:09:47","新北市八里區米倉14號","121.43968","25.1499816666667","6502300","八里區"
"249003","593-UM","2019/08/22 17:09:45","新北市八里區中山路二段405號","121.397726666667","25.1466783333333","6502300","八里區"
"244007","080-UY","2019/08/22 17:09:40","新北市林口區菁埔17鄰18號","121.377985","25.0963716666667","6501700","林口區"
"244019","402-UM","2019/08/22 17:09:37","新北市林口區文化一路一段190巷7弄3號","121.380221666667","25.0749766666667","6501700","林口區"
"244013","KEA-2802","2019/08/22 17:09:47","新北市林口區粉寮69號","121.404791666667","25.0908266666667","6501700","林口區"
"244023","483-VK","2019/08/22 17:09:37","新北市林口區興林路6號","121.389638333333","25.0766816666667","6501700","林口區"
"244017","485-VK","2019/08/22 17:09:28","新北市林口區粉寮69號","121.405061666667","25.090845","6501700","林口區"
"244009","656-BX","2019/08/22 17:09:33","新北市林口區文化北路二段550巷30弄36號","121.378495","25.0910533333333","6501700","林口區"
"244011","701-TV","2019/08/22 17:09:42","新北市林口區粉寮69號","121.404825","25.0908116666667","6501700","林口區"
"244025","837-TS","2019/08/22 17:09:43","新北市林口區富貴路85號","121.37844","25.0832633333333","6501700","林口區"
"244021","838-TS","2019/08/22 17:09:33","新北市林口區粉寮路二段160巷38號","121.405731666667","25.0916266666667","6501700","林口區"
"231046","719-UM","2019/08/22 17:05:06","新北市新店區灣潭路15-2號","121.542555","24.9431066666667","6500600","新店區"
"241011","013-R5","2019/08/22 17:09:27","新北市三重區龍濱路196號","121.501035","25.0732916666667","6500200","三重區"
"241028","022-UY","2019/08/22 17:09:42","新北市三重區仁化街6號","121.492983333333","25.0602266666667","6500200","三重區"
"241008","059-VK","2019/08/22 17:09:39","新北市三重區力行路二段136巷23弄4號","121.481343333333","25.0756683333333","6500200","三重區"
"241031","061-VK","2019/08/22 17:09:43","新北市三重區重陽路一段113巷1弄23號","121.487643333333","25.0591633333333","6500200","三重區"
"241015","062-VK","2019/08/22 17:09:31","新北市三重區長生街2-2號","121.498836666667","25.0664166666667","6500200","三重區"
"241017","063-VK","2019/08/22 17:09:45","新北市三重區中正北路25巷2號","121.493221666667","25.0626683333333","6500200","三重區"
"241024","065-VK","2019/08/22 17:09:29","新北市三重區大勇街82巷26弄31號","121.478375","25.0720266666667","6500200","三重區"
"241002","090-VK","2019/08/22 17:09:39","新北市三重區自強路五段23號","121.493135","25.0807433333333","6500200","三重區"
"241003","091-VK","2019/08/22 17:09:33","新北市三重區仁義街252號","121.493725","25.085935","6500200","三重區"
"241006","262-UM","2019/08/22 17:09:49","新北市三重區三和路四段274巷18號","121.484743333333","25.0768633333333","6500200","三重區"
"241009","267-UM","2019/08/22 17:09:31","新北市三重區三和路四段215巷10號","121.482123333333","25.079955","6500200","三重區"
"241018","268-UM","2019/08/22 17:09:45","新北市三重區大智街172-1號","121.491693333333","25.0692533333333","6500200","三重區"
"241032","269-UM","2019/08/22 17:09:33","新北市三重區三陽路13巷10號","121.48602","25.0595166666667","6500200","三重區"
"241013","270-UM","2019/08/22 17:09:26","新北市三重區仁孝街62號","121.49728","25.0744566666667","6500200","三重區"
"241025","271-UM","2019/08/22 17:09:28","新北市三重區中正北路560巷61-1號","121.470965","25.0693166666667","6500200","三重區"
"241004","475-VK","2019/08/22 17:09:40","新北市三重區五華街77號","121.492278333333","25.0830466666667","6500200","三重區"
"241020","478-VK","2019/08/22 17:09:26","新北市三重區自強路三段29號","121.487038333333","25.072415","6500200","三重區"
"241026","480-VK","2019/08/22 17:09:42","新北市三重區重新路一段51-6號","121.501883333333","25.063935","6500200","三重區"
"241014","543-UM","2019/08/22 17:09:31","新北市三重區龍濱路191號","121.502103333333","25.07112","6500200","三重區"
"241023","545-UM","2019/08/22 17:09:33","新北市三重區忠孝路三段84巷1號","121.480263333333","25.0645833333333","6500200","三重區"
"241001","547-UM","2019/08/22 17:09:33","新北市三重區仁愛街255巷48號","121.49406","25.07897","6500200","三重區"
"241019","KEA-2593","2019/08/22 17:09:41","新北市三重區自強路二段74巷37號","121.4874","25.06963","6500200","三重區"
"241005","AAD-863","2019/08/22 17:09:40","新北市三重區永安北路二段25巷47號","121.483261666667","25.0818783333333","6500200","三重區"
"241022","KED-0820","2019/08/22 17:09:29","新北市三重區中正北路118巷10-2號","121.485166666667","25.064315","6500200","三重區"
"241016","887-TS","2019/08/22 17:09:38","新北市三重區中正北路25巷8號","121.493435","25.0628983333333","6500200","三重區"
"241012","941-UM","2019/08/22 17:09:33","新北市三重區仁和街179號","121.500196666667","25.0747033333333","6500200","三重區"
"241029","942-UM","2019/08/22 17:09:29","新北市三重區重安街82號","121.492078333333","25.0563566666667","6500200","三重區"
"241033","AAC-255","2019/08/22 17:09:26","新北市三重區中興北街275號","121.469288333333","25.060805","6500200","三重區"
"235064","005-UY","2019/08/22 17:09:33","新北市中和區員山路36巷16-3號","121.484993333333","24.991165","6500300","中和區"
"247014","KEA-2869","2019/08/22 17:09:34","新北市蘆洲區中央路18號","121.473625","25.0826183333333","6501400","蘆洲區"
"247008","KED-0682","2019/08/22 17:09:38","新北市蘆洲區信義路30巷30號","121.47445","25.0784983333333","6501400","蘆洲區"
"235054","640-BX","2019/08/22 17:02:26","新北市中和區員山路36巷16-2號","121.48538","24.9915416666667","6500300","中和區"
"247004","893-R6","2019/08/22 17:09:45","新北市蘆洲區長安街201-1號","121.460183333333","25.0819","6501400","蘆洲區"
"247018","546-UM","2019/08/22 17:09:30","新北市蘆洲區復興路107號","121.47689","25.0878483333333","6501400","蘆洲區"
"247002","500-BY","2019/08/22 17:09:30","新北市蘆洲區永樂街62號","121.457226666667","25.0885066666667","6501400","蘆洲區"
"247022","057-VK","2019/08/22 17:09:32","新北市蘆洲區水湳街97號","121.470143333333","25.0903283333333","6501400","蘆洲區"
"247012","056-VK","2019/08/22 17:09:26","新北市蘆洲區信義路294號","121.477758333333","25.0875783333333","6501400","蘆洲區"
"247016","053-VK","2019/08/22 17:09:31","新北市蘆洲區光華路73巷5號","121.46833","25.0824616666667","6501400","蘆洲區"
"247020","007-UY","2019/08/22 17:09:33","新北市蘆洲區仁愛街70巷20號","121.4713","25.09417","6501400","蘆洲區"
"247006","002-UY","2019/08/22 17:09:30","新北市蘆洲區長安街102巷4號","121.461915","25.0814566666667","6501400","蘆洲區"
"247024","001-UY","2019/08/22 17:09:38","新北市蘆洲區光復路16號","121.463011666667","25.084075","6501400","蘆洲區"
"228003","097-TW","2019/08/22 17:09:29","新北市貢寮區福隆里東興街11號","121.950636666667","25.0185116666667","6502600","貢寮區"
"228001","212-TW","2019/08/22 17:09:41","新北市貢寮區仁理村研海街62號","121.928966666667","25.0352583333333","6502600","貢寮區"
"228002","663-BX","2019/08/22 17:09:50","新北市貢寮區龍崗里嵩陽街55號","121.907505","25.0166983333333","6502600","貢寮區"
"224006","676-BX","2019/08/22 17:09:33","新北市瑞芳區大寮路84號","121.781353333333","25.1000933333333","6501200","瑞芳區"
"224007","285-BY","2019/08/22 17:09:40","新北市瑞芳區粗坑口路3號","121.761828333333","25.098745","6501200","瑞芳區"
"224009","275-VK","2019/08/22 17:09:34","新北市瑞芳區濱二路30號","121.840681666667","25.116215","6501200","瑞芳區"
"224008","273-VK","2019/08/22 17:09:46","新北市瑞芳區九芎橋路81號","121.833681666667","25.0970483333333","6501200","瑞芳區"
"224005","271-BY","2019/08/22 17:09:45","新北市瑞芳區鼻頭路97號","121.916025","25.12405","6501200","瑞芳區"
"227002","642-TC","2019/08/22 17:09:35","新北市雙溪區上林里內平林12號","121.837141666667","25.0297866666667","6502500","雙溪區"
"227001","400-TW","2019/08/22 17:09:37","新北市雙溪區三貂里定福路3號","121.851258333333","25.0673766666667","6502500","雙溪區"
"251004","009-UM","2019/08/22 17:09:46","新北市淡水區中正東路二段88巷15號","121.459053333333","25.1505116666667","6501000","淡水區"
"251005","010-UM","2019/08/22 17:09:35","新北市淡水區鄧公路12-2號","121.450263333333","25.1697583333333","6501000","淡水區"
"251010","012-UM","2019/08/22 17:09:42","新北市淡水區中正路二段31號","121.41936","25.18158","6501000","淡水區"
"251015","KEA-2871","2019/08/22 17:09:46","新北市淡水區學府路102巷121號","121.453546666667","25.1713783333333","6501000","淡水區"
"251016","179-VK","2019/08/22 17:09:36","新北市淡水區社厝坑3-7號","121.475435","25.1890966666667","6501000","淡水區"
"251013","180-VK","2019/08/22 17:09:33","新北市淡水區大埤頭6號","121.482875","25.19742","6501000","淡水區"
"251008","181-VK","2019/08/22 17:09:41","新北市淡水區樹梅坑7-6號","121.472261666667","25.144015","6501000","淡水區"
"251007","182-VK","2019/08/22 17:09:42","新北市淡水區民生路65號","121.463051666667","25.1383166666667","6501000","淡水區"
"251012","443-VK","2019/08/22 17:09:33","新北市淡水區新興街106號","121.439746666667","25.1808733333333","6501000","淡水區"
"251006","561-UM","2019/08/22 17:09:40","新北市淡水區真理街6號","121.4384","25.1745633333333","6501000","淡水區"
"251009","575-R6","2019/08/22 17:09:43","新北市淡水區中正路一段8巷1弄11號","121.428131666667","25.1756383333333","6501000","淡水區"
"251014","577-R6","2019/08/22 17:09:37","新北市淡水區八里堆7-6號","121.461225","25.224495","6501000","淡水區"
"251011","650-BX","2019/08/22 17:09:35","新北市淡水區坪頂路52巷12號","121.457786666667","25.162405","6501000","淡水區"
"252002","178-VK","2019/08/22 17:09:41","新北市三芝區忠孝街1-14號","121.505518333333","25.2539466666667","6502100","三芝區"
"233002","762-BX","2019/08/22 17:09:42","新北市烏來區環山路159巷10-2號","121.548556666667","24.8579033333333","6502900","烏來區"
"247010","KED-0683","2019/08/22 17:09:39","新北市蘆洲區三民路38-1號","121.475528333333","25.0830466666667","6501400","蘆洲區"
"252001","KED-0821","2019/08/22 17:09:29","新北市三芝區淡金路一段4-5號","121.498","25.26002","6502100","三芝區"
"242039","AAC-296","2019/08/22 17:09:43","新北市新莊區三和路12-11號","121.442318333333","25.0369016666667","6500500","新莊區"
"242061","986-R7","2019/08/22 17:09:39","新北市新莊區新泰路255巷83號","121.442201666667","25.03909","6500500","新莊區"
"242002","751-BX","2019/08/22 17:09:29","新北市新莊區三和路12-21號","121.442121666667","25.038705","6500500","新莊區"
"242029","615-BX","2019/08/22 17:09:27","新北市新莊區三和路18-25號","121.441641666667","25.0393466666667","6500500","新莊區"
"242027","613-BX","2019/08/22 17:09:35","新北市新莊區三和路12-18號","121.442201666667","25.0376333333333","6500500","新莊區"
"242058","612-BX","2019/08/22 17:09:36","新北市新莊區新泰路255巷83號","121.442063333333","25.0389216666667","6500500","新莊區"
"242051","497-BY","2019/08/22 17:09:39","新北市新莊區新莊路771巷10號","121.442011666667","25.0317933333333","6500500","新莊區"
"242056","442-UM","2019/08/22 17:09:45","新北市新莊區新泰路357巷3弄43號","121.441913333333","25.040235","6500500","新莊區"
"242011","413-TV","2019/08/22 17:09:40","新北市新莊區新泰路357巷3弄57號","121.441986666667","25.0393083333333","6500500","新莊區"
"242025","362-BY","2019/08/22 17:09:40","新北市新莊區新泰路357巷3弄57號","121.441916666667","25.03897","6500500","新莊區"
"242021","175-VK","2019/08/22 17:09:46","新北市新莊區三和路12-21號","121.442065","25.0385816666667","6500500","新莊區"
"242031","176-VK","2019/08/22 17:09:41","新北市新莊區三和路12-21號","121.442045","25.0385616666667","6500500","新莊區"
"242019","346-TH","2019/08/22 17:09:33","新北市新莊區三和路12-21號","121.442271666667","25.0382","6500500","新莊區"
"242034","348-TH","2019/08/22 17:09:27","新北市新莊區三和路12-21號","121.441991666667","25.0387216666667","6500500","新莊區"
"242017","351-TH","2019/08/22 17:09:32","新北市新莊區新泰路357巷3弄57號","121.442043333333","25.0392416666667","6500500","新莊區"
"238018","KEA-2217","2019/08/22 17:09:35","新北市樹林區信義街84號","121.42521","24.9827166666667","6500700","樹林區"
"238022","KEA-2213","2019/08/22 17:09:29","新北市樹林區太平路247巷30號","121.420911666667","24.975845","6500700","樹林區"
"238021","KEA-2539","2019/08/22 17:09:33","新北市樹林區西圳街一段165巷20弄28號","121.395688333333","24.9601466666667","6500700","樹林區"
"238025","303-VK","2019/08/22 17:09:31","新北市樹林區中正路22-1號","121.427846666667","24.9993716666667","6500700","樹林區"
"238017","283-BY","2019/08/22 17:09:28","新北市樹林區光武街7-3號","121.415791666667","25.0054016666667","6500700","樹林區"
"238014","282-BY","2019/08/22 17:09:39","新北市樹林區中正路22-1號","121.427748333333","24.9996366666667","6500700","樹林區"
"238020","268-VK","2019/08/22 17:09:46","新北市樹林區中正路22-2號","121.42812","24.9992966666667","6500700","樹林區"
"238026","172-UY","2019/08/22 17:09:45","新北市樹林區八德街682號","121.396195","24.96898","6500700","樹林區"
"239007","AAC-297","2019/08/22 17:09:35","新北市鶯歌區中正一路60-5號","121.352743333333","24.95407","6500800","鶯歌區"
"239006","891-R6","2019/08/22 17:09:45","新北市鶯歌區八德路2巷37弄6號","121.336923333333","24.94651","6500800","鶯歌區"
"239008","527-UM","2019/08/22 17:09:30","新北市鶯歌區尖山路103-6號","121.348165","24.948815","6500800","鶯歌區"
"239005","526-UM","2019/08/22 17:09:34","新北市鶯歌區德昌二街3巷1-1號","121.333251666667","24.9594566666667","6500800","鶯歌區"
"239001","417-VK","2019/08/22 17:09:47","新北市鶯歌區尖山路140巷9號","121.346473333333","24.9489266666667","6500800","鶯歌區"
"239003","360-BY","2019/08/22 17:09:46","新北市鶯歌區八德路16號","121.330685","24.9554566666667","6500800","鶯歌區"
"239002","359-BY","2019/08/22 17:09:29","新北市鶯歌區建國路158號","121.350451666667","24.9536816666667","6500800","鶯歌區"
"239004","193-VK","2019/08/22 17:09:35","新北市鶯歌區文化路324巷3弄1號","121.349683333333","24.9451616666667","6500800","鶯歌區"
"233001","KEA-2870","2019/08/22 17:09:41","新北市烏來區溫泉街39號","121.550793333333","24.8620033333333","6502900","烏來區"
"242044","281-VK","2019/08/22 17:09:37","新北市泰山區磚雅厝3號","121.441791666667","25.041865","6500500","新莊區"
"242009","280-VK","2019/08/22 17:09:36","新北市新莊區三和路12-21號","121.442025","25.03814","6500500","新莊區"
