"lineid","car","time","location","longitude","latitude","cityid","cityname"
"249005","172-UM","2019/08/22 17:19:27","新北市五股區民義路二段132號","121.41008","25.120925","6502300","八里區"
"249001","173-UM","2019/08/22 17:19:34","新北市八里區中華路二段165巷3號","121.407636666667","25.1508683333333","6502300","八里區"
"249004","303-UY","2019/08/22 17:19:39","新北市八里區賢三街30號","121.418483333333","25.1587133333333","6502300","八里區"
"249002","305-UY","2019/08/22 17:19:27","新北市八里區龍米路二段117巷29-1號","121.446385","25.1428483333333","6502300","八里區"
"249003","593-UM","2019/08/22 17:19:45","新北市八里區中山路二段439號","121.396768333333","25.145905","6502300","八里區"
"244007","080-UY","2019/08/22 17:19:40","新北市林口區湖子15-1號","121.387008333333","25.090555","6501700","林口區"
"244019","402-UM","2019/08/22 17:19:37","新北市林口區文化二路一段537號","121.373841666667","25.076645","6501700","林口區"
"244013","KEA-2802","2019/08/22 17:19:27","新北市林口區粉寮69號","121.404771666667","25.0908183333333","6501700","林口區"
"244023","483-VK","2019/08/22 17:19:37","新北市林口區隆林街61號","121.387246666667","25.0754633333333","6501700","林口區"
"244017","485-VK","2019/08/22 17:19:28","新北市林口區中山路248號","121.386451666667","25.0793516666667","6501700","林口區"
"244009","656-BX","2019/08/22 17:19:33","新北市林口區文化一路二段303號","121.385618333333","25.08574","6501700","林口區"
"244011","701-TV","2019/08/22 17:19:44","新北市林口區仁愛路一段647號","121.388486666667","25.07674","6501700","林口區"
"244025","837-TS","2019/08/22 17:19:43","新北市林口區民族路67-1號","121.365711666667","25.0752983333333","6501700","林口區"
"244021","838-TS","2019/08/22 17:19:14","新北市林口區粉寮路二段281-2號","121.404673333333","25.0941616666667","6501700","林口區"
"231046","719-UM","2019/08/22 17:14:46","新北市新店區直潭一街106號","121.53486","24.9389583333333","6500600","新店區"
"241011","013-R5","2019/08/22 17:19:40","新北市三重區龍濱路183號","121.50215","25.0706783333333","6500200","三重區"
"241028","022-UY","2019/08/22 17:19:42","新北市三重區中正南路114號","121.494475","25.05832","6500200","三重區"
"241008","059-VK","2019/08/22 17:19:39","新北市三重區下竹圍街4號","121.480795","25.0761733333333","6500200","三重區"
"241015","062-VK","2019/08/22 17:19:31","新北市三重區福德北路82-1號","121.501755","25.06624","6500200","三重區"
"241017","063-VK","2019/08/22 17:19:45","新北市三重區大同北路91號","121.494668333333","25.0637066666667","6500200","三重區"
"241024","065-VK","2019/08/22 17:19:29","新北市三重區中正北路193巷11弄22號","121.477711666667","25.07047","6500200","三重區"
"241002","090-VK","2019/08/22 17:19:39","新北市三重區進安街196號","121.49367","25.0862883333333","6500200","三重區"
"241003","091-VK","2019/08/22 17:19:33","新北市三重區五華街127號","121.491223333333","25.084085","6500200","三重區"
"241006","262-UM","2019/08/22 17:19:29","新北市三重區車路頭街139巷14號","121.484333333333","25.076155","6500200","三重區"
"241009","267-UM","2019/08/22 17:19:31","新北市三重區仁愛街608號","121.483805","25.080735","6500200","三重區"
"241018","268-UM","2019/08/22 17:19:29","新北市三重區安慶街118-1號","121.495148333333","25.068885","6500200","三重區"
"241032","269-UM","2019/08/22 17:19:41","新北市三重區中華路18號","121.483186666667","25.0606666666667","6500200","三重區"
"241025","271-UM","2019/08/22 17:19:37","新北市三重區中正北路233號","121.475878333333","25.0703866666667","6500200","三重區"
"241004","475-VK","2019/08/22 17:19:40","新北市三重區五華街129號","121.491165","25.0842533333333","6500200","三重區"
"241020","478-VK","2019/08/22 17:19:46","新北市三重區忠孝路一段107號","121.489083333333","25.072135","6500200","三重區"
"241026","480-VK","2019/08/22 17:19:42","新北市三重區正義南路10號","121.498283333333","25.0615983333333","6500200","三重區"
"241014","543-UM","2019/08/22 17:19:31","新北市三重區三和路二段83號","121.500133333333","25.06846","6500200","三重區"
"241023","545-UM","2019/08/22 17:19:33","新北市三重區三民街191號","121.48223","25.0656683333333","6500200","三重區"
"241001","547-UM","2019/08/22 17:19:33","新北市三重區仁愛街283巷7號","121.493288333333","25.0791016666667","6500200","三重區"
"241019","KEA-2593","2019/08/22 17:19:41","新北市三重區三張街104號","121.487913333333","25.0699116666667","6500200","三重區"
"241005","AAD-863","2019/08/22 17:19:40","新北市三重區永安北路二段43巷22號","121.48304","25.0827266666667","6500200","三重區"
"241022","KED-0820","2019/08/22 17:19:42","新北市三重區重陽路二段36號","121.486855","25.0631316666667","6500200","三重區"
"241016","887-TS","2019/08/22 17:19:38","新北市三重區大同北路54巷1號","121.494146666667","25.0637016666667","6500200","三重區"
"241012","941-UM","2019/08/22 17:19:33","新北市三重區河邊北街238-1號","121.501668333333","25.0756933333333","6500200","三重區"
"241029","942-UM","2019/08/22 17:19:29","新北市三重區重新路四段86號","121.487996666667","25.0573266666667","6500200","三重區"
"241033","AAC-255","2019/08/22 17:19:46","新北市三重區中興北街136號","121.46901","25.0559783333333","6500200","三重區"
"235064","005-UY","2019/08/22 17:19:33","新北市中和區員山路36巷16-3號","121.484993333333","24.99123","6500300","中和區"
"247014","KEA-2869","2019/08/22 17:19:34","新北市蘆洲區得勝街118號","121.470955","25.0828083333333","6501400","蘆洲區"
"247008","KED-0682","2019/08/22 17:19:38","新北市蘆洲區永安北路一段72巷42號","121.476286666667","25.0770033333333","6501400","蘆洲區"
"235054","640-BX","2019/08/22 17:02:26","新北市中和區員山路36巷16-2號","121.48538","24.9915416666667","6500300","中和區"
"247004","893-R6","2019/08/22 17:19:34","新北市蘆洲區中原路88號","121.457696666667","25.0816583333333","6501400","蘆洲區"
"247018","546-UM","2019/08/22 17:19:30","新北市蘆洲區民權路84號","121.474541666667","25.0876566666667","6501400","蘆洲區"
"247002","500-BY","2019/08/22 17:19:30","新北市蘆洲區永樂街38巷33弄12號","121.457586666667","25.08963","6501400","蘆洲區"
"247022","057-VK","2019/08/22 17:19:32","新北市蘆洲區水湳街36號","121.470575","25.0896483333333","6501400","蘆洲區"
"247012","056-VK","2019/08/22 17:19:46","新北市蘆洲區信義路319巷12號","121.477688333333","25.08627","6501400","蘆洲區"
"247016","053-VK","2019/08/22 17:19:28","新北市蘆洲區正和街96巷12號","121.467923333333","25.081055","6501400","蘆洲區"
"247020","007-UY","2019/08/22 17:19:33","新北市蘆洲區民族路426巷14號","121.473513333333","25.0922316666667","6501400","蘆洲區"
"247006","002-UY","2019/08/22 17:19:30","新北市蘆洲區長安街108巷5弄2號","121.46133","25.08191","6501400","蘆洲區"
"247024","001-UY","2019/08/22 17:19:38","新北市蘆洲區光榮路2號","121.460318333333","25.0861783333333","6501400","蘆洲區"
"228003","097-TW","2019/08/22 17:19:29","新北市貢寮區福隆里興隆街4-1號","121.945396666667","25.016895","6502600","貢寮區"
"228001","212-TW","2019/08/22 17:19:41","新北市貢寮區仁理村尖山腳街18-3號","121.925535","25.0483566666667","6502600","貢寮區"
"228002","663-BX","2019/08/22 17:19:30","新北市貢寮區雙玉里下雙溪街28號","121.924711666667","25.01147","6502600","貢寮區"
"224006","676-BX","2019/08/22 17:19:33","新北市瑞芳區大寮路23號","121.782741666667","25.0989133333333","6501200","瑞芳區"
"224009","275-VK","2019/08/22 17:19:34","新北市瑞芳區豎崎路54號","121.843001666667","25.1103","6501200","瑞芳區"
"224008","273-VK","2019/08/22 17:19:46","新北市瑞芳區柴寮路31-3號","121.824571666667","25.0822133333333","6501200","瑞芳區"
"224005","271-BY","2019/08/22 17:19:45","新北市瑞芳區鼻頭路247號","121.909225","25.1218583333333","6501200","瑞芳區"
"227002","642-TC","2019/08/22 17:19:35","新北市雙溪區平林里梅竹蹊3號","121.862815","25.0349816666667","6502500","雙溪區"
"251004","009-UM","2019/08/22 17:09:46","新北市淡水區中正東路二段88巷15號","121.459053333333","25.1505116666667","6501000","淡水區"
"251005","010-UM","2019/08/22 17:19:35","新北市淡水區鄧公路23巷2號","121.451351666667","25.17008","6501000","淡水區"
"251010","012-UM","2019/08/22 17:19:42","新北市淡水區沙崙路198號","121.424408333333","25.1837583333333","6501000","淡水區"
"251015","KEA-2871","2019/08/22 17:19:46","新北市淡水區樹林口22號","121.477383333333","25.1699016666667","6501000","淡水區"
"251016","179-VK","2019/08/22 17:19:36","新北市淡水區大竹圍63號","121.463323333333","25.1909883333333","6501000","淡水區"
"251013","180-VK","2019/08/22 17:19:33","新北市淡水區破瓦厝子3-3號","121.47234","25.19747","6501000","淡水區"
"251008","181-VK","2019/08/22 17:19:41","新北市淡水區大同路293號","121.467705","25.142435","6501000","淡水區"
"251007","182-VK","2019/08/22 17:19:42","新北市淡水區民生路60號","121.462095","25.1379516666667","6501000","淡水區"
"251012","443-VK","2019/08/22 17:19:33","新北市淡水區中山北路一段158號","121.44434","25.1778116666667","6501000","淡水區"
"251006","561-UM","2019/08/22 17:19:40","新北市淡水區中山路190號","121.441575","25.174575","6501000","淡水區"
"251009","575-R6","2019/08/22 17:19:43","新北市淡水區建設街1號","121.438945","25.17197","6501000","淡水區"
"251014","577-R6","2019/08/22 17:16:57","新北市淡水區番子田132號","121.464646666667","25.22778","6501000","淡水區"
"251011","650-BX","2019/08/22 17:19:35","新北市淡水區坪頂路70巷7號","121.460533333333","25.1633716666667","6501000","淡水區"
"251002","672-BX","2019/08/22 17:11:40","新北市淡水區中正路二段31號","121.419303333333","25.1816533333333","6501000","淡水區"
"251003","673-BX","2019/08/22 17:19:30","新北市淡水區中正路二段31號","121.419515","25.18154","6501000","淡水區"
"252002","178-VK","2019/08/22 17:19:41","新北市三芝區忠孝街1-14號","121.50552","25.2539383333333","6502100","三芝區"
"233002","762-BX","2019/08/22 17:19:42","新北市烏來區環山路181-1號","121.548838333333","24.85341","6502900","烏來區"
"247010","KED-0683","2019/08/22 17:19:39","新北市蘆洲區鷺江街24號","121.478233333333","25.0824216666667","6501400","蘆洲區"
"252001","KED-0821","2019/08/22 17:19:29","新北市三芝區長安街119號","121.498003333333","25.2596816666667","6502100","三芝區"
"242039","AAC-296","2019/08/22 17:19:43","新北市新莊區新樹路207號","121.435898333333","25.0240566666667","6500500","新莊區"
"242061","986-R7","2019/08/22 17:19:39","新北市新莊區中正路473-1號","121.441995","25.0332933333333","6500500","新莊區"
"242002","751-BX","2019/08/22 17:19:29","新北市新莊區中正路473-1號","121.441913333333","25.033145","6500500","新莊區"
"242029","615-BX","2019/08/22 17:19:27","新北市新莊區中華路二段89號","121.452675","25.0492833333333","6500500","新莊區"
"242027","613-BX","2019/08/22 17:19:35","新北市新莊區中港路266號","121.453283333333","25.04381","6500500","新莊區"
"242058","612-BX","2019/08/22 17:19:36","新北市新莊區新泰路255巷83號","121.44207","25.03898","6500500","新莊區"
"242046","566-BX","2019/08/22 17:19:41","新北市新莊區新泰路357巷2-2號","121.44201","25.0409933333333","6500500","新莊區"
"242051","497-BY","2019/08/22 17:19:39","新北市新莊區瓊林南路12-3號","121.436213333333","25.0188616666667","6500500","新莊區"
"242056","442-UM","2019/08/22 17:19:26","新北市新莊區新莊路664號","121.442413333333","25.0328583333333","6500500","新莊區"
"242048","441-UM","2019/08/22 17:19:25","新北市新莊區中正路400號","121.441486666667","25.0338533333333","6500500","新莊區"
"242004","440-UM","2019/08/22 17:19:43","新北市新莊區中平路82巷24號","121.44587","25.0448366666667","6500500","新莊區"
"242042","415-TV","2019/08/22 17:19:35","新北市新莊區新樹路52-23號","121.436398333333","25.0270883333333","6500500","新莊區"
"242011","413-TV","2019/08/22 17:19:40","新北市新莊區中平路82巷6號","121.445065","25.0447866666667","6500500","新莊區"
"242025","362-BY","2019/08/22 17:19:40","新北市新莊區中平路82巷29號","121.446003333333","25.044895","6500500","新莊區"
"242023","353-BY","2019/08/22 17:19:40","新北市新莊區新泰路502巷22號","121.443116666667","25.046465","6500500","新莊區"
"242013","132-UY","2019/08/22 17:19:33","新北市新莊區新泰路502巷2號","121.442608333333","25.0463566666667","6500500","新莊區"
"242036","135-UY","2019/08/22 17:19:42","新北市新莊區中正路481號","121.44129","25.0337766666667","6500500","新莊區"
"242053","172-VK","2019/08/22 17:19:33","新北市新莊區中正路473-1號","121.442071666667","25.0332766666667","6500500","新莊區"
"242015","173-VK","2019/08/22 17:19:27","新北市新莊區三和路12-21號","121.441993333333","25.0386566666667","6500500","新莊區"
"242021","175-VK","2019/08/22 17:19:26","新北市新莊區中港路351號","121.452006666667","25.0458383333333","6500500","新莊區"
"242031","176-VK","2019/08/22 17:19:41","新北市新莊區新泰路462號","121.443233333333","25.0447466666667","6500500","新莊區"
"242019","346-TH","2019/08/22 17:19:33","新北市新莊區新泰路502巷22號","121.443155","25.0464816666667","6500500","新莊區"
"242034","348-TH","2019/08/22 17:19:27","新北市新莊區中正路473-1號","121.441928333333","25.0330783333333","6500500","新莊區"
"242007","349-TH","2019/08/22 17:19:22","新北市新莊區新泰路488號","121.442588333333","25.0458366666667","6500500","新莊區"
"242017","351-TH","2019/08/22 17:19:32","新北市新莊區中平路84號","121.444798333333","25.0449216666667","6500500","新莊區"
"238019","599-UM","2019/08/22 17:19:37","新北市樹林區八德街672號","121.395796666667","24.96884","6500700","樹林區"
"238024","5061-A6","2019/08/22 17:19:43","新北市樹林區鎮前街4號","121.426371666667","24.9935683333333","6500700","樹林區"
"238018","KEA-2217","2019/08/22 17:19:44","新北市樹林區樹中街63-1號","121.421198333333","24.9853233333333","6500700","樹林區"
"238022","KEA-2213","2019/08/22 17:19:41","新北市樹林區仁愛街76號","121.424411666667","24.9831516666667","6500700","樹林區"
"238021","KEA-2539","2019/08/22 17:19:33","新北市樹林區西圳街一段15-1號","121.401771666667","24.9616333333333","6500700","樹林區"
"238025","303-VK","2019/08/22 17:19:31","新北市樹林區保安二街60號","121.424151666667","24.995225","6500700","樹林區"
"238017","283-BY","2019/08/22 17:19:28","新北市樹林區光武街32-2號","121.416528333333","25.0061883333333","6500700","樹林區"
"238014","282-BY","2019/08/22 17:19:39","新北市樹林區長壽街70巷35弄2號","121.42136","24.99494","6500700","樹林區"
"238020","268-VK","2019/08/22 17:19:46","新北市樹林區中正路22-1號","121.427785","24.9994766666667","6500700","樹林區"
"238026","172-UY","2019/08/22 17:19:45","新北市樹林區東大街144號","121.409995","24.9759733333333","6500700","樹林區"
"238016","169-UY","2019/08/22 17:19:33","新北市樹林區中山路二段10號","121.417545","24.9850133333333","6500700","樹林區"
"239007","AAC-297","2019/08/22 17:19:35","新北市鶯歌區行政路3-1號","121.350753333333","24.95532","6500800","鶯歌區"
"239006","891-R6","2019/08/22 17:19:45","新北市鶯歌區德昌二街121號","121.333076666667","24.9566633333333","6500800","鶯歌區"
"239008","527-UM","2019/08/22 17:19:30","新北市鶯歌區西湖街45巷1號","121.340315","24.9584183333333","6500800","鶯歌區"
"239005","526-UM","2019/08/22 17:19:34","新北市鶯歌區福德四街20號","121.32929","24.9676316666667","6500800","鶯歌區"
"239001","417-VK","2019/08/22 17:19:27","新北市鶯歌區尖山路173巷1號","121.345","24.9475466666667","6500800","鶯歌區"
"239003","360-BY","2019/08/22 17:19:31","新北市鶯歌區德昌二街21號","121.333251666667","24.9590416666667","6500800","鶯歌區"
"239002","359-BY","2019/08/22 17:19:29","新北市鶯歌區建國路302號","121.344591666667","24.9526216666667","6500800","鶯歌區"
"239004","193-VK","2019/08/22 17:19:35","新北市鶯歌區文化路501號","121.352921666667","24.9487433333333","6500800","鶯歌區"
"233001","KEA-2870","2019/08/22 17:19:41","新北市烏來區瀑布路14號","121.551293333333","24.8479333333333","6502900","烏來區"
"242044","281-VK","2019/08/22 17:19:37","新北市新莊區民安路2號","121.422628333333","25.029005","6500500","新莊區"
"242009","280-VK","2019/08/22 17:19:36","新北市新莊區新泰路528號","121.442473333333","25.04733","6500500","新莊區"
"235061","KEA-2875","2019/08/22 17:19:43","新北市中和區員山路36巷16-2號","121.485355","24.9916366666667","6500300","中和區"
