"lineid","car","time","location","longitude","latitude","cityid","cityname"
"234046","148-BY","2019/08/22 18:39:42","新北市永和區永元路66號","121.52253","25.0014266666667","6500400","永和區"
"234081","298-R6","2019/08/22 18:39:36","新北市永和區林森路81號","121.523923333333","25.003865","6500400","永和區"
"234064","337-UY","2019/08/22 18:39:32","新北市永和區福和路1號","121.526401666667","25.0099516666667","6500400","永和區"
"234086","338-UY","2019/08/22 18:39:44","新北市永和區中正路196號","121.515645","24.9972","6500400","永和區"
"234017","745-BX","2019/08/22 18:39:43","新北市永和區福和路1號","121.526388333333","25.0096033333333","6500400","永和區"
"234030","746-BX","2019/08/22 18:39:27","新北市永和區福和路1號","121.525071666667","25.00903","6500400","永和區"
"234007","KED-0605","2019/08/22 18:39:44","新北市永和區文化路164號","121.512151666667","25.0153666666667","6500400","永和區"
"234013","KEA-2591","2019/08/22 18:39:43","新北市永和區保福路二段88巷29號","121.511905","25.0137966666667","6500400","永和區"
"234042","862-TW","2019/08/22 18:39:38","新北市永和區中和路615號","121.512763333333","25.0046233333333","6500400","永和區"
"234026","9371-KE","2019/08/22 18:39:43","新北市永和區保平路52號","121.511381666667","25.0069766666667","6500400","永和區"
"234011","9373-KE","2019/08/22 18:39:42","新北市永和區仁愛路22號","121.514741666667","25.0137483333333","6500400","永和區"
"249005","172-UM","2019/08/22 18:39:47","新北市八里區中華路三段190號","121.388338333333","25.1259283333333","6502300","八里區"
"249001","173-UM","2019/08/22 18:39:34","新北市八里區龍米路一段360號","121.451553333333","25.1313666666667","6502300","八里區"
"249004","303-UY","2019/08/22 18:39:39","新北市八里區龍米路三段60號","121.423676666667","25.1590333333333","6502300","八里區"
"249002","305-UY","2019/08/22 18:39:35","新北市八里區龍形一街33巷1-1號","121.449401666667","25.1302383333333","6502300","八里區"
"248014","025-BX","2019/08/22 18:39:44","新北市五股區成泰路一段198號","121.435936666667","25.078615","6501500","五股區"
"248016","026-BX","2019/08/22 18:39:40","新北市五股區凌雲路一段149巷5-1號","121.448945","25.1017183333333","6501500","五股區"
"248008","KED-0815","2019/08/22 18:39:41","新北市五股區中興路一段161號","121.464818333333","25.0737283333333","6501500","五股區"
"248020","KED-0813","2019/08/22 18:39:43","新北市五股區孝義路73-1號","121.44545","25.1195333333333","6501500","五股區"
"248012","247-BX","2019/08/22 18:39:45","新北市五股區成泰路三段2巷1-20號","121.44123","25.0866683333333","6501500","五股區"
"248010","272-BY","2019/08/22 18:39:39","新北市五股區明德路12巷16號","121.433213333333","25.07199","6501500","五股區"
"248004","677-BX","2019/08/22 18:39:41","新北市五股區民義路二段9號","121.421093333333","25.0962833333333","6501500","五股區"
"248002","678-BX","2019/08/22 18:39:41","新北市五股區西雲路205號","121.44856","25.0965033333333","6501500","五股區"
"234023","9380-KE","2019/08/22 18:39:30","新北市永和區福和路76巷5弄7號","121.522438333333","25.0083483333333","6500400","永和區"
"234077","969-R7","2019/08/22 18:39:41","新北市永和區中正路578號","121.517066666667","25.0064766666667","6500400","永和區"
"234067","AAC-212","2019/08/22 18:39:25","新北市中和區永貞路260號","121.513936666667","25.003695","6500400","永和區"
"234003","AAC-295","2019/08/22 18:39:44","新北市永和區福和路1號","121.526546666667","25.0099066666667","6500400","永和區"
"232011","076-UY","2019/08/22 18:39:43","新北市坪林區坪雙路一段41號","121.711698333333","24.942425","6502000","坪林區"
"244007","080-UY","2019/08/22 18:39:40","新北市林口區太平嶺5-11號","121.378971666667","25.1143083333333","6501700","林口區"
"244019","402-UM","2019/08/22 18:39:37","新北市林口區麗園二街36巷1號","121.380441666667","25.06914","6501700","林口區"
"244013","KEA-2802","2019/08/22 18:39:27","新北市林口區麗園一街6巷7-2號","121.375266666667","25.0707733333333","6501700","林口區"
"244023","483-VK","2019/08/22 18:39:37","新北市林口區信義路116號","121.380688333333","25.0793116666667","6501700","林口區"
"244017","485-VK","2019/08/22 18:39:28","新北市林口區文化二路一段20巷13號","121.36534","25.067205","6501700","林口區"
"244009","656-BX","2019/08/22 18:39:33","新北市林口區竹林路366巷2號","121.391801666667","25.084755","6501700","林口區"
"244011","701-TV","2019/08/22 18:39:42","新北市林口區新寮1-82號","121.392686666667","25.0768","6501700","林口區"
"244025","837-TS","2019/08/22 18:39:43","新北市林口區南勢三街1巷31號","121.35765","25.0775833333333","6501700","林口區"
"244021","838-TS","2019/08/22 18:39:33","新北市林口區工六路56號","121.399323333333","25.0780133333333","6501700","林口區"
"243012","AAD-798","2019/08/22 18:39:26","新北市泰山區福興三街11號","121.434476666667","25.0578116666667","6501600","泰山區"
"243010","297-R6","2019/08/22 18:39:28","新北市泰山區明志路一段519號","121.430311666667","25.054025","6501600","泰山區"
"243014","KEA-2801","2019/08/22 18:39:35","新北市泰山區黎明路25號","121.421916666667","25.06077","6501600","泰山區"
"243016","421-VK","2019/08/22 18:39:39","新北市泰山區黎明路23-1號","121.421458333333","25.0611833333333","6501600","泰山區"
"243011","KEA-2216","2019/08/22 18:39:29","新北市泰山區黎明路26號","121.421196666667","25.0606116666667","6501600","泰山區"
"243015","680-BX","2019/08/22 18:39:31","新北市泰山區黎明路23-1號","121.421626666667","25.0611283333333","6501600","泰山區"
"222003","436-BY","2019/08/22 18:39:43","新北市深坑區翠谷街33號","121.626533333333","25.0092633333333","6501800","深坑區"
"222001","628-TS","2019/08/22 18:39:42","新北市深坑區北深路一段82號","121.636306666667","25.010685","6501800","深坑區"
"222002","659-BX","2019/08/22 18:39:44","新北市深坑區文山路一段62巷3號","121.62281","25.0009183333333","6501800","深坑區"
"231061","002-UM","2019/08/22 18:39:28","新北市新店區安華路28-1號","121.519815","24.9610366666667","6500600","新店區"
"231055","0291-UT","2019/08/22 18:36:37","新北市新店區華興街21號","121.537688333333","24.9692666666667","6500600","新店區"
"231058","0293-UT","2019/08/22 18:39:25","新北市新店區新店後街50號","121.537845","24.95385","6500600","新店區"
"231044","046-UY","2019/08/22 18:39:37","新北市新店區安華路28-1號","121.519523333333","24.9607816666667","6500600","新店區"
"231060","106-UY","2019/08/22 18:39:28","新北市新店區安華路28-1號","121.519853333333","24.9608233333333","6500600","新店區"
"231051","107-UY","2019/08/22 18:39:40","新北市新店區中央路177-1號","121.53531","24.969405","6500600","新店區"
"231065","110-UY","2019/08/22 18:39:25","新北市新店區安一路一段1-1號","121.519543333333","24.9612933333333","6500600","新店區"
"221035","KEA-2785","2019/08/22 18:39:43","新北市汐止區大同路二段163號","121.651195","25.06478","6501100","汐止區"
"231062","256-BX","2019/08/22 18:39:47","新北市新店區安一路一段1-1號","121.519753333333","24.9612066666667","6500600","新店區"
"231054","260-TV","2019/08/22 18:39:39","新北市新店區安一路一段1-1號","121.519368333333","24.96125","6500600","新店區"
"231042","268-BY","2019/08/22 18:39:33","新北市新店區中正路100號","121.543323333333","24.970435","6500600","新店區"
"231064","278-BY","2019/08/22 18:39:42","新北市新店區安一路一段1-1號","121.519821666667","24.9612","6500600","新店區"
"231050","AAD-862","2019/08/22 18:39:28","新北市新店區安華路28-1號","121.519886666667","24.960915","6500600","新店區"
"231056","4715-K9","2019/08/22 18:39:29","新北市新店區建國路196號","121.53771","24.980585","6500600","新店區"
"231052","513-UM","2019/08/22 18:39:41","新北市新店區新烏路一段65號","121.546148333333","24.9441433333333","6500600","新店區"
"231063","616-UM","2019/08/22 18:39:28","新北市新店區安華路28-1號","121.519566666667","24.9605616666667","6500600","新店區"
"231041","619-UM","2019/08/22 18:39:31","新北市新店區安華路28-1號","121.519831666667","24.9605483333333","6500600","新店區"
"231047","KED-0819","2019/08/22 18:39:26","新北市新店區安華路28-1號","121.519908333333","24.9610333333333","6500600","新店區"
"231046","719-UM","2019/08/22 18:39:45","新北市新店區直潭二街1號","121.53543","24.943145","6500600","新店區"
"231057","720-UM","2019/08/22 18:39:41","新北市新店區北宜路一段316號","121.547435","24.9520333333333","6500600","新店區"
"231059","897-TW","2019/08/22 18:39:46","新北市新店區安華路28-1號","121.519686666667","24.96096","6500600","新店區"
"231040","898-TW","2019/08/22 18:39:32","新北市新店區安華路28-1號","121.51953","24.9608666666667","6500600","新店區"
"231043","899-TW","2019/08/22 18:39:34","新北市新店區安康路一段359-27號","121.517446666667","24.9608533333333","6500600","新店區"
"231066","AKT-0513","2019/08/22 18:39:32","新北市新店區安華路1-1號","121.519608333333","24.9604233333333","6500600","新店區"
"241013","270-UM","2019/08/22 18:39:46","新北市三重區仁愛街106號","121.495353333333","25.0742066666667","6500200","三重區"
"235064","005-UY","2019/08/22 18:39:33","新北市中和區連城路75巷2-23號","121.498","24.99897","6500300","中和區"
"235063","006-UY","2019/08/22 18:39:34","新北市中和區錦和路91號","121.490001666667","24.995835","6500300","中和區"
"235056","096-UM","2019/08/22 18:39:29","新北市中和區員山路611巷5弄3號","121.478023333333","25.0112983333333","6500300","中和區"
"235039","097-UM","2019/08/22 18:39:28","新北市中和區宜安路18巷13號","121.51393","24.9963416666667","6500300","中和區"
"235065","098-UM","2019/08/22 18:39:37","新北市中和區莊敬路33巷40號","121.500351666667","25.006585","6500300","中和區"
"235040","150-BY","2019/08/22 18:39:41","新北市中和區保健路74號","121.511523333333","24.99646","6500300","中和區"
"235058","151-BY","2019/08/22 18:39:35","新北市中和區員山路143巷11-4號","121.480248333333","24.9959816666667","6500300","中和區"
"235055","183-VK","2019/08/22 18:39:32","新北市中和區民生街43號","121.469966666667","25.0053416666667","6500300","中和區"
"235038","185-VK","2019/08/22 18:39:38","新北市中和區大勇街43巷2號","121.517851666667","24.9948733333333","6500300","中和區"
"235049","186-VK","2019/08/22 18:39:27","新北市中和區南山路177號","121.50355","24.9953016666667","6500300","中和區"
"235067","255-BX","2019/08/22 18:39:41","新北市中和區新生街39巷4號","121.483591666667","25.00331","6500300","中和區"
"235044","293-VK","2019/08/22 18:39:29","新北市中和區復興路280巷15號","121.502335","24.9913933333333","6500300","中和區"
"235043","352-BY","2019/08/22 18:39:39","新北市中和區景平路105號","121.516803333333","24.9918283333333","6500300","中和區"
"235042","KEA-2878","2019/08/22 18:39:41","新北市中和區秀朗路三段133巷16號","121.525856666667","24.992645","6500300","中和區"
"235069","4980-A6","2019/08/22 18:39:46","新北市中和區連城路65巷6號","121.497811666667","25.0009383333333","6500300","中和區"
"235070","558-UM","2019/08/22 18:39:35","新北市中和區景平路612-1號","121.500683333333","24.9968783333333","6500300","中和區"
"235045","565-BX","2019/08/22 18:39:46","新北市中和區復興路2號","121.506425","24.9897516666667","6500300","中和區"
"235060","KED-0823","2019/08/22 18:39:42","新北市中和區中山路三段177號","121.47293","25.0063","6500300","中和區"
"235054","640-BX","2019/08/22 18:39:31","新北市中和區莒光路129巷2弄5號","121.473175","25.0017466666667","6500300","中和區"
"235047","732-UM","2019/08/22 18:39:46","新北市中和區興南路二段47號","121.50745","24.98555","6500300","中和區"
"235046","733-UM","2019/08/22 18:39:47","新北市中和區忠孝街105號","121.511943333333","24.9865066666667","6500300","中和區"
"235062","800-TS","2019/08/22 18:39:28","新北市中和區景平路703巷2弄2號","121.496128333333","25.00357","6500300","中和區"
"235057","801-TS","2019/08/22 18:39:33","新北市中和區民安街23號","121.480421666667","25.0005033333333","6500300","中和區"
"235052","805-TS","2019/08/22 18:39:28","新北市中和區興南路三段90號","121.490848333333","24.97388","6500300","中和區"
"235048","896-TW","2019/08/22 18:39:38","新北市中和區南山路250巷2號","121.507683333333","24.9889016666667","6500300","中和區"
"235053","900-TW","2019/08/22 18:39:18","新北市中和區民德路266號","121.468023333333","24.9966383333333","6500300","中和區"
"235066","911-UM","2019/08/22 18:39:30","新北市中和區水源路34巷2號","121.504701666667","25.0035266666667","6500300","中和區"
"235051","157-BY","2019/08/22 18:39:26","新北市中和區華新街143巷106弄33號","121.506936666667","24.9782783333333","6500300","中和區"
"235037","AAC-213","2019/08/22 18:39:41","新北市中和區秀朗路三段128巷7弄2號","121.524565","24.9929883333333","6500300","中和區"
"235059","AAC-215","2019/08/22 18:39:27","新北市中和區錦和路354巷15號","121.489723333333","24.991555","6500300","中和區"
"220065","072-UY","2019/08/22 18:39:33","新北市板橋區實踐路76-2號","121.463955","25.00542","6500100","板橋區"
"220086","073-UY","2019/08/22 18:39:43","新北市板橋區華東街1-10號","121.448516666667","24.9949633333333","6500100","板橋區"
"220069","AAD-861","2019/08/22 18:39:41","新北市板橋區縣民大道一段114號","121.457476666667","25.0059583333333","6500100","板橋區"
"220068","120-SR","2019/08/22 18:36:20","新北市板橋區三民路一段129-2號","121.47933","25.020775","6500100","板橋區"
"226004","312-R5","2019/08/22 18:39:33","新北市平溪區石底里公園街18-3號","121.733253333333","25.02583","6502400","平溪區"
"235041","251-BX","2019/08/22 18:39:42","新北市中和區宜安路118巷18號","121.510781666667","24.9985816666667","6500300","中和區"
"228003","097-TW","2019/08/22 18:39:29","新北市貢寮區和美里龍洞街46號","121.913343333333","25.1125283333333","6502600","貢寮區"
"228001","212-TW","2019/08/22 18:39:40","新北市貢寮區仁理村仁和路106巷12號","121.924031666667","25.051535","6502600","貢寮區"
"228002","663-BX","2019/08/22 18:39:30","新北市貢寮區福隆里東興街6-11號","121.950785","25.0210666666667","6502600","貢寮區"
"224010","AGQ-8101","2019/08/22 18:39:43","新北市瑞芳區基山街3號","121.845171666667","25.10975","6501200","瑞芳區"
"224006","676-BX","2019/08/22 18:39:33","新北市瑞芳區明燈路三段73號","121.805431666667","25.10825","6501200","瑞芳區"
"224002","639-TC","2019/08/22 18:39:32","新北市瑞芳區三爪子坑路125號","121.81031","25.10707","6501200","瑞芳區"
"224007","285-BY","2019/08/22 18:39:40","新北市瑞芳區大埔路117號","121.763525","25.101015","6501200","瑞芳區"
"224009","275-VK","2019/08/22 18:39:34","新北市瑞芳區祈堂路64號","121.859043333333","25.1094316666667","6501200","瑞芳區"
"224008","273-VK","2019/08/22 18:39:46","新北市瑞芳區岳王路10-10號","121.807756666667","25.1110433333333","6501200","瑞芳區"
"224005","271-BY","2019/08/22 18:39:25","新北市瑞芳區建基路一段40號","121.819368333333","25.1212883333333","6501200","瑞芳區"
"227002","642-TC","2019/08/22 18:39:31","新北市雙溪區魚行里坤溪3-5號","121.876285","25.0208333333333","6502500","雙溪區"
"227001","400-TW","2019/08/22 18:39:37","新北市雙溪區牡丹里牡丹136號","121.850603333333","25.0592966666667","6502500","雙溪區"
"253006","032-BX","2019/08/22 18:39:30","新北市石門區崁子腳16號","121.532785","25.288285","6502200","石門區"
"253005","295-VK","2019/08/22 18:39:40","新北市石門區中央路2號","121.564851666667","25.2910233333333","6502200","石門區"
"208002","KEA-2872","2019/08/22 18:39:45","新北市金山區仁愛路15-7號","121.638353333333","25.218745","6502700","金山區"
"208003","665-BX","2019/08/22 18:39:47","新北市金山區中山路403號","121.63318","25.225455","6502700","金山區"
"251004","009-UM","2019/08/22 18:39:29","新北市淡水區大同路2號","121.46158","25.1407866666667","6501000","淡水區"
"251001","011-UM","2019/08/22 18:39:30","新北市淡水區自強路166號","121.465596666667","25.1341333333333","6501000","淡水區"
"251010","012-UM","2019/08/22 18:39:42","新北市淡水區沙崙路156巷7號","121.423791666667","25.1826916666667","6501000","淡水區"
"251015","KEA-2871","2019/08/22 18:39:26","新北市淡水區興福寮66巷297號","121.485726666667","25.1618283333333","6501000","淡水區"
"251016","179-VK","2019/08/22 18:39:35","新北市淡水區下圭柔山84-1號","121.439055","25.2051016666667","6501000","淡水區"
"251013","180-VK","2019/08/22 18:39:33","新北市淡水區奎柔山路1262號","121.482775","25.2066483333333","6501000","淡水區"
"251008","181-VK","2019/08/22 18:39:41","新北市淡水區北投子69-1號","121.453915","25.181875","6501000","淡水區"
"251012","443-VK","2019/08/22 18:39:33","新北市淡水區北新路180號","121.44908","25.1785966666667","6501000","淡水區"
"251006","561-UM","2019/08/22 18:39:39","新北市淡水區崁頂36號","121.439158333333","25.19478","6501000","淡水區"
"251014","577-R6","2019/08/22 18:39:36","新北市淡水區崙頂12-8號","121.4956","25.2172333333333","6501000","淡水區"
"251011","650-BX","2019/08/22 18:39:35","新北市淡水區中正東路71號","121.447328333333","25.1675216666667","6501000","淡水區"
"251002","672-BX","2019/08/22 18:39:41","新北市淡水區中正東路一段3巷14弄1號","121.450888333333","25.1642216666667","6501000","淡水區"
"251003","673-BX","2019/08/22 18:39:30","新北市淡水區北新路69巷26號","121.446693333333","25.180105","6501000","淡水區"
"207003","550-UM","2019/08/22 18:39:39","新北市萬里區野柳里港東路162-11號","121.690241666667","25.203945","6502800","萬里區"
"207004","291-VK","2019/08/22 18:39:37","新北市萬里區萬里里獅頭路7號","121.692003333333","25.1783166666667","6502800","萬里區"
"252002","178-VK","2019/08/22 18:39:41","新北市三芝區民生街36號","121.503753333333","25.2561116666667","6502100","三芝區"
"252003","249-BX","2019/08/22 18:39:44","新北市三芝區後厝里大片頭74-13號","121.459051666667","25.245605","6502100","三芝區"
"208001","170-UY","2019/08/22 18:39:33","新北市金山區文化三路7號","121.635071666667","25.2248966666667","6502700","金山區"
"237004","KEA-2597","2019/08/22 18:39:46","新北市三峽區插角24號","121.401898333333","24.8732683333333","6500900","三峽區"
"237007","153-BY","2019/08/22 18:39:29","新北市三峽區柑樹路2巷76號","121.36178","24.9044983333333","6500900","三峽區"
"237009","210-TH","2019/08/22 18:39:37","新北市三峽區弘園街38號","121.366113333333","24.927035","6500900","三峽區"
"237013","252-BX","2019/08/22 18:39:41","新北市三峽區大同路48巷17弄8-1號","121.37661","24.92897","6500900","三峽區"
"237012","275-BY","2019/08/22 18:39:46","新北市三峽區三樹路358號","121.384","24.9433366666667","6500900","三峽區"
"237008","302-VK","2019/08/22 18:39:33","新北市三峽區白雞64-10號","121.383513333333","24.9123533333333","6500900","三峽區"
"237014","433-BY","2019/08/22 18:39:39","新北市三峽區復興路159號","121.370508333333","24.9382633333333","6500900","三峽區"
"237006","5529-G3","2019/08/22 18:39:27","新北市三峽區溪東路473巷2號","121.413861666667","24.9282233333333","6500900","三峽區"
"237011","KEA-2596","2019/08/22 18:39:32","新北市三峽區溪東路301號","121.409413333333","24.9310066666667","6500900","三峽區"
"237010","706-TV","2019/08/22 18:39:46","新北市三峽區復興路489號","121.361261666667","24.938455","6500900","三峽區"
"237005","AKY-6261","2019/08/22 18:39:37","新北市三峽區民生街104巷3-1號","121.373556666667","24.936015","6500900","三峽區"
"236042","KED-0685","2019/08/22 18:39:36","新北市土城區裕民路55巷16號","121.449541666667","24.9886616666667","6501300","土城區"
"236078","166-UM","2019/08/22 18:39:37","新北市土城區中央路四段52巷48號","121.418691666667","24.96035","6501300","土城區"
"236030","253-BX","2019/08/22 18:39:35","新北市土城區福仁街72號","121.43927","24.97414","6501300","土城區"
"236026","269-VK","2019/08/22 18:39:39","新北市土城區忠義路51-1號","121.44047","24.9688783333333","6501300","土城區"
"236014","270-VK","2019/08/22 18:39:32","新北市土城區清水路207巷17號","121.459811666667","24.982375","6501300","土城區"
"236038","271-VK","2019/08/22 18:39:46","新北市土城區明德路一段291巷19號","121.460465","24.9759783333333","6501300","土城區"
"236070","KEA-2877","2019/08/22 18:39:34","新北市土城區永豐路157巷29弄6-1號","121.468328333333","24.981485","6501300","土城區"
"252001","KED-0821","2019/08/22 18:39:28","新北市三芝區中興街二段260號","121.501888333333","25.2528583333333","6502100","三芝區"
"236021","401-BY","2019/08/22 18:39:36","新北市土城區延吉街252號","121.466495","24.9846233333333","6501300","土城區"
"236059","912-UM","2019/08/22 18:39:40","新北市土城區中央路三段149號","121.432211666667","24.9653316666667","6501300","土城區"
"236049","913-UM","2019/08/22 18:39:44","新北市土城區金城路三段6號","121.464311666667","24.9859366666667","6501300","土城區"
"236063","915-UM","2019/08/22 18:39:41","新北市土城區延壽路13巷19號","121.469861666667","24.9913433333333","6501300","土城區"
"236055","AAC-216","2019/08/22 18:39:42","新北市土城區裕民路36號","121.448035","24.988405","6501300","土城區"
"242061","986-R7","2019/08/22 18:39:39","新北市新莊區富國路176巷9號","121.424348333333","25.0238283333333","6500500","新莊區"
"242058","612-BX","2019/08/22 18:39:36","新北市新莊區中正路887-17號","121.41613","25.024195","6500500","新莊區"
"242056","442-UM","2019/08/22 18:39:26","新北市板橋區大觀路三段6-1號","121.435236666667","24.99598","6500500","新莊區"
"242007","349-TH","2019/08/22 18:39:41","新北市新莊區環漢路三段1號","121.443211666667","25.02402","6500500","新莊區"
"238023","601-UM","2019/08/22 18:39:40","新北市樹林區三福街114號","121.406496666667","25.0162983333333","6500700","樹林區"
"238019","599-UM","2019/08/22 18:39:36","新北市樹林區中華路190-16號","121.411821666667","24.9806816666667","6500700","樹林區"
"238024","5061-A6","2019/08/22 18:39:23","新北市樹林區大安路593號","121.411611666667","24.9830466666667","6500700","樹林區"
"238018","KEA-2217","2019/08/22 18:39:35","新北市樹林區鎮前街21號","121.425868333333","24.9924933333333","6500700","樹林區"
"238022","KEA-2213","2019/08/22 18:39:29","新北市樹林區中華路393號","121.411383333333","24.98046","6500700","樹林區"
"238025","303-VK","2019/08/22 18:39:31","新北市樹林區中山路三段206-1號","121.384161666667","24.9671883333333","6500700","樹林區"
"238020","268-VK","2019/08/22 18:39:25","新北市樹林區俊安街24巷10弄6號","121.418993333333","25.01378","6500700","樹林區"
"238026","172-UY","2019/08/22 18:39:45","新北市樹林區育德街78-1號","121.388085","24.9680783333333","6500700","樹林區"
"238016","169-UY","2019/08/22 18:39:33","新北市樹林區中山路一段412號","121.417386666667","24.9851733333333","6500700","樹林區"
"239007","AAC-297","2019/08/22 18:39:35","新北市鶯歌區中正一路478號","121.366486666667","24.9568166666667","6500800","鶯歌區"
"239008","527-UM","2019/08/22 18:39:30","新北市鶯歌區朝陽街1號","121.336278333333","24.9765933333333","6500800","鶯歌區"
"239005","526-UM","2019/08/22 18:39:34","新北市鶯歌區鶯桃路二段48號","121.325531666667","24.9725966666667","6500800","鶯歌區"
"239001","417-VK","2019/08/22 18:39:47","新北市鶯歌區國中街178號","121.338213333333","24.9391916666667","6500800","鶯歌區"
"239003","360-BY","2019/08/22 18:39:46","新北市鶯歌區福安街13巷1號","121.33568","24.96534","6500800","鶯歌區"
"239002","359-BY","2019/08/22 18:39:29","新北市鶯歌區中正一路95號","121.352163333333","24.95509","6500800","鶯歌區"
"239004","193-VK","2019/08/22 18:39:35","新北市鶯歌區尖山路卓厝巷7號","121.341606666667","24.9453916666667","6500800","鶯歌區"
"221036","130-UY","2019/08/22 18:39:24","新北市汐止區長興街一段6號","121.669691666667","25.0785133333333","6501100","汐止區"
"221015","131-UY","2019/08/22 18:39:32","新北市汐止區鄉長路18巷3號","121.668353333333","25.0823516666667","6501100","汐止區"
"221010","269-BY","2019/08/22 18:39:33","新北市汐止區瑞松街39號","121.645555","25.1058166666667","6501100","汐止區"
"221012","278-VK","2019/08/22 18:39:30","新北市汐止區保長路53號","121.673541666667","25.0788583333333","6501100","汐止區"
"221032","280-BY","2019/08/22 18:39:27","新北市汐止區福山街62巷10號","121.61828","25.04657","6501100","汐止區"
"221029","298-VK","2019/08/22 18:39:38","新北市汐止區樟樹一路131號","121.642178333333","25.0649833333333","6501100","汐止區"
"221021","299-VK","2019/08/22 18:39:44","新北市汐止區南興路30號","121.651746666667","25.061495","6501100","汐止區"
"221031","353-TW","2019/08/22 18:39:32","新北市汐止區大同路一段405-1號","121.641551666667","25.060285","6501100","汐止區"
"221025","623-UM","2019/08/22 18:39:46","新北市汐止區仁愛路121巷7號","121.662873333333","25.0642966666667","6501100","汐止區"
"221033","647-BX","2019/08/22 18:39:30","新北市汐止區宜興街1號","121.620831666667","25.041205","6501100","汐止區"
"221002","707-TV","2019/08/22 18:39:41","新北市汐止區大同路一段301號","121.637296666667","25.0589916666667","6501100","汐止區"
"221018","753-BX","2019/08/22 18:39:40","新北市汐止區茄苳路224巷3弄20號","121.671195","25.0680566666667","6501100","汐止區"
"220079","145-BY","2019/08/22 18:39:42","新北市板橋區館前西路162號","121.452753333333","25.0085716666667","6500100","板橋區"
"233001","KEA-2870","2019/08/22 18:39:41","新北市新店區安康路一段3-1號","121.53401","24.960725","6502900","烏來區"
"220080","200-UY","2019/08/22 18:39:37","新北市板橋區板城路407號","121.44709","24.9949616666667","6500100","板橋區"
"220082","610-BX","2019/08/22 18:39:39","新北市板橋區大觀路三段59巷17弄6-1號","121.436065","24.9955133333333","6500100","板橋區"
"220056","276-BY","2019/08/22 18:39:38","新北市板橋區華興街91巷4號","121.456426666667","25.0051033333333","6500100","板橋區"
"220072","277-BY","2019/08/22 18:39:44","新北市板橋區大觀路三段59巷17弄6-1號","121.436511666667","24.995455","6500100","板橋區"
"220071","283-VK","2019/08/22 18:39:32","新北市板橋區四川路二段58號","121.453003333333","24.9950566666667","6500100","板橋區"
"220094","285-UM","2019/08/22 18:39:45","新北市板橋區民生路二段161巷1號","121.47007","25.0198366666667","6500100","板橋區"
"220083","286-VK","2019/08/22 18:39:35","新北市板橋區大觀路二段11-12號","121.448281666667","24.9967366666667","6500100","板橋區"
"220081","287-VK","2019/08/22 18:39:32","新北市板橋區大觀路二段163巷32號","121.446751666667","24.99995","6500100","板橋區"
"220090","288-VK","2019/08/22 18:39:39","新北市板橋區民生路二段120號","121.470928333333","25.01963","6500100","板橋區"
"220084","296-UM","2019/08/22 18:39:41","新北市板橋區大觀路二段142-1號","121.442648333333","24.9990533333333","6500100","板橋區"
"220075","303-R5","2019/08/22 18:39:31","新北市板橋區南雅南路二段120-8號","121.45218","24.9995233333333","6500100","板橋區"
"220092","307-R5","2019/08/22 18:39:40","新北市板橋區民生路二段56-6號","121.471373333333","25.01873","6500100","板橋區"
"220089","487-VK","2019/08/22 18:39:43","新北市板橋區民生路二段161巷1號","121.470055","25.0202316666667","6500100","板橋區"
"220088","491-VK","2019/08/22 18:39:44","新北市板橋區民生路二段161巷1號","121.469986666667","25.0201383333333","6500100","板橋區"
"220063","609-BX","2019/08/22 18:39:38","新北市板橋區民生路二段188號","121.470433333333","25.0206466666667","6500100","板橋區"
"220035","630-UY","2019/08/22 18:39:38","新北市板橋區南雅西路二段145巷6號","121.451583333333","25.01188","6500100","板橋區"
"220091","637-BX","2019/08/22 18:39:29","新北市板橋區民生路二段226巷6弄13號","121.47003","25.0212966666667","6500100","板橋區"
"220057","686-BX","2019/08/22 18:39:42","新北市板橋區館前東路52號","121.460898333333","25.0071866666667","6500100","板橋區"
"220077","687-BX","2019/08/22 18:39:37","新北市板橋區板城路421號","121.448005","24.996415","6500100","板橋區"
"220054","741-BX","2019/08/22 18:39:37","新北市板橋區南雅南路二段118號","121.452508333333","25.00009","6500100","板橋區"
"220102","KEA-2699","2019/08/22 18:39:37","新北市板橋區萬板路13號","121.470446666667","25.021075","6500100","板橋區"
"220055","827-TW","2019/08/22 18:39:42","新北市板橋區忠孝路2號","121.45928","25.0016033333333","6500100","板橋區"
"220074","895-R6","2019/08/22 18:39:43","新北市板橋區南雅南路二段1-1號","121.454766666667","25.0039266666667","6500100","板橋區"
"220073","985-R7","2019/08/22 18:39:32","新北市板橋區四川路二段23-3號","121.45462","24.9956983333333","6500100","板橋區"
"220064","AAC-253","2019/08/22 18:39:41","新北市板橋區民生路二段36-1號","121.472101666667","25.01679","6500100","板橋區"
"235068","KEA-2873","2019/08/22 18:39:33","新北市中和區中正路211巷13弄7號","121.497103333333","24.99316","6500300","中和區"
"235061","KEA-2875","2019/08/22 18:39:33","新北市中和區民享街30巷2號","121.4737","25.0035283333333","6500300","中和區"
