"lineid","car","time","location","longitude","latitude","cityid","cityname"
"234046","148-BY","2019/08/22 18:49:42","新北市永和區秀朗路二段151號","121.524858333333","25.001605","6500400","永和區"
"234081","298-R6","2019/08/22 18:49:41","新北市永和區林森路112巷9弄1號","121.522278333333","25.00424","6500400","永和區"
"234064","337-UY","2019/08/22 18:49:33","新北市永和區環河東路二段92號","121.524465","25.010595","6500400","永和區"
"234086","338-UY","2019/08/22 18:49:44","新北市永和區中正路1號","121.513653333333","24.9953733333333","6500400","永和區"
"234017","745-BX","2019/08/22 18:49:43","新北市永和區忠孝街26巷27弄2號","121.515176666667","25.0170366666667","6500400","永和區"
"234030","746-BX","2019/08/22 18:49:27","新北市永和區得和路326號","121.52328","24.9995983333333","6500400","永和區"
"234054","KEA-2590","2019/08/22 18:49:16","新北市永和區福和路1號","121.52635","25.009405","6500400","永和區"
"234007","KED-0605","2019/08/22 18:49:44","新北市永和區文化路103號","121.513085","25.0152033333333","6500400","永和區"
"234013","KEA-2591","2019/08/22 18:49:43","新北市永和區保福路二段133巷34號","121.508841666667","25.0134416666667","6500400","永和區"
"234061","AAD-866","2019/08/22 18:49:25","新北市永和區福和路157號","121.52036","25.00771","6500400","永和區"
"234042","862-TW","2019/08/22 18:49:38","新北市永和區永貞路265號","121.511786666667","25.0046583333333","6500400","永和區"
"234050","863-TW","2019/08/22 18:49:28","新北市永和區福和路1號","121.526395","25.009955","6500400","永和區"
"234026","9371-KE","2019/08/22 18:49:43","新北市永和區自由街58號","121.513863333333","25.0060583333333","6500400","永和區"
"234011","9373-KE","2019/08/22 18:49:43","新北市永和區永和路二段405巷39號","121.514451666667","25.016945","6500400","永和區"
"249005","172-UM","2019/08/22 18:49:27","新北市八里區長道坑16-7號","121.395525","25.1153816666667","6502300","八里區"
"249001","173-UM","2019/08/22 18:49:34","新北市八里區龍米路二段36號","121.448526666667","25.14012","6502300","八里區"
"248014","025-BX","2019/08/22 18:49:44","新北市五股區民義路一段107巷32號","121.432471666667","25.0846166666667","6501500","五股區"
"248016","026-BX","2019/08/22 18:49:44","新北市五股區凌雲路一段156巷21號","121.449565","25.1029483333333","6501500","五股區"
"248006","077-UY","2019/08/22 18:49:33","新北市五股區中興路一段77號","121.467323333333","25.0726983333333","6501500","五股區"
"248008","KED-0815","2019/08/22 18:49:33","新北市五股區中興路一段151巷57號","121.465133333333","25.0717066666667","6501500","五股區"
"248020","KED-0813","2019/08/22 18:49:43","新北市五股區凌雲路三段86號","121.43021","25.1182216666667","6501500","五股區"
"248012","247-BX","2019/08/22 18:49:45","新北市五股區成泰路二段147巷2-2號","121.437546666667","25.0891216666667","6501500","五股區"
"248010","272-BY","2019/08/22 18:49:39","新北市五股區水碓一路61號","121.431408333333","25.07261","6501500","五股區"
"248004","677-BX","2019/08/22 18:49:41","新北市五股區民義路二段54-6號","121.407998333333","25.106325","6501500","五股區"
"248002","678-BX","2019/08/22 18:49:41","新北市五股區成泰路三段454號","121.451411666667","25.10035","6501500","五股區"
"234023","9380-KE","2019/08/22 18:49:29","新北市永和區竹林路119巷28-3號","121.521843333333","25.0117433333333","6500400","永和區"
"234077","969-R7","2019/08/22 18:49:41","新北市永和區中正路2巷29弄2-2號","121.51391","24.99398","6500400","永和區"
"234067","AAC-212","2019/08/22 18:49:45","新北市永和區中和路625號","121.512993333333","25.0049016666667","6500400","永和區"
"234003","AAC-295","2019/08/22 18:49:44","新北市永和區中正路700號","121.51636","25.0098216666667","6500400","永和區"
"232011","076-UY","2019/08/22 18:49:43","新北市坪林區坪林街55號","121.711433333333","24.9375666666667","6502000","坪林區"
"244019","402-UM","2019/08/22 18:49:37","新北市林口區麗園二街87號","121.382686666667","25.06687","6501700","林口區"
"244013","KEA-2802","2019/08/22 18:49:47","新北市林口區麗園二街1巷9-3號","121.378943333333","25.070515","6501700","林口區"
"244023","483-VK","2019/08/22 18:49:37","新北市林口區吉祥路178號","121.37674","25.08048","6501700","林口區"
"244017","485-VK","2019/08/22 18:49:48","新北市林口區文化二路一段120巷5號","121.36794","25.069975","6501700","林口區"
"244009","656-BX","2019/08/22 18:49:33","新北市林口區竹林路446巷2弄14號","121.387906666667","25.0858","6501700","林口區"
"244011","701-TV","2019/08/22 18:49:42","新北市林口區粉寮路一段39號","121.39659","25.0772483333333","6501700","林口區"
"244025","837-TS","2019/08/22 18:49:43","新北市林口區南勢街149號","121.36002","25.0747816666667","6501700","林口區"
"243010","297-R6","2019/08/22 18:49:28","新北市泰山區辭修路48號","121.428521666667","25.0572516666667","6501600","泰山區"
"243014","KEA-2801","2019/08/22 18:49:35","新北市泰山區黎明路25號","121.421993333333","25.0608333333333","6501600","泰山區"
"243016","421-VK","2019/08/22 18:49:39","新北市泰山區明志路一段519號","121.430296666667","25.05394","6501600","泰山區"
"243011","KEA-2216","2019/08/22 18:49:29","新北市泰山區明志路二段248號","121.426783333333","25.0480516666667","6501600","泰山區"
"243015","680-BX","2019/08/22 18:49:31","新北市泰山區美寧街58號","121.430643333333","25.0645483333333","6501600","泰山區"
"222003","436-BY","2019/08/22 18:49:43","新北市深坑區北深路一段300號","121.623321666667","25.0053933333333","6501800","深坑區"
"222001","628-TS","2019/08/22 18:49:42","新北市深坑區松柏街33號","121.638605","25.0113566666667","6501800","深坑區"
"222002","659-BX","2019/08/22 18:49:44","新北市深坑區文山路一段69號","121.627025","25.0019416666667","6501800","深坑區"
"231061","002-UM","2019/08/22 18:49:47","新北市新店區安華路28-1號","121.519871666667","24.9608783333333","6500600","新店區"
"231055","0291-UT","2019/08/22 18:49:40","新北市新店區中華路47巷2弄1號","121.539658333333","24.9674716666667","6500600","新店區"
"231058","0293-UT","2019/08/22 18:49:25","新北市新店區能仁街12-1號","121.540618333333","24.955475","6500600","新店區"
"231044","046-UY","2019/08/22 18:49:36","新北市新店區中正路20號","121.545298333333","24.9695816666667","6500600","新店區"
"231060","106-UY","2019/08/22 18:49:28","新北市新店區安華路28-1號","121.51952","24.9607766666667","6500600","新店區"
"231051","107-UY","2019/08/22 18:49:40","新北市新店區中央路81號","121.532401666667","24.9766","6500600","新店區"
"231049","108-UY","2019/08/22 18:49:31","新北市新店區中央路153號","121.529841666667","24.9730683333333","6500600","新店區"
"231065","110-UY","2019/08/22 18:49:45","新北市新店區車子路10-4號","121.504746666667","24.9545566666667","6500600","新店區"
"221035","KEA-2785","2019/08/22 18:49:44","新北市汐止區大同路二段19號","121.64737","25.0630483333333","6501100","汐止區"
"231062","256-BX","2019/08/22 18:49:27","新北市新店區安一路一段1-1號","121.519725","24.9611016666667","6500600","新店區"
"231054","260-TV","2019/08/22 18:49:39","新北市新店區安一路一段1-1號","121.519251666667","24.9612133333333","6500600","新店區"
"231042","268-BY","2019/08/22 18:49:33","新北市新店區中正路96號","121.543481666667","24.97049","6500600","新店區"
"231064","278-BY","2019/08/22 18:49:42","新北市新店區安一路一段1-1號","121.519798333333","24.9611716666667","6500600","新店區"
"231050","AAD-862","2019/08/22 18:49:48","新北市新店區安康路一段104號","121.527276666667","24.962475","6500600","新店區"
"231056","4715-K9","2019/08/22 18:49:29","新北市新店區大同街12號","121.539656666667","24.979905","6500600","新店區"
"231052","513-UM","2019/08/22 18:49:41","新北市新店區新烏路一段105巷33-2號","121.546748333333","24.9401233333333","6500600","新店區"
"231063","616-UM","2019/08/22 18:49:28","新北市新店區安華路28-1號","121.519518333333","24.9605216666667","6500600","新店區"
"231041","619-UM","2019/08/22 18:49:31","新北市新店區安華路28-1號","121.51966","24.960665","6500600","新店區"
"231047","KED-0819","2019/08/22 18:49:46","新北市新店區力行路11巷57號","121.53856","24.9617566666667","6500600","新店區"
"231046","719-UM","2019/08/22 18:49:26","新北市新店區直潭路71號","121.532411666667","24.9422","6500600","新店區"
"231057","720-UM","2019/08/22 18:49:41","新北市新店區新烏路一段215號","121.549295","24.9313333333333","6500600","新店區"
"231059","897-TW","2019/08/22 18:49:26","新北市新店區安華路28-1號","121.519665","24.9608416666667","6500600","新店區"
"231040","898-TW","2019/08/22 18:49:32","新北市新店區安康路一段147號","121.527613333333","24.9621516666667","6500600","新店區"
"231043","899-TW","2019/08/22 18:49:34","新北市新店區安華路28-1號","121.51929","24.9608683333333","6500600","新店區"
"231066","AKT-0513","2019/08/22 18:49:32","新北市新店區安華路28-1號","121.519585","24.9605766666667","6500600","新店區"
"241013","270-UM","2019/08/22 18:49:46","新北市三重區仁愛街92巷22號","121.494491666667","25.0735866666667","6500200","三重區"
"241035","462-BY","2019/08/22 18:49:45","新北市三重區重新路四段121號","121.484921666667","25.05197","6500200","三重區"
"235064","005-UY","2019/08/22 18:49:33","新北市中和區泰和街44巷21號","121.49833","25.0008533333333","6500300","中和區"
"235063","006-UY","2019/08/22 18:49:44","新北市中和區中正路462號","121.490168333333","24.9942666666667","6500300","中和區"
"235056","096-UM","2019/08/22 18:49:29","新北市中和區員山路466巷17弄23號","121.480506666667","25.007265","6500300","中和區"
"235039","097-UM","2019/08/22 18:49:47","新北市中和區安樂路217巷40弄1號","121.513325","24.9979416666667","6500300","中和區"
"235065","098-UM","2019/08/22 18:49:37","新北市中和區中山路二段2巷45弄38號","121.50128","25.0069016666667","6500300","中和區"
"235040","150-BY","2019/08/22 18:49:41","新北市中和區宜安路35號","121.512155","24.9960883333333","6500300","中和區"
"235058","151-BY","2019/08/22 18:49:35","新北市中和區連城路506號","121.477113333333","24.9921816666667","6500300","中和區"
"235055","183-VK","2019/08/22 18:49:32","新北市中和區民德路23號","121.468928333333","25.00273","6500300","中和區"
"235038","185-VK","2019/08/22 18:49:38","新北市中和區大勇街50號","121.517505","24.994155","6500300","中和區"
"235049","186-VK","2019/08/22 18:49:47","新北市中和區景安路177巷23號","121.506505","24.9944633333333","6500300","中和區"
"235067","255-BX","2019/08/22 18:49:46","新北市中和區民樂路80巷2號","121.484391666667","25.0010583333333","6500300","中和區"
"235044","293-VK","2019/08/22 18:49:30","新北市中和區中興街165號","121.499885","24.990665","6500300","中和區"
"235072","301-VK","2019/08/22 18:49:28","新北市中和區中山路二段262號","121.497296666667","25.0024466666667","6500300","中和區"
"235043","352-BY","2019/08/22 18:49:39","新北市中和區成功路129號","121.525861666667","24.9908016666667","6500300","中和區"
"235042","KEA-2878","2019/08/22 18:49:14","新北市中和區秀朗路三段70巷32號","121.525658333333","24.9944816666667","6500300","中和區"
"235069","4980-A6","2019/08/22 18:49:42","新北市中和區南山路111巷5號","121.502706666667","24.997865","6500300","中和區"
"235070","558-UM","2019/08/22 18:49:38","新北市中和區中和路177號","121.50324","24.999775","6500300","中和區"
"235045","565-BX","2019/08/22 18:49:46","新北市中和區興南路一段1號","121.511451666667","24.991225","6500300","中和區"
"235060","KED-0823","2019/08/22 18:49:39","新北市中和區民治街19巷2號","121.475281666667","25.0026483333333","6500300","中和區"
"235054","640-BX","2019/08/22 18:49:31","新北市中和區中山路三段142號","121.473843333333","25.006225","6500300","中和區"
"235047","732-UM","2019/08/22 18:49:46","新北市中和區興南路二段34巷53號","121.505065","24.986415","6500300","中和區"
"235046","733-UM","2019/08/22 18:49:47","新北市中和區興南路一段85巷16號","121.510035","24.98838","6500300","中和區"
"235062","800-TS","2019/08/22 18:49:28","新北市中和區中山路二段351號","121.49037","25.0034483333333","6500300","中和區"
"235057","801-TS","2019/08/22 18:49:33","新北市中和區民安街65巷5號","121.47878","24.9992883333333","6500300","中和區"
"235052","805-TS","2019/08/22 18:49:28","新北市中和區興南路二段399巷98弄48號","121.498305","24.9765916666667","6500300","中和區"
"235048","896-TW","2019/08/22 18:49:38","新北市中和區華新街40號","121.507875","24.98429","6500300","中和區"
"235053","900-TW","2019/08/22 18:49:38","新北市中和區民德路290巷7號","121.467","24.9957083333333","6500300","中和區"
"235066","911-UM","2019/08/22 18:49:34","新北市中和區水源路7巷4號","121.504003333333","25.0036583333333","6500300","中和區"
"235051","157-BY","2019/08/22 18:49:26","新北市中和區忠孝街106巷37號","121.513445","24.9842683333333","6500300","中和區"
"235037","AAC-213","2019/08/22 18:49:41","新北市中和區自立路3號","121.522573333333","24.9967216666667","6500300","中和區"
"235059","AAC-215","2019/08/22 18:49:47","新北市中和區圓通路393巷26號","121.490081666667","24.9883933333333","6500300","中和區"
"220065","072-UY","2019/08/22 18:49:33","新北市板橋區館前東路108-1號","121.463218333333","25.0078366666667","6500100","板橋區"
"220086","073-UY","2019/08/22 18:49:43","新北市板橋區南雅西路二段145巷6號","121.451623333333","25.0117183333333","6500100","板橋區"
"220106","075-UY","2019/08/22 18:49:42","新北市板橋區文化路二段124巷36號","121.471558333333","25.0254683333333","6500100","板橋區"
"220069","AAD-861","2019/08/22 18:49:41","新北市板橋區華興街73-1號","121.457061666667","25.0049933333333","6500100","板橋區"
"220068","120-SR","2019/08/22 18:49:42","新北市板橋區大同街35巷30號","121.477148333333","25.02788","6500100","板橋區"
"226004","312-R5","2019/08/22 18:49:34","新北市平溪區平溪里三坑路28號","121.736678333333","25.0290283333333","6502400","平溪區"
"235041","251-BX","2019/08/22 18:49:42","新北市中和區安平路114號","121.511698333333","24.9975216666667","6500300","中和區"
"228003","097-TW","2019/08/22 18:49:35","新北市貢寮區和美里龍洞街56-3號","121.912545","25.11424","6502600","貢寮區"
"228001","212-TW","2019/08/22 18:49:40","新北市貢寮區仁理村保健街69號","121.923638333333","25.0516183333333","6502600","貢寮區"
"228002","663-BX","2019/08/22 18:49:30","新北市貢寮區福隆里東興街6-11號","121.950716666667","25.0209866666667","6502600","貢寮區"
"224010","AGQ-8101","2019/08/22 18:49:43","新北市瑞芳區基山街32-1號","121.844988333333","25.1085183333333","6501200","瑞芳區"
"224006","676-BX","2019/08/22 18:49:33","新北市瑞芳區民生街20號","121.805813333333","25.1074433333333","6501200","瑞芳區"
"224002","639-TC","2019/08/22 18:49:32","新北市瑞芳區傑魚坑路44-1號","121.793736666667","25.1075","6501200","瑞芳區"
"224007","285-BY","2019/08/22 18:49:40","新北市瑞芳區大埔路146-1號","121.761706666667","25.1010016666667","6501200","瑞芳區"
"224009","275-VK","2019/08/22 18:49:34","新北市瑞芳區祈堂路53-1號","121.859606666667","25.1104266666667","6501200","瑞芳區"
"224008","273-VK","2019/08/22 18:49:46","新北市瑞芳區逢甲路282巷5弄4號","121.803701666667","25.1113233333333","6501200","瑞芳區"
"224005","271-BY","2019/08/22 18:49:25","新北市瑞芳區濱二路58-1號","121.8316","25.1185266666667","6501200","瑞芳區"
"227002","642-TC","2019/08/22 18:49:31","新北市雙溪區共和里中山路59號","121.86878","25.031305","6502500","雙溪區"
"227001","400-TW","2019/08/22 18:49:37","新北市雙溪區牡丹里下坑11號","121.850991666667","25.0561783333333","6502500","雙溪區"
"253006","032-BX","2019/08/22 18:49:29","新北市石門區下員坑15-7號","121.51152","25.285075","6502200","石門區"
"253005","295-VK","2019/08/22 18:49:40","新北市石門區中山路28-3號","121.565821666667","25.2899366666667","6502200","石門區"
"208002","KEA-2872","2019/08/22 18:49:45","新北市金山區信義路66號","121.635706666667","25.2189266666667","6502700","金山區"
"208003","665-BX","2019/08/22 18:49:47","新北市金山區中山路308號","121.634375","25.224745","6502700","金山區"
"251001","011-UM","2019/08/22 18:49:43","新北市淡水區自強路96-1號","121.462338333333","25.1288233333333","6501000","淡水區"
"251010","012-UM","2019/08/22 18:49:42","新北市淡水區沙崙路26號","121.421636666667","25.1809816666667","6501000","淡水區"
"251015","KEA-2871","2019/08/22 18:49:46","新北市淡水區興福寮100號","121.487013333333","25.1643316666667","6501000","淡水區"
"251016","179-VK","2019/08/22 18:49:35","新北市淡水區下圭柔山71-3號","121.447011666667","25.206235","6501000","淡水區"
"251013","180-VK","2019/08/22 18:49:33","新北市淡水區安子內5-1號","121.483786666667","25.215195","6501000","淡水區"
"251008","181-VK","2019/08/22 18:49:40","新北市淡水區中山北路三段165-1號","121.445163333333","25.1968583333333","6501000","淡水區"
"251012","443-VK","2019/08/22 18:49:33","新北市淡水區中山北路一段156號","121.443938333333","25.1778783333333","6501000","淡水區"
"251009","575-R6","2019/08/22 18:49:43","新北市淡水區重建街224號","121.441391666667","25.17489","6501000","淡水區"
"251014","577-R6","2019/08/22 18:49:38","新北市淡水區崙頂15-1號","121.489386666667","25.2234316666667","6501000","淡水區"
"251011","650-BX","2019/08/22 18:49:35","新北市淡水區平遠街11號","121.448251666667","25.1680333333333","6501000","淡水區"
"251002","672-BX","2019/08/22 18:49:44","新北市淡水區學府路88號","121.449071666667","25.1707216666667","6501000","淡水區"
"251003","673-BX","2019/08/22 18:49:30","新北市淡水區中山北路一段186巷27弄1-1號","121.446246666667","25.1788366666667","6501000","淡水區"
"207003","550-UM","2019/08/22 18:49:39","新北市萬里區野柳里港東路155號","121.689733333333","25.2053083333333","6502800","萬里區"
"207004","291-VK","2019/08/22 18:49:37","新北市萬里區萬里里獅頭路23號","121.693228333333","25.178265","6502800","萬里區"
"252002","178-VK","2019/08/22 18:49:41","新北市三芝區中正路一段112號","121.504813333333","25.25645","6502100","三芝區"
"252003","249-BX","2019/08/22 18:49:44","新北市三芝區後厝里大片頭76號","121.459285","25.245715","6502100","三芝區"
"208001","170-UY","2019/08/22 18:49:33","新北市金山區文化三路66巷1號","121.63416","25.2256583333333","6502700","金山區"
"237004","KEA-2597","2019/08/22 18:49:26","新北市三峽區有木307號","121.42181","24.863425","6500900","三峽區"
"237007","153-BY","2019/08/22 18:49:29","新北市三峽區大埔路80號","121.366381666667","24.90724","6500900","三峽區"
"237013","252-BX","2019/08/22 18:49:41","新北市三峽區光明路69巷24號","121.376635","24.9290583333333","6500900","三峽區"
"237012","275-BY","2019/08/22 18:49:26","新北市三峽區三樹路340號","121.38395","24.9433066666667","6500900","三峽區"
"237008","302-VK","2019/08/22 18:49:33","新北市三峽區白雞30號","121.36906","24.9124366666667","6500900","三峽區"
"237014","433-BY","2019/08/22 18:49:39","新北市三峽區復興路480巷51-1號","121.360683333333","24.9405","6500900","三峽區"
"237006","5529-G3","2019/08/22 18:49:47","新北市三峽區溪東路315巷19號","121.411398333333","24.9311933333333","6500900","三峽區"
"237011","KEA-2596","2019/08/22 18:49:32","新北市三峽區成福路101號","121.419323333333","24.92982","6500900","三峽區"
"237010","706-TV","2019/08/22 18:49:26","新北市三峽區復興路449號","121.362638333333","24.93858","6500900","三峽區"
"237005","AKY-6261","2019/08/22 18:49:37","新北市三峽區中山路219巷19弄2號","121.36258","24.9359333333333","6500900","三峽區"
"236042","KED-0685","2019/08/22 18:49:35","新北市土城區裕民路114巷1-2號","121.450711666667","24.9861966666667","6501300","土城區"
"236078","166-UM","2019/08/22 18:49:38","新北市土城區中央路四段165巷55號","121.416586666667","24.9559216666667","6501300","土城區"
"236030","253-BX","2019/08/22 18:49:37","新北市土城區中央路三段61巷2號","121.439456666667","24.9694433333333","6501300","土城區"
"236026","269-VK","2019/08/22 18:49:30","新北市土城區慶安街29巷12號","121.441538333333","24.9728516666667","6501300","土城區"
"236014","270-VK","2019/08/22 18:49:32","新北市土城區金城路二段354巷20號","121.460748333333","24.9841466666667","6501300","土城區"
"236038","271-VK","2019/08/22 18:49:44","新北市土城區仁愛路25-1號","121.462751666667","24.9783166666667","6501300","土城區"
"236070","KEA-2877","2019/08/22 18:49:34","新北市土城區延和路21巷5號","121.464105","24.98864","6501300","土城區"
"252001","KED-0821","2019/08/22 18:49:28","新北市三芝區中正路三段9號","121.502811666667","25.2539866666667","6502100","三芝區"
"236021","401-BY","2019/08/22 18:49:36","新北市土城區延安街42-3號","121.46743","24.985215","6501300","土城區"
"236059","912-UM","2019/08/22 18:49:40","新北市土城區金城路一段112號","121.446928333333","24.9755333333333","6501300","土城區"
"236049","913-UM","2019/08/22 18:49:44","新北市土城區青雲路13號","121.460276666667","24.9892866666667","6501300","土城區"
"236063","915-UM","2019/08/22 18:49:41","新北市土城區延和路177巷28號","121.470311666667","24.990975","6501300","土城區"
"236055","AAC-216","2019/08/22 18:49:42","新北市土城區裕民路173號","121.453188333333","24.9849716666667","6501300","土城區"
"242061","986-R7","2019/08/22 18:49:39","新北市新莊區民安東路185號","121.433148333333","25.0204283333333","6500500","新莊區"
"242056","442-UM","2019/08/22 18:49:33","新北市樹林區八德街370號","121.407793333333","24.969585","6500500","新莊區"
"242007","349-TH","2019/08/22 18:49:41","新北市樹林區環河路2號","121.427945","24.9788666666667","6500500","新莊區"
"238023","601-UM","2019/08/22 18:49:40","新北市樹林區工興街14巷2號","121.398911666667","25.013515","6500700","樹林區"
"238019","599-UM","2019/08/22 18:49:36","新北市樹林區中華路190-16號","121.411806666667","24.9806483333333","6500700","樹林區"
"238024","5061-A6","2019/08/22 18:49:45","新北市樹林區太平路247巷14號","121.41927","24.9750416666667","6500700","樹林區"
"238022","KEA-2213","2019/08/22 18:49:29","新北市樹林區中華路190-1號","121.411355","24.9805033333333","6500700","樹林區"
"238021","KEA-2539","2019/08/22 18:49:33","新北市樹林區西圳街二段80巷1號","121.385761666667","24.9585616666667","6500700","樹林區"
"238025","303-VK","2019/08/22 18:49:31","新北市樹林區中山路三段124號","121.392286666667","24.972175","6500700","樹林區"
"238020","268-VK","2019/08/22 18:49:25","新北市樹林區俊英街280號","121.423783333333","25.0132916666667","6500700","樹林區"
"238026","172-UY","2019/08/22 18:49:46","新北市樹林區信和街2巷1號","121.389723333333","24.9707933333333","6500700","樹林區"
"238016","169-UY","2019/08/22 18:49:33","新北市樹林區中山路一段412號","121.417383333333","24.985155","6500700","樹林區"
"239007","AAC-297","2019/08/22 18:49:35","新北市鶯歌區中正一路建德巷38號","121.364496666667","24.957825","6500800","鶯歌區"
"239008","527-UM","2019/08/22 18:49:30","新北市鶯歌區朝陽街1號","121.336305","24.9766033333333","6500800","鶯歌區"
"239005","526-UM","2019/08/22 18:49:34","新北市鶯歌區鳳吉二街115號","121.329216666667","24.9752866666667","6500800","鶯歌區"
"239001","417-VK","2019/08/22 18:49:27","新北市鶯歌區中正三路193巷39號","121.336463333333","24.9384433333333","6500800","鶯歌區"
"239003","360-BY","2019/08/22 18:49:46","新北市鶯歌區鶯桃路466號","121.3324","24.96546","6500800","鶯歌區"
"239004","193-VK","2019/08/22 18:49:35","新北市鶯歌區高職南街13號","121.337428333333","24.93935","6500800","鶯歌區"
"221036","130-UY","2019/08/22 18:49:44","新北市汐止區大同路三段21號","121.66658","25.0761866666667","6501100","汐止區"
"221015","131-UY","2019/08/22 18:49:32","新北市汐止區吉祥街26號","121.667833333333","25.081035","6501100","汐止區"
"221032","280-BY","2019/08/22 18:49:47","新北市汐止區民權街二段79號","121.619195","25.0481166666667","6501100","汐止區"
"221029","298-VK","2019/08/22 18:49:38","新北市汐止區工建路60號","121.640711666667","25.062855","6501100","汐止區"
"221021","299-VK","2019/08/22 18:49:44","新北市汐止區復興路53巷2號","121.656988333333","25.0625133333333","6501100","汐止區"
"221031","353-TW","2019/08/22 18:49:32","新北市汐止區中興路102號","121.634003333333","25.0628133333333","6501100","汐止區"
"221025","623-UM","2019/08/22 18:49:46","新北市汐止區福安街20巷22號","121.661841666667","25.0645783333333","6501100","汐止區"
"221002","707-TV","2019/08/22 18:49:41","新北市汐止區大同路一段149號","121.632105","25.0561216666667","6501100","汐止區"
"221018","753-BX","2019/08/22 18:49:40","新北市汐止區茄苳路277號","121.672301666667","25.06796","6501100","汐止區"
"220079","145-BY","2019/08/22 18:49:42","新北市板橋區大仁街118號","121.452661666667","25.01573","6500100","板橋區"
"233001","KEA-2870","2019/08/22 18:49:41","新北市新店區安康路二段320巷15弄2號","121.50468","24.959895","6502900","烏來區"
"220080","200-UY","2019/08/22 18:49:37","新北市板橋區大觀路二段265巷72弄11號","121.441975","24.9968216666667","6500100","板橋區"
"220082","610-BX","2019/08/22 18:49:39","新北市板橋區篤行路三段71號","121.427375","24.9856083333333","6500100","板橋區"
"220056","276-BY","2019/08/22 18:49:38","新北市板橋區四川路一段287號","121.458986666667","25.0009266666667","6500100","板橋區"
"220072","277-BY","2019/08/22 18:49:44","新北市板橋區大觀路三段36巷83號","121.434566666667","24.9974216666667","6500100","板橋區"
"220101","280-UM","2019/08/22 18:49:44","新北市板橋區文化路二段182巷7弄1號","121.471813333333","25.0268883333333","6500100","板橋區"
"220071","283-VK","2019/08/22 18:49:34","新北市板橋區四川路一段253號","121.459761666667","25.0025816666667","6500100","板橋區"
"220094","285-UM","2019/08/22 18:49:45","新北市板橋區文化路二段76號","121.469406666667","25.0250283333333","6500100","板橋區"
"220053","285-VK","2019/08/22 18:49:42","新北市板橋區成功路41巷2號","121.47478","25.0177033333333","6500100","板橋區"
"220083","286-VK","2019/08/22 18:49:48","新北市板橋區大觀路二段22巷35號","121.444881666667","25.0035816666667","6500100","板橋區"
"220081","287-VK","2019/08/22 18:49:32","新北市板橋區光華街13巷34號","121.453006666667","25.0113083333333","6500100","板橋區"
"220090","288-VK","2019/08/22 18:49:39","新北市板橋區四維路177巷4弄4號","121.46371","25.0261733333333","6500100","板橋區"
"220061","293-UM","2019/08/22 18:49:32","新北市板橋區富山街109巷63弄24號","121.475303333333","25.0206166666667","6500100","板橋區"
"220084","296-UM","2019/08/22 18:49:41","新北市板橋區大觀路二段150巷24號","121.44167","24.99963","6500100","板橋區"
"220075","303-R5","2019/08/22 18:49:34","新北市板橋區館前西路221號","121.4543","25.00871","6500100","板橋區"
"220062","305-R5","2019/08/22 18:49:32","新北市板橋區中山路二段23號","121.472375","25.0153216666667","6500100","板橋區"
"220092","307-R5","2019/08/22 18:49:41","新北市板橋區文化路一段136巷7號","121.465701666667","25.01858","6500100","板橋區"
"220098","317-R6","2019/08/22 18:49:41","新北市板橋區民生路二段234巷67號","121.470103333333","25.0226133333333","6500100","板橋區"
"220089","487-VK","2019/08/22 18:49:43","新北市板橋區文聖街20號","121.475895","25.0319183333333","6500100","板橋區"
"220088","491-VK","2019/08/22 18:49:44","新北市板橋區民生路二段216號","121.469286666667","25.0216183333333","6500100","板橋區"
"220103","561-BX","2019/08/22 18:49:46","新北市板橋區文化路一段188巷11弄16號","121.468991666667","25.018675","6500100","板橋區"
"220063","609-BX","2019/08/22 18:49:42","新北市板橋區民生路一段80號","121.473661666667","25.015495","6500100","板橋區"
"220035","630-UY","2019/08/22 18:49:38","新北市板橋區中正路275巷79弄13號","121.452128333333","25.0174616666667","6500100","板橋區"
"220091","637-BX","2019/08/22 18:49:30","新北市板橋區雙十路二段47巷35號","121.47508","25.0254466666667","6500100","板橋區"
"220057","686-BX","2019/08/22 18:49:42","新北市板橋區重慶路237號","121.463123333333","25.0008516666667","6500100","板橋區"
"220077","687-BX","2019/08/22 18:49:36","新北市板橋區大觀路二段174巷171號","121.441911666667","25.0034983333333","6500100","板橋區"
"220093","689-BX","2019/08/22 18:49:27","新北市板橋區民生路二段236號","121.468165","25.0230216666667","6500100","板橋區"
"220054","741-BX","2019/08/22 18:48:58","新北市板橋區館前東路22號","121.460216666667","25.0070533333333","6500100","板橋區"
"220102","KEA-2699","2019/08/22 18:49:37","新北市板橋區萬板路710號","121.481778333333","25.02745","6500100","板橋區"
"220055","827-TW","2019/08/22 18:49:42","新北市板橋區重慶路218號","121.462553333333","25.00222","6500100","板橋區"
"220067","829-TW","2019/08/22 18:49:43","新北市板橋區中山路二段90巷43弄20號","121.477135","25.01501","6500100","板橋區"
"220074","895-R6","2019/08/22 18:49:43","新北市板橋區南門街9-4號","121.457601666667","25.0092633333333","6500100","板橋區"
"220073","985-R7","2019/08/22 18:49:32","新北市板橋區館前西路152-2號","121.455293333333","25.0084816666667","6500100","板橋區"
"220097","AAC-210","2019/08/22 18:49:38","新北市板橋區四維路137巷17號","121.464315","25.0249516666667","6500100","板橋區"
"220064","AAC-253","2019/08/22 18:49:41","新北市板橋區漢生東路178號","121.467378333333","25.01434","6500100","板橋區"
"235068","KEA-2873","2019/08/22 18:49:33","新北市中和區圓通路265巷60號","121.496328333333","24.992435","6500300","中和區"
"235061","KEA-2875","2019/08/22 18:49:33","新北市中和區民享街89巷9弄6號","121.47501","25.001985","6500300","中和區"
