"lineid","car","time","location","longitude","latitude","cityid","cityname"
"234046","148-BY","2019/08/22 19:39:42","新北市永和區永元路98號","121.522541666667","25.0019283333333","6500400","永和區"
"234081","298-R6","2019/08/22 19:39:39","新北市永和區國中路104巷8弄12號","121.525086666667","25.0065483333333","6500400","永和區"
"234038","336-UY","2019/08/22 19:39:33","新北市永和區民樂街20號","121.52758","25.00204","6500400","永和區"
"234064","337-UY","2019/08/22 19:39:32","新北市永和區秀朗路一段192巷6弄14號","121.519078333333","25.002285","6500400","永和區"
"234086","338-UY","2019/08/22 19:39:44","新北市永和區林森路29巷18號","121.526266666667","25.0044933333333","6500400","永和區"
"234070","552-UM","2019/08/22 19:39:31","新北市永和區永和路二段217號","121.515576666667","25.0140316666667","6500400","永和區"
"234017","745-BX","2019/08/22 19:39:43","新北市永和區環河西路一段51巷22號","121.514178333333","25.017625","6500400","永和區"
"234030","746-BX","2019/08/22 19:39:47","新北市永和區民生路35號","121.522788333333","24.99817","6500400","永和區"
"234054","KEA-2590","2019/08/22 19:39:36","新北市永和區竹林路39巷18號","121.518676666667","25.0146283333333","6500400","永和區"
"234007","KED-0605","2019/08/22 19:39:44","新北市永和區中和路477號","121.510323333333","25.0018183333333","6500400","永和區"
"234013","KEA-2591","2019/08/22 19:39:43","新北市永和區永平路246號","121.508675","25.0109333333333","6500400","永和區"
"234061","AAD-866","2019/08/22 19:39:27","新北市永和區中正路397號","121.5173","25.004165","6500400","永和區"
"234042","862-TW","2019/08/22 19:39:38","新北市永和區中和路597巷4號","121.512223333333","25.0045516666667","6500400","永和區"
"234050","863-TW","2019/08/22 19:39:28","新北市永和區保福路二段148號","121.509491666667","25.0147766666667","6500400","永和區"
"234026","9371-KE","2019/08/22 19:39:43","新北市永和區中和路505號","121.510728333333","25.0023816666667","6500400","永和區"
"234011","9373-KE","2019/08/22 19:39:42","新北市永和區仁愛路335號","121.503181666667","25.0073833333333","6500400","永和區"
"249002","305-UY","2019/08/22 19:39:30","新北市八里區頂寮二街33-1號","121.450318333333","25.1252283333333","6502300","八里區"
"248014","025-BX","2019/08/22 19:39:44","新北市五股區五福路42巷27號","121.434876666667","25.090105","6501500","五股區"
"248016","026-BX","2019/08/22 19:39:40","新北市五股區凌雲路一段41號","121.451758333333","25.1007316666667","6501500","五股區"
"248008","KED-0815","2019/08/22 19:39:31","新北市五股區中興路一段88巷12號","121.46678","25.073645","6501500","五股區"
"248020","KED-0813","2019/08/22 19:39:43","新北市五股區中直路15號","121.42419","25.1120466666667","6501500","五股區"
"248012","247-BX","2019/08/22 19:39:45","新北市五股區蓬萊路6巷43號","121.435856666667","25.080365","6501500","五股區"
"248010","272-BY","2019/08/22 19:39:44","新北市五股區自強路99號","121.432238333333","25.0712183333333","6501500","五股區"
"248004","677-BX","2019/08/22 19:39:41","新北市五股區成泰路一段188號","121.435456666667","25.0776483333333","6501500","五股區"
"248002","678-BX","2019/08/22 19:39:41","新北市五股區成泰路三段577巷82號","121.449665","25.103755","6501500","五股區"
"234023","9380-KE","2019/08/22 19:39:29","新北市永和區保生路55-1號","121.50477","25.0116283333333","6500400","永和區"
"234077","969-R7","2019/08/22 19:39:41","新北市永和區民權路60號","121.51998","24.998045","6500400","永和區"
"234074","AAC-211","2019/08/22 19:39:34","新北市永和區竹林路225巷44號","121.52236","25.0086283333333","6500400","永和區"
"234067","AAC-212","2019/08/22 19:39:29","新北市永和區中山路一段191巷9弄5號","121.509666666667","25.0082383333333","6500400","永和區"
"234003","AAC-295","2019/08/22 19:39:44","新北市永和區自由街3號","121.515065","25.007155","6500400","永和區"
"244023","483-VK","2019/08/22 19:39:37","新北市林口區仁愛路二段526號","121.372826666667","25.078085","6501700","林口區"
"243012","AAD-798","2019/08/22 19:39:46","新北市泰山區全興路287號","121.43694","25.051375","6501600","泰山區"
"243016","421-VK","2019/08/22 19:39:40","新北市泰山區德安街2號","121.419243333333","25.0321466666667","6501600","泰山區"
"243009","KEA-2215","2019/08/22 19:39:39","新北市泰山區美寧街69號","121.43093","25.06477","6501600","泰山區"
"243011","KEA-2216","2019/08/22 19:39:29","新北市泰山區新北大道六段100號","121.427508333333","25.0376866666667","6501600","泰山區"
"243015","680-BX","2019/08/22 19:39:31","新北市泰山區文程路18巷3號","121.428326666667","25.049005","6501600","泰山區"
"222003","436-BY","2019/08/22 19:39:43","新北市深坑區深南路51-1號","121.621253333333","25.0098033333333","6501800","深坑區"
"222001","628-TS","2019/08/22 19:39:42","新北市深坑區北深路二段194號","121.613238333333","25.0017533333333","6501800","深坑區"
"222002","659-BX","2019/08/22 19:39:23","新北市深坑區北深路一段177號","121.63249","25.0108516666667","6501800","深坑區"
"231061","002-UM","2019/08/22 19:39:47","新北市新店區安民街123號","121.516271666667","24.9685966666667","6500600","新店區"
"231058","0293-UT","2019/08/22 19:39:45","新北市新店區寶橋路69-1號","121.545463333333","24.9750566666667","6500600","新店區"
"231044","046-UY","2019/08/22 19:39:36","新北市新店區北新路三段148號","121.541505","24.98238","6500600","新店區"
"231060","106-UY","2019/08/22 19:39:28","新北市新店區安康路二段133號","121.512108333333","24.9605483333333","6500600","新店區"
"231051","107-UY","2019/08/22 19:39:40","新北市新店區中央四街62號","121.527171666667","24.975245","6500600","新店區"
"231049","108-UY","2019/08/22 19:39:31","新北市新店區大豐路45號","121.54022","24.9798016666667","6500600","新店區"
"231065","110-UY","2019/08/22 19:39:25","新北市新店區安祥路109巷85弄39號","121.478653333333","24.9597683333333","6500600","新店區"
"231062","256-BX","2019/08/22 19:39:27","新北市新店區精忠路12號","121.532393333333","24.9578783333333","6500600","新店區"
"231054","260-TV","2019/08/22 19:39:39","新北市新店區文中路40號","121.539721666667","24.9565566666667","6500600","新店區"
"231042","268-BY","2019/08/22 19:39:33","新北市新店區中興路一段204號","121.543746666667","24.9654333333333","6500600","新店區"
"231064","278-BY","2019/08/22 19:39:42","新北市新店區安和路一段52巷2-1號","121.517753333333","24.96637","6500600","新店區"
"231050","AAD-862","2019/08/22 19:39:28","新北市新店區秀水路2號","121.555045","24.9538166666667","6500600","新店區"
"231045","355-BY","2019/08/22 19:39:38","新北市新店區北宜路二段207號","121.553143333333","24.95326","6500600","新店區"
"231056","4715-K9","2019/08/22 19:39:29","新北市新店區民權路117號","121.53606","24.9828233333333","6500600","新店區"
"231067","4772-VM","2019/08/22 19:39:33","新北市新店區秀山路66號","121.530675","24.9608033333333","6500600","新店區"
"231052","513-UM","2019/08/22 19:39:41","新北市新店區新烏路二段482號","121.552995","24.9080183333333","6500600","新店區"
"231063","616-UM","2019/08/22 19:39:28","新北市新店區達觀路38號","121.502516666667","24.9397233333333","6500600","新店區"
"231041","619-UM","2019/08/22 19:39:31","新北市新店區中正路487號","121.53381","24.9821133333333","6500600","新店區"
"231047","KED-0819","2019/08/22 19:39:25","新北市新店區五峰路63巷8弄72號","121.548033333333","24.9685366666667","6500600","新店區"
"231046","719-UM","2019/08/22 19:39:45","新北市新店區中正路329巷1弄2號","121.535723333333","24.9749766666667","6500600","新店區"
"231057","720-UM","2019/08/22 19:39:41","新北市新店區橘園一路11號","121.548025","24.9341533333333","6500600","新店區"
"231059","897-TW","2019/08/22 19:39:38","新北市新店區安和路三段68號","121.518016666667","24.9829766666667","6500600","新店區"
"231040","898-TW","2019/08/22 19:39:32","新北市新店區北新路一段303號","121.54157","24.9675633333333","6500600","新店區"
"231043","899-TW","2019/08/22 19:39:34","新北市新店區北新路二段84號","121.543211666667","24.97283","6500600","新店區"
"231066","AKT-0513","2019/08/22 19:39:32","新北市新店區安康路三段355巷27號","121.484913333333","24.9500383333333","6500600","新店區"
"241011","013-R5","2019/08/22 19:39:46","新北市三重區秀江街180號","121.497956666667","25.0716566666667","6500200","三重區"
"241028","022-UY","2019/08/22 19:39:28","新北市三重區中正南路115號","121.493996666667","25.0574566666667","6500200","三重區"
"241008","059-VK","2019/08/22 19:39:31","新北市三重區永福街123號","121.478975","25.0771","6500200","三重區"
"241031","061-VK","2019/08/22 19:39:43","新北市三重區重新路四段244巷11號","121.486458333333","25.0535016666667","6500200","三重區"
"241015","062-VK","2019/08/22 19:39:41","新北市三重區福德北路46號","121.50191","25.06545","6500200","三重區"
"241017","063-VK","2019/08/22 19:39:44","新北市三重區大同北路120巷1-4號","121.493008333333","25.0640133333333","6500200","三重區"
"241006","262-UM","2019/08/22 19:39:29","新北市三重區聯華街77號","121.485781666667","25.0754866666667","6500200","三重區"
"241009","267-UM","2019/08/22 19:39:31","新北市三重區三和路四段406巷22號","121.480211666667","25.0793783333333","6500200","三重區"
"241018","268-UM","2019/08/22 19:39:46","新北市三重區大智街59號","121.49272","25.067925","6500200","三重區"
"241032","269-UM","2019/08/22 19:39:48","新北市三重區重陽路一段60巷73號","121.48427","25.0582683333333","6500200","三重區"
"241025","271-UM","2019/08/22 19:39:38","新北市三重區忠孝路三段93巷6-1號","121.479285","25.0648183333333","6500200","三重區"
"241030","KED-0822","2019/08/22 19:39:33","新北市三重區環河南路221巷17號","121.491548333333","25.0525316666667","6500200","三重區"
"241035","462-BY","2019/08/22 19:39:45","新北市三重區信義西街48號","121.49814","25.064655","6500200","三重區"
"241026","480-VK","2019/08/22 19:39:41","新北市三重區光興街43號","121.49943","25.0601333333333","6500200","三重區"
"241014","543-UM","2019/08/22 19:39:31","新北市三重區長壽街196號","121.504261666667","25.069105","6500200","三重區"
"241023","545-UM","2019/08/22 19:39:32","新北市三重區忠孝路三段99巷4號","121.479998333333","25.0642733333333","6500200","三重區"
"241001","547-UM","2019/08/22 19:39:26","新北市三重區仁愛街327巷88號","121.494058333333","25.08065","6500200","三重區"
"241022","KED-0820","2019/08/22 19:39:35","新北市三重區中正北路62號","121.486743333333","25.0644766666667","6500200","三重區"
"241012","941-UM","2019/08/22 19:39:33","新北市三重區仁興街26-8號","121.499146666667","25.0753866666667","6500200","三重區"
"241029","942-UM","2019/08/22 19:39:41","新北市三重區光明路70號","121.492025","25.05723","6500200","三重區"
"235063","006-UY","2019/08/22 19:39:34","新北市中和區連城路263巷7弄2號","121.492335","24.995795","6500300","中和區"
"235056","096-UM","2019/08/22 19:39:29","新北市中和區中山路三段102號","121.476956666667","25.0060466666667","6500300","中和區"
"235039","097-UM","2019/08/22 19:39:47","新北市中和區景平路160號","121.517405","24.9921483333333","6500300","中和區"
"235065","098-UM","2019/08/22 19:39:37","新北市中和區莊敬路29號","121.50023","25.0046433333333","6500300","中和區"
"235040","150-BY","2019/08/22 19:39:41","新北市中和區安和路39號","121.509663333333","24.99492","6500300","中和區"
"235058","151-BY","2019/08/22 19:39:35","新北市中和區員山路130號","121.481151666667","24.9962783333333","6500300","中和區"
"235055","183-VK","2019/08/22 19:39:32","新北市中和區中山路三段181巷16號","121.472758333333","25.0054083333333","6500300","中和區"
"235038","185-VK","2019/08/22 19:39:38","新北市中和區自立路20巷7號","121.52195","24.9933266666667","6500300","中和區"
"235049","186-VK","2019/08/22 19:39:47","新北市中和區中正路18號","121.50274","24.9936216666667","6500300","中和區"
"235067","255-BX","2019/08/22 19:39:41","新北市中和區新生街220巷3號","121.483365","24.9984216666667","6500300","中和區"
"235044","293-VK","2019/08/22 19:39:47","新北市中和區南山路421巷1弄3號","121.507368333333","24.9895833333333","6500300","中和區"
"235072","301-VK","2019/08/22 19:39:28","新北市中和區連城路265巷6弄7號","121.491193333333","24.995795","6500300","中和區"
"235043","352-BY","2019/08/22 19:39:39","新北市中和區興南路二段76號","121.505911666667","24.9847283333333","6500300","中和區"
"235042","KEA-2878","2019/08/22 19:39:45","新北市中和區保健路2巷32號","121.50697","24.997325","6500300","中和區"
"235070","558-UM","2019/08/22 19:39:35","新北市中和區連城路171巷41弄1號","121.496153333333","24.996525","6500300","中和區"
"235045","565-BX","2019/08/22 19:39:26","新北市中和區景新街491號","121.513905","24.9873183333333","6500300","中和區"
"235060","KED-0823","2019/08/22 19:39:39","新北市中和區新生街30巷7號","121.482876666667","25.0037683333333","6500300","中和區"
"235054","640-BX","2019/08/22 19:39:31","新北市中和區民享街86巷31號","121.472713333333","25.00039","6500300","中和區"
"235047","732-UM","2019/08/22 19:39:46","新北市中和區南山路289號","121.504585","24.9921983333333","6500300","中和區"
"235046","733-UM","2019/08/22 19:39:44","新北市中和區景新街496巷29號","121.51344","24.9863233333333","6500300","中和區"
"235071","783-BX","2019/08/22 19:39:33","新北市中和區中正路804號","121.485041666667","25.0019516666667","6500300","中和區"
"235057","801-TS","2019/08/22 19:39:33","新北市中和區中正路866號","121.48428","25.005795","6500300","中和區"
"235052","805-TS","2019/08/22 19:39:28","新北市中和區華新街192巷2號","121.506843333333","24.98226","6500300","中和區"
"235048","896-TW","2019/08/22 19:39:38","新北市中和區華新街32號","121.507753333333","24.98445","6500300","中和區"
"235053","900-TW","2019/08/22 19:39:38","新北市中和區國光街215巷10弄6號","121.466745","25.0006816666667","6500300","中和區"
"235066","911-UM","2019/08/22 19:39:30","新北市中和區景新街129號","121.50573","24.9972866666667","6500300","中和區"
"235051","157-BY","2019/08/22 19:39:46","新北市中和區景安路208巷31號","121.502538333333","24.9924483333333","6500300","中和區"
"235037","AAC-213","2019/08/22 19:39:41","新北市中和區秀朗路三段138號","121.524456666667","24.9916483333333","6500300","中和區"
"235059","AAC-215","2019/08/22 19:39:47","新北市中和區錦和路356號","121.49063","24.9915183333333","6500300","中和區"
"220065","072-UY","2019/08/22 19:39:38","新北市板橋區國泰街99號","121.466818333333","25.0064366666667","6500100","板橋區"
"220086","073-UY","2019/08/22 19:39:43","新北市板橋區中正路216巷11號","121.456386666667","25.0184783333333","6500100","板橋區"
"220106","075-UY","2019/08/22 19:39:42","新北市板橋區文化路二段650巷19號","121.478125","25.034805","6500100","板橋區"
"220069","AAD-861","2019/08/22 19:39:41","新北市板橋區南雅南路二段11-29號","121.453911666667","25.0011116666667","6500100","板橋區"
"220068","120-SR","2019/08/22 19:39:42","新北市板橋區中山路二段412巷9號","121.483363333333","25.0206266666667","6500100","板橋區"
"247004","893-R6","2019/08/22 19:39:40","新北市蘆洲區中華街6巷10號","121.463135","25.081945","6501400","蘆洲區"
"226004","312-R5","2019/08/22 19:39:33","新北市平溪區十分里十分街268號","121.778568333333","25.04538","6502400","平溪區"
"235041","251-BX","2019/08/22 19:39:42","新北市中和區永貞路227號","121.513423333333","25.0036766666667","6500300","中和區"
"228003","097-TW","2019/08/22 19:39:29","新北市貢寮區真理里美艷山街19-1號","121.923491666667","25.0683516666667","6502600","貢寮區"
"228001","212-TW","2019/08/22 19:39:40","新北市貢寮區真理里延平街61號","121.924671666667","25.055725","6502600","貢寮區"
"224010","AGQ-8101","2019/08/22 19:39:43","新北市瑞芳區基山街226號","121.841615","25.10701","6501200","瑞芳區"
"224002","639-TC","2019/08/22 19:39:32","新北市瑞芳區三爪子坑路11號","121.813973333333","25.107605","6501200","瑞芳區"
"227002","642-TC","2019/08/22 19:39:31","新北市雙溪區雙溪里勝利街16號","121.865513333333","25.0357683333333","6502500","雙溪區"
"227001","400-TW","2019/08/22 19:39:37","新北市雙溪區新基里新基北街22號","121.867245","25.0389916666667","6502500","雙溪區"
"208002","KEA-2872","2019/08/22 19:39:45","新北市金山區三民街30號","121.634836666667","25.2233483333333","6502700","金山區"
"208003","665-BX","2019/08/22 19:39:27","新北市金山區仁愛路1巷1號","121.6386","25.2200883333333","6502700","金山區"
"251005","010-UM","2019/08/22 19:39:35","新北市淡水區原德路108巷2號","121.443493333333","25.1734583333333","6501000","淡水區"
"251001","011-UM","2019/08/22 19:39:35","新北市淡水區民權路49號","121.459778333333","25.1392416666667","6501000","淡水區"
"251010","012-UM","2019/08/22 19:39:42","新北市淡水區崁頂93-2號","121.427406666667","25.2025216666667","6501000","淡水區"
"251015","KEA-2871","2019/08/22 19:39:26","新北市淡水區山子頂24-1號","121.491328333333","25.1872083333333","6501000","淡水區"
"251016","179-VK","2019/08/22 19:39:35","新北市淡水區淡金路三段350巷18號","121.450771666667","25.2083316666667","6501000","淡水區"
"251013","180-VK","2019/08/22 19:39:33","新北市淡水區店子後9號","121.460108333333","25.2189733333333","6501000","淡水區"
"251008","181-VK","2019/08/22 19:39:40","新北市淡水區中正路一段8巷1弄11號","121.428286666667","25.176205","6501000","淡水區"
"251007","182-VK","2019/08/22 19:39:42","新北市淡水區中正東路一段111巷29號","121.455453333333","25.1610433333333","6501000","淡水區"
"251006","561-UM","2019/08/22 19:39:39","新北市淡水區中山北路一段207巷55-2號","121.442195","25.1790783333333","6501000","淡水區"
"251009","575-R6","2019/08/22 19:39:43","新北市淡水區中山北路一段186巷13弄2號","121.44545","25.1789233333333","6501000","淡水區"
"251014","577-R6","2019/08/22 19:39:36","新北市淡水區中和里13-2號","121.478248333333","25.2307866666667","6501000","淡水區"
"251011","650-BX","2019/08/22 19:39:35","新北市淡水區中正東路二段143巷2弄1號","121.460721666667","25.1472283333333","6501000","淡水區"
"207003","550-UM","2019/08/22 19:39:40","新北市萬里區大鵬里萬里加投288-33號","121.645446666667","25.2194933333333","6502800","萬里區"
"207004","291-VK","2019/08/22 19:39:42","新北市萬里區萬里里瑪鋉路45號","121.68782","25.1759083333333","6502800","萬里區"
"252002","178-VK","2019/08/22 19:39:21","新北市三芝區中正路一段18巷48號","121.504111666667","25.2589516666667","6502100","三芝區"
"208001","170-UY","2019/08/22 19:39:40","新北市金山區重和里六股林口13號","121.605086666667","25.2218416666667","6502700","金山區"
"237004","KEA-2597","2019/08/22 19:39:26","新北市三峽區插角222號","121.41498","24.8677433333333","6500900","三峽區"
"237007","153-BY","2019/08/22 19:39:29","新北市三峽區二鬮路136巷145號","121.357088333333","24.9106633333333","6500900","三峽區"
"237009","210-TH","2019/08/22 19:39:37","新北市三峽區中園街51號","121.368265","24.9260566666667","6500900","三峽區"
"237013","252-BX","2019/08/22 19:39:41","新北市三峽區介壽路一段406-1號","121.383863333333","24.9309583333333","6500900","三峽區"
"237012","275-BY","2019/08/22 19:39:26","新北市三峽區民生街3號","121.374613333333","24.935385","6500900","三峽區"
"237008","302-VK","2019/08/22 19:39:33","新北市三峽區永安街188-6號","121.37333","24.9279783333333","6500900","三峽區"
"237014","433-BY","2019/08/22 19:39:39","新北市三峽區中山路63巷8號","121.366918333333","24.9343366666667","6500900","三峽區"
"237006","5529-G3","2019/08/22 19:39:47","新北市三峽區中正路一段336巷15弄2號","121.369956666667","24.9249716666667","6500900","三峽區"
"237011","KEA-2596","2019/08/22 19:39:32","新北市三峽區介壽路一段233號","121.379228333333","24.93038","6500900","三峽區"
"237015","649-BX","2019/08/22 19:39:30","新北市三峽區成福路197號","121.421723333333","24.9300583333333","6500900","三峽區"
"237010","706-TV","2019/08/22 19:39:26","新北市三峽區復興路179-2號","121.3695","24.9386633333333","6500900","三峽區"
"237005","AKY-6261","2019/08/22 19:39:36","新北市三峽區中山路169巷9號","121.364388333333","24.935985","6500900","三峽區"
"236078","166-UM","2019/08/22 19:39:37","新北市土城區中州路27巷34-1號","121.413075","24.9570316666667","6501300","土城區"
"236030","253-BX","2019/08/22 19:39:35","新北市土城區福祥街64號","121.441543333333","24.9815483333333","6501300","土城區"
"236070","KEA-2877","2019/08/22 19:39:34","新北市土城區金城路二段2巷5號","121.447286666667","24.97595","6501300","土城區"
"252001","KED-0821","2019/08/22 19:39:28","新北市三芝區公正街66號","121.499813333333","25.2574783333333","6502100","三芝區"
"236021","401-BY","2019/08/22 19:39:40","新北市土城區峰廷街2號","121.468621666667","24.987815","6501300","土城區"
"236059","912-UM","2019/08/22 19:39:40","新北市土城區中央路二段2號","121.443041666667","24.980905","6501300","土城區"
"236049","913-UM","2019/08/22 19:39:44","新北市土城區明德路一段61號","121.465296666667","24.9844516666667","6501300","土城區"
"236063","915-UM","2019/08/22 19:39:42","新北市土城區延平街61號","121.467798333333","24.992635","6501300","土城區"
"236055","AAC-216","2019/08/22 19:39:42","新北市土城區青雲路35號","121.460025","24.988365","6501300","土城區"
"242004","440-UM","2019/08/22 19:39:41","新北市新莊區化成路29巷44號","121.463426666667","25.0439266666667","6500500","新莊區"
"242013","132-UY","2019/08/22 19:39:43","新北市新莊區中泰街109號","121.448673333333","25.0464966666667","6500500","新莊區"
"242036","135-UY","2019/08/22 19:39:33","新北市新莊區民安路207巷19號","121.426886666667","25.0231033333333","6500500","新莊區"
"242031","176-VK","2019/08/22 19:39:41","新北市新莊區新泰路225巷22弄11號","121.44462","25.0392016666667","6500500","新莊區"
"242034","348-TH","2019/08/22 19:39:27","新北市新莊區仁愛街1號","121.444198333333","25.03479","6500500","新莊區"
"238015","755-BX","2019/08/22 19:39:48","新北市樹林區育英街70號","121.420888333333","24.98932","6500700","樹林區"
"238023","601-UM","2019/08/22 19:39:44","新北市樹林區三福街121巷17號","121.406141666667","25.0155166666667","6500700","樹林區"
"238019","599-UM","2019/08/22 19:39:36","新北市樹林區東榮街8號","121.418108333333","24.98387","6500700","樹林區"
"238024","5061-A6","2019/08/22 19:39:43","新北市樹林區佳園路一段72巷13號","121.392246666667","24.96973","6500700","樹林區"
"238022","KEA-2213","2019/08/22 19:39:29","新北市樹林區名園街11號","121.419223333333","24.9795583333333","6500700","樹林區"
"238021","KEA-2539","2019/08/22 19:39:33","新北市樹林區佳園路三段145巷30號","121.388431666667","24.9490833333333","6500700","樹林區"
"238025","303-VK","2019/08/22 19:39:31","新北市樹林區中山路一段112號","121.422941666667","24.9906016666667","6500700","樹林區"
"238017","283-BY","2019/08/22 19:39:45","新北市樹林區光興街40號","121.410636666667","25.0027916666667","6500700","樹林區"
"238014","282-BY","2019/08/22 19:39:39","新北市樹林區保安二街64巷2號","121.424511666667","24.9962316666667","6500700","樹林區"
"238020","268-VK","2019/08/22 19:39:25","新北市樹林區千歲街186號","121.429411666667","25.00091","6500700","樹林區"
"238026","172-UY","2019/08/22 19:39:25","新北市樹林區佳園路三段47號","121.387926666667","24.953595","6500700","樹林區"
"238016","169-UY","2019/08/22 19:39:33","新北市樹林區東和街33號","121.402041666667","24.9824566666667","6500700","樹林區"
"239007","AAC-297","2019/08/22 19:39:35","新北市鶯歌區大湖路109巷14號","121.341513333333","24.9636116666667","6500800","鶯歌區"
"239006","891-R6","2019/08/22 19:39:44","新北市鶯歌區建國路512巷15號","121.340088333333","24.951055","6500800","鶯歌區"
"239008","527-UM","2019/08/22 19:39:30","新北市鶯歌區大湖路466號","121.339641666667","24.9722083333333","6500800","鶯歌區"
"239005","526-UM","2019/08/22 19:39:33","新北市鶯歌區中湖街301巷2號","121.347981666667","24.9773783333333","6500800","鶯歌區"
"239001","417-VK","2019/08/22 19:39:27","新北市鶯歌區建國路550號","121.338148333333","24.9504466666667","6500800","鶯歌區"
"239003","360-BY","2019/08/22 19:39:46","新北市鶯歌區中正二路155-6號","121.34512","24.9496783333333","6500800","鶯歌區"
"239002","359-BY","2019/08/22 19:39:29","新北市鶯歌區西湖街182-1號","121.338395","24.964955","6500800","鶯歌區"
"239004","193-VK","2019/08/22 19:39:35","新北市鶯歌區中正三路248號","121.329873333333","24.93658","6500800","鶯歌區"
"221008","489-VK","2019/08/22 19:39:39","新北市汐止區康寧街145號","121.621918333333","25.0665666666667","6501100","汐止區"
"221010","269-BY","2019/08/22 19:39:37","新北市汐止區連峰街3巷2號","121.646483333333","25.0766716666667","6501100","汐止區"
"221027","281-BY","2019/08/22 19:39:37","新北市汐止區忠孝東路9號","121.658285","25.0659466666667","6501100","汐止區"
"221021","299-VK","2019/08/22 19:39:44","新北市汐止區連興街138號","121.654006666667","25.061585","6501100","汐止區"
"221031","353-TW","2019/08/22 19:39:32","新北市汐止區康寧街901號","121.650768333333","25.0752683333333","6501100","汐止區"
"221025","623-UM","2019/08/22 19:39:37","新北市汐止區福安街17號","121.662455","25.065255","6501100","汐止區"
"221038","646-BX","2019/08/22 19:39:37","新北市汐止區忠孝東路231號","121.662571666667","25.0671783333333","6501100","汐止區"
"221033","647-BX","2019/08/22 19:39:30","新北市汐止區南勢街3號","121.627093333333","25.0374033333333","6501100","汐止區"
"220079","145-BY","2019/08/22 19:39:42","新北市板橋區民權路262號","121.457931666667","25.01538","6500100","板橋區"
"233001","KEA-2870","2019/08/22 19:38:01","新北市烏來區新烏路五段2號","121.544388333333","24.8843266666667","6502900","烏來區"
"220080","200-UY","2019/08/22 19:39:37","新北市板橋區大觀路二段37巷140號","121.449298333333","25.0016066666667","6500100","板橋區"
"220082","610-BX","2019/08/22 19:39:39","新北市板橋區大觀路三段198巷1號","121.430816666667","24.9925533333333","6500100","板橋區"
"220056","276-BY","2019/08/22 19:39:38","新北市板橋區信義路1巷26弄50號","121.459678333333","24.9965583333333","6500100","板橋區"
"220072","277-BY","2019/08/22 19:39:44","新北市板橋區金門街253巷6弄2號","121.432386666667","24.9886916666667","6500100","板橋區"
"220101","280-UM","2019/08/22 19:39:44","新北市板橋區縣民大道三段93巷28號","121.474833333333","25.02246","6500100","板橋區"
"220071","283-VK","2019/08/22 19:39:32","新北市板橋區四川路一段325巷9號","121.459446666667","25.0003783333333","6500100","板橋區"
"220094","285-UM","2019/08/22 19:39:45","新北市板橋區長江路二段130號","121.4658","25.0317","6500100","板橋區"
"220053","285-VK","2019/08/22 19:39:42","新北市板橋區民享街91號","121.476991666667","25.0159516666667","6500100","板橋區"
"220083","286-VK","2019/08/22 19:39:35","新北市板橋區大觀路二段174巷193弄2號","121.44229","25.0039983333333","6500100","板橋區"
"220081","287-VK","2019/08/22 19:39:44","新北市板橋區大觀路一段29巷143號","121.449671666667","25.0055733333333","6500100","板橋區"
"220090","288-VK","2019/08/22 19:39:45","新北市板橋區龍泉街72巷8號","121.45634","25.026335","6500100","板橋區"
"220061","293-UM","2019/08/22 19:39:33","新北市板橋區漢生東路113巷11號","121.467743333333","25.015405","6500100","板橋區"
"220084","296-UM","2019/08/22 19:39:41","新北市板橋區滿平二街10巷2弄16號","121.425543333333","24.987485","6500100","板橋區"
"220075","303-R5","2019/08/22 19:39:31","新北市板橋區中正路253巷38號","121.454201666667","25.0177833333333","6500100","板橋區"
"220062","305-R5","2019/08/22 19:39:32","新北市板橋區三民路二段85號","121.479436666667","25.0165916666667","6500100","板橋區"
"220092","307-R5","2019/08/22 19:39:40","新北市板橋區互助街98號","121.460001666667","25.0262733333333","6500100","板橋區"
"220098","317-R6","2019/08/22 19:39:41","新北市板橋區民生路三段281巷2弄6號","121.463586666667","25.0300816666667","6500100","板橋區"
"220089","487-VK","2019/08/22 19:39:43","新北市板橋區互助街85號","121.459838333333","25.025925","6500100","板橋區"
"220088","491-VK","2019/08/22 19:39:44","新北市板橋區文聖街20-3號","121.476065","25.0316116666667","6500100","板橋區"
"220103","561-BX","2019/08/22 19:39:26","新北市板橋區自由路35號","121.465575","25.0231183333333","6500100","板橋區"
"220063","609-BX","2019/08/22 19:39:40","新北市板橋區中山路二段392號","121.482486666667","25.020655","6500100","板橋區"
"220035","630-UY","2019/08/22 19:39:46","新北市板橋區中正路375巷20號","121.453911666667","25.0208283333333","6500100","板橋區"
"220091","637-BX","2019/08/22 19:39:30","新北市板橋區懷德街139巷27號","121.480043333333","25.0309033333333","6500100","板橋區"
"220057","686-BX","2019/08/22 19:39:42","新北市板橋區廣權路11號","121.46094","24.9914383333333","6500100","板橋區"
"220077","687-BX","2019/08/22 19:39:41","新北市板橋區僑中二街82號","121.446531666667","25.0096183333333","6500100","板橋區"
"220093","689-BX","2019/08/22 19:39:47","新北市板橋區長江路二段142號","121.466296666667","25.03176","6500100","板橋區"
"220054","741-BX","2019/08/22 19:38:04","新北市板橋區光明街48號","121.46059","25.0024083333333","6500100","板橋區"
"220102","KEA-2699","2019/08/22 19:39:45","新北市板橋區文化路二段410巷1弄21號","121.474778333333","25.0309166666667","6500100","板橋區"
"220055","827-TW","2019/08/22 19:39:42","新北市板橋區國慶路149巷5號","121.46121","24.9968916666667","6500100","板橋區"
"220067","829-TW","2019/08/22 19:39:33","新北市板橋區長安街138巷1弄7號","121.473143333333","25.0097216666667","6500100","板橋區"
"220074","895-R6","2019/08/22 19:39:44","新北市板橋區福德街2-1號","121.456115","25.0091183333333","6500100","板橋區"
"220073","985-R7","2019/08/22 19:39:32","新北市板橋區國光路67巷14號","121.458965","25.0187266666667","6500100","板橋區"
"220097","AAC-210","2019/08/22 19:39:38","新北市板橋區文化路一段37號","121.460391666667","25.0131116666667","6500100","板橋區"
"220064","AAC-253","2019/08/22 19:39:41","新北市板橋區實踐路155號","121.464236666667","25.0040933333333","6500100","板橋區"
"235068","KEA-2873","2019/08/22 19:39:32","新北市中和區莊敬路2號","121.499516666667","25.0042233333333","6500300","中和區"
"235061","KEA-2875","2019/08/22 19:39:33","新北市中和區員山路174巷9號","121.48199","24.9999183333333","6500300","中和區"
