"lineid","car","time","location","longitude","latitude","cityid","cityname"
"234046","148-BY","2019/08/22 19:59:42","新北市永和區成功路一段108號","121.526871666667","25.0026683333333","6500400","永和區"
"234081","298-R6","2019/08/22 19:59:36","新北市永和區永利路81巷21號","121.522288333333","25.00387","6500400","永和區"
"234038","336-UY","2019/08/22 19:59:33","新北市永和區成功路二段120號","121.526575","24.997725","6500400","永和區"
"234064","337-UY","2019/08/22 19:59:32","新北市永和區中正路412巷20弄17號","121.518905","25.00161","6500400","永和區"
"234086","338-UY","2019/08/22 19:59:44","新北市永和區福和路256號","121.518495","25.0075816666667","6500400","永和區"
"234070","552-UM","2019/08/22 19:59:33","新北市永和區國光路39-2號","121.519095","25.0081083333333","6500400","永和區"
"234017","745-BX","2019/08/22 19:59:43","新北市永和區文化路69號","121.513946666667","25.0150666666667","6500400","永和區"
"234030","746-BX","2019/08/22 19:59:47","新北市永和區民生路22巷13號","121.521718333333","24.9970966666667","6500400","永和區"
"234054","KEA-2590","2019/08/22 19:59:36","新北市永和區環河東路一段122號","121.520738333333","25.01558","6500400","永和區"
"234007","KED-0605","2019/08/22 19:59:44","新北市永和區保生路22巷21號","121.507226666667","25.0081883333333","6500400","永和區"
"234013","KEA-2591","2019/08/22 19:59:43","新北市永和區保生路55號","121.5047","25.0106333333333","6500400","永和區"
"234061","AAD-866","2019/08/22 19:59:25","新北市永和區中正路283巷13號","121.51681","25.00046","6500400","永和區"
"234042","862-TW","2019/08/22 19:59:38","新北市永和區中和路335巷18弄3號","121.507561666667","25.0003233333333","6500400","永和區"
"234050","863-TW","2019/08/22 19:59:40","新北市永和區保安路220號","121.507291666667","25.013515","6500400","永和區"
"234026","9371-KE","2019/08/22 19:59:43","新北市永和區水源街21巷14弄3號","121.511421666667","25.00379","6500400","永和區"
"234011","9373-KE","2019/08/22 19:59:42","新北市永和區仁愛路352巷122弄11號","121.500575","25.008865","6500400","永和區"
"249005","172-UM","2019/08/22 19:59:27","新北市八里區楓林路1-12號","121.385863333333","25.1311416666667","6502300","八里區"
"249001","173-UM","2019/08/22 19:59:44","新北市八里區中華路二段310號","121.403818333333","25.1483883333333","6502300","八里區"
"249004","303-UY","2019/08/22 19:59:42","新北市八里區中華路一段331巷8號","121.413751666667","25.1532483333333","6502300","八里區"
"249002","305-UY","2019/08/22 19:59:30","新北市八里區頂寮一街60號","121.450248333333","25.1246066666667","6502300","八里區"
"248016","026-BX","2019/08/22 19:59:40","新北市五股區成泰路三段577巷80弄7號","121.449543333333","25.1042616666667","6501500","五股區"
"248008","KED-0815","2019/08/22 19:59:39","新北市五股區四維路155巷34號","121.46682","25.0744566666667","6501500","五股區"
"248020","KED-0813","2019/08/22 19:59:43","新北市五股區凌雲路三段32-1號","121.431418333333","25.10781","6501500","五股區"
"248012","247-BX","2019/08/22 19:59:45","新北市五股區工商路205號","121.43331","25.0871483333333","6501500","五股區"
"248010","272-BY","2019/08/22 19:59:39","新北市五股區登林路81-5號","121.42807","25.0700966666667","6501500","五股區"
"248004","677-BX","2019/08/22 19:59:41","新北市五股區成泰路一段82號","121.435773333333","25.070745","6501500","五股區"
"248002","678-BX","2019/08/22 19:59:41","新北市五股區成泰路三段541號","121.45182","25.10158","6501500","五股區"
"234023","9380-KE","2019/08/22 19:59:36","新北市永和區中正路702巷20弄2號","121.516531666667","25.010455","6500400","永和區"
"234077","969-R7","2019/08/22 19:59:41","新北市永和區民有街18號","121.516591666667","24.9966216666667","6500400","永和區"
"234074","AAC-211","2019/08/22 19:59:34","新北市永和區豫溪街197號","121.52317","25.0098483333333","6500400","永和區"
"234067","AAC-212","2019/08/22 19:59:45","新北市永和區永貞路313號","121.510118333333","25.0065366666667","6500400","永和區"
"234003","AAC-295","2019/08/22 19:59:44","新北市永和區豫溪街50號","121.515903333333","25.0099516666667","6500400","永和區"
"243012","AAD-798","2019/08/22 19:59:46","新北市泰山區全興路13號","121.432315","25.0589316666667","6501600","泰山區"
"243010","297-R6","2019/08/22 19:59:28","新北市泰山區民生路5號","121.429545","25.0526933333333","6501600","泰山區"
"243014","KEA-2801","2019/08/22 19:59:35","新北市泰山區泰林路二段33-1號","121.435903333333","25.0568533333333","6501600","泰山區"
"243016","421-VK","2019/08/22 19:59:39","新北市泰山區貴陽街3號","121.421063333333","25.0336983333333","6501600","泰山區"
"243009","KEA-2215","2019/08/22 19:59:39","新北市泰山區泰林路二段164巷37號","121.434208333333","25.061355","6501600","泰山區"
"243011","KEA-2216","2019/08/22 19:59:29","新北市泰山區工專路65號","121.422135","25.0404383333333","6501600","泰山區"
"222003","436-BY","2019/08/22 19:59:43","新北市深坑區埔新街14號","121.620741666667","25.0039366666667","6501800","深坑區"
"222001","628-TS","2019/08/22 19:59:42","新北市深坑區北深路三段165-1號","121.602135","25.0033933333333","6501800","深坑區"
"222002","659-BX","2019/08/22 19:59:44","新北市深坑區北深路二段55巷12弄14號","121.618613333333","25.00327","6501800","深坑區"
"231061","002-UM","2019/08/22 19:59:28","新北市新店區安民街358號","121.516568333333","24.9760333333333","6500600","新店區"
"231055","0291-UT","2019/08/22 19:59:37","新北市新店區力行路14巷10號","121.539268333333","24.965035","6500600","新店區"
"231044","046-UY","2019/08/22 19:59:36","新北市新店區復興路27號","121.539045","24.9867483333333","6500600","新店區"
"231060","106-UY","2019/08/22 19:59:48","新北市新店區安康路二段416號","121.496501666667","24.9551966666667","6500600","新店區"
"231051","107-UY","2019/08/22 19:59:40","新北市新店區中央路135號","121.530315","24.973775","6500600","新店區"
"231049","108-UY","2019/08/22 19:59:38","新北市新店區明德路83號","121.54141","24.9783733333333","6500600","新店區"
"231065","110-UY","2019/08/22 19:59:45","新北市新店區安祥路106巷20號","121.47805","24.962285","6500600","新店區"
"231068","187-VK","2019/08/22 19:59:41","新北市新店區安平路35巷4號","121.521561666667","24.9672833333333","6500600","新店區"
"221035","KEA-2785","2019/08/22 19:59:29","新北市汐止區長江街11號","121.654738333333","25.0711916666667","6501100","汐止區"
"231062","256-BX","2019/08/22 19:59:27","新北市新店區華潭街26巷1弄11號","121.529706666667","24.9542683333333","6500600","新店區"
"231054","260-TV","2019/08/22 19:59:39","新北市新店區光明街176號","121.539578333333","24.96207","6500600","新店區"
"231042","268-BY","2019/08/22 19:59:33","新北市新店區中興路一段286號","121.545858333333","24.96899","6500600","新店區"
"231064","278-BY","2019/08/22 19:59:42","新北市新店區安光路10-1號","121.513863333333","24.9641483333333","6500600","新店區"
"231050","AAD-862","2019/08/22 19:59:28","新北市新店區北宜路二段228號","121.55972","24.9544266666667","6500600","新店區"
"231045","355-BY","2019/08/22 19:59:39","新北市新店區北宜路二段457號","121.561573333333","24.9541233333333","6500600","新店區"
"231056","4715-K9","2019/08/22 19:59:36","新北市新店區北新路二段59巷1號","121.542335","24.9729233333333","6500600","新店區"
"231067","4772-VM","2019/08/22 19:59:33","新北市新店區秀山路11巷18弄1號","121.53169","24.9589433333333","6500600","新店區"
"231052","513-UM","2019/08/22 19:59:41","新北市新店區新烏路三段寶島巷2弄3號","121.552008333333","24.8986283333333","6500600","新店區"
"231063","616-UM","2019/08/22 19:59:48","新北市新店區黎明路11號","121.50205","24.9499083333333","6500600","新店區"
"231041","619-UM","2019/08/22 19:59:31","新北市新店區三民路191號","121.535533333333","24.9757416666667","6500600","新店區"
"231047","KED-0819","2019/08/22 19:59:46","新北市新店區寶橋路207號","121.548596666667","24.977045","6500600","新店區"
"231057","720-UM","2019/08/22 19:59:41","新北市新店區花園二路一段11號","121.555468333333","24.9325233333333","6500600","新店區"
"231059","897-TW","2019/08/22 19:59:46","新北市新店區吉安街2號","121.517341666667","24.9655966666667","6500600","新店區"
"231040","898-TW","2019/08/22 19:59:32","新北市新店區中正路75巷71號","121.54321","24.9688866666667","6500600","新店區"
"231043","899-TW","2019/08/22 19:59:33","新北市新店區中正路263-3號","121.538388333333","24.9737833333333","6500600","新店區"
"231066","AKT-0513","2019/08/22 19:59:32","新北市新店區安康路二段341巷1號","121.496815","24.9552333333333","6500600","新店區"
"241011","013-R5","2019/08/22 19:59:26","新北市三重區介壽路11號","121.498925","25.0692033333333","6500200","三重區"
"241028","022-UY","2019/08/22 19:59:28","新北市三重區中正南路83號","121.494225","25.05848","6500200","三重區"
"241008","059-VK","2019/08/22 19:59:31","新北市三重區永福街179巷24號","121.478211666667","25.0748733333333","6500200","三重區"
"241031","061-VK","2019/08/22 19:59:43","新北市三重區重新路四段144巷17號","121.487035","25.0553616666667","6500200","三重區"
"241015","062-VK","2019/08/22 19:59:41","新北市三重區福德北路89號","121.501898333333","25.0661066666667","6500200","三重區"
"241017","063-VK","2019/08/22 19:59:44","新北市三重區重陽路三段101號","121.490475","25.0683133333333","6500200","三重區"
"241024","065-VK","2019/08/22 19:59:41","新北市三重區大勇街49號","121.481521666667","25.0717933333333","6500200","三重區"
"241003","091-VK","2019/08/22 19:59:27","新北市三重區仁愛街445巷71號","121.491768333333","25.0833983333333","6500200","三重區"
"241006","262-UM","2019/08/22 19:59:29","新北市三重區力行路二段106號","121.482033333333","25.0749333333333","6500200","三重區"
"241009","267-UM","2019/08/22 19:59:31","新北市三重區三和路四段390巷11號","121.481283333333","25.0788833333333","6500200","三重區"
"241018","268-UM","2019/08/22 19:59:46","新北市三重區雙園街60號","121.495851666667","25.0676483333333","6500200","三重區"
"241032","269-UM","2019/08/22 19:59:28","新北市三重區朝陽街28號","121.483448333333","25.056595","6500200","三重區"
"241025","271-UM","2019/08/22 19:59:38","新北市三重區頂崁街210巷16號","121.476461666667","25.0676616666667","6500200","三重區"
"241030","KED-0822","2019/08/22 19:59:33","新北市三重區重新路四段254號","121.485708333333","25.05314","6500200","三重區"
"241035","462-BY","2019/08/22 19:59:45","新北市三重區大榮街7號","121.498218333333","25.0630916666667","6500200","三重區"
"241004","475-VK","2019/08/22 19:59:32","新北市三重區五華街74號","121.493416666667","25.0820083333333","6500200","三重區"
"241020","478-VK","2019/08/22 19:59:34","新北市三重區忠孝路一段101號","121.489493333333","25.0721316666667","6500200","三重區"
"241026","480-VK","2019/08/22 19:59:41","新北市三重區仁慈街13號","121.501873333333","25.06309","6500200","三重區"
"241014","543-UM","2019/08/22 19:59:31","新北市三重區三和路二段93號","121.499645","25.0683966666667","6500200","三重區"
"241023","545-UM","2019/08/22 19:59:32","新北市三重區頂崁街172號","121.477598333333","25.065915","6500200","三重區"
"241001","547-UM","2019/08/22 19:59:46","新北市三重區溪尾街54號","121.49042","25.077365","6500200","三重區"
"241005","AAD-863","2019/08/22 19:59:40","新北市三重區碧華街294巷5號","121.489493333333","25.0836766666667","6500200","三重區"
"241016","887-TS","2019/08/22 19:59:38","新北市三重區正義北路28巷21號","121.496721666667","25.063185","6500200","三重區"
"241012","941-UM","2019/08/22 19:59:33","新北市三重區仁厚街21號","121.49954","25.076195","6500200","三重區"
"241029","942-UM","2019/08/22 19:59:41","新北市三重區重安街8號","121.490291666667","25.0583883333333","6500200","三重區"
"241033","AAC-255","2019/08/22 19:59:26","新北市三重區中興北街20號","121.46961","25.0484233333333","6500200","三重區"
"235039","097-UM","2019/08/22 19:59:28","新北市中和區景平路276-1號","121.514","24.9925233333333","6500300","中和區"
"235065","098-UM","2019/08/22 19:59:37","新北市中和區福美路256巷18號","121.497966666667","25.0059166666667","6500300","中和區"
"235040","150-BY","2019/08/22 19:59:41","新北市中和區保健路10巷3弄1號","121.507773333333","24.99761","6500300","中和區"
"235058","151-BY","2019/08/22 19:59:35","新北市中和區員山路106號","121.481075","24.9955166666667","6500300","中和區"
"235055","183-VK","2019/08/22 19:59:32","新北市板橋區民生路一段26-1號","121.477283333333","25.0118266666667","6500300","中和區"
"235044","293-VK","2019/08/22 19:59:47","新北市中和區復興路255號","121.503178333333","24.9902416666667","6500300","中和區"
"247014","KEA-2869","2019/08/22 19:59:29","新北市蘆洲區成功路129號","121.472395","25.0822316666667","6501400","蘆洲區"
"247008","KED-0682","2019/08/22 19:59:41","新北市蘆洲區信義路97號","121.47794","25.0799866666667","6501400","蘆洲區"
"235070","558-UM","2019/08/22 19:59:35","新北市中和區中正路446號","121.490956666667","24.9942233333333","6500300","中和區"
"235046","733-UM","2019/08/22 19:59:46","新北市中和區興南路一段105巷20弄16號","121.510395","24.98545","6500300","中和區"
"235026","800-TS","2019/08/22 19:47:30","新北市中和區員山路36巷16-3號","121.48487","24.9911866666667","6500300","中和區"
"235052","805-TS","2019/08/22 19:59:28","新北市中和區華新街97號","121.508766666667","24.9829516666667","6500300","中和區"
"235048","896-TW","2019/08/22 19:59:38","新北市中和區景新街555號","121.515228333333","24.986485","6500300","中和區"
"235066","911-UM","2019/08/22 19:59:30","新北市中和區光華街10號","121.504351666667","25.0042716666667","6500300","中和區"
"235051","157-BY","2019/08/22 19:59:26","新北市中和區復興路301巷18號","121.501278333333","24.9895783333333","6500300","中和區"
"235037","AAC-213","2019/08/22 19:59:41","新北市中和區自強路54號","121.520218333333","24.9947033333333","6500300","中和區"
"235059","AAC-215","2019/08/22 19:59:47","新北市中和區圓通路335巷33弄17號","121.492993333333","24.9888933333333","6500300","中和區"
"220065","072-UY","2019/08/22 19:59:33","新北市板橋區海山路43號","121.467171666667","25.0098566666667","6500100","板橋區"
"220086","073-UY","2019/08/22 19:59:43","新北市板橋區中正路166號","121.456465","25.016945","6500100","板橋區"
"220106","075-UY","2019/08/22 19:59:49","新北市板橋區文聖街25號","121.47572","25.03213","6500100","板橋區"
"220069","AAD-861","2019/08/22 19:59:41","新北市板橋區大明街18-5號","121.458763333333","25.0029416666667","6500100","板橋區"
"220068","120-SR","2019/08/22 19:59:46","新北市板橋區光復街234-1號","121.484641666667","25.0214933333333","6500100","板橋區"
"247004","893-R6","2019/08/22 19:59:40","新北市蘆洲區長安街295號","121.458131666667","25.084815","6501400","蘆洲區"
"247018","546-UM","2019/08/22 19:59:26","新北市蘆洲區民族路290巷13號","121.478525","25.0899016666667","6501400","蘆洲區"
"247002","336-TH","2019/08/22 19:59:37","新北市蘆洲區長安街268號","121.45753","25.0868566666667","6501400","蘆洲區"
"247012","056-VK","2019/08/22 19:59:34","新北市蘆洲區民族路151號","121.479521666667","25.087965","6501400","蘆洲區"
"247016","053-VK","2019/08/22 19:59:30","新北市蘆洲區光華路13號","121.469796666667","25.0833966666667","6501400","蘆洲區"
"247020","007-UY","2019/08/22 19:59:33","新北市蘆洲區民義街62號","121.472866666667","25.0896916666667","6501400","蘆洲區"
"247006","002-UY","2019/08/22 19:59:46","新北市蘆洲區九芎街109號","121.465728333333","25.0796616666667","6501400","蘆洲區"
"247024","001-UY","2019/08/22 19:59:38","新北市蘆洲區光復路95號","121.464665","25.085805","6501400","蘆洲區"
"226004","312-R5","2019/08/22 19:59:33","新北市平溪區靜安路三段392巷3號","121.784571666667","25.049565","6502400","平溪區"
"228003","097-TW","2019/08/22 19:59:33","新北市貢寮區仁理村仁和路216號","121.923708333333","25.0531883333333","6502600","貢寮區"
"224002","639-TC","2019/08/22 19:59:31","新北市瑞芳區三爪子坑路335號","121.818825","25.1050533333333","6501200","瑞芳區"
"227002","642-TC","2019/08/22 19:59:31","新北市雙溪區雙溪里太平路70號","121.865503333333","25.0363","6502500","雙溪區"
"208002","KEA-2872","2019/08/22 19:59:45","新北市金山區中正路141巷10號","121.63227","25.2206583333333","6502700","金山區"
"208003","665-BX","2019/08/22 19:59:47","新北市金山區永興里忠義路1號","121.632943333333","25.2589916666667","6502700","金山區"
"251005","010-UM","2019/08/22 19:59:35","新北市淡水區學府路136巷37號","121.451885","25.1726783333333","6501000","淡水區"
"251001","011-UM","2019/08/22 19:59:30","新北市淡水區淡金路一段164-1號","121.454318333333","25.1797383333333","6501000","淡水區"
"251015","KEA-2871","2019/08/22 19:59:26","新北市淡水區北新路三段168號","121.492608333333","25.1924216666667","6501000","淡水區"
"251016","179-VK","2019/08/22 19:59:35","新北市淡水區淡金路五段20號","121.452865","25.2321583333333","6501000","淡水區"
"251013","180-VK","2019/08/22 19:59:33","新北市淡水區下圭柔山63-7號","121.45187","25.20619","6501000","淡水區"
"251008","181-VK","2019/08/22 19:59:40","新北市淡水區淡海路63巷10-1號","121.42274","25.1807766666667","6501000","淡水區"
"251012","443-VK","2019/08/22 19:59:33","新北市淡水區下圭柔山100-1號","121.437921666667","25.2106866666667","6501000","淡水區"
"251006","561-UM","2019/08/22 19:59:39","新北市淡水區水碓街55號","121.444216666667","25.17741","6501000","淡水區"
"251009","575-R6","2019/08/22 19:59:43","新北市淡水區英專路21巷13號","121.445005","25.169705","6501000","淡水區"
"251014","577-R6","2019/08/22 19:59:36","新北市淡水區石頭厝2-1號","121.458113333333","25.23571","6501000","淡水區"
"251011","650-BX","2019/08/22 19:59:35","新北市淡水區北新路一段69-5號","121.452843333333","25.1809316666667","6501000","淡水區"
"207003","550-UM","2019/08/22 19:59:39","新北市萬里區大鵬里萬里加投68-8號","121.642483333333","25.2150316666667","6502800","萬里區"
"207004","291-VK","2019/08/22 19:59:37","新北市萬里區北基里忠一街1號","121.686345","25.1762016666667","6502800","萬里區"
"252002","178-VK","2019/08/22 19:59:41","新北市三芝區三民街39巷5號","121.505441666667","25.2576083333333","6502100","三芝區"
"208001","170-UY","2019/08/22 19:59:33","新北市金山區南勢湖41-6號","121.629288333333","25.2201633333333","6502700","金山區"
"237004","KEA-2597","2019/08/22 19:59:46","新北市三峽區添福6-20號","121.372418333333","24.9051116666667","6500900","三峽區"
"237007","153-BY","2019/08/22 19:59:38","新北市三峽區麻園40號","121.363778333333","24.9208433333333","6500900","三峽區"
"237009","210-TH","2019/08/22 19:59:37","新北市三峽區民族街76號","121.369445","24.9299116666667","6500900","三峽區"
"237013","252-BX","2019/08/22 19:59:41","新北市三峽區介壽路二段112號","121.393265","24.9357283333333","6500900","三峽區"
"237012","275-BY","2019/08/22 19:59:26","新北市三峽區光明路15號","121.373086666667","24.9313533333333","6500900","三峽區"
"237008","302-VK","2019/08/22 19:59:33","新北市三峽區中華路59號","121.372423333333","24.9304883333333","6500900","三峽區"
"237014","433-BY","2019/08/22 19:59:39","新北市三峽區添福14-39號","121.37191","24.90038","6500900","三峽區"
"237006","5529-G3","2019/08/22 19:59:27","新北市三峽區中正路二段168號","121.366031666667","24.9153616666667","6500900","三峽區"
"237011","KEA-2596","2019/08/22 19:59:32","新北市三峽區中正路二段1號","121.367408333333","24.919785","6500900","三峽區"
"237015","649-BX","2019/08/22 19:59:30","新北市三峽區介壽路二段138巷1弄13-1號","121.3963","24.9339133333333","6500900","三峽區"
"237005","AKY-6261","2019/08/22 19:59:36","新北市三峽區民生街1巷19-1號","121.378543333333","24.93651","6500900","三峽區"
"236078","166-UM","2019/08/22 19:59:36","新北市土城區福安街53號","121.418585","24.9643883333333","6501300","土城區"
"236030","253-BX","2019/08/22 19:59:35","新北市土城區中央路一段250巷1號","121.4441","24.9845716666667","6501300","土城區"
"236026","269-VK","2019/08/22 19:59:40","新北市土城區員林街1號","121.442293333333","24.9782183333333","6501300","土城區"
"236014","270-VK","2019/08/22 19:59:32","新北市土城區廣福街123號","121.456273333333","24.9928783333333","6501300","土城區"
"236038","271-VK","2019/08/22 19:59:33","新北市土城區國際路113號","121.467766666667","24.9758166666667","6501300","土城區"
"247010","KED-0683","2019/08/22 19:59:31","新北市三重區集賢路201號","121.483886666667","25.0878416666667","6501400","蘆洲區"
"236070","KEA-2877","2019/08/22 19:59:14","新北市土城區忠義路99號","121.443755","24.9635483333333","6501300","土城區"
"252001","KED-0821","2019/08/22 19:59:28","新北市三芝區公正街66號","121.499836666667","25.2574816666667","6502100","三芝區"
"236021","401-BY","2019/08/22 19:59:36","新北市土城區延吉街111巷1弄1號","121.471456666667","24.9864733333333","6501300","土城區"
"236059","912-UM","2019/08/22 19:59:40","新北市土城區中央路一段260-3號","121.444111666667","24.9839666666667","6501300","土城區"
"236049","913-UM","2019/08/22 19:59:44","新北市土城區金城路三段190號","121.468336666667","24.9878783333333","6501300","土城區"
"236063","915-UM","2019/08/22 19:59:44","新北市土城區金城路三段73巷4弄32號","121.466266666667","24.9883316666667","6501300","土城區"
"236055","AAC-216","2019/08/22 19:59:42","新北市土城區學府路一段63號","121.45725","24.9883016666667","6501300","土城區"
"242039","AAC-296","2019/08/22 19:59:40","新北市新莊區民安路281-1號","121.428878333333","25.0221833333333","6500500","新莊區"
"242061","986-R7","2019/08/22 19:59:39","新北市新莊區瓊泰路28號","121.444326666667","25.0286533333333","6500500","新莊區"
"242002","751-BX","2019/08/22 19:59:29","新北市新莊區中正路285號","121.448905","25.0352583333333","6500500","新莊區"
"242029","615-BX","2019/08/22 19:59:33","新北市新莊區中榮街152巷55號","121.445931666667","25.05358","6500500","新莊區"
"242058","612-BX","2019/08/22 19:59:26","新北市新莊區八德街97號","121.424326666667","25.02138","6500500","新莊區"
"242051","497-BY","2019/08/22 19:59:39","新北市新莊區西盛街151號","121.42827","25.01815","6500500","新莊區"
"242056","442-UM","2019/08/22 19:59:48","新北市新莊區中正路347巷28號","121.447148333333","25.0341133333333","6500500","新莊區"
"242048","441-UM","2019/08/22 19:59:45","新北市新莊區建安街121巷5號","121.426536666667","25.0235766666667","6500500","新莊區"
"242004","440-UM","2019/08/22 19:59:41","新北市新莊區頭前路82號","121.466173333333","25.05248","6500500","新莊區"
"242011","413-TV","2019/08/22 19:59:40","新北市新莊區中港路531巷116號","121.449986666667","25.05174","6500500","新莊區"
"242025","362-BY","2019/08/22 19:59:40","新北市新莊區五工二路86巷29號","121.460368333333","25.067195","6500500","新莊區"
"242023","353-BY","2019/08/22 19:59:28","新北市新莊區化成路370號","121.465833333333","25.04969","6500500","新莊區"
"242013","132-UY","2019/08/22 19:59:43","新北市新莊區中誠街53巷38號","121.451411666667","25.04709","6500500","新莊區"
"242036","135-UY","2019/08/22 19:59:33","新北市新莊區建安街23號","121.428976666667","25.026065","6500500","新莊區"
"242053","172-VK","2019/08/22 19:59:34","新北市新莊區西盛街422號","121.427138333333","25.01209","6500500","新莊區"
"242015","173-VK","2019/08/22 19:59:29","新北市新莊區復興路一段47巷12號","121.446866666667","25.0427666666667","6500500","新莊區"
"242021","175-VK","2019/08/22 19:59:26","新北市新莊區建中街48巷10弄12號","121.448646666667","25.0384433333333","6500500","新莊區"
"242031","176-VK","2019/08/22 19:59:40","新北市新莊區忠孝街32號","121.443993333333","25.0355683333333","6500500","新莊區"
"242019","346-TH","2019/08/22 19:59:37","新北市新莊區民生街15巷9號","121.45528","25.0426166666667","6500500","新莊區"
"242034","348-TH","2019/08/22 19:59:27","新北市新莊區建中街91號","121.446705","25.036515","6500500","新莊區"
"242007","349-TH","2019/08/22 19:59:41","新北市新莊區思源路585號","121.459726666667","25.05936","6500500","新莊區"
"242017","351-TH","2019/08/22 19:59:34","新北市新莊區中華路二段3巷3號","121.453135","25.0454416666667","6500500","新莊區"
"238019","599-UM","2019/08/22 19:59:36","新北市樹林區中山路三段214號","121.379856666667","24.9676383333333","6500700","樹林區"
"238021","KEA-2539","2019/08/22 19:59:33","新北市樹林區佳園路三段101巷86-1號","121.395536666667","24.949775","6500700","樹林區"
"238017","283-BY","2019/08/22 19:59:27","新北市樹林區保安街二段107巷1弄2號","121.415035","25.0007283333333","6500700","樹林區"
"239007","AAC-297","2019/08/22 19:59:35","新北市鶯歌區大湖路340號","121.346325","24.9711816666667","6500800","鶯歌區"
"239006","891-R6","2019/08/22 19:59:44","新北市鶯歌區文化路265號","121.353335","24.953005","6500800","鶯歌區"
"239002","359-BY","2019/08/22 19:59:29","新北市鶯歌區大湖路334巷1號","121.345368333333","24.9707033333333","6500800","鶯歌區"
"239004","193-VK","2019/08/22 19:59:35","新北市鶯歌區二甲路83-26號","121.341901666667","24.9321516666667","6500800","鶯歌區"
"221008","489-VK","2019/08/22 19:59:39","新北市汐止區康寧街83巷26號","121.620748333333","25.067485","6501100","汐止區"
"221015","131-UY","2019/08/22 19:59:38","新北市汐止區橋東街28號","121.666251666667","25.0753866666667","6501100","汐止區"
"221010","269-BY","2019/08/22 19:59:33","新北市汐止區汐萬路一段333巷1號","121.64989","25.0761733333333","6501100","汐止區"
"221012","278-VK","2019/08/22 19:59:30","新北市汐止區保長路273巷4號","121.681335","25.074035","6501100","汐止區"
"221023","279-VK","2019/08/22 19:59:33","新北市汐止區民族三街43號","121.629756666667","25.0699683333333","6501100","汐止區"
"221027","281-BY","2019/08/22 19:59:37","新北市汐止區中正路97號","121.661076666667","25.0693816666667","6501100","汐止區"
"221029","298-VK","2019/08/22 19:59:38","新北市汐止區樟樹一路139巷23號","121.64104","25.0660533333333","6501100","汐止區"
"221021","299-VK","2019/08/22 19:59:44","新北市汐止區水源路一段155號","121.655601666667","25.06209","6501100","汐止區"
"221031","353-TW","2019/08/22 19:59:32","新北市汐止區福德一路176巷7弄14號","121.634695","25.0665133333333","6501100","汐止區"
"221025","623-UM","2019/08/22 19:59:26","新北市汐止區仁愛路77巷2弄21號","121.661591666667","25.06367","6501100","汐止區"
"221038","646-BX","2019/08/22 19:59:37","新北市汐止區忠孝東路486號","121.666211666667","25.0739183333333","6501100","汐止區"
"221033","647-BX","2019/08/22 19:59:30","新北市汐止區東勢街190巷3號","121.633875","25.0416233333333","6501100","汐止區"
"220079","145-BY","2019/08/22 19:59:42","新北市板橋區民權路302巷1弄1號","121.457303333333","25.0162766666667","6500100","板橋區"
"220080","200-UY","2019/08/22 19:59:37","新北市板橋區大觀路二段109巷1號","121.4473","25.0011283333333","6500100","板橋區"
"220082","610-BX","2019/08/22 19:59:39","新北市板橋區存德街9號","121.429963333333","24.99192","6500100","板橋區"
"220056","276-BY","2019/08/22 19:59:38","新北市板橋區四川路二段99-1號","121.452656666667","24.99455","6500100","板橋區"
"220072","277-BY","2019/08/22 19:59:44","新北市板橋區金門街121巷3號","121.433425","24.9915166666667","6500100","板橋區"
"220101","280-UM","2019/08/22 19:59:44","新北市板橋區萬板路466-1號","121.47959","25.0260316666667","6500100","板橋區"
"220071","283-VK","2019/08/22 19:59:40","新北市板橋區五權街32巷26號","121.46391","24.9928183333333","6500100","板橋區"
"220094","285-UM","2019/08/22 19:59:45","新北市板橋區文化路一段379號","121.466973333333","25.0216166666667","6500100","板橋區"
"220053","285-VK","2019/08/22 19:59:44","新北市板橋區永豐街100號","121.475966666667","25.0203966666667","6500100","板橋區"
"220083","286-VK","2019/08/22 19:59:35","新北市板橋區僑中三街36號","121.445475","25.0051766666667","6500100","板橋區"
"220081","287-VK","2019/08/22 19:59:32","新北市板橋區大觀路一段28巷88號","121.449905","25.0110416666667","6500100","板橋區"
"220090","288-VK","2019/08/22 19:59:39","新北市板橋區新海路72巷5弄36號","121.461521666667","25.0230866666667","6500100","板橋區"
"220061","293-UM","2019/08/22 19:59:41","新北市板橋區民生路二段15號","121.472496666667","25.0160216666667","6500100","板橋區"
"220084","296-UM","2019/08/22 19:59:44","新北市板橋區溪崑二街96巷8號","121.426636666667","24.989305","6500100","板橋區"
"242044","281-VK","2019/08/22 19:59:36","新北市新莊區中正路746巷25-1號","121.410466666667","25.0242033333333","6500500","新莊區"
"220075","303-R5","2019/08/22 19:59:31","新北市板橋區金華街10巷15號","121.456358333333","25.0201033333333","6500100","板橋區"
"220062","305-R5","2019/08/22 19:59:32","新北市板橋區光復街103號","121.484098333333","25.0190633333333","6500100","板橋區"
"220092","307-R5","2019/08/22 19:59:43","新北市板橋區文化路一段81巷6號","121.460803333333","25.0141483333333","6500100","板橋區"
"220098","317-R6","2019/08/22 19:59:41","新北市板橋區新海路385巷12號","121.458426666667","25.025845","6500100","板橋區"
"220089","487-VK","2019/08/22 19:59:43","新北市板橋區四維路314號","121.462401666667","25.0299116666667","6500100","板橋區"
"220088","491-VK","2019/08/22 19:59:45","新北市板橋區懷德街127巷23弄7號","121.479336666667","25.0318583333333","6500100","板橋區"
"220103","561-BX","2019/08/22 19:55:58","新北市板橋區新海路137號","121.460365","25.023565","6500100","板橋區"
"220063","609-BX","2019/08/22 19:59:38","新北市板橋區中山路二段113號","121.474765","25.0162033333333","6500100","板橋區"
"220035","630-UY","2019/08/22 19:59:38","新北市板橋區金華街104號","121.458648333333","25.020725","6500100","板橋區"
"220091","637-BX","2019/08/22 19:59:30","新北市板橋區文聖街101巷12號","121.478295","25.0296316666667","6500100","板橋區"
"220057","686-BX","2019/08/22 19:59:42","新北市板橋區四川路二段98-1號","121.450991666667","24.9942016666667","6500100","板橋區"
"220077","687-BX","2019/08/22 19:59:36","新北市板橋區僑中一街70號","121.447551666667","25.011485","6500100","板橋區"
"220093","689-BX","2019/08/22 19:59:46","新北市板橋區長江路二段190號","121.467236666667","25.0320533333333","6500100","板橋區"
"220054","741-BX","2019/08/22 19:59:37","新北市板橋區忠孝路忠義巷15弄31號","121.465591666667","25.0043566666667","6500100","板橋區"
"220102","KEA-2699","2019/08/22 19:59:37","新北市板橋區文化路一段370號","121.469906666667","25.0235766666667","6500100","板橋區"
"220055","827-TW","2019/08/22 19:59:42","新北市板橋區國慶路149巷37弄13號","121.460375","24.99794","6500100","板橋區"
"220067","829-TW","2019/08/22 19:59:39","新北市板橋區長安街331巷95號","121.471943333333","25.012625","6500100","板橋區"
"220074","895-R6","2019/08/22 19:59:43","新北市板橋區民權路85號","121.460751666667","25.0117833333333","6500100","板橋區"
"220073","985-R7","2019/08/22 19:59:32","新北市板橋區南雅西路二段216號","121.452018333333","25.0152816666667","6500100","板橋區"
"220097","AAC-210","2019/08/22 19:59:38","新北市板橋區復興街135號","121.461066666667","25.0179933333333","6500100","板橋區"
"220064","AAC-253","2019/08/22 19:59:41","新北市板橋區漢生東路193巷23-4號","121.471016666667","25.0121533333333","6500100","板橋區"
"235068","KEA-2873","2019/08/22 19:59:47","新北市中和區中山路二段248號","121.497665","25.0026066666667","6500300","中和區"
