"lineid","car","time","location","longitude","latitude","cityid","cityname"
"231063","616-UM","2019/08/22 21:39:48","新北市新店區薏仁坑路6號","121.500385","24.9579133333333","6500600","新店區"
"251004","009-UM","2019/08/22 21:39:30","新北市淡水區民生路28號","121.46127","25.137845","6501000","淡水區"
"251005","010-UM","2019/08/22 21:39:35","新北市淡水區水源街一段60號","121.44495","25.1720633333333","6501000","淡水區"
"251001","011-UM","2019/08/22 21:39:30","新北市淡水區新市二路三段152號","121.435361666667","25.1943","6501000","淡水區"
"251010","012-UM","2019/08/22 21:39:42","新北市淡水區沙崙路216巷18號","121.425795","25.1838783333333","6501000","淡水區"
"251016","179-VK","2019/08/22 21:39:35","新北市淡水區崁頂72-3號","121.437871666667","25.2038616666667","6501000","淡水區"
"251008","181-VK","2019/08/22 21:39:41","新北市淡水區水源街二段80號","121.451425","25.1742583333333","6501000","淡水區"
"251007","182-VK","2019/08/22 21:39:41","新北市淡水區水源街二段194號","121.456815","25.1759","6501000","淡水區"
"251012","443-VK","2019/08/22 21:39:33","新北市淡水區淡金路四段205號","121.451663333333","25.221985","6501000","淡水區"
"251006","561-UM","2019/08/22 21:39:42","新北市淡水區中正路11巷4號","121.43892","25.1702266666667","6501000","淡水區"
"251009","575-R6","2019/08/22 21:39:43","新北市淡水區民生路124巷30號","121.464238333333","25.1375483333333","6501000","淡水區"
"251014","577-R6","2019/08/22 21:39:36","新北市淡水區淡金路四段514號","121.45193","25.225605","6501000","淡水區"
"251011","650-BX","2019/08/22 21:39:35","新北市淡水區新民街214號","121.436098333333","25.1800633333333","6501000","淡水區"
"251002","672-BX","2019/08/22 21:39:41","新北市淡水區學府路191號","121.446441666667","25.1749866666667","6501000","淡水區"
"251003","673-BX","2019/08/22 21:39:42","新北市淡水區新民街280號","121.435253333333","25.1819033333333","6501000","淡水區"
"242029","615-BX","2019/08/22 21:39:33","新北市泰山區楓江路111號","121.43837","25.0647416666667","6500500","新莊區"
