"lineid","car","time","location","longitude","latitude","cityid","cityname"
"251004","009-UM","2019/08/22 21:59:30","新北市淡水區自強路201巷39號","121.462143333333","25.12678","6501000","淡水區"
"251005","010-UM","2019/08/22 21:59:35","新北市淡水區鄧公路30巷1弄65號","121.454448333333","25.1696116666667","6501000","淡水區"
"251010","012-UM","2019/08/22 21:59:41","新北市淡水區中正路二段206號","121.42631","25.1890633333333","6501000","淡水區"
"251008","181-VK","2019/08/22 21:59:40","新北市淡水區學府路104號","121.449838333333","25.1717983333333","6501000","淡水區"
"251007","182-VK","2019/08/22 21:59:41","新北市淡水區北新路184巷19號","121.450228333333","25.1780516666667","6501000","淡水區"
"251006","561-UM","2019/08/22 21:43:51","新北市淡水區中正路11巷3號","121.437876666667","25.1707616666667","6501000","淡水區"
"251011","650-BX","2019/08/22 21:59:35","新北市淡水區水碓街3號","121.443001666667","25.1769716666667","6501000","淡水區"
"251003","673-BX","2019/08/22 21:59:29","新北市淡水區新春街90號","121.438911666667","25.1823433333333","6501000","淡水區"
