"lineid","car","time","location","longitude","latitude","cityid","cityname"
"251004","009-UM","2019/08/22 22:09:30","新北市淡水區民族路33號","121.46228","25.1358116666667","6501000","淡水區"
"251005","010-UM","2019/08/22 22:09:35","新北市淡水區鄧公路19號","121.451423333333","25.17004","6501000","淡水區"
"251010","012-UM","2019/08/22 22:09:41","新北市淡水區沙崙路200號","121.424686666667","25.1838916666667","6501000","淡水區"
"251008","181-VK","2019/08/22 22:09:40","新北市淡水區學府路104號","121.449846666667","25.1718","6501000","淡水區"
"251007","182-VK","2019/08/22 22:09:41","新北市淡水區北新路180號","121.449448333333","25.1787","6501000","淡水區"
"251006","561-UM","2019/08/22 22:09:27","新北市淡水區中正路205號","121.437245","25.1713333333333","6501000","淡水區"
"251011","650-BX","2019/08/22 22:09:35","新北市淡水區水碓街7號","121.443156666667","25.177175","6501000","淡水區"
