"lineid","car","time","location","longitude","latitude","cityid","cityname"
"251004","009-UM","2019/08/22 22:29:30","新北市淡水區民族路33號","121.462251666667","25.13579","6501000","淡水區"
"251010","012-UM","2019/08/22 22:29:42","新北市淡水區沙崙路214號","121.425041666667","25.1841933333333","6501000","淡水區"
"251008","181-VK","2019/08/22 22:29:40","新北市淡水區學府路104號","121.449841666667","25.1718083333333","6501000","淡水區"
"251007","182-VK","2019/08/22 22:29:41","新北市淡水區北新路180號","121.449486666667","25.178715","6501000","淡水區"
"251011","650-BX","2019/08/22 22:29:35","新北市淡水區水碓街7號","121.443143333333","25.1771783333333","6501000","淡水區"
"242007","349-TH","2019/08/22 22:26:43","新北市新莊區三和路12-21號","121.442173333333","25.0384116666667","6500500","新莊區"
