"lineid","car","time","location","longitude","latitude","cityid","cityname"
"232019","290-BY","2019/08/23 06:49:28","新北市坪林區坪雙路一段53號","121.712875","24.9434283333333","6502000","坪林區"
"232008","291-BY","2019/08/23 06:49:32","新北市坪林區鶯子瀨1-2號","121.70826","24.918035","6502000","坪林區"
"232015","705-BZ","2019/08/23 06:49:40","新北市坪林區魚堀55-1號","121.708485","24.929765","6502000","坪林區"
"232003","758-BX","2019/08/23 06:49:47","新北市坪林區坪雙路一段68號","121.715478333333","24.9432983333333","6502000","坪林區"
"244004","248-BX","2019/08/23 06:49:44","新北市林口區粉寮69號","121.405118333333","25.0907933333333","6501700","林口區"
"231020","512-UM","2019/08/23 06:49:43","新北市新店區新和街33號","121.518976666667","24.9847733333333","6500600","新店區"
"223002","KEA-2673","2019/08/23 06:49:32","新北市石碇區員山子1號","121.652191666667","24.96705","6501900","石碇區"
"223008","406-TH","2019/08/23 06:49:09","新北市石碇區雙溪37-3號","121.653948333333","25.008015","6501900","石碇區"
"223001","592-UM","2019/08/23 06:49:25","新北市石碇區湳窟37-1號","121.662328333333","24.9956733333333","6501900","石碇區"
"223004","660-BX","2019/08/23 06:49:46","新北市石碇區石崁31號","121.65907","24.9913133333333","6501900","石碇區"
"223007","661-BX","2019/08/23 06:49:50","新北市石碇區雙溪84-1號","121.661143333333","25.008945","6501900","石碇區"
"227003","282-VK","2019/08/23 06:49:30","新北市雙溪區新基里自強路5號","121.866303333333","25.03904","6502500","雙溪區"
