"lineid","car","time","location","longitude","latitude","cityid","cityname"
"234044","148-BY","2019/10/18 12:39:20","新北市永和區永元路68號","121.522561666667","25.0016183333333","6500400","永和區"
"234078","298-R6","2019/10/18 12:39:19","新北市永和區林森路66號","121.523865","25.0039916666667","6500400","永和區"
"234036","336-UY","2019/10/18 12:39:28","新北市永和區福和路1號","121.526575","25.0100516666667","6500400","永和區"
"234062","337-UY","2019/10/18 12:39:16","新北市永和區福和路1號","121.52656","25.0100433333333","6500400","永和區"
"234084","338-UY","2019/10/18 12:39:18","新北市永和區中正路18號","121.512635","24.9939033333333","6500400","永和區"
"234068","552-UM","2019/10/18 12:39:29","新北市永和區福和路1號","121.525406666667","25.009695","6500400","永和區"
"234015","745-BX","2019/10/18 12:39:26","新北市永和區福和路1號","121.526371666667","25.00957","6500400","永和區"
"234028","746-BX","2019/10/18 12:39:24","新北市永和區成功路一段54號","121.526963333333","25.0039733333333","6500400","永和區"
"234005","KED-0605","2019/10/18 12:39:21","新北市永和區福和路1號","121.526386666667","25.0100466666667","6500400","永和區"
"234012","KEA-2591","2019/10/18 12:39:26","新北市永和區保安路50號","121.510281666667","25.01685","6500400","永和區"
"234040","862-TW","2019/10/18 12:39:26","新北市永和區永和路一段42號","121.512986666667","25.0056566666667","6500400","永和區"
"234025","9371-KE","2019/10/18 12:39:28","新北市永和區福和路1號","121.526433333333","25.0096583333333","6500400","永和區"
"234010","9373-KE","2019/10/18 12:39:21","新北市永和區保生路55號","121.504543333333","25.01083","6500400","永和區"
"234022","9380-KE","2019/10/18 12:39:29","新北市永和區福和路1號","121.526485","25.00984","6500400","永和區"
"234076","969-R7","2019/10/18 12:39:12","新北市永和區中正路171號","121.516633333333","24.9985716666667","6500400","永和區"
"234066","AAC-212","2019/10/18 12:39:11","新北市永和區豫溪街217巷19號","121.524925","25.010145","6500400","永和區"
"234001","AAC-295","2019/10/18 12:39:18","新北市永和區福和路1號","121.52658","25.0100583333333","6500400","永和區"
"231003","268-BY","2019/10/18 12:39:27","新北市新店區安一路一段1-1號","121.51957","24.96138","6500600","新店區"
"231010","719-UM","2019/10/18 12:39:12","新北市新店區安一路一段1-1號","121.519285","24.961255","6500600","新店區"
"231026","720-UM","2019/10/18 12:39:11","新北市新店區安一路一段1-1號","121.519035","24.961575","6500600","新店區"
"207002","749-BX","2019/10/18 12:39:29","新北市萬里區中幅里大湖路6號","121.660743333333","25.1711383333333","6502800","萬里區"
"207001","662-BX","2019/10/18 12:39:31","新北市萬里區萬里里獅頭路15-1號","121.697701666667","25.180435","6502800","萬里區"
"235025","KEA-2875","2019/10/18 12:39:30","新北市中和區員山路36巷16-2號","121.485166666667","24.9917016666667","6500300","中和區"
