"lineid","car","time","location","longitude","latitude","cityid","cityname"
"234044","148-BY","2019/10/18 13:59:20","新北市永和區成功路一段77號","121.526916666667","25.003215","6500400","永和區"
"234078","298-R6","2019/10/18 13:59:23","新北市永和區永亨路98號","121.522978333333","25.0047033333333","6500400","永和區"
"234036","336-UY","2019/10/18 13:59:28","新北市永和區成功路二段88號","121.526626666667","24.9986133333333","6500400","永和區"
"234062","337-UY","2019/10/18 13:59:16","新北市永和區中正路412巷20弄32號","121.519068333333","25.00126","6500400","永和區"
"234084","338-UY","2019/10/18 13:59:26","新北市永和區福和路79號","121.522543333333","25.0079116666667","6500400","永和區"
"234068","552-UM","2019/10/18 13:59:29","新北市永和區國光路12巷1號","121.519281666667","25.0084983333333","6500400","永和區"
"234015","745-BX","2019/10/18 13:59:26","新北市永和區文化路14號","121.515431666667","25.0150383333333","6500400","永和區"
"234028","746-BX","2019/10/18 13:59:24","新北市永和區民權路49巷5弄26號","121.521785","24.9978233333333","6500400","永和區"
"234052","KEA-2590","2019/10/18 13:59:30","新北市永和區竹林路39巷42弄1號","121.520111666667","25.0152366666667","6500400","永和區"
"234005","KED-0605","2019/10/18 13:59:21","新北市永和區中和路421巷3弄9號","121.508868333333","25.00061","6500400","永和區"
"234012","KEA-2591","2019/10/18 13:59:26","新北市永和區保生路55號","121.504746666667","25.0106283333333","6500400","永和區"
"234060","AAD-866","2019/10/18 13:59:21","新北市永和區中正路151巷14號","121.51562","24.998795","6500400","永和區"
"234040","862-TW","2019/10/18 13:59:29","新北市永和區中和路335巷18弄32號","121.508186666667","25.0004066666667","6500400","永和區"
"234048","863-TW","2019/10/18 13:59:16","新北市永和區保安路254號","121.506281666667","25.012585","6500400","永和區"
"234025","9371-KE","2019/10/18 13:59:28","新北市永和區自由街58號","121.513831666667","25.00604","6500400","永和區"
"234010","9373-KE","2019/10/18 13:59:20","新北市永和區仁愛路352巷112弄8號","121.500976666667","25.0085166666667","6500400","永和區"
"248019","KED-0813","2019/10/18 13:58:03","新北市五股區凌雲路三段59-6號","121.425008333333","25.12498","6501500","五股區"
"234022","9380-KE","2019/10/18 13:59:29","新北市永和區復興街39號","121.516436666667","25.0132683333333","6500400","永和區"
"234076","969-R7","2019/10/18 13:59:12","新北市永和區民族街43巷6號","121.518745","24.9984333333333","6500400","永和區"
"234072","AAC-211","2019/10/18 13:59:28","新北市永和區豫溪街159-1號","121.521375","25.0104366666667","6500400","永和區"
"234066","AAC-212","2019/10/18 13:59:11","新北市永和區永貞路358號","121.510261666667","25.00667","6500400","永和區"
"234001","AAC-295","2019/10/18 13:59:18","新北市永和區福和路316號","121.516115","25.0073666666667","6500400","永和區"
"244004","657-BX","2019/10/18 13:59:23","新北市林口區南勢街248號","121.358561666667","25.0756683333333","6501700","林口區"
"231030","002-UM","2019/10/18 13:59:27","新北市新店區安康路一段258號","121.52063","24.9640316666667","6500600","新店區"
"231024","0291-UT","2019/10/18 13:59:25","新北市新店區新生街13巷42號","121.538961666667","24.96659","6500600","新店區"
"231005","046-UY","2019/10/18 13:59:22","新北市新店區中興路三段184號","121.54409","24.9814083333333","6500600","新店區"
"231029","106-UY","2019/10/18 13:59:17","新北市新店區安康路二段1-3號","121.516873333333","24.9638566666667","6500600","新店區"
"231018","107-UY","2019/10/18 13:59:30","新北市新店區中央路192號","121.530868333333","24.974685","6500600","新店區"
"231013","108-UY","2019/10/18 13:59:29","新北市新店區明德路111號","121.5415","24.9794466666667","6500600","新店區"
"231036","110-UY","2019/10/18 13:59:22","新北市新店區安祥路109巷3弄1號","121.477873333333","24.9612516666667","6500600","新店區"
"231032","256-BX","2019/10/18 13:59:20","新北市新店區莒光路44巷21弄11-6號","121.518481666667","24.9522133333333","6500600","新店區"
"231023","260-TV","2019/10/18 13:59:10","新北市新店區文中路51號","121.539715","24.9566616666667","6500600","新店區"
"231003","268-BY","2019/10/18 13:59:27","新北市新店區中興路一段24號","121.538686666667","24.9583716666667","6500600","新店區"
"231035","278-BY","2019/10/18 13:59:23","新北市新店區安和路二段115號","121.518698333333","24.9704316666667","6500600","新店區"
"231016","AAD-862","2019/10/18 13:59:23","新北市新店區北宜路二段295號","121.556148333333","24.9541533333333","6500600","新店區"
"231006","355-BY","2019/10/18 13:59:27","新北市新店區北宜路二段141號","121.551231666667","24.9530983333333","6500600","新店區"
"231038","3712-VJ","2019/10/18 13:59:15","新北市新店區安華路30巷1號","121.519601666667","24.9593","6500600","新店區"
"231027","3713-VJ","2019/10/18 13:59:09","新北市新店區中興路一段34號","121.538855","24.9586483333333","6500600","新店區"
"231025","4715-K9","2019/10/18 13:59:24","新北市新店區中正路348號","121.536245","24.97523","6500600","新店區"
"231022","512-UM","2019/10/18 13:59:12","新北市新店區自強路108號","121.545916666667","24.9226566666667","6500600","新店區"
"231002","619-UM","2019/10/18 13:59:16","新北市新店區中正路614號","121.533995","24.9885616666667","6500600","新店區"
"231034","641-BX","2019/10/18 13:59:25","新北市新店區達觀路40號","121.502983333333","24.9392616666667","6500600","新店區"
"231012","KED-0819","2019/10/18 13:59:08","新北市新店區中興路二段57巷24號","121.54555","24.9709983333333","6500600","新店區"
"231026","720-UM","2019/10/18 13:59:11","新北市新店區三民路159巷19弄44號","121.532206666667","24.9732683333333","6500600","新店區"
"231028","897-TW","2019/10/18 13:59:26","新北市新店區安和路三段4巷1-3號","121.518223333333","24.980585","6500600","新店區"
"231001","898-TW","2019/10/18 13:59:14","新北市新店區三民路24號","121.537166666667","24.97102","6500600","新店區"
"231004","899-TW","2019/10/18 13:59:26","新北市新店區北新路二段137號","121.542826666667","24.9756033333333","6500600","新店區"
"231037","AKT-0513","2019/10/18 13:59:24","新北市新店區安康路三段207巷5號","121.487968333333","24.9511166666667","6500600","新店區"
"235030","003-UY","2019/10/18 13:59:19","新北市中和區廣福路12號","121.505596666667","25.0028966666667","6500300","中和區"
"235027","006-UY","2019/10/18 13:59:23","新北市中和區連城路226號","121.489616666667","24.9963533333333","6500300","中和區"
"235020","096-UM","2019/10/18 13:59:22","新北市板橋區三民路二段218號","121.47882","25.0117","6500300","中和區"
"235003","097-UM","2019/10/18 13:59:12","新北市中和區景平路3號","121.523678333333","24.9903033333333","6500300","中和區"
"235029","098-UM","2019/10/18 13:59:19","新北市中和區中山路二段136巷52號","121.50109","25.0045133333333","6500300","中和區"
"235004","150-BY","2019/10/18 13:59:25","新北市中和區景安路79巷39號","121.507328333333","24.996175","6500300","中和區"
"235022","151-BY","2019/10/18 13:59:21","新北市中和區連城路477巷6弄11號","121.482713333333","24.995045","6500300","中和區"
"235019","183-VK","2019/10/18 13:59:18","新北市中和區德光路75號","121.469403333333","25.0036966666667","6500300","中和區"
"235002","185-VK","2019/10/18 13:59:28","新北市中和區立人街22號","121.519006666667","24.9941833333333","6500300","中和區"
"235031","255-BX","2019/10/18 13:59:28","新北市中和區中正路738號","121.485463333333","24.9976933333333","6500300","中和區"
"235008","293-VK","2019/10/18 13:59:18","新北市中和區中興街180巷16號","121.498575","24.990285","6500300","中和區"
"235036","301-VK","2019/10/18 13:59:24","新北市中和區中山路二段132號","121.502471666667","25.0034616666667","6500300","中和區"
"235007","352-BY","2019/10/18 13:59:29","新北市中和區秀朗路三段179號","121.524568333333","24.9906233333333","6500300","中和區"
"235006","KEA-2878","2019/10/18 13:59:09","新北市中和區自立路36-8號","121.522708333333","24.992655","6500300","中和區"
"247015","KEA-2869","2019/10/18 13:59:16","新北市蘆洲區光華路42號","121.468846666667","25.0831833333333","6501400","蘆洲區"
"247009","KED-0682","2019/10/18 13:59:31","新北市蘆洲區集賢路406號","121.480113333333","25.0817316666667","6501400","蘆洲區"
"235014","4979-A6","2019/10/18 13:59:26","新北市中和區華新街50巷6號","121.507703333333","24.9839616666667","6500300","中和區"
"235033","4980-A6","2019/10/18 13:59:23","新北市中和區中和路165巷17號","121.502718333333","25.0004883333333","6500300","中和區"
"235009","551-UM","2019/10/18 13:59:25","新北市中和區景新街467巷20弄86號","121.514395","24.9877","6500300","中和區"
"235034","558-UM","2019/10/18 13:59:14","新北市中和區景新街2號","121.502488333333","24.999755","6500300","中和區"
"235018","640-BX","2019/10/18 13:59:16","新北市中和區國光街111號","121.469931666667","25.00055","6500300","中和區"
"235011","732-UM","2019/10/18 13:59:16","新北市中和區興南路二段94號","121.505248333333","24.9843383333333","6500300","中和區"
"235010","733-UM","2019/10/18 13:59:13","新北市中和區興南路二段31巷17號","121.508116666667","24.9852083333333","6500300","中和區"
"235035","783-BX","2019/10/18 13:59:15","新北市中和區立德街60號","121.488258333333","25.00759","6500300","中和區"
"235021","801-TS","2019/10/18 13:59:29","新北市中和區員山路365號","121.481238333333","25.00213","6500300","中和區"
"235005","802-TS","2019/10/18 13:59:14","新北市中和區中安街110號","121.511446666667","25.0007416666667","6500300","中和區"
"235016","805-TS","2019/10/18 13:59:26","新北市中和區興南路二段131號","121.503631666667","24.981995","6500300","中和區"
"235012","896-TW","2019/10/18 13:59:29","新北市中和區南山路300號","121.507913333333","24.987105","6500300","中和區"
"235017","900-TW","2019/10/18 13:58:58","新北市板橋區和平路174巷1弄7號","121.464268333333","24.9953083333333","6500300","中和區"
"235028","911-UM","2019/10/18 13:59:11","新北市中和區泰和街39號","121.499083333333","24.9996033333333","6500300","中和區"
"235015","157-BY","2019/10/18 13:59:17","新北市中和區忠孝街103-1號","121.511745","24.9861933333333","6500300","中和區"
"235001","AAC-213","2019/10/18 13:59:28","新北市中和區秀朗路三段58-3號","121.525688333333","24.9951283333333","6500300","中和區"
"235023","AAC-215","2019/10/18 13:59:12","新北市中和區圓通路369巷10號","121.490561666667","24.9882183333333","6500300","中和區"
"220013","072-UY","2019/10/18 13:59:17","新北市板橋區漢生東路321號","121.471941666667","25.0079433333333","6500100","板橋區"
"220034","073-UY","2019/10/18 13:59:19","新北市板橋區大智街14號","121.456013333333","25.0148466666667","6500100","板橋區"
"220105","075-UY","2019/10/18 13:59:14","新北市板橋區雙十路三段12號","121.47184","25.030615","6500100","板橋區"
"220017","AAD-861","2019/10/18 13:59:25","新北市板橋區四川路一段102號","121.459691666667","25.0046983333333","6500100","板橋區"
"247005","893-R6","2019/10/18 13:59:21","新北市蘆洲區中山一路312號","121.469268333333","25.0770983333333","6501400","蘆洲區"
"247003","341-TH","2019/10/18 13:59:26","新北市蘆洲區長安街98巷8號","121.462515","25.081385","6501400","蘆洲區"
"247019","337-TH","2019/10/18 13:59:14","新北市蘆洲區民族路422巷84-1號","121.473631666667","25.0938283333333","6501400","蘆洲區"
"247013","056-VK","2019/10/18 13:59:17","新北市蘆洲區中正路152號","121.469381666667","25.0856933333333","6501400","蘆洲區"
"247017","053-VK","2019/10/18 13:59:16","新北市蘆洲區民族路255巷13號","121.476473333333","25.089975","6501400","蘆洲區"
"247021","007-UY","2019/10/18 13:59:18","新北市蘆洲區中正路186號","121.466941666667","25.0880316666667","6501400","蘆洲區"
"247007","002-UY","2019/10/18 13:59:26","新北市蘆洲區重陽街42-1號","121.481056666667","25.0825716666667","6501400","蘆洲區"
"247001","001-UY","2019/10/18 13:59:27","新北市蘆洲區三民路605號","121.46065","25.0937783333333","6501400","蘆洲區"
"235013","251-BX","2019/10/18 13:59:24","新北市中和區明仁街11號","121.506025","24.995605","6500300","中和區"
"207002","749-BX","2019/10/18 13:59:29","新北市萬里區溪底里溪底路10號","121.61557","25.148135","6502800","萬里區"
"207001","662-BX","2019/10/18 13:59:11","新北市萬里區磺潭里磺溪12號","121.630271666667","25.203","6502800","萬里區"
"236040","KED-0685","2019/10/18 13:59:13","新北市土城區城林路6巷80號","121.438538333333","24.97977","6501300","土城區"
"236077","166-UM","2019/10/18 13:59:11","新北市土城區永寧路32巷2號","121.42918","24.9606333333333","6501300","土城區"
"236029","253-BX","2019/10/18 13:59:21","新北市土城區城林路6巷80號","121.438471666667","24.9798183333333","6501300","土城區"
"236024","269-VK","2019/10/18 13:59:19","新北市土城區承天路31號","121.436825","24.9652883333333","6501300","土城區"
"236013","270-VK","2019/10/18 13:59:21","新北市土城區中央路一段327號","121.443873333333","24.9826433333333","6501300","土城區"
"236032","271-VK","2019/10/18 13:59:25","新北市土城區城林路6巷80號","121.43854","24.979785","6501300","土城區"
"247011","KED-0683","2019/10/18 13:59:15","新北市蘆洲區民族路152號","121.47956","25.0861266666667","6501400","蘆洲區"
"236067","KEA-2877","2019/10/18 13:59:29","新北市土城區和平路54號","121.445163333333","24.9689566666667","6501300","土城區"
"236016","401-BY","2019/10/18 13:59:30","新北市土城區城林路6巷80號","121.438523333333","24.97973","6501300","土城區"
"236060","752-BX","2019/10/18 13:59:30","新北市土城區員福街32號","121.441178333333","24.9788133333333","6501300","土城區"
"236057","912-UM","2019/10/18 13:59:28","新北市土城區中央路三段250號","121.427688333333","24.964215","6501300","土城區"
"236045","913-UM","2019/10/18 13:59:21","新北市土城區城林路6巷80號","121.438516666667","24.9797433333333","6501300","土城區"
"236054","AAC-216","2019/10/18 13:59:16","新北市土城區城林路6巷80號","121.438363333333","24.9798183333333","6501300","土城區"
"220027","145-BY","2019/10/18 13:59:25","新北市板橋區大智街92號","121.45335","25.0156683333333","6500100","板橋區"
"220028","200-UY","2019/10/18 13:59:30","新北市板橋區大觀路二段265巷3弄7號","121.44318","24.9983366666667","6500100","板橋區"
"220030","610-BX","2019/10/18 13:59:17","新北市板橋區滿平街111號","121.428485","24.9885633333333","6500100","板橋區"
"220004","276-BY","2019/10/18 13:59:28","新北市板橋區信義路148號","121.458936666667","24.9918316666667","6500100","板橋區"
"220020","277-BY","2019/10/18 13:59:29","新北市板橋區大觀路三段50巷67-4號","121.43164","24.9962966666667","6500100","板橋區"
"220043","283-UM","2019/10/18 13:59:25","新北市板橋區光武街175號","121.465151666667","25.0302283333333","6500100","板橋區"
"220019","283-VK","2019/10/18 13:59:13","新北市板橋區重慶路245巷69號","121.465643333333","25.001045","6500100","板橋區"
"220050","285-UM","2019/10/18 13:59:20","新北市板橋區莊敬路220巷18號","121.472288333333","25.0206366666667","6500100","板橋區"
"220107","286-VK","2019/10/18 13:59:19","新北市板橋區大觀路一段38巷156弄2號","121.442338333333","25.00452","6500100","板橋區"
"220029","287-VK","2019/10/18 13:59:31","新北市板橋區光華街19巷1號","121.453733333333","25.0120883333333","6500100","板橋區"
"220039","288-VK","2019/10/18 13:59:19","新北市板橋區裕民街42號","121.461798333333","25.0288516666667","6500100","板橋區"
"220009","293-UM","2019/10/18 13:59:30","新北市板橋區三民路二段21巷17號","121.479941666667","25.0182516666667","6500100","板橋區"
"220001","295-UM","2019/10/18 13:59:19","新北市板橋區永豐街115號","121.47439","25.0195766666667","6500100","板橋區"
"220032","296-UM","2019/10/18 13:59:21","新北市板橋區篤行路一段29號","121.432013333333","24.99447","6500100","板橋區"
"220010","299-UM","2019/10/18 13:59:20","新北市板橋區三民路二段居仁巷2弄52號","121.480733333333","25.0129116666667","6500100","板橋區"
"220023","303-R5","2019/10/18 13:59:21","新北市板橋區南雅西路二段153號","121.452086666667","25.0120766666667","6500100","板橋區"
"220041","307-R5","2019/10/18 13:59:15","新北市板橋區文化路二段225巷60弄35號","121.469138333333","25.0292766666667","6500100","板橋區"
"220047","317-R6","2019/10/18 13:59:27","新北市板橋區莊敬路146巷18號","121.470328333333","25.0227583333333","6500100","板橋區"
"220038","487-VK","2019/10/18 13:59:31","新北市板橋區文化路二段260號","121.471196666667","25.0284816666667","6500100","板橋區"
"220037","491-VK","2019/10/18 13:59:24","新北市板橋區莊敬路38號","121.472835","25.0270466666667","6500100","板橋區"
"220104","560-BX","2019/10/18 13:59:26","新北市板橋區中正路341巷8號","121.454523333333","25.020355","6500100","板橋區"
"220052","561-BX","2019/10/18 13:59:22","新北市板橋區介壽街68號","121.46934","25.01942","6500100","板橋區"
"220011","609-BX","2019/10/18 13:59:16","新北市板橋區中山路二段311號","121.478856666667","25.0184266666667","6500100","板橋區"
"220040","637-BX","2019/10/18 13:59:30","新北市板橋區大同街26巷21號","121.47836","25.026665","6500100","板橋區"
"220005","686-BX","2019/10/18 13:59:13","新北市板橋區重慶路308號","121.463861666667","24.9981616666667","6500100","板橋區"
"220042","689-BX","2019/10/18 13:59:28","新北市板橋區民生路三段175號","121.465595","25.02728","6500100","板橋區"
"220002","741-BX","2019/10/18 13:59:20","新北市板橋區成都街60號","121.463105","25.0050733333333","6500100","板橋區"
"220051","KEA-2699","2019/10/18 13:59:25","新北市板橋區田單街2巷38號","121.48204","25.0275933333333","6500100","板橋區"
"220003","827-TW","2019/10/18 13:59:15","新北市板橋區中山路一段158巷14-3號","121.466186666667","25.0114","6500100","板橋區"
"220014","829-TW","2019/10/18 13:59:27","新北市板橋區中山路二段90巷43弄2號","121.47651","25.014665","6500100","板橋區"
"220016","831-TW","2019/10/18 13:59:25","新北市板橋區中山路二段465巷40弄2號","121.48122","25.0214566666667","6500100","板橋區"
"220025","833-TW","2019/10/18 13:59:21","新北市板橋區大觀路二段174巷153號","121.441528333333","25.0027183333333","6500100","板橋區"
"220022","895-R6","2019/10/18 13:59:16","新北市板橋區南雅南路一段81號","121.455641666667","25.0055583333333","6500100","板橋區"
"220021","985-R7","2019/10/18 13:59:23","新北市板橋區中正路23號","121.456238333333","25.0125883333333","6500100","板橋區"
"220046","AAC-210","2019/10/18 13:59:16","新北市板橋區新海路135巷39號","121.459441666667","25.0225233333333","6500100","板橋區"
"220012","AAC-253","2019/10/18 13:59:30","新北市板橋區板新路12號","121.474693333333","25.013085","6500100","板橋區"
"235032","KEA-2873","2019/10/18 13:59:29","新北市中和區連勝街24號","121.498388333333","24.99801","6500300","中和區"
"235025","KEA-2875","2019/10/18 13:59:30","新北市中和區員山路189號","121.48123","24.997345","6500300","中和區"
"235026","KEA-2876","2019/10/18 13:59:28","新北市中和區中山路二段380巷2號","121.490938333333","25.0043116666667","6500300","中和區"
