"lineid","car","time","location","longitude","latitude","cityid","cityname"
"234044","148-BY","2019/10/18 14:10:00","新北市永和區得和路321號","121.523423333333","24.999585","6500400","永和區"
"234078","298-R6","2019/10/18 14:09:59","新北市永和區國中路95號","121.524501666667","25.0061466666667","6500400","永和區"
"234036","336-UY","2019/10/18 14:09:48","新北市永和區成功路一段47巷15號","121.527573333333","25.0040216666667","6500400","永和區"
"234062","337-UY","2019/10/18 14:09:56","新北市永和區永利路152號","121.522443333333","25.00274","6500400","永和區"
"234084","338-UY","2019/10/18 14:09:58","新北市永和區中正路561號","121.51673","25.00845","6500400","永和區"
"234068","552-UM","2019/10/18 14:09:49","新北市永和區永貞路10巷14號","121.52014","25.0073233333333","6500400","永和區"
"234015","745-BX","2019/10/18 14:09:46","新北市永和區仁愛路71號","121.5133","25.0130183333333","6500400","永和區"
"234028","746-BX","2019/10/18 14:09:44","新北市永和區民權路51號","121.519963333333","24.9969983333333","6500400","永和區"
"234052","KEA-2590","2019/10/18 14:09:50","新北市永和區博愛街23號","121.517846666667","25.0158483333333","6500400","永和區"
"234005","KED-0605","2019/10/18 14:09:41","新北市永和區保平路196號","121.510185","25.0061933333333","6500400","永和區"
"234012","KEA-2591","2019/10/18 14:09:47","新北市永和區中山路一段240號","121.507541666667","25.007785","6500400","永和區"
"234060","AAD-866","2019/10/18 14:09:41","新北市永和區安樂路166號","121.5145","25.0008166666667","6500400","永和區"
"234040","862-TW","2019/10/18 14:09:46","新北市永和區雙和街64巷1號","121.509045","25.0035233333333","6500400","永和區"
"234048","863-TW","2019/10/18 14:09:56","新北市永和區環河西路二段85號","121.50668","25.0150266666667","6500400","永和區"
"234025","9371-KE","2019/10/18 14:09:48","新北市永和區安樂路274號","121.514633333333","25.0042333333333","6500400","永和區"
"234010","9373-KE","2019/10/18 14:10:00","新北市永和區保生路55號","121.504633333333","25.01078","6500400","永和區"
"248019","KED-0813","2019/10/18 13:58:03","新北市五股區凌雲路三段59-6號","121.425008333333","25.12498","6501500","五股區"
"234022","9380-KE","2019/10/18 14:09:49","新北市永和區博愛街32巷17-1號","121.51893","25.0151816666667","6500400","永和區"
"234076","969-R7","2019/10/18 14:09:52","新北市永和區民有街75巷10弄31號","121.51912","24.9961216666667","6500400","永和區"
"234072","AAC-211","2019/10/18 14:09:48","新北市永和區竹林路201巷22弄1號","121.52197","25.0093666666667","6500400","永和區"
"234066","AAC-212","2019/10/18 14:09:52","新北市永和區保平路232號","121.50934","25.0055316666667","6500400","永和區"
"234001","AAC-295","2019/10/18 14:09:58","新北市永和區中正路664號","121.516903333333","25.0088166666667","6500400","永和區"
"244004","657-BX","2019/10/18 14:09:43","新北市林口區南勢里34-8號","121.3523","25.0703533333333","6501700","林口區"
"231030","002-UM","2019/10/18 14:09:44","新北市新店區安民街65巷21-2號","121.515173333333","24.967525","6500600","新店區"
"231024","0291-UT","2019/10/18 14:09:45","新北市新店區安民街115巷18號","121.51517","24.967855","6500600","新店區"
"231005","046-UY","2019/10/18 14:09:42","新北市新店區中興路三段299號","121.542118333333","24.9852033333333","6500600","新店區"
"231029","106-UY","2019/10/18 14:09:57","新北市新店區安康路二段161號","121.510296666667","24.9593833333333","6500600","新店區"
"231018","107-UY","2019/10/18 14:09:50","新北市新店區中央五街22-1號","121.529166666667","24.9745883333333","6500600","新店區"
"231013","108-UY","2019/10/18 14:08:09","新北市新店區二十張路1巷2弄3號","121.540116666667","24.981955","6500600","新店區"
"231036","110-UY","2019/10/18 14:09:45","新北市新店區安祥路109巷29號","121.47641","24.9593533333333","6500600","新店區"
"231032","256-BX","2019/10/18 14:09:40","新北市新店區太平路28巷2號","121.533481666667","24.9587166666667","6500600","新店區"
"231023","260-TV","2019/10/18 14:09:50","新北市新店區文中路40號","121.539733333333","24.9565466666667","6500600","新店區"
"231003","268-BY","2019/10/18 14:09:47","新北市新店區中興路一段144號","121.542445","24.9637316666667","6500600","新店區"
"231035","278-BY","2019/10/18 14:09:43","新北市新店區安和路二段115號","121.518681666667","24.9704383333333","6500600","新店區"
"231016","AAD-862","2019/10/18 14:09:43","新北市新店區北宜路二段148號","121.557723333333","24.9536666666667","6500600","新店區"
"231006","355-BY","2019/10/18 14:09:47","新北市新店區北宜路二段211號","121.553198333333","24.9534016666667","6500600","新店區"
"231038","3712-VJ","2019/10/18 14:09:55","新北市新店區安康路一段50號","121.530231666667","24.9611516666667","6500600","新店區"
"231027","3713-VJ","2019/10/18 14:09:49","新北市新店區北宜路一段3號","121.538493333333","24.9586","6500600","新店區"
"231025","4715-K9","2019/10/18 14:09:44","新北市新店區自立街28號","121.538513333333","24.97838","6500600","新店區"
"231022","512-UM","2019/10/18 14:09:52","新北市新店區自強路125號","121.545991666667","24.9226916666667","6500600","新店區"
"231002","619-UM","2019/10/18 14:09:56","新北市新店區中正路487號","121.533823333333","24.9821533333333","6500600","新店區"
"231034","641-BX","2019/10/18 14:09:45","新北市新店區車子路116號","121.505355","24.9520016666667","6500600","新店區"
"231012","KED-0819","2019/10/18 14:09:48","新北市新店區中興路一段248號","121.544548333333","24.9656516666667","6500600","新店區"
"231028","897-TW","2019/10/18 14:09:54","新北市新店區安和路三段53號","121.517996666667","24.9827183333333","6500600","新店區"
"231001","898-TW","2019/10/18 14:09:54","新北市新店區三民路31-10號","121.53781","24.97052","6500600","新店區"
"231004","899-TW","2019/10/18 14:09:46","新北市新店區北新路二段158號","121.543016666667","24.9755683333333","6500600","新店區"
"231037","AKT-0513","2019/10/18 14:09:44","新北市新店區安康路三段165巷2弄6號","121.489335","24.951385","6500600","新店區"
"235030","003-UY","2019/10/18 14:09:59","新北市中和區中和路102號","121.50271","24.99973","6500300","中和區"
"235027","006-UY","2019/10/18 14:09:43","新北市中和區連勝街121巷18弄3號","121.495093333333","24.9943616666667","6500300","中和區"
"235020","096-UM","2019/10/18 14:09:42","新北市中和區新民街12號","121.482531666667","25.006115","6500300","中和區"
"235003","097-UM","2019/10/18 14:09:52","新北市中和區秀峰街119巷8弄14號","121.519018333333","24.9899766666667","6500300","中和區"
"235029","098-UM","2019/10/18 14:09:59","新北市中和區中山路二段64巷14弄20號","121.504135","25.00603","6500300","中和區"
"235004","150-BY","2019/10/18 14:09:45","新北市中和區宜安路49號","121.511793333333","24.9966033333333","6500300","中和區"
"235022","151-BY","2019/10/18 14:09:41","新北市中和區中正路637巷52弄7號","121.485178333333","24.9937083333333","6500300","中和區"
"235019","183-VK","2019/10/18 14:09:58","新北市中和區中山路三段177號","121.472835","25.0060633333333","6500300","中和區"
"235002","185-VK","2019/10/18 14:09:48","新北市中和區大仁街10巷27弄4號","121.519213333333","24.9927366666667","6500300","中和區"
"235031","255-BX","2019/10/18 14:09:48","新北市中和區連城路280號","121.484401666667","24.996305","6500300","中和區"
"235008","293-VK","2019/10/18 14:09:58","新北市中和區復興路348號","121.500081666667","24.9903933333333","6500300","中和區"
"235036","301-VK","2019/10/18 14:09:58","新北市中和區景平路720號","121.496701666667","25.002925","6500300","中和區"
"235007","352-BY","2019/10/18 14:09:49","新北市中和區景平路288號","121.513311666667","24.992675","6500300","中和區"
"235006","KEA-2878","2019/10/18 14:09:49","新北市永和區民有街65號","121.517746666667","24.99585","6500300","中和區"
"247015","KEA-2869","2019/10/18 14:09:56","新北市蘆洲區光華路46巷23號","121.468241666667","25.0837016666667","6501400","蘆洲區"
"247009","KED-0682","2019/10/18 14:09:51","新北市蘆洲區信義路285號","121.478713333333","25.0854983333333","6501400","蘆洲區"
"235014","4979-A6","2019/10/18 14:09:56","新北市中和區復興路280巷20號","121.50208","24.9916916666667","6500300","中和區"
"235033","4980-A6","2019/10/18 14:09:43","新北市中和區景平路736巷4號","121.497005","25.003875","6500300","中和區"
"235009","551-UM","2019/10/18 14:09:45","新北市中和區景新街437巷6號","121.513763333333","24.9890933333333","6500300","中和區"
"235034","558-UM","2019/10/18 14:09:54","新北市中和區中山路二段227號","121.498426666667","25.00252","6500300","中和區"
"235024","KED-0823","2019/10/18 14:09:44","新北市中和區中正路839巷29號","121.483588333333","25.0023166666667","6500300","中和區"
"235018","640-BX","2019/10/18 14:09:56","新北市中和區國光街112巷24弄1-3號","121.470443333333","25.002445","6500300","中和區"
"235011","732-UM","2019/10/18 14:09:56","新北市中和區興南路一段47號","121.510951666667","24.9903566666667","6500300","中和區"
"235010","733-UM","2019/10/18 14:09:53","新北市中和區華新街198號","121.50679","24.981955","6500300","中和區"
"235035","783-BX","2019/10/18 14:09:55","新北市中和區立德街72巷28號","121.487771666667","25.0084983333333","6500300","中和區"
"235021","801-TS","2019/10/18 14:09:50","新北市中和區中山路三段37巷25號","121.479416666667","25.005045","6500300","中和區"
"235005","802-TS","2019/10/18 14:09:53","新北市中和區宜安路118巷26號","121.51112","24.9988916666667","6500300","中和區"
"235016","805-TS","2019/10/18 14:09:46","新北市中和區興南路二段114巷2號","121.504341666667","24.984235","6500300","中和區"
"235012","896-TW","2019/10/18 14:09:49","新北市中和區工專路147號","121.50841","24.9787916666667","6500300","中和區"
"235017","900-TW","2019/10/18 14:09:52","新北市中和區華安街19巷4號","121.467146666667","24.9979366666667","6500300","中和區"
"235028","911-UM","2019/10/18 14:09:51","新北市中和區南山路27號","121.502123333333","24.9990166666667","6500300","中和區"
"235015","157-BY","2019/10/18 14:09:57","新北市中和區和平街2巷4弄1號","121.510046666667","24.9906716666667","6500300","中和區"
"235001","AAC-213","2019/10/18 14:09:48","新北市中和區秀朗路三段50巷12弄6號","121.524078333333","24.995255","6500300","中和區"
"235023","AAC-215","2019/10/18 14:09:53","新北市中和區圓通路423號","121.488318333333","24.9887766666667","6500300","中和區"
"220013","072-UY","2019/10/18 14:09:57","新北市板橋區民族路219巷7號","121.46939","25.0079316666667","6500100","板橋區"
"220034","073-UY","2019/10/18 14:09:58","新北市板橋區中正路236巷80號","121.458231666667","25.01944","6500100","板橋區"
"220105","075-UY","2019/10/18 14:09:50","新北市板橋區長江路二段279號","121.470211666667","25.03306","6500100","板橋區"
"220017","AAD-861","2019/10/18 14:09:57","新北市板橋區貴興路47號","121.45737","25.003455","6500100","板橋區"
"247005","893-R6","2019/10/18 14:10:01","新北市蘆洲區九芎街62號","121.466913333333","25.079","6501400","蘆洲區"
"247003","341-TH","2019/10/18 14:09:46","新北市蘆洲區長安街142號","121.460145","25.082215","6501400","蘆洲區"
"247023","057-VK","2019/10/18 14:09:57","新北市蘆洲區光榮路122號","121.464858333333","25.089295","6501400","蘆洲區"
"247013","056-VK","2019/10/18 14:09:57","新北市蘆洲區三民路121號","121.47243","25.0861766666667","6501400","蘆洲區"
"247017","053-VK","2019/10/18 14:09:56","新北市蘆洲區復興路111-6號","121.476555","25.0883616666667","6501400","蘆洲區"
"247021","007-UY","2019/10/18 14:09:58","新北市蘆洲區三民路222號","121.468926666667","25.089145","6501400","蘆洲區"
"247007","002-UY","2019/10/18 14:09:46","新北市蘆洲區中山一路333號","121.470686666667","25.0780833333333","6501400","蘆洲區"
"247001","001-UY","2019/10/18 14:09:47","新北市蘆洲區永平街65號","121.457271666667","25.0916433333333","6501400","蘆洲區"
"235013","251-BX","2019/10/18 14:09:44","新北市中和區景新街228-6號","121.508183333333","24.9941333333333","6500300","中和區"
"207002","749-BX","2019/10/18 14:09:49","新北市萬里區溪底里瑞泉路16號","121.605561666667","25.1448916666667","6502800","萬里區"
"207001","662-BX","2019/10/18 14:09:51","新北市萬里區磺潭里清水18號","121.637825","25.1977183333333","6502800","萬里區"
"236040","KED-0685","2019/10/18 14:09:53","新北市土城區裕生路88號","121.447386666667","24.9849833333333","6501300","土城區"
"236077","166-UM","2019/10/18 14:09:51","新北市土城區永和街5號","121.434628333333","24.9650666666667","6501300","土城區"
"236029","253-BX","2019/10/18 14:09:41","新北市土城區城林路6巷80號","121.438451666667","24.9797333333333","6501300","土城區"
"236024","269-VK","2019/10/18 14:09:59","新北市土城區承天路18號","121.43953","24.9634566666667","6501300","土城區"
"236013","270-VK","2019/10/18 14:09:41","新北市土城區青雲路39巷7號","121.460341666667","24.9875916666667","6501300","土城區"
"236032","271-VK","2019/10/18 14:09:45","新北市土城區明德路一段280-1號","121.457606666667","24.9774216666667","6501300","土城區"
"247011","KED-0683","2019/10/18 14:09:55","新北市蘆洲區信義路353號","121.477618333333","25.0874466666667","6501400","蘆洲區"
"236067","KEA-2877","2019/10/18 14:09:49","新北市土城區金城路一段84號","121.444688333333","24.973425","6501300","土城區"
"236016","401-BY","2019/10/18 14:09:50","新北市土城區中央路二段219-3號","121.441015","24.9738983333333","6501300","土城區"
"236060","752-BX","2019/10/18 14:09:30","新北市土城區金城路三段137號","121.468233333333","24.9880633333333","6501300","土城區"
"236057","912-UM","2019/10/18 14:09:44","新北市土城區中央路四段147號","121.415538333333","24.9571466666667","6501300","土城區"
"236045","913-UM","2019/10/18 14:10:01","新北市土城區明德路一段385-1號","121.452585","24.9796983333333","6501300","土城區"
"236054","AAC-216","2019/10/18 14:09:56","新北市土城區中華路二段92號","121.438256666667","24.9747916666667","6501300","土城區"
"220027","145-BY","2019/10/18 14:09:45","新北市板橋區中正路48號","121.456488333333","25.0140966666667","6500100","板橋區"
"220028","200-UY","2019/10/18 14:09:50","新北市板橋區大觀路二段7巷79號","121.449615","25.003175","6500100","板橋區"
"220030","610-BX","2019/10/18 14:09:58","新北市板橋區溪崑二街57號","121.428295","24.99075","6500100","板橋區"
"220004","276-BY","2019/10/18 14:09:48","新北市板橋區信義路148號","121.45894","24.991795","6500100","板橋區"
"220020","277-BY","2019/10/18 14:09:49","新北市板橋區金門街369巷10號","121.428856666667","24.98363","6500100","板橋區"
"220043","283-UM","2019/10/18 14:10:00","新北市板橋區吳鳳路19巷18號","121.466833333333","25.0307866666667","6500100","板橋區"
"220019","283-VK","2019/10/18 14:09:53","新北市板橋區重慶路245巷50弄61號","121.465293333333","24.9990416666667","6500100","板橋區"
"220050","285-UM","2019/10/18 14:09:41","新北市板橋區雙十路二段76巷2號","121.475051666667","25.0281833333333","6500100","板橋區"
"220107","286-VK","2019/10/18 14:09:39","新北市板橋區大觀路二段174巷173弄7號","121.441426666667","25.003745","6500100","板橋區"
"220029","287-VK","2019/10/18 14:09:52","新北市板橋區南雅西路二段130-1號","121.451973333333","25.0127516666667","6500100","板橋區"
"220039","288-VK","2019/10/18 14:09:51","新北市板橋區長江路一段106巷13弄6號","121.460306666667","25.0291783333333","6500100","板橋區"
"220009","293-UM","2019/10/18 14:09:50","新北市板橋區中山路二段391號","121.480343333333","25.0194416666667","6500100","板橋區"
"220001","295-UM","2019/10/18 14:09:59","新北市板橋區懷仁街23號","121.47642","25.019715","6500100","板橋區"
"220032","296-UM","2019/10/18 14:09:41","新北市板橋區溪崑二街57號","121.428211666667","24.9907416666667","6500100","板橋區"
"220010","299-UM","2019/10/18 14:07:20","新北市板橋區三民路二段居仁巷1弄55號","121.481025","25.0138016666667","6500100","板橋區"
"220023","303-R5","2019/10/18 14:09:41","新北市板橋區府中路141號","121.455683333333","25.0095166666667","6500100","板橋區"
"220041","307-R5","2019/10/18 14:09:55","新北市板橋區松江街72巷32號","121.46987","25.0277183333333","6500100","板橋區"
"220047","317-R6","2019/10/18 14:09:47","新北市板橋區民有街32號","121.465981666667","25.02541","6500100","板橋區"
"220038","487-VK","2019/10/18 14:09:51","新北市板橋區文化路一段309-1號","121.465885","25.0199966666667","6500100","板橋區"
"220037","491-VK","2019/10/18 14:09:51","新北市板橋區文化路二段182巷1弄2號","121.471163333333","25.0273333333333","6500100","板橋區"
"220104","560-BX","2019/10/18 14:09:46","新北市板橋區中正路415號","121.454295","25.0227616666667","6500100","板橋區"
"220052","561-BX","2019/10/18 14:10:02","新北市板橋區文化路一段188巷13號","121.466605","25.0194833333333","6500100","板橋區"
"220011","609-BX","2019/10/18 14:09:56","新北市板橋區三民路二段203-4號","121.479156666667","25.0135866666667","6500100","板橋區"
"220040","637-BX","2019/10/18 14:09:50","新北市板橋區縣民大道三段187巷3號","121.479246666667","25.0249183333333","6500100","板橋區"
"220005","686-BX","2019/10/18 14:09:53","新北市板橋區五權街8-3號","121.464241666667","24.994195","6500100","板橋區"
"220042","689-BX","2019/10/18 14:09:54","新北市板橋區漢生西路117號","121.462788333333","25.0203666666667","6500100","板橋區"
"220002","741-BX","2019/10/18 14:09:54","新北市板橋區重慶路76巷10號","121.461108333333","25.0063783333333","6500100","板橋區"
"220051","KEA-2699","2019/10/18 14:09:41","新北市板橋區文聖街205巷4號","121.48005","25.0265316666667","6500100","板橋區"
"220003","827-TW","2019/10/18 14:09:55","新北市板橋區新民街35號","121.464166666667","25.0105533333333","6500100","板橋區"
"220014","829-TW","2019/10/18 14:10:02","新北市板橋區民享街116巷1-3號","121.478065","25.0157166666667","6500100","板橋區"
"220016","831-TW","2019/10/18 14:09:50","新北市板橋區翠華街6巷29號","121.481415","25.0244733333333","6500100","板橋區"
"220025","833-TW","2019/10/18 14:09:45","新北市板橋區龍興街48號","121.44322","25.0009383333333","6500100","板橋區"
"220022","895-R6","2019/10/18 14:09:56","新北市板橋區林園街13號","121.453881666667","25.0095916666667","6500100","板橋區"
"220021","985-R7","2019/10/18 14:09:53","新北市板橋區中正路140號","121.456963333333","25.01602","6500100","板橋區"
"220046","AAC-210","2019/10/18 14:09:55","新北市板橋區幸福路60巷77-2號","121.459816666667","25.0221183333333","6500100","板橋區"
"220012","AAC-253","2019/10/18 14:09:57","新北市板橋區縣民大道二段７號","121.464723333333","25.01406","6500100","板橋區"
"235032","KEA-2873","2019/10/18 14:09:59","新北市中和區景平路491號","121.500175","24.99776","6500300","中和區"
"235025","KEA-2875","2019/10/18 14:09:29","新北市中和區民利街69號","121.478813333333","24.9983066666667","6500300","中和區"
"235026","KEA-2876","2019/10/18 14:09:58","新北市中和區中山路二段450號","121.488908333333","25.0043833333333","6500300","中和區"
