"lineid","car","time","location","longitude","latitude","cityid","cityname"
"249005","172-UM","2019/10/18 16:59:17","新北市八里區渡船頭3-7號","121.434423333333","25.1534433333333","6502300","八里區"
"249001","173-UM","2019/10/18 16:59:15","新北市八里區中山路三段106號","121.391045","25.1422283333333","6502300","八里區"
"249004","303-UY","2019/10/18 16:59:13","新北市八里區仁愛路10號","121.413188333333","25.1622483333333","6502300","八里區"
"249002","305-UY","2019/10/18 16:59:14","新北市八里區牛寮埔21號","121.432248333333","25.1432383333333","6502300","八里區"
"249003","593-UM","2019/10/18 16:59:32","新北市八里區中山路二段283號","121.40158","25.148645","6502300","八里區"
"244017","485-VK","2019/10/18 16:59:15","新北市林口區粉寮69號","121.405081666667","25.0908033333333","6501700","林口區"
"244025","837-TS","2019/10/18 16:59:31","新北市林口區粉寮69號","121.405118333333","25.0907833333333","6501700","林口區"
"244021","838-TS","2019/10/18 16:59:16","新北市林口區粉寮69號","121.404781666667","25.0907866666667","6501700","林口區"
"231046","719-UM","2019/10/18 16:59:23","新北市新店區灣潭路15-2號","121.542616666667","24.9427416666667","6500600","新店區"
"241011","013-R5","2019/10/18 16:59:11","新北市三重區龍門路89號","121.49722","25.072465","6500200","三重區"
"241028","022-UY","2019/10/18 16:59:18","新北市三重區中正南路41巷1號","121.493903333333","25.0598433333333","6500200","三重區"
"241008","059-VK","2019/10/18 16:59:28","新北市三重區力行路二段136巷49弄4號","121.479368333333","25.0751866666667","6500200","三重區"
"241002","060-VK","2019/10/18 16:59:13","新北市三重區仁義街101巷2號","121.497601666667","25.080245","6500200","三重區"
"241031","061-VK","2019/10/18 16:59:30","新北市三重區三寧街18號","121.489353333333","25.0598316666667","6500200","三重區"
"241015","062-VK","2019/10/18 16:58:58","新北市三重區長安街50號","121.50039","25.0672183333333","6500200","三重區"
"241017","063-VK","2019/10/18 16:59:17","新北市三重區國隆路12巷12號","121.492746666667","25.0637","6500200","三重區"
"241024","065-VK","2019/10/18 16:59:18","新北市三重區大勇街82巷15弄28號","121.481018333333","25.0719516666667","6500200","三重區"
"241007","066-VK","2019/10/18 16:59:21","新北市三重區三和路四段145巷171號","121.48794","25.0791266666667","6500200","三重區"
"241003","091-VK","2019/10/18 16:59:29","新北市三重區五華街141巷58號","121.49357","25.0867916666667","6500200","三重區"
"241006","262-UM","2019/10/18 16:59:28","新北市三重區車路頭街117巷35號","121.485205","25.0755816666667","6500200","三重區"
"241016","266-UM","2019/10/18 16:59:11","新北市三重區大同北路133巷1號","121.493093333333","25.0643966666667","6500200","三重區"
"241009","267-UM","2019/10/18 16:59:18","新北市三重區三和路四段215巷66號","121.484018333333","25.0803733333333","6500200","三重區"
"241018","268-UM","2019/10/18 16:59:23","新北市三重區六張街126巷4弄4號","121.492283333333","25.0690583333333","6500200","三重區"
"241032","269-UM","2019/10/18 16:59:25","新北市三重區新北大道一段35巷10號","121.485951666667","25.0608666666667","6500200","三重區"
"241013","270-UM","2019/10/18 16:59:27","新北市三重區仁昌街40號","121.497216666667","25.0742816666667","6500200","三重區"
"241025","271-UM","2019/10/18 16:59:30","新北市三重區中正北路510號","121.472626666667","25.0714866666667","6500200","三重區"
"241030","KED-0822","2019/10/18 16:59:22","新北市三重區昌隆街72號","121.49088","25.0507183333333","6500200","三重區"
"241004","475-VK","2019/10/18 16:59:24","新北市三重區五華街92-1號","121.492758333333","25.0824583333333","6500200","三重區"
"241020","478-VK","2019/10/18 16:59:25","新北市三重區國道路一段5號","121.486306666667","25.07346","6500200","三重區"
"241026","480-VK","2019/10/18 16:59:30","新北市三重區光興街9號","121.50014","25.0603716666667","6500200","三重區"
"241014","543-UM","2019/10/18 16:59:11","新北市三重區三和路二段173巷143號","121.501015","25.0706533333333","6500200","三重區"
"241023","545-UM","2019/10/18 16:59:17","新北市三重區忠孝路三段126號","121.480188333333","25.0637216666667","6500200","三重區"
"241001","547-UM","2019/10/18 16:59:20","新北市三重區仁愛街245巷10號","121.493786666667","25.0781933333333","6500200","三重區"
"241019","KEA-2593","2019/10/18 16:59:19","新北市三重區自強路二段74巷19號","121.488008333333","25.0698766666667","6500200","三重區"
"241005","AAD-863","2019/10/18 16:59:24","新北市三重區永安北路二段25巷11號","121.482505","25.081645","6500200","三重區"
"241012","743-BX","2019/10/18 16:59:23","新北市三重區仁和街163號","121.499828333333","25.0746983333333","6500200","三重區"
"241022","KED-0820","2019/10/18 16:59:28","新北市三重區三民街155巷2號","121.48389","25.064455","6500200","三重區"
"241029","942-UM","2019/10/18 16:59:28","新北市三重區環河南路220-8號","121.493371666667","25.052795","6500200","三重區"
"241033","AAC-255","2019/10/18 16:59:30","新北市三重區中興北街271號","121.469105","25.0605983333333","6500200","三重區"
"247016","KEA-2869","2019/10/18 16:59:28","新北市蘆洲區中正路67號","121.470265","25.082715","6501400","蘆洲區"
"247010","KED-0682","2019/10/18 16:59:19","新北市蘆洲區信義路170號","121.479286666667","25.0838316666667","6501400","蘆洲區"
"235054","640-BX","2019/10/18 16:50:03","新北市中和區員山路36巷16-2號","121.485245","24.9915933333333","6500300","中和區"
"247006","893-R6","2019/10/18 16:59:24","新北市蘆洲區長安街99巷31號","121.460711666667","25.0796983333333","6501400","蘆洲區"
"247004","341-TH","2019/10/18 16:59:25","新北市蘆洲區長安街110號","121.46109","25.081615","6501400","蘆洲區"
"247020","337-TH","2019/10/18 16:59:32","新北市蘆洲區民族路422巷33弄2號","121.473336666667","25.0936433333333","6501400","蘆洲區"
"247024","057-VK","2019/10/18 16:59:25","新北市蘆洲區長興路202號","121.460541666667","25.0874866666667","6501400","蘆洲區"
"247014","056-VK","2019/10/18 16:59:19","新北市蘆洲區三民路1號","121.475878333333","25.0817116666667","6501400","蘆洲區"
"247018","053-VK","2019/10/18 16:59:28","新北市蘆洲區民族路304號","121.477563333333","25.0899866666667","6501400","蘆洲區"
"247022","007-UY","2019/10/18 16:59:27","新北市蘆洲區三民路128巷140號","121.46857","25.0921866666667","6501400","蘆洲區"
"247008","002-UY","2019/10/18 16:59:19","新北市蘆洲區中山一路197巷26號","121.47497","25.0799083333333","6501400","蘆洲區"
"247002","001-UY","2019/10/18 16:59:30","新北市蘆洲區永平街16號","121.459215","25.09062","6501400","蘆洲區"
"228002","663-BX","2019/10/18 16:59:28","新北市貢寮區貢寮里長泰路28號","121.901501666667","25.024035","6502600","貢寮區"
"228001","670-TC","2019/10/18 16:59:23","新北市貢寮區貢寮里朝陽街1-2號","121.912306666667","25.0212516666667","6502600","貢寮區"
"228003","828-UM","2019/10/18 16:59:25","新北市貢寮區福隆里興隆街21-1號","121.943373333333","25.0164616666667","6502600","貢寮區"
"224006","676-BX","2019/10/18 16:59:15","新北市瑞芳區傑魚坑路314號","121.7867","25.105365","6501200","瑞芳區"
"224007","285-BY","2019/10/18 16:59:31","新北市瑞芳區粗坑口路104號","121.759645","25.099465","6501200","瑞芳區"
"224009","275-VK","2019/10/18 16:59:26","新北市瑞芳區明燈路一段1號","121.826553333333","25.1093466666667","6501200","瑞芳區"
"224008","273-VK","2019/10/18 16:59:23","新北市瑞芳區明燈路一段267號","121.816726666667","25.1085116666667","6501200","瑞芳區"
"224005","271-BY","2019/10/18 16:59:27","新北市瑞芳區鼻頭路229-1號","121.913905","25.12403","6501200","瑞芳區"
"227002","642-TC","2019/10/18 16:59:28","新北市雙溪區上林里內平林110號","121.826536666667","25.027055","6502500","雙溪區"
"227001","400-TW","2019/10/18 16:59:17","新北市雙溪區三貂里十三層9-5號","121.853691666667","25.0780433333333","6502500","雙溪區"
"251005","010-UM","2019/10/18 16:59:19","新北市淡水區原德路25號","121.442203333333","25.1714533333333","6501000","淡水區"
"251004","180-VK","2019/10/18 16:59:22","新北市淡水區真理街4號","121.438493333333","25.1729033333333","6501000","淡水區"
"251008","181-VK","2019/10/18 16:59:16","新北市淡水區樹梅坑9號","121.472823333333","25.1425866666667","6501000","淡水區"
"251012","441-VK","2019/10/18 16:59:23","新北市淡水區中正路二段31號","121.419381666667","25.1816683333333","6501000","淡水區"
"251007","442-VK","2019/10/18 16:59:25","新北市淡水區中正東路36號","121.448688333333","25.1657816666667","6501000","淡水區"
"251006","561-UM","2019/10/18 16:59:18","新北市淡水區中正路二段31號","121.419283333333","25.181815","6501000","淡水區"
"251009","575-R6","2019/10/18 16:59:15","新北市淡水區中正路二段31號","121.419518333333","25.181615","6501000","淡水區"
"251011","650-BX","2019/10/18 16:59:19","新北市淡水區中正東路一段64號","121.452821666667","25.16193","6501000","淡水區"
"251002","672-BX","2019/10/18 16:56:23","新北市淡水區中正路二段31號","121.419418333333","25.18169","6501000","淡水區"
"252002","178-VK","2019/10/18 16:59:21","新北市三芝區忠孝街146號","121.506111666667","25.25829","6502100","三芝區"
"233002","762-BX","2019/10/18 16:59:16","新北市烏來區環山路131-1號","121.549191666667","24.8596433333333","6502900","烏來區"
"247012","KED-0683","2019/10/18 16:59:22","新北市蘆洲區信義路355號","121.477601666667","25.0874866666667","6501400","蘆洲區"
"252001","KED-0821","2019/10/18 16:59:31","新北市三芝區淡金路二段38-1號","121.503188333333","25.2601833333333","6502100","三芝區"
"242041","AAC-296","2019/10/18 16:59:24","新北市新莊區新泰路357巷3弄57號","121.442073333333","25.0395333333333","6500500","新莊區"
"242005","751-BX","2019/10/18 16:59:15","新北市新莊區新泰路255巷83號","121.442325","25.0387283333333","6500500","新莊區"
"242029","615-BX","2019/10/18 16:59:13","新北市新莊區新泰路357巷3弄57號","121.442","25.0392883333333","6500500","新莊區"
"242027","613-BX","2019/10/18 16:59:13","新北市新莊區新泰路255巷83號","121.442238333333","25.0391583333333","6500500","新莊區"
"242058","612-BX","2019/10/18 16:59:22","新北市新莊區新泰路357巷3弄57號","121.442246666667","25.039225","6500500","新莊區"
"242025","362-BY","2019/10/18 16:59:13","新北市新莊區新泰路255巷83號","121.442045","25.0389883333333","6500500","新莊區"
"242032","175-VK","2019/10/18 16:59:17","新北市新莊區三和路12-21號","121.442033333333","25.0386783333333","6500500","新莊區"
"242019","176-VK","2019/10/18 16:59:14","新北市新莊區三和路18-25號","121.441651666667","25.0395033333333","6500500","新莊區"
"242021","KED-0687","2019/10/18 16:59:30","新北市新莊區三和路12-20號","121.442348333333","25.0378383333333","6500500","新莊區"
"242044","346-TH","2019/10/18 16:59:15","新北市新莊區三和路12-21號","121.44205","25.03829","6500500","新莊區"
"242037","348-TH","2019/10/18 16:59:23","新北市新莊區新泰路255巷83號","121.442055","25.038865","6500500","新莊區"
"242009","349-TH","2019/10/18 16:59:29","新北市新莊區三和路12-21號","121.442336666667","25.0381966666667","6500500","新莊區"
"242034","350-TH","2019/10/18 16:59:20","新北市新莊區新泰路255巷83號","121.44206","25.03899","6500500","新莊區"
"238015","755-BX","2019/10/18 16:59:14","新北市樹林區育德街78-1號","121.388025","24.9679783333333","6500700","樹林區"
"238018","KEA-2217","2019/10/18 16:59:22","新北市樹林區育德街78-1號","121.387945","24.9680033333333","6500700","樹林區"
"238017","283-BY","2019/10/18 16:59:16","新北市樹林區八德街224號","121.415541666667","24.971805","6500700","樹林區"
"239007","AAC-297","2019/10/18 16:59:17","新北市鶯歌區二甲路13-16號","121.345023333333","24.9351733333333","6500800","鶯歌區"
"239006","891-R6","2019/10/18 16:49:26","新北市鶯歌區二甲路13號","121.343936666667","24.93553","6500800","鶯歌區"
"239008","527-UM","2019/10/18 16:59:19","新北市鶯歌區二甲路13-16號","121.344913333333","24.9351566666667","6500800","鶯歌區"
"239005","526-UM","2019/10/18 16:59:27","新北市鶯歌區二甲路12-2號","121.345513333333","24.93503","6500800","鶯歌區"
"233001","KEA-2870","2019/10/18 16:59:11","新北市烏來區西羅岸路45號","121.54648","24.8636216666667","6502900","烏來區"
"242011","280-VK","2019/10/18 16:59:20","新北市新莊區三和路12-21號","121.44203","25.03832","6500500","新莊區"
