"lineid","car","time","location","longitude","latitude","cityid","cityname"
"249005","172-UM","2019/10/18 17:09:17","新北市八里區華富山9號","121.420061666667","25.1402183333333","6502300","八里區"
"249001","173-UM","2019/10/18 17:09:15","新北市八里區中華路二段316號","121.403716666667","25.1482","6502300","八里區"
"249004","303-UY","2019/10/18 17:09:13","新北市八里區忠孝路152號","121.423826666667","25.16078","6502300","八里區"
"249002","305-UY","2019/10/18 17:09:13","新北市八里區米倉18號","121.440358333333","25.1498566666667","6502300","八里區"
"249003","593-UM","2019/10/18 17:09:11","新北市八里區中山路二段407號","121.397685","25.14658","6502300","八里區"
"244007","080-UY","2019/10/18 17:09:20","新北市林口區菁埔路33號","121.377563333333","25.09705","6501700","林口區"
"244019","402-UM","2019/10/18 17:09:16","新北市林口區文化北路一段200號","121.379113333333","25.075285","6501700","林口區"
"244023","483-VK","2019/10/18 17:09:25","新北市林口區仁愛路一段330號","121.391471666667","25.0764266666667","6501700","林口區"
"244017","485-VK","2019/10/18 17:09:15","新北市林口區粉寮69號","121.405065","25.0908066666667","6501700","林口區"
"244009","656-BX","2019/10/18 17:07:38","新北市林口區中華路96號","121.384766666667","25.0904416666667","6501700","林口區"
"244025","837-TS","2019/10/18 17:09:11","新北市林口區中山路206號","121.386768333333","25.0793433333333","6501700","林口區"
"244021","838-TS","2019/10/18 17:09:16","新北市林口區粉寮路160巷11號","121.405425","25.093005","6501700","林口區"
"231046","719-UM","2019/10/18 17:02:03","新北市新店區灣潭路16號","121.539168333333","24.9455683333333","6500600","新店區"
"241011","013-R5","2019/10/18 17:09:11","新北市三重區河邊北街100巷4號","121.503698333333","25.0703716666667","6500200","三重區"
"241028","022-UY","2019/10/18 17:09:18","新北市三重區重新路三段102號","121.492593333333","25.06051","6500200","三重區"
"241008","059-VK","2019/10/18 17:09:23","新北市三重區力行路二段138-1號","121.48237","25.07576","6500200","三重區"
"241002","060-VK","2019/10/18 17:09:13","新北市三重區五華街35巷54號","121.495713333333","25.0816166666667","6500200","三重區"
"241031","061-VK","2019/10/18 17:09:30","新北市三重區重陽路一段113巷1弄1號","121.487408333333","25.0597583333333","6500200","三重區"
"241015","062-VK","2019/10/18 17:09:18","新北市三重區長生街56號","121.500693333333","25.0666866666667","6500200","三重區"
"241017","063-VK","2019/10/18 17:09:17","新北市三重區國隆路26號","121.492385","25.06424","6500200","三重區"
"241024","065-VK","2019/10/18 17:09:19","新北市三重區大勇街82巷9號","121.479478333333","25.0715983333333","6500200","三重區"
"241007","066-VK","2019/10/18 17:09:21","新北市三重區三和路四段163巷4號","121.483505","25.0786933333333","6500200","三重區"
"241003","091-VK","2019/10/18 17:09:29","新北市三重區富福街101號","121.493263333333","25.0854483333333","6500200","三重區"
"241006","262-UM","2019/10/18 17:09:28","新北市三重區三和路四段274巷14號","121.484876666667","25.0769966666667","6500200","三重區"
"241016","266-UM","2019/10/18 17:09:11","新北市三重區中正北路25巷2號","121.493093333333","25.062725","6500200","三重區"
"241009","267-UM","2019/10/18 17:09:17","新北市三重區三和路四段231巷51號","121.482476666667","25.0802716666667","6500200","三重區"
"241018","268-UM","2019/10/18 17:09:23","新北市三重區重陽路四段37號","121.491905","25.06967","6500200","三重區"
"241032","269-UM","2019/10/18 17:09:25","新北市三重區興華街28號","121.485601666667","25.059705","6500200","三重區"
"241013","270-UM","2019/10/18 17:09:27","新北市三重區仁愛街115號","121.495533333333","25.0742566666667","6500200","三重區"
"241025","271-UM","2019/10/18 17:09:17","新北市三重區中正北路560巷89號","121.470931666667","25.06848","6500200","三重區"
"241030","KED-0822","2019/10/18 17:09:22","新北市三重區集美街105號","121.489138333333","25.0527966666667","6500200","三重區"
"241004","475-VK","2019/10/18 17:09:24","新北市三重區五華街96號","121.49261","25.0822766666667","6500200","三重區"
"241020","478-VK","2019/10/18 17:09:19","新北市三重區自強路三段29號","121.487048333333","25.072455","6500200","三重區"
"241026","480-VK","2019/10/18 17:09:10","新北市三重區重新路一段51-3號","121.50175","25.0638066666667","6500200","三重區"
"241014","543-UM","2019/10/18 17:09:11","新北市三重區龍濱路120-3號","121.501833333333","25.0711633333333","6500200","三重區"
"241023","545-UM","2019/10/18 17:09:17","新北市三重區忠孝路三段126號","121.480181666667","25.063705","6500200","三重區"
"241001","547-UM","2019/10/18 17:09:20","新北市三重區仁愛街269巷6-1號","121.493288333333","25.0789133333333","6500200","三重區"
"241019","KEA-2593","2019/10/18 17:09:19","新北市三重區自強路二段74巷63號","121.487048333333","25.06948","6500200","三重區"
"241005","AAD-863","2019/10/18 17:09:29","新北市蘆洲區永安北路二段32號","121.481673333333","25.0811266666667","6500200","三重區"
"241012","743-BX","2019/10/18 17:09:23","新北市三重區仁壽街200號","121.500971666667","25.07484","6500200","三重區"
"241022","KED-0820","2019/10/18 17:09:28","新北市三重區重陽路二段34巷66號","121.485038333333","25.0640483333333","6500200","三重區"
"241029","942-UM","2019/10/18 17:09:28","新北市三重區重新路三段103號","121.49143","25.0598533333333","6500200","三重區"
"241033","AAC-255","2019/10/18 17:09:10","新北市三重區中興北街271號","121.46909","25.0605866666667","6500200","三重區"
"247016","KEA-2869","2019/10/18 17:09:28","新北市蘆洲區光華路73巷17號","121.468451666667","25.0823166666667","6501400","蘆洲區"
"247010","KED-0682","2019/10/18 17:09:19","新北市蘆洲區民族路14號","121.47587","25.084065","6501400","蘆洲區"
"235054","640-BX","2019/10/18 16:50:03","新北市中和區員山路36巷16-2號","121.485245","24.9915933333333","6500300","中和區"
"247006","893-R6","2019/10/18 17:09:24","新北市蘆洲區長安街102巷65號","121.462805","25.08214","6501400","蘆洲區"
"247004","341-TH","2019/10/18 17:09:25","新北市蘆洲區長安街201-1號","121.460198333333","25.0819366666667","6501400","蘆洲區"
"247020","337-TH","2019/10/18 17:09:21","新北市蘆洲區仁愛街64號","121.47145","25.09402","6501400","蘆洲區"
"247024","057-VK","2019/10/18 17:09:25","新北市蘆洲區光華路188號","121.464758333333","25.0821533333333","6501400","蘆洲區"
"247014","056-VK","2019/10/18 17:09:19","新北市蘆洲區得勝街50-1號","121.47308","25.0835466666667","6501400","蘆洲區"
"247018","053-VK","2019/10/18 17:09:28","新北市蘆洲區復興路158號","121.477376666667","25.08808","6501400","蘆洲區"
"247022","007-UY","2019/10/18 17:09:27","新北市蘆洲區水湳街95號","121.47018","25.0901883333333","6501400","蘆洲區"
"247008","002-UY","2019/10/18 17:09:19","新北市蘆洲區民生街53號","121.47484","25.0787666666667","6501400","蘆洲區"
"247002","001-UY","2019/10/18 17:09:30","新北市蘆洲區永樂街108號","121.455696666667","25.0889066666667","6501400","蘆洲區"
"228002","663-BX","2019/10/18 17:09:28","新北市貢寮區龍崗里泮宮路1號","121.907643333333","25.0183083333333","6502600","貢寮區"
"228001","670-TC","2019/10/18 17:09:23","新北市貢寮區龍門里復興街46-2號","121.92885","25.03032","6502600","貢寮區"
"228003","828-UM","2019/10/18 17:09:25","新北市貢寮區福隆里東興街6-14號","121.95208","25.0205316666667","6502600","貢寮區"
"224006","676-BX","2019/10/18 17:09:15","新北市瑞芳區大寮路101-2號","121.778221666667","25.0992966666667","6501200","瑞芳區"
"224009","275-VK","2019/10/18 17:09:26","新北市瑞芳區輕便路136號","121.842698333333","25.113345","6501200","瑞芳區"
"224008","273-VK","2019/10/18 17:09:23","新北市瑞芳區九芎橋路14號","121.83191","25.0908666666667","6501200","瑞芳區"
"224005","271-BY","2019/10/18 17:09:27","新北市瑞芳區鼻頭路247號","121.912695","25.1239266666667","6501200","瑞芳區"
"227002","642-TC","2019/10/18 17:09:28","新北市雙溪區上林里新寮子1號","121.840441666667","25.0318033333333","6502500","雙溪區"
"251005","010-UM","2019/10/18 17:09:19","新北市淡水區鄧公路19-1號","121.450263333333","25.1699633333333","6501000","淡水區"
"251004","180-VK","2019/10/18 17:09:16","新北市淡水區中正東路36-1號","121.44889","25.1657316666667","6501000","淡水區"
"251008","181-VK","2019/10/18 17:09:16","新北市淡水區樹梅坑7-6號","121.471731666667","25.1440833333333","6501000","淡水區"
"251010","413-VK","2019/10/18 17:09:28","新北市淡水區中正路二段31號","121.419471666667","25.1814316666667","6501000","淡水區"
"251012","441-VK","2019/10/18 17:09:23","新北市淡水區中山北路一段173號","121.443641666667","25.177725","6501000","淡水區"
"251007","442-VK","2019/10/18 17:09:29","新北市淡水區中正東路二段129號","121.459498333333","25.1491966666667","6501000","淡水區"
"251006","561-UM","2019/10/18 17:09:18","新北市淡水區新民街19巷12號","121.438433333333","25.174725","6501000","淡水區"
"251009","575-R6","2019/10/18 17:09:15","新北市淡水區中正路二段12號","121.42044","25.180665","6501000","淡水區"
"251011","650-BX","2019/10/18 17:09:19","新北市淡水區坪頂路50號","121.45801","25.1625733333333","6501000","淡水區"
"251002","672-BX","2019/10/18 17:09:17","新北市淡水區中正路二段31號","121.419371666667","25.181555","6501000","淡水區"
"252002","178-VK","2019/10/18 17:09:21","新北市三芝區忠孝街1-15號","121.505598333333","25.2539633333333","6502100","三芝區"
"233002","762-BX","2019/10/18 17:09:16","新北市烏來區環山路181-1號","121.549341666667","24.854045","6502900","烏來區"
"247012","KED-0683","2019/10/18 17:09:22","新北市蘆洲區信義路264號","121.478206666667","25.0868416666667","6501400","蘆洲區"
"252001","KED-0821","2019/10/18 17:09:31","新北市三芝區淡金路一段4-5號","121.497965","25.2599883333333","6502100","三芝區"
"242041","AAC-296","2019/10/18 17:09:24","新北市新莊區三和路12-21號","121.44217","25.03852","6500500","新莊區"
"242005","751-BX","2019/10/18 17:09:15","新北市新莊區新泰路255巷83號","121.442245","25.03878","6500500","新莊區"
"242029","615-BX","2019/10/18 17:09:13","新北市新莊區新泰路357巷3弄57號","121.442133333333","25.0392516666667","6500500","新莊區"
"242027","613-BX","2019/10/18 17:09:13","新北市新莊區新泰路255巷83號","121.442205","25.0391233333333","6500500","新莊區"
"242058","612-BX","2019/10/18 17:09:22","新北市新莊區新泰路357巷3弄57號","121.442208333333","25.03928","6500500","新莊區"
"242054","497-BY","2019/10/18 17:09:15","新北市新莊區中正路471號","121.442015","25.033485","6500500","新莊區"
"242007","440-UM","2019/10/18 17:09:15","新北市新莊區三和路12-21號","121.44221","25.0386816666667","6500500","新莊區"
"242013","413-TV","2019/10/18 17:09:16","新北市新莊區新泰路357巷3弄57號","121.441856666667","25.0394166666667","6500500","新莊區"
"242051","400-BY","2019/10/18 17:09:16","新北市新莊區新泰路255巷83號","121.442251666667","25.0390433333333","6500500","新莊區"
"242025","362-BY","2019/10/18 17:09:13","新北市新莊區新泰路357巷3弄57號","121.442038333333","25.039035","6500500","新莊區"
"242015","132-UY","2019/10/18 17:09:28","新北市新莊區三和路12-21號","121.442123333333","25.0386516666667","6500500","新莊區"
"242039","135-UY","2019/10/18 17:09:18","新北市新莊區三和路12-21號","121.442033333333","25.03864","6500500","新莊區"
"242017","173-VK","2019/10/18 17:09:18","新北市新莊區三和路12-21號","121.442073333333","25.0387366666667","6500500","新莊區"
"242032","175-VK","2019/10/18 17:09:17","新北市新莊區三和路12-21號","121.442063333333","25.03869","6500500","新莊區"
"242019","176-VK","2019/10/18 17:09:14","新北市新莊區新泰路357巷3弄57號","121.441876666667","25.0394933333333","6500500","新莊區"
"242021","KED-0687","2019/10/18 17:09:10","新北市新莊區三和路12-21號","121.442201666667","25.038095","6500500","新莊區"
"242044","346-TH","2019/10/18 17:09:15","新北市新莊區三和路12-13號","121.441916666667","25.0371383333333","6500500","新莊區"
"242037","348-TH","2019/10/18 17:09:23","新北市新莊區新泰路255巷83號","121.442083333333","25.0388616666667","6500500","新莊區"
"242009","349-TH","2019/10/18 17:09:09","新北市新莊區三和路12-21號","121.442238333333","25.0382733333333","6500500","新莊區"
"242034","350-TH","2019/10/18 17:09:20","新北市新莊區新泰路255巷83號","121.442088333333","25.0389033333333","6500500","新莊區"
"238015","755-BX","2019/10/18 17:09:14","新北市樹林區大安路495號","121.414298333333","24.986655","6500700","樹林區"
"238018","KEA-2217","2019/10/18 17:09:22","新北市樹林區水源街71號","121.425581666667","24.98171","6500700","樹林區"
"238017","283-BY","2019/10/18 17:09:16","新北市樹林區保安街一段220號","121.420583333333","24.9963466666667","6500700","樹林區"
"238014","282-BY","2019/10/18 17:09:24","新北市樹林區中山路二段121號","121.40851","24.9799983333333","6500700","樹林區"
"239007","AAC-297","2019/10/18 17:09:25","新北市鶯歌區信義街117號","121.353426666667","24.954605","6500800","鶯歌區"
"239006","891-R6","2019/10/18 16:49:26","新北市鶯歌區二甲路13號","121.343936666667","24.93553","6500800","鶯歌區"
"239008","527-UM","2019/10/18 17:09:19","新北市鶯歌區尖山路103號","121.348208333333","24.9492233333333","6500800","鶯歌區"
"239005","526-UM","2019/10/18 17:09:27","新北市鶯歌區德昌二街29號","121.333268333333","24.9589066666667","6500800","鶯歌區"
"239001","417-VK","2019/10/18 17:09:17","新北市鶯歌區尖山路142號","121.346588333333","24.9488766666667","6500800","鶯歌區"
"239002","359-BY","2019/10/18 17:09:19","新北市鶯歌區建國路151號","121.350455","24.9535516666667","6500800","鶯歌區"
"239004","193-VK","2019/10/18 17:09:32","新北市鶯歌區文化路324巷11弄2號","121.350326666667","24.944895","6500800","鶯歌區"
"233001","KEA-2870","2019/10/18 17:09:31","新北市烏來區溫泉街86巷1號","121.551181666667","24.8616483333333","6502900","烏來區"
"242011","280-VK","2019/10/18 17:09:20","新北市新莊區三和路12-21號","121.442055","25.03833","6500500","新莊區"
