"lineid","car","time","location","longitude","latitude","cityid","cityname"
"234026","9371-KE","2019/10/18 17:39:28","新北市永和區永和路一段149-1號","121.514158333333","25.0091883333333","6500400","永和區"
"249005","172-UM","2019/10/18 17:39:17","新北市八里區荖阡坑路34-1號","121.402743333333","25.129795","6502300","八里區"
"249001","173-UM","2019/10/18 17:39:15","新北市八里區龍米路二段150號","121.435736666667","25.1567983333333","6502300","八里區"
"249004","303-UY","2019/10/18 17:39:13","新北市八里區賢一街70號","121.41901","25.157545","6502300","八里區"
"249002","305-UY","2019/10/18 17:39:13","新北市八里區龍形二街21號","121.4506","25.1317483333333","6502300","八里區"
"249003","593-UM","2019/10/18 17:39:11","新北市八里區中山路二段212號","121.405211666667","25.1517833333333","6502300","八里區"
"232011","375-UM","2019/10/18 17:39:30","新北市坪林區北宜路八段143號","121.70671","24.9345633333333","6502000","坪林區"
"244007","080-UY","2019/10/18 17:39:20","新北市林口區中湖47號","121.38274","25.0952833333333","6501700","林口區"
"244019","402-UM","2019/10/18 17:39:16","新北市林口區忠孝路512巷25號","121.371053333333","25.0683666666667","6501700","林口區"
"244013","KEA-2802","2019/10/18 17:39:23","新北市林口區中正路505巷5號","121.383386666667","25.0772966666667","6501700","林口區"
"244023","483-VK","2019/10/18 17:39:25","新北市林口區東明一街121巷6號","121.389996666667","25.0704566666667","6501700","林口區"
"244017","485-VK","2019/10/18 17:39:25","新北市林口區忠孝路371-1號","121.369016666667","25.0720433333333","6501700","林口區"
"244009","656-BX","2019/10/18 17:39:18","新北市林口區中北三街61號","121.384723333333","25.0855666666667","6501700","林口區"
"244011","701-TV","2019/10/18 17:39:28","新北市林口區仁愛路一段671號","121.38746","25.0766316666667","6501700","林口區"
"244025","837-TS","2019/10/18 17:39:31","新北市林口區民族路6號","121.363936666667","25.0734816666667","6501700","林口區"
"244021","838-TS","2019/10/18 17:39:16","新北市林口區仁愛路一段139巷23號","121.397588333333","25.0716583333333","6501700","林口區"
"231046","719-UM","2019/10/18 17:10:23","新北市新店區直潭路65號","121.53259","24.942265","6500600","新店區"
"241015","062-VK","2019/10/18 17:39:18","新北市三重區新北大道一段3-1號","121.490136666667","25.0613916666667","6500200","三重區"
"241017","063-VK","2019/10/18 17:39:17","新北市三重區大同北路32號","121.495315","25.062565","6500200","三重區"
"241024","065-VK","2019/10/18 17:39:18","新北市三重區大勇街17號","121.483105","25.0715483333333","6500200","三重區"
"241016","266-UM","2019/10/18 17:39:11","新北市三重區正義北路7號","121.497865","25.062765","6500200","三重區"
"241030","KED-0822","2019/10/18 17:39:22","新北市三重區中正南路281號","121.492933333333","25.0523666666667","6500200","三重區"
"241014","543-UM","2019/10/18 17:39:11","新北市三重區長壽街120巷23號","121.502458333333","25.0693983333333","6500200","三重區"
"241033","AAC-255","2019/10/18 17:39:30","新北市三重區光復路一段51號","121.472105","25.04887","6500200","三重區"
"235063","006-UY","2019/10/18 17:39:21","新北市中和區員山路36巷16-3號","121.484993333333","24.9913516666667","6500300","中和區"
"247016","KEA-2869","2019/10/18 17:39:08","新北市蘆洲區光華路70巷6號","121.467788333333","25.083295","6501400","蘆洲區"
"247010","KED-0682","2019/10/18 17:39:19","新北市蘆洲區中山一路74巷55號","121.479901666667","25.0814633333333","6501400","蘆洲區"
"235054","640-BX","2019/10/18 17:39:00","新北市中和區員山路36巷16-2號","121.485285","24.991595","6500300","中和區"
"247006","893-R6","2019/10/18 17:39:24","新北市蘆洲區長安街69號","121.462756666667","25.0799366666667","6501400","蘆洲區"
"247004","341-TH","2019/10/18 17:39:25","新北市蘆洲區長安街249巷34號","121.458048333333","25.0828066666667","6501400","蘆洲區"
"247020","337-TH","2019/10/18 17:39:21","新北市蘆洲區民族路323號","121.474221666667","25.0914183333333","6501400","蘆洲區"
"247024","057-VK","2019/10/18 17:39:25","新北市蘆洲區光榮路87號","121.462256666667","25.0885533333333","6501400","蘆洲區"
"247014","056-VK","2019/10/18 17:39:19","新北市蘆洲區中山二路123號","121.472128333333","25.08162","6501400","蘆洲區"
"247018","053-VK","2019/10/18 17:39:28","新北市蘆洲區三民路98巷13號","121.472743333333","25.087345","6501400","蘆洲區"
"247022","007-UY","2019/10/18 17:39:27","新北市蘆洲區民族路570號","121.467241666667","25.088705","6501400","蘆洲區"
"247008","002-UY","2019/10/18 17:39:19","新北市蘆洲區民生街131巷6號","121.472596666667","25.0789683333333","6501400","蘆洲區"
"247002","001-UY","2019/10/18 17:39:10","新北市蘆洲區永平街62號","121.45746","25.091595","6501400","蘆洲區"
"228002","663-BX","2019/10/18 17:39:28","新北市貢寮區福隆里外隆林街15-1號","121.958495","25.0041183333333","6502600","貢寮區"
"228001","670-TC","2019/10/18 17:39:23","新北市貢寮區仁理村仁愛路95-1號","121.927688333333","25.05555","6502600","貢寮區"
"228003","828-UM","2019/10/18 17:39:25","新北市貢寮區仁理村仁和路19號","121.923823333333","25.053565","6502600","貢寮區"
"224006","676-BX","2019/10/18 17:39:18","新北市瑞芳區傑魚坑路46號","121.793808333333","25.1105616666667","6501200","瑞芳區"
"224009","275-VK","2019/10/18 17:39:26","新北市瑞芳區金光路376號","121.850726666667","25.1107466666667","6501200","瑞芳區"
"224008","273-VK","2019/10/18 17:39:27","新北市瑞芳區明燈路一段18巷6-1號","121.822745","25.1076016666667","6501200","瑞芳區"
"224005","271-BY","2019/10/18 17:39:27","新北市瑞芳區籠山路15號","121.831758333333","25.1240066666667","6501200","瑞芳區"
"227002","642-TC","2019/10/18 17:23:00","新北市雙溪區共和里東榮街52號","121.866311666667","25.03368","6502500","雙溪區"
"227001","400-TW","2019/10/18 17:39:17","新北市雙溪區三貂里定福路1-2號","121.850698333333","25.06339","6502500","雙溪區"
"251005","010-UM","2019/10/18 17:39:19","新北市淡水區鄧公路33巷1號","121.451451666667","25.1712283333333","6501000","淡水區"
"251004","180-VK","2019/10/18 17:39:22","新北市淡水區中正東路二段145號","121.459251666667","25.14709","6501000","淡水區"
"251008","181-VK","2019/10/18 17:39:16","新北市淡水區八勢路50巷82號","121.461981666667","25.1485766666667","6501000","淡水區"
"251010","413-VK","2019/10/18 17:39:28","新北市淡水區淡海路292-2號","121.418945","25.18878","6501000","淡水區"
"251012","441-VK","2019/10/18 17:39:23","新北市淡水區北新路200巷8號","121.451713333333","25.17969","6501000","淡水區"
"251007","442-VK","2019/10/18 17:39:29","新北市淡水區民生路124巷13號","121.464091666667","25.137815","6501000","淡水區"
"251006","561-UM","2019/10/18 17:39:18","新北市淡水區中山北路一段117號","121.442508333333","25.1769266666667","6501000","淡水區"
"251009","575-R6","2019/10/18 17:39:15","新北市淡水區中正路168號","121.440506666667","25.169765","6501000","淡水區"
"251011","650-BX","2019/10/18 17:39:19","新北市淡水區坪頂路718號","121.482543333333","25.1585033333333","6501000","淡水區"
"251002","672-BX","2019/10/18 17:39:17","新北市淡水區建設街1巷1號","121.439046666667","25.172845","6501000","淡水區"
"251003","766-UM","2019/10/18 17:39:18","新北市淡水區中山北路一段33號","121.441571666667","25.1753083333333","6501000","淡水區"
"207003","550-UM","2019/10/18 17:39:26","新北市萬里區龜吼里漁澳路16號","121.686821666667","25.194785","6502800","萬里區"
"207004","291-VK","2019/10/18 17:39:15","新北市萬里區萬里里景美路1號","121.683106666667","25.1700583333333","6502800","萬里區"
"252002","178-VK","2019/10/18 17:39:21","新北市三芝區中正路二段2號","121.504995","25.2557366666667","6502100","三芝區"
"237004","KEA-2597","2019/10/18 17:39:24","新北市三峽區中山路459巷135號","121.349038333333","24.9331483333333","6500900","三峽區"
"237013","252-BX","2019/10/18 17:39:24","新北市三峽區愛國路33-9號","121.37477","24.93308","6500900","三峽區"
"237014","433-BY","2019/10/18 17:39:14","新北市三峽區中山路459巷135號","121.348778333333","24.9330116666667","6500900","三峽區"
"237010","706-TV","2019/10/18 17:39:27","新北市三峽區中山路233號","121.362901666667","24.9371516666667","6500900","三峽區"
"236042","KED-0685","2019/10/18 17:39:18","新北市土城區城林路6巷80號","121.438525","24.9796083333333","6501300","土城區"
"236079","166-UM","2019/10/18 17:39:29","新北市土城區城林路6巷80號","121.438206666667","24.9797566666667","6501300","土城區"
"236014","270-VK","2019/10/18 17:39:25","新北市土城區城林路6巷80號","121.43844","24.9796233333333","6501300","土城區"
"236039","271-VK","2019/10/18 17:39:25","新北市土城區城林路6巷80號","121.438478333333","24.97979","6501300","土城區"
"247012","KED-0683","2019/10/18 17:39:22","新北市蘆洲區民權路31巷12號","121.475336666667","25.0860616666667","6501400","蘆洲區"
"252001","KED-0821","2019/10/18 17:39:31","新北市三芝區淡金路一段83號","121.50209","25.2589883333333","6502100","三芝區"
"236020","401-BY","2019/10/18 17:39:32","新北市土城區城林路6巷80號","121.438748333333","24.9796266666667","6501300","土城區"
"242041","AAC-296","2019/10/18 17:39:25","新北市新莊區中正路514巷25號","121.432853333333","25.0331366666667","6500500","新莊區"
"242060","986-R7","2019/10/18 17:39:23","新北市新莊區瓊林南路71-9號","121.43534","25.0160716666667","6500500","新莊區"
"242005","751-BX","2019/10/18 17:39:15","新北市新莊區自立街180號","121.456068333333","25.0455466666667","6500500","新莊區"
"242029","615-BX","2019/10/18 17:39:13","新北市新莊區復興路一段145號","121.450263333333","25.04334","6500500","新莊區"
"242027","613-BX","2019/10/18 17:39:13","新北市新莊區福壽街79號","121.458155","25.049875","6500500","新莊區"
"242058","612-BX","2019/10/18 17:39:22","新北市新莊區中正路596號","121.426786666667","25.0302966666667","6500500","新莊區"
"242048","566-BX","2019/10/18 17:39:27","新北市新莊區萬安街145號","121.42041","25.021765","6500500","新莊區"
"242054","497-BY","2019/10/18 17:39:25","新北市新莊區新樹路699巷10號","121.432468333333","25.0020116666667","6500500","新莊區"
"242002","441-UM","2019/10/18 17:39:19","新北市新莊區新莊路357號","121.451865","25.033905","6500500","新莊區"
"242007","440-UM","2019/10/18 17:39:15","新北市新莊區福樂街142號","121.456376666667","25.0481266666667","6500500","新莊區"
"242013","413-TV","2019/10/18 17:39:16","新北市新莊區中誠街96號","121.449983333333","25.0477883333333","6500500","新莊區"
"242050","400-BY","2019/10/18 17:39:16","新北市新莊區西盛街189號","121.42888","25.0171233333333","6500500","新莊區"
"242025","362-BY","2019/10/18 17:39:27","新北市新莊區思源路90號","121.460176666667","25.0455333333333","6500500","新莊區"
"242023","353-BY","2019/10/18 17:39:14","新北市新莊區公園路222巷2號","121.456151666667","25.0405566666667","6500500","新莊區"
"242015","132-UY","2019/10/18 17:39:28","新北市新莊區新泰路290號","121.445706666667","25.040725","6500500","新莊區"
"242039","135-UY","2019/10/18 17:39:18","新北市新莊區民安西路42號","121.42752","25.0209416666667","6500500","新莊區"
"242056","172-VK","2019/10/18 17:39:25","新北市新莊區泰豐街21號","121.448313333333","25.0318066666667","6500500","新莊區"
"242017","173-VK","2019/10/18 17:39:18","新北市新莊區復興路一段149巷21弄23號","121.449011666667","25.043945","6500500","新莊區"
"242032","175-VK","2019/10/18 17:39:17","新北市新莊區新泰路361巷23號","121.442563333333","25.0429616666667","6500500","新莊區"
"242019","176-VK","2019/10/18 17:39:14","新北市新莊區中港路176號","121.454906666667","25.0419316666667","6500500","新莊區"
"242021","KED-0687","2019/10/18 17:39:30","新北市新莊區中華路一段33-1號","121.451878333333","25.037635","6500500","新莊區"
"242044","346-TH","2019/10/18 17:39:15","新北市新莊區中正路877號","121.418101666667","25.0268133333333","6500500","新莊區"
"242037","348-TH","2019/10/18 17:39:23","新北市新莊區後港一路161號","121.431728333333","25.0280383333333","6500500","新莊區"
"242009","349-TH","2019/10/18 17:39:29","新北市新莊區昌明街14巷5弄2號","121.457321666667","25.0532666666667","6500500","新莊區"
"242034","350-TH","2019/10/18 17:39:32","新北市新莊區新莊路637號","121.445323333333","25.0328983333333","6500500","新莊區"
"238015","755-BX","2019/10/18 17:39:14","新北市樹林區樹德街120巷8號","121.41962","24.9930716666667","6500700","樹林區"
"238023","601-UM","2019/10/18 17:39:20","新北市樹林區三福街114號","121.406351666667","25.0164216666667","6500700","樹林區"
"238019","571-TV","2019/10/18 17:39:22","新北市樹林區太平路52巷1號","121.419018333333","24.9822366666667","6500700","樹林區"
"238024","5061-A6","2019/10/18 17:39:11","新北市樹林區環河路10號","121.426843333333","24.9779516666667","6500700","樹林區"
"238018","KEA-2217","2019/10/18 17:39:22","新北市樹林區鎮前街62號","121.425651666667","24.992345","6500700","樹林區"
"238022","KEA-2213","2019/10/18 17:39:21","新北市樹林區中華路187巷2號","121.420358333333","24.98161","6500700","樹林區"
"238021","KEA-2539","2019/10/18 17:39:11","新北市樹林區柑園街一段235號","121.396483333333","24.9566983333333","6500700","樹林區"
"238025","303-VK","2019/10/18 17:39:20","新北市樹林區保安街三段55號","121.41252","25.0112033333333","6500700","樹林區"
"238017","283-BY","2019/10/18 17:39:18","新北市樹林區三德街1號","121.412638333333","25.01262","6500700","樹林區"
"238014","282-BY","2019/10/18 17:39:23","新北市樹林區保安街一段313巷27-2號","121.41694","24.9973433333333","6500700","樹林區"
"238020","268-VK","2019/10/18 17:39:29","新北市樹林區俊英街116巷29弄1號","121.428241666667","25.00636","6500700","樹林區"
"238026","172-UY","2019/10/18 17:39:17","新北市樹林區新興街21號","121.400383333333","24.9727883333333","6500700","樹林區"
"238016","169-UY","2019/10/18 17:39:31","新北市樹林區育英街119-1號","121.420055","24.9893116666667","6500700","樹林區"
"239007","AAC-297","2019/10/18 17:39:23","新北市鶯歌區國光街16號","121.3401","24.9567816666667","6500800","鶯歌區"
"239008","527-UM","2019/10/18 17:39:19","桃園市龜山區宏德司法新村8-1號","121.33201","24.9786616666667","6500800","鶯歌區"
"239005","526-UM","2019/10/18 17:39:27","新北市鶯歌區福隆二街1號","121.325448333333","24.9721566666667","6500800","鶯歌區"
"239001","417-VK","2019/10/18 17:39:17","新北市鶯歌區中正三路199-1號","121.335426666667","24.9394016666667","6500800","鶯歌區"
"239003","360-BY","2019/10/18 17:39:18","新北市鶯歌區鶯桃路206巷37號","121.337886666667","24.9599783333333","6500800","鶯歌區"
"239002","359-BY","2019/10/18 17:39:19","新北市鶯歌區建國路280-1號","121.346448333333","24.953975","6500800","鶯歌區"
"239004","193-VK","2019/10/18 17:39:12","新北市鶯歌區三鶯路29巷19號","121.35469","24.9402916666667","6500800","鶯歌區"
"221008","489-VK","2019/10/18 17:39:22","新北市汐止區康寧街901號","121.651411666667","25.0749966666667","6501100","汐止區"
"233001","KEA-2870","2019/10/18 17:39:31","新北市烏來區信福路85號","121.526365","24.8367933333333","6502900","烏來區"
"242046","281-VK","2019/10/18 17:39:25","新北市新莊區福營路101號","121.43426","25.0322333333333","6500500","新莊區"
"242011","280-VK","2019/10/18 17:39:20","新北市新莊區中原路201-2號","121.451095","25.0539616666667","6500500","新莊區"
"235061","KEA-2875","2019/10/18 17:11:17","新北市中和區員山路36巷16-2號","121.485315","24.99165","6500300","中和區"
