"lineid","car","time","location","longitude","latitude","cityid","cityname"
"234046","148-BY","2019/10/18 18:39:19","新北市永和區永元路68號","121.522553333333","25.0015583333333","6500400","永和區"
"234081","298-R6","2019/10/18 18:39:19","新北市永和區林森路75號","121.524043333333","25.0038866666667","6500400","永和區"
"234086","338-UY","2019/10/18 18:39:20","新北市永和區中正路188號","121.515396666667","24.9970383333333","6500400","永和區"
"234030","746-BX","2019/10/18 18:39:17","新北市永和區得和路315號","121.523205","24.9996633333333","6500400","永和區"
"234007","KED-0605","2019/10/18 18:39:24","新北市永和區保生路55號","121.50473","25.01038","6500400","永和區"
"234013","KEA-2591","2019/10/18 18:39:33","新北市永和區保安路13號","121.510395","25.0168883333333","6500400","永和區"
"234042","862-TW","2019/10/18 18:39:17","新北市永和區福和路182號","121.52044","25.0078083333333","6500400","永和區"
"234026","9371-KE","2019/10/18 18:39:27","新北市永和區永和路一段70號","121.512981666667","25.0062333333333","6500400","永和區"
"234011","9373-KE","2019/10/18 18:39:26","新北市永和區文化路9巷28號","121.515245","25.0143683333333","6500400","永和區"
"249005","172-UM","2019/10/18 18:39:17","新北市八里區中華路三段196號","121.388135","25.1255633333333","6502300","八里區"
"249001","173-UM","2019/10/18 18:39:15","新北市八里區龍米路一段386巷1-1號","121.451548333333","25.132305","6502300","八里區"
"249004","303-UY","2019/10/18 18:39:13","新北市八里區龍米路三段52號","121.424558333333","25.1591233333333","6502300","八里區"
"249002","305-UY","2019/10/18 18:39:15","新北市八里區龍形一街19巷2號","121.449838333333","25.1304316666667","6502300","八里區"
"249003","593-UM","2019/10/18 18:19:55","新北市八里區博物館路10-1號","121.41508","25.1639666666667","6502300","八里區"
"248014","025-BX","2019/10/18 18:39:28","新北市五股區明德路9號","121.435033333333","25.0712283333333","6501500","五股區"
"248016","026-BX","2019/10/18 18:39:17","新北市五股區凌雲路一段149巷5-1號","121.44893","25.1016816666667","6501500","五股區"
"248008","KED-0815","2019/10/18 18:39:24","新北市五股區中興路一段150巷13-1號","121.46464","25.0746016666667","6501500","五股區"
"248018","KED-0813","2019/10/18 18:39:14","新北市五股區民義路二段78號","121.405943333333","25.1090916666667","6501500","五股區"
"248010","272-BY","2019/10/18 18:39:02","新北市五股區水碓路18號","121.433628333333","25.0724916666667","6501500","五股區"
"248004","677-BX","2019/10/18 18:39:21","新北市五股區民義路一段185-1號","121.431093333333","25.0885666666667","6501500","五股區"
"248002","678-BX","2019/10/18 18:39:28","新北市五股區西雲路205號","121.448566666667","25.0964866666667","6501500","五股區"
"234023","9380-KE","2019/10/18 18:39:29","新北市永和區福和路76巷5弄9號","121.522336666667","25.0083133333333","6500400","永和區"
"234077","969-R7","2019/10/18 18:39:30","新北市永和區中正路269號","121.517551666667","25.000785","6500400","永和區"
"234067","AAC-212","2019/10/18 18:39:26","新北市永和區福和路8巷1號","121.524821666667","25.008775","6500400","永和區"
"234003","AAC-295","2019/10/18 18:39:29","新北市永和區福和路1號","121.525981666667","25.0090866666667","6500400","永和區"
"232011","375-UM","2019/10/18 18:39:30","新北市坪林區坪雙路一段41號","121.7117","24.942455","6502000","坪林區"
"244007","080-UY","2019/10/18 18:39:20","新北市林口區後湖5-1號","121.388773333333","25.09813","6501700","林口區"
"244019","402-UM","2019/10/18 18:39:16","新北市林口區麗園二街76號","121.381908333333","25.0679166666667","6501700","林口區"
"244013","KEA-2802","2019/10/18 18:39:23","新北市林口區麗園路2巷29號","121.375221666667","25.0706933333333","6501700","林口區"
"244023","483-VK","2019/10/18 18:39:25","新北市林口區四維路156號","121.380873333333","25.0758516666667","6501700","林口區"
"244017","485-VK","2019/10/18 18:39:15","新北市林口區文化二路一段166號","121.368638333333","25.0717366666667","6501700","林口區"
"244009","656-BX","2019/10/18 18:39:17","新北市林口區竹林路358巷17號","121.392731666667","25.083995","6501700","林口區"
"244011","701-TV","2019/10/18 18:39:28","新北市林口區仁愛路一段274號","121.393546666667","25.07597","6501700","林口區"
"244025","837-TS","2019/10/18 18:39:31","新北市林口區南勢三街55號","121.357453333333","25.0772316666667","6501700","林口區"
"244021","838-TS","2019/10/18 18:39:17","新北市林口區工六路100號","121.401193333333","25.0765883333333","6501700","林口區"
"243010","297-R6","2019/10/18 18:39:10","新北市泰山區公園路10號","121.429788333333","25.05403","6501600","泰山區"
"243015","680-BX","2019/10/18 18:39:25","新北市泰山區泰林路二段387號","121.42739","25.0642683333333","6501600","泰山區"
"222003","436-BY","2019/10/18 18:39:10","新北市深坑區翠谷街17巷1號","121.626435","25.0084483333333","6501800","深坑區"
"222002","659-BX","2019/10/18 18:39:29","新北市深坑區文山路一段62巷10號","121.622","25.00103","6501800","深坑區"
"231061","002-UM","2019/10/18 18:39:21","新北市新店區安華路28-1號","121.51985","24.9608066666667","6500600","新店區"
"231055","0291-UT","2019/10/18 18:39:13","新北市新店區華興街38巷3號","121.537168333333","24.9691466666667","6500600","新店區"
"231044","046-UY","2019/10/18 18:39:23","新北市新店區安康路一段90號","121.527906666667","24.9619766666667","6500600","新店區"
"231060","106-UY","2019/10/18 18:39:16","新北市新店區安華路28-1號","121.519678333333","24.9609366666667","6500600","新店區"
"231051","107-UY","2019/10/18 18:39:14","新北市新店區中央路81號","121.532371666667","24.9766316666667","6500600","新店區"
"231065","110-UY","2019/10/18 18:39:23","新北市新店區安一路一段1-1號","121.519286666667","24.961195","6500600","新店區"
"231062","256-BX","2019/10/18 18:39:11","新北市新店區安一路一段1-1號","121.519776666667","24.9610966666667","6500600","新店區"
"231054","260-TV","2019/10/18 18:39:21","新北市新店區安一路一段1-1號","121.519368333333","24.961305","6500600","新店區"
"231042","268-BY","2019/10/18 18:39:23","新北市新店區安一路一段1-1號","121.519666666667","24.9613666666667","6500600","新店區"
"231064","278-BY","2019/10/18 18:39:11","新北市新店區安一路一段1-1號","121.519818333333","24.9611466666667","6500600","新店區"
"231050","AAD-862","2019/10/18 18:39:10","新北市新店區安一路一段1-1號","121.519618333333","24.96105","6500600","新店區"
"231045","355-BY","2019/10/18 18:39:24","新北市新店區安華路28-1號","121.519155","24.9609183333333","6500600","新店區"
"231058","3713-VJ","2019/10/18 18:39:22","新北市新店區國校路76-1號","121.538573333333","24.953085","6500600","新店區"
"231056","4715-K9","2019/10/18 18:39:23","新北市新店區建國路201號","121.537848333333","24.980035","6500600","新店區"
"231067","4772-VM","2019/10/18 18:39:29","新北市新店區安華路28-1號","121.519178333333","24.960645","6500600","新店區"
"231053","512-UM","2019/10/18 18:39:28","新北市新店區新烏路一段70號","121.545876666667","24.9413183333333","6500600","新店區"
"231063","641-BX","2019/10/18 18:39:16","新北市新店區安華路28-1號","121.519665","24.96065","6500600","新店區"
"231048","KED-0819","2019/10/18 18:39:26","新北市新店區安一路一段1-1號","121.519966666667","24.9611983333333","6500600","新店區"
"231046","719-UM","2019/10/18 18:39:23","新北市新店區直潭二街1號","121.535406666667","24.9431533333333","6500600","新店區"
"231057","720-UM","2019/10/18 18:39:17","新北市新店區北宜路一段264號","121.545916666667","24.9527516666667","6500600","新店區"
"231059","897-TW","2019/10/18 18:39:18","新北市新店區安華路28-1號","121.519435","24.9605716666667","6500600","新店區"
"231040","898-TW","2019/10/18 18:39:29","新北市新店區安一路一段1-1號","121.519388333333","24.9610133333333","6500600","新店區"
"231043","899-TW","2019/10/18 18:39:23","新北市新店區安華路28-1號","121.519115","24.9608533333333","6500600","新店區"
"231066","AKT-0513","2019/10/18 18:39:23","新北市新店區安華路1-1號","121.51947","24.9605166666667","6500600","新店區"
"241035","462-BY","2019/10/18 18:39:25","新北市三重區重新路四段121號","121.48491","25.0519466666667","6500200","三重區"
"235066","003-UY","2019/10/18 18:39:09","新北市中和區光華街44號","121.504995","25.0035983333333","6500300","中和區"
"235063","006-UY","2019/10/18 18:39:21","新北市中和區錦和路99號","121.490073333333","24.9954683333333","6500300","中和區"
"235056","096-UM","2019/10/18 18:39:29","新北市中和區員山路611巷1號","121.477763333333","25.0111716666667","6500300","中和區"
"235039","097-UM","2019/10/18 18:39:15","新北市中和區宜安路18巷9號","121.513675","24.9960833333333","6500300","中和區"
"235065","098-UM","2019/10/18 18:39:18","新北市中和區莊敬路33巷38弄1號","121.500506666667","25.0065783333333","6500300","中和區"
"235040","150-BY","2019/10/18 18:39:27","新北市中和區宜安路49號","121.511863333333","24.996615","6500300","中和區"
"235058","151-BY","2019/10/18 18:39:26","新北市中和區員山路105號","121.480815","24.994465","6500300","中和區"
"235055","183-VK","2019/10/18 18:39:24","新北市中和區民生街14號","121.470443333333","25.0055383333333","6500300","中和區"
"235038","185-VK","2019/10/18 18:39:12","新北市中和區立人街14巷11號","121.519401666667","24.99488","6500300","中和區"
"235067","255-BX","2019/10/18 18:39:29","新北市中和區中山路二段449巷1弄23號","121.483915","25.003515","6500300","中和區"
"235044","293-VK","2019/10/18 18:39:11","新北市中和區復興路280巷9號","121.502233333333","24.991115","6500300","中和區"
"235072","301-VK","2019/10/18 18:39:31","新北市中和區中山路二段134-5號","121.502245","25.0032383333333","6500300","中和區"
"235043","352-BY","2019/10/18 18:39:23","新北市中和區景平路111巷2號","121.516703333333","24.9918816666667","6500300","中和區"
"235042","KEA-2878","2019/10/18 18:39:19","新北市中和區秀朗路三段135巷7弄6號","121.525471666667","24.9918533333333","6500300","中和區"
"235050","4979-A6","2019/10/18 18:39:21","新北市中和區忠孝街124巷10號","121.512805","24.98595","6500300","中和區"
"235069","4980-A6","2019/10/18 18:39:22","新北市中和區連城路45號","121.498115","25.0018633333333","6500300","中和區"
"235045","551-UM","2019/10/18 18:39:11","新北市中和區復興路65-1號","121.503973333333","24.9900683333333","6500300","中和區"
"235070","558-UM","2019/10/18 18:39:31","新北市中和區圓通路16號","121.501336666667","24.9979633333333","6500300","中和區"
"235060","KED-0823","2019/10/18 18:39:24","新北市中和區中山路三段118號","121.475693333333","25.006","6500300","中和區"
"235054","640-BX","2019/10/18 18:39:27","新北市中和區自治街38號","121.475235","25.003355","6500300","中和區"
"235047","732-UM","2019/10/18 18:39:26","新北市中和區興南路二段44號","121.50681","24.9851466666667","6500300","中和區"
"235046","733-UM","2019/10/18 18:39:12","新北市中和區仁愛街36巷51號","121.51165","24.986145","6500300","中和區"
"235057","801-TS","2019/10/18 18:39:23","新北市中和區民利街11號","121.480628333333","24.9991416666667","6500300","中和區"
"235041","802-TS","2019/10/18 18:39:19","新北市中和區中安街178巷13弄2號","121.510205","24.99866","6500300","中和區"
"235052","805-TS","2019/10/18 18:38:36","新北市中和區興南路三段90號","121.490353333333","24.9734983333333","6500300","中和區"
"235048","896-TW","2019/10/18 18:39:26","新北市中和區南山路250巷2號","121.507698333333","24.9888383333333","6500300","中和區"
"235053","900-TW","2019/10/18 18:39:10","新北市中和區華福街6號","121.465361666667","24.996785","6500300","中和區"
"235064","911-UM","2019/10/18 18:39:30","新北市中和區連勝街19號","121.498688333333","24.998185","6500300","中和區"
"235051","157-BY","2019/10/18 18:39:19","新北市中和區華新街109巷11弄2-4號","121.50874","24.9796033333333","6500300","中和區"
"235037","AAC-213","2019/10/18 18:39:26","新北市中和區秀朗路三段128巷7弄2號","121.524538333333","24.9929533333333","6500300","中和區"
"235059","AAC-215","2019/10/18 18:39:12","新北市中和區錦和路354巷15號","121.489545","24.991555","6500300","中和區"
"220065","072-UY","2019/10/18 18:39:15","新北市板橋區館前東路82號","121.461888333333","25.007485","6500100","板橋區"
"220086","073-UY","2019/10/18 18:39:27","新北市板橋區南雅南路二段120-2號","121.452388333333","25.0000633333333","6500100","板橋區"
"220106","075-UY","2019/10/18 18:39:22","新北市板橋區民生路二段120號","121.47033","25.019815","6500100","板橋區"
"220069","AAD-861","2019/10/18 18:39:13","新北市板橋區南雅南路二段1-1號","121.45489","25.00383","6500100","板橋區"
"226004","312-R5","2019/10/18 18:39:21","新北市平溪區石底里石筍尖3號","121.73663","25.0257316666667","6502400","平溪區"
"235049","251-BX","2019/10/18 18:39:18","新北市中和區明義街11巷1弄1號","121.503871666667","24.9948616666667","6500300","中和區"
"228002","663-BX","2019/10/18 18:39:28","新北市貢寮區福隆里東興街6-11號","121.95077","25.0210733333333","6502600","貢寮區"
"228001","670-TC","2019/10/18 18:39:23","新北市貢寮區仁理村保健街73號","121.923705","25.05168","6502600","貢寮區"
"228003","828-UM","2019/10/18 18:39:25","新北市貢寮區和美里龍洞街28-3號","121.917535","25.1116683333333","6502600","貢寮區"
"224010","AGQ-8101","2019/10/18 18:39:25","新北市瑞芳區基山街21-2號","121.845348333333","25.10947","6501200","瑞芳區"
"224006","676-BX","2019/10/18 18:39:15","新北市瑞芳區一坑路50號","121.803606666667","25.1089533333333","6501200","瑞芳區"
"224007","285-BY","2019/10/18 18:39:17","新北市瑞芳區大埔路269號","121.762155","25.100875","6501200","瑞芳區"
"224009","275-VK","2019/10/18 18:39:25","新北市瑞芳區祈堂路53-1號","121.85959","25.1104666666667","6501200","瑞芳區"
"224008","273-VK","2019/10/18 18:39:23","新北市瑞芳區瑞芳街139號","121.805131666667","25.109885","6501200","瑞芳區"
"224005","271-BY","2019/10/18 18:39:27","新北市瑞芳區瑞濱路32-6號","121.823446666667","25.120875","6501200","瑞芳區"
"227002","642-TC","2019/10/18 18:39:24","新北市雙溪區魚行里坤溪3-5號","121.876218333333","25.020795","6502500","雙溪區"
"227001","400-TW","2019/10/18 18:39:17","新北市雙溪區牡丹里牡丹217號","121.850935","25.0575383333333","6502500","雙溪區"
"253005","032-BX","2019/10/18 18:39:26","新北市石門區中山路64號","121.567113333333","25.290735","6502200","石門區"
"253006","295-VK","2019/10/18 18:39:11","新北市石門區崁子腳25-4號","121.535826666667","25.2897016666667","6502200","石門區"
"222001","KEA-2212","2019/10/18 18:39:15","新北市深坑區北深路一段84號","121.636165","25.0106516666667","6501800","深坑區"
"208002","KEA-2872","2019/10/18 18:39:18","新北市金山區仁愛路15-7號","121.638353333333","25.2187433333333","6502700","金山區"
"208003","665-BX","2019/10/18 18:39:24","新北市金山區中山路395號","121.633363333333","25.225295","6502700","金山區"
"251001","011-UM","2019/10/18 18:39:21","新北市淡水區自強路166號","121.46555","25.1341766666667","6501000","淡水區"
"251004","180-VK","2019/10/18 18:39:22","新北市淡水區八勢二街51巷27號","121.461616666667","25.1496816666667","6501000","淡水區"
"251008","181-VK","2019/10/18 18:39:16","新北市淡水區北投子72號","121.453435","25.18244","6501000","淡水區"
"251010","413-VK","2019/10/18 18:39:28","新北市淡水區沙崙路126號","121.423493333333","25.1827816666667","6501000","淡水區"
"251012","441-VK","2019/10/18 18:39:22","新北市淡水區北新路121號","121.448948333333","25.1786466666667","6501000","淡水區"
"251006","561-UM","2019/10/18 18:39:18","新北市淡水區崁頂36-7號","121.438805","25.1931533333333","6501000","淡水區"
"251011","650-BX","2019/10/18 18:39:19","新北市淡水區中正東路8-8號","121.44786","25.1667066666667","6501000","淡水區"
"251002","672-BX","2019/10/18 18:39:23","新北市淡水區中正東路一段3巷14弄1號","121.450845","25.1642433333333","6501000","淡水區"
"251003","766-UM","2019/10/18 18:39:18","新北市淡水區北新路69巷26號","121.446713333333","25.18011","6501000","淡水區"
"207003","550-UM","2019/10/18 18:39:26","新北市萬里區野柳里港東路66號","121.687796666667","25.204195","6502800","萬里區"
"207004","291-VK","2019/10/18 18:39:27","新北市萬里區萬里里獅頭路7號","121.691973333333","25.1782483333333","6502800","萬里區"
"252002","178-VK","2019/10/18 18:39:21","新北市三芝區民生街66號","121.5034","25.2554416666667","6502100","三芝區"
"252003","249-BX","2019/10/18 18:39:16","新北市三芝區後厝里土地公坑73號","121.460953333333","25.2476633333333","6502100","三芝區"
"208001","170-UY","2019/10/18 18:39:11","新北市金山區文化三路7號","121.635178333333","25.2248916666667","6502700","金山區"
"237004","KEA-2597","2019/10/18 18:39:24","新北市三峽區插角89號","121.406628333333","24.8706966666667","6500900","三峽區"
"237007","153-BY","2019/10/18 18:39:22","新北市三峽區中正路二段612號","121.358648333333","24.90575","6500900","三峽區"
"237009","210-TH","2019/10/18 18:39:32","新北市三峽區弘園街37號","121.366996666667","24.927615","6500900","三峽區"
"237013","252-BX","2019/10/18 18:39:24","新北市三峽區大同路48巷17弄8-1號","121.376731666667","24.9290716666667","6500900","三峽區"
"237012","275-BY","2019/10/18 18:39:14","新北市三峽區三樹路340號","121.383968333333","24.9433283333333","6500900","三峽區"
"237008","302-VK","2019/10/18 18:39:25","新北市三峽區白雞33-61號","121.370916666667","24.9131033333333","6500900","三峽區"
"237014","433-BY","2019/10/18 18:39:14","新北市三峽區復興路480巷53號","121.36101","24.9403683333333","6500900","三峽區"
"237006","5529-G3","2019/10/18 18:39:14","新北市三峽區溪東路315巷102號","121.412271666667","24.9315216666667","6500900","三峽區"
"237011","KEA-2596","2019/10/18 18:39:23","新北市三峽區成福路91號","121.418903333333","24.9296566666667","6500900","三峽區"
"237015","649-BX","2019/10/18 18:39:24","新北市三峽區成福路337號","121.43182","24.9238833333333","6500900","三峽區"
"237010","706-TV","2019/10/18 18:39:26","新北市三峽區復興路485號","121.361351666667","24.938435","6500900","三峽區"
"237005","AKY-6261","2019/10/18 18:39:16","新北市三峽區民生街104巷3-1號","121.373513333333","24.93599","6500900","三峽區"
"236042","KED-0685","2019/10/18 18:39:17","新北市土城區裕民路55巷1號","121.449033333333","24.9881183333333","6501300","土城區"
"236079","166-UM","2019/10/18 18:39:29","新北市土城區頂埔街36號","121.41715","24.9590883333333","6501300","土城區"
"236030","253-BX","2019/10/18 18:39:13","新北市土城區福仁街68號","121.439318333333","24.9743216666667","6501300","土城區"
"236026","269-VK","2019/10/18 18:39:28","新北市土城區金城路一段30號","121.441356666667","24.96971","6501300","土城區"
"236014","270-VK","2019/10/18 18:39:25","新北市土城區清水路207巷11號","121.459883333333","24.9823333333333","6501300","土城區"
"236039","271-VK","2019/10/18 18:39:24","新北市土城區明德路一段202號","121.461451666667","24.9777416666667","6501300","土城區"
"236069","KEA-2877","2019/10/18 18:39:16","新北市土城區永豐路226號","121.467186666667","24.9816466666667","6501300","土城區"
"252001","KED-0821","2019/10/18 18:39:11","新北市三芝區中興街二段260號","121.501848333333","25.252905","6502100","三芝區"
"236020","401-BY","2019/10/18 18:39:12","新北市土城區永豐路8號","121.465533333333","24.98476","6501300","土城區"
"236063","752-BX","2019/10/18 18:38:55","新北市土城區延壽路13巷9號","121.470796666667","24.99053","6501300","土城區"
"236059","912-UM","2019/10/18 18:39:25","新北市土城區中央路三段157號","121.432013333333","24.965315","6501300","土城區"
"236048","913-UM","2019/10/18 18:39:23","新北市土城區明德路一段103號","121.465635","24.98276","6501300","土城區"
"236055","AAC-216","2019/10/18 18:39:22","新北市土城區裕民路6-5號","121.446933333333","24.989065","6501300","土城區"
"242060","986-R7","2019/10/18 18:39:15","新北市新莊區四維路97巷22號","121.424136666667","25.02336","6500500","新莊區"
"242058","612-BX","2019/10/18 18:39:22","新北市新莊區中正路881-11號","121.417313333333","25.0252083333333","6500500","新莊區"
"242002","441-UM","2019/10/18 18:39:19","新北市新莊區福營路103號","121.433698333333","25.0320416666667","6500500","新莊區"
"242044","346-TH","2019/10/18 18:39:15","新北市新莊區中正路887-33號","121.415866666667","25.0240233333333","6500500","新莊區"
"238023","601-UM","2019/10/18 18:39:20","新北市樹林區三福街114號","121.406416666667","25.0163983333333","6500700","樹林區"
"238024","5061-A6","2019/10/18 18:39:11","新北市樹林區中山路二段72-1號","121.415461666667","24.9840683333333","6500700","樹林區"
"238018","KEA-2217","2019/10/18 18:39:22","新北市樹林區鎮前街164號","121.424265","24.9899766666667","6500700","樹林區"
"238017","283-BY","2019/10/18 18:39:16","新北市樹林區光興街50號","121.409848333333","25.0027516666667","6500700","樹林區"
"238014","282-BY","2019/10/18 18:39:23","新北市樹林區大安路111巷25號","121.423086666667","24.997555","6500700","樹林區"
"238020","268-VK","2019/10/18 18:39:21","新北市樹林區三俊街125號","121.417905","25.01572","6500700","樹林區"
"238026","172-UY","2019/10/18 18:39:17","新北市樹林區育德街78-1號","121.388035","24.9680916666667","6500700","樹林區"
"238016","169-UY","2019/10/18 18:39:10","新北市樹林區中山路一段412號","121.417395","24.985205","6500700","樹林區"
"239007","AAC-297","2019/10/18 18:39:17","新北市鶯歌區中正一路碧龍巷6號","121.367118333333","24.9570916666667","6500800","鶯歌區"
"239006","891-R6","2019/10/18 18:39:26","新北市鶯歌區鶯桃路296巷48-1號","121.335891666667","24.9612666666667","6500800","鶯歌區"
"239008","527-UM","2019/10/18 18:39:19","新北市鶯歌區朝陽街2號","121.336228333333","24.9765833333333","6500800","鶯歌區"
"239005","526-UM","2019/10/18 18:39:27","新北市鶯歌區鶯桃路668巷29號","121.329043333333","24.9703766666667","6500800","鶯歌區"
"239001","417-VK","2019/10/18 18:39:17","新北市鶯歌區高職南街13號","121.337376666667","24.9393233333333","6500800","鶯歌區"
"239003","360-BY","2019/10/18 18:39:17","新北市鶯歌區鶯桃路390號","121.333781666667","24.9636116666667","6500800","鶯歌區"
"239002","359-BY","2019/10/18 18:39:19","新北市鶯歌區中山路117號","121.349991666667","24.95696","6500800","鶯歌區"
"239004","193-VK","2019/10/18 18:39:32","新北市鶯歌區尖山路卓厝巷7號","121.341783333333","24.94556","6500800","鶯歌區"
"221036","130-UY","2019/10/18 18:39:24","新北市汐止區長興街一段20號","121.669658333333","25.078855","6501100","汐止區"
"221015","131-UY","2019/10/18 18:39:20","新北市汐止區鄉友街30號","121.668763333333","25.0812633333333","6501100","汐止區"
"221010","269-BY","2019/10/18 18:39:21","新北市汐止區瑞松街31號","121.645643333333","25.1052766666667","6501100","汐止區"
"221012","278-VK","2019/10/18 18:39:14","新北市汐止區保長路51巷5號","121.673545","25.0789033333333","6501100","汐止區"
"221023","279-VK","2019/10/18 18:39:20","新北市汐止區民族二街84巷2弄1號","121.633276666667","25.0700883333333","6501100","汐止區"
"221032","280-BY","2019/10/18 18:39:29","新北市汐止區福山街60巷13弄1號","121.618413333333","25.0462216666667","6501100","汐止區"
"221029","298-VK","2019/10/18 18:39:25","新北市汐止區樟樹一路133巷1號","121.642196666667","25.0650633333333","6501100","汐止區"
"221021","299-VK","2019/10/18 18:39:25","新北市汐止區新台五路一段115號","121.651456666667","25.0614583333333","6501100","汐止區"
"221031","353-TW","2019/10/18 18:39:22","新北市汐止區大同路一段160-7號","121.635561666667","25.05538","6501100","汐止區"
"221035","622-UM","2019/10/18 18:39:25","新北市汐止區大同路二段187巷10弄6號","121.652745","25.0658016666667","6501100","汐止區"
"221025","623-UM","2019/10/18 18:39:18","新北市汐止區福安街22巷12號","121.662611666667","25.0644416666667","6501100","汐止區"
"221002","707-TV","2019/10/18 18:39:16","新北市汐止區大同路一段255號","121.63591","25.05828","6501100","汐止區"
"221018","753-BX","2019/10/18 18:35:58","新北市汐止區茄苳路225巷2號","121.670983333333","25.0686866666667","6501100","汐止區"
"220079","145-BY","2019/10/18 18:39:18","新北市板橋區大觀路二段111號","121.446206666667","25.0015683333333","6500100","板橋區"
"220080","200-UY","2019/10/18 18:39:26","新北市板橋區大觀路二段431-1號","121.441391666667","24.9950066666667","6500100","板橋區"
"220082","610-BX","2019/10/18 18:39:19","新北市板橋區大觀路二段443-2號","121.440641666667","24.9950383333333","6500100","板橋區"
"224002","257-TC","2019/10/18 18:39:30","新北市瑞芳區三爪子坑路32巷124號","121.809133333333","25.1065683333333","6501200","瑞芳區"
"220056","276-BY","2019/10/18 18:39:16","新北市板橋區縣民大道一段98號","121.456931666667","25.00564","6500100","板橋區"
"220072","277-BY","2019/10/18 18:39:25","新北市板橋區大觀路三段5-4號","121.432551666667","24.9958866666667","6500100","板橋區"
"220094","283-UM","2019/10/18 18:39:24","新北市板橋區民生路二段161巷3號","121.469798333333","25.0196366666667","6500100","板橋區"
"220071","283-VK","2019/10/18 18:39:29","新北市土城區四川路9號","121.45551","24.9959783333333","6500100","板橋區"
"220101","285-UM","2019/10/18 18:39:25","新北市板橋區民生路二段161巷1號","121.469873333333","25.0197516666667","6500100","板橋區"
"220083","286-VK","2019/10/18 18:39:17","新北市板橋區大觀路二段153巷46弄11號","121.448761666667","24.9985416666667","6500100","板橋區"
"220081","287-VK","2019/10/18 18:39:12","新北市板橋區大觀路二段153巷46弄1號","121.448556666667","24.9986466666667","6500100","板橋區"
"220090","288-VK","2019/10/18 18:39:11","新北市板橋區民生路二段226巷4號","121.46957","25.021925","6500100","板橋區"
"220061","293-UM","2019/10/18 18:39:23","新北市板橋區民生路二段120號","121.47051","25.0195683333333","6500100","板橋區"
"220084","296-UM","2019/10/18 18:39:15","新北市板橋區大觀路二段205號","121.444506666667","24.9994916666667","6500100","板橋區"
"242046","281-VK","2019/10/18 18:39:25","新北市新莊區富國路77巷17號","121.420328333333","25.026475","6500500","新莊區"
"220075","303-R5","2019/10/18 18:39:16","新北市板橋區南雅南路二段120-12號","121.452081666667","24.9994683333333","6500100","板橋區"
"220092","307-R5","2019/10/18 18:39:22","新北市板橋區民生路二段56-6號","121.471001666667","25.0185733333333","6500100","板橋區"
"220098","317-R6","2019/10/18 18:39:24","新北市板橋區民生路二段161巷9號","121.47017","25.0195633333333","6500100","板橋區"
"220089","487-VK","2019/10/18 18:39:31","新北市板橋區民生路二段177號","121.469741666667","25.02026","6500100","板橋區"
"220088","491-VK","2019/10/18 18:39:09","新北市板橋區民生路二段188號","121.470083333333","25.0202833333333","6500100","板橋區"
"220035","560-BX","2019/10/18 18:39:32","新北市板橋區南雅西路二段145巷6號","121.451568333333","25.01188","6500100","板橋區"
"220063","609-BX","2019/10/18 18:39:25","新北市板橋區民生路二段171號","121.469793333333","25.020065","6500100","板橋區"
"220091","637-BX","2019/10/18 18:39:28","新北市板橋區民生路二段161巷1號","121.469753333333","25.0199","6500100","板橋區"
"220057","686-BX","2019/10/18 18:39:22","新北市板橋區館前西路53號","121.45774","25.0065883333333","6500100","板橋區"
"220054","741-BX","2019/10/18 18:39:26","新北市板橋區南雅南路二段120-2號","121.452443333333","24.999985","6500100","板橋區"
"220102","KEA-2699","2019/10/18 18:39:18","新北市板橋區民生路二段175號","121.469943333333","25.0202433333333","6500100","板橋區"
"220055","827-TW","2019/10/18 18:39:15","新北市板橋區忠孝路42號","121.460498333333","25.0018883333333","6500100","板橋區"
"220067","829-TW","2019/10/18 18:39:26","新北市板橋區民生路二段123號","121.470646666667","25.01874","6500100","板橋區"
"220077","833-TW","2019/10/18 18:39:17","新北市板橋區板城路421號","121.447931666667","24.9963783333333","6500100","板橋區"
"220074","895-R6","2019/10/18 18:39:21","新北市板橋區南雅南路二段120-11號","121.452255","24.999235","6500100","板橋區"
"220073","985-R7","2019/10/18 18:39:23","新北市板橋區南雅南路二段114號","121.45436","25.000305","6500100","板橋區"
"220097","AAC-210","2019/10/18 18:39:18","新北市板橋區民生路二段234巷47號","121.469528333333","25.0227633333333","6500100","板橋區"
"220064","AAC-253","2019/10/18 18:39:14","新北市板橋區縣民大道一段312號","121.461605","25.0109383333333","6500100","板橋區"
"235068","KEA-2873","2019/10/18 18:39:28","新北市中和區中正路209號","121.497108333333","24.993665","6500300","中和區"
"235061","KEA-2875","2019/10/18 18:39:19","新北市中和區民享街30巷1號","121.473886666667","25.003485","6500300","中和區"
"235062","KEA-2876","2019/10/18 18:39:00","新北市中和區中山路二段312巷33弄27號","121.49468","25.0042533333333","6500300","中和區"
