"lineid","car","time","location","longitude","latitude","cityid","cityname"
"234046","148-BY","2019/10/18 19:29:18","新北市永和區得和路423號","121.526216666667","24.9993033333333","6500400","永和區"
"234081","298-R6","2019/10/18 19:29:19","新北市永和區福和路7巷10弄2號","121.525145","25.007995","6500400","永和區"
"234038","336-UY","2019/10/18 19:29:14","新北市永和區成功路二段65號","121.52745","25.0000966666667","6500400","永和區"
"234064","337-UY","2019/10/18 19:29:14","新北市永和區得和路243巷16號","121.520563333333","25.000795","6500400","永和區"
"234086","338-UY","2019/10/18 19:29:20","新北市永和區國中路2號","121.52417","25.0042816666667","6500400","永和區"
"234070","552-UM","2019/10/18 19:29:25","新北市永和區中正路666巷59號","121.519116666667","25.0092633333333","6500400","永和區"
"234017","745-BX","2019/10/18 19:29:25","新北市永和區環河西路一段73號","121.51329","25.0181233333333","6500400","永和區"
"234030","746-BX","2019/10/18 19:29:17","新北市永和區民權路1巷38號","121.52224","24.9981816666667","6500400","永和區"
"234054","KEA-2590","2019/10/18 19:29:29","新北市永和區復興街21號","121.516123333333","25.0130816666667","6500400","永和區"
"234007","KED-0605","2019/10/18 19:29:24","新北市永和區永和路一段127號","121.513996666667","25.0085466666667","6500400","永和區"
"234013","KEA-2591","2019/10/18 19:29:24","新北市永和區中山路一段184巷10弄16號","121.508981666667","25.00964","6500400","永和區"
"234061","AAD-866","2019/10/18 19:29:26","新北市永和區中正路512號","121.517383333333","25.004685","6500400","永和區"
"234042","862-TW","2019/10/18 19:29:17","新北市永和區水源街34號","121.511063333333","25.0044966666667","6500400","永和區"
"234050","863-TW","2019/10/18 19:29:30","新北市永和區信義路120號","121.512341666667","25.0146883333333","6500400","永和區"
"234026","9371-KE","2019/10/18 19:29:27","新北市永和區安樂路98號","121.514141666667","24.9992016666667","6500400","永和區"
"234011","9373-KE","2019/10/18 19:29:26","新北市永和區保安路292號","121.505053333333","25.0117666666667","6500400","永和區"
"249003","593-UM","2019/10/18 19:29:27","新北市八里區華峰三街5號","121.400108333333","25.1464983333333","6502300","八里區"
"248014","025-BX","2019/10/18 19:29:21","新北市五股區民義路一段152號","121.433116666667","25.0875116666667","6501500","五股區"
"248008","KED-0815","2019/10/18 19:29:24","新北市五股區中興路一段95巷1號","121.466666666667","25.0726916666667","6501500","五股區"
"248018","KED-0813","2019/10/18 19:29:14","新北市五股區外寮路1-5號","121.425895","25.076825","6501500","五股區"
"248004","677-BX","2019/10/18 19:29:21","新北市五股區五福路7-1號","121.434281666667","25.088085","6501500","五股區"
"248002","678-BX","2019/10/18 19:29:21","新北市五股區凌雲路一段158巷6號","121.447798333333","25.10294","6501500","五股區"
"234023","9380-KE","2019/10/18 19:29:29","新北市永和區竹林路75巷4弄34號","121.521595","25.0143516666667","6500400","永和區"
"234077","969-R7","2019/10/18 19:29:30","新北市永和區民族街43巷10號","121.518995","24.99833","6500400","永和區"
"234074","AAC-211","2019/10/18 19:29:30","新北市永和區環河東路二段60號","121.523576666667","25.0111766666667","6500400","永和區"
"234067","AAC-212","2019/10/18 19:29:26","新北市永和區永貞路408號","121.508975","25.0077866666667","6500400","永和區"
"234003","AAC-295","2019/10/18 19:29:29","新北市永和區福和路372號","121.514336666667","25.0076566666667","6500400","永和區"
"244023","483-VK","2019/10/18 19:29:25","新北市林口區民富街93號","121.370045","25.0749883333333","6501700","林口區"
"243012","AAD-798","2019/10/18 19:29:18","新北市泰山區仁義路220巷2號","121.43304","25.0538616666667","6501600","泰山區"
"243010","297-R6","2019/10/18 19:20:10","新北市泰山區明志路一段514號","121.430288333333","25.0539816666667","6501600","泰山區"
"243014","KEA-2801","2019/10/18 19:29:09","新北市泰山區中港西路422號","121.433726666667","25.053915","6501600","泰山區"
"243016","421-VK","2019/10/18 19:29:14","新北市泰山區明志路三段352巷10號","121.421471666667","25.0358766666667","6501600","泰山區"
"243009","KEA-2215","2019/10/18 19:29:24","新北市泰山區半山雅10號","121.431466666667","25.0674083333333","6501600","泰山區"
"243011","KEA-2216","2019/10/18 19:29:25","新北市三重區新北大道六段50-1號","121.429095","25.0402416666667","6501600","泰山區"
"243013","646-TV","2019/10/18 19:29:15","新北市泰山區貴子路36巷3弄1號","121.425908333333","25.041465","6501600","泰山區"
"243015","680-BX","2019/10/18 19:29:25","新北市泰山區明志路二段136巷1-1號","121.427315","25.0511833333333","6501600","泰山區"
"222003","436-BY","2019/10/18 19:29:30","新北市深坑區深南路51-1號","121.621341666667","25.0097266666667","6501800","深坑區"
"222002","659-BX","2019/10/18 19:29:29","新北市深坑區北深路一段177號","121.63256","25.01085","6501800","深坑區"
"231061","002-UM","2019/10/18 19:29:21","新北市新店區安康路一段351-1號","121.51939","24.964065","6500600","新店區"
"231044","046-UY","2019/10/18 19:29:23","新北市新店區中興路三段134號","121.544733333333","24.9797533333333","6500600","新店區"
"231060","106-UY","2019/10/18 19:29:26","新北市新店區安康路二段51-1號","121.514808333333","24.9635933333333","6500600","新店區"
"231051","107-UY","2019/10/18 19:29:14","新北市新店區中央五街23號","121.529221666667","24.974615","6500600","新店區"
"231049","108-UY","2019/10/18 19:29:24","新北市新店區北新路三段65巷34弄15號","121.540001666667","24.9814633333333","6500600","新店區"
"231065","110-UY","2019/10/18 19:29:23","新北市新店區安祥路109巷6弄49號","121.475531666667","24.9572766666667","6500600","新店區"
"231062","256-BX","2019/10/18 19:29:31","新北市新店區秀山路72號","121.531406666667","24.9608516666667","6500600","新店區"
"231054","260-TV","2019/10/18 19:29:21","新北市新店區文中路40號","121.539733333333","24.956505","6500600","新店區"
"231042","268-BY","2019/10/18 19:29:22","新北市新店區中興路一段144號","121.542391666667","24.963735","6500600","新店區"
"231064","278-BY","2019/10/18 19:29:31","新北市新店區安和路二段1-1號","121.517776666667","24.96675","6500600","新店區"
"231050","AAD-862","2019/10/18 19:29:30","新北市新店區竹林路72巷15號","121.554135","24.950625","6500600","新店區"
"231045","355-BY","2019/10/18 19:29:24","新北市新店區北宜路二段207號","121.553118333333","24.9532766666667","6500600","新店區"
"231058","3713-VJ","2019/10/18 19:29:22","新北市新店區北新路一段106號","121.542611666667","24.9693733333333","6500600","新店區"
"231056","4715-K9","2019/10/18 19:29:23","新北市新店區安康路二段320巷15弄2號","121.50425","24.9596266666667","6500600","新店區"
"231053","512-UM","2019/10/18 19:29:26","新北市新店區廣興路5巷19號","121.545843333333","24.913315","6500600","新店區"
"231041","619-UM","2019/10/18 19:29:32","新北市新店區中正路568號","121.533881666667","24.9877583333333","6500600","新店區"
"231063","641-BX","2019/10/18 19:29:16","新北市新店區達觀路14巷2號","121.503303333333","24.9417166666667","6500600","新店區"
"231048","KED-0819","2019/10/18 19:29:26","新北市新店區五峰路93號","121.546111666667","24.96738","6500600","新店區"
"231046","719-UM","2019/10/18 19:29:23","新北市新店區北新路一段32號","121.540913333333","24.9658","6500600","新店區"
"231057","720-UM","2019/10/18 19:29:17","新北市新店區花園一路二段11-7號","121.550723333333","24.9334633333333","6500600","新店區"
"231059","897-TW","2019/10/18 19:29:18","新北市新店區安和路三段119號","121.517483333333","24.9851983333333","6500600","新店區"
"231040","898-TW","2019/10/18 19:29:29","新北市新店區三民路31號","121.53805","24.9704283333333","6500600","新店區"
"231043","899-TW","2019/10/18 19:29:23","新北市新店區北新路二段190號","121.543023333333","24.976535","6500600","新店區"
"231066","AKT-0513","2019/10/18 19:29:23","新北市新店區安康路三段359巷16號","121.484556666667","24.9495783333333","6500600","新店區"
"241028","022-UY","2019/10/18 19:29:26","新北市三重區中寮街19號","121.49234","25.0591583333333","6500200","三重區"
"241008","059-VK","2019/10/18 19:29:11","新北市三重區永福街135巷30號","121.477546666667","25.0771166666667","6500200","三重區"
"241031","061-VK","2019/10/18 19:29:30","新北市三重區集美街100號","121.488565","25.0541633333333","6500200","三重區"
"241017","063-VK","2019/10/18 19:29:17","新北市三重區中正北路25巷26號","121.493775","25.0632333333333","6500200","三重區"
"241007","066-VK","2019/10/18 19:29:28","新北市三重區溪尾街124-2號","121.489348333333","25.0794283333333","6500200","三重區"
"241006","262-UM","2019/10/18 19:29:23","新北市三重區車路頭街78號","121.48415","25.0740116666667","6500200","三重區"
"241009","267-UM","2019/10/18 19:29:21","新北市三重區溪尾街242巷70號","121.486111666667","25.0813983333333","6500200","三重區"
"241032","269-UM","2019/10/18 19:29:23","新北市三重區三陽路64號","121.483991666667","25.0587133333333","6500200","三重區"
"241013","270-UM","2019/10/18 19:29:21","新北市三重區仁愛街125巷1號","121.495993333333","25.0751883333333","6500200","三重區"
"241025","271-UM","2019/10/18 19:29:25","新北市三重區頂崁街210巷28弄20號","121.475758333333","25.0671583333333","6500200","三重區"
"241030","KED-0822","2019/10/18 19:29:22","新北市三重區成功路41巷4號","121.490186666667","25.05143","6500200","三重區"
"241035","462-BY","2019/10/18 19:29:25","新北市三重區信義西街1巷1號","121.498013333333","25.0648683333333","6500200","三重區"
"241020","478-VK","2019/10/18 19:29:30","新北市三重區三和路四段20巷24-1號","121.490015","25.0736216666667","6500200","三重區"
"241026","480-VK","2019/10/18 19:29:11","新北市三重區文化南路42號","121.500473333333","25.0604466666667","6500200","三重區"
"241023","545-UM","2019/10/18 19:29:17","新北市三重區頂崁街99號","121.477951666667","25.0638466666667","6500200","三重區"
"241022","KED-0820","2019/10/18 19:29:27","新北市三重區三民街165巷7號","121.483878333333","25.065125","6500200","三重區"
"241029","942-UM","2019/10/18 19:29:17","新北市三重區重安街144號","121.495458333333","25.0549683333333","6500200","三重區"
"235066","003-UY","2019/10/18 19:29:29","新北市中和區景新街43號","121.50404","24.9991516666667","6500300","中和區"
"235063","006-UY","2019/10/18 19:29:21","新北市中和區連城路203巷10弄7號","121.49486","24.9972383333333","6500300","中和區"
"235056","096-UM","2019/10/18 19:29:09","新北市中和區員山路581巷2-10號","121.477471666667","25.00904","6500300","中和區"
"235039","097-UM","2019/10/18 19:29:15","新北市中和區秀峰街127巷2號","121.519658333333","24.9910266666667","6500300","中和區"
"235065","098-UM","2019/10/18 19:29:18","新北市中和區永和路1號","121.499861666667","25.0029133333333","6500300","中和區"
"235040","150-BY","2019/10/18 19:29:15","新北市中和區保健路10巷24號","121.507923333333","24.9965616666667","6500300","中和區"
"235058","151-BY","2019/10/18 19:29:26","新北市中和區連城路372-3號","121.481438333333","24.9952883333333","6500300","中和區"
"235055","183-VK","2019/10/18 19:29:24","新北市中和區莒光路3巷1號","121.471963333333","25.0061633333333","6500300","中和區"
"235038","185-VK","2019/10/18 19:29:32","新北市中和區立人街3號","121.521828333333","24.9941183333333","6500300","中和區"
"235067","255-BX","2019/10/18 19:29:09","新北市中和區新生街220巷15弄11-2號","121.48292","24.9978566666667","6500300","中和區"
"235044","293-VK","2019/10/18 19:29:11","新北市中和區捷運路52號","121.507936666667","24.9905483333333","6500300","中和區"
"235072","301-VK","2019/10/18 19:29:10","新北市中和區連城路265巷10弄1號","121.491635","24.9952466666667","6500300","中和區"
"235043","352-BY","2019/10/18 19:29:23","新北市中和區景平路183號","121.511743333333","24.9926066666667","6500300","中和區"
"235042","KEA-2878","2019/10/18 19:29:19","新北市中和區中和路262巷33號","121.509645","24.99946","6500300","中和區"
"235045","551-UM","2019/10/18 19:29:28","新北市中和區景新街467巷20弄110號","121.514913333333","24.9865983333333","6500300","中和區"
"235070","558-UM","2019/10/18 19:29:31","新北市中和區景平路561號","121.49822","24.9997066666667","6500300","中和區"
"235060","KED-0823","2019/10/18 19:29:14","新北市中和區中山路二段523巷12號","121.48156","25.004515","6500300","中和區"
"235054","640-BX","2019/10/18 19:29:24","新北市中和區莒光路105號","121.472425","25.0027516666667","6500300","中和區"
"235047","732-UM","2019/10/18 19:29:16","新北市中和區景平路259巷40號","121.506663333333","24.99277","6500300","中和區"
"235046","733-UM","2019/10/18 19:29:22","新北市中和區忠孝街60巷2弄4號","121.511633333333","24.9836633333333","6500300","中和區"
"235057","801-TS","2019/10/18 19:29:22","新北市中和區員山路247號","121.481293333333","24.998605","6500300","中和區"
"235041","802-TS","2019/10/18 19:29:19","新北市中和區中和路390號","121.511063333333","25.0024866666667","6500300","中和區"
"235052","805-TS","2019/10/18 19:29:16","新北市中和區華新街232巷9-4號","121.505843333333","24.9817366666667","6500300","中和區"
"235048","896-TW","2019/10/18 19:29:26","新北市中和區忠孝街1巷2-1號","121.509186666667","24.9830483333333","6500300","中和區"
"235053","900-TW","2019/10/18 19:29:30","新北市中和區國光街144號","121.468228333333","25.00152","6500300","中和區"
"235064","911-UM","2019/10/18 19:29:30","新北市中和區圓通路53號","121.500788333333","24.9974566666667","6500300","中和區"
"235051","157-BY","2019/10/18 19:29:19","新北市中和區南華路5號","121.502103333333","24.995465","6500300","中和區"
"235037","AAC-213","2019/10/18 19:29:26","新北市中和區秀朗路三段50巷3號","121.526085","24.9954533333333","6500300","中和區"
"235059","AAC-215","2019/10/18 19:29:12","新北市中和區圓通路252巷11號","121.493058333333","24.9916533333333","6500300","中和區"
"220065","072-UY","2019/10/18 19:29:15","新北市板橋區國泰街75巷28弄15號","121.467725","25.005045","6500100","板橋區"
"220086","073-UY","2019/10/18 19:29:27","新北市板橋區中正路216巷73號","121.457983333333","25.0189983333333","6500100","板橋區"
"220106","075-UY","2019/10/18 19:29:22","新北市板橋區文化路二段446號","121.474631666667","25.0323133333333","6500100","板橋區"
"220069","AAD-861","2019/10/18 19:29:28","新北市板橋區貴興路77號","121.456876666667","25.0029933333333","6500100","板橋區"
"247004","500-BY","2019/10/18 19:29:27","新北市蘆洲區長安街140號","121.460098333333","25.0821483333333","6501400","蘆洲區"
"226004","312-R5","2019/10/18 19:29:21","新北市平溪區十分里十分街182號","121.778676666667","25.0439233333333","6502400","平溪區"
"235049","251-BX","2019/10/18 19:29:18","新北市中和區安和路37號","121.509888333333","24.994555","6500300","中和區"
"228001","670-TC","2019/10/18 19:29:23","新北市貢寮區真理里大澳街46號","121.925096666667","25.056405","6502600","貢寮區"
"228003","828-UM","2019/10/18 19:29:25","新北市貢寮區和美里和美街22-1號","121.912825","25.0826083333333","6502600","貢寮區"
"224008","273-VK","2019/10/18 19:29:23","新北市瑞芳區一坑路99號","121.802215","25.107855","6501200","瑞芳區"
"227002","642-TC","2019/10/18 19:29:24","新北市雙溪區雙溪里光復街18號","121.865131666667","25.0354216666667","6502500","雙溪區"
"227001","400-TW","2019/10/18 19:29:16","新北市雙溪區新基里新基北街43號","121.868228333333","25.0396766666667","6502500","雙溪區"
"222001","KEA-2212","2019/10/18 19:29:15","新北市深坑區深坑街10號","121.615845","25.0028383333333","6501800","深坑區"
"208002","KEA-2872","2019/10/18 19:29:18","新北市金山區中山路313巷8號","121.635323333333","25.2233633333333","6502700","金山區"
"208003","665-BX","2019/10/18 19:29:24","新北市金山區仁愛路25號","121.63729","25.2191466666667","6502700","金山區"
"251005","010-UM","2019/10/18 19:29:30","新北市淡水區水源街一段47巷39號","121.444041666667","25.1735633333333","6501000","淡水區"
"251001","011-UM","2019/10/18 19:29:21","新北市淡水區民權路141-1號","121.460198333333","25.1363983333333","6501000","淡水區"
"251008","181-VK","2019/10/18 19:29:21","新北市淡水區中正路一段68號","121.425185","25.1770466666667","6501000","淡水區"
"251010","413-VK","2019/10/18 19:29:28","新北市淡水區中正路二段150號","121.422921666667","25.1877533333333","6501000","淡水區"
"251007","442-VK","2019/10/18 19:26:48","新北市淡水區中正東路二段143巷8弄1號","121.461726666667","25.1477783333333","6501000","淡水區"
"251006","561-UM","2019/10/18 19:29:17","新北市淡水區大義街29巷18號","121.441451666667","25.178055","6501000","淡水區"
"251009","575-R6","2019/10/18 19:29:15","新北市淡水區中山路157-3號","121.440713333333","25.1728966666667","6501000","淡水區"
"251002","672-BX","2019/10/18 19:29:17","新北市淡水區中正路二段200巷5號","121.42568","25.1882583333333","6501000","淡水區"
"251003","766-UM","2019/10/18 19:29:18","新北市淡水區中山北路二段383號","121.444093333333","25.18839","6501000","淡水區"
"207003","550-UM","2019/10/18 19:29:26","新北市萬里區大鵬里萬里加投101號","121.646151666667","25.2130166666667","6502800","萬里區"
"207004","291-VK","2019/10/18 19:29:15","新北市萬里區萬里里瑪鋉路87-1號","121.688756666667","25.177185","6502800","萬里區"
"252002","178-VK","2019/10/18 19:29:20","新北市三芝區淡金路二段18-1號","121.502711666667","25.2595033333333","6502100","三芝區"
"208001","170-UY","2019/10/18 19:29:31","新北市金山區中正路168號","121.630983333333","25.2212733333333","6502700","金山區"
"237004","KEA-2597","2019/10/18 19:29:24","新北市三峽區有木205-1號","121.439035","24.851605","6500900","三峽區"
"237007","153-BY","2019/10/18 19:29:22","新北市三峽區二鬮路110巷26號","121.358671666667","24.9093466666667","6500900","三峽區"
"237009","210-TH","2019/10/18 19:29:24","新北市三峽區中山路22號","121.369295","24.9343483333333","6500900","三峽區"
"237013","252-BX","2019/10/18 19:29:24","新北市三峽區介壽路一段340號","121.381328333333","24.9301883333333","6500900","三峽區"
"237012","275-BY","2019/10/18 19:29:14","新北市三峽區三樹路98巷175號","121.384556666667","24.93994","6500900","三峽區"
"237008","302-VK","2019/10/18 19:29:25","新北市三峽區大同路154號","121.37311","24.92697","6500900","三峽區"
"237014","433-BY","2019/10/18 19:29:14","新北市三峽區中山路63巷12號","121.366923333333","24.9342916666667","6500900","三峽區"
"237006","5529-G3","2019/10/18 19:29:14","新北市三峽區中正路一段336巷15弄2號","121.369955","24.9249283333333","6500900","三峽區"
"237011","KEA-2596","2019/10/18 19:29:23","新北市三峽區介壽路一段384號","121.38304","24.930755","6500900","三峽區"
"237015","649-BX","2019/10/18 19:29:24","新北市三峽區成福路318-1號","121.43056","24.92382","6500900","三峽區"
"237010","706-TV","2019/10/18 19:29:26","新北市三峽區復興路175號","121.369976666667","24.9385216666667","6500900","三峽區"
"237005","AKY-6261","2019/10/18 19:29:16","新北市三峽區中山路184巷19號","121.364423333333","24.9371183333333","6500900","三峽區"
"236079","166-UM","2019/10/18 19:29:29","新北市土城區中州路27巷78號","121.41261","24.95632","6501300","土城區"
"236069","KEA-2877","2019/10/18 19:29:16","新北市土城區學府路一段129巷8號","121.454351666667","24.9861883333333","6501300","土城區"
"252001","KED-0821","2019/10/18 19:29:31","新北市三芝區長勤街63-1號","121.500096666667","25.256045","6502100","三芝區"
"236020","401-BY","2019/10/18 19:29:12","新北市土城區峰廷街3號","121.46911","24.9873666666667","6501300","土城區"
"236048","913-UM","2019/10/18 19:29:27","新北市土城區清水路186號","121.460216666667","24.98175","6501300","土城區"
"236055","AAC-216","2019/10/18 19:29:22","新北市土城區學府路一段276號","121.450093333333","24.983255","6501300","土城區"
"242005","751-BX","2019/10/18 19:29:15","新北市新莊區思源路52號","121.460563333333","25.0440133333333","6500500","新莊區"
"242032","175-VK","2019/10/18 19:29:17","新北市新莊區新泰路225巷5號","121.446148333333","25.0391933333333","6500500","新莊區"
"238015","755-BX","2019/10/18 19:29:24","新北市樹林區大安路541號","121.412716666667","24.9842716666667","6500700","樹林區"
"238023","601-UM","2019/10/18 19:29:20","新北市樹林區中正路865號","121.40873","25.01811","6500700","樹林區"
"238019","571-TV","2019/10/18 19:29:22","新北市樹林區鎮前街347巷1弄22號","121.417168333333","24.9839216666667","6500700","樹林區"
"238024","5061-A6","2019/10/18 19:29:11","新北市樹林區福德街48-12號","121.398736666667","24.9747683333333","6500700","樹林區"
"238018","KEA-2217","2019/10/18 19:29:22","新北市樹林區中華路211號","121.419696666667","24.9814016666667","6500700","樹林區"
"238022","KEA-2213","2019/10/18 19:29:21","新北市樹林區八德街102號","121.420881666667","24.980035","6500700","樹林區"
"238021","KEA-2539","2019/10/18 19:29:22","新北市樹林區佳園路三段181巷17號","121.386555","24.9478333333333","6500700","樹林區"
"238025","303-VK","2019/10/18 19:29:20","新北市樹林區中山路一段115號","121.422896666667","24.99046","6500700","樹林區"
"238017","283-BY","2019/10/18 19:29:21","新北市樹林區光興街192號","121.407848333333","25.0046616666667","6500700","樹林區"
"238014","282-BY","2019/10/18 19:29:23","新北市樹林區千歲街6巷18號","121.42544","24.9952283333333","6500700","樹林區"
"238020","268-VK","2019/10/18 19:29:15","新北市樹林區俊英街107-1號","121.424611666667","25.0097516666667","6500700","樹林區"
"238026","172-UY","2019/10/18 19:29:17","新北市樹林區佳園路三段95號","121.387521666667","24.95238","6500700","樹林區"
"238016","169-UY","2019/10/18 19:29:10","新北市樹林區復興路443號","121.413698333333","24.9841516666667","6500700","樹林區"
"239007","AAC-297","2019/10/18 19:29:17","新北市鶯歌區西湖街53巷30-1號","121.341936666667","24.961055","6500800","鶯歌區"
"239006","891-R6","2019/10/18 19:29:26","新北市鶯歌區鶯桃路67巷5號","121.340941666667","24.95235","6500800","鶯歌區"
"239008","527-UM","2019/10/18 19:29:19","新北市鶯歌區大湖路542號","121.336843333333","24.9728816666667","6500800","鶯歌區"
"239005","526-UM","2019/10/18 19:29:27","新北市鶯歌區東湖路5號","121.351183333333","24.9724283333333","6500800","鶯歌區"
"239001","417-VK","2019/10/18 19:29:17","新北市鶯歌區建國路596巷46號","121.340406666667","24.9516066666667","6500800","鶯歌區"
"239003","360-BY","2019/10/18 19:29:17","新北市鶯歌區尖山路156巷69號","121.345086666667","24.9496533333333","6500800","鶯歌區"
"239002","359-BY","2019/10/18 19:29:19","新北市鶯歌區湖山路29巷20號","121.339563333333","24.9747183333333","6500800","鶯歌區"
"239004","193-VK","2019/10/18 19:29:12","新北市鶯歌區鶯華新村1號","121.329953333333","24.93498","6500800","鶯歌區"
"221008","489-VK","2019/10/18 19:29:22","新北市汐止區康寧街235號","121.624036666667","25.0667766666667","6501100","汐止區"
"221027","281-BY","2019/10/18 19:29:18","新北市汐止區忠孝東路9號","121.658256666667","25.06589","6501100","汐止區"
"221021","299-VK","2019/10/18 19:29:05","新北市汐止區汐萬路一段191號","121.652478333333","25.0716516666667","6501100","汐止區"
"221031","353-TW","2019/10/18 19:29:22","新北市汐止區康寧街901號","121.650755","25.0752916666667","6501100","汐止區"
"221002","707-TV","2019/10/18 19:29:16","新北市汐止區大同路一段331號","121.638301666667","25.0592333333333","6501100","汐止區"
"220079","145-BY","2019/10/18 19:29:18","新北市板橋區公館街106號","121.46118","25.0167616666667","6500100","板橋區"
"220080","200-UY","2019/10/18 19:29:26","新北市板橋區大觀路二段3巷67號","121.449618333333","25.003395","6500100","板橋區"
"220082","610-BX","2019/10/18 19:29:19","新北市板橋區溪城路85號","121.426785","24.9834716666667","6500100","板橋區"
"220056","276-BY","2019/10/18 19:29:16","新北市板橋區干城路158-1號","121.460513333333","24.99224","6500100","板橋區"
"220072","277-BY","2019/10/18 19:29:25","新北市板橋區金門街253巷10弄5號","121.433025","24.9882516666667","6500100","板橋區"
"220094","283-UM","2019/10/18 19:29:28","新北市板橋區銘傳街80號","121.46922","25.03129","6500100","板橋區"
"220071","283-VK","2019/10/18 19:29:09","新北市板橋區忠孝路48巷9弄28號","121.462065","25.00014","6500100","板橋區"
"220101","285-UM","2019/10/18 19:29:25","新北市板橋區萬板路46巷27號","121.472743333333","25.0225166666667","6500100","板橋區"
"220053","285-VK","2019/10/18 19:29:27","新北市板橋區懷仁街77巷22號","121.477638333333","25.0190016666667","6500100","板橋區"
"220083","286-VK","2019/10/18 19:29:19","新北市板橋區龍興街73巷41號","121.442263333333","25.002755","6500100","板橋區"
"220081","287-VK","2019/10/18 19:29:12","新北市板橋區南雅西路一段110號","121.452558333333","25.0057316666667","6500100","板橋區"
"220090","288-VK","2019/10/18 19:29:11","新北市板橋區長江路一段53號","121.458706666667","25.0292","6500100","板橋區"
"220061","293-UM","2019/10/18 19:29:23","新北市板橋區漢生東路151號","121.468493333333","25.01377","6500100","板橋區"
"220062","295-UM","2019/10/18 19:29:28","新北市板橋區三民路二段202-5號","121.47906","25.0145116666667","6500100","板橋區"
"220084","296-UM","2019/10/18 19:29:30","新北市板橋區篤行路三段67號","121.427575","24.9857683333333","6500100","板橋區"
"242046","281-VK","2019/10/18 19:29:25","新北市樹林區俊興街173-3號","121.417015","25.0123583333333","6500500","新莊區"
"220075","303-R5","2019/10/18 19:29:16","新北市板橋區中正路275巷93號","121.450768333333","25.0180616666667","6500100","板橋區"
"220092","307-R5","2019/10/18 19:29:31","新北市板橋區陽明街164巷10弄2-1號","121.464093333333","25.0242433333333","6500100","板橋區"
"220098","317-R6","2019/10/18 19:29:23","新北市板橋區四維路266巷2弄27號","121.464178333333","25.028055","6500100","板橋區"
"220089","487-VK","2019/10/18 19:29:30","新北市板橋區龍泉街81號","121.456653333333","25.025075","6500100","板橋區"
"220088","491-VK","2019/10/18 19:29:17","新北市板橋區文化路二段560號","121.476421666667","25.0342616666667","6500100","板橋區"
"220035","560-BX","2019/10/18 19:29:21","新北市板橋區中正路433巷1號","121.454091666667","25.0232733333333","6500100","板橋區"
"220103","561-BX","2019/10/18 19:29:26","新北市板橋區陽明街29巷11號","121.464843333333","25.0219033333333","6500100","板橋區"
"220063","609-BX","2019/10/18 19:29:25","新北市板橋區林森街3巷1弄23號","121.48276","25.0236033333333","6500100","板橋區"
"220091","637-BX","2019/10/18 19:29:27","新北市板橋區懷德街201巷1號","121.48064","25.029315","6500100","板橋區"
"220057","686-BX","2019/10/18 19:29:21","新北市板橋區和平路安樂巷54號","121.462221666667","24.9930616666667","6500100","板橋區"
"220093","689-BX","2019/10/18 19:29:19","新北市板橋區長江路一段111號","121.459783333333","25.029735","6500100","板橋區"
"220054","741-BX","2019/10/18 19:29:26","新北市板橋區重慶路155巷19號","121.463","25.004165","6500100","板橋區"
"220102","KEA-2699","2019/10/18 19:29:18","新北市板橋區雙十路二段46巷19號","121.476253333333","25.0282516666667","6500100","板橋區"
"220055","827-TW","2019/10/18 19:29:28","新北市板橋區重慶路290巷22弄16號","121.462228333333","24.9995383333333","6500100","板橋區"
"220067","829-TW","2019/10/18 19:29:26","新北市板橋區漢生東路299巷23號","121.472813333333","25.008895","6500100","板橋區"
"220068","831-TW","2019/10/18 19:29:29","新北市板橋區萬安街71號","121.483725","25.0241116666667","6500100","板橋區"
"220077","833-TW","2019/10/18 19:29:17","新北市板橋區大觀路一段28巷64號","121.449808333333","25.0104616666667","6500100","板橋區"
"220074","895-R6","2019/10/18 19:29:25","新北市板橋區北門街23-2號","121.456833333333","25.0110633333333","6500100","板橋區"
"220073","985-R7","2019/10/18 19:29:23","新北市板橋區瑞安街26號","121.45525","25.022895","6500100","板橋區"
"220097","AAC-210","2019/10/18 19:29:18","新北市板橋區漢生西路58巷1弄2號","121.463408333333","25.018975","6500100","板橋區"
"220064","AAC-253","2019/10/18 19:29:14","新北市板橋區中山路一段54號","121.461281666667","25.0095483333333","6500100","板橋區"
"235068","KEA-2873","2019/10/18 19:29:28","新北市中和區泰和街24號","121.499668333333","25.0005333333333","6500300","中和區"
"235061","KEA-2875","2019/10/18 19:29:25","新北市中和區民安街2巷17號","121.480286666667","25.0014133333333","6500300","中和區"
