"lineid","car","time","location","longitude","latitude","cityid","cityname"
"234046","148-BY","2019/10/18 19:59:19","新北市永和區成功路一段26號","121.527075","25.004805","6500400","永和區"
"234081","298-R6","2019/10/18 19:59:19","新北市永和區林森路112巷12弄34號","121.522838333333","25.0045983333333","6500400","永和區"
"234038","336-UY","2019/10/18 19:59:14","新北市永和區成功路二段122號","121.526506666667","24.9976733333333","6500400","永和區"
"234064","337-UY","2019/10/18 19:59:29","新北市永和區中正路412巷20弄28號","121.51901","25.0013566666667","6500400","永和區"
"234086","338-UY","2019/10/18 19:59:20","新北市永和區福和路159號","121.520313333333","25.0076766666667","6500400","永和區"
"234070","552-UM","2019/10/18 19:59:25","新北市永和區國光路37號","121.51926","25.00837","6500400","永和區"
"234017","745-BX","2019/10/18 19:59:25","新北市永和區文化路63號","121.51405","25.015065","6500400","永和區"
"234030","746-BX","2019/10/18 19:59:17","新北市永和區民權路49巷24號","121.521301666667","24.9974066666667","6500400","永和區"
"234054","KEA-2590","2019/10/18 19:59:29","新北市永和區環河東路一段122號","121.520678333333","25.015485","6500400","永和區"
"234007","KED-0605","2019/10/18 19:59:24","新北市永和區保生路22巷8號","121.507235","25.0080866666667","6500400","永和區"
"234013","KEA-2591","2019/10/18 19:59:13","新北市永和區保生路55號","121.5047","25.0105783333333","6500400","永和區"
"234061","AAD-866","2019/10/18 19:59:28","新北市永和區中正路283巷53弄1號","121.516063333333","24.99959","6500400","永和區"
"234042","862-TW","2019/10/18 19:59:17","新北市永和區雙和街17巷19號","121.509046666667","25.0013216666667","6500400","永和區"
"234050","863-TW","2019/10/18 19:59:30","新北市永和區保安路244號","121.506541666667","25.01271","6500400","永和區"
"234026","9371-KE","2019/10/18 19:59:27","新北市永和區水源街27巷4號","121.511148333333","25.0040916666667","6500400","永和區"
"234011","9373-KE","2019/10/18 19:59:26","新北市永和區仁愛路352巷122弄4號","121.500516666667","25.0086466666667","6500400","永和區"
"249005","172-UM","2019/10/18 19:59:17","新北市八里區楓林路2-9號","121.385941666667","25.13238","6502300","八里區"
"249001","173-UM","2019/10/18 19:59:26","新北市八里區中華路二段312號","121.403783333333","25.148305","6502300","八里區"
"249004","303-UY","2019/10/18 19:59:15","新北市八里區中華路一段333-1號","121.412961666667","25.15426","6502300","八里區"
"249002","305-UY","2019/10/18 19:59:13","新北市八里區頂寮二街1號","121.450836666667","25.1236716666667","6502300","八里區"
"249003","593-UM","2019/10/18 19:59:27","新北市八里區中華路二段560巷17號","121.398468333333","25.1452","6502300","八里區"
"248016","026-BX","2019/10/18 19:59:17","新北市五股區成泰路三段577巷80弄7號","121.449496666667","25.1042616666667","6501500","五股區"
"248008","KED-0815","2019/10/18 19:59:24","新北市五股區四維路30巷36弄1號","121.469023333333","25.0714466666667","6501500","五股區"
"248018","KED-0813","2019/10/18 19:59:14","新北市五股區登林路118號","121.41844","25.07378","6501500","五股區"
"248010","272-BY","2019/10/18 19:59:23","新北市五股區登林路75號","121.428363333333","25.0698716666667","6501500","五股區"
"248004","677-BX","2019/10/18 19:59:21","新北市五股區成泰路一段72-1號","121.435643333333","25.0701066666667","6501500","五股區"
"248002","678-BX","2019/10/18 19:59:21","新北市五股區成泰路三段487號","121.45072","25.0992266666667","6501500","五股區"
"234023","9380-KE","2019/10/18 19:59:09","新北市永和區中正路702巷18號","121.516433333333","25.01047","6500400","永和區"
"234077","969-R7","2019/10/18 19:59:29","新北市永和區智光街94號","121.516115","24.9969766666667","6500400","永和區"
"234074","AAC-211","2019/10/18 19:59:21","新北市永和區豫溪街207巷1號","121.523486666667","25.0099283333333","6500400","永和區"
"234067","AAC-212","2019/10/18 19:59:26","新北市永和區永貞路358號","121.510123333333","25.006635","6500400","永和區"
"234003","AAC-295","2019/10/18 19:59:29","新北市永和區中正路708號","121.515968333333","25.009945","6500400","永和區"
"243012","AAD-798","2019/10/18 19:59:18","新北市泰山區全興路13號","121.432321666667","25.0589233333333","6501600","泰山區"
"243014","KEA-2801","2019/10/18 19:59:29","新北市泰山區泰林路二段33-1號","121.435836666667","25.0567866666667","6501600","泰山區"
"243016","421-VK","2019/10/18 19:59:14","新北市泰山區貴陽街3號","121.421065","25.03354","6501600","泰山區"
"243009","KEA-2215","2019/10/18 19:59:24","新北市泰山區楓江路16巷32號","121.433998333333","25.0614366666667","6501600","泰山區"
"243011","KEA-2216","2019/10/18 19:59:25","新北市泰山區工專路65號","121.422131666667","25.0403933333333","6501600","泰山區"
"243015","680-BX","2019/10/18 19:59:25","新北市泰山區明志路二段232巷16號","121.426883333333","25.048745","6501600","泰山區"
"222003","436-BY","2019/10/18 19:59:30","新北市深坑區埔新街14號","121.620733333333","25.003925","6501800","深坑區"
"222002","659-BX","2019/10/18 19:59:29","新北市深坑區北深路二段81巷8弄3號","121.618208333333","25.0030416666667","6501800","深坑區"
"231061","002-UM","2019/10/18 19:59:21","新北市新店區安民街307號","121.517488333333","24.9738783333333","6500600","新店區"
"231055","0291-UT","2019/10/18 19:59:13","新北市新店區力行路5號","121.539356666667","24.964595","6500600","新店區"
"231044","046-UY","2019/10/18 19:59:23","新北市新店區復興路27號","121.539061666667","24.9866933333333","6500600","新店區"
"231060","106-UY","2019/10/18 19:59:16","新北市新店區安康路二段341巷1號","121.496848333333","24.9552866666667","6500600","新店區"
"231051","107-UY","2019/10/18 19:59:14","新北市新店區中央路147號","121.53011","24.973445","6500600","新店區"
"231049","108-UY","2019/10/18 19:59:24","新北市新店區建國路221號","121.537648333333","24.9813566666667","6500600","新店區"
"231065","110-UY","2019/10/18 19:59:23","新北市新店區安祥路106巷10號","121.478688333333","24.9626066666667","6500600","新店區"
"231068","187-VK","2019/10/18 19:59:14","新北市新店區安康路一段266巷4號","121.51994","24.9639766666667","6500600","新店區"
"231062","256-BX","2019/10/18 19:59:11","新北市新店區華城路12-1號","121.528886666667","24.9578733333333","6500600","新店區"
"231054","260-TV","2019/10/18 19:59:21","新北市新店區光明街183號","121.539971666667","24.9630783333333","6500600","新店區"
"231042","268-BY","2019/10/18 19:59:22","新北市新店區中興路一段292號","121.546011666667","24.969155","6500600","新店區"
"231064","278-BY","2019/10/18 19:59:11","新北市新店區安光路10-1號","121.513821666667","24.9641233333333","6500600","新店區"
"231050","AAD-862","2019/10/18 19:59:30","新北市新店區北宜路二段4號","121.547643333333","24.9519183333333","6500600","新店區"
"231045","355-BY","2019/10/18 19:59:24","新北市新店區北宜路二段220號","121.559661666667","24.9543566666667","6500600","新店區"
"231056","4715-K9","2019/10/18 19:59:22","新北市新店區北新路二段29巷3弄1號","121.542163333333","24.9729883333333","6500600","新店區"
"231067","4772-VM","2019/10/18 19:59:17","新北市新店區秀山路11巷28號","121.531475","24.9586483333333","6500600","新店區"
"231053","512-UM","2019/10/18 19:59:26","新北市新店區新烏路三段寶島巷2弄3號","121.55204","24.8986383333333","6500600","新店區"
"231041","619-UM","2019/10/18 19:59:27","新北市新店區中正路351號","121.535333333333","24.9759916666667","6500600","新店區"
"231063","641-BX","2019/10/18 19:59:16","新北市新店區車子路11號","121.503025","24.952","6500600","新店區"
"231048","KED-0819","2019/10/18 19:59:26","新北市新店區寶宏路10號","121.549191666667","24.9764316666667","6500600","新店區"
"231057","720-UM","2019/10/18 19:59:17","新北市新店區花園二路一段11號","121.55544","24.9324883333333","6500600","新店區"
"231059","897-TW","2019/10/18 19:59:18","新北市新店區安和路一段15號","121.516926666667","24.9641533333333","6500600","新店區"
"231040","898-TW","2019/10/18 19:59:09","新北市新店區中正路75巷71號","121.543226666667","24.968775","6500600","新店區"
"231043","899-TW","2019/10/18 19:59:23","新北市新店區中正路263-2號","121.538496666667","24.9738166666667","6500600","新店區"
"231066","AKT-0513","2019/10/18 19:59:23","新北市新店區薏仁坑路2-1號","121.500456666667","24.9577483333333","6500600","新店區"
"241011","013-R5","2019/10/18 19:59:11","新北市三重區秀江街254號","121.496143333333","25.07123","6500200","三重區"
"241028","022-UY","2019/10/18 19:59:26","新北市三重區中正南路63號","121.494166666667","25.059175","6500200","三重區"
"241008","059-VK","2019/10/18 19:59:31","新北市三重區永福街197巷37弄1號","121.478136666667","25.07447","6500200","三重區"
"241031","061-VK","2019/10/18 19:59:30","新北市三重區重新路四段144巷23號","121.486988333333","25.0552766666667","6500200","三重區"
"241015","062-VK","2019/10/18 19:59:12","新北市三重區三和路二段35-1號","121.500968333333","25.0673266666667","6500200","三重區"
"241017","063-VK","2019/10/18 19:59:17","新北市三重區自強路一段215號","121.491353333333","25.0684716666667","6500200","三重區"
"241024","065-VK","2019/10/18 19:59:18","新北市三重區力行路一段176號","121.48208","25.0715166666667","6500200","三重區"
"241007","066-VK","2019/10/18 19:59:28","新北市三重區溪尾街154號","121.488906666667","25.0799866666667","6500200","三重區"
"241003","091-VK","2019/10/18 19:59:17","新北市三重區仁愛街445巷38號","121.491505","25.0834366666667","6500200","三重區"
"241006","262-UM","2019/10/18 19:59:23","新北市三重區力行路二段121號","121.482941666667","25.07658","6500200","三重區"
"241016","266-UM","2019/10/18 19:59:31","新北市三重區正義北路36巷18號","121.496453333333","25.06323","6500200","三重區"
"241009","267-UM","2019/10/18 19:59:24","新北市三重區三和路四段392號","121.481851666667","25.0791433333333","6500200","三重區"
"241018","268-UM","2019/10/18 19:59:16","新北市三重區正義北路195號","121.496133333333","25.0682816666667","6500200","三重區"
"241032","269-UM","2019/10/18 19:59:23","新北市三重區捷運路61號","121.483485","25.0555966666667","6500200","三重區"
"241013","270-UM","2019/10/18 19:59:21","新北市三重區三和路三段139巷1號","121.492678333333","25.0735766666667","6500200","三重區"
"241025","271-UM","2019/10/18 19:59:25","新北市三重區頂崁街210巷16號","121.476548333333","25.0676133333333","6500200","三重區"
"241030","KED-0822","2019/10/18 19:59:22","新北市三重區重新路四段244巷9號","121.486361666667","25.0534433333333","6500200","三重區"
"241035","462-BY","2019/10/18 19:59:24","新北市三重區大榮街7號","121.498155","25.0631366666667","6500200","三重區"
"241004","475-VK","2019/10/18 19:59:24","新北市三重區五華街74號","121.493281666667","25.08205","6500200","三重區"
"241020","478-VK","2019/10/18 19:59:10","新北市三重區忠孝路一段101號","121.489531666667","25.0721283333333","6500200","三重區"
"241026","480-VK","2019/10/18 19:59:31","新北市三重區福德南路20號","121.502888333333","25.0632133333333","6500200","三重區"
"241014","543-UM","2019/10/18 19:59:11","新北市三重區長樂街16號","121.499551666667","25.069015","6500200","三重區"
"241023","545-UM","2019/10/18 19:58:56","新北市三重區頂崁街168號","121.47758","25.065875","6500200","三重區"
"241001","547-UM","2019/10/18 19:59:28","新北市三重區溪尾街16號","121.491243333333","25.0758033333333","6500200","三重區"
"241019","KEA-2593","2019/10/18 19:59:29","新北市三重區重陽路四段18號","121.490876666667","25.0691733333333","6500200","三重區"
"241012","743-BX","2019/10/18 19:59:23","新北市三重區仁厚街26號","121.499625","25.0763033333333","6500200","三重區"
"241029","942-UM","2019/10/18 19:59:17","新北市三重區重安街22號","121.490423333333","25.05808","6500200","三重區"
"241033","AAC-255","2019/10/18 19:59:27","新北市三重區中興北街20號","121.469683333333","25.048495","6500200","三重區"
"235066","003-UY","2019/10/18 19:59:29","新北市中和區中山路二段3巷22弄1號","121.506488333333","25.00533","6500300","中和區"
"235039","097-UM","2019/10/18 19:59:15","新北市中和區景平路278巷16弄24號","121.514503333333","24.99368","6500300","中和區"
"235065","098-UM","2019/10/18 19:59:18","新北市中和區福美路298-1號","121.497425","25.005135","6500300","中和區"
"235040","150-BY","2019/10/18 19:59:15","新北市中和區宜安路165號","121.508728333333","24.9990616666667","6500300","中和區"
"235055","183-VK","2019/10/18 19:59:24","新北市中和區中正路1204號","121.480118333333","25.010425","6500300","中和區"
"235067","255-BX","2019/10/18 19:59:29","新北市中和區民樂路74號","121.48428","25.0012383333333","6500300","中和區"
"235044","293-VK","2019/10/18 19:59:11","新北市中和區復興路56號","121.50386","24.9904816666667","6500300","中和區"
"247016","KEA-2869","2019/10/18 19:59:11","新北市蘆洲區中正路96號","121.470041666667","25.08378","6501400","蘆洲區"
"235050","4979-A6","2019/10/18 19:59:21","新北市中和區景平路155巷2弄2號","121.513303333333","24.992005","6500300","中和區"
"235070","558-UM","2019/10/18 19:59:11","新北市中和區中正路426號","121.491641666667","24.9942066666667","6500300","中和區"
"235046","733-UM","2019/10/18 19:59:12","新北市中和區興南路一段105巷20弄3號","121.510081666667","24.9856933333333","6500300","中和區"
"235048","896-TW","2019/10/18 19:59:26","新北市中和區景新街467巷20弄110號","121.514891666667","24.98653","6500300","中和區"
"235053","900-TW","2019/10/18 19:59:29","新北市中和區中山路三段53號","121.476806666667","25.0056533333333","6500300","中和區"
"235051","157-BY","2019/10/18 19:59:26","新北市中和區景安路204號","121.504106666667","24.9910866666667","6500300","中和區"
"235037","AAC-213","2019/10/18 19:59:26","新北市中和區自強路60號","121.520038333333","24.9944583333333","6500300","中和區"
"235059","AAC-215","2019/10/18 19:59:12","新北市中和區圓通路335巷33弄3號","121.493276666667","24.989325","6500300","中和區"
"220065","072-UY","2019/10/18 19:59:15","新北市板橋區海山路27號","121.467751666667","25.009105","6500100","板橋區"
"220086","073-UY","2019/10/18 19:59:27","新北市板橋區林園街2號","121.454158333333","25.009195","6500100","板橋區"
"220106","075-UY","2019/10/18 19:59:22","新北市板橋區民治街126巷5號","121.477731666667","25.03128","6500100","板橋區"
"220069","AAD-861","2019/10/18 19:59:33","新北市板橋區大明街20巷19弄13號","121.457948333333","25.0031816666667","6500100","板橋區"
"247006","893-R6","2019/10/18 19:59:23","新北市蘆洲區九芎街115號","121.465486666667","25.0795483333333","6501400","蘆洲區"
"247004","500-BY","2019/10/18 19:59:29","新北市蘆洲區長安街303號","121.458018333333","25.0850066666667","6501400","蘆洲區"
"247020","337-TH","2019/10/18 19:59:15","新北市蘆洲區民義街66號","121.472896666667","25.08976","6501400","蘆洲區"
"247024","057-VK","2019/10/18 19:59:13","新北市蘆洲區光復路42號","121.46366","25.08506","6501400","蘆洲區"
"247014","056-VK","2019/10/18 19:59:12","新北市蘆洲區成功路133號","121.472313333333","25.0823483333333","6501400","蘆洲區"
"247018","053-VK","2019/10/18 19:59:17","新北市蘆洲區民族路290巷13號","121.478586666667","25.089865","6501400","蘆洲區"
"247008","002-UY","2019/10/18 19:59:27","新北市蘆洲區信義路113巷1弄5號","121.478088333333","25.080385","6501400","蘆洲區"
"247002","001-UY","2019/10/18 19:59:25","新北市蘆洲區長安街274巷2號","121.457566666667","25.0868966666667","6501400","蘆洲區"
"226004","312-R5","2019/10/18 19:59:21","新北市平溪區南山里南山坪24號","121.771356666667","25.03644","6502400","平溪區"
"228003","828-UM","2019/10/18 19:59:25","新北市貢寮區仁理村仁和路186號","121.923418333333","25.0524416666667","6502600","貢寮區"
"227002","642-TC","2019/10/18 19:59:24","新北市雙溪區雙溪里長安街16號","121.865008333333","25.0346633333333","6502500","雙溪區"
"227001","400-TW","2019/10/18 19:59:16","新北市雙溪區新基里新基南街25號","121.866261666667","25.0381316666667","6502500","雙溪區"
"222001","KEA-2212","2019/10/18 19:59:28","新北市深坑區北深路三段157號","121.60205","25.0032083333333","6501800","深坑區"
"208003","665-BX","2019/10/18 19:59:24","新北市金山區海興路35-1號","121.629741666667","25.2369683333333","6502700","金山區"
"251005","010-UM","2019/10/18 19:59:30","新北市淡水區學府路136巷46號","121.452191666667","25.1726333333333","6501000","淡水區"
"251001","011-UM","2019/10/18 19:59:21","新北市淡水區北新路一段2-15號","121.453643333333","25.1803283333333","6501000","淡水區"
"251004","180-VK","2019/10/18 19:59:24","新北市淡水區民權路177巷20號","121.460675","25.135175","6501000","淡水區"
"251008","181-VK","2019/10/18 19:59:16","新北市淡水區淡海路72巷16號","121.423865","25.1810416666667","6501000","淡水區"
"251012","441-VK","2019/10/18 19:59:22","新北市淡水區下圭柔山91巷6號","121.437056666667","25.2100216666667","6501000","淡水區"
"251006","561-UM","2019/10/18 19:59:17","新北市淡水區水碓街15號","121.443495","25.17696","6501000","淡水區"
"251009","575-R6","2019/10/18 19:59:15","新北市淡水區英專路21巷12-3號","121.44493","25.1697783333333","6501000","淡水區"
"251011","650-BX","2019/10/18 19:59:19","新北市淡水區淡金路一段557號","121.453295","25.1805783333333","6501000","淡水區"
"207003","550-UM","2019/10/18 19:59:26","新北市萬里區大鵬里萬里加投51-1號","121.641925","25.21144","6502800","萬里區"
"207004","291-VK","2019/10/18 19:59:23","新北市萬里區北基里忠二街35號","121.685691666667","25.1757633333333","6502800","萬里區"
"252002","178-VK","2019/10/18 19:59:20","新北市三芝區三民街39巷36號","121.505411666667","25.257585","6502100","三芝區"
"237004","KEA-2597","2019/10/18 19:59:24","新北市三峽區添福2-7號","121.371108333333","24.9078983333333","6500900","三峽區"
"237007","153-BY","2019/10/18 19:59:22","新北市三峽區二鬮路136巷41號","121.358191666667","24.908685","6500900","三峽區"
"237009","210-TH","2019/10/18 19:59:24","新北市三峽區民族街28巷9弄2號","121.368823333333","24.9306883333333","6500900","三峽區"
"237012","275-BY","2019/10/18 19:59:14","新北市三峽區中華路66號","121.371663333333","24.929675","6500900","三峽區"
"237008","302-VK","2019/10/18 19:59:25","新北市三峽區中正路一段174巷16號","121.371713333333","24.92896","6500900","三峽區"
"237014","433-BY","2019/10/18 19:59:14","新北市三峽區白雞8號","121.36814","24.913045","6500900","三峽區"
"237006","5529-G3","2019/10/18 19:59:14","新北市三峽區中正路二段168號","121.366048333333","24.91558","6500900","三峽區"
"237015","649-BX","2019/10/18 19:59:24","新北市三峽區介壽路二段138巷1弄21號","121.396513333333","24.9335466666667","6500900","三峽區"
"237005","AKY-6261","2019/10/18 19:59:16","新北市三峽區民生街1巷16號","121.380273333333","24.9355733333333","6500900","三峽區"
"236042","KED-0685","2019/10/18 19:59:17","新北市土城區學府路一段146號","121.454943333333","24.9871","6501300","土城區"
"236079","166-UM","2019/10/18 19:59:09","新北市土城區三民路61巷8號","121.419291666667","24.964215","6501300","土城區"
"236030","253-BX","2019/10/18 19:59:13","新北市土城區中央路一段250巷1-1號","121.444111666667","24.9847383333333","6501300","土城區"
"236026","269-VK","2019/10/18 19:59:28","新北市土城區中央路二段89號","121.442495","24.9781333333333","6501300","土城區"
"236014","270-VK","2019/10/18 19:59:24","新北市土城區廣福街123號","121.456251666667","24.992835","6501300","土城區"
"236039","271-VK","2019/10/18 19:59:26","新北市土城區國際路113號","121.467695","24.9757233333333","6501300","土城區"
"236069","KEA-2877","2019/10/18 19:59:21","新北市土城區忠義路75巷2號","121.44222","24.9661433333333","6501300","土城區"
"252001","KED-0821","2019/10/18 19:59:31","新北市三芝區公正街66號","121.499865","25.2574716666667","6502100","三芝區"
"236020","401-BY","2019/10/18 19:59:12","新北市土城區延吉街95號","121.47168","24.98691","6501300","土城區"
"236063","752-BX","2019/10/18 19:56:55","新北市土城區金城路三段73巷9弄3號","121.466163333333","24.98758","6501300","土城區"
"236059","912-UM","2019/10/18 19:59:20","新北市土城區中央路一段336號","121.44316","24.981295","6501300","土城區"
"236048","913-UM","2019/10/18 19:59:23","新北市土城區金城路三段270號","121.474845","24.990955","6501300","土城區"
"236055","AAC-216","2019/10/18 19:59:22","新北市土城區學府路一段146號","121.454905","24.9870633333333","6501300","土城區"
"242060","986-R7","2019/10/18 19:59:15","新北市新莊區瓊林路90號","121.44461","25.027905","6500500","新莊區"
"242005","751-BX","2019/10/18 19:59:15","新北市新莊區化成路182號","121.465661666667","25.0458016666667","6500500","新莊區"
"242029","615-BX","2019/10/18 19:59:13","新北市新莊區中平路377巷1-5號","121.4445","25.0523416666667","6500500","新莊區"
"242058","612-BX","2019/10/18 19:59:28","新北市新莊區八德街103號","121.424258333333","25.0212166666667","6500500","新莊區"
"242048","566-BX","2019/10/18 19:59:13","新北市新莊區民安路201號","121.426265","25.0224216666667","6500500","新莊區"
"242054","497-BY","2019/10/18 19:59:14","新北市新莊區西盛街418號","121.427225","25.012175","6500500","新莊區"
"242002","441-UM","2019/10/18 19:59:19","新北市新莊區中正路219號","121.450956666667","25.0357766666667","6500500","新莊區"
"242007","440-UM","2019/10/18 19:59:28","新北市新莊區思源路585號","121.459813333333","25.0593766666667","6500500","新莊區"
"242013","413-TV","2019/10/18 19:59:20","新北市新莊區中港路376號","121.452263333333","25.0474583333333","6500500","新莊區"
"242050","400-BY","2019/10/18 19:59:16","新北市新莊區西盛街190號","121.428131666667","25.018475","6500500","新莊區"
"242025","362-BY","2019/10/18 19:59:22","新北市新莊區五工二路86巷50號","121.460883333333","25.0675533333333","6500500","新莊區"
"242023","353-BY","2019/10/18 19:59:24","新北市新莊區化成路354號","121.465858333333","25.04919","6500500","新莊區"
"242015","132-UY","2019/10/18 19:59:24","新北市新莊區復興路一段47巷11號","121.446746666667","25.0426433333333","6500500","新莊區"
"242039","135-UY","2019/10/18 19:59:20","新北市新莊區民安路285-4號","121.429096666667","25.0223966666667","6500500","新莊區"
"242056","172-VK","2019/10/18 19:59:25","新北市新莊區中正路347巷34號","121.447075","25.0339366666667","6500500","新莊區"
"242017","173-VK","2019/10/18 19:59:24","新北市新莊區中安街2-1號","121.452871666667","25.0452416666667","6500500","新莊區"
"242032","175-VK","2019/10/18 19:59:14","新北市新莊區公園一路61號","121.443026666667","25.0364016666667","6500500","新莊區"
"242021","KED-0687","2019/10/18 19:59:20","新北市新莊區建中街48巷10弄12號","121.448641666667","25.0384066666667","6500500","新莊區"
"242044","346-TH","2019/10/18 19:59:24","新北市新莊區新北大道七段712號","121.412415","25.0263383333333","6500500","新莊區"
"242037","348-TH","2019/10/18 19:59:12","新北市新莊區建安街27號","121.429001666667","25.02599","6500500","新莊區"
"242034","350-TH","2019/10/18 19:59:21","新北市新莊區建中街91號","121.446733333333","25.0365066666667","6500500","新莊區"
"238017","283-BY","2019/10/18 19:59:16","新北市樹林區保安街二段45巷29-6號","121.413571666667","25.00022","6500700","樹林區"
"239006","891-R6","2019/10/18 19:59:26","新北市鶯歌區文化路115巷17號","121.357478333333","24.9553033333333","6500800","鶯歌區"
"239002","359-BY","2019/10/18 19:59:19","新北市鶯歌區中正一路403號","121.359233333333","24.9570216666667","6500800","鶯歌區"
"221008","489-VK","2019/10/18 19:59:22","新北市汐止區康寧街141巷5號","121.621393333333","25.06727","6501100","汐止區"
"221015","131-UY","2019/10/18 19:59:20","新北市汐止區橋東街13號","121.666573333333","25.0758116666667","6501100","汐止區"
"221010","269-BY","2019/10/18 19:59:21","新北市汐止區八連路一段72號","121.646975","25.0810666666667","6501100","汐止區"
"221012","278-VK","2019/10/18 19:59:14","新北市汐止區大同路三段579號","121.682256666667","25.0736516666667","6501100","汐止區"
"221023","279-VK","2019/10/18 19:59:19","新北市汐止區民族三街42號","121.62964","25.070055","6501100","汐止區"
"221027","281-BY","2019/10/18 19:59:17","新北市汐止區中正路97號","121.660973333333","25.0694433333333","6501100","汐止區"
"221029","298-VK","2019/10/18 19:59:25","新北市汐止區樟樹一路137巷24號","121.641066666667","25.0659833333333","6501100","汐止區"
"221021","299-VK","2019/10/18 19:59:25","新北市汐止區水源路一段185號","121.654868333333","25.06147","6501100","汐止區"
"221031","353-TW","2019/10/18 19:59:22","新北市汐止區福德一路176巷9弄7號","121.63461","25.06662","6501100","汐止區"
"221035","622-UM","2019/10/18 19:59:24","新北市汐止區汐萬路一段121號","121.654135","25.0710766666667","6501100","汐止區"
"221025","623-UM","2019/10/18 19:59:18","新北市汐止區仁愛路77巷3號","121.660996666667","25.0634183333333","6501100","汐止區"
"221038","646-BX","2019/10/18 19:59:15","新北市汐止區橋東街5巷3號","121.666941666667","25.07623","6501100","汐止區"
"221033","647-BX","2019/10/18 19:59:18","新北市汐止區東勢街190巷5號","121.63391","25.0415883333333","6501100","汐止區"
"220079","145-BY","2019/10/18 19:59:29","新北市板橋區建國街32巷1號","121.457911666667","25.0168383333333","6500100","板橋區"
"220080","200-UY","2019/10/18 19:59:26","新北市板橋區大觀路二段163巷12號","121.445886666667","25.00031","6500100","板橋區"
"220082","610-BX","2019/10/18 19:59:19","新北市板橋區溪北路58號","121.427706666667","24.9898133333333","6500100","板橋區"
"224002","257-TC","2019/10/18 19:59:30","新北市瑞芳區員山子路員山巷1號","121.816778333333","25.103675","6501200","瑞芳區"
"220056","276-BY","2019/10/18 19:59:16","新北市板橋區南雅南路二段49號","121.451566666667","24.9944733333333","6500100","板橋區"
"220072","277-BY","2019/10/18 19:59:25","新北市板橋區金門街157號","121.432635","24.9902566666667","6500100","板橋區"
"220094","283-UM","2019/10/18 19:59:24","新北市板橋區文化路一段160號","121.465558333333","25.0191816666667","6500100","板橋區"
"220071","283-VK","2019/10/18 19:59:29","新北市板橋區五權街30巷26號","121.463913333333","24.9931233333333","6500100","板橋區"
"220101","285-UM","2019/10/18 19:59:25","新北市板橋區雙十路二段47巷2弄25號","121.4753","25.0269933333333","6500100","板橋區"
"220053","285-VK","2019/10/18 19:59:27","新北市板橋區懷仁街59號","121.477053333333","25.018855","6500100","板橋區"
"220083","286-VK","2019/10/18 19:59:17","新北市板橋區僑中二街10巷2號","121.446951666667","25.0109383333333","6500100","板橋區"
"220081","287-VK","2019/10/18 19:59:12","新北市板橋區僑中一街80巷6弄2號","121.447631666667","25.0119783333333","6500100","板橋區"
"220090","288-VK","2019/10/18 19:59:26","新北市板橋區新海路72巷77號","121.461486666667","25.0231883333333","6500100","板橋區"
"220061","293-UM","2019/10/18 19:59:23","新北市板橋區中山路一段156號","121.465038333333","25.01166","6500100","板橋區"
"220062","295-UM","2019/10/18 19:59:28","新北市板橋區中山路二段318巷4號","121.480255","25.019185","6500100","板橋區"
"220084","296-UM","2019/10/18 19:59:15","新北市板橋區滿平街2巷10號","121.425188333333","24.9893933333333","6500100","板橋區"
"220075","303-R5","2019/10/18 19:59:16","新北市板橋區金華街10巷48弄22號","121.457711666667","25.019895","6500100","板橋區"
"220092","307-R5","2019/10/18 19:59:22","新北市板橋區文化路一段81巷7號","121.460591666667","25.0142166666667","6500100","板橋區"
"220098","317-R6","2019/10/18 19:59:23","新北市板橋區新海路385巷24號","121.457925","25.0255333333333","6500100","板橋區"
"220089","487-VK","2019/10/18 19:59:23","新北市板橋區四維路333號","121.462526666667","25.029485","6500100","板橋區"
"242011","280-VK","2019/10/18 19:59:20","新北市新莊區中港路531巷54號","121.450113333333","25.051525","6500500","新莊區"
"220088","491-VK","2019/10/18 19:59:09","新北市板橋區民治街92號","121.479191666667","25.031745","6500100","板橋區"
"220035","560-BX","2019/10/18 19:59:12","新北市板橋區金華街104號","121.458568333333","25.0207533333333","6500100","板橋區"
"220103","561-BX","2019/10/18 19:59:26","新北市板橋區漢生東路21-1號","121.465036666667","25.0171283333333","6500100","板橋區"
"220063","609-BX","2019/10/18 19:59:25","新北市板橋區中山路二段91號","121.474236666667","25.0159266666667","6500100","板橋區"
"220091","637-BX","2019/10/18 19:59:27","新北市板橋區萬板路506號","121.480315","25.0261966666667","6500100","板橋區"
"220057","686-BX","2019/10/18 19:59:21","新北市板橋區四川路二段100-1號","121.450881666667","24.9941383333333","6500100","板橋區"
"220093","689-BX","2019/10/18 19:59:19","新北市板橋區長江路二段49號","121.464386666667","25.0312616666667","6500100","板橋區"
"220054","741-BX","2019/10/18 19:59:26","新北市板橋區實踐路93巷42號","121.465625","25.0049783333333","6500100","板橋區"
"220102","KEA-2699","2019/10/18 19:59:28","新北市板橋區莒光路40巷17弄7號","121.470471666667","25.0235966666667","6500100","板橋區"
"220055","827-TW","2019/10/18 19:59:23","新北市板橋區仁愛路62巷11號","121.459945","24.9987716666667","6500100","板橋區"
"220067","829-TW","2019/10/18 19:59:26","新北市板橋區中山路一段272巷18-1號","121.469308333333","25.0135216666667","6500100","板橋區"
"220068","831-TW","2019/10/18 19:59:28","新北市板橋區中山路二段398號","121.482603333333","25.02078","6500100","板橋區"
"220077","833-TW","2019/10/18 19:59:17","新北市板橋區僑中一街118號","121.446071666667","25.0116883333333","6500100","板橋區"
"220074","895-R6","2019/10/18 19:59:21","新北市板橋區民權路87號","121.460808333333","25.0118883333333","6500100","板橋區"
"220073","985-R7","2019/10/18 19:59:23","新北市板橋區南雅西路二段196號","121.451746666667","25.014685","6500100","板橋區"
"220097","AAC-210","2019/10/18 19:59:18","新北市板橋區復興街139號","121.46123","25.0181833333333","6500100","板橋區"
"220064","AAC-253","2019/10/18 19:59:14","新北市板橋區區運路16號","121.46521","25.0092483333333","6500100","板橋區"
"235068","KEA-2873","2019/10/18 19:59:28","新北市中和區福祥路85巷2弄2號","121.498763333333","25.0057866666667","6500300","中和區"
