"lineid","car","time","location","longitude","latitude","cityid","cityname"
"251005","010-UM","2019/10/18 22:09:29","新北市淡水區鄧公路19號","121.451461666667","25.1700333333333","6501000","淡水區"
"251004","180-VK","2019/10/18 22:09:20","新北市淡水區民族路33號","121.462238333333","25.1357716666667","6501000","淡水區"
"251008","181-VK","2019/10/18 22:09:16","新北市淡水區學府路104號","121.449856666667","25.171765","6501000","淡水區"
"251010","413-VK","2019/10/18 22:09:28","新北市淡水區沙崙路192號","121.424353333333","25.1836366666667","6501000","淡水區"
"251007","442-VK","2019/10/18 22:09:28","新北市淡水區北新路180號","121.449381666667","25.1786116666667","6501000","淡水區"
"251011","650-BX","2019/10/18 22:09:18","新北市淡水區水碓街7號","121.443166666667","25.177115","6501000","淡水區"
