"lineid","car","time","location","longitude","latitude","cityid","cityname"
"232009","291-BY","2019/10/19 06:39:15","新北市坪林區北宜路八段558號","121.717983333333","24.9092666666667","6502000","坪林區"
"232004","758-BX","2019/10/19 06:39:17","新北市坪林區北宜路八段553號","121.717548333333","24.910825","6502000","坪林區"
"223006","022-BY","2019/10/19 06:39:19","新北市石碇區雙溪33-6號","121.649901666667","25.008495","6501900","石碇區"
"223002","KEA-2673","2019/10/19 06:39:12","新北市石碇區碇坪路一段67號","121.660121666667","24.9914316666667","6501900","石碇區"
"223008","406-TH","2019/10/19 06:39:30","新北市石碇區碇坪路一段282號","121.67736","24.9778116666667","6501900","石碇區"
"223001","592-UM","2019/10/19 06:39:21","新北市石碇區小粗坑(潭邊里)2號","121.670713333333","24.9830916666667","6501900","石碇區"
"223007","661-BX","2019/10/19 06:39:26","新北市石碇區碇坪路一段60號","121.657155","24.99153","6501900","石碇區"
"227004","282-VK","2019/10/19 06:39:24","新北市雙溪區牡丹里中正路78號","121.862398333333","25.046395","6502500","雙溪區"
