"lineid","car","time","location","longitude","latitude","cityid","cityname"
"222007","289-BY","2019/11/02 09:59:39","新北市深坑區風格街2-1號","121.626166666667","25.0164533333333","6501800","深坑區"
"231007","189-VK","2019/11/02 09:59:39","新北市新店區小坑三路51-1號","121.515725","24.9090166666667","6500600","新店區"
"231008","192-VK","2019/11/02 09:58:40","新北市新店區小坑一路35巷1號","121.52861","24.9095166666667","6500600","新店區"
"227004","282-VK","2019/11/02 09:59:52","新北市雙溪區長源里盤山坑13-1號","121.773076666667","24.9959916666667","6502500","雙溪區"
"252004","249-BX","2019/11/02 09:59:55","新北市三芝區福德里土地公埔46-6號","121.511593333333","25.2315133333333","6502100","三芝區"
"252007","AAC-283","2019/11/02 09:59:58","新北市三芝區新庄里新庄子80-3號","121.506198333333","25.2721333333333","6502100","三芝區"
"233001","KEA-2870","2019/11/02 09:59:49","新北市新店區新烏路三段290巷1號","121.549293333333","24.8979033333333","6502900","烏來區"
