"lineid","car","time","location","longitude","latitude","cityid","cityname"
"234044","148-BY","2019/11/02 13:29:32","新北市永和區秀朗路二段230號","121.526185","24.9994833333333","6500400","永和區"
"234078","298-R6","2019/11/02 13:29:36","新北市永和區國中路104巷12弄15號","121.52559","25.0065216666667","6500400","永和區"
"234036","336-UY","2019/11/02 13:29:46","新北市永和區民樂街33巷2號","121.527611666667","25.0011983333333","6500400","永和區"
"234062","337-UY","2019/11/02 13:29:44","新北市永和區得和路243巷28弄1號","121.520813333333","25.0013466666667","6500400","永和區"
"234084","338-UY","2019/11/02 13:29:46","新北市永和區林森路48巷1號","121.52459","25.00449","6500400","永和區"
"234068","552-UM","2019/11/02 13:29:34","新北市永和區警光街8號","121.519825","25.0095483333333","6500400","永和區"
"234015","745-BX","2019/11/02 13:29:47","新北市永和區環河西路一段5-1號","121.515018333333","25.0180683333333","6500400","永和區"
"234028","746-BX","2019/11/02 13:29:34","新北市永和區民生路46巷48號","121.521136666667","24.9963466666667","6500400","永和區"
"234052","KEA-2590","2019/11/02 13:29:20","新北市永和區復興街7號","121.515861666667","25.0129533333333","6500400","永和區"
"234005","KED-0605","2019/11/02 13:29:46","新北市永和區中山路一段174號","121.509116666667","25.00901","6500400","永和區"
"234012","KEA-2591","2019/11/02 13:29:35","新北市永和區永貞路393號","121.507908333333","25.0089483333333","6500400","永和區"
"234060","AAD-866","2019/11/02 13:29:45","新北市永和區永貞路145號","121.51618","25.0041483333333","6500400","永和區"
"234040","862-TW","2019/11/02 13:29:47","新北市永和區中和路525號","121.511331666667","25.0029533333333","6500400","永和區"
"234048","863-TW","2019/11/02 13:29:39","新北市永和區仁愛路159號","121.511053333333","25.0128933333333","6500400","永和區"
"234025","9371-KE","2019/11/02 13:29:36","新北市永和區中山路一段17巷4弄14號","121.513181666667","25.0102516666667","6500400","永和區"
"234010","9373-KE","2019/11/02 13:29:48","新北市永和區仁愛路141巷30弄5號","121.511963333333","25.0114883333333","6500400","永和區"
"248017","KED-0813","2019/11/02 13:29:35","新北市五股區御史路300號","121.417971666667","25.1078916666667","6501500","五股區"
"234022","9380-KE","2019/11/02 13:29:49","新北市永和區環河東路二段90號","121.523985","25.010605","6500400","永和區"
"234077","969-R7","2019/11/02 13:29:47","新北市永和區智光街33號","121.517965","24.998885","6500400","永和區"
"234072","AAC-211","2019/11/02 13:29:38","新北市永和區環河東路一段42號","121.518826666667","25.0171083333333","6500400","永和區"
"234066","AAC-212","2019/11/02 13:29:45","新北市永和區保平路174巷2號","121.510836666667","25.0067316666667","6500400","永和區"
"234001","AAC-295","2019/11/02 13:29:42","新北市永和區永和路一段115-1號","121.513881666667","25.0080966666667","6500400","永和區"
"244005","248-BX","2019/11/02 13:29:41","新北市林口區文化北路一段396號","121.363558333333","25.0753266666667","6501700","林口區"
"231003","001-UM","2019/11/02 13:29:50","新北市新店區寶橋路132號","121.54708","24.9760216666667","6500600","新店區"
"231030","002-UM","2019/11/02 13:29:34","新北市新店區安華路1-1號","121.519396666667","24.9603016666667","6500600","新店區"
"231024","0291-UT","2019/11/02 13:29:46","新北市新店區北新路一段140號","121.54252","24.9703783333333","6500600","新店區"
"231027","0293-UT","2019/11/02 13:29:51","新北市新店區環河路19巷15號","121.537585","24.9602716666667","6500600","新店區"
"231005","046-UY","2019/11/02 13:29:34","新北市新店區環河路1-1號","121.537773333333","24.9615083333333","6500600","新店區"
"231029","106-UY","2019/11/02 13:29:39","新北市新店區安華路30巷12-1號","121.51802","24.9580616666667","6500600","新店區"
"231018","107-UY","2019/11/02 13:29:41","新北市新店區中央路91號","121.532008333333","24.9760666666667","6500600","新店區"
"231013","108-UY","2019/11/02 13:29:35","新北市新店區環河路114巷4-1號","121.537071666667","24.96486","6500600","新店區"
"231036","110-UY","2019/11/02 13:29:43","新北市新店區安祥路178號","121.476863333333","24.955555","6500600","新店區"
"231033","256-BX","2019/11/02 13:29:40","新北市新店區安豐路56-3號","121.499396666667","24.9545116666667","6500600","新店區"
"231023","260-TV","2019/11/02 13:29:48","新北市新店區光明街1-1號","121.53806","24.9592033333333","6500600","新店區"
"231035","278-BY","2019/11/02 13:29:46","新北市新店區安康路一段266巷4號","121.519953333333","24.9639033333333","6500600","新店區"
"231017","AAD-862","2019/11/02 13:29:50","新北市新店區北宜路一段3號","121.53807","24.958525","6500600","新店區"
"231006","355-BY","2019/11/02 13:29:48","新北市新店區安一路一段1-1號","121.519043333333","24.960975","6500600","新店區"
"231038","3712-VJ","2019/11/02 13:29:45","新北市新店區安華路1-1號","121.51913","24.9605433333333","6500600","新店區"
"231025","4715-K9","2019/11/02 13:29:33","新北市新店區中央六街58號","121.527898333333","24.9758266666667","6500600","新店區"
"231020","513-UM","2019/11/02 13:29:30","新北市新店區秀山路66號","121.530696666667","24.9609833333333","6500600","新店區"
"231034","616-UM","2019/11/02 13:29:42","新北市新店區安華路28-1號","121.519605","24.9605583333333","6500600","新店區"
"231001","617-UM","2019/11/02 13:29:51","新北市新店區安康路一段188號","121.52471","24.96331","6500600","新店區"
"231002","619-UM","2019/11/02 13:29:31","新北市新店區安康路一段355號","121.519793333333","24.9628683333333","6500600","新店區"
"231012","KED-0819","2019/11/02 13:29:48","新北市新店區光明街179-1號","121.539715","24.96293","6500600","新店區"
"231010","719-UM","2019/11/02 13:29:44","新北市新店區中央路7號","121.533485","24.9786066666667","6500600","新店區"
"231026","720-UM","2019/11/02 13:28:14","新北市新店區安一路一段1-1號","121.5192","24.9613866666667","6500600","新店區"
"231028","897-TW","2019/11/02 13:29:49","新北市新店區安華路28-1號","121.519771666667","24.960765","6500600","新店區"
"231037","AKT-0513","2019/11/02 13:29:33","新北市新店區薏仁坑路57號","121.490658333333","24.9640016666667","6500600","新店區"
"235030","003-UY","2019/11/02 13:29:37","新北市中和區中山路二段110號","121.502935","25.0038083333333","6500300","中和區"
"235028","005-UY","2019/11/02 13:29:45","新北市中和區連城路109巷25號","121.496845","24.9987216666667","6500300","中和區"
"235027","006-UY","2019/11/02 13:29:41","新北市中和區連城路343號","121.488228333333","24.995895","6500300","中和區"
"235020","096-UM","2019/11/02 13:29:49","新北市中和區中山路二段469號","121.483425","25.0050116666667","6500300","中和區"
"235003","097-UM","2019/11/02 13:29:51","新北市中和區大仁街19巷8號","121.517363333333","24.993335","6500300","中和區"
"235029","098-UM","2019/11/02 13:29:39","新北市中和區莊敬路49巷20弄32號","121.50324","25.0051","6500300","中和區"
"235004","150-BY","2019/11/02 13:29:47","新北市中和區安平路59號","121.509506666667","24.99509","6500300","中和區"
"235022","151-BY","2019/11/02 13:29:39","新北市中和區圓通路369巷165號","121.490136666667","24.9821733333333","6500300","中和區"
"235019","183-VK","2019/11/02 13:29:31","新北市中和區莒光路120巷58號","121.471575","25.0007416666667","6500300","中和區"
"235002","185-VK","2019/11/02 13:29:38","新北市中和區秀朗路三段128巷17弄21號","121.52335","24.993325","6500300","中和區"
"235031","255-BX","2019/11/02 13:29:48","新北市中和區新生街220巷15弄11-2號","121.482915","24.9979216666667","6500300","中和區"
"235008","293-VK","2019/11/02 13:29:37","新北市中和區復興路263巷12號","121.502785","24.9897","6500300","中和區"
"235007","352-BY","2019/11/02 13:29:30","新北市中和區景平路253號","121.50871","24.99277","6500300","中和區"
"235006","KEA-2878","2019/11/02 13:29:43","新北市中和區自立路64巷10號","121.523378333333","24.9910616666667","6500300","中和區"
"247009","KED-0682","2019/11/02 13:29:46","新北市五股區中興路三段2巷10號","121.449213333333","25.081255","6501400","蘆洲區"
"235014","4979-A6","2019/11/02 13:29:48","新北市中和區景新街362巷5號","121.511981666667","24.9901366666667","6500300","中和區"
"235033","4980-A6","2019/11/02 13:29:47","新北市中和區連城路65巷8號","121.497843333333","25.0008783333333","6500300","中和區"
"235034","558-UM","2019/11/02 13:29:33","新北市中和區景新街131號","121.505865","24.9973233333333","6500300","中和區"
"235009","565-BX","2019/11/02 13:29:33","新北市中和區南山路236號","121.506456666667","24.9896183333333","6500300","中和區"
"235024","KED-0823","2019/11/02 13:29:37","新北市中和區中山路二段557號","121.480855","25.0056066666667","6500300","中和區"
"235018","640-BX","2019/11/02 13:29:43","新北市中和區民享街34號","121.473875","25.0031966666667","6500300","中和區"
"235036","647-TV","2019/11/02 13:29:35","新北市中和區環中路126號","121.481886666667","25.01264","6500300","中和區"
"235011","732-UM","2019/11/02 13:29:35","新北市中和區南山路300號","121.507845","24.9871633333333","6500300","中和區"
"235010","733-UM","2019/11/02 13:29:31","新北市中和區捷運路63號","121.508998333333","24.9897783333333","6500300","中和區"
"235073","800-TS","2019/11/02 13:29:43","新北市中和區景平路703巷8-3號","121.495836666667","25.0034683333333","6500300","中和區"
"235021","801-TS","2019/11/02 13:29:41","新北市中和區民安街42巷32號","121.479201666667","25.0009716666667","6500300","中和區"
"235005","802-TS","2019/11/02 13:29:48","新北市中和區中和路320號","121.509673333333","25.0005783333333","6500300","中和區"
"235016","805-TS","2019/11/02 13:29:45","新北市中和區興南路二段108號","121.504785","24.9839133333333","6500300","中和區"
"235012","896-TW","2019/11/02 13:29:37","新北市中和區中正路637巷52弄1號","121.485445","24.9936966666667","6500300","中和區"
"235017","900-TW","2019/11/02 13:29:40","新北市中和區連城路607號","121.478248333333","24.9931366666667","6500300","中和區"
"235036","911-UM","2019/11/02 13:29:41","新北市中和區連城路139巷64號","121.496656666667","24.9967633333333","6500300","中和區"
"235015","157-BY","2019/11/02 13:29:44","新北市中和區興南路二段114巷21弄2號","121.503633333333","24.9844166666667","6500300","中和區"
"235001","AAC-213","2019/11/02 13:29:37","新北市中和區景德街95-14號","121.51489","24.991125","6500300","中和區"
"220104","015-TV","2019/11/02 13:29:45","新北市板橋區南雅南路二段140號","121.451715","24.9962316666667","6500100","板橋區"
"220013","072-UY","2019/11/02 13:29:49","新北市板橋區南雅南路二段1-1號","121.45474","25.0035883333333","6500100","板橋區"
"220017","AAD-861","2019/11/02 13:29:47","新北市板橋區華東街1-10號","121.44843","24.99507","6500100","板橋區"
"247005","500-BY","2019/11/02 13:29:44","新北市五股區中興路三段2巷10號","121.44927","25.080995","6501400","蘆洲區"
"247013","056-VK","2019/11/02 13:29:51","新北市五股區中興路三段2巷10號","121.449191666667","25.0812883333333","6501400","蘆洲區"
"235013","251-BX","2019/11/02 13:29:37","新北市中和區景安路123號","121.505798333333","24.9962016666667","6500300","中和區"
"228005","097-TW","2019/11/02 13:29:33","新北市貢寮區美豐里文秀坑8號","121.902638333333","25.0504833333333","6502600","貢寮區"
"228004","212-TW","2019/11/02 13:29:41","新北市貢寮區龍崗里石壁坑街17號","121.910366666667","24.9895883333333","6502600","貢寮區"
"253003","6232-TK","2019/11/02 13:29:39","新北市石門區內石門84號","121.569218333333","25.2644516666667","6502200","石門區"
"253004","6251-TK","2019/11/02 13:27:41","新北市石門區竹子湖11號","121.617955","25.2586333333333","6502200","石門區"
"253002","637-UY","2019/11/02 13:29:35","新北市石門區九芎林5-3號","121.559855","25.2700033333333","6502200","石門區"
"253001","KEC-0718","2019/11/02 13:29:29","新北市三芝區新庄里新庄子96號","121.515601666667","25.2756416666667","6502200","石門區"
"207002","749-BX","2019/11/02 13:29:51","新北市萬里區崁腳里崁腳路166號","121.645075","25.15583","6502800","萬里區"
"207001","662-BX","2019/11/02 13:29:43","新北市萬里區野柳里八斗60-1號","121.672281666667","25.2011933333333","6502800","萬里區"
"252005","AAC-283","2019/11/02 13:29:35","新北市三芝區圓山里八連溪頭2-3號","121.524131666667","25.2231033333333","6502100","三芝區"
"237013","760-BX","2019/11/02 13:29:31","新北市三峽區光明路69巷25號","121.376671666667","24.929285","6500900","三峽區"
"220028","200-UY","2019/11/02 13:29:41","新北市板橋區華東街1-9號","121.448183333333","24.9949316666667","6500100","板橋區"
"220004","276-BY","2019/11/02 13:29:43","新北市板橋區華東街1-9號","121.448091666667","24.9949516666667","6500100","板橋區"
"220043","283-UM","2019/11/02 13:29:42","新北市板橋區民生路二段120號","121.470508333333","25.0200166666667","6500100","板橋區"
"220107","286-VK","2019/11/02 13:29:46","新北市板橋區華東街1-10號","121.448451666667","24.9950883333333","6500100","板橋區"
"220029","287-VK","2019/11/02 13:29:34","新北市板橋區華東街1-10號","121.448276666667","24.995025","6500100","板橋區"
"220032","296-UM","2019/11/02 13:29:41","新北市板橋區華東街1-9號","121.44819","24.994965","6500100","板橋區"
"220011","609-BX","2019/11/02 13:29:08","新北市板橋區民生路二段177號","121.469931666667","25.0203166666667","6500100","板橋區"
"220025","687-BX","2019/11/02 13:29:47","新北市板橋區大觀路二段265巷7-6號","121.442886666667","24.99477","6500100","板橋區"
"220003","827-TW","2019/11/02 13:29:35","新北市板橋區華東街1-10號","121.448261666667","24.9950183333333","6500100","板橋區"
"220030","833-TW","2019/11/02 13:29:37","新北市板橋區華東街1-10號","121.448273333333","24.9949466666667","6500100","板橋區"
"220022","895-R6","2019/11/02 13:29:34","新北市板橋區南雅南路二段140號","121.451901666667","24.9963283333333","6500100","板橋區"
"220021","985-R7","2019/11/02 13:29:37","新北市板橋區四川路二段140巷6號","121.449675","24.9931716666667","6500100","板橋區"
"220046","AAC-210","2019/11/02 13:29:34","新北市板橋區民生路二段120號","121.470436666667","25.0198283333333","6500100","板橋區"
"220012","AAC-253","2019/11/02 13:29:39","新北市板橋區南雅南路二段120-2號","121.452313333333","24.9997416666667","6500100","板橋區"
"235032","KEA-2873","2019/11/02 13:29:28","新北市中和區圓通路284號","121.49151","24.9905933333333","6500300","中和區"
"235025","KEA-2875","2019/11/02 13:29:33","新北市中和區民享街92巷21號","121.47381","24.9994816666667","6500300","中和區"
