"lineid","car","time","location","longitude","latitude","cityid","cityname"
"234044","148-BY","2019/11/02 13:43:52","新北市永和區永利路322巷29號","121.525615","25.00244","6500400","永和區"
"234078","298-R6","2019/11/02 13:43:36","新北市永和區林森路20巷2號","121.526055","25.005525","6500400","永和區"
"234036","336-UY","2019/11/02 13:43:46","新北市永和區環河東路四段22號","121.528606666667","24.9995983333333","6500400","永和區"
"234062","337-UY","2019/11/02 13:43:37","新北市永和區秀朗路一段192巷6弄12號","121.519088333333","25.002335","6500400","永和區"
"234084","338-UY","2019/11/02 13:43:46","新北市永和區永亨路100號","121.523265","25.0045883333333","6500400","永和區"
"234068","552-UM","2019/11/02 13:43:40","新北市永和區竹林路26號","121.516903333333","25.014825","6500400","永和區"
"234015","745-BX","2019/11/02 13:43:39","新北市永和區永和路二段297號","121.51603","25.0160733333333","6500400","永和區"
"234028","746-BX","2019/11/02 13:43:41","新北市永和區民生路67巷16號","121.523408333333","24.9970066666667","6500400","永和區"
"234052","KEA-2590","2019/11/02 13:43:42","新北市永和區竹林路69號","121.51873","25.0136983333333","6500400","永和區"
"234005","KED-0605","2019/11/02 13:43:46","新北市永和區自強街2號","121.514055","25.0080683333333","6500400","永和區"
"234012","KEA-2591","2019/11/02 13:43:35","新北市永和區仁愛路186巷2號","121.509933333333","25.0126183333333","6500400","永和區"
"234060","AAD-866","2019/11/02 13:43:31","新北市永和區中正路350號","121.517678333333","25.0004983333333","6500400","永和區"
"234040","862-TW","2019/11/02 13:43:43","新北市永和區中和路305巷4號","121.506778333333","25.0002666666667","6500400","永和區"
"234048","863-TW","2019/11/02 13:43:41","新北市永和區保安路73號","121.508748333333","25.01501","6500400","永和區"
"234010","9373-KE","2019/11/02 13:43:48","新北市永和區保福路二段163巷13弄3號","121.509106666667","25.0144716666667","6500400","永和區"
"248017","KED-0813","2019/11/02 13:43:35","新北市五股區民義路二段48巷1-8號","121.414046666667","25.103085","6501500","五股區"
"234022","9380-KE","2019/11/02 13:43:49","新北市永和區中正路662巷12號","121.517638333333","25.008795","6500400","永和區"
"234077","969-R7","2019/11/02 13:43:47","新北市永和區民族街27巷4號","121.518991666667","24.99951","6500400","永和區"
"234072","AAC-211","2019/11/02 13:43:38","新北市永和區豫溪街189巷1號","121.522575","25.0102633333333","6500400","永和區"
"234066","AAC-212","2019/11/02 13:43:45","新北市永和區永平路173巷14弄2號","121.510201666667","25.0085183333333","6500400","永和區"
"234001","AAC-295","2019/11/02 13:43:42","新北市永和區自由街69號","121.513548333333","25.00527","6500400","永和區"
"244005","248-BX","2019/11/02 13:43:41","新北市林口區粉寮1號","121.397623333333","25.07988","6501700","林口區"
"231003","001-UM","2019/11/02 13:43:29","新北市新店區中興路一段267-1號","121.544998333333","24.9677416666667","6500600","新店區"
"231030","002-UM","2019/11/02 13:43:34","新北市新店區安康路一段130號","121.52678","24.9628066666667","6500600","新店區"
"231024","0291-UT","2019/11/02 13:43:46","新北市新店區華興街38巷5號","121.537065","24.9691933333333","6500600","新店區"
"231027","0293-UT","2019/11/02 13:43:37","新北市新店區新店後街20-1號","121.538351666667","24.9531916666667","6500600","新店區"
"231005","046-UY","2019/11/02 13:43:34","新北市新店區寶中路72號","121.547938333333","24.9806433333333","6500600","新店區"
"231029","106-UY","2019/11/02 13:43:39","新北市新店區安康路二段125-1號","121.512355","24.9609733333333","6500600","新店區"
"231018","107-UY","2019/11/02 13:43:41","新北市新店區百忍街15號","121.534566666667","24.9756066666667","6500600","新店區"
"231013","108-UY","2019/11/02 13:43:35","新北市新店區二十張路58號","121.536925","24.9803733333333","6500600","新店區"
"231036","110-UY","2019/11/02 13:43:43","新北市新店區安祥路147巷35號","121.47668","24.9565683333333","6500600","新店區"
"231033","256-BX","2019/11/02 13:43:40","新北市新店區莒光路44巷21弄11-6號","121.518556666667","24.9523316666667","6500600","新店區"
"231023","260-TV","2019/11/02 13:43:49","新北市新店區新店路204號","121.537243333333","24.9563333333333","6500600","新店區"
"231035","278-BY","2019/11/02 13:43:46","新北市新店區安忠路38號","121.513123333333","24.9595333333333","6500600","新店區"
"231017","AAD-862","2019/11/02 13:43:50","新北市新店區竹林路2巷30號","121.549988333333","24.9504133333333","6500600","新店區"
"231006","355-BY","2019/11/02 13:43:48","新北市新店區北宜路一段120號","121.53925","24.95513","6500600","新店區"
"231038","3712-VJ","2019/11/02 13:43:45","新北市新店區安華路30巷1號","121.51952","24.959305","6500600","新店區"
"231025","4715-K9","2019/11/02 13:43:33","新北市新店區中央五街40號","121.528446666667","24.97503","6500600","新店區"
"231020","513-UM","2019/11/02 13:43:30","新北市新店區永興路88-1號","121.544038333333","24.9337716666667","6500600","新店區"
"231034","616-UM","2019/11/02 13:43:42","新北市新店區達觀路14巷7號","121.503358333333","24.9430633333333","6500600","新店區"
"231001","617-UM","2019/11/02 13:43:51","新北市新店區中正路389號","121.534501666667","24.9771366666667","6500600","新店區"
"231002","619-UM","2019/11/02 13:43:32","新北市新店區中央三街127號","121.524191666667","24.976825","6500600","新店區"
"231012","KED-0819","2019/11/02 13:43:48","新北市新店區德正街27巷27號","121.545756666667","24.97169","6500600","新店區"
"231010","719-UM","2019/11/02 13:43:44","新北市新店區平等街45號","121.536346666667","24.9731166666667","6500600","新店區"
"231026","720-UM","2019/11/02 13:43:34","新北市新店區光明街211號","121.539963333333","24.96386","6500600","新店區"
"231028","897-TW","2019/11/02 13:43:29","新北市新店區安和路二段77號","121.518436666667","24.9687866666667","6500600","新店區"
"231004","899-TW","2019/11/02 13:43:46","新北市新店區北新路二段52號","121.542956666667","24.971935","6500600","新店區"
"231037","AKT-0513","2019/11/02 13:43:33","新北市新店區安康路三段359巷10弄2號","121.48429","24.950395","6500600","新店區"
"235030","003-UY","2019/11/02 13:43:37","新北市中和區水源路34巷2號","121.504855","25.0034266666667","6500300","中和區"
"235028","005-UY","2019/11/02 13:43:45","新北市中和區泰和街44巷9號","121.498523333333","25.000415","6500300","中和區"
"235027","006-UY","2019/11/02 13:43:41","新北市中和區錦和路113號","121.490253333333","24.994945","6500300","中和區"
"235020","096-UM","2019/11/02 13:43:49","新北市中和區新民街94巷18號","121.481535","25.0091733333333","6500300","中和區"
"235003","097-UM","2019/11/02 13:43:31","新北市中和區大勇街27巷24號","121.51629","24.99409","6500300","中和區"
"235029","098-UM","2019/11/02 13:43:39","新北市中和區中山路二段2巷13弄15號","121.503378333333","25.0064566666667","6500300","中和區"
"235004","150-BY","2019/11/02 13:43:47","新北市中和區安平路59號","121.509436666667","24.9951","6500300","中和區"
"235022","151-BY","2019/11/02 13:43:39","新北市中和區員山路143巷24號","121.479998333333","24.99584","6500300","中和區"
"235019","183-VK","2019/11/02 13:43:51","新北市中和區民生街93-2號","121.468551666667","25.00477","6500300","中和區"
"235002","185-VK","2019/11/02 13:43:37","新北市中和區自強路62巷6號","121.519575","24.99451","6500300","中和區"
"235031","255-BX","2019/11/02 13:43:48","新北市中和區新生街220巷1弄15號","121.483355","24.9979633333333","6500300","中和區"
"235008","293-VK","2019/11/02 13:43:37","新北市中和區中興街123號","121.499961666667","24.991755","6500300","中和區"
"235007","352-BY","2019/11/02 13:43:49","新北市中和區景平路51號","121.521688333333","24.990555","6500300","中和區"
"235006","KEA-2878","2019/11/02 13:43:43","新北市中和區成功路74號","121.525733333333","24.9919033333333","6500300","中和區"
"247015","KEA-2869","2019/11/02 13:43:35","新北市五股區四維路179號","121.467838333333","25.07524","6501400","蘆洲區"
"247009","KED-0682","2019/11/02 13:43:46","新北市五股區更洲路70號","121.455553333333","25.0798716666667","6501400","蘆洲區"
"235014","4979-A6","2019/11/02 13:43:48","新北市中和區景新街496巷30弄16號","121.513003333333","24.98563","6500300","中和區"
"235033","4980-A6","2019/11/02 13:43:47","新北市中和區景平路612號","121.500618333333","24.9967983333333","6500300","中和區"
"235034","558-UM","2019/11/02 13:43:33","新北市中和區中和路139號","121.502063333333","24.9996683333333","6500300","中和區"
"235009","565-BX","2019/11/02 13:43:33","新北市中和區興南路一段86號","121.509856666667","24.9893766666667","6500300","中和區"
"235024","KED-0823","2019/11/02 13:43:43","新北市中和區民治街1巷1號","121.474885","25.0056116666667","6500300","中和區"
"235018","640-BX","2019/11/02 13:43:43","新北市中和區民享街27巷2號","121.474036666667","25.0045916666667","6500300","中和區"
"235036","647-TV","2019/11/02 13:43:34","新北市中和區立德街148巷2號","121.487545","25.00889","6500300","中和區"
"235011","732-UM","2019/11/02 13:43:35","新北市中和區興南路二段34巷75號","121.505075","24.9849616666667","6500300","中和區"
"235010","733-UM","2019/11/02 13:43:31","新北市中和區仁愛街36巷32號","121.511063333333","24.9868366666667","6500300","中和區"
"235073","800-TS","2019/11/02 13:43:43","新北市中和區中山路二段332巷1號","121.494345","25.0024166666667","6500300","中和區"
"235021","801-TS","2019/11/02 13:43:36","新北市中和區民利街14巷3-3號","121.480603333333","24.999545","6500300","中和區"
"235005","802-TS","2019/11/02 13:43:48","新北市中和區永貞路249巷20號","121.512398333333","25.0035633333333","6500300","中和區"
"235016","805-TS","2019/11/02 13:43:45","新北市中和區興南路三段52巷2-5號","121.49444","24.97584","6500300","中和區"
"235012","896-TW","2019/11/02 13:43:37","新北市中和區南山路273號","121.503991666667","24.9924866666667","6500300","中和區"
"235017","900-TW","2019/11/02 13:43:40","新北市中和區華福街8號","121.465533333333","24.9967216666667","6500300","中和區"
"235036","911-UM","2019/11/02 13:43:41","新北市中和區中山路二段22號","121.504731666667","25.0054133333333","6500300","中和區"
"235015","157-BY","2019/11/02 13:43:44","新北市中和區華新街109巷22號","121.508348333333","24.9808366666667","6500300","中和區"
"235001","AAC-213","2019/11/02 13:43:37","新北市中和區自立路141巷36號","121.524001666667","24.9938716666667","6500300","中和區"
"235023","AAC-215","2019/11/02 13:43:50","新北市中和區錦和路354巷3號","121.49033","24.9914766666667","6500300","中和區"
"220104","015-TV","2019/11/02 13:43:45","新北市板橋區南雅西路二段145巷6號","121.451618333333","25.0117833333333","6500100","板橋區"
"220013","072-UY","2019/11/02 13:43:49","新北市板橋區成都街23號","121.460751666667","25.0049616666667","6500100","板橋區"
"220034","073-UY","2019/11/02 13:43:42","新北市板橋區南雅南路二段120-9號","121.452943333333","24.999335","6500100","板橋區"
"220105","075-UY","2019/11/02 13:43:46","新北市板橋區民生路二段161巷1號","121.469988333333","25.0201266666667","6500100","板橋區"
"220017","AAD-861","2019/11/02 13:43:47","新北市板橋區四川路一段10巷23號","121.458828333333","25.0063283333333","6500100","板橋區"
"247005","500-BY","2019/11/02 13:43:28","新北市蘆洲區中山二路309號","121.468803333333","25.077395","6501400","蘆洲區"
"247003","341-TH","2019/11/02 13:43:42","新北市蘆洲區中原路30號","121.45999","25.08294","6501400","蘆洲區"
"247013","056-VK","2019/11/02 13:43:31","新北市五股區成泰路三段544-1號","121.454561666667","25.100455","6501400","蘆洲區"
"247001","001-UY","2019/11/02 13:43:45","新北市五股區新城三路61號","121.449535","25.09445","6501400","蘆洲區"
"235013","251-BX","2019/11/02 13:43:37","新北市中和區景安路132巷11號","121.504576666667","24.9942566666667","6500300","中和區"
"228005","097-TW","2019/11/02 13:43:33","新北市貢寮區美豐里文秀坑2-3號","121.899353333333","25.0551266666667","6502600","貢寮區"
"228004","212-TW","2019/11/02 13:43:41","新北市貢寮區龍崗里嵩陽街8號","121.901856666667","25.010885","6502600","貢寮區"
"253003","6232-TK","2019/11/02 13:43:39","新北市石門區內石門14-3號","121.573115","25.27719","6502200","石門區"
"253004","6251-TK","2019/11/02 13:43:41","新北市石門區阿里荖60-1號","121.607375","25.2707033333333","6502200","石門區"
"253002","637-UY","2019/11/02 13:43:35","新北市石門區尖山湖3號","121.565161666667","25.242565","6502200","石門區"
"253001","KEC-0718","2019/11/02 13:43:49","新北市石門區八甲53-2號","121.521201666667","25.2756083333333","6502200","石門區"
"207002","749-BX","2019/11/02 13:43:31","新北市萬里區崁腳里崁腳路166號","121.64507","25.1558233333333","6502800","萬里區"
"207001","662-BX","2019/11/02 13:43:43","新北市萬里區大鵬里萬里加投45-1號","121.641871666667","25.21105","6502800","萬里區"
"252005","AAC-283","2019/11/02 13:43:35","新北市三芝區圓山里內柑宅25-2號","121.536681666667","25.2288016666667","6502100","三芝區"
"237013","760-BX","2019/11/02 13:43:31","新北市三峽區中園街237-1號","121.367061666667","24.9194533333333","6500900","三峽區"
"236040","KED-0685","2019/11/02 13:43:43","新北市土城區城林路6巷80號","121.438528333333","24.9797433333333","6501300","土城區"
"220038","KED-0812","2019/11/02 13:43:43","新北市板橋區民生路二段232號","121.468951666667","25.0220416666667","6500100","板橋區"
"236074","166-UM","2019/11/02 13:43:39","新北市土城區中華路二段2號","121.439431666667","24.9795766666667","6501300","土城區"
"236029","253-BX","2019/11/02 13:43:49","新北市土城區城林路6巷80號","121.4385","24.9797366666667","6501300","土城區"
"236013","270-VK","2019/11/02 13:43:31","新北市土城區城林路6巷80號","121.438651666667","24.979805","6501300","土城區"
"236032","271-VK","2019/11/02 13:43:33","新北市土城區城林路6巷80號","121.438546666667","24.9798133333333","6501300","土城區"
"247011","KED-0683","2019/11/02 13:43:43","新北市五股區新城三路61號","121.449181666667","25.093505","6501400","蘆洲區"
"236068","KEA-2877","2019/11/02 13:43:38","新北市土城區城林路6巷80號","121.4387","24.9796916666667","6501300","土城區"
"236017","401-BY","2019/11/02 13:43:34","新北市土城區城林路6巷80號","121.438451666667","24.97966","6501300","土城區"
"236060","752-BX","2019/11/02 13:43:34","新北市土城區城林路6巷80號","121.438801666667","24.979675","6501300","土城區"
"236045","913-UM","2019/11/02 13:43:44","新北市土城區城林路6巷80號","121.438468333333","24.9797183333333","6501300","土城區"
"236054","AAC-216","2019/11/02 13:43:31","新北市土城區城林路6巷80號","121.43863","24.979775","6501300","土城區"
"220028","200-UY","2019/11/02 13:43:41","新北市板橋區大觀路二段265巷76弄5號","121.442225","24.9965416666667","6500100","板橋區"
"220040","267-BY","2019/11/02 13:43:40","新北市板橋區民生路二段148號","121.471541666667","25.0197216666667","6500100","板橋區"
"220004","276-BY","2019/11/02 13:43:43","新北市板橋區四川路一段107-3號","121.459758333333","25.0050633333333","6500100","板橋區"
"220020","277-BY","2019/11/02 13:43:47","新北市板橋區金門街43號","121.433305","24.9935983333333","6500100","板橋區"
"220050","280-UM","2019/11/02 13:43:49","新北市板橋區民生路二段224號","121.46893","25.0218766666667","6500100","板橋區"
"220043","283-UM","2019/11/02 13:43:42","新北市板橋區民生路二段120號","121.470903333333","25.0194516666667","6500100","板橋區"
"220019","283-VK","2019/11/02 13:43:43","新北市板橋區四川路一段327號","121.458673333333","25.000515","6500100","板橋區"
"220001","285-VK","2019/11/02 13:43:38","新北市板橋區民生路二段119號","121.47053","25.0183066666667","6500100","板橋區"
"220107","286-VK","2019/11/02 13:43:46","新北市板橋區大觀路二段22巷1號","121.446385","25.003335","6500100","板橋區"
"220029","287-VK","2019/11/02 13:43:34","新北市板橋區南雅東路89號","121.45331","25.0086883333333","6500100","板橋區"
"220039","288-VK","2019/11/02 13:43:34","新北市板橋區民生路三段111號","121.46661","25.025395","6500100","板橋區"
"220009","293-UM","2019/11/02 13:43:34","新北市板橋區民生路二段123號","121.470673333333","25.0185616666667","6500100","板橋區"
"220032","296-UM","2019/11/02 13:43:41","新北市板橋區大觀路二段174巷102弄19-1號","121.441665","25.0012583333333","6500100","板橋區"
"220023","303-R5","2019/11/02 13:43:48","新北市板橋區南雅南路二段120-8號","121.452171666667","24.9995433333333","6500100","板橋區"
"220010","305-R5","2019/11/02 13:43:51","新北市板橋區民生路二段120號","121.470608333333","25.0196316666667","6500100","板橋區"
"220041","307-R5","2019/11/02 13:43:41","新北市板橋區漢生東路21-1號","121.465116666667","25.0171233333333","6500100","板橋區"
"220027","461-BY","2019/11/02 13:43:38","新北市板橋區南雅東路89號","121.45301","25.0085766666667","6500100","板橋區"
"220037","491-VK","2019/11/02 13:43:38","新北市板橋區民生路二段161巷1號","121.470128333333","25.0201883333333","6500100","板橋區"
"220052","561-BX","2019/11/02 13:43:40","新北市板橋區民生路二段89-4號","121.471475","25.0185616666667","6500100","板橋區"
"220011","609-BX","2019/11/02 13:43:48","新北市板橋區中山路二段50-1號","121.473203333333","25.015625","6500100","板橋區"
"220005","686-BX","2019/11/02 13:43:41","新北市板橋區館前東路46號","121.460733333333","25.007105","6500100","板橋區"
"220025","687-BX","2019/11/02 13:43:49","新北市板橋區沙崙街15號","121.432633333333","24.994005","6500100","板橋區"
"220002","741-BX","2019/11/02 13:43:47","新北市板橋區華東街260號","121.452638333333","25.0015616666667","6500100","板橋區"
"220051","KEA-2699","2019/11/02 13:43:42","新北市板橋區民生路二段180號","121.471186666667","25.0203516666667","6500100","板橋區"
"220003","827-TW","2019/11/02 13:43:51","新北市板橋區忠孝路125號","121.463018333333","25.0023516666667","6500100","板橋區"
"220014","829-TW","2019/11/02 13:43:48","新北市板橋區民生路二段120號","121.47062","25.0195033333333","6500100","板橋區"
"220016","831-TW","2019/11/02 13:43:33","新北市板橋區萬板路165號","121.474036666667","25.02346","6500100","板橋區"
"220030","833-TW","2019/11/02 13:43:50","新北市板橋區篤行路二段59號","121.431746666667","24.9923416666667","6500100","板橋區"
"220022","895-R6","2019/11/02 13:43:34","新北市板橋區南門街9-4號","121.457571666667","25.00922","6500100","板橋區"
"220021","985-R7","2019/11/02 13:43:37","新北市板橋區館前西路27號","121.458485","25.0068433333333","6500100","板橋區"
"220046","AAC-210","2019/11/02 13:43:34","新北市板橋區民生路二段224號","121.469031666667","25.0218083333333","6500100","板橋區"
"220012","AAC-253","2019/11/02 13:43:39","新北市板橋區中山路一段293-2號","121.470905","25.0142766666667","6500100","板橋區"
"235032","KEA-2873","2019/11/02 13:43:28","新北市中和區圓通路265巷29號","121.496208333333","24.9924916666667","6500300","中和區"
"235025","KEA-2875","2019/11/02 13:43:32","新北市中和區民治街128巷2號","121.475165","25.0029933333333","6500300","中和區"
