"lineid","car","time","location","longitude","latitude","cityid","cityname"
"234078","298-R6","2019/11/02 14:29:36","新北市永和區永貞路35號","121.521085","25.006585","6500400","永和區"
"234062","337-UY","2019/11/02 14:29:36","新北市永和區中正路417號","121.517126666667","25.00487","6500400","永和區"
"234068","552-UM","2019/11/02 14:29:34","新北市永和區永亨路6號","121.51936","25.005435","6500400","永和區"
"234028","746-BX","2019/11/02 14:29:34","新北市永和區民權路47號","121.520043333333","24.9972016666667","6500400","永和區"
"234052","KEA-2590","2019/11/02 14:29:42","新北市永和區環河東路一段80號","121.519586666667","25.016515","6500400","永和區"
"234005","KED-0605","2019/11/02 14:29:46","新北市中和區永貞路253號","121.512768333333","25.0040266666667","6500400","永和區"
"234060","AAD-866","2019/11/02 14:29:31","新北市永和區秀朗路一段175號","121.517043333333","25.003725","6500400","永和區"
"234040","862-TW","2019/11/02 14:29:37","新北市永和區自由街33號","121.514418333333","25.006365","6500400","永和區"
"234048","863-TW","2019/11/02 14:29:39","新北市永和區保安路134號","121.50859","25.0154483333333","6500400","永和區"
"234025","9371-KE","2019/11/02 14:29:47","新北市中和區安平路220號","121.51385","25.00006","6500400","永和區"
"248017","KED-0813","2019/11/02 14:29:35","新北市五股區外寮路13-1號","121.424858333333","25.0812683333333","6501500","五股區"
"234022","9380-KE","2019/11/02 14:29:29","新北市永和區保順路11號","121.504703333333","25.0096183333333","6500400","永和區"
"234072","AAC-211","2019/11/02 14:29:38","新北市永和區環河東路一段124號","121.520688333333","25.0153933333333","6500400","永和區"
"234001","AAC-295","2019/11/02 14:29:42","新北市永和區大新街45巷2號","121.515795","25.0085383333333","6500400","永和區"
"231003","001-UM","2019/11/02 14:29:50","新北市新店區中興路一段267-4號","121.545028333333","24.967905","6500600","新店區"
"231030","002-UM","2019/11/02 14:29:34","新北市新店區安民街80號","121.516635","24.966945","6500600","新店區"
"231027","0293-UT","2019/11/02 14:29:31","新北市新店區中正路75巷67號","121.543261666667","24.9691","6500600","新店區"
"231005","046-UY","2019/11/02 14:29:34","新北市新店區北新路三段129號","121.541216666667","24.9827616666667","6500600","新店區"
"231029","106-UY","2019/11/02 14:29:39","新北市新店區安康路二段412號","121.496686666667","24.9552066666667","6500600","新店區"
"231018","107-UY","2019/11/02 14:29:41","新北市新店區中央一街55號","121.526931666667","24.97439","6500600","新店區"
"231013","108-UY","2019/11/02 14:29:35","新北市新店區民權路88-3號","121.53675","24.9834983333333","6500600","新店區"
"231036","110-UY","2019/11/02 14:29:43","新北市新店區安祥路109巷151弄8號","121.478338333333","24.958835","6500600","新店區"
"231033","256-BX","2019/11/02 14:29:40","新北市新店區安業街67巷34號","121.520425","24.9749216666667","6500600","新店區"
"231023","260-TV","2019/11/02 14:29:48","新北市新店區光明街187號","121.540041666667","24.9632983333333","6500600","新店區"
"231035","278-BY","2019/11/02 14:29:46","新北市新店區安光路10-1號","121.513828333333","24.9641533333333","6500600","新店區"
"231017","AAD-862","2019/11/02 14:29:49","新北市新店區北宜路二段579巷1-1號","121.565553333333","24.9535883333333","6500600","新店區"
"231006","355-BY","2019/11/02 14:29:48","新北市新店區北宜路二段382號","121.564448333333","24.9534033333333","6500600","新店區"
"231038","3712-VJ","2019/11/02 14:29:45","新北市新店區溪洲路163-2號","121.53072","24.9646466666667","6500600","新店區"
"231025","4715-K9","2019/11/02 14:22:19","新北市新店區民族路161號","121.537675","24.976725","6500600","新店區"
"231020","513-UM","2019/11/02 14:29:49","新北市新店區桂山路2-1號","121.55627","24.9043483333333","6500600","新店區"
"231034","616-UM","2019/11/02 14:29:42","新北市新店區車子路11號","121.503055","24.9520466666667","6500600","新店區"
"231001","617-UM","2019/11/02 14:29:31","新北市新店區中正路75巷71號","121.54326","24.968875","6500600","新店區"
"231002","619-UM","2019/11/02 14:29:31","新北市新店區中央路81號","121.532335","24.976595","6500600","新店區"
"231012","KED-0819","2019/11/02 14:29:48","新北市新店區寶橋路138號","121.547666666667","24.9764083333333","6500600","新店區"
"231028","897-TW","2019/11/02 14:29:49","新北市新店區安和路一段47號","121.517376666667","24.9657866666667","6500600","新店區"
"231004","899-TW","2019/11/02 14:29:46","新北市新店區中正路263-2號","121.538353333333","24.97367","6500600","新店區"
"231037","AKT-0513","2019/11/02 14:29:33","新北市新店區安康路二段318-1號","121.504798333333","24.9581566666667","6500600","新店區"
"235030","003-UY","2019/11/02 14:29:37","新北市中和區中和路132號","121.503625","24.9994066666667","6500300","中和區"
"235028","005-UY","2019/11/02 14:29:45","新北市中和區圓通路40號","121.500971666667","24.9977883333333","6500300","中和區"
"235027","006-UY","2019/11/02 14:29:41","新北市中和區連城路176號","121.493125","24.99717","6500300","中和區"
"235020","096-UM","2019/11/02 14:29:49","新北市中和區員山路514巷17號","121.479638333333","25.00987","6500300","中和區"
"235003","097-UM","2019/11/02 14:29:31","新北市中和區景平路316號","121.512325","24.992765","6500300","中和區"
"235029","098-UM","2019/11/02 14:29:51","新北市中和區莊敬路25號","121.50016","25.0046233333333","6500300","中和區"
"235004","150-BY","2019/11/02 14:29:47","新北市中和區宜安路23巷16號","121.512385","24.9953366666667","6500300","中和區"
"235022","151-BY","2019/11/02 14:29:39","新北市中和區員山路144號","121.481356666667","24.9965733333333","6500300","中和區"
"235019","183-VK","2019/11/02 14:29:51","新北市中和區民生街12巷4號","121.470615","25.005715","6500300","中和區"
"235002","185-VK","2019/11/02 14:29:37","新北市中和區自立路125號","121.521973333333","24.9941433333333","6500300","中和區"
"235031","255-BX","2019/11/02 14:29:48","新北市中和區連城路340巷10弄12號","121.483013333333","24.9965366666667","6500300","中和區"
"235008","293-VK","2019/11/02 14:29:37","新北市中和區捷運路8-7號","121.509448333333","24.9894933333333","6500300","中和區"
"235007","352-BY","2019/11/02 14:29:30","新北市中和區景平路370號","121.510895","24.9928933333333","6500300","中和區"
"235006","KEA-2878","2019/11/02 14:29:43","新北市中和區保健路29巷2號","121.50898","24.9981616666667","6500300","中和區"
"247015","KEA-2869","2019/11/02 14:29:47","新北市蘆洲區中正路185巷68弄1號","121.466611666667","25.0846166666667","6501400","蘆洲區"
"247009","KED-0682","2019/11/02 14:29:46","新北市蘆洲區信義路265號","121.478946666667","25.0848783333333","6501400","蘆洲區"
"235034","558-UM","2019/11/02 14:29:33","新北市中和區景平路585號","121.497601666667","25.0003283333333","6500300","中和區"
"235009","565-BX","2019/11/02 14:29:33","新北市中和區安樂路2巷2號","121.511803333333","24.991655","6500300","中和區"
"235024","KED-0823","2019/11/02 14:29:37","新北市中和區員山路394巷3號","121.480785","25.0046583333333","6500300","中和區"
"235018","640-BX","2019/11/02 14:29:43","新北市中和區莒光路222-2號","121.469325","24.9950316666667","6500300","中和區"
"235036","647-TV","2019/11/02 14:29:34","新北市中和區建二路149號","121.487093333333","25.003665","6500300","中和區"
"235011","732-UM","2019/11/02 14:29:47","新北市中和區景平路329巷1弄2號","121.505863333333","24.9929433333333","6500300","中和區"
"235010","733-UM","2019/11/02 14:29:51","新北市中和區忠孝街37巷52號","121.511081666667","24.9849466666667","6500300","中和區"
"235073","800-TS","2019/11/02 14:29:43","新北市中和區橋和路87號","121.490143333333","25.0054966666667","6500300","中和區"
"235021","801-TS","2019/11/02 14:29:36","新北市中和區員山路146-4號","121.481235","24.9970766666667","6500300","中和區"
"235005","802-TS","2019/11/02 14:29:48","新北市中和區中和路228號","121.506441666667","24.9995516666667","6500300","中和區"
"235016","805-TS","2019/11/02 14:29:45","新北市中和區華新街143巷62號","121.506278333333","24.9793666666667","6500300","中和區"
"235012","896-TW","2019/11/02 14:29:37","新北市中和區忠孝街39-6號","121.511875","24.9840066666667","6500300","中和區"
"235017","900-TW","2019/11/02 14:29:40","新北市中和區民德路197-2號","121.468898333333","24.9987283333333","6500300","中和區"
"235036","911-UM","2019/11/02 14:29:41","新北市中和區中和路74號","121.500765","25.000145","6500300","中和區"
"235015","157-BY","2019/11/02 14:29:44","新北市中和區板南路132號","121.50245","24.9925816666667","6500300","中和區"
"235001","AAC-213","2019/11/02 14:29:37","新北市中和區秀朗路三段10巷21弄16號","121.525581666667","24.9959","6500300","中和區"
"235023","AAC-215","2019/11/02 14:29:46","新北市中和區圓通路337號","121.49179","24.9905","6500300","中和區"
"220104","015-TV","2019/11/02 14:29:49","新北市板橋區中正路399巷28號","121.453158333333","25.02274","6500100","板橋區"
"220013","072-UY","2019/11/02 14:29:46","新北市板橋區國泰街75巷28弄23號","121.467775","25.0047466666667","6500100","板橋區"
"220034","073-UY","2019/11/02 14:29:42","新北市板橋區中正路216巷2弄11號","121.456478333333","25.018065","6500100","板橋區"
"220105","075-UY","2019/11/02 14:29:46","新北市板橋區文化路二段328號","121.472683333333","25.030245","6500100","板橋區"
"220017","AAD-861","2019/11/02 14:29:49","新北市板橋區貴興路106巷16弄2號","121.454808333333","25.0033766666667","6500100","板橋區"
"247019","546-UM","2019/11/02 14:29:35","新北市蘆洲區水湳街102號","121.469668333333","25.0925416666667","6501400","蘆洲區"
"247005","500-BY","2019/11/02 14:29:43","新北市蘆洲區中華街64號","121.461583333333","25.07996","6501400","蘆洲區"
"247003","341-TH","2019/11/02 14:29:48","新北市蘆洲區長安街220巷21弄4號","121.459418333333","25.08574","6501400","蘆洲區"
"247023","057-VK","2019/11/02 14:29:41","新北市蘆洲區中正路263巷2號","121.46722","25.0876133333333","6501400","蘆洲區"
"247013","056-VK","2019/11/02 14:29:51","新北市蘆洲區忠孝路22號","121.470998333333","25.08414","6501400","蘆洲區"
"247017","053-VK","2019/11/02 14:29:38","新北市蘆洲區民族路314巷1號","121.477236666667","25.0901816666667","6501400","蘆洲區"
"247007","002-UY","2019/11/02 14:29:39","新北市蘆洲區民生街47號","121.475016666667","25.0788416666667","6501400","蘆洲區"
"247001","001-UY","2019/11/02 14:29:44","新北市蘆洲區永樂街38巷33弄17號","121.45738","25.0896266666667","6501400","蘆洲區"
"235013","251-BX","2019/11/02 14:29:37","新北市中和區景新街273巷5號","121.509545","24.993815","6500300","中和區"
"228005","097-TW","2019/11/02 14:29:33","新北市貢寮區美豐里巫里岸9-1號","121.901958333333","25.070115","6502600","貢寮區"
"228004","212-TW","2019/11/02 14:29:41","新北市貢寮區雙玉里田寮洋街33-1號","121.932168333333","25.0136516666667","6502600","貢寮區"
"253003","6232-TK","2019/11/02 14:29:39","新北市石門區尖子鹿89號","121.577966666667","25.2889233333333","6502200","石門區"
"253004","6251-TK","2019/11/02 14:23:21","新北市石門區阿里磅26號","121.589688333333","25.2593666666667","6502200","石門區"
"253002","637-UY","2019/11/02 14:29:35","新北市三芝區橫山里橫山39-5號","121.545828333333","25.2529483333333","6502200","石門區"
"253001","KEC-0718","2019/11/02 14:29:29","新北市石門區崁子腳65-3號","121.532735","25.285125","6502200","石門區"
"207002","749-BX","2019/11/02 14:29:31","新北市萬里區崁腳里內崁路4號","121.642248333333","25.1594766666667","6502800","萬里區"
"207001","662-BX","2019/11/02 14:29:43","新北市萬里區磺潭里清水18-2號","121.638561666667","25.1983516666667","6502800","萬里區"
"252005","AAC-283","2019/11/02 14:29:35","新北市三芝區橫山里大坑98-2號","121.52642","25.2603966666667","6502100","三芝區"
"237013","760-BX","2019/11/02 14:16:33","新北市三峽區中山路459巷135號","121.348836666667","24.93307","6500900","三峽區"
"236040","KED-0685","2019/11/02 14:29:42","新北市土城區裕民路67巷4弄2號","121.449746666667","24.9878233333333","6501300","土城區"
"220038","KED-0812","2019/11/02 14:29:43","新北市板橋區英士路57號","121.460591666667","25.0244566666667","6500100","板橋區"
"236074","166-UM","2019/11/02 14:29:39","新北市土城區大暖路61-2號","121.422115","24.9582016666667","6501300","土城區"
"236029","253-BX","2019/11/02 14:29:49","新北市土城區水源街67號","121.439878333333","24.97627","6501300","土城區"
"236024","269-VK","2019/11/02 14:29:47","新北市土城區承天路81-8號","121.440575","24.9626966666667","6501300","土城區"
"236013","270-VK","2019/11/02 14:29:31","新北市土城區青雲路39巷7號","121.460276666667","24.9874866666667","6501300","土城區"
"236032","271-VK","2019/11/02 14:29:33","新北市土城區明德路一段297號","121.459993333333","24.977255","6501300","土城區"
"247011","KED-0683","2019/11/02 14:29:44","新北市蘆洲區中興街138號","121.482173333333","25.0895916666667","6501400","蘆洲區"
"236068","KEA-2877","2019/11/02 14:29:38","新北市土城區永豐路338號","121.473763333333","24.9773","6501300","土城區"
"236017","401-BY","2019/11/02 14:29:34","新北市土城區明德路一段93巷6號","121.466078333333","24.9833333333333","6501300","土城區"
"236060","752-BX","2019/11/02 14:29:34","新北市土城區金城路三段202-3號","121.469483333333","24.9885816666667","6501300","土城區"
"236057","912-UM","2019/11/02 14:29:36","新北市土城區中央路四段166號","121.416871666667","24.95814","6501300","土城區"
"236045","913-UM","2019/11/02 14:29:48","新北市土城區青雲路364號","121.458705","24.9739183333333","6501300","土城區"
"236054","AAC-216","2019/11/02 14:29:51","新北市土城區中華路一段245號","121.441088333333","24.9819283333333","6501300","土城區"
"220028","200-UY","2019/11/02 14:29:42","新北市板橋區大觀路二段3巷58號","121.449096666667","25.0034383333333","6500100","板橋區"
"220040","267-BY","2019/11/02 14:29:40","新北市板橋區文聖街149巷25號","121.47948","25.0286516666667","6500100","板橋區"
"220004","276-BY","2019/11/02 14:29:43","新北市板橋區信義路64號","121.457226666667","24.9936766666667","6500100","板橋區"
"220020","277-BY","2019/11/02 14:29:52","新北市板橋區篤行路二段151巷6號","121.430046666667","24.9877333333333","6500100","板橋區"
"220050","280-UM","2019/11/02 14:29:49","新北市板橋區萬板路38號","121.472148333333","25.02266","6500100","板橋區"
"220043","283-UM","2019/11/02 14:29:42","新北市板橋區銘傳街78號","121.469098333333","25.0313683333333","6500100","板橋區"
"220019","283-VK","2019/11/02 14:29:22","新北市板橋區忠孝路24巷32號","121.460191666667","25.00076","6500100","板橋區"
"220001","285-VK","2019/11/02 14:29:38","新北市板橋區永豐街118號","121.476333333333","25.0208783333333","6500100","板橋區"
"220107","286-VK","2019/11/02 14:29:46","新北市板橋區龍興街71巷1號","121.443851666667","25.001655","6500100","板橋區"
"220029","287-VK","2019/11/02 14:29:34","新北市板橋區大觀路一段29巷179弄32-1號","121.44943","25.004115","6500100","板橋區"
"220039","288-VK","2019/11/02 14:29:34","新北市板橋區新海路431巷5號","121.457911666667","25.0272266666667","6500100","板橋區"
"220009","293-UM","2019/11/02 14:29:34","新北市板橋區中山路一段265巷36弄2號","121.4691","25.01512","6500100","板橋區"
"220047","295-UM","2019/11/02 14:29:35","新北市板橋區民有街112號","121.464431666667","25.0284833333333","6500100","板橋區"
"220032","296-UM","2019/11/02 14:29:47","新北市板橋區滿平街84巷110弄22號","121.425888333333","24.9858366666667","6500100","板橋區"
"220023","303-R5","2019/11/02 14:29:28","新北市板橋區南雅西路一段35號","121.453828333333","25.0045183333333","6500100","板橋區"
"220010","305-R5","2019/11/02 14:29:37","新北市板橋區三民路二段123巷1號","121.479485","25.0157216666667","6500100","板橋區"
"220041","307-R5","2019/11/02 14:29:41","新北市板橋區陽明街164巷29號","121.464643333333","25.02473","6500100","板橋區"
"220027","461-BY","2019/11/02 14:29:38","新北市板橋區民權路260巷62號","121.460328333333","25.0149733333333","6500100","板橋區"
"220037","491-VK","2019/11/02 14:29:38","新北市板橋區雙十路二段79號","121.476121666667","25.027055","6500100","板橋區"
"220052","561-BX","2019/11/02 14:29:39","新北市板橋區陽明街48號","121.465473333333","25.0221033333333","6500100","板橋區"
"220011","609-BX","2019/11/02 14:29:48","新北市板橋區三民路一段136號","121.479221666667","25.0206333333333","6500100","板橋區"
"220005","686-BX","2019/11/02 14:29:41","新北市板橋區國慶路163號","121.462038333333","24.99619","6500100","板橋區"
"220025","687-BX","2019/11/02 14:29:46","新北市板橋區大觀路一段61號","121.447348333333","25.005285","6500100","板橋區"
"220042","689-BX","2019/11/02 14:29:47","新北市板橋區裕民街151號","121.4585","25.0269983333333","6500100","板橋區"
"220002","741-BX","2019/11/02 14:29:47","新北市板橋區忠孝路131號","121.463081666667","25.00239","6500100","板橋區"
"220051","KEA-2699","2019/11/02 14:29:42","新北市板橋區雙十路二段70巷33號","121.475978333333","25.0287216666667","6500100","板橋區"
"220003","827-TW","2019/11/02 14:29:35","新北市板橋區重慶路278巷5號","121.462665","24.9996","6500100","板橋區"
"220014","829-TW","2019/11/02 14:29:48","新北市板橋區漢生東路313巷2弄11號","121.472411666667","25.0080583333333","6500100","板橋區"
"220016","831-TW","2019/11/02 14:29:44","新北市板橋區中山路二段581-1號","121.484513333333","25.0221933333333","6500100","板橋區"
"220030","833-TW","2019/11/02 14:29:51","新北市板橋區金門街346號","121.42793","24.9844916666667","6500100","板橋區"
"220022","895-R6","2019/11/02 14:29:34","新北市板橋區北門街23號","121.456715","25.0110266666667","6500100","板橋區"
"220021","985-R7","2019/11/02 14:29:41","新北市板橋區新生街89巷26號","121.457146666667","25.02267","6500100","板橋區"
"220046","AAC-210","2019/11/02 14:29:34","新北市板橋區漢生西路58巷1弄1號","121.463375","25.0189566666667","6500100","板橋區"
"220012","AAC-253","2019/11/02 14:29:38","新北市板橋區民權路28號","121.463086666667","25.0100883333333","6500100","板橋區"
"235032","KEA-2873","2019/11/02 14:29:28","新北市中和區莊敬路16巷6號","121.499971666667","25.0040683333333","6500300","中和區"
"235025","KEA-2875","2019/11/02 14:29:32","新北市中和區員山路174巷2號","121.481686666667","24.9998333333333","6500300","中和區"
