"lineid","car","time","location","longitude","latitude","cityid","cityname"
"249005","759-BX","2019/11/02 16:29:33","新北市八里區龍米路三段2號","121.429455","25.1593216666667","6502300","八里區"
"231046","719-UM","2019/11/02 16:29:49","新北市新店區灣潭路3-5號","121.538071666667","24.9508266666667","6500600","新店區"
"241011","013-R5","2019/11/02 16:29:46","新北市三重區龍濱路257號","121.501455","25.0728033333333","6500200","三重區"
"241028","022-UY","2019/11/02 16:29:39","新北市三重區中正南路212號","121.494021666667","25.0556316666667","6500200","三重區"
"241008","059-VK","2019/11/02 16:29:45","新北市三重區永福街175-2號","121.478755","25.075235","6500200","三重區"
"241023","060-VK","2019/11/02 16:29:38","新北市三重區忠孝路三段50巷45號","121.48292","25.0643833333333","6500200","三重區"
"241031","061-VK","2019/11/02 16:29:40","新北市三重區重陽路一段68號","121.486615","25.0585466666667","6500200","三重區"
"241015","062-VK","2019/11/02 16:29:50","新北市三重區信義街61號","121.501268333333","25.0650883333333","6500200","三重區"
"241017","063-VK","2019/11/02 16:29:37","新北市三重區大同北路85號","121.494858333333","25.0637","6500200","三重區"
"241024","065-VK","2019/11/02 16:29:29","新北市三重區中正北路315巷16弄12號","121.475486666667","25.07178","6500200","三重區"
"241007","066-VK","2019/11/02 16:29:36","新北市三重區三和路四段167巷132號","121.486826666667","25.0799533333333","6500200","三重區"
"241003","091-VK","2019/11/02 16:29:35","新北市三重區仁義街220巷1號","121.495258333333","25.0841116666667","6500200","三重區"
"241006","262-UM","2019/11/02 16:29:35","新北市三重區永福街10巷7-1號","121.483113333333","25.0778483333333","6500200","三重區"
"241016","266-UM","2019/11/02 16:29:50","新北市三重區自強路一段160巷2弄27號","121.494816666667","25.0658816666667","6500200","三重區"
"241009","267-UM","2019/11/02 16:29:42","新北市三重區三和路四段191巷72號","121.484093333333","25.0797083333333","6500200","三重區"
"241018","268-UM","2019/11/02 16:29:37","新北市三重區重陽路四段77號","121.492385","25.0708133333333","6500200","三重區"
"241032","269-UM","2019/11/02 16:29:42","新北市三重區三陽路116巷4號","121.48304","25.0581966666667","6500200","三重區"
"241013","270-UM","2019/11/02 16:29:43","新北市三重區仁愛街52號","121.495986666667","25.0728416666667","6500200","三重區"
"241025","271-UM","2019/11/02 16:29:31","新北市三重區中正北路560巷100弄17號","121.47263","25.068685","6500200","三重區"
"241030","KED-0822","2019/11/02 16:29:49","新北市三重區成功路62號","121.488636666667","25.051035","6500200","三重區"
"241004","475-VK","2019/11/02 16:29:41","新北市三重區仁愛街377巷78號","121.492846666667","25.0811533333333","6500200","三重區"
"241020","478-VK","2019/11/02 16:29:43","新北市三重區車路頭街62巷3號","121.484108333333","25.07263","6500200","三重區"
"241026","480-VK","2019/11/02 16:29:41","新北市三重區中央南路95巷19號","121.500783333333","25.060685","6500200","三重區"
"241014","543-UM","2019/11/02 16:29:34","新北市三重區河邊北街72-6號","121.504428333333","25.0685016666667","6500200","三重區"
"241001","547-UM","2019/11/02 16:29:47","新北市三重區福隆路51號","121.491088333333","25.0776933333333","6500200","三重區"
"241019","KEA-2593","2019/11/02 16:29:38","新北市三重區重陽路三段97號","121.490255","25.0679816666667","6500200","三重區"
"241005","AAD-863","2019/11/02 16:29:34","新北市三重區仁華街78號","121.484751666667","25.0829816666667","6500200","三重區"
"241012","743-BX","2019/11/02 16:29:51","新北市三重區河邊北街200號","121.50234","25.07465","6500200","三重區"
"241022","KED-0820","2019/11/02 16:29:42","新北市三重區重陽路二段8號","121.486581666667","25.0619883333333","6500200","三重區"
"241029","942-UM","2019/11/02 16:29:44","新北市三重區集美街112巷45弄1號","121.490681666667","25.0541366666667","6500200","三重區"
"241033","AAC-255","2019/11/02 16:29:47","新北市三重區五谷王北街20巷15弄2號","121.474958333333","25.048315","6500200","三重區"
"235054","640-BX","2019/11/02 16:29:43","新北市中和區員山路36巷16-2號","121.485313333333","24.991615","6500300","中和區"
"247014","056-VK","2019/11/02 16:29:39","新北市五股區中興路三段163號","121.449465","25.0805033333333","6501400","蘆洲區"
"224007","285-BY","2019/11/02 16:29:40","新北市瑞芳區瑞竹路36巷23號","121.764251666667","25.1040816666667","6501200","瑞芳區"
"224009","275-VK","2019/11/02 16:24:03","新北市瑞芳區民權街3-1號","121.809116666667","25.108365","6501200","瑞芳區"
"224005","271-BY","2019/11/02 16:29:36","新北市瑞芳區瑞濱路67號","121.822216666667","25.1209083333333","6501200","瑞芳區"
"227001","642-TC","2019/11/02 16:29:43","新北市雙溪區牡丹里石1-1號","121.864735","25.0480716666667","6502500","雙溪區"
"227002","400-TW","2019/11/02 16:29:39","新北市雙溪區外柑里外柑腳33號","121.809001666667","25.0201633333333","6502500","雙溪區"
"251015","KEA-2871","2019/11/02 16:29:48","新北市淡水區中正路二段31號","121.419133333333","25.1819966666667","6501000","淡水區"
"251016","180-VK","2019/11/02 16:29:39","新北市淡水區中正路二段31號","121.419221666667","25.1817383333333","6501000","淡水區"
"251008","181-VK","2019/11/02 16:29:48","新北市淡水區中正東路49號","121.44672","25.167845","6501000","淡水區"
"251013","182-VK","2019/11/02 16:29:43","新北市淡水區北新路三段171-1號","121.491883333333","25.1914966666667","6501000","淡水區"
"251014","577-R6","2019/11/02 16:29:34","新北市淡水區中山北路三段112號","121.44404","25.193065","6501000","淡水區"
"252001","KED-0821","2019/11/02 16:29:31","新北市三芝區埔坪里埔頭坑41號","121.504635","25.2645983333333","6502100","三芝區"
