"lineid","car","time","location","longitude","latitude","cityid","cityname"
"249004","303-UY","2019/11/02 16:59:48","新北市八里區忠孝路353號","121.416466666667","25.1611583333333","6502300","八里區"
"249002","305-UY","2019/11/02 16:58:10","新北市八里區牛寮埔21號","121.432221666667","25.1432316666667","6502300","八里區"
"249003","593-UM","2019/11/02 16:59:43","新北市八里區中山路二段289號","121.401535","25.1485083333333","6502300","八里區"
"249005","759-BX","2019/11/02 16:59:29","新北市八里區渡船頭5-8號","121.430856666667","25.1542183333333","6502300","八里區"
"244007","080-UY","2019/11/02 16:59:34","新北市林口區中湖52-1號","121.375931666667","25.09153","6501700","林口區"
"244019","402-UM","2019/11/02 16:59:32","新北市林口區仁愛路二段160號","121.381531666667","25.074075","6501700","林口區"
"244013","KEA-2802","2019/11/02 16:59:36","新北市林口區粉寮69號","121.404728333333","25.090805","6501700","林口區"
"244025","837-TS","2019/11/02 16:59:46","新北市林口區粉寮69號","121.405051666667","25.0907716666667","6501700","林口區"
"244021","838-TS","2019/11/02 16:59:38","新北市林口區粉寮一街79號","121.404291666667","25.0864666666667","6501700","林口區"
"231046","719-UM","2019/11/02 16:59:49","新北市新店區灣潭路15-11號","121.542003333333","24.9409866666667","6500600","新店區"
"241011","013-R5","2019/11/02 16:59:46","新北市三重區仁愛街55巷96號","121.49834","25.07264","6500200","三重區"
"241028","022-UY","2019/11/02 16:59:39","新北市三重區中正南路54號","121.493968333333","25.0598516666667","6500200","三重區"
"241008","059-VK","2019/11/02 16:59:45","新北市三重區永福街179巷3號","121.47867","25.0750283333333","6500200","三重區"
"241023","060-VK","2019/11/02 16:59:38","新北市三重區忠孝路三段126號","121.48032","25.063735","6500200","三重區"
"241031","061-VK","2019/11/02 16:59:40","新北市三重區重新路三段115巷2號","121.490536666667","25.0599816666667","6500200","三重區"
"241015","062-VK","2019/11/02 16:59:30","新北市三重區中央北路97號","121.500368333333","25.0671616666667","6500200","三重區"
"241017","063-VK","2019/11/02 16:59:37","新北市三重區國隆路12巷13號","121.492335","25.0637066666667","6500200","三重區"
"241024","065-VK","2019/11/02 16:59:29","新北市三重區大勇街82巷15弄30號","121.481106666667","25.0719316666667","6500200","三重區"
"241007","066-VK","2019/11/02 16:59:36","新北市三重區三和路四段145巷211號","121.488741666667","25.0793883333333","6500200","三重區"
"241002","090-VK","2019/11/02 16:59:47","新北市三重區仁義街101巷28號","121.498921666667","25.08041","6500200","三重區"
"241003","091-VK","2019/11/02 16:59:35","新北市三重區五華街141巷58號","121.49357","25.086795","6500200","三重區"
"241006","262-UM","2019/11/02 16:59:35","新北市三重區車路頭街131巷20號","121.485195","25.0760083333333","6500200","三重區"
"241016","266-UM","2019/11/02 16:59:50","新北市三重區大同北路121巷2號","121.493616666667","25.0641","6500200","三重區"
"241009","267-UM","2019/11/02 16:59:41","新北市三重區仁愛街600巷18號","121.484263333333","25.080395","6500200","三重區"
"241018","268-UM","2019/11/02 16:59:30","新北市三重區六張街126巷2弄16號","121.492403333333","25.0695216666667","6500200","三重區"
"241032","269-UM","2019/11/02 16:59:42","新北市三重區新北大道一段35巷12號","121.485975","25.0608233333333","6500200","三重區"
"241013","270-UM","2019/11/02 16:59:43","新北市三重區仁和街75號","121.497511666667","25.0739516666667","6500200","三重區"
"241025","271-UM","2019/11/02 16:59:31","新北市三重區中正北路510號","121.472653333333","25.0715983333333","6500200","三重區"
"241030","KED-0822","2019/11/02 16:59:49","新北市三重區成功路39號","121.48971","25.0506933333333","6500200","三重區"
"241004","475-VK","2019/11/02 16:59:42","新北市三重區五華街98巷19號","121.491758333333","25.082075","6500200","三重區"
"241020","478-VK","2019/11/02 16:59:43","新北市三重區國道路一段8號","121.486091666667","25.073455","6500200","三重區"
"241026","480-VK","2019/11/02 16:59:33","新北市三重區光興街37號","121.49946","25.0603033333333","6500200","三重區"
"241014","543-UM","2019/11/02 16:59:34","新北市三重區三和路二段173巷149號","121.501225","25.07071","6500200","三重區"
"241001","547-UM","2019/11/02 16:59:47","新北市三重區仁愛街245巷36號","121.49434","25.0785","6500200","三重區"
"241019","KEA-2593","2019/11/02 16:59:25","新北市三重區三張街149巷16號","121.486633333333","25.0700916666667","6500200","三重區"
"241005","AAD-863","2019/11/02 16:59:34","新北市三重區永安北路二段43巷18號","121.482921666667","25.082755","6500200","三重區"
"241012","743-BX","2019/11/02 16:59:31","新北市三重區仁和街78號","121.49915","25.0745183333333","6500200","三重區"
"241022","KED-0820","2019/11/02 16:59:42","新北市三重區三民街155巷2號","121.483975","25.06443","6500200","三重區"
"241029","942-UM","2019/11/02 16:59:44","新北市三重區中正南路181號","121.493666666667","25.055235","6500200","三重區"
"241033","AAC-255","2019/11/02 16:59:47","新北市三重區中興北街271號","121.469248333333","25.0605733333333","6500200","三重區"
"247016","KEA-2869","2019/11/02 16:59:46","新北市蘆洲區中正路67號","121.470275","25.0825833333333","6501400","蘆洲區"
"247010","KED-0682","2019/11/02 16:59:44","新北市蘆洲區信義路170號","121.479261666667","25.0838566666667","6501400","蘆洲區"
"235054","640-BX","2019/11/02 16:49:52","新北市中和區和城路一段271巷1號","121.485448333333","24.9915516666667","6500300","中和區"
"247020","546-UM","2019/11/02 16:59:29","新北市蘆洲區民族路422巷82弄14號","121.473971666667","25.0938966666667","6501400","蘆洲區"
"247006","500-BY","2019/11/02 16:59:31","新北市蘆洲區長安街99巷13號","121.461203333333","25.080245","6501400","蘆洲區"
"247024","057-VK","2019/11/02 16:59:52","新北市蘆洲區長興路202號","121.46068","25.0872066666667","6501400","蘆洲區"
"247014","056-VK","2019/11/02 16:59:39","新北市蘆洲區中山二路23號","121.474635","25.0819083333333","6501400","蘆洲區"
"247018","053-VK","2019/11/02 16:59:46","新北市蘆洲區民族路227巷12號","121.477275","25.0895316666667","6501400","蘆洲區"
"247022","007-UY","2019/11/02 16:59:33","新北市蘆洲區三民路128巷100號","121.469355","25.0907683333333","6501400","蘆洲區"
"247008","002-UY","2019/11/02 16:59:39","新北市蘆洲區信義路59巷5弄7號","121.475","25.0799566666667","6501400","蘆洲區"
"247002","001-UY","2019/11/02 16:59:36","新北市蘆洲區永平街16號","121.45918","25.090595","6501400","蘆洲區"
"228003","097-TW","2019/11/02 16:59:36","新北市貢寮區福隆里興隆街13-5號","121.94419","25.0165683333333","6502600","貢寮區"
"228001","212-TW","2019/11/02 16:59:35","新北市貢寮區雙玉里學苑街2號","121.91342","25.021675","6502600","貢寮區"
"228002","663-BX","2019/11/02 16:59:38","新北市貢寮區貢寮里朝陽街142號","121.905411666667","25.0232933333333","6502600","貢寮區"
"224006","676-BX","2019/11/02 16:59:48","新北市瑞芳區大寮路2-1號","121.785541666667","25.1011183333333","6501200","瑞芳區"
"224007","285-BY","2019/11/02 16:59:40","新北市瑞芳區粗坑口路27號","121.7605","25.0991433333333","6501200","瑞芳區"
"224009","275-VK","2019/11/02 16:59:45","新北市瑞芳區明燈路一段1號","121.827613333333","25.1095183333333","6501200","瑞芳區"
"224008","273-VK","2019/11/02 16:59:32","新北市瑞芳區明燈路一段267號","121.816731666667","25.1085166666667","6501200","瑞芳區"
"224005","271-BY","2019/11/02 16:59:36","新北市瑞芳區鼻頭路247號","121.90315","25.1219833333333","6501200","瑞芳區"
"227001","642-TC","2019/11/02 16:59:42","新北市雙溪區三貂里定福路6-1號","121.851806666667","25.0745816666667","6502500","雙溪區"
"227002","400-TW","2019/11/02 16:59:39","新北市雙溪區上林里內平林90號","121.827733333333","25.02757","6502500","雙溪區"
"251009","008-UM","2019/11/02 16:59:44","新北市淡水區中正路二段31號","121.419466666667","25.1816366666667","6501000","淡水區"
"251004","009-UM","2019/11/02 16:59:35","新北市淡水區中正路28號","121.444198333333","25.1691","6501000","淡水區"
"251005","010-UM","2019/11/02 16:59:30","新北市淡水區中正路235號","121.43509","25.17357","6501000","淡水區"
"251015","KEA-2871","2019/11/02 16:59:48","新北市淡水區忠愛街5-2號","121.460663333333","25.1716183333333","6501000","淡水區"
"251016","180-VK","2019/11/02 16:59:39","新北市淡水區瓦坑6-1號","121.477658333333","25.1811166666667","6501000","淡水區"
"251008","181-VK","2019/11/02 16:59:48","新北市淡水區樹梅坑9號","121.472781666667","25.142715","6501000","淡水區"
"251013","182-VK","2019/11/02 16:59:43","新北市淡水區泉洲厝32號","121.489271666667","25.1925633333333","6501000","淡水區"
"251012","441-VK","2019/11/02 16:59:39","新北市淡水區中正路二段31號","121.419465","25.1815983333333","6501000","淡水區"
"251007","442-VK","2019/11/02 16:59:39","新北市淡水區重建街87號","121.439785","25.172505","6501000","淡水區"
"251006","561-UM","2019/11/02 16:59:39","新北市淡水區中正路354號","121.434425","25.17401","6501000","淡水區"
"251014","577-R6","2019/11/02 16:59:34","新北市淡水區淡金路四段476號","121.452441666667","25.2239133333333","6501000","淡水區"
"251011","650-BX","2019/11/02 16:59:43","新北市淡水區中山路54號","121.444015","25.1704283333333","6501000","淡水區"
"252002","178-VK","2019/11/02 16:59:33","新北市三芝區忠孝街173號","121.505433333333","25.2613666666667","6502100","三芝區"
"247012","KED-0683","2019/11/02 16:59:33","新北市蘆洲區信義路298號","121.477601666667","25.0875366666667","6501400","蘆洲區"
"252001","KED-0821","2019/11/02 16:59:51","新北市三芝區淡金路二段38-1號","121.503075","25.2601516666667","6502100","三芝區"
"242042","AAC-296","2019/11/02 16:59:46","新北市新莊區新泰路357巷3弄55號","121.442163333333","25.039795","6500500","新莊區"
"242004","751-BX","2019/11/02 16:59:30","新北市新莊區新泰路255巷83號","121.442335","25.0388233333333","6500500","新莊區"
"242053","497-BY","2019/11/02 16:59:34","新北市新莊區新泰路357巷3弄57號","121.442268333333","25.03963","6500500","新莊區"
"242007","440-UM","2019/11/02 16:59:41","新北市新莊區新泰路255巷83號","121.442326666667","25.0388783333333","6500500","新莊區"
"242051","400-BY","2019/11/02 16:59:37","新北市新莊區新泰路357巷3弄51號","121.44216","25.0399333333333","6500500","新莊區"
"242025","362-BY","2019/11/02 16:59:35","新北市新莊區三和路18-25號","121.44188","25.0389766666667","6500500","新莊區"
"242023","353-BY","2019/11/02 16:59:35","新北市新莊區新泰路357巷3弄57號","121.441935","25.0391533333333","6500500","新莊區"
"242031","175-VK","2019/11/02 16:59:47","新北市新莊區三和路12-21號","121.442003333333","25.0386283333333","6500500","新莊區"
"242019","346-TH","2019/11/02 16:59:46","新北市新莊區三和路12-21號","121.442035","25.0382","6500500","新莊區"
"238018","KEA-2217","2019/11/02 16:59:41","新北市樹林區育德街78-1號","121.388058333333","24.9680816666667","6500700","樹林區"
"238017","283-BY","2019/11/02 16:59:41","新北市樹林區八德街828-2號","121.394053333333","24.9686816666667","6500700","樹林區"
"238014","282-BY","2019/11/02 16:59:36","新北市樹林區八德街1022號","121.391086666667","24.9684483333333","6500700","樹林區"
"238020","268-VK","2019/11/02 16:59:47","新北市樹林區八德街648號","121.396508333333","24.9691183333333","6500700","樹林區"
"239007","AAC-297","2019/11/02 16:59:37","新北市鶯歌區二甲路12-2號","121.34561","24.9350983333333","6500800","鶯歌區"
"239006","891-R6","2019/11/02 16:59:37","新北市鶯歌區二甲路12-2號","121.345435","24.9349966666667","6500800","鶯歌區"
"239008","527-UM","2019/11/02 16:59:46","新北市鶯歌區二甲路13-16號","121.34539","24.9350966666667","6500800","鶯歌區"
"239001","417-VK","2019/11/02 16:59:43","新北市鶯歌區環河路175號","121.346325","24.9358233333333","6500800","鶯歌區"
"233001","KEA-2870","2019/11/02 16:59:38","新北市烏來區西羅岸路22號","121.549273333333","24.8672716666667","6502900","烏來區"
"242046","281-VK","2019/11/02 16:59:43","新北市新莊區三和路12-21號","121.442413333333","25.03838","6500500","新莊區"
"242011","280-VK","2019/11/02 16:59:37","新北市新莊區三和路12-21號","121.44194","25.0382366666667","6500500","新莊區"
