"lineid","car","time","location","longitude","latitude","cityid","cityname"
"249001","173-UM","2019/11/02 17:29:35","新北市八里區大崁腳48號","121.426568333333","25.159445","6502300","八里區"
"249004","303-UY","2019/11/02 17:29:48","新北市八里區民治街61號","121.414243333333","25.1572366666667","6502300","八里區"
"249002","305-UY","2019/11/02 17:29:50","新北市八里區龍米路二段65巷15弄12號","121.447451666667","25.14011","6502300","八里區"
"249003","593-UM","2019/11/02 17:29:43","新北市八里區中山路二段315號","121.400563333333","25.1477266666667","6502300","八里區"
"249005","759-BX","2019/11/02 17:29:49","新北市八里區荖阡坑路73號","121.40873","25.1254483333333","6502300","八里區"
"232011","375-UM","2019/11/02 17:29:38","新北市坪林區鶯子瀨12-1號","121.714976666667","24.9119583333333","6502000","坪林區"
"244007","080-UY","2019/11/02 17:29:34","新北市林口區文化一路二段379號","121.38693","25.0878066666667","6501700","林口區"
"244019","402-UM","2019/11/02 17:29:52","新北市林口區文化一路一段111號","121.37303","25.0710983333333","6501700","林口區"
"244013","KEA-2802","2019/11/02 17:29:36","新北市林口區中山路299號","121.384145","25.0802416666667","6501700","林口區"
"244023","483-VK","2019/11/02 17:29:34","新北市林口區東明一街15巷8號","121.392856666667","25.07232","6501700","林口區"
"244017","485-VK","2019/11/02 17:29:47","新北市林口區文化一路一段55號","121.37127","25.069885","6501700","林口區"
"244009","656-BX","2019/11/02 17:29:26","新北市林口區中北三街350號","121.38331","25.0844516666667","6501700","林口區"
"244011","701-TV","2019/11/02 17:29:46","新北市林口區佳林路160號","121.383993333333","25.076775","6501700","林口區"
"244025","837-TS","2019/11/02 17:29:46","新北市林口區文化三路一段386號","121.365596666667","25.0728933333333","6501700","林口區"
"244021","838-TS","2019/11/02 17:29:18","新北市林口區東林街18號","121.396033333333","25.0790516666667","6501700","林口區"
"231046","719-UM","2019/11/02 17:13:29","新北市新店區直潭六街64號","121.53222","24.9400216666667","6500600","新店區"
"241011","013-R5","2019/11/02 17:29:46","新北市三重區河邊北街122-1號","121.50361","25.0713866666667","6500200","三重區"
"241023","060-VK","2019/11/02 17:29:38","新北市三重區忠孝路三段50巷41弄12號","121.48235","25.0643783333333","6500200","三重區"
"241015","062-VK","2019/11/02 17:29:37","新北市三重區開元街30號","121.503623333333","25.0658266666667","6500200","三重區"
"241017","063-VK","2019/11/02 17:29:37","新北市三重區重新路三段45-2號","121.493093333333","25.0616983333333","6500200","三重區"
"241024","065-VK","2019/11/02 17:29:49","新北市三重區國道路一段58巷20號","121.48121","25.0720183333333","6500200","三重區"
"241007","066-VK","2019/11/02 17:29:36","新北市三重區溪尾街142號","121.489001666667","25.079715","6500200","三重區"
"241016","266-UM","2019/11/02 17:29:50","新北市三重區信義西街98號","121.496375","25.0643983333333","6500200","三重區"
"241032","269-UM","2019/11/02 17:29:42","新北市三重區名源街61巷3號","121.481905","25.0594166666667","6500200","三重區"
"241013","270-UM","2019/11/02 17:29:43","新北市三重區仁愛街125巷30號","121.497691666667","25.07609","6500200","三重區"
"241030","KED-0822","2019/11/02 17:29:29","新北市三重區重新路5段221巷6弄11-1號","121.479401666667","25.0513066666667","6500200","三重區"
"241014","543-UM","2019/11/02 17:29:34","新北市三重區安和路17號","121.501383333333","25.06848","6500200","三重區"
"241019","KEA-2593","2019/11/02 17:29:38","新北市三重區自強路二段48-1號","121.48898","25.0696816666667","6500200","三重區"
"241005","AAD-863","2019/11/02 17:29:34","新北市蘆洲區中原路90號","121.457356666667","25.0815566666667","6500200","三重區"
"241012","743-BX","2019/11/02 17:29:51","新北市三重區仁興街24巷1號","121.499283333333","25.0752916666667","6500200","三重區"
"241033","AAC-255","2019/11/02 17:29:48","新北市三重區興德路133號","121.470071666667","25.0528983333333","6500200","三重區"
"247016","KEA-2869","2019/11/02 17:29:46","新北市蘆洲區光華路22巷40號","121.468335","25.0847116666667","6501400","蘆洲區"
"247010","KED-0682","2019/11/02 17:29:44","新北市蘆洲區信義路159號","121.479795","25.0817566666667","6501400","蘆洲區"
"247020","546-UM","2019/11/02 17:29:49","新北市蘆洲區水湳街281號","121.469433333333","25.09294","6501400","蘆洲區"
"247006","500-BY","2019/11/02 17:29:31","新北市蘆洲區長安街22巷31弄20號","121.464148333333","25.0805366666667","6501400","蘆洲區"
"247004","341-TH","2019/11/02 17:29:34","新北市蘆洲區長安街233巷1號","121.459306666667","25.082715","6501400","蘆洲區"
"247024","057-VK","2019/11/02 17:29:32","新北市蘆洲區長榮路478號","121.46029","25.089355","6501400","蘆洲區"
"247014","056-VK","2019/11/02 17:29:39","新北市蘆洲區三民路33號","121.475445","25.0830766666667","6501400","蘆洲區"
"247022","007-UY","2019/11/02 17:29:33","新北市蘆洲區三民路289號","121.466803333333","25.09038","6501400","蘆洲區"
"247008","002-UY","2019/11/02 17:29:39","新北市蘆洲區民生街40號","121.473976666667","25.0786983333333","6501400","蘆洲區"
"247002","001-UY","2019/11/02 17:29:36","新北市蘆洲區永樂街38巷69號","121.45855","25.0904983333333","6501400","蘆洲區"
"228003","097-TW","2019/11/02 17:29:36","新北市貢寮區仁理村尖山腳街20號","121.924685","25.0472066666667","6502600","貢寮區"
"228001","212-TW","2019/11/02 17:29:35","新北市貢寮區仁理村仁愛路60號","121.925591666667","25.0533266666667","6502600","貢寮區"
"228002","663-BX","2019/11/02 17:29:37","新北市貢寮區福隆里興隆街36號","121.941306666667","25.017165","6502600","貢寮區"
"224010","AGQ-8101","2019/11/02 17:29:47","新北市瑞芳區逢甲路69號","121.807726666667","25.1092683333333","6501200","瑞芳區"
"224006","676-BX","2019/11/02 17:29:35","新北市瑞芳區傑魚坑路17號","121.794083333333","25.1105183333333","6501200","瑞芳區"
"224009","275-VK","2019/11/02 17:29:44","新北市瑞芳區汽車路13-1號","121.845686666667","25.1107816666667","6501200","瑞芳區"
"224008","273-VK","2019/11/02 17:29:32","新北市瑞芳區九芎橋路8號","121.833216666667","25.0894966666667","6501200","瑞芳區"
"224005","271-BY","2019/11/02 17:29:36","新北市瑞芳區海濱路8-6號","121.831228333333","25.1261083333333","6501200","瑞芳區"
"227001","642-TC","2019/11/02 17:22:41","新北市雙溪區三貂里政光路3-1號","121.850833333333","25.06346","6502500","雙溪區"
"227002","400-TW","2019/11/02 17:21:56","新北市雙溪區共和里東榮街52號","121.866293333333","25.03368","6502500","雙溪區"
"251009","008-UM","2019/11/02 17:29:44","新北市淡水區建設街1巷1號","121.438901666667","25.1730583333333","6501000","淡水區"
"251004","009-UM","2019/11/02 17:14:48","新北市淡水區中正東路二段88巷15號","121.459046666667","25.15055","6501000","淡水區"
"251005","010-UM","2019/11/02 17:29:50","新北市淡水區鄧公路31巷1號","121.451261666667","25.1709516666667","6501000","淡水區"
"251015","KEA-2871","2019/11/02 17:29:48","新北市淡水區三空泉16-10號","121.471391666667","25.1649833333333","6501000","淡水區"
"251016","180-VK","2019/11/02 17:29:39","新北市淡水區大竹圍10號","121.46462","25.1926766666667","6501000","淡水區"
"251008","181-VK","2019/11/02 17:29:48","新北市淡水區大同路102號","121.462123333333","25.1396033333333","6501000","淡水區"
"251013","182-VK","2019/11/02 17:29:43","新北市淡水區大竹圍5號","121.46658","25.1952116666667","6501000","淡水區"
"251010","413-VK","2019/11/02 17:29:48","新北市淡水區中正路二段211號","121.42617","25.18914","6501000","淡水區"
"251012","441-VK","2019/11/02 17:29:39","新北市淡水區北新路118號","121.447955","25.178335","6501000","淡水區"
"251007","442-VK","2019/11/02 17:29:39","新北市淡水區民生路47-4號","121.462005","25.1379683333333","6501000","淡水區"
"251006","561-UM","2019/11/02 17:29:39","新北市淡水區大仁街13號","121.442363333333","25.174995","6501000","淡水區"
"251014","577-R6","2019/11/02 17:29:34","新北市淡水區公埔子20-6號","121.469436666667","25.22644","6501000","淡水區"
"251011","650-BX","2019/11/02 17:29:43","新北市淡水區三空泉8-1號","121.475895","25.1612016666667","6501000","淡水區"
"251002","672-BX","2019/11/02 17:29:32","新北市淡水區中正路一段102號","121.423985","25.1778416666667","6501000","淡水區"
"251003","766-UM","2019/11/02 17:29:37","新北市淡水區中山路159-1號","121.440761666667","25.1728933333333","6501000","淡水區"
"207003","681-TV","2019/11/02 17:29:19","新北市萬里區龜吼里美崙路91號","121.685576666667","25.1849933333333","6502800","萬里區"
"207004","291-VK","2019/11/02 17:29:36","新北市萬里區萬里里成功新村73號","121.688943333333","25.17486","6502800","萬里區"
"252002","178-VK","2019/11/02 17:29:33","新北市三芝區忠孝街1-14號","121.505496666667","25.2539316666667","6502100","三芝區"
"252001","KED-0821","2019/11/02 17:29:31","新北市三芝區長安街119號","121.498001666667","25.2596566666667","6502100","三芝區"
"242042","AAC-296","2019/11/02 17:29:46","新北市新莊區新樹路113巷17號","121.439056666667","25.0264033333333","6500500","新莊區"
"242061","986-R7","2019/11/02 17:29:43","新北市新莊區瓊林路59-38號","121.441103333333","25.0234633333333","6500500","新莊區"
"242004","751-BX","2019/11/02 17:29:50","新北市新莊區中港路284號","121.45296","25.0441283333333","6500500","新莊區"
"242027","705-TV","2019/11/02 17:29:34","新北市新莊區思源路16號","121.460251666667","25.0399016666667","6500500","新莊區"
"242029","615-BX","2019/11/02 17:29:37","新北市新莊區復興路二段169號","121.458576666667","25.0445016666667","6500500","新莊區"
"242058","612-BX","2019/11/02 17:29:41","新北市新莊區中正路400號","121.441975","25.0341816666667","6500500","新莊區"
"242048","566-BX","2019/11/02 17:29:46","新北市新莊區龍安路256號","121.421278333333","25.0195966666667","6500500","新莊區"
"242053","497-BY","2019/11/02 17:29:34","新北市新莊區瓊林南路305巷23號","121.43537","25.0050316666667","6500500","新莊區"
"242002","441-UM","2019/11/02 17:29:38","新北市新莊區新莊路211號","121.455275","25.035445","6500500","新莊區"
"242007","440-UM","2019/11/02 17:29:40","新北市新莊區中華路二段36-1號","121.453695","25.0452533333333","6500500","新莊區"
"242044","415-TV","2019/11/02 17:29:37","新北市新莊區富國路101-1號","121.421325","25.0255366666667","6500500","新莊區"
"242013","413-TV","2019/11/02 17:29:38","新北市新莊區中誠街18號","121.45191","25.04823","6500500","新莊區"
"242051","400-BY","2019/11/02 17:29:46","新北市新莊區西盛街257巷35號","121.429401666667","25.0159183333333","6500500","新莊區"
"242025","362-BY","2019/11/02 17:29:35","新北市新莊區中港路281號","121.45321","25.0438","6500500","新莊區"
"242023","353-BY","2019/11/02 17:29:35","新北市新莊區中華路一段112號","121.452385","25.0404383333333","6500500","新莊區"
"242015","132-UY","2019/11/02 17:29:36","新北市新莊區新泰路152號","121.447718333333","25.037365","6500500","新莊區"
"242039","135-UY","2019/11/02 17:29:41","新北市新莊區民安東路37號","121.428815","25.020945","6500500","新莊區"
"242056","172-VK","2019/11/02 17:29:46","新北市新莊區新泰路49號","121.449511666667","25.03374","6500500","新莊區"
"242017","173-VK","2019/11/02 17:29:45","新北市新莊區中華路一段103號","121.452685","25.0439183333333","6500500","新莊區"
"242031","175-VK","2019/11/02 17:29:47","新北市新莊區新泰路413巷3號","121.443268333333","25.044415","6500500","新莊區"
"242021","KED-0687","2019/11/02 17:29:47","新北市新莊區中港路133號","121.455223333333","25.04028","6500500","新莊區"
"242019","346-TH","2019/11/02 17:29:46","新北市新莊區中港路73號","121.455405","25.0387983333333","6500500","新莊區"
"242036","348-TH","2019/11/02 17:29:39","新北市新莊區建國二路5-3號","121.434846666667","25.023685","6500500","新莊區"
"242009","349-TH","2019/11/02 17:29:50","新北市新莊區中原路151號","121.453891666667","25.0543233333333","6500500","新莊區"
"242034","350-TH","2019/11/02 17:29:41","新北市新莊區新莊路378號","121.44917","25.0334716666667","6500500","新莊區"
"238015","755-BX","2019/11/02 17:29:52","新北市樹林區復興路3號","121.422745","24.994775","6500700","樹林區"
"238019","599-UM","2019/11/02 17:29:50","新北市樹林區國凱街47巷10號","121.421206666667","24.9796266666667","6500700","樹林區"
"238024","5061-A6","2019/11/02 17:29:29","新北市樹林區博愛街205號","121.424165","24.9880633333333","6500700","樹林區"
"238018","KEA-2217","2019/11/02 17:29:46","新北市樹林區鎮前街143-2號","121.423886666667","24.9889933333333","6500700","樹林區"
"238022","KEA-2213","2019/11/02 17:29:44","新北市樹林區仁愛街28號","121.422621666667","24.9822633333333","6500700","樹林區"
"238021","KEA-2539","2019/11/02 17:29:35","新北市樹林區佳園路二段47號","121.391986666667","24.962435","6500700","樹林區"
"238025","303-VK","2019/11/02 17:29:40","新北市樹林區保安街一段328號","121.418313333333","24.9977233333333","6500700","樹林區"
"238017","283-BY","2019/11/02 17:29:41","新北市樹林區中正路244號","121.417941666667","25.00712","6500700","樹林區"
"238014","282-BY","2019/11/02 17:29:36","新北市樹林區保安街一段294巷29號","121.419881666667","24.99821","6500700","樹林區"
"238020","268-VK","2019/11/02 17:29:47","新北市樹林區俊英街21-5號","121.428926666667","25.0023333333333","6500700","樹林區"
"238026","172-UY","2019/11/02 17:29:37","新北市樹林區中山路二段235號","121.402293333333","24.9760483333333","6500700","樹林區"
"238016","169-UY","2019/11/02 17:29:43","新北市樹林區中山路一段2巷8號","121.423963333333","24.9941183333333","6500700","樹林區"
"239007","AAC-297","2019/11/02 17:29:37","新北市鶯歌區中山路8號","121.352943333333","24.957095","6500800","鶯歌區"
"239006","891-R6","2019/11/02 17:29:37","新北市鶯歌區鶯桃路472巷21號","121.33309","24.9659466666667","6500800","鶯歌區"
"239008","527-UM","2019/11/02 17:29:46","新北市鶯歌區大湖路642號","121.334153333333","24.9752816666667","6500800","鶯歌區"
"239005","526-UM","2019/11/02 17:29:34","新北市鶯歌區福隆一街44號","121.325036666667","24.9714033333333","6500800","鶯歌區"
"239001","417-VK","2019/11/02 17:29:44","新北市鶯歌區尖山路300-3號","121.340276666667","24.94397","6500800","鶯歌區"
"239003","360-BY","2019/11/02 17:29:33","新北市鶯歌區德昌街50號","121.33309","24.9598283333333","6500800","鶯歌區"
"239002","359-BY","2019/11/02 17:29:48","新北市鶯歌區建國路258號","121.34763","24.95345","6500800","鶯歌區"
"239004","193-VK","2019/11/02 17:29:37","新北市鶯歌區文化路322-1號","121.3524","24.94626","6500800","鶯歌區"
"221008","489-VK","2019/11/02 17:29:37","新北市汐止區康寧街901號","121.651451666667","25.0750566666667","6501100","汐止區"
"233001","KEA-2870","2019/11/02 17:29:38","新北市烏來區瀑布路33號","121.551005","24.8483066666667","6502900","烏來區"
"242046","281-VK","2019/11/02 17:29:43","新北市新莊區新樹路49號","121.44019","25.0320016666667","6500500","新莊區"
"242011","280-VK","2019/11/02 17:29:37","新北市新莊區中港路392號","121.452271666667","25.0495116666667","6500500","新莊區"
