"lineid","car","time","location","longitude","latitude","cityid","cityname"
"234026","9371-KE","2019/11/02 17:59:34","新北市永和區水源街2巷15號","121.512051666667","25.0056516666667","6500400","永和區"
"249001","173-UM","2019/11/02 17:59:35","新北市八里區龍米路二段30號","121.44863","25.140035","6502300","八里區"
"249004","303-UY","2019/11/02 17:59:48","新北市八里區龍米路三段6號","121.429251666667","25.1589533333333","6502300","八里區"
"249002","305-UY","2019/11/02 17:59:50","新北市八里區龍形五街7號","121.450526666667","25.1336233333333","6502300","八里區"
"249003","593-UM","2019/11/02 17:59:43","新北市八里區中華路二段165巷19弄22號","121.410376666667","25.1516766666667","6502300","八里區"
"249005","759-BX","2019/11/02 17:59:28","新北市八里區荖阡坑路20-9號","121.398506666667","25.1369616666667","6502300","八里區"
"248008","KED-0815","2019/11/02 17:59:51","新北市五股區中興路二段150號","121.458601666667","25.0785583333333","6501500","五股區"
"248020","KED-0813","2019/11/02 17:59:46","新北市五股區中興路二段57-6號","121.460468333333","25.0753083333333","6501500","五股區"
"248004","677-BX","2019/11/02 17:59:36","新北市五股區中興路二段103巷14號","121.458425","25.076495","6501500","五股區"
"232011","375-UM","2019/11/02 17:59:38","新北市坪林區水柳腳38號","121.709795","24.9351866666667","6502000","坪林區"
"244007","080-UY","2019/11/02 17:59:44","新北市林口區林口路124巷2號","121.38875","25.0816833333333","6501700","林口區"
"244019","402-UM","2019/11/02 17:59:32","新北市林口區文化一路一段100巷17號","121.374283333333","25.0703683333333","6501700","林口區"
"244013","KEA-2802","2019/11/02 17:59:35","新北市林口區中山路130號","121.39216","25.0786633333333","6501700","林口區"
"244023","483-VK","2019/11/02 17:59:34","新北市林口區東湖路75巷17號","121.385056666667","25.07283","6501700","林口區"
"244017","485-VK","2019/11/02 17:59:47","新北市林口區忠孝路494號","121.370538333333","25.0703283333333","6501700","林口區"
"244009","656-BX","2019/11/02 17:59:46","新北市林口區佳林路22號","121.386573333333","25.0824566666667","6501700","林口區"
"244011","701-TV","2019/11/02 17:59:46","新北市林口區中正路79號","121.394806666667","25.0773066666667","6501700","林口區"
"244025","837-TS","2019/11/02 17:59:46","新北市林口區八德路500巷43號","121.356761666667","25.067925","6501700","林口區"
"244021","838-TS","2019/11/02 17:59:38","新北市林口區仁愛路一段2-1號","121.397318333333","25.0680866666667","6501700","林口區"
"222003","436-BY","2019/11/02 17:59:26","新北市深坑區炮子崙24號","121.605171666667","24.9877316666667","6501800","深坑區"
"222002","659-BX","2019/11/02 17:59:44","新北市深坑區深坑街35號","121.615973333333","25.001835","6501800","深坑區"
"231025","4715-K9","2019/11/02 17:59:37","新北市新店區安華路28-1號","121.519358333333","24.9608066666667","6500600","新店區"
"241024","065-VK","2019/11/02 17:59:49","新北市三重區中正北路193巷35弄19號","121.476966666667","25.0709183333333","6500200","三重區"
"241033","AAC-255","2019/11/02 17:59:47","新北市三重區光復路一段54巷1號","121.472046666667","25.0486216666667","6500200","三重區"
"235064","005-UY","2019/11/02 17:59:48","新北市中和區中正路275號","121.495541666667","24.9937183333333","6500300","中和區"
"235065","098-UM","2019/11/02 17:59:39","新北市中和區中山路二段472號","121.488118333333","25.004755","6500300","中和區"
"235058","151-BY","2019/11/02 17:59:50","新北市中和區圓通路367巷33弄22號","121.494125","24.9847966666667","6500300","中和區"
"235038","185-VK","2019/11/02 17:59:45","新北市中和區中正路165號","121.498268333333","24.9936716666667","6500300","中和區"
"235044","293-VK","2019/11/02 17:59:52","新北市中和區員山路36巷16-3號","121.484948333333","24.9912916666667","6500300","中和區"
"235042","KEA-2878","2019/11/02 17:59:31","新北市中和區南山路208巷1弄11號","121.506466666667","24.9898266666667","6500300","中和區"
"247016","KEA-2869","2019/11/02 17:59:46","新北市蘆洲區中正路185巷90號","121.465481666667","25.08394","6501400","蘆洲區"
"235069","4980-A6","2019/11/02 17:59:48","新北市中和區安邦街10號","121.495581666667","24.9980066666667","6500300","中和區"
"235070","558-UM","2019/11/02 17:59:50","新北市中和區中正路395號","121.489826666667","24.9935466666667","6500300","中和區"
"235054","640-BX","2019/11/02 17:59:33","新北市中和區莒光路260號","121.467626666667","24.9938766666667","6500300","中和區"
"235062","800-TS","2019/11/02 17:59:36","新北市中和區中山路二段437號","121.48484","25.0048783333333","6500300","中和區"
"235041","802-TS","2019/11/02 17:59:50","新北市中和區員山路36巷16-2號","121.485366666667","24.9915716666667","6500300","中和區"
"235052","805-TS","2019/11/02 17:59:49","新北市中和區中正路395號","121.489581666667","24.9935483333333","6500300","中和區"
"235051","157-BY","2019/11/02 17:59:46","新北市中和區中正路637巷60弄61號","121.485525","24.99301","6500300","中和區"
"235037","AAC-213","2019/11/02 17:59:46","新北市中和區景平路151號","121.51375","24.992055","6500300","中和區"
"235059","AAC-215","2019/11/02 17:59:41","新北市中和區員山路36巷16-3號","121.484963333333","24.9913583333333","6500300","中和區"
"247004","341-TH","2019/11/02 17:59:34","新北市蘆洲區環堤大道86號","121.455383333333","25.08479","6501400","蘆洲區"
"247014","056-VK","2019/11/02 17:59:39","新北市蘆洲區忠孝路45號","121.471361666667","25.086185","6501400","蘆洲區"
"247008","002-UY","2019/11/02 17:59:39","新北市蘆洲區中山二路309號","121.469085","25.0770383333333","6501400","蘆洲區"
"247002","001-UY","2019/11/02 17:59:36","新北市蘆洲區永平街32巷57弄10號","121.459458333333","25.0930116666667","6501400","蘆洲區"
"228003","097-TW","2019/11/02 17:59:36","新北市貢寮區真理里美艷山街6-2號","121.928895","25.060735","6502600","貢寮區"
"228001","212-TW","2019/11/02 17:59:50","新北市貢寮區真理里新港街26巷55弄1號","121.927698333333","25.0531266666667","6502600","貢寮區"
"228002","663-BX","2019/11/02 17:59:37","新北市貢寮區福連里香蘭街3-3號","121.972775","25.0244866666667","6502600","貢寮區"
"224006","676-BX","2019/11/02 17:59:35","新北市瑞芳區中山路377號","121.795926666667","25.1101833333333","6501200","瑞芳區"
"224007","285-BY","2019/11/02 17:59:40","新北市瑞芳區大寮路84號","121.780296666667","25.1011733333333","6501200","瑞芳區"
"224009","275-VK","2019/11/02 17:59:44","新北市瑞芳區山尖路86號","121.853925","25.1153233333333","6501200","瑞芳區"
"224008","273-VK","2019/11/02 17:59:32","新北市瑞芳區明燈路一段45巷100號","121.821213333333","25.1040416666667","6501200","瑞芳區"
"224005","271-BY","2019/11/02 17:59:36","新北市瑞芳區深澳路197-2號","121.819643333333","25.1338433333333","6501200","瑞芳區"
"253005","032-BX","2019/11/02 17:59:47","新北市石門區中山路62-11號","121.567561666667","25.2896916666667","6502200","石門區"
"253006","295-VK","2019/11/02 17:59:34","新北市石門區大丘田45-1號","121.549768333333","25.2752716666667","6502200","石門區"
"222001","KEA-2212","2019/11/02 17:59:42","新北市深坑區北深路二段187號","121.6122","25.001345","6501800","深坑區"
"208002","KEA-2872","2019/11/02 17:59:47","新北市金山區三界壇路32號","121.625325","25.2285066666667","6502700","金山區"
"208003","665-BX","2019/11/02 17:59:46","新北市金山區磺港里磺港路192-1號","121.646103333333","25.227565","6502700","金山區"
"251009","008-UM","2019/11/02 17:59:44","新北市淡水區中山路162號","121.441063333333","25.173615","6501000","淡水區"
"251004","009-UM","2019/11/02 17:59:36","新北市淡水區民權路187巷17號","121.460328333333","25.1334683333333","6501000","淡水區"
"251005","010-UM","2019/11/02 17:59:50","新北市淡水區英專路135號","121.446476666667","25.1728166666667","6501000","淡水區"
"251015","KEA-2871","2019/11/02 17:59:30","新北市淡水區興福寮33號","121.488966666667","25.16194","6501000","淡水區"
"251016","180-VK","2019/11/02 17:59:43","新北市淡水區埤島30號","121.448461666667","25.19777","6501000","淡水區"
"251008","181-VK","2019/11/02 17:59:48","新北市淡水區八勢一街77號","121.461445","25.154985","6501000","淡水區"
"251013","182-VK","2019/11/02 17:59:43","新北市淡水區泉洲厝31號","121.479538333333","25.1910183333333","6501000","淡水區"
"251010","413-VK","2019/11/02 17:59:48","新北市淡水區中正路一段130-7號","121.421988333333","25.1793","6501000","淡水區"
"251012","441-VK","2019/11/02 17:59:39","新北市淡水區北新路三段38巷7號","121.484451666667","25.1869583333333","6501000","淡水區"
"251001","559-UM","2019/11/02 17:59:32","新北市淡水區民權路94巷1號","121.46311","25.1248366666667","6501000","淡水區"
"251006","561-UM","2019/11/02 17:59:39","新北市淡水區新生街35號","121.44005","25.1748166666667","6501000","淡水區"
"251014","577-R6","2019/11/02 17:59:34","新北市淡水區公埔子16-6號","121.481048333333","25.2245766666667","6501000","淡水區"
"251011","650-BX","2019/11/02 17:59:43","新北市淡水區吳(仔)厝22號","121.479358333333","25.1485916666667","6501000","淡水區"
"251002","672-BX","2019/11/02 17:59:32","新北市淡水區中山路50號","121.444008333333","25.170275","6501000","淡水區"
"251003","766-UM","2019/11/02 17:59:37","新北市淡水區大忠街47號","121.44471","25.17638","6501000","淡水區"
"207003","681-TV","2019/11/02 17:59:39","新北市萬里區野柳里東澳路66號","121.69266","25.2009433333333","6502800","萬里區"
"207004","291-VK","2019/11/02 17:59:36","新北市萬里區萬里里瑪鋉路5號","121.68599","25.1748816666667","6502800","萬里區"
"252002","178-VK","2019/11/02 17:59:33","新北市三芝區中山路二段39號","121.502961666667","25.2551166666667","6502100","三芝區"
"208001","170-UY","2019/11/02 17:59:43","新北市金山區磺港里磺港路160號","121.644785","25.2257283333333","6502700","金山區"
"237007","153-BY","2019/11/02 17:59:48","新北市三峽區中園街149號","121.36731","24.9228233333333","6500900","三峽區"
"237009","210-TH","2019/11/02 17:59:44","新北市三峽區中山路106巷3號","121.366078333333","24.93599","6500900","三峽區"
"237013","252-BX","2019/11/02 17:59:43","新北市三峽區介壽路一段135號","121.376221666667","24.9317166666667","6500900","三峽區"
"237012","275-BY","2019/11/02 17:59:47","新北市三峽區民生街19巷3-1號","121.376128333333","24.93615","6500900","三峽區"
"237008","302-VK","2019/11/02 17:59:50","新北市三峽區正義街153號","121.368183333333","24.9152566666667","6500900","三峽區"
"237014","433-BY","2019/11/02 17:59:46","新北市三峽區和平街36巷7弄7號","121.370845","24.9374433333333","6500900","三峽區"
"237006","5529-G3","2019/11/02 17:59:39","新北市三峽區介壽路二段138巷1弄88號","121.39788","24.9320766666667","6500900","三峽區"
"237011","KEA-2596","2019/11/02 17:59:33","新北市三峽區光明路67號","121.375673333333","24.9286116666667","6500900","三峽區"
"237015","649-BX","2019/11/02 17:59:48","新北市三峽區紫微路68-8號","121.413275","24.9161366666667","6500900","三峽區"
"237010","706-TV","2019/11/02 17:59:47","新北市三峽區仁愛街10號","121.368433333333","24.9335183333333","6500900","三峽區"
"237005","AKY-6261","2019/11/02 17:59:48","新北市三峽區復興路179號","121.369698333333","24.9386266666667","6500900","三峽區"
"236042","KED-0685","2019/11/02 17:59:41","新北市土城區城林路6巷80號","121.438441666667","24.979605","6501300","土城區"
"236079","166-UM","2019/11/02 17:59:36","新北市土城區永寧路32巷10弄25號","121.428818333333","24.9610666666667","6501300","土城區"
"236030","253-BX","2019/11/02 17:59:42","新北市土城區城林路6巷80號","121.438395","24.9797416666667","6501300","土城區"
"236026","269-VK","2019/11/02 17:59:48","新北市土城區承天路1號","121.435725","24.96647","6501300","土城區"
"236014","270-VK","2019/11/02 17:59:46","新北市土城區中華路二段2號","121.439341666667","24.9796066666667","6501300","土城區"
"236038","271-VK","2019/11/02 17:59:44","新北市土城區中華路一段301號","121.439968333333","24.9793566666667","6501300","土城區"
"236070","KEA-2877","2019/11/02 17:59:47","新北市土城區青雲路665號","121.465565","24.965055","6501300","土城區"
"252001","KED-0821","2019/11/02 17:59:31","新北市三芝區中興街二段2號","121.498306666667","25.2566633333333","6502100","三芝區"
"236021","401-BY","2019/11/02 17:59:30","新北市土城區城林路6巷80號","121.438565","24.97977","6501300","土城區"
"236063","752-BX","2019/11/02 17:58:09","新北市土城區中央路二段280號","121.440668333333","24.9740183333333","6501300","土城區"
"236059","912-UM","2019/11/02 17:59:44","新北市土城區中央路三段260號","121.427211666667","24.9640283333333","6501300","土城區"
"236049","913-UM","2019/11/02 17:59:48","新北市土城區城林路6巷80號","121.43857","24.9796966666667","6501300","土城區"
"236055","AAC-216","2019/11/02 17:59:39","新北市土城區城林路6巷80號","121.438535","24.979605","6501300","土城區"
"242042","AAC-296","2019/11/02 17:59:46","新北市新莊區丹鳳街36號","121.421605","25.02957","6500500","新莊區"
"242061","986-R7","2019/11/02 17:59:43","新北市新莊區新樹路525-3號","121.432761666667","25.010075","6500500","新莊區"
"242004","751-BX","2019/11/02 17:59:50","新北市新莊區思源路177巷38號","121.459291666667","25.0463916666667","6500500","新莊區"
"242027","705-TV","2019/11/02 17:59:34","新北市新莊區思源路375號","121.459726666667","25.0511233333333","6500500","新莊區"
"242029","615-BX","2019/11/02 17:59:39","新北市新莊區中平路87巷1號","121.44482","25.045615","6500500","新莊區"
"242058","612-BX","2019/11/02 17:59:41","新北市新莊區新北大道七段373號","121.4126","25.0265466666667","6500500","新莊區"
"242048","566-BX","2019/11/02 17:59:46","新北市新莊區萬安街146巷12號","121.419886666667","25.0216433333333","6500500","新莊區"
"242053","497-BY","2019/11/02 17:59:34","新北市新莊區光華街48號","121.42863","25.0117516666667","6500500","新莊區"
"242002","441-UM","2019/11/02 17:59:43","新北市新莊區大觀街42巷18號","121.454636666667","25.03634","6500500","新莊區"
"242007","440-UM","2019/11/02 17:59:40","新北市新莊區自信街81巷17弄2號","121.456036666667","25.04878","6500500","新莊區"
"242044","415-TV","2019/11/02 17:59:37","新北市新莊區雙鳳路73巷1號","121.415005","25.0276083333333","6500500","新莊區"
"242013","413-TV","2019/11/02 17:59:38","新北市新莊區中和街125巷1號","121.447146666667","25.0485933333333","6500500","新莊區"
"242051","400-BY","2019/11/02 17:59:37","新北市新莊區西盛街153巷4號","121.42848","25.0180566666667","6500500","新莊區"
"242025","362-BY","2019/11/02 17:59:34","新北市新莊區五工路86號","121.457271666667","25.06402","6500500","新莊區"
"242023","353-BY","2019/11/02 17:59:35","新北市新莊區福壽街4號","121.457735","25.0476083333333","6500500","新莊區"
"242015","132-UY","2019/11/02 17:59:36","新北市新莊區新泰路502巷41弄12號","121.443741666667","25.0467016666667","6500500","新莊區"
"242039","135-UY","2019/11/02 17:59:42","新北市新莊區民安西路88巷17號","121.425941666667","25.02001","6500500","新莊區"
"242056","172-VK","2019/11/02 17:59:46","新北市新莊區豐年街124巷18號","121.445546666667","25.0299233333333","6500500","新莊區"
"242017","173-VK","2019/11/02 17:59:49","新北市新莊區中港路339巷40號","121.450506666667","25.045105","6500500","新莊區"
"242031","175-VK","2019/11/02 17:59:47","新北市新莊區新泰路305巷15號","121.444736666667","25.0408816666667","6500500","新莊區"
"242021","KED-0687","2019/11/02 17:59:50","新北市新莊區中華路一段45巷2號","121.45188","25.0383983333333","6500500","新莊區"
"242019","346-TH","2019/11/02 17:59:46","新北市新莊區明中街49巷16號","121.456593333333","25.0390916666667","6500500","新莊區"
"242036","348-TH","2019/11/02 17:59:39","新北市新莊區建福路63號","121.42676","25.0271666666667","6500500","新莊區"
"242009","349-TH","2019/11/02 17:59:38","新北市新莊區中華路二段306號","121.452965","25.0540566666667","6500500","新莊區"
"242034","350-TH","2019/11/02 17:59:41","新北市新莊區福海街12號","121.44532","25.0336533333333","6500500","新莊區"
"238015","755-BX","2019/11/02 17:59:32","新北市樹林區大安路307巷1弄1號","121.418191666667","24.9921016666667","6500700","樹林區"
"238023","601-UM","2019/11/02 17:59:51","新北市樹林區龍興街51號","121.40327","25.0154183333333","6500700","樹林區"
"238019","599-UM","2019/11/02 17:59:30","新北市樹林區太平路176號","121.418436666667","24.9768216666667","6500700","樹林區"
"238018","KEA-2217","2019/11/02 17:59:41","新北市樹林區中正路7-1號","121.430246666667","24.997595","6500700","樹林區"
"238022","KEA-2213","2019/11/02 17:59:44","新北市樹林區太平路150巷34號","121.417573333333","24.9776","6500700","樹林區"
"238021","KEA-2539","2019/11/02 17:59:35","新北市樹林區柑園街一段343號","121.390745","24.95644","6500700","樹林區"
"238025","303-VK","2019/11/02 17:59:40","新北市樹林區三俊街43號","121.41262","25.015645","6500700","樹林區"
"238017","283-BY","2019/11/02 17:59:41","新北市樹林區三德街1號","121.41262","25.0128916666667","6500700","樹林區"
"238014","282-BY","2019/11/02 17:59:36","新北市樹林區千歲街61巷38號","121.425795","24.9987283333333","6500700","樹林區"
"238020","268-VK","2019/11/02 17:59:47","新北市樹林區三俊街199巷37號","121.420668333333","25.0183766666667","6500700","樹林區"
"238026","172-UY","2019/11/02 17:59:37","新北市樹林區中洲街30巷14號","121.397666666667","24.9716666666667","6500700","樹林區"
"238016","169-UY","2019/11/02 17:59:43","新北市樹林區啟智街149號","121.41677","24.9880333333333","6500700","樹林區"
"239007","AAC-297","2019/11/02 17:59:37","新北市鶯歌區永樂街34號","121.341971666667","24.9539433333333","6500800","鶯歌區"
"239006","891-R6","2019/11/02 17:59:37","新北市鶯歌區鶯桃路455巷6弄5號","121.331653333333","24.9644516666667","6500800","鶯歌區"
"239008","527-UM","2019/11/02 17:59:46","新北市鶯歌區欣欣街5號","121.336556666667","24.9782166666667","6500800","鶯歌區"
"239005","526-UM","2019/11/02 17:59:34","新北市鶯歌區鶯桃路668巷74-13號","121.330271666667","24.97117","6500800","鶯歌區"
"239001","417-VK","2019/11/02 17:59:44","新北市鶯歌區中正三路234-4號","121.330558333333","24.9370633333333","6500800","鶯歌區"
"239003","360-BY","2019/11/02 17:59:33","新北市鶯歌區永吉街25號","121.335913333333","24.9576266666667","6500800","鶯歌區"
"239002","359-BY","2019/11/02 17:59:48","新北市鶯歌區育才街36號","121.348011666667","24.9552116666667","6500800","鶯歌區"
"239004","193-VK","2019/11/02 17:59:36","新北市鶯歌區中正二路91號","121.34869","24.9495","6500800","鶯歌區"
"221008","489-VK","2019/11/02 17:59:37","新北市汐止區康寧街609號","121.63611","25.0709333333333","6501100","汐止區"
"221036","130-UY","2019/11/02 17:59:32","新北市汐止區橋東街28號","121.665906666667","25.0755783333333","6501100","汐止區"
"221015","131-UY","2019/11/02 17:59:45","新北市汐止區長江街190號","121.660168333333","25.07647","6501100","汐止區"
"221010","269-BY","2019/11/02 17:59:46","新北市汐止區汐萬路二段239號","121.646751666667","25.088055","6501100","汐止區"
"221023","279-VK","2019/11/02 17:59:42","新北市汐止區明峰街70-1號","121.632358333333","25.0712683333333","6501100","汐止區"
"221032","280-BY","2019/11/02 17:59:30","新北市汐止區民權街一段211巷5號","121.620003333333","25.0518533333333","6501100","汐止區"
"221029","298-VK","2019/11/02 17:59:36","新北市汐止區樟樹二路328號","121.641388333333","25.070275","6501100","汐止區"
"221031","353-TW","2019/11/02 17:59:47","新北市汐止區中興路96巷1-3號","121.635261666667","25.0625783333333","6501100","汐止區"
"221035","622-UM","2019/11/02 17:59:28","新北市汐止區汐萬路一段213號","121.652025","25.0723166666667","6501100","汐止區"
"221025","623-UM","2019/11/02 17:59:34","新北市汐止區仁愛路13號","121.659118333333","25.0639716666667","6501100","汐止區"
"221038","646-BX","2019/11/02 17:59:37","新北市汐止區新台五路一段151號","121.6536","25.0622233333333","6501100","汐止區"
"221033","647-BX","2019/11/02 17:59:38","新北市汐止區合順街37號","121.620698333333","25.043215","6501100","汐止區"
"221002","707-TV","2019/11/02 17:59:36","新北市汐止區工建路213號","121.635626666667","25.0616083333333","6501100","汐止區"
"221018","753-BX","2019/11/02 17:59:45","新北市汐止區忠孝東路339巷3號","121.664905","25.0700733333333","6501100","汐止區"
"233001","KEA-2870","2019/11/02 17:59:38","新北市烏來區西羅岸路22號","121.549415","24.8673083333333","6502900","烏來區"
"224002","257-TC","2019/11/02 17:59:34","新北市瑞芳區三爪子坑路32巷1號","121.810248333333","25.106075","6501200","瑞芳區"
"242046","281-VK","2019/11/02 17:59:43","新北市新莊區福營路167號","121.431898333333","25.0310583333333","6500500","新莊區"
"242011","280-VK","2019/11/02 17:59:37","新北市新莊區中港路中慶巷13號","121.45062","25.0537966666667","6500500","新莊區"
"235061","KEA-2875","2019/11/02 17:59:44","新北市中和區連城路569巷9弄22號","121.479933333333","24.9935033333333","6500300","中和區"
