"lineid","car","time","location","longitude","latitude","cityid","cityname"
"234081","298-R6","2019/11/02 20:13:49","新北市永和區永亨路105巷6號","121.523548333333","25.00508","6500400","永和區"
"234038","336-UY","2019/11/02 20:13:46","新北市永和區成功路一段47巷36號","121.528325","25.0039383333333","6500400","永和區"
"234064","337-UY","2019/11/02 20:13:35","新北市永和區得和路271號","121.521783333333","24.9998466666667","6500400","永和區"
"234086","338-UY","2019/11/02 20:13:47","新北市永和區中正路651號","121.515086666667","25.0100316666667","6500400","永和區"
"234070","552-UM","2019/11/02 20:13:49","新北市永和區永貞路8號","121.520718333333","25.0072883333333","6500400","永和區"
"234017","745-BX","2019/11/02 20:13:40","新北市永和區仁愛路8號","121.51505","25.01354","6500400","永和區"
"234030","746-BX","2019/11/02 20:13:51","新北市永和區民族街81巷28號","121.519003333333","24.9965066666667","6500400","永和區"
"234054","KEA-2590","2019/11/02 20:13:37","新北市永和區永和路二段336號","121.516276666667","25.0167166666667","6500400","永和區"
"234007","KED-0605","2019/11/02 20:13:41","新北市永和區環河西路二段229巷5號","121.501563333333","25.0098716666667","6500400","永和區"
"234013","KEA-2591","2019/11/02 20:13:50","新北市永和區中山路一段214號","121.508275","25.0084816666667","6500400","永和區"
"234061","AAD-866","2019/11/02 20:13:36","新北市永和區安樂路100巷33號","121.515271666667","24.99886","6500400","永和區"
"234042","862-TW","2019/11/02 20:13:46","新北市永和區雙和街13號","121.509556666667","25.001895","6500400","永和區"
"234050","863-TW","2019/11/02 20:13:41","新北市永和區環河西路二段37號","121.507376666667","25.0156383333333","6500400","永和區"
"249005","172-UM","2019/11/02 20:13:47","新北市八里區下罟子7號","121.385481666667","25.140415","6502300","八里區"
"249001","173-UM","2019/11/02 20:13:34","新北市八里區中華路二段346號","121.4028","25.1475166666667","6502300","八里區"
"249004","303-UY","2019/11/02 20:13:44","新北市八里區中山路一段398巷52號","121.411301666667","25.1589266666667","6502300","八里區"
"249002","305-UY","2019/11/02 20:13:49","新北市八里區龍米路一段38號","121.456946666667","25.11832","6502300","八里區"
"249003","593-UM","2019/11/02 20:13:34","新北市八里區中山路二段445號","121.396805","25.14555","6502300","八里區"
"248016","026-BX","2019/11/02 20:13:41","新北市五股區成泰路三段577巷150號","121.44782","25.1043566666667","6501500","五股區"
"248012","247-BX","2019/11/02 20:13:37","新北市五股區六合街92號","121.431596666667","25.090815","6501500","五股區"
"248010","272-BY","2019/11/02 20:13:50","新北市五股區成泰路一段15號","121.433775","25.066695","6501500","五股區"
"248002","678-BX","2019/11/02 20:13:39","新北市五股區成泰路三段257號","121.446725","25.0936866666667","6501500","五股區"
"234023","9380-KE","2019/11/02 20:13:31","新北市永和區復興街16巷6號","121.515213333333","25.0126266666667","6500400","永和區"
"234077","969-R7","2019/11/02 20:13:36","新北市永和區民享街20號","121.515475","24.9950433333333","6500400","永和區"
"234074","AAC-211","2019/11/02 20:13:42","新北市永和區竹林路191巷5號","121.521048333333","25.009555","6500400","永和區"
"234067","AAC-212","2019/11/02 20:13:42","新北市永和區保平路214巷9號","121.508898333333","25.0067083333333","6500400","永和區"
"234003","AAC-295","2019/11/02 20:13:47","新北市永和區自強街22號","121.515273333333","25.0080183333333","6500400","永和區"
"243009","267-VK","2019/11/02 20:13:50","新北市泰山區泰林路二段118號","121.434605","25.0593","6501600","泰山區"
"243012","AAD-798","2019/11/02 20:13:51","新北市泰山區楓江路86巷9號","121.437446666667","25.0626166666667","6501600","泰山區"
"243010","297-R6","2019/11/02 20:05:14","新北市泰山區中華街18巷2號","121.427356666667","25.0519883333333","6501600","泰山區"
"243014","KEA-2801","2019/11/02 20:13:48","新北市泰山區明志路一段24號","121.433596666667","25.0654483333333","6501600","泰山區"
"243016","421-VK","2019/11/02 20:13:45","新北市泰山區明志路三段219號","121.423918333333","25.0381616666667","6501600","泰山區"
"243013","646-TV","2019/11/02 20:13:35","新北市泰山區明志路三段74巷23號","121.423951666667","25.04168","6501600","泰山區"
"243015","680-BX","2019/11/02 20:13:42","新北市泰山區明志路一段456號","121.43066","25.05566","6501600","泰山區"
"222003","436-BY","2019/11/02 20:13:46","新北市深坑區埔新街99號","121.619191666667","25.0022766666667","6501800","深坑區"
"222002","659-BX","2019/11/02 20:13:44","新北市深坑區北深路三段158巷1號","121.60123","25.005","6501800","深坑區"
"231042","001-UM","2019/11/02 20:13:46","新北市新店區中興路二段100巷2號","121.547355","24.9712133333333","6500600","新店區"
"231061","002-UM","2019/11/02 20:13:40","新北市新店區安興路61號","121.516063333333","24.972695","6500600","新店區"
"231055","0291-UT","2019/11/02 20:13:47","新北市新店區中華路42巷31號","121.541111666667","24.969165","6500600","新店區"
"231058","0293-UT","2019/11/02 20:13:32","新北市新店區薏仁坑路自強巷1號","121.497768333333","24.9577933333333","6500600","新店區"
"231044","046-UY","2019/11/02 20:13:51","新北市新店區寶元路一段15巷11號","121.542015","24.9871833333333","6500600","新店區"
"231060","106-UY","2019/11/02 20:13:33","新北市新店區安康路三段454號","121.484348333333","24.951245","6500600","新店區"
"231051","107-UY","2019/11/02 20:13:36","新北市新店區中央路192號","121.530786666667","24.9747366666667","6500600","新店區"
"231049","108-UY","2019/11/02 20:13:33","新北市新店區北新路二段59巷9號","121.542528333333","24.9733016666667","6500600","新店區"
"231065","110-UY","2019/11/02 20:13:33","新北市新店區安祥路106巷36號","121.477336666667","24.9619733333333","6500600","新店區"
"231068","187-VK","2019/11/02 20:13:44","新北市新店區中興路三段198號","121.543881666667","24.9818","6500600","新店區"
"231062","256-BX","2019/11/02 20:13:31","新北市新店區安康路二段52號","121.515081666667","24.9636783333333","6500600","新店區"
"231054","260-TV","2019/11/02 20:13:43","新北市新店區檳榔路41巷2號","121.542801666667","24.9632916666667","6500600","新店區"
"231064","278-BY","2019/11/02 20:13:41","新北市新店區安樂街1-1號","121.519908333333","24.9737366666667","6500600","新店區"
"231050","AAD-862","2019/11/02 20:13:38","新北市新店區北新路一段90號","121.54183","24.9684833333333","6500600","新店區"
"231045","355-BY","2019/11/02 20:13:44","新北市新店區北宜路一段178號","121.5408","24.952995","6500600","新店區"
"231056","4715-K9","2019/11/02 20:13:37","新北市新店區中正路328巷19號","121.537443333333","24.9756816666667","6500600","新店區"
"231067","4772-VM","2019/11/02 20:13:46","新北市新店區溪洲路8巷2-1號","121.53352","24.9614416666667","6500600","新店區"
"231052","513-UM","2019/11/02 20:13:45","新北市新店區新烏路三段51號","121.55416","24.904275","6500600","新店區"
"231063","616-UM","2019/11/02 20:13:41","新北市新店區黎明路9號","121.502518333333","24.9503433333333","6500600","新店區"
"231040","617-UM","2019/11/02 20:13:46","新北市新店區中正路110號","121.543025","24.97075","6500600","新店區"
"231041","619-UM","2019/11/02 20:13:41","新北市新店區民權路104號","121.535783333333","24.9829133333333","6500600","新店區"
"231048","KED-0819","2019/11/02 20:13:39","新北市新店區永華街8號","121.543531666667","24.9764483333333","6500600","新店區"
"231057","720-UM","2019/11/02 20:13:47","新北市新店區梅花一路2號","121.551946666667","24.93315","6500600","新店區"
"231059","897-TW","2019/11/02 20:13:34","新北市新店區安德街62號","121.51072","24.9620766666667","6500600","新店區"
"231043","899-TW","2019/11/02 20:13:41","新北市新店區建國路131號","121.53936","24.9780833333333","6500600","新店區"
"231066","AKT-0513","2019/11/02 20:13:38","新北市新店區安興路20號","121.515031666667","24.9660016666667","6500600","新店區"
"241011","013-R5","2019/11/02 20:13:46","新北市三重區龍濱路190號","121.501093333333","25.0732866666667","6500200","三重區"
"241028","022-UY","2019/11/02 20:13:48","新北市三重區大同南路144號","121.496463333333","25.0579083333333","6500200","三重區"
"241008","059-VK","2019/11/02 20:13:36","新北市三重區永福街211巷3號","121.479746666667","25.074145","6500200","三重區"
"241023","060-VK","2019/11/02 20:13:38","新北市三重區頂崁街199號","121.477641666667","25.0668233333333","6500200","三重區"
"241031","061-VK","2019/11/02 20:13:40","新北市三重區三寧街18號","121.489338333333","25.0597983333333","6500200","三重區"
"241015","062-VK","2019/11/02 20:13:40","新北市三重區福德北路9號","121.502526666667","25.0642466666667","6500200","三重區"
"241017","063-VK","2019/11/02 20:13:37","新北市三重區長壽西街215號","121.491683333333","25.0662516666667","6500200","三重區"
"241024","065-VK","2019/11/02 20:13:42","新北市三重區中正北路165巷31號","121.479555","25.0702916666667","6500200","三重區"
"241007","066-VK","2019/11/02 20:13:36","新北市三重區三和路四段117巷16號","121.48613","25.0778183333333","6500200","三重區"
"241002","090-VK","2019/11/02 20:13:47","新北市三重區仁忠街23號","121.496665","25.0825066666667","6500200","三重區"
"241003","091-VK","2019/11/02 20:13:46","新北市三重區富華街14號","121.489565","25.082435","6500200","三重區"
"241006","262-UM","2019/11/02 20:13:35","新北市三重區車路頭街135-1號","121.48427","25.0761566666667","6500200","三重區"
"241016","266-UM","2019/11/02 20:13:50","新北市三重區大同北路54巷1號","121.494315","25.0635483333333","6500200","三重區"
"241009","267-UM","2019/11/02 20:13:40","新北市三重區三和路四段382巷137號","121.479406666667","25.0781516666667","6500200","三重區"
"241018","268-UM","2019/11/02 20:13:37","新北市三重區正義北路260號","121.495796666667","25.0685116666667","6500200","三重區"
"241032","269-UM","2019/11/02 20:13:49","新北市三重區捷運路29號","121.485023333333","25.0562633333333","6500200","三重區"
"241013","270-UM","2019/11/02 20:13:43","新北市三重區三和路四段3號","121.49162","25.0740066666667","6500200","三重區"
"241025","271-UM","2019/11/02 20:13:31","新北市三重區三民街260號","121.479326666667","25.067995","6500200","三重區"
"241030","KED-0822","2019/11/02 20:13:49","新北市三重區集美街93號","121.488968333333","25.0532966666667","6500200","三重區"
"241035","462-BY","2019/11/02 20:13:37","新北市三重區正義北路33巷25號","121.498266666667","25.0637866666667","6500200","三重區"
"241004","475-VK","2019/11/02 20:13:44","新北市三重區自強路四段78號","121.490521666667","25.078795","6500200","三重區"
"241020","478-VK","2019/11/02 20:13:35","新北市三重區後竹圍街78號","121.489821666667","25.07305","6500200","三重區"
"241026","480-VK","2019/11/02 20:13:47","新北市三重區中央南路29號","121.50132","25.06219","6500200","三重區"
"241014","543-UM","2019/11/02 20:13:33","新北市三重區長樂街168-1號","121.503056666667","25.069855","6500200","三重區"
"241001","547-UM","2019/11/02 20:13:45","新北市三重區自強路四段3巷43號","121.490435","25.0765933333333","6500200","三重區"
"241019","KEA-2593","2019/11/02 20:13:37","新北市三重區自強路二段33巷62號","121.49086","25.06992","6500200","三重區"
"241005","AAD-863","2019/11/02 20:13:33","新北市三重區碧華街378號","121.490936666667","25.0843133333333","6500200","三重區"
"241012","743-BX","2019/11/02 20:13:31","新北市三重區河邊北街266號","121.501658333333","25.07651","6500200","三重區"
"241022","KED-0820","2019/11/02 20:13:42","新北市三重區中正北路28號","121.488163333333","25.0635666666667","6500200","三重區"
"241029","942-UM","2019/11/02 20:13:47","新北市三重區中正南路115號","121.49405","25.0574116666667","6500200","三重區"
"241033","AAC-255","2019/11/02 20:13:36","新北市三重區光復路一段61巷31弄2號","121.474783333333","25.0492433333333","6500200","三重區"
"235066","003-UY","2019/11/02 20:13:33","新北市中和區水源路122號","121.507258333333","25.00334","6500300","中和區"
"235039","097-UM","2019/11/02 20:13:49","新北市中和區大勇街27巷10號","121.517018333333","24.99388","6500300","中和區"
"235065","098-UM","2019/11/02 20:13:39","新北市中和區永和路128巷47號","121.497738333333","25.0068916666667","6500300","中和區"
"235040","150-BY","2019/11/02 20:13:46","新北市中和區安平路38號","121.509943333333","24.995005","6500300","中和區"
"235055","183-VK","2019/11/02 20:13:39","新北市三重區重光街105-2號","121.467178333333","25.06481","6500300","中和區"
"247016","KEA-2869","2019/11/02 20:13:36","新北市蘆洲區光華路150巷10弄2號","121.46561","25.082705","6501400","蘆洲區"
"235050","4979-A6","2019/11/02 20:13:34","新北市中和區景新街323-3號","121.511353333333","24.9920183333333","6500300","中和區"
"235069","4980-A6","2019/11/02 20:13:48","新北市中和區圓通路198巷2弄3號","121.496251666667","24.994665","6500300","中和區"
"235059","AAC-215","2019/11/02 20:13:41","新北市中和區圓通路367巷13弄2號","121.49273","24.98824","6500300","中和區"
"220035","015-TV","2019/11/02 20:13:43","新北市板橋區金華街85巷42號","121.45925","25.021435","6500100","板橋區"
"220065","072-UY","2019/11/02 20:13:39","新北市板橋區縣民大道二段283號","121.47034","25.0179416666667","6500100","板橋區"
"220086","073-UY","2019/11/02 20:13:40","新北市板橋區南雅西路二段7巷25號","121.451921666667","25.0094783333333","6500100","板橋區"
"247006","500-BY","2019/11/02 20:13:31","新北市蘆洲區永安南路二段16巷18號","121.468005","25.0778283333333","6501400","蘆洲區"
"247004","341-TH","2019/11/02 20:13:43","新北市蘆洲區長安街285巷23號","121.457401666667","25.08412","6501400","蘆洲區"
"247024","057-VK","2019/11/02 20:13:47","新北市蘆洲區光明路139號","121.464266666667","25.088535","6501400","蘆洲區"
"247014","056-VK","2019/11/02 20:13:48","新北市蘆洲區中山二路166號","121.470781666667","25.0809333333333","6501400","蘆洲區"
"247018","053-VK","2019/11/02 20:13:43","新北市蘆洲區民族路315號","121.474545","25.091405","6501400","蘆洲區"
"247022","007-UY","2019/11/02 20:13:52","新北市蘆洲區中正路198號","121.466845","25.0883566666667","6501400","蘆洲區"
"247002","001-UY","2019/11/02 20:13:41","新北市蘆洲區長安街315號","121.45753","25.0861383333333","6501400","蘆洲區"
"224002","272-VK","2019/11/02 20:13:37","新北市瑞芳區三爪子坑路335號","121.81904","25.104805","6501200","瑞芳區"
"222001","KEA-2212","2019/11/02 20:13:42","新北市深坑區北深路三段213號","121.60038","25.0040383333333","6501800","深坑區"
"208003","665-BX","2019/11/02 20:13:46","新北市金山區南勢110號","121.625418333333","25.2201116666667","6502700","金山區"
"251009","008-UM","2019/11/02 20:13:43","新北市淡水區清水街2號","121.445541666667","25.17039","6501000","淡水區"
"251004","009-UM","2019/11/02 20:13:34","新北市淡水區民族路29巷24-1號","121.461693333333","25.1366416666667","6501000","淡水區"
"251015","KEA-2871","2019/11/02 20:13:48","新北市淡水區商工路335號","121.466611666667","25.1855616666667","6501000","淡水區"
"251016","180-VK","2019/11/02 20:13:39","新北市淡水區番子田18-4號","121.456558333333","25.229535","6501000","淡水區"
"251008","181-VK","2019/11/02 20:13:48","新北市淡水區沙崙路126號","121.423481666667","25.1828183333333","6501000","淡水區"
"251013","182-VK","2019/11/02 20:13:43","新北市淡水區奎柔山路760號","121.474948333333","25.203665","6501000","淡水區"
"251010","413-VK","2019/11/02 20:13:48","新北市淡水區濱海路三段138號","121.427358333333","25.191145","6501000","淡水區"
"243011","549-UM","2019/11/02 20:13:47","新北市泰山區壽山路78號","121.419553333333","25.0294583333333","6501600","泰山區"
"251012","441-VK","2019/11/02 20:13:47","新北市淡水區淡金路三段304號","121.44903","25.2078033333333","6501000","淡水區"
"251001","559-UM","2019/11/02 20:13:32","新北市淡水區淡金路二段15號","121.44632","25.189185","6501000","淡水區"
"251006","561-UM","2019/11/02 20:13:39","新北市淡水區北新路141巷2弄1號","121.449283333333","25.179255","6501000","淡水區"
"251014","577-R6","2019/11/02 20:13:34","新北市淡水區石頭厝2-1號","121.458103333333","25.235695","6501000","淡水區"
"251011","650-BX","2019/11/02 20:13:49","新北市淡水區崁頂101號","121.434221666667","25.20379","6501000","淡水區"
"251002","672-BX","2019/11/02 20:13:32","新北市淡水區中正路296號","121.437483333333","25.1720966666667","6501000","淡水區"
"251003","766-UM","2019/11/02 20:13:37","新北市淡水區中山北路一段229號","121.4445","25.179565","6501000","淡水區"
"207003","681-TV","2019/11/02 20:13:39","新北市萬里區大鵬里萬里加投19-10號","121.649595","25.209895","6502800","萬里區"
"207004","291-VK","2019/11/02 20:13:35","新北市萬里區北基里仁三街23號","121.681781666667","25.176325","6502800","萬里區"
"252002","178-VK","2019/11/02 20:13:33","新北市三芝區中正路一段18巷7號","121.503475","25.2588016666667","6502100","三芝區"
"237006","5529-G3","2019/11/02 20:13:39","新北市三峽區嘉添181號","121.370041666667","24.9114033333333","6500900","三峽區"
"236030","253-BX","2019/11/02 20:13:41","新北市土城區裕民路32巷6號","121.447651666667","24.9880883333333","6501300","土城區"
"236026","269-VK","2019/11/02 20:13:47","新北市土城區裕生路81號","121.447015","24.9841866666667","6501300","土城區"
"236014","270-VK","2019/11/02 20:13:46","新北市土城區廣明街63巷33號","121.454121666667","24.9930033333333","6501300","土城區"
"236038","271-VK","2019/11/02 20:13:50","新北市土城區延吉街280號","121.465183333333","24.98425","6501300","土城區"
"247012","KED-0683","2019/11/02 20:13:50","新北市蘆洲區民族路236巷4號","121.48014","25.08849","6501400","蘆洲區"
"236070","KEA-2877","2019/11/02 20:13:47","新北市土城區大安路37-1號","121.432748333333","24.9661033333333","6501300","土城區"
"252001","KED-0821","2019/11/02 20:13:51","新北市三芝區中山路一段31號","121.50053","25.2581416666667","6502100","三芝區"
"236021","401-BY","2019/11/02 20:13:49","新北市土城區延吉街5巷1號","121.471995","24.9893483333333","6501300","土城區"
"236059","912-UM","2019/11/02 20:13:43","新北市土城區中央路三段50號","121.437116666667","24.96763","6501300","土城區"
"242042","AAC-296","2019/11/02 20:13:49","新北市新莊區青山路一段63號","121.407336666667","25.02786","6500500","新莊區"
"242061","986-R7","2019/11/02 20:13:47","新北市新莊區瓊林路瓊英巷1弄1號","121.443833333333","25.0272666666667","6500500","新莊區"
"242004","751-BX","2019/11/02 20:13:50","新北市新莊區化成路554巷45號","121.467613333333","25.0540933333333","6500500","新莊區"
"242027","705-TV","2019/11/02 20:13:36","新北市新莊區幸福路892號","121.443575","25.0493783333333","6500500","新莊區"
"242029","615-BX","2019/11/02 20:13:37","新北市新莊區中原路305號","121.447303333333","25.054355","6500500","新莊區"
"242058","612-BX","2019/11/02 20:13:35","新北市新莊區八德街145號","121.423618333333","25.0197933333333","6500500","新莊區"
"242048","566-BX","2019/11/02 20:13:46","新北市新莊區四維路152巷37號","121.421936666667","25.0222666666667","6500500","新莊區"
"242053","497-BY","2019/11/02 20:13:43","新北市新莊區民安西路310號","121.426421666667","25.0119566666667","6500500","新莊區"
"242002","441-UM","2019/11/02 20:13:38","新北市新莊區中正路33號","121.463956666667","25.04096","6500500","新莊區"
"242007","440-UM","2019/11/02 20:13:40","新北市新莊區思源路419巷1弄5號","121.45933","25.0522733333333","6500500","新莊區"
"242044","415-TV","2019/11/02 20:13:41","桃園市龜山區萬壽路一段27號","121.410311666667","25.0205566666667","6500500","新莊區"
"242013","413-TV","2019/11/02 20:13:34","新北市新莊區幸福路710巷6弄2號","121.450158333333","25.0496283333333","6500500","新莊區"
"242051","400-BY","2019/11/02 20:13:30","新北市新莊區民安西路196巷4弄2號","121.425546666667","25.0154916666667","6500500","新莊區"
"242025","362-BY","2019/11/02 20:13:34","新北市新莊區五工三路70巷6號","121.459461666667","25.06497","6500500","新莊區"
"242023","353-BY","2019/11/02 20:13:46","新北市新莊區化成路744號","121.465595","25.05752","6500500","新莊區"
"242015","132-UY","2019/11/02 20:13:42","新北市新莊區中平路26巷53號","121.447335","25.043455","6500500","新莊區"
"242039","135-UY","2019/11/02 20:13:35","新北市新莊區龍安路459號","121.424708333333","25.0184416666667","6500500","新莊區"
"242056","172-VK","2019/11/02 20:13:46","新北市新莊區豐年街48號","121.446411666667","25.0319433333333","6500500","新莊區"
"242017","173-VK","2019/11/02 20:13:45","新北市新莊區中港路397號","121.45175","25.046835","6500500","新莊區"
"242031","175-VK","2019/11/02 20:13:47","新北市新莊區中正路449-1號","121.443033333333","25.0340133333333","6500500","新莊區"
"242021","KED-0687","2019/11/02 20:13:47","新北市新莊區新泰路117號","121.448471666667","25.0358466666667","6500500","新莊區"
"242019","346-TH","2019/11/02 20:13:49","新北市新莊區博愛路1巷2號","121.456511666667","25.042765","6500500","新莊區"
"242036","348-TH","2019/11/02 20:13:39","新北市新莊區建安街28號","121.428195","25.0252466666667","6500500","新莊區"
"242009","349-TH","2019/11/02 20:13:50","新北市新莊區昌平街22號","121.454881666667","25.052855","6500500","新莊區"
"242034","350-TH","2019/11/02 20:13:41","新北市新莊區華興街32號","121.446166666667","25.035845","6500500","新莊區"
"221008","489-VK","2019/11/02 20:13:37","台北市內湖區康樂街125巷2號","121.619541666667","25.073535","6501100","汐止區"
"221036","130-UY","2019/11/02 20:13:31","新北市汐止區新台五路二段100號","121.662465","25.0659866666667","6501100","汐止區"
"221015","131-UY","2019/11/02 20:13:45","新北市汐止區建成路37巷1號","121.663613333333","25.0727716666667","6501100","汐止區"
"221010","269-BY","2019/11/02 20:13:45","新北市汐止區連峰街225巷22號","121.644166666667","25.0810433333333","6501100","汐止區"
"221012","278-VK","2019/11/02 20:13:36","新北市汐止區大同路三段439號","121.678305","25.0713183333333","6501100","汐止區"
"221023","279-VK","2019/11/02 20:13:41","新北市汐止區明峰街297巷1號","121.625581666667","25.0679116666667","6501100","汐止區"
"221032","280-BY","2019/11/02 20:13:30","新北市汐止區弘道街8巷5弄5號","121.617305","25.0478766666667","6501100","汐止區"
"221027","281-BY","2019/11/02 20:13:42","新北市汐止區大同路二段513號","121.661386666667","25.068905","6501100","汐止區"
"221029","298-VK","2019/11/02 20:13:36","新北市汐止區樟樹一路119巷8-6號","121.641321666667","25.0643633333333","6501100","汐止區"
"221021","299-VK","2019/11/02 20:13:50","新北市汐止區水源路一段291巷1號","121.65432","25.05842","6501100","汐止區"
"221031","353-TW","2019/11/02 20:13:47","新北市汐止區中興路214巷12號","121.631481666667","25.0665933333333","6501100","汐止區"
"221035","622-UM","2019/11/02 20:13:48","新北市汐止區長江街43號","121.6558","25.0712533333333","6501100","汐止區"
"221025","623-UM","2019/11/02 20:13:33","新北市汐止區新台五路一段159號","121.654023333333","25.0624283333333","6501100","汐止區"
"221038","646-BX","2019/11/02 20:13:51","新北市汐止區忠孝東路480號","121.666333333333","25.073785","6501100","汐止區"
"221033","647-BX","2019/11/02 20:13:38","新北市汐止區東勢街201巷129弄2號","121.63346","25.04286","6501100","汐止區"
"221018","753-BX","2019/11/02 20:13:45","新北市汐止區茄興街20巷1弄1號","121.673518333333","25.0670916666667","6501100","汐止區"
"220080","200-UY","2019/11/02 20:13:48","新北市板橋區大觀路二段187巷5號","121.445215","24.99965","6500100","板橋區"
"220082","610-BX","2019/11/02 20:13:38","新北市板橋區篤行路二段116-3號","121.43126","24.991","6500100","板橋區"
"220083","286-VK","2019/11/02 20:13:47","新北市板橋區僑中二街90巷19號","121.445328333333","25.0092666666667","6500100","板橋區"
"220081","287-VK","2019/11/02 20:13:38","新北市板橋區僑中一街124巷18弄19號","121.446981666667","25.0136583333333","6500100","板橋區"
"220061","293-UM","2019/11/02 20:13:52","新北市板橋區四川路一段274巷4號","121.458198333333","25.0013716666667","6500100","板橋區"
"242046","281-VK","2019/11/02 20:13:43","新北市新莊區裕民街126號","121.41807","25.0224733333333","6500500","新莊區"
"220075","303-R5","2019/11/02 20:13:35","新北市板橋區金華街10巷23號","121.456695","25.0201683333333","6500100","板橋區"
"220079","461-BY","2019/11/02 20:13:37","新北市板橋區建國街54巷28號","121.4598","25.017005","6500100","板橋區"
"242011","280-VK","2019/11/02 20:13:36","新北市新莊區中信街37巷4弄9號","121.44977","25.0501233333333","6500500","新莊區"
"220103","561-BX","2019/11/02 20:13:39","新北市板橋區漢生東路33巷50號","121.466233333333","25.0178933333333","6500100","板橋區"
"220077","687-BX","2019/11/02 20:13:45","新北市板橋區僑中一街124巷20弄2號","121.446153333333","25.01399","6500100","板橋區"
"220054","741-BX","2019/11/02 20:13:46","新北市板橋區忠孝路忠義巷9弄8號","121.465578333333","25.0039083333333","6500100","板橋區"
"220055","827-TW","2019/11/02 20:13:39","新北市板橋區仁愛路86巷8號","121.461008333333","24.9992366666667","6500100","板橋區"
"220074","895-R6","2019/11/02 20:13:42","新北市板橋區館前西路47號","121.457901666667","25.0068966666667","6500100","板橋區"
"235068","KEA-2873","2019/11/02 20:13:38","新北市中和區福祥路85巷6弄2號","121.498575","25.0056966666667","6500300","中和區"
