"lineid","car","time","location","longitude","latitude","cityid","cityname"
"251004","009-UM","2019/11/02 21:59:34","新北市淡水區自強路279-1號","121.461431666667","25.12781","6501000","淡水區"
"251005","010-UM","2019/11/02 21:59:50","新北市淡水區鄧公路30巷2弄41號","121.453651666667","25.1692666666667","6501000","淡水區"
"251008","181-VK","2019/11/02 21:59:47","新北市淡水區學府路104號","121.44991","25.1717466666667","6501000","淡水區"
"251010","413-VK","2019/11/02 21:59:47","新北市淡水區中正路二段206號","121.426216666667","25.1890766666667","6501000","淡水區"
"251007","442-VK","2019/11/02 21:59:39","新北市淡水區北新路182巷3弄13號","121.449803333333","25.1780566666667","6501000","淡水區"
"251006","561-UM","2019/11/02 21:49:23","新北市淡水區中正路11巷3號","121.437885","25.1707533333333","6501000","淡水區"
"251011","650-BX","2019/11/02 21:59:49","新北市淡水區水碓街7號","121.443148333333","25.1770833333333","6501000","淡水區"
