"lineid","car","time","location","longitude","latitude","cityid","cityname"
"222007","289-BY","2019/10/12 09:46:54","新北市深坑區北深路三段22號","121.609273333333","25.0011183333333","6501800","深坑區"
"231007","189-VK","2019/10/12 09:49:24","新北市新店區小坑三路51-2號","121.517215","24.90833","6500600","新店區"
"231008","192-VK","2019/10/12 09:49:26","新北市新店區小坑一路6號","121.535771666667","24.911635","6500600","新店區"
"227004","282-VK","2019/10/12 09:48:53","新北市雙溪區長源里柑腳58-1號","121.793778333333","25.00601","6502500","雙溪區"
"252004","249-BX","2019/10/12 09:49:10","新北市三芝區福德里大水堀32-4號","121.513766666667","25.2172733333333","6502100","三芝區"
"252007","AAC-283","2019/10/12 09:49:30","新北市三芝區新庄里新庄子97號","121.515153333333","25.2713366666667","6502100","三芝區"
"233003","KEA-2870","2019/10/12 09:49:30","新北市烏來區信福路2巷2號","121.539778333333","24.8405166666667","6502900","烏來區"
