"lineid","car","time","location","longitude","latitude","cityid","cityname"
"222007","289-BY","2019/10/12 09:59:14","新北市深坑區風格街31巷37號","121.627778333333","25.01786","6501800","深坑區"
"231007","189-VK","2019/10/12 09:58:44","新北市新店區秀岡五街35號","121.49929","24.910285","6500600","新店區"
"231008","192-VK","2019/10/12 09:54:46","新北市新店區小坑一路21-1號","121.530931666667","24.912085","6500600","新店區"
"227004","282-VK","2019/10/12 09:59:12","新北市雙溪區長源里盤山坑17號","121.775961666667","24.9983083333333","6502500","雙溪區"
"252004","249-BX","2019/10/12 09:59:30","新北市三芝區福德里土地公埔39號","121.510145","25.23561","6502100","三芝區"
"252007","AAC-283","2019/10/12 09:59:10","新北市三芝區新庄里新庄子78-2號","121.507795","25.2726183333333","6502100","三芝區"
"233003","KEA-2870","2019/10/12 09:59:30","新北市烏來區環山路159巷10-2號","121.548518333333","24.8576333333333","6502900","烏來區"
