"lineid","car","time","location","longitude","latitude","cityid","cityname"
"234044","148-BY","2019/10/12 13:39:24","新北市永和區永利路145號","121.524338333333","25.0035266666667","6500400","永和區"
"234078","298-R6","2019/10/12 13:39:22","新北市永和區林森路20巷11號","121.525591666667","25.0059733333333","6500400","永和區"
"234036","336-UY","2019/10/12 13:39:31","新北市永和區民樂街29號","121.52775","25.0015316666667","6500400","永和區"
"234084","338-UY","2019/10/12 13:39:22","新北市永和區林森路41巷31號","121.526206666667","25.0042383333333","6500400","永和區"
"234068","552-UM","2019/10/12 13:39:26","新北市永和區永和路二段234號","121.515843333333","25.0145583333333","6500400","永和區"
"234062","553-UM","2019/10/12 13:39:22","新北市永和區秀朗路二段24巷28弄14號","121.519578333333","25.0019666666667","6500400","永和區"
"234015","745-BX","2019/10/12 13:39:19","新北市永和區永和路二段301巷1號","121.515683333333","25.016245","6500400","永和區"
"234028","746-BX","2019/10/12 13:39:33","新北市永和區民生路37巷11號","121.523935","24.9980233333333","6500400","永和區"
"234052","KEA-2590","2019/10/12 13:39:20","新北市永和區竹林路39巷21號","121.518996666667","25.01483","6500400","永和區"
"234005","KED-0605","2019/10/12 13:39:28","新北市永和區中山路一段40號","121.513435","25.0107566666667","6500400","永和區"
"234012","KEA-2591","2019/10/12 13:39:30","新北市永和區仁愛路178號","121.509953333333","25.0127816666667","6500400","永和區"
"234060","AAD-866","2019/10/12 13:39:27","新北市永和區中正路446號","121.517423333333","25.002725","6500400","永和區"
"234040","862-TW","2019/10/12 13:39:31","新北市永和區中和路305巷2弄1號","121.506661666667","25.0000983333333","6500400","永和區"
"234048","863-TW","2019/10/12 13:39:26","新北市永和區保安路82號","121.509738333333","25.016315","6500400","永和區"
"234025","9371-KE","2019/10/12 13:39:28","新北市永和區永平路180巷1號","121.510586666667","25.00941","6500400","永和區"
"234010","9373-KE","2019/10/12 13:39:19","新北市永和區保福路二段48號","121.510963333333","25.0121283333333","6500400","永和區"
"248017","KED-0813","2019/10/12 13:38:58","新北市五股區民義路二段52巷5-18號","121.410811666667","25.1071116666667","6501500","五股區"
"234022","9380-KE","2019/10/12 13:39:25","新北市永和區中正路702巷26號","121.516461666667","25.0106516666667","6500400","永和區"
"234076","969-R7","2019/10/12 13:39:20","新北市永和區民權路3號","121.520201666667","24.998495","6500400","永和區"
"234072","AAC-211","2019/10/12 13:39:21","新北市永和區竹林路211號","121.520705","25.0088283333333","6500400","永和區"
"234066","AAC-212","2019/10/12 13:39:12","新北市永和區永貞路406巷28號","121.509741666667","25.0079333333333","6500400","永和區"
"234001","AAC-295","2019/10/12 13:39:13","新北市永和區秀朗路一段17號","121.514015","25.00735","6500400","永和區"
"243001","267-VK","2019/10/12 13:39:21","新北市泰山區坡雅頭1-2號","121.438713333333","25.0459916666667","6501600","泰山區"
"231030","002-UM","2019/10/12 13:39:27","新北市新店區安康路一段323-1號","121.521593333333","24.9638166666667","6500600","新店區"
"231024","0291-UT","2019/10/12 13:39:19","新北市新店區華興街36號","121.537116666667","24.9690833333333","6500600","新店區"
"231027","0293-UT","2019/10/12 13:39:27","新北市新店區國校路68號","121.538543333333","24.9531566666667","6500600","新店區"
"231005","046-UY","2019/10/12 13:39:20","新北市新店區中興路三段6號","121.547555","24.9777266666667","6500600","新店區"
"231029","106-UY","2019/10/12 13:39:13","新北市新店區安康路二段330號","121.503945","24.9578083333333","6500600","新店區"
"231018","107-UY","2019/10/12 13:39:19","新北市新店區百忍街11號","121.534736666667","24.975535","6500600","新店區"
"231013","108-UY","2019/10/12 13:39:26","新北市新店區中正路454-5號","121.534456666667","24.9791383333333","6500600","新店區"
"231036","110-UY","2019/10/12 13:39:24","新北市新店區安祥路147巷66號","121.475995","24.956055","6500600","新店區"
"231033","256-BX","2019/10/12 13:39:17","新北市新店區莒光路44巷21弄11-2號","121.519783333333","24.9536583333333","6500600","新店區"
"231023","260-TV","2019/10/12 13:39:20","新北市新店區新店路162號","121.53723","24.9555616666667","6500600","新店區"
"231003","268-BY","2019/10/12 13:39:19","新北市新店區中興路二段33號","121.546138333333","24.969615","6500600","新店區"
"231035","278-BY","2019/10/12 13:39:28","新北市新店區安忠路86-4號","121.511766666667","24.9584266666667","6500600","新店區"
"231017","AAD-862","2019/10/12 13:39:15","新北市新店區竹林路2巷34弄2號","121.550315","24.950255","6500600","新店區"
"231006","355-BY","2019/10/12 13:39:13","新北市新店區北新路一段63號","121.538161666667","24.959805","6500600","新店區"
"231038","3712-VJ","2019/10/12 13:39:26","新北市新店區安華路30巷1號","121.519555","24.9592716666667","6500600","新店區"
"231025","4715-K9","2019/10/12 13:39:12","新北市新店區中央五街37號","121.528553333333","24.975035","6500600","新店區"
"231020","512-UM","2019/10/12 13:39:32","新北市新店區永興路88-1號","121.544078333333","24.9337616666667","6500600","新店區"
"231002","619-UM","2019/10/12 13:39:20","新北市新店區中央三街127號","121.524061666667","24.97686","6500600","新店區"
"231034","641-BX","2019/10/12 13:39:24","新北市新店區車子路117號","121.505373333333","24.95179","6500600","新店區"
"231012","KED-0819","2019/10/12 13:39:23","新北市新店區德正街23巷2號","121.544245","24.9717983333333","6500600","新店區"
"231010","719-UM","2019/10/12 13:39:25","新北市新店區平等街3號","121.536988333333","24.9742583333333","6500600","新店區"
"231026","720-UM","2019/10/12 13:39:30","新北市新店區北宜路一段119號","121.540263333333","24.95409","6500600","新店區"
"231028","897-TW","2019/10/12 13:39:28","新北市新店區安和路一段39號","121.517186666667","24.9652766666667","6500600","新店區"
"231001","898-TW","2019/10/12 13:39:15","新北市新店區中央路39號","121.532906666667","24.9776683333333","6500600","新店區"
"231004","899-TW","2019/10/12 13:39:23","新北市新店區北新路一段88巷1號","121.54169","24.9676866666667","6500600","新店區"
"231037","AKT-0513","2019/10/12 13:39:15","新北市新店區薏仁坑路29-1號","121.49602","24.9602016666667","6500600","新店區"
"235030","003-UY","2019/10/12 13:39:29","新北市中和區光華街46號","121.505033333333","25.0036266666667","6500300","中和區"
"235027","006-UY","2019/10/12 13:39:26","新北市中和區連城路389巷10弄3號","121.486425","24.9956266666667","6500300","中和區"
"235020","096-UM","2019/10/12 13:39:32","新北市中和區中正路1171號","121.481366666667","25.00945","6500300","中和區"
"235003","097-UM","2019/10/12 13:39:23","新北市中和區景平路278巷16弄24號","121.51451","24.9937","6500300","中和區"
"235029","098-UM","2019/10/12 13:39:29","新北市中和區莊敬路33巷21號","121.500485","25.007115","6500300","中和區"
"235004","150-BY","2019/10/12 13:39:29","新北市中和區安平路59號","121.50958","24.995075","6500300","中和區"
"235022","151-BY","2019/10/12 13:39:13","新北市中和區圓通路296巷1號","121.48726","24.9883283333333","6500300","中和區"
"235019","183-VK","2019/10/12 13:39:28","新北市中和區德光路77巷6弄1號","121.469891666667","25.0033583333333","6500300","中和區"
"235002","185-VK","2019/10/12 13:39:10","新北市中和區立人街14巷26號","121.519536666667","24.995405","6500300","中和區"
"235031","255-BX","2019/10/12 13:39:23","新北市中和區新生街242巷7號","121.483058333333","24.9977133333333","6500300","中和區"
"235008","293-VK","2019/10/12 13:39:27","新北市中和區復興路280巷17號","121.50229","24.99143","6500300","中和區"
"235036","301-VK","2019/10/12 13:39:18","新北市中和區永和路1號","121.499863333333","25.0027716666667","6500300","中和區"
"235007","352-BY","2019/10/12 13:39:17","新北市中和區景平路71號","121.519671666667","24.9913","6500300","中和區"
"235006","KEA-2878","2019/10/12 13:39:26","新北市中和區秀朗路三段135巷7弄1號","121.52545","24.9919733333333","6500300","中和區"
"235014","4979-A6","2019/10/12 13:39:31","新北市中和區忠孝街124巷10號","121.512791666667","24.9859816666667","6500300","中和區"
"235033","4980-A6","2019/10/12 13:39:13","新北市中和區連城路65巷12號","121.497973333333","25.000655","6500300","中和區"
"235034","558-UM","2019/10/12 13:39:27","新北市中和區南山路6號","121.502028333333","24.9986266666667","6500300","中和區"
"235009","565-BX","2019/10/12 13:39:12","新北市中和區復興路8號","121.506155","24.9897866666667","6500300","中和區"
"235024","KED-0823","2019/10/12 13:39:29","新北市中和區中山路三段148號","121.47358","25.0063716666667","6500300","中和區"
"235018","640-BX","2019/10/12 13:39:19","新北市中和區民享街35巷14號","121.474805","25.0039516666667","6500300","中和區"
"235011","732-UM","2019/10/12 13:39:09","新北市中和區興南路二段3巷1號","121.508063333333","24.9865033333333","6500300","中和區"
"235010","733-UM","2019/10/12 13:39:21","新北市中和區仁愛街36巷51號","121.511623333333","24.9861216666667","6500300","中和區"
"235036","783-BX","2019/10/12 13:39:14","新北市中和區橋和路81號","121.489483333333","25.0055716666667","6500300","中和區"
"235021","801-TS","2019/10/12 13:39:27","新北市中和區民安街25巷13號","121.480581666667","25.0002016666667","6500300","中和區"
"235005","802-TS","2019/10/12 13:39:19","新北市中和區中安街86號","121.511836666667","25.001985","6500300","中和區"
"235016","805-TS","2019/10/12 13:39:21","新北市中和區興南路三段52-4號","121.493765","24.975555","6500300","中和區"
"235012","896-TW","2019/10/12 13:39:31","新北市中和區中正路83號","121.500603333333","24.993575","6500300","中和區"
"235017","900-TW","2019/10/12 13:39:29","新北市中和區華福街63號","121.4669","24.9966516666667","6500300","中和區"
"235028","911-UM","2019/10/12 13:39:12","新北市中和區泰和街44巷2號","121.498953333333","24.9998383333333","6500300","中和區"
"235015","157-BY","2019/10/12 13:39:25","新北市中和區華新街143巷106弄32號","121.506183333333","24.9787","6500300","中和區"
"235001","AAC-213","2019/10/12 13:39:11","新北市中和區秀朗路三段128巷1弄1號","121.524695","24.99229","6500300","中和區"
"235023","AAC-215","2019/10/12 13:39:22","新北市中和區錦和路350-1號","121.49058","24.99354","6500300","中和區"
"220013","072-UY","2019/10/12 13:39:11","新北市板橋區實踐路79號","121.463866666667","25.006175","6500100","板橋區"
"220017","AAD-861","2019/10/12 13:39:20","新北市板橋區縣民大道一段66號","121.455261666667","25.00414","6500100","板橋區"
"220016","120-SR","2019/10/12 13:38:11","新北市板橋區民生路二段103號","121.471305","25.0177733333333","6500100","板橋區"
"247001","341-TH","2019/10/12 13:39:27","新北市五股區中興路三段5號","121.449288333333","25.07966","6501400","蘆洲區"
"247013","056-VK","2019/10/12 13:39:20","新北市五股區中興路二段182巷3號","121.455635","25.078115","6501400","蘆洲區"
"247007","002-UY","2019/10/12 13:39:28","新北市蘆洲區國道路二段101號","121.471163333333","25.0748733333333","6501400","蘆洲區"
"235013","251-BX","2019/10/12 13:39:26","新北市中和區明義街16號","121.504573333333","24.994895","6500300","中和區"
"228005","097-TW","2019/10/12 13:39:14","新北市貢寮區美豐里文秀坑5-3號","121.903418333333","25.052085","6502600","貢寮區"
"228004","212-TW","2019/10/12 13:39:27","新北市貢寮區龍崗里嵩陽街17號","121.907058333333","25.0108033333333","6502600","貢寮區"
"253003","6232-TK","2019/10/12 13:39:24","新北市石門區內石門14-2號","121.57365","25.27783","6502200","石門區"
"253004","6251-TK","2019/10/12 13:39:23","新北市石門區阿里荖63號","121.607816666667","25.2676566666667","6502200","石門區"
"253002","637-UY","2019/10/12 13:39:23","新北市石門區內石門80號","121.566036666667","25.26102","6502200","石門區"
"253001","KEC-0718","2019/10/12 13:39:19","新北市三芝區新庄里新庄子96號","121.515496666667","25.2757483333333","6502200","石門區"
"207002","749-BX","2019/10/12 13:39:21","新北市萬里區崁腳里崁腳路166號","121.645046666667","25.1559966666667","6502800","萬里區"
"252005","073-UM","2019/10/12 13:39:21","新北市三芝區圓山里木屐寮32-2號","121.530778333333","25.2210933333333","6502100","三芝區"
"207001","662-BX","2019/10/12 13:39:12","新北市萬里區大鵬里萬里加投29-11號","121.64737","25.2074066666667","6502800","萬里區"
"236040","KED-0685","2019/10/12 13:39:25","新北市土城區城林路6巷80號","121.438491666667","24.979655","6501300","土城區"
"236074","166-UM","2019/10/12 13:39:22","新北市土城區中央路三段96-1號","121.435618333333","24.9664833333333","6501300","土城區"
"236029","253-BX","2019/10/12 13:39:25","新北市土城區城林路6巷80號","121.438463333333","24.9797966666667","6501300","土城區"
"236013","270-VK","2019/10/12 13:39:14","新北市土城區城林路6巷80號","121.438541666667","24.97981","6501300","土城區"
"236032","271-VK","2019/10/12 13:39:23","新北市土城區城林路6巷80號","121.438516666667","24.9797866666667","6501300","土城區"
"247011","KED-0683","2019/10/12 13:39:23","新北市五股區中興路三段163號","121.448545","25.080185","6501400","蘆洲區"
"236068","KEA-2877","2019/10/12 13:39:29","新北市土城區城林路6巷80號","121.438638333333","24.9796433333333","6501300","土城區"
"236060","752-BX","2019/10/12 13:39:22","新北市土城區城林路6巷80號","121.438485","24.9797333333333","6501300","土城區"
"236057","912-UM","2019/10/12 13:39:15","新北市土城區城林路6巷80號","121.438503333333","24.97975","6501300","土城區"
"236045","913-UM","2019/10/12 13:39:16","新北市土城區城林路6巷80號","121.438415","24.9797333333333","6501300","土城區"
"220027","145-BY","2019/10/12 13:39:14","新北市板橋區大觀路一段174巷1弄12號","121.451423333333","25.0085883333333","6500100","板橋區"
"220030","610-BX","2019/10/12 13:39:21","新北市板橋區大觀路三段59巷17弄6-1號","121.437965","24.9953333333333","6500100","板橋區"
"220004","276-BY","2019/10/12 13:39:23","新北市板橋區館前西路46巷3號","121.458713333333","25.0071083333333","6500100","板橋區"
"220020","277-BY","2019/10/12 13:39:21","新北市板橋區大觀路三段59巷17弄6-1號","121.437451666667","24.995395","6500100","板橋區"
"220019","283-VK","2019/10/12 13:39:25","新北市板橋區四川路二段14號","121.45608","24.9962433333333","6500100","板橋區"
"220043","285-UM","2019/10/12 13:39:11","新北市板橋區民生路二段120號","121.47059","25.0196183333333","6500100","板橋區"
"220107","286-VK","2019/10/12 13:39:22","新北市板橋區華東街11號","121.450408333333","24.9975533333333","6500100","板橋區"
"220029","287-VK","2019/10/12 13:39:11","新北市板橋區大觀路二段153巷44弄9號","121.446756666667","24.99935","6500100","板橋區"
"220039","288-VK","2019/10/12 13:39:30","新北市板橋區民生路二段161巷9號","121.470296666667","25.019645","6500100","板橋區"
"220009","293-UM","2019/10/12 13:39:27","新北市板橋區民生路二段161巷7號","121.470246666667","25.019695","6500100","板橋區"
"220032","296-UM","2019/10/12 13:39:19","新北市板橋區大觀路二段146-6號","121.441711666667","24.99895","6500100","板橋區"
"220001","299-UM","2019/10/12 13:39:25","新北市板橋區民生路二段161巷9號","121.470308333333","25.0196266666667","6500100","板橋區"
"220023","303-R5","2019/10/12 13:39:15","新北市板橋區華東街11號","121.450546666667","24.9977316666667","6500100","板橋區"
"220038","487-VK","2019/10/12 13:39:22","新北市板橋區民生路二段171號","121.469758333333","25.02008","6500100","板橋區"
"220037","491-VK","2019/10/12 13:39:29","新北市板橋區民生路二段161巷1號","121.470026666667","25.0202083333333","6500100","板橋區"
"220104","560-BX","2019/10/12 13:39:11","新北市板橋區南雅西路二段145巷10號","121.451606666667","25.0119","6500100","板橋區"
"220052","561-BX","2019/10/12 13:39:23","新北市板橋區民生路二段120號","121.470311666667","25.0197033333333","6500100","板橋區"
"220028","568-UM","2019/10/12 13:39:21","新北市板橋區大觀路二段265巷7-7號","121.44416","24.9946433333333","6500100","板橋區"
"220011","609-BX","2019/10/12 13:39:32","新北市板橋區民生路二段171號","121.469816666667","25.0200966666667","6500100","板橋區"
"220034","630-UY","2019/10/12 13:39:15","新北市板橋區華東街1-9號","121.447981666667","24.9948783333333","6500100","板橋區"
"220005","686-BX","2019/10/12 13:39:19","新北市板橋區華興街91巷4號","121.456465","25.00526","6500100","板橋區"
"220025","687-BX","2019/10/12 13:39:11","新北市板橋區大觀路三段212巷70號","121.429793333333","24.99354","6500100","板橋區"
"220042","689-BX","2019/10/12 13:39:27","新北市板橋區民生路二段188號","121.470195","25.0202366666667","6500100","板橋區"
"220002","741-BX","2019/10/12 13:39:31","新北市板橋區華東街260號","121.452681666667","25.0013283333333","6500100","板橋區"
"220003","827-TW","2019/10/12 13:39:30","新北市板橋區忠孝路19號","121.460335","25.0020766666667","6500100","板橋區"
"220022","895-R6","2019/10/12 13:39:22","新北市板橋區南雅南路一段6號","121.456046666667","25.00666","6500100","板橋區"
"220021","985-R7","2019/10/12 13:39:30","新北市板橋區華興街38號","121.458655","25.0046683333333","6500100","板橋區"
"220046","AAC-210","2019/10/12 13:39:29","新北市板橋區民生路二段161巷3號","121.470113333333","25.0197983333333","6500100","板橋區"
"220012","AAC-253","2019/10/12 13:39:25","新北市板橋區民生路二段36-1號","121.472091666667","25.0168416666667","6500100","板橋區"
"235032","KEA-2873","2019/10/12 13:39:06","新北市中和區中正路211巷36弄22號","121.496673333333","24.9923633333333","6500300","中和區"
"235025","KEA-2875","2019/10/12 13:39:05","新北市中和區民享街45號","121.474085","25.002845","6500300","中和區"
"235073","KEA-2876","2019/10/12 13:39:28","新北市中和區景平路703巷8號","121.495871666667","25.0035233333333","6500300","中和區"
