"lineid","car","time","location","longitude","latitude","cityid","cityname"
"234044","148-BY","2019/10/12 13:49:29","新北市永和區永利路248號","121.524216666667","25.0029716666667","6500400","永和區"
"234078","298-R6","2019/10/12 13:49:20","新北市永和區永亨路98號","121.52308","25.0047916666667","6500400","永和區"
"234036","336-UY","2019/10/12 13:49:11","新北市永和區民樂街59巷7號","121.527983333333","24.9983533333333","6500400","永和區"
"234084","338-UY","2019/10/12 13:49:22","新北市永和區永亨路67-1號","121.521156666667","25.0060533333333","6500400","永和區"
"234068","552-UM","2019/10/12 13:49:27","新北市永和區竹林路88號","121.519376666667","25.012555","6500400","永和區"
"234062","553-UM","2019/10/12 13:49:20","新北市永和區中正路368巷6號","121.518063333333","25.000785","6500400","永和區"
"234015","745-BX","2019/10/12 13:49:19","新北市永和區文化路69號","121.513938333333","25.01511","6500400","永和區"
"234028","746-BX","2019/10/12 13:49:33","新北市永和區四維街73號","121.525366666667","24.997905","6500400","永和區"
"234052","KEA-2590","2019/10/12 13:49:20","新北市永和區竹林路39巷28弄21號","121.519945","25.0145183333333","6500400","永和區"
"234005","KED-0605","2019/10/12 13:49:28","新北市永和區中和路625號","121.513005","25.0049716666667","6500400","永和區"
"234012","KEA-2591","2019/10/12 13:49:30","新北市永和區保生路55號","121.504735","25.0105866666667","6500400","永和區"
"234060","AAD-866","2019/10/12 13:49:31","新北市永和區中正路285號","121.51738","25.0011766666667","6500400","永和區"
"234040","862-TW","2019/10/12 13:49:16","新北市永和區中和路421巷5弄29號","121.508311666667","25.0004616666667","6500400","永和區"
"234048","863-TW","2019/10/12 13:49:26","新北市永和區保安路144號","121.508588333333","25.0149666666667","6500400","永和區"
"234010","9373-KE","2019/10/12 13:49:19","新北市永和區仁愛路352巷86號","121.501348333333","25.007755","6500400","永和區"
"248017","KED-0813","2019/10/12 13:49:18","新北市五股區民義路二段22巷27號","121.423835","25.0979983333333","6501500","五股區"
"234022","9380-KE","2019/10/12 13:49:25","新北市永和區永和路二段84號","121.514906666667","25.0114833333333","6500400","永和區"
"234076","969-R7","2019/10/12 13:49:26","新北市永和區民族街39號","121.51859","24.999115","6500400","永和區"
"234072","AAC-211","2019/10/12 13:49:21","新北市永和區豫溪街215巷25號","121.523531666667","25.0103083333333","6500400","永和區"
"234066","AAC-212","2019/10/12 13:49:32","新北市永和區永貞路355巷22號","121.508555","25.0072666666667","6500400","永和區"
"234001","AAC-295","2019/10/12 13:49:14","新北市永和區永和路一段107號","121.51391","25.0079116666667","6500400","永和區"
"243001","267-VK","2019/10/12 13:49:21","新北市泰山區坡雅頭3-1號","121.438685","25.0454433333333","6501600","泰山區"
"231030","002-UM","2019/10/12 13:49:28","新北市新店區安康路一段46巷4號","121.530676666667","24.9611266666667","6500600","新店區"
"231024","0291-UT","2019/10/12 13:49:19","新北市新店區新生街37號","121.539383333333","24.9669266666667","6500600","新店區"
"231027","0293-UT","2019/10/12 13:49:27","新北市新店區北宜路一段105巷42號","121.540615","24.95578","6500600","新店區"
"231005","046-UY","2019/10/12 13:49:20","新北市新店區寶中路94號","121.548948333333","24.9801216666667","6500600","新店區"
"231029","106-UY","2019/10/12 13:49:13","新北市新店區安康路二段125-1號","121.512403333333","24.9608866666667","6500600","新店區"
"231018","107-UY","2019/10/12 13:49:19","新北市新店區中正路402號","121.5347","24.9775233333333","6500600","新店區"
"231013","108-UY","2019/10/12 13:49:26","新北市新店區二十張路21號","121.539161666667","24.98219","6500600","新店區"
"231036","110-UY","2019/10/12 13:49:24","新北市新店區安祥路110巷30弄1號","121.473901666667","24.9564633333333","6500600","新店區"
"231033","256-BX","2019/10/12 13:49:17","新北市新店區莒光路44巷21弄11-6號","121.518415","24.952245","6500600","新店區"
"231023","260-TV","2019/10/12 13:49:20","新北市新店區國校路41號","121.537955","24.9553483333333","6500600","新店區"
"231003","268-BY","2019/10/12 13:49:19","新北市新店區中興路一段162號","121.542581666667","24.9640833333333","6500600","新店區"
"231035","278-BY","2019/10/12 13:49:27","新北市新店區安忠路57巷11弄1號","121.51362","24.9581783333333","6500600","新店區"
"231017","AAD-862","2019/10/12 13:49:15","新北市新店區竹林路86號","121.55426","24.9502216666667","6500600","新店區"
"231006","355-BY","2019/10/12 13:49:13","新北市新店區北宜路一段182號","121.540903333333","24.9528683333333","6500600","新店區"
"231038","3712-VJ","2019/10/12 13:49:26","新北市新店區安華路30巷1號","121.519561666667","24.9592616666667","6500600","新店區"
"231025","4715-K9","2019/10/12 13:49:32","新北市新店區中正路275巷35號","121.536663333333","24.97267","6500600","新店區"
"231020","512-UM","2019/10/12 13:49:13","新北市新店區新烏路一段130號","121.544316666667","24.933515","6500600","新店區"
"231002","619-UM","2019/10/12 13:49:08","新北市新店區溪園路249號","121.52405","24.9823066666667","6500600","新店區"
"231034","641-BX","2019/10/12 13:49:22","新北市新店區達觀路14巷1號","121.503621666667","24.9410716666667","6500600","新店區"
"231012","KED-0819","2019/10/12 13:49:23","新北市新店區德正街27巷29弄12號","121.545805","24.9718516666667","6500600","新店區"
"231010","719-UM","2019/10/12 13:49:25","新北市新店區中正路283號","121.537538333333","24.9744483333333","6500600","新店區"
"231026","720-UM","2019/10/12 13:49:30","新北市新店區中正路331號","121.535968333333","24.9750216666667","6500600","新店區"
"231028","897-TW","2019/10/12 13:49:23","新北市新店區安和路二段216號","121.517543333333","24.9758016666667","6500600","新店區"
"231001","898-TW","2019/10/12 13:49:29","新北市新店區三民路98-4號","121.533966666667","24.9733216666667","6500600","新店區"
"231004","899-TW","2019/10/12 13:49:23","新北市新店區中興路三段1-17號","121.546663333333","24.9762","6500600","新店區"
"231037","AKT-0513","2019/10/12 13:49:15","新北市新店區安康路三段359巷12弄26號","121.483945","24.9493383333333","6500600","新店區"
"235030","003-UY","2019/10/12 13:49:29","新北市中和區廣福路56巷6號","121.503531666667","25.00231","6500300","中和區"
"235027","006-UY","2019/10/12 13:49:26","新北市中和區連城路319巷3弄2號","121.489185","24.9954716666667","6500300","中和區"
"235020","096-UM","2019/10/12 13:49:11","新北市中和區中正路1206巷10號","121.48027","25.01111","6500300","中和區"
"235003","097-UM","2019/10/12 13:49:23","新北市中和區景平路64巷13弄22號","121.521426666667","24.9915933333333","6500300","中和區"
"235029","098-UM","2019/10/12 13:49:29","新北市中和區莊敬路33巷5弄4號","121.499578333333","25.006775","6500300","中和區"
"235004","150-BY","2019/10/12 13:49:29","新北市中和區安平路59號","121.509708333333","24.99522","6500300","中和區"
"235022","151-BY","2019/10/12 13:49:13","新北市中和區連城路428巷3-3號","121.480013333333","24.9952183333333","6500300","中和區"
"235019","183-VK","2019/10/12 13:49:14","新北市板橋區民族路276巷38號","121.469561666667","25.005955","6500300","中和區"
"235002","185-VK","2019/10/12 13:49:30","新北市中和區立人街46號","121.517841666667","24.99403","6500300","中和區"
"235031","255-BX","2019/10/12 13:49:23","新北市中和區新生街186巷1弄28號","121.483391666667","24.9985233333333","6500300","中和區"
"235008","293-VK","2019/10/12 13:49:27","新北市中和區中興街167號","121.499866666667","24.99065","6500300","中和區"
"235036","301-VK","2019/10/12 13:49:18","新北市中和區中山路二段41號","121.504568333333","25.0050916666667","6500300","中和區"
"235007","352-BY","2019/10/12 13:49:17","新北市中和區成功路23號","121.526216666667","24.9936166666667","6500300","中和區"
"235006","KEA-2878","2019/10/12 13:49:26","新北市中和區秀朗路三段76巷1號","121.526211666667","24.9940016666667","6500300","中和區"
"235014","4979-A6","2019/10/12 13:49:11","新北市中和區忠孝街62巷9弄10號","121.513161666667","24.984035","6500300","中和區"
"235033","4980-A6","2019/10/12 13:49:13","新北市中和區南山路52巷18號","121.501395","24.997345","6500300","中和區"
"235034","558-UM","2019/10/12 13:49:27","新北市中和區景新街127號","121.505901666667","24.9974616666667","6500300","中和區"
"235009","565-BX","2019/10/12 13:49:32","新北市中和區景新街467巷14號","121.513946666667","24.9882616666667","6500300","中和區"
"235024","KED-0823","2019/10/12 13:49:17","新北市中和區民治街27巷4號","121.475486666667","25.0011133333333","6500300","中和區"
"235018","640-BX","2019/10/12 13:49:30","新北市中和區國光街68號","121.470491666667","25.0004533333333","6500300","中和區"
"235011","732-UM","2019/10/12 13:49:29","新北市中和區興南路二段34巷28弄2號","121.50503","24.9864783333333","6500300","中和區"
"235010","733-UM","2019/10/12 13:49:21","新北市中和區興南路一段162號","121.508195","24.9866666666667","6500300","中和區"
"235074","783-BX","2019/10/12 13:49:14","新北市中和區建一路148號","121.488086666667","24.9988033333333","6500300","中和區"
"235021","801-TS","2019/10/12 13:49:27","新北市中和區民利街67號","121.478681666667","24.99842","6500300","中和區"
"235005","802-TS","2019/10/12 13:49:19","新北市中和區永貞路268號","121.513618333333","25.0038","6500300","中和區"
"235016","805-TS","2019/10/12 13:49:21","新北市中和區興南路二段399巷57號","121.50128","24.9762916666667","6500300","中和區"
"235012","896-TW","2019/10/12 13:49:31","新北市中和區南山路401號","121.506833333333","24.9899933333333","6500300","中和區"
"235017","900-TW","2019/10/12 13:49:29","新北市中和區民德路292號","121.467591666667","24.99566","6500300","中和區"
"235028","911-UM","2019/10/12 13:49:32","新北市中和區泰和街23號","121.499515","25.0001916666667","6500300","中和區"
"235015","157-BY","2019/10/12 13:49:25","新北市中和區忠孝街106巷43號","121.513635","24.9843233333333","6500300","中和區"
"235001","AAC-213","2019/10/12 13:49:11","新北市永和區民生路38號","121.522503333333","24.99678","6500300","中和區"
"235023","AAC-215","2019/10/12 13:49:22","新北市中和區圓通路393巷7號","121.489801666667","24.9887","6500300","中和區"
"220013","072-UY","2019/10/12 13:49:11","新北市板橋區民族路166號","121.464935","25.0085133333333","6500100","板橋區"
"220105","075-UY","2019/10/12 13:49:14","新北市板橋區文化路二段124巷3號","121.470425","25.0260866666667","6500100","板橋區"
"220017","AAD-861","2019/10/12 13:49:20","新北市板橋區華興街68號","121.457428333333","25.0049483333333","6500100","板橋區"
"220016","120-SR","2019/10/12 13:49:31","新北市板橋區大同街21巷24號","121.477051666667","25.0276016666667","6500100","板橋區"
"247003","500-BY","2019/10/12 13:49:22","新北市蘆洲區中原路3號","121.461505","25.0833433333333","6501400","蘆洲區"
"247001","341-TH","2019/10/12 13:49:27","新北市蘆洲區長榮路681號","121.460403333333","25.09217","6501400","蘆洲區"
"247013","056-VK","2019/10/12 13:49:20","新北市蘆洲區三民路155號","121.471481666667","25.0869483333333","6501400","蘆洲區"
"247007","002-UY","2019/10/12 13:49:28","新北市三重區三和路四段420號","121.480598333333","25.0800016666667","6501400","蘆洲區"
"235013","251-BX","2019/10/12 13:49:26","新北市中和區景安路177巷19號","121.506238333333","24.994465","6500300","中和區"
"228005","097-TW","2019/10/12 13:49:14","新北市雙溪區三港里雙澳路100號","121.889336666667","25.0560316666667","6502600","貢寮區"
"228004","212-TW","2019/10/12 13:44:48","新北市貢寮區龍崗里嵩陽街10號","121.901683333333","25.0099666666667","6502600","貢寮區"
"253003","6232-TK","2019/10/12 13:49:24","新北市石門區尖子鹿11號","121.575638333333","25.2801666666667","6502200","石門區"
"253004","6251-TK","2019/10/12 13:49:23","新北市石門區草埔尾34號","121.603658333333","25.26696","6502200","石門區"
"253002","637-UY","2019/10/12 13:49:23","新北市石門區尖山湖3-1號","121.564545","25.24126","6502200","石門區"
"253001","KEC-0718","2019/10/12 13:49:19","新北市石門區八甲55號","121.523998333333","25.2737583333333","6502200","石門區"
"207002","749-BX","2019/10/12 13:49:21","新北市萬里區崁腳里崁腳路166號","121.645083333333","25.1559733333333","6502800","萬里區"
"252005","073-UM","2019/10/12 13:49:21","新北市三芝區圓山里木屐寮38-2號","121.53254","25.2274683333333","6502100","三芝區"
"207001","662-BX","2019/10/12 13:49:12","新北市萬里區磺潭里公館崙36號","121.631321666667","25.2096916666667","6502800","萬里區"
"236040","KED-0685","2019/10/12 13:49:25","新北市土城區城林路6巷80號","121.438595","24.97958","6501300","土城區"
"236074","166-UM","2019/10/12 13:49:22","新北市土城區永寧路36-1號","121.428473333333","24.9591116666667","6501300","土城區"
"236029","253-BX","2019/10/12 13:49:25","新北市土城區城林路6巷80號","121.438438333333","24.97974","6501300","土城區"
"236013","270-VK","2019/10/12 13:49:14","新北市土城區城林路6巷80號","121.438575","24.9797883333333","6501300","土城區"
"236032","271-VK","2019/10/12 13:49:23","新北市土城區城林路6巷80號","121.438475","24.9798333333333","6501300","土城區"
"247011","KED-0683","2019/10/12 13:49:23","新北市蘆洲區環堤大道396號","121.479083333333","25.0961866666667","6501400","蘆洲區"
"236068","KEA-2877","2019/10/12 13:49:29","新北市土城區中正路56巷2號","121.443801666667","24.97535","6501300","土城區"
"236060","752-BX","2019/10/12 13:49:22","新北市土城區城林路6巷80號","121.438465","24.979735","6501300","土城區"
"236057","912-UM","2019/10/12 13:49:15","新北市土城區中華路二段126號","121.437813333333","24.9736433333333","6501300","土城區"
"236045","913-UM","2019/10/12 13:49:16","新北市土城區城林路6巷80號","121.438433333333","24.9797083333333","6501300","土城區"
"236054","AAC-216","2019/10/12 13:49:27","新北市土城區城林路6巷80號","121.438673333333","24.9797816666667","6501300","土城區"
"220027","145-BY","2019/10/12 13:49:15","新北市板橋區大仁街111號","121.452488333333","25.0154916666667","6500100","板橋區"
"220030","610-BX","2019/10/12 13:49:21","新北市板橋區篤行路三段47號","121.428118333333","24.98626","6500100","板橋區"
"220040","267-BY","2019/10/12 13:49:26","新北市板橋區莒光路165巷44號","121.474578333333","25.024995","6500100","板橋區"
"220004","276-BY","2019/10/12 13:49:23","新北市板橋區四川路一段337號","121.458548333333","25.0001416666667","6500100","板橋區"
"220020","277-BY","2019/10/12 13:49:21","新北市板橋區大觀路三段59巷15號","121.434261666667","24.995385","6500100","板橋區"
"220050","280-UM","2019/10/12 13:49:24","新北市板橋區莊敬路123號","121.471903333333","25.0255083333333","6500100","板橋區"
"220019","283-VK","2019/10/12 13:49:25","新北市板橋區館前東路24號","121.460345","25.0071383333333","6500100","板橋區"
"220043","285-UM","2019/10/12 13:49:31","新北市板橋區文化路二段15號","121.468628333333","25.024475","6500100","板橋區"
"220107","286-VK","2019/10/12 13:49:22","新北市板橋區大觀路二段20巷2號","121.444908333333","25.0040783333333","6500100","板橋區"
"220029","287-VK","2019/10/12 13:49:11","新北市板橋區光華街15巷4號","121.45384","25.0118483333333","6500100","板橋區"
"220039","288-VK","2019/10/12 13:49:30","新北市板橋區四維路177巷4弄6號","121.46366","25.0262016666667","6500100","板橋區"
"220009","293-UM","2019/10/12 13:49:27","新北市板橋區富山街109巷63弄24號","121.475353333333","25.0206016666667","6500100","板橋區"
"220010","295-UM","2019/10/12 13:49:13","新北市板橋區中山路二段40巷17號","121.473298333333","25.0148816666667","6500100","板橋區"
"220032","296-UM","2019/10/12 13:49:28","新北市板橋區大觀路二段154-1號","121.441435","24.99887","6500100","板橋區"
"220001","299-UM","2019/10/12 13:49:25","新北市板橋區成功路46號","121.475095","25.01769","6500100","板橋區"
"220023","303-R5","2019/10/12 13:49:15","新北市板橋區南雅東路106號","121.453495","25.0080866666667","6500100","板橋區"
"220041","307-R5","2019/10/12 13:49:33","新北市板橋區文化路一段104巷1弄7-1號","121.465361666667","25.0179733333333","6500100","板橋區"
"220047","317-R6","2019/10/12 13:49:17","新北市板橋區民生路二段240巷42號","121.469486666667","25.02293","6500100","板橋區"
"220038","487-VK","2019/10/12 13:49:22","新北市板橋區文化路二段472號","121.475061666667","25.0327183333333","6500100","板橋區"
"220037","491-VK","2019/10/12 13:49:29","新北市板橋區莒光路23號","121.470091666667","25.0247616666667","6500100","板橋區"
"220104","560-BX","2019/10/12 13:49:31","新北市板橋區中正路275巷68號","121.452773333333","25.01793","6500100","板橋區"
"220052","561-BX","2019/10/12 13:49:23","新北市板橋區文化路一段188巷11弄54號","121.46904","25.0187683333333","6500100","板橋區"
"220028","568-UM","2019/10/12 13:49:15","新北市板橋區大觀路二段265巷72弄35號","121.441038333333","24.9970783333333","6500100","板橋區"
"220011","609-BX","2019/10/12 13:49:12","新北市板橋區中山路二段113-1號","121.474635","25.0163166666667","6500100","板橋區"
"220034","630-UY","2019/10/12 13:49:15","新北市板橋區大智街78-3號","121.453776666667","25.01563","6500100","板橋區"
"220005","686-BX","2019/10/12 13:49:24","新北市板橋區重慶路182號","121.462573333333","25.0034766666667","6500100","板橋區"
"220025","687-BX","2019/10/12 13:49:31","新北市板橋區金門街50號","121.43321","24.993105","6500100","板橋區"
"220042","689-BX","2019/10/12 13:49:27","新北市板橋區民生路三段66號","121.466905","25.0256466666667","6500100","板橋區"
"220002","741-BX","2019/10/12 13:49:31","新北市板橋區館前東路17號","121.46012","25.0073466666667","6500100","板橋區"
"220051","KEA-2699","2019/10/12 13:49:24","新北市板橋區田單街2巷30號","121.4815","25.0277333333333","6500100","板橋區"
"220003","827-TW","2019/10/12 13:49:30","新北市板橋區忠孝路92號","121.461778333333","25.0021533333333","6500100","板橋區"
"220022","895-R6","2019/10/12 13:49:22","新北市板橋區府中路30號","121.458641666667","25.0096266666667","6500100","板橋區"
"220021","985-R7","2019/10/12 13:49:30","新北市板橋區府中路67號","121.457986666667","25.0093483333333","6500100","板橋區"
"220046","AAC-210","2019/10/12 13:49:29","新北市板橋區四維路137巷23號","121.464025","25.0247416666667","6500100","板橋區"
"220012","AAC-253","2019/10/12 13:49:25","新北市板橋區漢生東路166號","121.467103333333","25.0149283333333","6500100","板橋區"
"235032","KEA-2873","2019/10/12 13:49:21","新北市中和區圓通路162巷14號","121.496705","24.99562","6500300","中和區"
"235025","KEA-2875","2019/10/12 13:49:09","新北市中和區民享街73號","121.47425","25.0020266666667","6500300","中和區"
"235073","KEA-2876","2019/10/12 13:49:28","新北市中和區中山路二段340巷30號","121.493463333333","25.003615","6500300","中和區"
