"lineid","car","time","location","longitude","latitude","cityid","cityname"
"231030","002-UM","2019/10/12 15:39:27","新北市新店區新和街91號","121.520843333333","24.9866183333333","6500600","新店區"
"231005","046-UY","2019/10/12 15:39:20","新北市新店區中央路232號","121.529451666667","24.972625","6500600","新店區"
"231029","106-UY","2019/10/12 15:39:13","新北市新店區安康路三段242-1號","121.487821666667","24.95184","6500600","新店區"
"231018","107-UY","2019/10/12 15:39:19","新北市新店區中正路663巷7弄15號","121.533018333333","24.9901083333333","6500600","新店區"
"231013","108-UY","2019/10/12 15:39:26","新北市新店區永業路81巷1弄14號","121.53025","24.9502033333333","6500600","新店區"
"231036","110-UY","2019/10/12 15:39:24","新北市新店區安祥路41號","121.484871666667","24.9603716666667","6500600","新店區"
"231039","187-VK","2019/10/12 15:39:18","新北市新店區寶元路二段64巷1號","121.547216666667","24.9811316666667","6500600","新店區"
"231033","256-BX","2019/10/12 15:39:16","新北市新店區雙城路133號","121.497988333333","24.9389083333333","6500600","新店區"
"231023","260-TV","2019/10/12 15:39:20","新北市新店區大新街9巷5號","121.543521666667","24.9679416666667","6500600","新店區"
"231003","268-BY","2019/10/12 15:39:19","新北市新店區寶興路60巷3號","121.549915","24.9718766666667","6500600","新店區"
"231035","278-BY","2019/10/12 15:39:27","新北市新店區安興路83-3號","121.515428333333","24.9755516666667","6500600","新店區"
"231017","AAD-862","2019/10/12 15:39:15","新北市新店區北宜路二段327號","121.557378333333","24.9540066666667","6500600","新店區"
"231038","3712-VJ","2019/10/12 15:39:26","新北市新店區安康路二段242巷14號","121.508718333333","24.9598233333333","6500600","新店區"
"231020","512-UM","2019/10/12 15:39:32","新北市新店區新烏路一段247號","121.546836666667","24.930465","6500600","新店區"
"231034","641-BX","2019/10/12 15:39:22","新北市新店區如意街93號","121.495235","24.94695","6500600","新店區"
"231012","KED-0819","2019/10/12 15:39:23","新北市新店區寶強路17號","121.54308","24.979385","6500600","新店區"
"231026","720-UM","2019/10/12 15:39:31","新北市新店區三民路51巷1弄2號","121.536688333333","24.9705533333333","6500600","新店區"
"231028","897-TW","2019/10/12 15:39:23","新北市新店區僑義路34號","121.500698333333","24.9496416666667","6500600","新店區"
"231037","AKT-0513","2019/10/12 15:39:15","新北市新店區安興路85-9號","121.514928333333","24.9748483333333","6500600","新店區"
"241028","022-UY","2019/10/12 15:39:19","新北市三重區重新路四段121號","121.48472","25.0518566666667","6500200","三重區"
"241015","062-VK","2019/10/12 15:39:29","新北市三重區重新路四段121號","121.485286666667","25.0520833333333","6500200","三重區"
"241017","063-VK","2019/10/12 15:39:22","新北市三重區新北大道一段7號","121.489886666667","25.0613816666667","6500200","三重區"
"241007","066-VK","2019/10/12 15:39:13","新北市三重區重新路四段121號","121.484976666667","25.0519116666667","6500200","三重區"
"241013","270-UM","2019/10/12 15:39:28","新北市三重區忠孝路二段34號","121.48557","25.07079","6500200","三重區"
"241031","462-BY","2019/10/12 15:39:26","新北市三重區重新路四段121號","121.48491","25.0520416666667","6500200","三重區"
"241020","478-VK","2019/10/12 15:39:14","新北市三重區忠孝路二段95號","121.484231666667","25.07007","6500200","三重區"
"241014","543-UM","2019/10/12 15:39:11","新北市三重區重新路四段121號","121.485118333333","25.0520566666667","6500200","三重區"
"241012","743-BX","2019/10/12 15:39:24","新北市三重區重新路二段27號","121.497858333333","25.0621783333333","6500200","三重區"
"241029","942-UM","2019/10/12 15:39:31","新北市三重區中正南路252巷5號","121.493675","25.0526933333333","6500200","三重區"
"241033","AAC-255","2019/10/12 15:39:21","新北市三重區重新路五段572號","121.469875","25.0454566666667","6500200","三重區"
"235004","150-BY","2019/10/12 15:39:29","新北市新店區薏仁坑路11號","121.498376666667","24.9590466666667","6500300","中和區"
"235019","183-VK","2019/10/12 15:39:14","新北市五股區新城三路61號","121.449335","25.0945016666667","6500300","中和區"
"235033","4980-A6","2019/10/12 15:39:33","新北市中和區連城路469巷21弄3號","121.4839","24.9951866666667","6500300","中和區"
"235045","565-BX","2019/10/12 15:10:47","新北市中和區員山路36巷13號","121.484241666667","24.9910366666667","6500300","中和區"
"235018","640-BX","2019/10/12 15:39:19","新北市新店區安忠路57巷13號","121.513626666667","24.9571833333333","6500300","中和區"
"235023","AAC-215","2019/10/12 15:39:22","新北市中和區員山路36巷12號","121.483843333333","24.9912783333333","6500300","中和區"
"227002","642-TC","2019/10/12 15:39:28","新北市雙溪區牡丹里頂坪5-1號","121.863905","25.0387783333333","6502500","雙溪區"
"207001","662-BX","2019/10/12 15:33:12","新北市萬里區龜吼里新墾丁路122號","121.678271666667","25.20032","6502800","萬里區"
"236074","166-UM","2019/10/12 15:39:22","新北市土城區龍泉路8號","121.409433333333","24.94988","6501300","土城區"
"236029","253-BX","2019/10/12 15:39:24","新北市土城區學成路128巷13弄2號","121.449603333333","24.9901266666667","6501300","土城區"
"236024","269-VK","2019/10/12 15:39:30","新北市土城區裕生路83巷16弄2號","121.447265","24.9841416666667","6501300","土城區"
"236013","270-VK","2019/10/12 15:39:14","新北市板橋區四川路二段14號","121.456175","24.996285","6501300","土城區"
"236068","KEA-2877","2019/10/12 15:39:29","新北市土城區大安路2號","121.432615","24.9654516666667","6501300","土城區"
"236017","401-BY","2019/10/12 15:39:13","新北市土城區和城路二段253-8號","121.473886666667","24.98734","6501300","土城區"
"236060","752-BX","2019/10/12 15:39:21","新北市土城區立德路135巷10號","121.464831666667","24.986845","6501300","土城區"
"236057","912-UM","2019/10/12 15:39:15","新北市土城區中央路一段283號","121.444568333333","24.9845616666667","6501300","土城區"
"236045","913-UM","2019/10/12 15:39:16","新北市土城區金城路三段205-1號","121.470583333333","24.98923","6501300","土城區"
"236054","AAC-216","2019/10/12 15:39:27","新北市土城區中華路一段217號","121.442286666667","24.984385","6501300","土城區"
"220034","630-UY","2019/10/12 15:39:15","新北市樹林區環河路600號","121.404255","24.9693816666667","6500100","板橋區"
