"lineid","car","time","location","longitude","latitude","cityid","cityname"
"231018","107-UY","2019/10/12 16:19:19","新北市新店區光華街38巷16號","121.515993333333","24.9703766666667","6500600","新店區"
"231046","719-UM","2019/10/12 16:19:01","新北市新店區灣潭路3-5號","121.53808","24.9508116666667","6500600","新店區"
"241011","013-R5","2019/10/12 16:19:24","新北市三重區龍濱路190號","121.501161666667","25.073295","6500200","三重區"
"241028","022-UY","2019/10/12 16:17:58","新北市三重區環河南路118號","121.497988333333","25.0560716666667","6500200","三重區"
"241008","059-VK","2019/10/12 16:19:16","新北市三重區力行路二段136巷45弄12號","121.479056666667","25.0753733333333","6500200","三重區"
"241015","062-VK","2019/10/12 16:19:29","新北市三重區福德北路58號","121.50185","25.065815","6500200","三重區"
"241017","063-VK","2019/10/12 16:19:22","新北市三重區大同北路85號","121.494861666667","25.0636116666667","6500200","三重區"
"241024","065-VK","2019/10/12 16:19:30","新北市三重區中正北路145巷1弄1號","121.483035","25.067475","6500200","三重區"
"241007","066-VK","2019/10/12 16:19:13","新北市三重區三和路四段163巷117號","121.487196666667","25.0797616666667","6500200","三重區"
"241003","091-VK","2019/10/12 16:19:27","新北市三重區仁義街220巷14號","121.494916666667","25.08387","6500200","三重區"
"241006","262-UM","2019/10/12 16:19:24","新北市三重區永福街46巷31弄12號","121.481826666667","25.0773433333333","6500200","三重區"
"241016","266-UM","2019/10/12 16:19:30","新北市三重區大仁街37號","121.492913333333","25.0654333333333","6500200","三重區"
"241009","267-UM","2019/10/12 16:19:23","新北市三重區溪尾街196巷14號","121.487226666667","25.0805916666667","6500200","三重區"
"241018","268-UM","2019/10/12 16:19:25","新北市三重區重陽路三段7號","121.488998333333","25.0663616666667","6500200","三重區"
"241032","269-UM","2019/10/12 16:19:14","新北市三重區三陽路100巷3弄13號","121.483058333333","25.0581133333333","6500200","三重區"
"241013","270-UM","2019/10/12 16:19:27","新北市三重區龍門路82號","121.497086666667","25.072815","6500200","三重區"
"241025","271-UM","2019/10/12 16:19:26","新北市三重區中正北路560巷100弄17-1號","121.472835","25.06828","6500200","三重區"
"241031","462-BY","2019/10/12 16:19:26","新北市三重區重陽路一段20巷4號","121.486256666667","25.0564566666667","6500200","三重區"
"241004","475-VK","2019/10/12 16:19:11","新北市三重區仁愛街377巷134號","121.493721666667","25.08176","6500200","三重區"
"241020","478-VK","2019/10/12 16:19:20","新北市三重區後竹圍街272號","121.483765","25.0709816666667","6500200","三重區"
"241014","543-UM","2019/10/12 16:19:31","新北市三重區河邊北街96-1號","121.504013333333","25.069925","6500200","三重區"
"241023","545-UM","2019/10/12 16:19:13","新北市三重區忠孝路三段84巷1號","121.480171666667","25.0646766666667","6500200","三重區"
"241001","547-UM","2019/10/12 16:19:24","新北市三重區仁愛街351號","121.49194","25.0798133333333","6500200","三重區"
"241019","KEA-2593","2019/10/12 16:19:25","新北市三重區重陽路三段95號","121.490243333333","25.067875","6500200","三重區"
"241005","AAD-863","2019/10/12 16:19:16","新北市三重區溪尾街300-2號","121.487461666667","25.0836616666667","6500200","三重區"
"241012","743-BX","2019/10/12 16:19:24","新北市三重區龍門路255號","121.502445","25.0742066666667","6500200","三重區"
"241026","887-TS","2019/10/12 16:19:29","新北市三重區正義南路97號","121.49855","25.059435","6500200","三重區"
"241029","942-UM","2019/10/12 16:19:11","新北市三重區中正南路269號","121.493266666667","25.0522366666667","6500200","三重區"
"241033","AAC-255","2019/10/12 16:19:21","新北市三重區重新路五段328號","121.477363333333","25.0478816666667","6500200","三重區"
"235054","640-BX","2019/10/12 16:19:19","新北市中和區和城路一段271巷1號","121.485418333333","24.991655","6500300","中和區"
"224007","285-BY","2019/10/12 16:19:18","新北市瑞芳區大埔路110-4號","121.762248333333","25.1017066666667","6501200","瑞芳區"
"224009","275-VK","2019/10/12 16:09:26","新北市瑞芳區民權街3-1號","121.809285","25.108415","6501200","瑞芳區"
"224005","271-BY","2019/10/12 16:19:14","新北市瑞芳區阿美家園53號","121.820068333333","25.1177083333333","6501200","瑞芳區"
"227002","642-TC","2019/10/12 16:19:28","新北市雙溪區上林里內平林111號","121.826178333333","25.0269933333333","6502500","雙溪區"
"227001","400-TW","2019/10/12 16:19:20","新北市雙溪區牡丹里中正路61巷16號","121.86608","25.0427533333333","6502500","雙溪區"
"251013","180-VK","2019/10/12 16:19:25","新北市淡水區北新路一段129-1號","121.457008333333","25.1818983333333","6501000","淡水區"
"251008","181-VK","2019/10/12 16:17:08","新北市淡水區中正東路36號","121.448805","25.1657683333333","6501000","淡水區"
"251014","577-R6","2019/10/12 16:19:20","新北市淡水區觀海路27號","121.418605","25.18179","6501000","淡水區"
