"lineid","car","time","location","longitude","latitude","cityid","cityname"
"249002","305-UY","2019/10/12 16:39:12","新北市八里區博物館路10-1號","121.415236666667","25.1640366666667","6502300","八里區"
"249003","593-UM","2019/10/12 16:39:12","新北市八里區中山路二段240號","121.402925","25.1522383333333","6502300","八里區"
"244007","080-UY","2019/10/12 16:39:18","新北市林口區粉寮69號","121.405015","25.0908916666667","6501700","林口區"
"231046","719-UM","2019/10/12 16:39:21","新北市新店區灣潭路3-5號","121.538041666667","24.9508083333333","6500600","新店區"
"241011","013-R5","2019/10/12 16:39:24","新北市三重區仁愛街53巷1號","121.496736666667","25.0719983333333","6500200","三重區"
"241028","022-UY","2019/10/12 16:39:18","新北市三重區重新路三段40號","121.494503333333","25.061455","6500200","三重區"
"241008","059-VK","2019/10/12 16:39:29","新北市三重區永安北路一段27巷41號","121.47762","25.0755466666667","6500200","三重區"
"241002","060-VK","2019/10/12 16:39:30","新北市三重區仁義街241巷46號","121.497363333333","25.0832416666667","6500200","三重區"
"241015","062-VK","2019/10/12 16:39:29","新北市三重區文化北路41號","121.498966666667","25.06522","6500200","三重區"
"241017","063-VK","2019/10/12 16:39:22","新北市三重區中正北路25巷8號","121.493431666667","25.0629083333333","6500200","三重區"
"241024","065-VK","2019/10/12 16:39:30","新北市三重區中正北路315巷6弄76號","121.477105","25.0724816666667","6500200","三重區"
"241007","066-VK","2019/10/12 16:39:13","新北市三重區仁美街86號","121.485888333333","25.07967","6500200","三重區"
"241003","091-VK","2019/10/12 16:39:27","新北市三重區五華街71巷87號","121.494311666667","25.0838033333333","6500200","三重區"
"241006","262-UM","2019/10/12 16:39:24","新北市三重區車路頭街140號","121.483946666667","25.0755966666667","6500200","三重區"
"241016","266-UM","2019/10/12 16:39:30","新北市三重區大智街17號","121.494531666667","25.0652783333333","6500200","三重區"
"241009","267-UM","2019/10/12 16:39:23","新北市三重區三和路四段203巷88號","121.484178333333","25.0800733333333","6500200","三重區"
"241018","268-UM","2019/10/12 16:39:25","新北市三重區六張街79號","121.493335","25.0700666666667","6500200","三重區"
"241032","269-UM","2019/10/12 16:39:14","新北市三重區中山路40巷1-1號","121.485815","25.0612583333333","6500200","三重區"
"241013","270-UM","2019/10/12 16:39:27","新北市三重區三和路三段101巷66號","121.49632","25.0730433333333","6500200","三重區"
"241025","271-UM","2019/10/12 16:39:26","新北市三重區中正北路333號","121.473566666667","25.0716416666667","6500200","三重區"
"241030","KED-0822","2019/10/12 16:39:13","新北市三重區環河南路253號","121.491245","25.05056","6500200","三重區"
"241031","462-BY","2019/10/12 16:39:26","新北市三重區重新路四段41巷16號","121.487585","25.058075","6500200","三重區"
"241004","475-VK","2019/10/12 16:39:11","新北市三重區五福街40號","121.492205","25.08096","6500200","三重區"
"241020","478-VK","2019/10/12 16:39:14","新北市三重區忠孝路二段31號","121.486218333333","25.07122","6500200","三重區"
"241014","543-UM","2019/10/12 16:39:31","新北市三重區長安街120號","121.502923333333","25.067925","6500200","三重區"
"241023","545-UM","2019/10/12 16:39:13","新北市三重區忠孝路三段50巷43號","121.482858333333","25.064365","6500200","三重區"
"241001","547-UM","2019/10/12 16:39:24","新北市三重區仁政街86巷15號","121.49178","25.0774083333333","6500200","三重區"
"241019","KEA-2593","2019/10/12 16:39:25","新北市三重區力行路一段91號","121.48623","25.0681633333333","6500200","三重區"
"241005","AAD-863","2019/10/12 16:39:27","新北市三重區仁華街65號","121.484316666667","25.0828016666667","6500200","三重區"
"241012","743-BX","2019/10/12 16:39:24","新北市三重區公園街21號","121.499143333333","25.0735516666667","6500200","三重區"
"241022","KED-0820","2019/10/12 16:39:25","新北市三重區貴陽街20號","121.484201666667","25.061985","6500200","三重區"
"241026","887-TS","2019/10/12 16:39:29","新北市三重區和平街39號","121.501491666667","25.062465","6500200","三重區"
"241029","942-UM","2019/10/12 16:39:31","新北市三重區集美街112巷23號","121.48992","25.0542033333333","6500200","三重區"
"241033","AAC-255","2019/10/12 16:39:21","新北市三重區光復路二段131號","121.472085","25.0590083333333","6500200","三重區"
"235054","640-BX","2019/10/12 16:39:19","新北市中和區和城路一段271巷1號","121.485411666667","24.9917166666667","6500300","中和區"
"247014","056-VK","2019/10/12 16:39:29","新北市蘆洲區環堤大道365號","121.455998333333","25.0974266666667","6501400","蘆洲區"
"247008","002-UY","2019/10/12 16:39:10","新北市五股區中興路二段37巷22號","121.461091666667","25.07472","6501400","蘆洲區"
"224007","285-BY","2019/10/12 16:39:18","新北市瑞芳區月眉路36-2號","121.761006666667","25.111585","6501200","瑞芳區"
"224009","275-VK","2019/10/12 16:39:18","新北市瑞芳區逢甲路17號","121.809491666667","25.1084116666667","6501200","瑞芳區"
"224005","271-BY","2019/10/12 16:39:14","新北市瑞芳區明里路122號","121.863595","25.1225633333333","6501200","瑞芳區"
"227002","642-TC","2019/10/12 16:39:08","新北市雙溪區長源里內柑腳14號","121.803115","25.0155933333333","6502500","雙溪區"
"227001","400-TW","2019/10/12 16:39:20","新北市雙溪區牡丹里聖南1-1號","121.860528333333","25.050045","6502500","雙溪區"
"251015","KEA-2871","2019/10/12 16:39:24","新北市淡水區中正路26巷3號","121.434696666667","25.1738333333333","6501000","淡水區"
"251016","179-VK","2019/10/12 16:39:30","新北市淡水區濱海路一段207號","121.439968333333","25.18809","6501000","淡水區"
"251013","180-VK","2019/10/12 16:39:25","新北市淡水區楓樹湖12-1號","121.498381666667","25.1875566666667","6501000","淡水區"
"251008","181-VK","2019/10/12 16:39:15","新北市淡水區樹梅坑3號","121.471925","25.1464216666667","6501000","淡水區"
"251007","442-VK","2019/10/12 16:39:30","新北市淡水區新民街一段80號","121.42941","25.1850483333333","6501000","淡水區"
"251014","577-R6","2019/10/12 16:39:20","新北市淡水區淡金路四段478號","121.452425","25.2239366666667","6501000","淡水區"
"251011","650-BX","2019/10/12 16:39:31","新北市淡水區中正路382號","121.429881666667","25.17528","6501000","淡水區"
"252002","178-VK","2019/10/12 16:39:14","新北市三芝區芝柏路87號","121.510911666667","25.257165","6502100","三芝區"
"252001","KED-0821","2019/10/12 16:39:29","新北市三芝區埔坪里埔頭坑57號","121.507755","25.26465","6502100","三芝區"
