"lineid","car","time","location","longitude","latitude","cityid","cityname"
"249005","172-UM","2019/10/12 17:29:30","新北市八里區荖阡坑路69-20號","121.406646666667","25.1263216666667","6502300","八里區"
"249001","173-UM","2019/10/12 17:29:29","新北市八里區龍米路三段48-3號","121.426668333333","25.1594683333333","6502300","八里區"
"249004","303-UY","2019/10/12 17:29:27","新北市八里區民治街65號","121.414016666667","25.157165","6502300","八里區"
"249002","305-UY","2019/10/12 17:29:12","新北市八里區龍米路一段267號","121.449276666667","25.1381816666667","6502300","八里區"
"249003","759-BX","2019/10/12 17:29:13","新北市八里區中山路二段398號","121.400641666667","25.1478816666667","6502300","八里區"
"232011","375-UM","2019/10/12 17:29:13","新北市坪林區鶯子瀨12-1號","121.715016666667","24.912005","6502000","坪林區"
"244025","069-UM","2019/10/12 17:29:16","新北市林口區文化二路一段241巷28號","121.365993333333","25.0715516666667","6501700","林口區"
"244007","080-UY","2019/10/12 17:29:18","新北市林口區文化一路二段329號","121.386063333333","25.0863183333333","6501700","林口區"
"244023","483-VK","2019/10/12 17:29:12","新北市林口區東明三街391號","121.392836666667","25.0714833333333","6501700","林口區"
"244017","485-VK","2019/10/12 17:29:31","新北市林口區文化二路一段170號","121.368916666667","25.071735","6501700","林口區"
"244009","656-BX","2019/10/12 17:29:18","新北市林口區寶林路117號","121.383363333333","25.0853966666667","6501700","林口區"
"244011","701-TV","2019/10/12 17:29:25","新北市林口區佳林路154號","121.384158333333","25.07705","6501700","林口區"
"244021","838-TS","2019/10/12 17:29:11","新北市林口區粉寮路一段3號","121.396168333333","25.0760116666667","6501700","林口區"
"243013","646-TV","2019/10/12 17:29:22","新北市泰山區黎明路25號","121.422036666667","25.060635","6501600","泰山區"
"231046","719-UM","2019/10/12 17:17:21","新北市新店區直潭六街64號","121.532228333333","24.94001","6500600","新店區"
"241011","013-R5","2019/10/12 17:29:25","新北市三重區河邊北街102號","121.503778333333","25.0706983333333","6500200","三重區"
"241015","062-VK","2019/10/12 17:29:30","新北市三重區開元街30號","121.503688333333","25.0658283333333","6500200","三重區"
"241017","063-VK","2019/10/12 17:29:22","新北市三重區重新路三段45-3號","121.493225","25.06174","6500200","三重區"
"241024","065-VK","2019/10/12 17:29:32","新北市三重區大勇街45號","121.482168333333","25.07181","6500200","三重區"
"241007","066-VK","2019/10/12 17:29:33","新北市三重區慈愛街72號","121.487536666667","25.0795933333333","6500200","三重區"
"241003","091-VK","2019/10/12 17:29:07","新北市三重區五華街141巷58號","121.493598333333","25.0868066666667","6500200","三重區"
"241006","262-UM","2019/10/12 17:29:24","新北市五股區更洲路32巷8弄13號","121.459613333333","25.079875","6500200","三重區"
"241016","266-UM","2019/10/12 17:29:29","新北市三重區信義西街41號","121.495341666667","25.0642483333333","6500200","三重區"
"241009","267-UM","2019/10/12 17:29:23","新北市三重區永安北路一段9號","121.476073333333","25.0748683333333","6500200","三重區"
"241018","268-UM","2019/10/12 17:29:25","新北市三重區重陽路三段7號","121.488906666667","25.066365","6500200","三重區"
"241032","269-UM","2019/10/12 17:29:14","新北市三重區名源街44號","121.482378333333","25.05944","6500200","三重區"
"241013","270-UM","2019/10/12 17:29:27","新北市三重區仁愛街125巷34號","121.49783","25.07607","6500200","三重區"
"241030","KED-0822","2019/10/12 17:29:33","新北市三重區竹圍(仔)街17-5號","121.48688","25.04746","6500200","三重區"
"241020","478-VK","2019/10/12 17:29:14","新北市三重區忠孝路三段84巷1號","121.480246666667","25.0648366666667","6500200","三重區"
"241014","543-UM","2019/10/12 17:29:31","新北市三重區長壽街65號","121.501736666667","25.0684733333333","6500200","三重區"
"241023","545-UM","2019/10/12 17:29:32","新北市三重區忠孝路三段84巷34號","121.48164","25.0640983333333","6500200","三重區"
"241019","KEA-2593","2019/10/12 17:29:25","新北市三重區六張街247號","121.48756","25.06836","6500200","三重區"
"241012","743-BX","2019/10/12 17:29:24","新北市三重區仁興街39巷33號","121.499636666667","25.075945","6500200","三重區"
"241026","887-TS","2019/10/12 17:29:29","新北市三重區福德南路150號","121.500618333333","25.05816","6500200","三重區"
"241033","AAC-255","2019/10/12 17:29:20","新北市三重區興德路133號","121.470208333333","25.0528016666667","6500200","三重區"
"247016","KEA-2869","2019/10/12 17:29:29","新北市蘆洲區光華路22巷27號","121.468631666667","25.0843133333333","6501400","蘆洲區"
"247010","KED-0682","2019/10/12 17:29:16","新北市蘆洲區集賢路406號","121.479901666667","25.0817783333333","6501400","蘆洲區"
"235054","640-BX","2019/10/12 17:29:19","新北市中和區員山路36巷16-2號","121.485263333333","24.9915366666667","6500300","中和區"
"235064","911-UM","2019/10/12 17:29:26","新北市中和區員山路36巷16-3號","121.48506","24.9912633333333","6500300","中和區"
"247006","893-R6","2019/10/12 17:29:33","新北市蘆洲區長安街68巷33號","121.463908333333","25.0810166666667","6501400","蘆洲區"
"247004","500-BY","2019/10/12 17:29:21","新北市蘆洲區長安街223號","121.459645","25.0825783333333","6501400","蘆洲區"
"247002","341-TH","2019/10/12 17:29:25","新北市蘆洲區永樂街38巷57弄1號","121.458408333333","25.0900866666667","6501400","蘆洲區"
"247024","057-VK","2019/10/12 17:29:26","新北市蘆洲區長興路290號","121.460306666667","25.08924","6501400","蘆洲區"
"247014","056-VK","2019/10/12 17:29:29","新北市蘆洲區三民路38-1號","121.475481666667","25.0829933333333","6501400","蘆洲區"
"247018","053-VK","2019/10/12 17:29:13","新北市蘆洲區水湳街18號","121.472538333333","25.0885266666667","6501400","蘆洲區"
"247022","007-UY","2019/10/12 17:29:25","新北市蘆洲區中正路294號","121.46569","25.0908416666667","6501400","蘆洲區"
"247008","002-UY","2019/10/12 17:29:10","新北市蘆洲區信義路34巷62號","121.475181666667","25.077865","6501400","蘆洲區"
"228003","097-TW","2019/10/12 17:29:20","新北市貢寮區仁理村研海街45號","121.9263","25.0411","6502600","貢寮區"
"228001","212-TW","2019/10/12 17:29:16","新北市貢寮區仁理村仁愛路62巷1號","121.925776666667","25.0534316666667","6502600","貢寮區"
"228002","663-BX","2019/10/12 17:29:28","新北市貢寮區福隆里興隆街36號","121.941258333333","25.0171716666667","6502600","貢寮區"
"224010","AGQ-8101","2019/10/12 17:29:28","新北市瑞芳區逢甲路43號","121.80833","25.1089033333333","6501200","瑞芳區"
"224006","676-BX","2019/10/12 17:29:26","新北市瑞芳區靜安路四段107號","121.793166666667","25.1097266666667","6501200","瑞芳區"
"224009","275-VK","2019/10/12 17:29:18","新北市瑞芳區汽車路29號","121.8445","25.10988","6501200","瑞芳區"
"224008","273-VK","2019/10/12 17:29:31","新北市瑞芳區侯硐路310-1號","121.83165","25.0902766666667","6501200","瑞芳區"
"224005","271-BY","2019/10/12 17:29:14","新北市瑞芳區鼻頭路247號","121.912741666667","25.1240516666667","6501200","瑞芳區"
"227002","642-TC","2019/10/12 17:22:15","新北市雙溪區共和里東榮街52號","121.866308333333","25.03368","6502500","雙溪區"
"227001","400-TW","2019/10/12 17:29:20","新北市雙溪區三貂里定福路1-2號","121.850731666667","25.0634633333333","6502500","雙溪區"
"251009","008-UM","2019/10/12 17:29:14","新北市淡水區建設街6號","121.438973333333","25.17264","6501000","淡水區"
"251005","010-UM","2019/10/12 17:29:18","新北市淡水區鄧公路32巷16-1號","121.451195","25.1708766666667","6501000","淡水區"
"251015","KEA-2871","2019/10/12 17:29:24","新北市淡水區三空泉20號","121.469336666667","25.1656266666667","6501000","淡水區"
"251016","179-VK","2019/10/12 17:29:30","新北市淡水區埤島74號","121.454823333333","25.1943566666667","6501000","淡水區"
"251013","180-VK","2019/10/12 17:29:25","新北市淡水區大竹圍5號","121.466568333333","25.19521","6501000","淡水區"
"251008","181-VK","2019/10/12 17:29:15","新北市淡水區大同路124巷18號","121.46363","25.1398983333333","6501000","淡水區"
"251010","413-VK","2019/10/12 17:29:12","新北市淡水區中正路二段211號","121.426181666667","25.1891116666667","6501000","淡水區"
"251007","442-VK","2019/10/12 17:29:30","新北市淡水區民生路47-4號","121.46202","25.1380133333333","6501000","淡水區"
"251012","443-VK","2019/10/12 17:29:16","新北市淡水區北新路111號","121.44808","25.17837","6501000","淡水區"
"251006","561-UM","2019/10/12 17:29:23","新北市淡水區大仁街17號","121.442333333333","25.1751066666667","6501000","淡水區"
"251014","577-R6","2019/10/12 17:29:20","新北市淡水區公埔子20-6號","121.469311666667","25.2264416666667","6501000","淡水區"
"251011","650-BX","2019/10/12 17:29:12","新北市淡水區三空泉7-1號","121.475963333333","25.1612316666667","6501000","淡水區"
"251002","672-BX","2019/10/12 17:29:28","新北市淡水區中正路437號","121.431978333333","25.1747416666667","6501000","淡水區"
"251003","673-BX","2019/10/12 17:29:19","新北市淡水區文化路61號","121.438348333333","25.1728783333333","6501000","淡水區"
"207003","550-UM","2019/10/12 17:29:17","新北市萬里區龜吼里美崙路91號","121.685653333333","25.18504","6502800","萬里區"
"207004","291-VK","2019/10/12 17:29:30","新北市萬里區萬里里成功新村67號","121.688535","25.1745966666667","6502800","萬里區"
"252002","178-VK","2019/10/12 17:29:14","新北市三芝區忠孝街1-15號","121.505588333333","25.2539566666667","6502100","三芝區"
"233002","762-BX","2019/10/12 17:29:11","新北市烏來區環山路64號","121.548285","24.8643516666667","6502900","烏來區"
"247012","KED-0683","2019/10/12 17:29:17","新北市蘆洲區三民路88號","121.473856666667","25.0852866666667","6501400","蘆洲區"
"252001","KED-0821","2019/10/12 17:29:29","新北市三芝區長安街119號","121.498041666667","25.2596583333333","6502100","三芝區"
"242042","AAC-296","2019/10/12 17:29:33","新北市新莊區新樹路113巷19號","121.43922","25.0263783333333","6500500","新莊區"
"242061","986-R7","2019/10/12 17:29:18","新北市新莊區瓊林路59-38號","121.441116666667","25.0234566666667","6500500","新莊區"
"242004","751-BX","2019/10/12 17:29:30","新北市新莊區中港路282號","121.453033333333","25.0441466666667","6500500","新莊區"
"242029","615-BX","2019/10/12 17:29:23","新北市新莊區復興路二段191號","121.45925","25.0444716666667","6500500","新莊區"
"242027","613-BX","2019/10/12 17:29:12","新北市新莊區思源路28號","121.46033","25.0402183333333","6500500","新莊區"
"242058","612-BX","2019/10/12 17:29:18","新北市新莊區中正路400號","121.44194","25.034195","6500500","新莊區"
"242048","566-BX","2019/10/12 17:29:28","新北市新莊區四維路210號","121.421423333333","25.02018","6500500","新莊區"
"242053","497-BY","2019/10/12 17:29:26","新北市新莊區瓊林南路305巷23號","121.435348333333","25.0051316666667","6500500","新莊區"
"242002","441-UM","2019/10/12 17:29:32","新北市新莊區新莊路213號","121.455225","25.0353866666667","6500500","新莊區"
"242007","440-UM","2019/10/12 17:29:21","新北市新莊區中港路286號","121.45309","25.044335","6500500","新莊區"
"242044","415-TV","2019/10/12 17:29:14","新北市新莊區富國路101-1號","121.421378333333","25.0255283333333","6500500","新莊區"
"242013","413-TV","2019/10/12 17:29:29","新北市新莊區中誠街38號","121.451473333333","25.0480466666667","6500500","新莊區"
"242051","400-BY","2019/10/12 17:29:28","新北市新莊區新樹路447號","121.432788333333","25.01349","6500500","新莊區"
"242025","362-BY","2019/10/12 17:29:25","新北市新莊區中港路270號","121.453266666667","25.04397","6500500","新莊區"
"242023","353-BY","2019/10/12 17:29:32","新北市新莊區公園路41號","121.453178333333","25.0401566666667","6500500","新莊區"
"242015","132-UY","2019/10/12 17:29:19","新北市新莊區新泰路146號","121.447918333333","25.0371416666667","6500500","新莊區"
"242039","135-UY","2019/10/12 17:29:26","新北市新莊區民安東路37號","121.428951666667","25.0209733333333","6500500","新莊區"
"242056","172-VK","2019/10/12 17:29:21","新北市新莊區景德路208號","121.44912","25.0337933333333","6500500","新莊區"
"242017","173-VK","2019/10/12 17:29:27","新北市新莊區中港路303號","121.452805","25.0445583333333","6500500","新莊區"
"242031","175-VK","2019/10/12 17:29:20","新北市新莊區新泰路434號","121.443466666667","25.0444916666667","6500500","新莊區"
"242021","KED-0687","2019/10/12 17:29:26","新北市新莊區中港路2號","121.45491","25.0366683333333","6500500","新莊區"
"242036","346-TH","2019/10/12 17:29:23","新北市新莊區建國二路5-1號","121.434771666667","25.0237033333333","6500500","新莊區"
"242011","347-TH","2019/10/12 17:29:29","新北市新莊區中華路二段83號","121.452541666667","25.0481216666667","6500500","新莊區"
"242009","349-TH","2019/10/12 17:29:22","新北市新莊區中原路171號","121.453611666667","25.0542833333333","6500500","新莊區"
"242034","350-TH","2019/10/12 17:29:24","新北市新莊區新莊路374號","121.449268333333","25.0334766666667","6500500","新莊區"
"242019","351-TH","2019/10/12 17:29:20","新北市新莊區中港路61號","121.455305","25.0384266666667","6500500","新莊區"
"238015","755-BX","2019/10/12 17:29:29","新北市樹林區大安路273號","121.418856666667","24.9935683333333","6500700","樹林區"
"238023","601-UM","2019/10/12 17:29:01","新北市樹林區三福街114號","121.406356666667","25.0163333333333","6500700","樹林區"
"238019","599-UM","2019/10/12 17:29:25","新北市樹林區國凱街82-2號","121.421355","24.9791316666667","6500700","樹林區"
"238024","5061-A6","2019/10/12 17:29:15","新北市樹林區中華路6-3號","121.4246","24.9842383333333","6500700","樹林區"
"238018","KEA-2217","2019/10/12 17:29:22","新北市樹林區博愛街226巷7號","121.424346666667","24.988845","6500700","樹林區"
"238022","KEA-2213","2019/10/12 17:29:18","新北市樹林區忠孝街21號","121.423495","24.9824616666667","6500700","樹林區"
"238021","KEA-2539","2019/10/12 17:29:17","新北市樹林區佳園路二段39號","121.391833333333","24.9627733333333","6500700","樹林區"
"238025","303-VK","2019/10/12 17:29:26","新北市樹林區保安街二段21號","121.416493333333","24.99967","6500700","樹林區"
"238017","283-BY","2019/10/12 17:29:29","新北市樹林區中正路244號","121.417923333333","25.0071883333333","6500700","樹林區"
"238014","282-BY","2019/10/12 17:29:11","新北市樹林區保安街一段294巷20號","121.420246666667","24.9986866666667","6500700","樹林區"
"238020","268-VK","2019/10/12 17:29:25","新北市樹林區俊英街32號","121.429026666667","25.00214","6500700","樹林區"
"238026","172-UY","2019/10/12 17:29:21","新北市樹林區中山路二段219號","121.402788333333","24.9763066666667","6500700","樹林區"
"239007","AAC-297","2019/10/12 17:29:34","新北市鶯歌區仁愛路17號","121.353928333333","24.9562166666667","6500800","鶯歌區"
"239006","891-R6","2019/10/12 17:29:14","新北市鶯歌區鶯桃路472巷21號","121.333101666667","24.9659516666667","6500800","鶯歌區"
"239008","527-UM","2019/10/12 17:29:24","新北市鶯歌區大湖路614號","121.334825","24.9747016666667","6500800","鶯歌區"
"239005","526-UM","2019/10/12 17:29:24","新北市鶯歌區福德五街18號","121.329011666667","24.9678183333333","6500800","鶯歌區"
"239001","417-VK","2019/10/12 17:29:31","新北市鶯歌區中正二路299號","121.33983","24.9434966666667","6500800","鶯歌區"
"239003","360-BY","2019/10/12 17:29:22","新北市鶯歌區鶯桃路213-1號","121.336903333333","24.9590166666667","6500800","鶯歌區"
"239002","359-BY","2019/10/12 17:29:14","新北市鶯歌區南雅路424號","121.34729","24.9541033333333","6500800","鶯歌區"
"239004","193-VK","2019/10/12 17:29:25","新北市鶯歌區文化路296號","121.352661666667","24.9468583333333","6500800","鶯歌區"
"244019","KED-0667","2019/10/12 17:29:15","新北市林口區文化一路一段83巷14弄3號","121.372225","25.0718466666667","6501700","林口區"
"233001","KEA-2870","2019/10/12 17:29:29","新北市烏來區瀑布路1-5號","121.551766666667","24.8488066666667","6502900","烏來區"
"242046","281-VK","2019/10/12 17:29:21","新北市新莊區新樹路12號","121.440096666667","25.03195","6500500","新莊區"
"235061","KEA-2875","2019/10/12 17:14:48","新北市中和區員山路36巷16-2號","121.485205","24.9917","6500300","中和區"
"235062","KEA-2876","2019/10/12 17:29:03","新北市中和區員山路36巷16-3號","121.485086666667","24.9914316666667","6500300","中和區"
