"lineid","car","time","location","longitude","latitude","cityid","cityname"
"234026","9371-KE","2019/10/12 17:59:16","新北市永和區永和路一段45-1號","121.512823333333","25.006275","6500400","永和區"
"249005","172-UM","2019/10/12 17:59:30","新北市八里區荖阡坑路16號","121.397833333333","25.13832","6502300","八里區"
"249001","173-UM","2019/10/12 17:59:29","新北市八里區龍米路二段35號","121.44843","25.139995","6502300","八里區"
"249004","303-UY","2019/10/12 17:59:27","新北市八里區大崁腳41-6號","121.423855","25.1589383333333","6502300","八里區"
"249002","305-UY","2019/10/12 17:59:32","新北市八里區龍形五街7號","121.450451666667","25.13361","6502300","八里區"
"249003","759-BX","2019/10/12 17:59:17","新北市八里區中華路二段165巷19弄20號","121.410105","25.1515666666667","6502300","八里區"
"248014","025-BX","2019/10/12 17:59:21","新北市五股區成泰路二段106號","121.437696666667","25.0830483333333","6501500","五股區"
"248006","077-UY","2019/10/12 17:59:31","新北市五股區中興路二段150號","121.458765","25.078335","6501500","五股區"
"248008","KED-0815","2019/10/12 17:59:20","新北市五股區中興路二段63巷17號","121.460266666667","25.07525","6501500","五股區"
"248020","KED-0813","2019/10/12 17:59:16","新北市五股區中興路二段63巷17號","121.46032","25.0753766666667","6501500","五股區"
"232011","375-UM","2019/10/12 17:59:13","新北市坪林區水柳腳35號","121.710058333333","24.9352583333333","6502000","坪林區"
"244025","069-UM","2019/10/12 17:59:16","新北市林口區三民路30號","121.358635","25.0677966666667","6501700","林口區"
"244007","080-UY","2019/10/12 17:59:18","新北市林口區林口路199號","121.387513333333","25.082735","6501700","林口區"
"244013","KEA-2802","2019/10/12 17:59:27","新北市林口區中山路130-1號","121.392081666667","25.0786383333333","6501700","林口區"
"244023","483-VK","2019/10/12 17:59:12","新北市林口區育林街30號","121.385821666667","25.0737066666667","6501700","林口區"
"244017","485-VK","2019/10/12 17:59:31","新北市林口區忠孝路492號","121.370448333333","25.070315","6501700","林口區"
"244009","656-BX","2019/10/12 17:59:18","新北市林口區佳林路83號","121.385995","25.0806483333333","6501700","林口區"
"244011","701-TV","2019/10/12 17:59:25","新北市林口區中正路48號","121.395353333333","25.077455","6501700","林口區"
"244021","838-TS","2019/10/12 17:59:11","新北市林口區粉寮路一段3號","121.396383333333","25.075815","6501700","林口區"
"222003","436-BY","2019/10/12 17:59:13","新北市深坑區炮子崙24-1號","121.606305","24.9885916666667","6501800","深坑區"
"222002","659-BX","2019/10/12 17:59:25","新北市深坑區深坑街35號","121.616006666667","25.00189","6501800","深坑區"
"241024","065-VK","2019/10/12 17:59:29","新北市三重區中正北路193巷33號","121.476388333333","25.07087","6500200","三重區"
"241006","262-UM","2019/10/12 17:59:24","新北市八里區商港一路444號","121.392933333333","25.14347","6500200","三重區"
"241016","266-UM","2019/10/12 17:59:29","新北市五股區凌雲路三段32號","121.431321666667","25.1081716666667","6500200","三重區"
"241033","AAC-255","2019/10/12 17:59:20","新北市三重區光復路一段66號","121.47197","25.0490066666667","6500200","三重區"
"235063","006-UY","2019/10/12 17:59:31","新北市中和區員山路36巷16-3號","121.485026666667","24.9913366666667","6500300","中和區"
"235056","096-UM","2019/10/12 17:59:27","新北市中和區員山路36巷16-2號","121.485261666667","24.9915816666667","6500300","中和區"
"235065","098-UM","2019/10/12 17:59:28","新北市中和區橋和路328號","121.49784","25.0073316666667","6500300","中和區"
"235058","151-BY","2019/10/12 17:59:11","新北市中和區圓通路367巷33弄41號","121.495503333333","24.9856266666667","6500300","中和區"
"235038","185-VK","2019/10/12 17:59:26","新北市中和區錦和路350-1號","121.490416666667","24.9935933333333","6500300","中和區"
"235043","352-BY","2019/10/12 17:59:18","新北市中和區員山路36巷16-3號","121.485093333333","24.99146","6500300","中和區"
"247016","KEA-2869","2019/10/12 17:59:29","新北市蘆洲區中正路185巷78弄1號","121.466145","25.0843233333333","6501400","蘆洲區"
"235070","558-UM","2019/10/12 17:59:24","新北市中和區錦和路350-1號","121.490516666667","24.9936316666667","6500300","中和區"
"235045","565-BX","2019/10/12 17:59:21","新北市中和區中正路395號","121.489198333333","24.9940833333333","6500300","中和區"
"235054","640-BX","2019/10/12 17:59:19","新北市土城區延壽路77巷4弄3號","121.46918","24.9928383333333","6500300","中和區"
"235057","801-TS","2019/10/12 17:59:17","新北市中和區連城路531號","121.480793333333","24.9949133333333","6500300","中和區"
"235041","802-TS","2019/10/12 17:59:24","新北市中和區和城路一段271巷1號","121.48553","24.9919016666667","6500300","中和區"
"235052","805-TS","2019/10/12 17:59:20","新北市中和區中正路501號","121.489113333333","24.993585","6500300","中和區"
"235053","900-TW","2019/10/12 17:59:20","新北市中和區員山路36巷16-2號","121.485325","24.9915266666667","6500300","中和區"
"235064","911-UM","2019/10/12 17:59:26","新北市中和區中正路128號","121.499581666667","24.9937116666667","6500300","中和區"
"235051","157-BY","2019/10/12 17:59:13","新北市中和區員山路36巷16-3號","121.485006666667","24.99148","6500300","中和區"
"235037","AAC-213","2019/10/12 17:59:16","新北市中和區景平路183號","121.511673333333","24.9925916666667","6500300","中和區"
"235059","AAC-215","2019/10/12 17:59:19","新北市中和區員山路36巷16-3號","121.4849","24.9912716666667","6500300","中和區"
"247006","893-R6","2019/10/12 17:59:13","新北市蘆洲區中華街6號","121.463575","25.0816733333333","6501400","蘆洲區"
"247004","500-BY","2019/10/12 17:59:21","新北市蘆洲區環堤大道92號","121.45556","25.0852016666667","6501400","蘆洲區"
"247002","341-TH","2019/10/12 17:59:25","新北市蘆洲區永平街32巷53號","121.459618333333","25.09283","6501400","蘆洲區"
"247014","056-VK","2019/10/12 17:59:29","新北市蘆洲區忠孝路45號","121.471351666667","25.08614","6501400","蘆洲區"
"247018","053-VK","2019/10/12 17:59:13","新北市蘆洲區復興路246號","121.479691666667","25.0895433333333","6501400","蘆洲區"
"247008","002-UY","2019/10/12 17:59:29","新北市蘆洲區成功路39號","121.472881666667","25.0798183333333","6501400","蘆洲區"
"226004","312-R5","2019/10/12 17:59:31","新北市平溪區石底里公園街18-3號","121.733483333333","25.02585","6502400","平溪區"
"228003","097-TW","2019/10/12 17:59:20","新北市貢寮區真理里美艷山街6-2號","121.928908333333","25.0607116666667","6502600","貢寮區"
"228001","212-TW","2019/10/12 17:59:28","新北市貢寮區真理里新港街26巷53號","121.928063333333","25.0535766666667","6502600","貢寮區"
"228002","663-BX","2019/10/12 17:59:29","新北市貢寮區福隆里桂安街5號","121.962146666667","25.0204983333333","6502600","貢寮區"
"224006","676-BX","2019/10/12 17:59:26","新北市瑞芳區傑魚坑路181-3號","121.788821666667","25.1086333333333","6501200","瑞芳區"
"224009","275-VK","2019/10/12 17:59:18","新北市瑞芳區新山路193號","121.85047","25.1086366666667","6501200","瑞芳區"
"224008","273-VK","2019/10/12 17:59:31","新北市瑞芳區明燈路一段163號","121.819476666667","25.107385","6501200","瑞芳區"
"224005","271-BY","2019/10/12 17:59:14","新北市瑞芳區哩咾路1號","121.87644","25.1228216666667","6501200","瑞芳區"
"227001","400-TW","2019/10/12 17:59:20","新北市雙溪區三貂里定福路1-2號","121.850741666667","25.063475","6502500","雙溪區"
"253005","032-BX","2019/10/12 17:59:23","新北市石門區中山路62-11號","121.567528333333","25.28968","6502200","石門區"
"253006","295-VK","2019/10/12 17:59:29","新北市石門區大丘田45-3號","121.549515","25.27729","6502200","石門區"
"222001","KEA-2212","2019/10/12 17:59:20","新北市深坑區北深路二段187號","121.61221","25.0012283333333","6501800","深坑區"
"208002","KEA-2872","2019/10/12 17:59:29","新北市金山區三界壇路91號","121.624948333333","25.2286016666667","6502700","金山區"
"208003","665-BX","2019/10/12 17:59:27","新北市金山區磺港里磺港路202-1號","121.645188333333","25.2275083333333","6502700","金山區"
"251009","008-UM","2019/10/12 17:59:14","新北市淡水區水源街一段157號","121.447715","25.1717083333333","6501000","淡水區"
"251004","009-UM","2019/10/12 17:59:17","新北市淡水區民權路187巷5號","121.459706666667","25.1335833333333","6501000","淡水區"
"251005","010-UM","2019/10/12 17:59:18","新北市淡水區英專路135號","121.446466666667","25.1728083333333","6501000","淡水區"
"251001","011-UM","2019/10/12 17:59:32","新北市淡水區民權路94巷1號","121.463083333333","25.124855","6501000","淡水區"
"251015","KEA-2871","2019/10/12 17:59:24","新北市淡水區興福寮31號","121.490023333333","25.1627066666667","6501000","淡水區"
"251016","179-VK","2019/10/12 17:59:30","新北市淡水區淡金路三段28號","121.44788","25.198765","6501000","淡水區"
"251013","180-VK","2019/10/12 17:59:25","新北市淡水區泉洲厝31號","121.479511666667","25.1910066666667","6501000","淡水區"
"251008","181-VK","2019/10/12 17:59:15","新北市淡水區八勢一街43-8號","121.461896666667","25.1558516666667","6501000","淡水區"
"251010","413-VK","2019/10/12 17:59:32","新北市淡水區中正路一段87巷1號","121.42154","25.179015","6501000","淡水區"
"251012","443-VK","2019/10/12 17:59:16","新北市淡水區北新路三段34號","121.483776666667","25.1867183333333","6501000","淡水區"
"251006","561-UM","2019/10/12 17:59:23","新北市淡水區新生街20-5號","121.438866666667","25.1739566666667","6501000","淡水區"
"251014","577-R6","2019/10/12 17:59:20","新北市淡水區公埔子16-6號","121.481025","25.2245916666667","6501000","淡水區"
"251011","650-BX","2019/10/12 17:58:52","新北市淡水區吳(仔)厝33號","121.479483333333","25.149245","6501000","淡水區"
"251002","672-BX","2019/10/12 17:59:28","新北市淡水區中山路64號","121.443636666667","25.1705383333333","6501000","淡水區"
"251003","673-BX","2019/10/12 17:59:20","新北市淡水區大忠街39號","121.444396666667","25.176275","6501000","淡水區"
"207003","550-UM","2019/10/12 17:59:17","新北市萬里區野柳里東澳路31-4號","121.692011666667","25.203345","6502800","萬里區"
"207004","291-VK","2019/10/12 17:59:30","新北市萬里區萬里里瑪鋉路5號","121.68616","25.174985","6502800","萬里區"
"252002","178-VK","2019/10/12 17:59:27","新北市三芝區中山路二段47巷11號","121.502613333333","25.25516","6502100","三芝區"
"208001","170-UY","2019/10/12 17:59:18","新北市金山區磺港里磺港路160號","121.644773333333","25.2257516666667","6502700","金山區"
"237004","KEA-2597","2019/10/12 17:59:13","新北市三峽區大埔路67號","121.366253333333","24.9084883333333","6500900","三峽區"
"237007","153-BY","2019/10/12 17:59:27","新北市三峽區中園街116號","121.367171666667","24.9226133333333","6500900","三峽區"
"237009","210-TH","2019/10/12 17:59:20","新北市三峽區中山路106巷16-1號","121.366081666667","24.93634","6500900","三峽區"
"237013","252-BX","2019/10/12 17:59:14","新北市三峽區介壽路一段22號","121.37553","24.9328583333333","6500900","三峽區"
"237012","275-BY","2019/10/12 17:59:21","新北市三峽區民生街19巷3-1號","121.376175","24.9360683333333","6500900","三峽區"
"237008","302-VK","2019/10/12 17:59:23","新北市三峽區白雞24號","121.368455","24.9125016666667","6500900","三峽區"
"237014","433-BY","2019/10/12 17:59:12","新北市三峽區復興路101巷1弄79號","121.370931666667","24.9376716666667","6500900","三峽區"
"237006","5529-G3","2019/10/12 17:59:25","新北市三峽區介壽路二段138巷1弄110號","121.397918333333","24.930835","6500900","三峽區"
"237011","KEA-2596","2019/10/12 17:59:17","新北市三峽區中正路一段75-1號","121.374731666667","24.929875","6500900","三峽區"
"237015","649-BX","2019/10/12 17:59:24","新北市三峽區紫微路69號","121.41351","24.9162666666667","6500900","三峽區"
"237010","706-TV","2019/10/12 17:59:27","新北市三峽區仁愛街1號","121.36841","24.9342416666667","6500900","三峽區"
"237005","AKY-6261","2019/10/12 17:59:29","新北市三峽區復興路235號","121.368255","24.9387183333333","6500900","三峽區"
"236042","KED-0685","2019/10/12 17:59:28","新北市土城區城林路6巷80號","121.438521666667","24.97963","6501300","土城區"
"233002","762-BX","2019/10/12 17:59:31","新北市烏來區西羅岸路22號","121.549201666667","24.8674133333333","6502900","烏來區"
"236079","166-UM","2019/10/12 17:59:11","新北市土城區永寧路41號","121.430011666667","24.96191","6501300","土城區"
"236030","253-BX","2019/10/12 17:59:22","新北市土城區城林路6巷80號","121.438436666667","24.9797716666667","6501300","土城區"
"236026","269-VK","2019/10/12 17:59:17","新北市土城區承天路1號","121.435768333333","24.966495","6501300","土城區"
"236014","270-VK","2019/10/12 17:59:20","新北市土城區城林路6巷80號","121.438546666667","24.97958","6501300","土城區"
"236038","271-VK","2019/10/12 17:59:19","新北市土城區城林路6巷80號","121.438293333333","24.97982","6501300","土城區"
"247012","KED-0683","2019/10/12 17:59:17","新北市蘆洲區復興路167號","121.478396666667","25.089065","6501400","蘆洲區"
"236070","KEA-2877","2019/10/12 17:59:19","新北市土城區青雲路460號","121.460203333333","24.9683183333333","6501300","土城區"
"252001","KED-0821","2019/10/12 17:59:29","新北市三芝區中興街二段2號","121.498325","25.2566233333333","6502100","三芝區"
"236021","401-BY","2019/10/12 17:59:17","新北市土城區城林路6巷80號","121.438671666667","24.9797066666667","6501300","土城區"
"236063","752-BX","2019/10/12 17:59:13","新北市土城區城林路6巷80號","121.438276666667","24.97982","6501300","土城區"
"236059","912-UM","2019/10/12 17:59:22","新北市土城區中央路三段260號","121.42719","24.96396","6501300","土城區"
"236049","913-UM","2019/10/12 17:59:21","新北市土城區中央路二段252號","121.44175","24.97458","6501300","土城區"
"236055","AAC-216","2019/10/12 17:59:24","新北市土城區城林路6巷80號","121.438523333333","24.9796366666667","6501300","土城區"
"242042","AAC-296","2019/10/12 17:59:14","新北市泰山區壽山路34號","121.420588333333","25.0289766666667","6500500","新莊區"
"242061","986-R7","2019/10/12 17:59:18","新北市新莊區新樹路459號","121.43266","25.01321","6500500","新莊區"
"242004","751-BX","2019/10/12 17:59:11","新北市新莊區思源路177巷31號","121.459208333333","25.0466416666667","6500500","新莊區"
"242029","615-BX","2019/10/12 17:59:23","新北市新莊區中平路110巷36號","121.445876666667","25.0460166666667","6500500","新莊區"
"242027","613-BX","2019/10/12 17:59:12","新北市新莊區思源路455號","121.459726666667","25.0534616666667","6500500","新莊區"
"242058","612-BX","2019/10/12 17:59:17","新北市新莊區雙鳳路134巷8號","121.41272","25.0281116666667","6500500","新莊區"
"242048","566-BX","2019/10/12 17:59:28","新北市新莊區萬安街65號","121.421303333333","25.0241133333333","6500500","新莊區"
"242053","497-BY","2019/10/12 17:59:26","新北市新莊區民安西路327巷4弄19號","121.428751666667","25.0112416666667","6500500","新莊區"
"242002","441-UM","2019/10/12 17:59:12","新北市新莊區大觀街42巷13號","121.454398333333","25.0359283333333","6500500","新莊區"
"242007","440-UM","2019/10/12 17:59:21","新北市新莊區自信街75巷13號","121.455758333333","25.0488","6500500","新莊區"
"242044","415-TV","2019/10/12 17:59:14","新北市新莊區雙鳳路75號","121.414911666667","25.027555","6500500","新莊區"
"242013","413-TV","2019/10/12 17:59:29","新北市新莊區中和街83號","121.447436666667","25.0477016666667","6500500","新莊區"
"242051","400-BY","2019/10/12 17:59:28","新北市新莊區西盛街153巷10號","121.428758333333","25.01803","6500500","新莊區"
"242025","362-BY","2019/10/12 17:59:24","新北市新莊區五工路58號","121.458836666667","25.062785","6500500","新莊區"
"242023","353-BY","2019/10/12 17:59:26","新北市新莊區福壽街39號","121.458201666667","25.0485833333333","6500500","新莊區"
"242015","132-UY","2019/10/12 17:59:18","新北市新莊區中平路87巷8號","121.444293333333","25.0458383333333","6500500","新莊區"
"242039","135-UY","2019/10/12 17:59:26","新北市新莊區民安西路24巷19號","121.426151666667","25.0207283333333","6500500","新莊區"
"242056","172-VK","2019/10/12 17:59:21","新北市新莊區豐年街124巷9號","121.445873333333","25.0297","6500500","新莊區"
"242017","173-VK","2019/10/12 17:59:27","新北市新莊區中和街60巷47號","121.449998333333","25.04503","6500500","新莊區"
"242031","175-VK","2019/10/12 17:59:20","新北市新莊區新泰路305巷8號","121.4448","25.0410166666667","6500500","新莊區"
"242021","KED-0687","2019/10/12 17:59:26","新北市新莊區中正路217號","121.451141666667","25.0358233333333","6500500","新莊區"
"242036","346-TH","2019/10/12 17:59:22","新北市新莊區建福路63號","121.426793333333","25.0271666666667","6500500","新莊區"
"242011","347-TH","2019/10/12 17:59:29","新北市新莊區中港路629號","121.450675","25.0539866666667","6500500","新莊區"
"242009","349-TH","2019/10/12 17:59:22","新北市新莊區中原路189-1號","121.452486666667","25.05433","6500500","新莊區"
"242034","350-TH","2019/10/12 17:59:18","新北市新莊區福海街26號","121.445303333333","25.03402","6500500","新莊區"
"242019","351-TH","2019/10/12 17:59:19","新北市新莊區明中街51巷13號","121.456465","25.0392366666667","6500500","新莊區"
"238015","755-BX","2019/10/12 17:59:29","新北市樹林區啟智街80巷8號","121.418991666667","24.9923883333333","6500700","樹林區"
"238023","601-UM","2019/10/12 17:59:30","新北市樹林區龍興街55號","121.403276666667","25.0153366666667","6500700","樹林區"
"238019","599-UM","2019/10/12 17:59:25","新北市樹林區太平路176號","121.418463333333","24.9767983333333","6500700","樹林區"
"238018","KEA-2217","2019/10/12 17:59:22","新北市樹林區中正路7-1號","121.430143333333","24.9976","6500700","樹林區"
"238022","KEA-2213","2019/10/12 17:59:18","新北市樹林區太平路207號","121.418701666667","24.978135","6500700","樹林區"
"238021","KEA-2539","2019/10/12 17:59:17","新北市樹林區柑園街二段9號","121.388116666667","24.9557783333333","6500700","樹林區"
"238025","303-VK","2019/10/12 17:59:26","新北市樹林區三俊街14號","121.411198333333","25.0154466666667","6500700","樹林區"
"238017","283-BY","2019/10/12 17:59:29","新北市樹林區三俊街2號","121.410673333333","25.01509","6500700","樹林區"
"238014","282-BY","2019/10/12 17:59:11","新北市樹林區千歲街61巷40弄9號","121.425945","24.9990116666667","6500700","樹林區"
"238020","268-VK","2019/10/12 17:59:25","新北市樹林區三俊街199巷35-1號","121.420755","25.017965","6500700","樹林區"
"238026","172-UY","2019/10/12 17:59:21","新北市樹林區八德街502號","121.399453333333","24.9702166666667","6500700","樹林區"
"239007","AAC-297","2019/10/12 17:59:14","新北市鶯歌區鶯桃路94巷33號","121.34219","24.95444","6500800","鶯歌區"
"239006","891-R6","2019/10/12 17:59:14","新北市鶯歌區鶯桃路413巷34弄28號","121.33094","24.9642166666667","6500800","鶯歌區"
"239008","527-UM","2019/10/12 17:59:24","新北市鶯歌區欣欣街3號","121.336208333333","24.9779083333333","6500800","鶯歌區"
"239005","526-UM","2019/10/12 17:59:24","新北市鶯歌區鶯桃路658巷1號","121.329221666667","24.9693183333333","6500800","鶯歌區"
"239001","417-VK","2019/10/12 17:59:31","新北市鶯歌區中正三路306號","121.328336666667","24.9356083333333","6500800","鶯歌區"
"239003","360-BY","2019/10/12 17:59:22","新北市鶯歌區鶯桃路213-1號","121.337023333333","24.9589666666667","6500800","鶯歌區"
"239002","359-BY","2019/10/12 17:59:14","新北市鶯歌區光明街128號","121.345368333333","24.9559016666667","6500800","鶯歌區"
"239004","193-VK","2019/10/12 17:59:25","新北市鶯歌區尖山路88號","121.348633333333","24.9495116666667","6500800","鶯歌區"
"221008","489-VK","2019/10/12 17:59:25","新北市汐止區康寧街631號","121.636926666667","25.071735","6501100","汐止區"
"244019","KED-0667","2019/10/12 17:59:15","新北市林口區麗園路54號","121.373668333333","25.0696016666667","6501700","林口區"
"221010","269-BY","2019/10/12 17:59:21","新北市汐止區汐萬路二段275巷1弄28號","121.646136666667","25.08807","6501100","汐止區"
"221023","279-VK","2019/10/12 17:59:18","新北市汐止區民族一街20號","121.634941666667","25.0710216666667","6501100","汐止區"
"221029","298-VK","2019/10/12 17:59:15","新北市汐止區樟樹二路353號","121.644086666667","25.0740216666667","6501100","汐止區"
"221031","353-TW","2019/10/12 17:59:16","新北市汐止區中興路96巷1-3號","121.635268333333","25.06257","6501100","汐止區"
"221035","622-UM","2019/10/12 17:59:21","新北市汐止區汐萬路一段211巷31號","121.651315","25.071685","6501100","汐止區"
"221025","623-UM","2019/10/12 17:59:17","新北市汐止區仁愛路13號","121.659151666667","25.0639366666667","6501100","汐止區"
"221038","646-BX","2019/10/12 17:59:18","新北市汐止區新台五路一段151號","121.653605","25.0622616666667","6501100","汐止區"
"221033","647-BX","2019/10/12 17:59:19","新北市汐止區合順街39巷4號","121.620721666667","25.0433416666667","6501100","汐止區"
"221018","753-BX","2019/10/12 17:59:28","新北市汐止區忠孝東路339巷2號","121.664951666667","25.0700666666667","6501100","汐止區"
"242046","281-VK","2019/10/12 17:59:21","新北市新莊區福營路182號","121.43136","25.0308383333333","6500500","新莊區"
"235061","KEA-2875","2019/10/12 17:59:03","新北市中和區連城路583巷15號","121.47922","24.9934633333333","6500300","中和區"
"235062","KEA-2876","2019/10/12 17:59:07","新北市中和區中正路755-1號","121.484928333333","24.9999766666667","6500300","中和區"
