"lineid","car","time","location","longitude","latitude","cityid","cityname"
"234026","9371-KE","2019/10/12 18:09:16","新北市永和區秀朗路一段10巷21號","121.51324","25.0062716666667","6500400","永和區"
"249005","172-UM","2019/10/12 18:09:29","新北市八里區荖阡坑路15號","121.40156","25.14003","6502300","八里區"
"249001","173-UM","2019/10/12 18:09:29","新北市八里區龍米路二段26號","121.448748333333","25.13946","6502300","八里區"
"249004","303-UY","2019/10/12 18:08:47","新北市八里區龍米路二段159-2號","121.438963333333","25.1542833333333","6502300","八里區"
"249002","305-UY","2019/10/12 18:09:32","新北市八里區龍米路一段356巷42號","121.45215","25.1304816666667","6502300","八里區"
"249003","759-BX","2019/10/12 18:09:13","新北市八里區中華路二段502號","121.400023333333","25.145615","6502300","八里區"
"248014","025-BX","2019/10/12 18:09:31","新北市五股區成泰路一段189巷16號","121.433898333333","25.076535","6501500","五股區"
"248006","077-UY","2019/10/12 18:09:28","新北市五股區中興路二段2號","121.46334","25.0742966666667","6501500","五股區"
"248008","KED-0815","2019/10/12 18:09:20","新北市五股區中興路二段182巷18-1號","121.45635","25.08156","6501500","五股區"
"248020","KED-0813","2019/10/12 18:09:16","新北市五股區成泰路三段544-1號","121.454675","25.1022283333333","6501500","五股區"
"248010","655-BX","2019/10/12 18:09:19","新北市五股區成泰路一段231-13號","121.435506666667","25.0778416666667","6501500","五股區"
"248004","677-BX","2019/10/12 18:09:26","新北市五股區中興路四段42號","121.438331666667","25.0828916666667","6501500","五股區"
"232011","375-UM","2019/10/12 18:09:13","新北市坪林區國中路3號","121.712903333333","24.93709","6502000","坪林區"
"244025","069-UM","2019/10/12 18:09:23","新北市林口區文化北路一段293-1號","121.360148333333","25.0725333333333","6501700","林口區"
"244007","080-UY","2019/10/12 18:09:18","新北市林口區林口路222號","121.386943333333","25.0836066666667","6501700","林口區"
"244013","KEA-2802","2019/10/12 18:09:27","新北市林口區中山路137號","121.38829","25.0790316666667","6501700","林口區"
"244023","483-VK","2019/10/12 18:09:12","新北市林口區隆林街217號","121.383246666667","25.074055","6501700","林口區"
"244017","485-VK","2019/10/12 18:09:11","新北市林口區八德路20巷1號","121.36793","25.06692","6501700","林口區"
"244009","656-BX","2019/10/12 18:09:19","新北市林口區福林路117-1號","121.377073333333","25.0892583333333","6501700","林口區"
"244011","701-TV","2019/10/12 18:09:25","新北市林口區中正路74巷5弄1號","121.394611666667","25.077935","6501700","林口區"
"244021","838-TS","2019/10/12 18:09:31","新北市林口區自強一街77號","121.400013333333","25.0769933333333","6501700","林口區"
"222003","436-BY","2019/10/12 18:09:13","新北市深坑區阿柔洋45號","121.612223333333","24.9979633333333","6501800","深坑區"
"222002","659-BX","2019/10/12 18:09:24","新北市深坑區文化街52號","121.618983333333","25.0017633333333","6501800","深坑區"
"231055","0291-UT","2019/10/12 18:09:25","新北市新店區安華路28-1號","121.51986","24.9606433333333","6500600","新店區"
"231058","0293-UT","2019/10/12 18:09:21","新北市新店區安華路1-1號","121.519426666667","24.9602983333333","6500600","新店區"
"231044","046-UY","2019/10/12 18:09:27","新北市新店區安華路28-1號","121.519273333333","24.9609166666667","6500600","新店區"
"231060","106-UY","2019/10/12 18:09:23","新北市新店區安華路28-1號","121.519726666667","24.9608883333333","6500600","新店區"
"231054","260-TV","2019/10/12 18:09:14","新北市新店區安一路一段1-1號","121.519255","24.9612016666667","6500600","新店區"
"231042","268-BY","2019/10/12 18:09:18","新北市新店區安一路一段1-1號","121.51969","24.9613633333333","6500600","新店區"
"231050","AAD-862","2019/10/12 18:09:20","新北市新店區安華路28-1號","121.519806666667","24.9608133333333","6500600","新店區"
"231052","512-UM","2019/10/12 18:09:33","新北市新店區安華路28-1號","121.51955","24.96076","6500600","新店區"
"231066","AKT-0513","2019/10/12 18:09:18","新北市新店區安華路1-1號","121.519398333333","24.9604183333333","6500600","新店區"
"241006","262-UM","2019/10/12 18:08:44","新北市八里區荖阡坑路34號","121.401633333333","25.1296133333333","6500200","三重區"
"241033","AAC-255","2019/10/12 18:09:20","新北市三重區中興北街42巷41號","121.467721666667","25.0493166666667","6500200","三重區"
"235066","003-UY","2019/10/12 18:09:30","新北市中和區連城路96號","121.496508333333","25.0000883333333","6500300","中和區"
"235063","006-UY","2019/10/12 18:09:31","新北市中和區中正路637巷52弄1號","121.485403333333","24.9933333333333","6500300","中和區"
"235056","096-UM","2019/10/12 18:09:27","新北市板橋區民生路一段1-2號","121.47726","25.0117783333333","6500300","中和區"
"235039","097-UM","2019/10/12 18:09:20","新北市中和區中正路637巷52弄1號","121.485406666667","24.9934383333333","6500300","中和區"
"235065","098-UM","2019/10/12 18:09:28","新北市中和區莊敬路49巷27號","121.501536666667","25.0061033333333","6500300","中和區"
"235040","150-BY","2019/10/12 18:09:26","新北市中和區景新街168-2號","121.505986666667","24.9968566666667","6500300","中和區"
"235058","151-BY","2019/10/12 18:09:32","新北市中和區圓通路367巷60號","121.491656666667","24.9842666666667","6500300","中和區"
"235055","183-VK","2019/10/12 18:09:26","新北市中和區員山路36巷16-3號","121.484991666667","24.9914233333333","6500300","中和區"
"235038","185-VK","2019/10/12 18:09:26","新北市中和區景平路186號","121.516133333333","24.9923883333333","6500300","中和區"
"235044","293-VK","2019/10/12 18:09:20","新北市中和區中正路637巷60弄61號","121.485361666667","24.9932733333333","6500300","中和區"
"235043","352-BY","2019/10/12 18:09:18","新北市中和區中正路171號","121.497875","24.9934133333333","6500300","中和區"
"235042","KEA-2878","2019/10/12 18:09:30","新北市中和區中正路2-1號","121.503258333333","24.993515","6500300","中和區"
"235069","4980-A6","2019/10/12 18:09:16","新北市中和區圓通路172號","121.497218333333","24.9946066666667","6500300","中和區"
"235070","558-UM","2019/10/12 18:09:24","新北市中和區圓通路162-4號","121.497428333333","24.9951933333333","6500300","中和區"
"235045","565-BX","2019/10/12 18:09:21","新北市中和區景安路200巷8號","121.503256666667","24.9918966666667","6500300","中和區"
"235060","KED-0823","2019/10/12 18:09:21","新北市中和區員山路287號","121.481186666667","24.999835","6500300","中和區"
"235054","640-BX","2019/10/12 18:09:19","新北市中和區莒光路185號","121.472591666667","24.9990483333333","6500300","中和區"
"235057","801-TS","2019/10/12 18:09:17","新北市中和區民享街97巷19號","121.475336666667","24.9995483333333","6500300","中和區"
"235041","802-TS","2019/10/12 18:09:24","新北市中和區和城路一段271巷1號","121.485553333333","24.9917516666667","6500300","中和區"
"235052","805-TS","2019/10/12 18:09:20","新北市中和區南山路513號","121.508001666667","24.987455","6500300","中和區"
"235053","900-TW","2019/10/12 18:09:19","新北市中和區員山路36巷16-2號","121.485248333333","24.9914683333333","6500300","中和區"
"235064","911-UM","2019/10/12 18:09:26","新北市中和區圓通路162-4號","121.497526666667","24.995195","6500300","中和區"
"235051","157-BY","2019/10/12 18:09:13","新北市中和區復興路269號","121.502646666667","24.9903066666667","6500300","中和區"
"235037","AAC-213","2019/10/12 18:09:16","新北市中和區景德街59號","121.517356666667","24.9914066666667","6500300","中和區"
"235059","AAC-215","2019/10/12 18:09:19","新北市中和區員山路36巷16-3號","121.48497","24.99133","6500300","中和區"
"220065","072-UY","2019/10/12 18:09:19","新北市板橋區華東街1-10號","121.448498333333","24.9949916666667","6500100","板橋區"
"226004","312-R5","2019/10/12 18:09:31","新北市平溪區白石里白石腳3號","121.722055","25.0215016666667","6502400","平溪區"
"235049","251-BX","2019/10/12 18:09:26","新北市中和區中正路501號","121.488931666667","24.99416","6500300","中和區"
"228003","097-TW","2019/10/12 18:09:20","新北市貢寮區真理里美艷山街6-2號","121.928905","25.060715","6502600","貢寮區"
"228001","212-TW","2019/10/12 18:09:16","新北市貢寮區真理里新港街26巷55弄2-1號","121.927385","25.0528566666667","6502600","貢寮區"
"228002","663-BX","2019/10/12 18:09:28","新北市貢寮區福連里福連街15號","121.98801","25.01433","6502600","貢寮區"
"224006","676-BX","2019/10/12 18:09:26","新北市瑞芳區中山路67號","121.804115","25.1061916666667","6501200","瑞芳區"
"224009","275-VK","2019/10/12 18:09:18","新北市瑞芳區山尖路2號","121.854156666667","25.1158883333333","6501200","瑞芳區"
"224008","273-VK","2019/10/12 18:09:11","新北市瑞芳區三爪子坑路335號","121.819303333333","25.1055583333333","6501200","瑞芳區"
"224005","271-BY","2019/10/12 18:09:14","新北市瑞芳區海濱路3巷2-11號","121.849226666667","25.1263083333333","6501200","瑞芳區"
"227002","642-TC","2019/10/12 18:09:29","新北市雙溪區共和里東榮街19號","121.865636666667","25.0340166666667","6502500","雙溪區"
"227001","400-TW","2019/10/12 18:09:20","新北市雙溪區三貂里定福路1-2號","121.850743333333","25.06349","6502500","雙溪區"
"253005","032-BX","2019/10/12 18:09:23","新北市石門區中央路46號","121.568156666667","25.2929533333333","6502200","石門區"
"253006","295-VK","2019/10/12 18:09:29","新北市石門區老梅路52巷21號","121.546398333333","25.28859","6502200","石門區"
"222001","KEA-2212","2019/10/12 18:09:20","新北市深坑區北深路二段151號","121.614131666667","25.0021683333333","6501800","深坑區"
"208002","KEA-2872","2019/10/12 18:09:29","新北市金山區三界壇路56號","121.621503333333","25.22993","6502700","金山區"
"208003","665-BX","2019/10/12 18:09:27","新北市金山區民生路200號","121.644766666667","25.2219066666667","6502700","金山區"
"251009","008-UM","2019/10/12 18:09:14","新北市淡水區大仁街6巷23號","121.443045","25.1751833333333","6501000","淡水區"
"251004","009-UM","2019/10/12 18:09:17","新北市淡水區民族路110巷43弄6號","121.461413333333","25.1351033333333","6501000","淡水區"
"251005","010-UM","2019/10/12 18:09:18","新北市淡水區水源街一段141號","121.447268333333","25.17192","6501000","淡水區"
"251001","011-UM","2019/10/12 18:09:29","新北市淡水區自立路8-2號","121.462863333333","25.1297516666667","6501000","淡水區"
"251015","KEA-2871","2019/10/12 18:09:24","新北市淡水區興福寮88巷1號","121.485306666667","25.1649333333333","6501000","淡水區"
"251016","179-VK","2019/10/12 18:09:30","新北市淡水區下圭柔山15-1號","121.452396666667","25.2017266666667","6501000","淡水區"
"251013","180-VK","2019/10/12 18:09:25","新北市淡水區竹圍子9-1號","121.476848333333","25.1922716666667","6501000","淡水區"
"251008","181-VK","2019/10/12 18:09:15","新北市淡水區紅樹林路71號","121.459518333333","25.1608833333333","6501000","淡水區"
"251010","413-VK","2019/10/12 18:09:12","新北市淡水區淡海路111號","121.421633333333","25.1827983333333","6501000","淡水區"
"251012","443-VK","2019/10/12 18:09:16","新北市淡水區北新路三段120號","121.487071666667","25.1883416666667","6501000","淡水區"
"251006","561-UM","2019/10/12 18:09:23","新北市淡水區真理街3巷18號","121.437411666667","25.17586","6501000","淡水區"
"251014","577-R6","2019/10/12 18:09:20","新北市淡水區南平14-1號","121.485643333333","25.22082","6501000","淡水區"
"251011","650-BX","2019/10/12 18:09:31","新北市淡水區坪頂路500號","121.476985","25.160795","6501000","淡水區"
"251002","672-BX","2019/10/12 18:09:28","新北市淡水區中正東路21號","121.448058333333","25.1662633333333","6501000","淡水區"
"251003","673-BX","2019/10/12 18:09:19","新北市淡水區大忠街113巷12號","121.44704","25.177545","6501000","淡水區"
"207003","550-UM","2019/10/12 18:09:17","新北市萬里區野柳里港東路161號","121.690028333333","25.2047316666667","6502800","萬里區"
"207004","291-VK","2019/10/12 18:09:30","新北市萬里區中幅里中福路89號","121.676375","25.17104","6502800","萬里區"
"252002","178-VK","2019/10/12 18:09:14","新北市三芝區中山路二段38號","121.502968333333","25.2551283333333","6502100","三芝區"
"252003","249-BX","2019/10/12 18:09:21","新北市三芝區埔頭里埔頭37號","121.498463333333","25.2603483333333","6502100","三芝區"
"208001","170-UY","2019/10/12 18:09:18","新北市金山區磺港里磺港路73號","121.647541666667","25.2271283333333","6502700","金山區"
"237004","KEA-2597","2019/10/12 18:09:13","新北市三峽區大埔路393號","121.372245","24.896185","6500900","三峽區"
"237007","153-BY","2019/10/12 18:09:27","新北市三峽區中正路二段331號","121.365941666667","24.91007","6500900","三峽區"
"237009","210-TH","2019/10/12 18:09:20","新北市三峽區大仁路54號","121.365301666667","24.937485","6500900","三峽區"
"237013","252-BX","2019/10/12 18:09:14","新北市三峽區介壽路一段193-2號","121.378163333333","24.931175","6500900","三峽區"
"237012","275-BY","2019/10/12 18:09:21","新北市三峽區民生街19巷7弄47號","121.377606666667","24.9355466666667","6500900","三峽區"
"237008","302-VK","2019/10/12 18:09:23","新北市三峽區白雞58-16號","121.385103333333","24.9101583333333","6500900","三峽區"
"237014","433-BY","2019/10/12 18:09:32","新北市三峽區國光街81巷11號","121.37373","24.93791","6500900","三峽區"
"237006","5529-G3","2019/10/12 18:09:32","新北市三峽區溪東路178巷13弄8號","121.406131666667","24.93221","6500900","三峽區"
"237011","KEA-2596","2019/10/12 18:09:17","新北市三峽區大同路10號","121.37831","24.9299266666667","6500900","三峽區"
"237015","649-BX","2019/10/12 18:09:24","新北市三峽區紫新路47號","121.422145","24.9217766666667","6500900","三峽區"
"237010","706-TV","2019/10/12 18:09:27","新北市三峽區大同路202-2號","121.368051666667","24.9272583333333","6500900","三峽區"
"237005","AKY-6261","2019/10/12 18:09:29","新北市三峽區民生街152-1號","121.372013333333","24.9348933333333","6500900","三峽區"
"236042","KED-0685","2019/10/12 18:07:48","新北市土城區明德路二段122號","121.444651666667","24.984335","6501300","土城區"
"233002","762-BX","2019/10/12 18:09:31","新北市烏來區紅河10號","121.540418333333","24.8839666666667","6502900","烏來區"
"236079","166-UM","2019/10/12 18:09:31","新北市土城區永寧路32巷6號","121.429091666667","24.9606516666667","6501300","土城區"
"236030","253-BX","2019/10/12 18:09:22","新北市土城區城林路6巷80號","121.438436666667","24.9797716666667","6501300","土城區"
"236026","269-VK","2019/10/12 18:09:17","新北市土城區承天路47號","121.439148333333","24.9637816666667","6501300","土城區"
"236014","270-VK","2019/10/12 18:09:20","新北市土城區學府路一段288號","121.449725","24.9826383333333","6501300","土城區"
"236038","271-VK","2019/10/12 18:09:19","新北市土城區青雲路318號","121.458768333333","24.97707","6501300","土城區"
"236070","KEA-2877","2019/10/12 18:09:19","新北市土城區明德路一段323號","121.45885","24.9765183333333","6501300","土城區"
"252001","KED-0821","2019/10/12 18:09:29","新北市三芝區中興街二段2號","121.498388333333","25.2566266666667","6502100","三芝區"
"236021","401-BY","2019/10/12 18:09:17","新北市土城區金城路二段12號","121.449166666667","24.9772683333333","6501300","土城區"
"236063","752-BX","2019/10/12 18:09:13","新北市土城區金城路二段48-1號","121.451665","24.9791966666667","6501300","土城區"
"236059","912-UM","2019/10/12 18:09:22","新北市土城區中央路四段107號","121.416573333333","24.9578516666667","6501300","土城區"
"236049","913-UM","2019/10/12 18:09:21","新北市土城區明德路一段365-1號","121.453578333333","24.9790733333333","6501300","土城區"
"236055","AAC-216","2019/10/12 18:09:24","新北市土城區中華路二段92號","121.438236666667","24.974775","6501300","土城區"
"242042","AAC-296","2019/10/12 18:09:13","新北市新莊區天祥街135巷8弄1號","121.413681666667","25.0293316666667","6500500","新莊區"
"242061","986-R7","2019/10/12 18:09:18","新北市新莊區新樹路215號","121.43554","25.0233133333333","6500500","新莊區"
"242004","751-BX","2019/10/12 18:09:30","新北市新莊區自由街34號","121.455831666667","25.0465283333333","6500500","新莊區"
"242029","615-BX","2019/10/12 18:09:31","新北市新莊區中平路181號","121.444836666667","25.0490516666667","6500500","新莊區"
"242027","613-BX","2019/10/12 18:09:12","新北市新莊區幸福路513號","121.45569","25.0493","6500500","新莊區"
"242058","612-BX","2019/10/12 18:09:18","新北市新莊區壽山路45號","121.414703333333","25.0311216666667","6500500","新莊區"
"242048","566-BX","2019/10/12 18:09:28","新北市新莊區萬安街26號","121.421373333333","25.024505","6500500","新莊區"
"242053","497-BY","2019/10/12 18:09:30","新北市新莊區西盛街429巷32號","121.427913333333","25.0113816666667","6500500","新莊區"
"242002","441-UM","2019/10/12 18:09:12","新北市新莊區新莊路16-2號","121.458876666667","25.0375216666667","6500500","新莊區"
"242007","440-UM","2019/10/12 18:09:30","新北市新莊區自強街37巷14弄5號","121.453931666667","25.04678","6500500","新莊區"
"242044","415-TV","2019/10/12 18:09:14","新北市新莊區雙鳳路82號","121.414993333333","25.02777","6500500","新莊區"
"242013","413-TV","2019/10/12 18:09:29","新北市新莊區新泰路528號","121.442068333333","25.0468783333333","6500500","新莊區"
"242051","400-BY","2019/10/12 18:09:28","新北市新莊區民本街23巷17號","121.429118333333","25.01975","6500500","新莊區"
"242025","362-BY","2019/10/12 18:09:24","新北市新莊區五工一路96號","121.460565","25.0679216666667","6500500","新莊區"
"242015","132-UY","2019/10/12 18:09:19","新北市新莊區中平路152巷45號","121.44671","25.04749","6500500","新莊區"
"242039","135-UY","2019/10/12 18:09:26","新北市新莊區民安東路51號","121.429613333333","25.0208283333333","6500500","新莊區"
"242056","172-VK","2019/10/12 18:09:21","新北市新莊區豐年街豐1巷23號","121.447421666667","25.0312816666667","6500500","新莊區"
"242017","173-VK","2019/10/12 18:09:27","新北市新莊區永樂街2號","121.452221666667","25.045185","6500500","新莊區"
"242031","175-VK","2019/10/12 18:09:23","新北市新莊區新泰路277巷12號","121.445053333333","25.0403483333333","6500500","新莊區"
"242021","KED-0687","2019/10/12 18:09:26","新北市新莊區新興街110號","121.450648333333","25.0390866666667","6500500","新莊區"
"242036","346-TH","2019/10/12 18:09:22","新北市新莊區後港一路65巷11弄11號","121.42571","25.0271133333333","6500500","新莊區"
"242011","347-TH","2019/10/12 18:09:29","新北市新莊區中榮街84號","121.447981666667","25.0528866666667","6500500","新莊區"
"242009","349-TH","2019/10/12 18:09:22","新北市新莊區昌平街41巷8號","121.454255","25.0525333333333","6500500","新莊區"
"242034","350-TH","2019/10/12 18:09:18","新北市新莊區新莊路496號","121.446385","25.0334","6500500","新莊區"
"242019","351-TH","2019/10/12 18:09:19","新北市新莊區中港路132巷10號","121.45573","25.0405866666667","6500500","新莊區"
"238015","755-BX","2019/10/12 18:09:29","新北市樹林區大安路323巷10弄16號","121.416958333333","24.9912966666667","6500700","樹林區"
"238023","601-UM","2019/10/12 18:09:21","新北市樹林區三福街85巷11號","121.407338333333","25.0154533333333","6500700","樹林區"
"238019","599-UM","2019/10/12 18:09:25","新北市樹林區水源街27號","121.425331666667","24.98264","6500700","樹林區"
"238018","KEA-2217","2019/10/12 18:09:21","新北市樹林區保順街85號","121.429091666667","24.99448","6500700","樹林區"
"238022","KEA-2213","2019/10/12 18:09:18","新北市樹林區太平路162號","121.418583333333","24.977455","6500700","樹林區"
"238021","KEA-2539","2019/10/12 18:09:17","新北市樹林區柑園街二段173號","121.380563333333","24.9528383333333","6500700","樹林區"
"238025","303-VK","2019/10/12 18:09:26","新北市樹林區保安街二段159號","121.415293333333","25.00274","6500700","樹林區"
"238017","283-BY","2019/10/12 18:09:29","新北市樹林區中正路825號","121.40932","25.017145","6500700","樹林區"
"238014","282-BY","2019/10/12 18:09:32","新北市樹林區大安路19號","121.424838333333","25.0004333333333","6500700","樹林區"
"238020","268-VK","2019/10/12 18:09:25","新北市樹林區俊興街275號","121.418143333333","25.018225","6500700","樹林區"
"238026","172-UY","2019/10/12 18:09:21","新北市樹林區中山路三段125-10號","121.397355","24.97339","6500700","樹林區"
"239007","AAC-297","2019/10/12 18:09:14","新北市鶯歌區尖山埔路189號","121.345583333333","24.9506366666667","6500800","鶯歌區"
"239006","891-R6","2019/10/12 18:09:14","新北市鶯歌區鶯桃路385號","121.333445","24.9636183333333","6500800","鶯歌區"
"239008","527-UM","2019/10/12 18:09:26","新北市鶯歌區朝陽街53巷1號","121.337908333333","24.9781133333333","6500800","鶯歌區"
"239005","526-UM","2019/10/12 18:09:24","新北市鶯歌區鶯桃路668巷73號","121.329965","24.9718116666667","6500800","鶯歌區"
"239001","417-VK","2019/10/12 18:09:11","新北市鶯歌區中正三路327號","121.328388333333","24.93553","6500800","鶯歌區"
"239003","360-BY","2019/10/12 18:09:22","新北市鶯歌區福安街7巷1-1號","121.334891666667","24.964745","6500800","鶯歌區"
"239002","359-BY","2019/10/12 18:09:14","新北市鶯歌區中山路329巷26弄2號","121.34515","24.95646","6500800","鶯歌區"
"239004","193-VK","2019/10/12 18:09:25","新北市鶯歌區尖山路88號","121.348618333333","24.949505","6500800","鶯歌區"
"221008","489-VK","2019/10/12 18:09:28","新北市汐止區明峰街281號","121.626731666667","25.0683166666667","6501100","汐止區"
"221036","130-UY","2019/10/12 18:09:23","新北市汐止區大同路三段116號","121.672075","25.0767466666667","6501100","汐止區"
"221015","131-UY","2019/10/12 18:09:13","新北市汐止區長江街271號","121.664546666667","25.0805916666667","6501100","汐止區"
"244019","KED-0667","2019/10/12 18:09:15","新北市林口區忠孝路581巷7號","121.374868333333","25.0688666666667","6501700","林口區"
"221010","269-BY","2019/10/12 18:09:21","新北市汐止區汐萬路二段248號","121.646218333333","25.088825","6501100","汐止區"
"221012","278-VK","2019/10/12 18:09:20","新北市汐止區長興街二段50巷10號","121.674481666667","25.0811233333333","6501100","汐止區"
"221023","279-VK","2019/10/12 18:09:18","新北市汐止區民族五街69號","121.628283333333","25.0704766666667","6501100","汐止區"
"221032","280-BY","2019/10/12 18:09:19","新北市汐止區橫科路73巷39號","121.619298333333","25.051495","6501100","汐止區"
"221027","281-BY","2019/10/12 18:09:17","新北市汐止區大同路二段532號","121.661291666667","25.0686116666667","6501100","汐止區"
"221029","298-VK","2019/10/12 18:09:15","新北市汐止區樟樹二路353號","121.644086666667","25.0740216666667","6501100","汐止區"
"221021","299-VK","2019/10/12 18:09:20","新北市汐止區復興路23號","121.656068333333","25.0652","6501100","汐止區"
"221031","353-TW","2019/10/12 18:09:16","新北市汐止區中興路167號","121.630905","25.0662683333333","6501100","汐止區"
"221035","622-UM","2019/10/12 18:09:24","新北市汐止區汐萬路一段115巷36號","121.653521666667","25.07037","6501100","汐止區"
"221025","623-UM","2019/10/12 18:09:17","新北市汐止區勤進路1號","121.660431666667","25.0621333333333","6501100","汐止區"
"221038","646-BX","2019/10/12 18:09:18","新北市汐止區南興路87號","121.653086666667","25.0589133333333","6501100","汐止區"
"221033","647-BX","2019/10/12 18:09:19","新北市汐止區林森街19號","121.621628333333","25.0404966666667","6501100","汐止區"
"221002","707-TV","2019/10/12 18:09:16","新北市汐止區福德一路208號","121.634621666667","25.0653283333333","6501100","汐止區"
"221018","753-BX","2019/10/12 18:09:28","新北市汐止區招商街19巷25號","121.667625","25.0682116666667","6501100","汐止區"
"233001","KEA-2870","2019/10/12 18:09:29","新北市烏來區新烏路五段46號","121.543693333333","24.8768633333333","6502900","烏來區"
"220082","610-BX","2019/10/12 18:09:13","新北市板橋區華東街1-9號","121.448246666667","24.9948983333333","6500100","板橋區"
"224002","257-TC","2019/10/12 18:09:31","新北市瑞芳區三爪子坑路64-22號","121.809383333333","25.1054116666667","6501200","瑞芳區"
"242046","281-VK","2019/10/12 18:09:20","新北市新莊區福營路226號","121.427293333333","25.0294266666667","6500500","新莊區"
"220080","568-UM","2019/10/12 18:09:14","新北市板橋區華東街1-9號","121.448151666667","24.9949133333333","6500100","板橋區"
"235068","KEA-2873","2019/10/12 18:09:25","新北市中和區員山路36巷16-3號","121.485163333333","24.9911716666667","6500300","中和區"
"235061","KEA-2875","2019/10/12 18:09:03","新北市中和區國光街215巷24弄10號","121.466723333333","25.0001016666667","6500300","中和區"
"235062","KEA-2876","2019/10/12 18:09:07","新北市中和區景平路999巷1號","121.495446666667","25.005985","6500300","中和區"
