"lineid","car","time","location","longitude","latitude","cityid","cityname"
"234081","298-R6","2019/10/12 18:29:16","新北市永和區福和路1號","121.525371666667","25.0096416666667","6500400","永和區"
"234007","KED-0605","2019/10/12 18:29:24","新北市永和區文化路204號","121.510433333333","25.0164333333333","6500400","永和區"
"234026","9371-KE","2019/10/12 18:29:16","新北市永和區中正路657號","121.514908333333","25.010215","6500400","永和區"
"234011","9373-KE","2019/10/12 18:29:33","新北市永和區文化路154號","121.512431666667","25.0152816666667","6500400","永和區"
"249005","172-UM","2019/10/12 18:29:29","新北市八里區長坑口47-8號","121.390925","25.1342","6502300","八里區"
"249001","173-UM","2019/10/12 18:29:29","新北市八里區龍米路一段140號","121.452945","25.1255583333333","6502300","八里區"
"249004","303-UY","2019/10/12 18:29:27","新北市八里區忠四街9號","121.424941666667","25.1606716666667","6502300","八里區"
"249002","305-UY","2019/10/12 18:29:32","新北市八里區龍形三街15巷2號","121.449608333333","25.1315733333333","6502300","八里區"
"249003","759-BX","2019/10/12 18:29:13","新北市八里區中山路三段409號","121.368416666667","25.1347966666667","6502300","八里區"
"248014","025-BX","2019/10/12 18:29:21","新北市五股區成泰路一段131號","121.43557","25.0726583333333","6501500","五股區"
"248016","026-BX","2019/10/12 18:29:31","新北市五股區凌雲路一段83巷12號","121.45036","25.1008016666667","6501500","五股區"
"248008","KED-0815","2019/10/12 18:29:20","新北市五股區四維路185巷60號","121.462508333333","25.0781533333333","6501500","五股區"
"248020","KED-0813","2019/10/12 18:29:31","新北市五股區孝義路80號","121.449738333333","25.1146566666667","6501500","五股區"
"248012","247-BX","2019/10/12 18:29:22","新北市五股區御成路122號","121.441475","25.0938733333333","6501500","五股區"
"248010","655-BX","2019/10/12 18:29:21","新北市五股區明德路8號","121.433308333333","25.0715866666667","6501500","五股區"
"248004","677-BX","2019/10/12 18:29:26","新北市五股區六合街3號","121.431925","25.088545","6501500","五股區"
"248002","678-BX","2019/10/12 18:29:26","新北市五股區西雲路116-5號","121.444725","25.0935566666667","6501500","五股區"
"232011","375-UM","2019/10/12 18:29:13","新北市坪林區坪雙路一段41號","121.711676666667","24.9424466666667","6502000","坪林區"
"244025","069-UM","2019/10/12 18:29:16","新北市林口區南勢六街81巷16號","121.354368333333","25.0719916666667","6501700","林口區"
"244007","080-UY","2019/10/12 18:29:18","新北市林口區中湖62號","121.38489","25.10071","6501700","林口區"
"244013","KEA-2802","2019/10/12 18:29:27","新北市林口區信義路58-7號","121.382261666667","25.0785216666667","6501700","林口區"
"244023","483-VK","2019/10/12 18:29:32","新北市林口區吉林街1號","121.384676666667","25.075965","6501700","林口區"
"244017","485-VK","2019/10/12 18:29:11","新北市林口區文化二路一段86號","121.366281666667","25.0696266666667","6501700","林口區"
"244009","656-BX","2019/10/12 18:29:18","新北市林口區竹林路276巷1號","121.390083333333","25.0816083333333","6501700","林口區"
"244011","701-TV","2019/10/12 18:29:25","新北市林口區興林路17巷10號","121.390546666667","25.07698","6501700","林口區"
"244021","838-TS","2019/10/12 18:29:11","新北市林口區自強二街28號","121.398153333333","25.0779166666667","6501700","林口區"
"243015","680-BX","2019/10/12 18:29:16","新北市泰山區犁頭窠3-1號","121.42218","25.0605466666667","6501600","泰山區"
"222003","436-BY","2019/10/12 18:29:13","新北市深坑區北深路一段288號","121.628123333333","25.007665","6501800","深坑區"
"222002","659-BX","2019/10/12 18:29:24","新北市深坑區雲鄉路152號","121.62319","24.9980066666667","6501800","深坑區"
"231061","002-UM","2019/10/12 18:29:26","新北市新店區安華路28-1號","121.519528333333","24.9608633333333","6500600","新店區"
"231055","0291-UT","2019/10/12 18:29:25","新北市新店區中正路128巷12號","121.542526666667","24.9719516666667","6500600","新店區"
"231058","0293-UT","2019/10/12 18:29:21","新北市新店區環河路19巷7弄2號","121.537576666667","24.9605866666667","6500600","新店區"
"231044","046-UY","2019/10/12 18:29:27","新北市新店區安華路28-1號","121.519178333333","24.960685","6500600","新店區"
"231060","106-UY","2019/10/12 18:29:23","新北市新店區安華路28-1號","121.519831666667","24.9608983333333","6500600","新店區"
"231051","107-UY","2019/10/12 18:29:21","新北市新店區安一路一段1-1號","121.519383333333","24.9611733333333","6500600","新店區"
"231065","110-UY","2019/10/12 18:29:32","新北市新店區安華路28-1號","121.51932","24.9609766666667","6500600","新店區"
"231062","256-BX","2019/10/12 18:29:10","新北市新店區安一路一段1-1號","121.519711666667","24.9611016666667","6500600","新店區"
"231054","260-TV","2019/10/12 18:29:34","新北市新店區安一路一段1-1號","121.519273333333","24.9612083333333","6500600","新店區"
"231042","268-BY","2019/10/12 18:29:18","新北市新店區安一路一段1-1號","121.519528333333","24.9613966666667","6500600","新店區"
"231064","278-BY","2019/10/12 18:29:26","新北市新店區安一路一段1-1號","121.519816666667","24.9611633333333","6500600","新店區"
"231050","AAD-862","2019/10/12 18:29:20","新北市新店區安華路28-1號","121.519821666667","24.96093","6500600","新店區"
"231045","355-BY","2019/10/12 18:29:29","新北市新店區安華路28-1號","121.51914","24.960835","6500600","新店區"
"231056","4715-K9","2019/10/12 18:29:33","新北市新店區二十張路105巷16號","121.536861666667","24.9790216666667","6500600","新店區"
"231052","512-UM","2019/10/12 18:29:13","新北市新店區北宜路一段286號","121.546625","24.9526366666667","6500600","新店區"
"231063","641-BX","2019/10/12 18:29:20","新北市新店區安華路28-1號","121.519695","24.96053","6500600","新店區"
"231048","KED-0819","2019/10/12 18:29:28","新北市新店區安一路一段1-1號","121.51968","24.9612883333333","6500600","新店區"
"231057","720-UM","2019/10/12 18:29:30","新北市新店區安一路一段1-1號","121.519333333333","24.961155","6500600","新店區"
"231043","899-TW","2019/10/12 18:29:24","新北市新店區安華路28-1號","121.519148333333","24.9608133333333","6500600","新店區"
"231066","AKT-0513","2019/10/12 18:29:18","新北市新店區安華路28-1號","121.519423333333","24.9605533333333","6500600","新店區"
"235066","003-UY","2019/10/12 18:29:30","新北市中和區中山路二段118號","121.50261","25.0039333333333","6500300","中和區"
"235063","006-UY","2019/10/12 18:29:31","新北市中和區連城路268-6號","121.486391666667","24.9963466666667","6500300","中和區"
"235056","096-UM","2019/10/12 18:29:27","新北市中和區員山路611巷1號","121.477891666667","25.0112466666667","6500300","中和區"
"235039","097-UM","2019/10/12 18:29:20","新北市中和區安平路196號","121.513336666667","24.9994666666667","6500300","中和區"
"235065","098-UM","2019/10/12 18:29:28","新北市中和區中山路二段64巷14弄1號","121.503381666667","25.0056583333333","6500300","中和區"
"235040","150-BY","2019/10/12 18:29:26","新北市中和區安平路59號","121.509441666667","24.9951383333333","6500300","中和區"
"235058","151-BY","2019/10/12 18:29:32","新北市中和區圓通路433巷8號","121.488148333333","24.98774","6500300","中和區"
"235055","183-VK","2019/10/12 18:29:26","新北市中和區民生街72號","121.468541666667","25.004845","6500300","中和區"
"235038","185-VK","2019/10/12 18:29:26","新北市中和區秀朗路三段128巷17弄43號","121.522811666667","24.9931333333333","6500300","中和區"
"235067","255-BX","2019/10/12 18:29:14","新北市中和區新生街26號","121.483085","25.00399","6500300","中和區"
"235044","293-VK","2019/10/12 18:29:22","新北市中和區復興路301巷2弄2號","121.501505","24.9899833333333","6500300","中和區"
"235072","301-VK","2019/10/12 18:29:21","新北市中和區連城路103號","121.496298333333","24.99961","6500300","中和區"
"235043","352-BY","2019/10/12 18:29:18","新北市中和區景平路257號","121.50855","24.99285","6500300","中和區"
"235042","KEA-2878","2019/10/12 18:29:20","新北市中和區自立路56巷18號","121.522551666667","24.99169","6500300","中和區"
"235050","4979-A6","2019/10/12 18:29:16","新北市中和區景新街362巷10號","121.511956666667","24.9901383333333","6500300","中和區"
"235069","4980-A6","2019/10/12 18:29:16","新北市中和區連城路101號","121.4966","24.9996883333333","6500300","中和區"
"235070","558-UM","2019/10/12 18:29:24","新北市中和區景新街129號","121.50581","24.99732","6500300","中和區"
"235045","565-BX","2019/10/12 18:29:21","新北市中和區南山路236巷32號","121.505486666667","24.988545","6500300","中和區"
"235060","KED-0823","2019/10/12 18:29:15","新北市中和區中山路三段112號","121.476413333333","25.00581","6500300","中和區"
"235054","640-BX","2019/10/12 18:29:20","新北市中和區莒光路118號","121.472468333333","25.0019233333333","6500300","中和區"
"235047","732-UM","2019/10/12 18:29:33","新北市中和區南山路300號","121.507895","24.9872033333333","6500300","中和區"
"235046","733-UM","2019/10/12 18:29:14","新北市中和區興南路一段83號","121.50998","24.9890366666667","6500300","中和區"
"235057","801-TS","2019/10/12 18:29:17","新北市中和區員山路327巷18號","121.480798333333","25.0013416666667","6500300","中和區"
"235041","802-TS","2019/10/12 18:29:24","新北市中和區景安路30-5號","121.507193333333","24.998515","6500300","中和區"
"235052","805-TS","2019/10/12 18:29:20","新北市中和區興南路二段94號","121.505291666667","24.98431","6500300","中和區"
"235048","896-TW","2019/10/12 18:29:17","新北市中和區中正路51號","121.50186","24.99339","6500300","中和區"
"235053","900-TW","2019/10/12 18:29:19","新北市中和區民享街462號","121.469701666667","24.9922566666667","6500300","中和區"
"235064","911-UM","2019/10/12 18:29:26","新北市中和區連城路109巷42號","121.4972","24.9978366666667","6500300","中和區"
"235051","157-BY","2019/10/12 18:29:13","新北市中和區興南路二段114巷14號","121.503896666667","24.9846133333333","6500300","中和區"
"235037","AAC-213","2019/10/12 18:29:16","新北市中和區景德街72號","121.516761666667","24.9915116666667","6500300","中和區"
"235059","AAC-215","2019/10/12 18:29:19","新北市中和區員山路36巷16-3號","121.485121666667","24.99149","6500300","中和區"
"220065","072-UY","2019/10/12 18:29:19","新北市板橋區南雅南路二段88號","121.453636666667","25.00155","6500100","板橋區"
"220069","AAD-861","2019/10/12 18:29:20","新北市板橋區華東街1-10號","121.448281666667","24.9951","6500100","板橋區"
"226004","312-R5","2019/10/12 18:29:31","新北市平溪區靜安路二段300號","121.735733333333","25.0238533333333","6502400","平溪區"
"235049","251-BX","2019/10/12 18:29:26","新北市中和區景安路72號","121.505726666667","24.9966","6500300","中和區"
"228003","097-TW","2019/10/12 18:29:20","新北市貢寮區和美里和美街40號","121.912568333333","25.0898816666667","6502600","貢寮區"
"228001","212-TW","2019/10/12 18:29:16","新北市貢寮區仁理村仁和路124號","121.922981666667","25.0512433333333","6502600","貢寮區"
"228002","663-BX","2019/10/12 18:29:28","新北市貢寮區福連里福興街13號","121.99058","25.01208","6502600","貢寮區"
"224010","AGQ-8101","2019/10/12 18:29:28","新北市瑞芳區崙頂路47號","121.84455","25.1072033333333","6501200","瑞芳區"
"224006","676-BX","2019/10/12 18:29:26","新北市瑞芳區明燈路二段56號","121.809865","25.10757","6501200","瑞芳區"
"224009","275-VK","2019/10/12 18:29:18","新北市瑞芳區祈堂路184號","121.857641666667","25.1095783333333","6501200","瑞芳區"
"224008","273-VK","2019/10/12 18:29:31","新北市瑞芳區逢甲路53號","121.808178333333","25.109215","6501200","瑞芳區"
"224005","271-BY","2019/10/12 18:29:14","新北市瑞芳區海濱路154-1號","121.829806666667","25.1220683333333","6501200","瑞芳區"
"227002","642-TC","2019/10/12 18:29:10","新北市雙溪區魚行里坤溪35號","121.870513333333","25.030345","6502500","雙溪區"
"227001","400-TW","2019/10/12 18:29:20","新北市雙溪區牡丹里牡丹131號","121.8509","25.0591266666667","6502500","雙溪區"
"253005","032-BX","2019/10/12 18:29:23","新北市石門區老崩山11-1號","121.552475","25.290895","6502200","石門區"
"253006","295-VK","2019/10/12 18:29:29","新北市石門區公地51-3號","121.545176666667","25.2898316666667","6502200","石門區"
"222001","KEA-2212","2019/10/12 18:29:20","新北市深坑區北深路一段185號","121.631685","25.010295","6501800","深坑區"
"208002","KEA-2872","2019/10/12 18:29:29","新北市金山區民生路47號","121.641606666667","25.2209116666667","6502700","金山區"
"208003","665-BX","2019/10/12 18:29:29","新北市金山區中山路118-1號","121.639325","25.2199666666667","6502700","金山區"
"251004","009-UM","2019/10/12 18:29:16","新北市淡水區民族路31巷29號","121.462308333333","25.1364366666667","6501000","淡水區"
"251005","010-UM","2019/10/12 18:29:18","新北市淡水區中正東路35巷9號","121.446406666667","25.1686016666667","6501000","淡水區"
"251001","011-UM","2019/10/12 18:29:12","新北市淡水區自強路122巷1號","121.464435","25.1330966666667","6501000","淡水區"
"251015","KEA-2871","2019/10/12 18:29:23","新北市淡水區興福寮88巷216號","121.485971666667","25.1666116666667","6501000","淡水區"
"251016","179-VK","2019/10/12 18:29:30","新北市淡水區下圭柔山114-5號","121.446505","25.211265","6501000","淡水區"
"251013","180-VK","2019/10/12 18:29:25","新北市淡水區椿子林20號","121.480011666667","25.20383","6501000","淡水區"
"251008","181-VK","2019/10/12 18:29:15","新北市淡水區北投子87-3號","121.469246666667","25.179175","6501000","淡水區"
"251010","413-VK","2019/10/12 18:29:32","新北市淡水區沙崙路181巷1號","121.42411","25.1842933333333","6501000","淡水區"
"251012","443-VK","2019/10/12 18:29:16","新北市淡水區北投子55號","121.457773333333","25.182145","6501000","淡水區"
"251006","561-UM","2019/10/12 18:29:23","新北市淡水區新生街51巷10號","121.440561666667","25.1751766666667","6501000","淡水區"
"251014","577-R6","2019/10/12 18:29:20","新北市淡水區番社前25-1號","121.49446","25.2146133333333","6501000","淡水區"
"251011","650-BX","2019/10/12 18:29:11","新北市淡水區坪頂路22號","121.456551666667","25.1615616666667","6501000","淡水區"
"251002","672-BX","2019/10/12 18:29:28","新北市淡水區竿蓁二街61-2號","121.454848333333","25.1633033333333","6501000","淡水區"
"251003","673-BX","2019/10/12 18:29:19","新北市淡水區北新路169巷32號","121.449563333333","25.1803766666667","6501000","淡水區"
"207003","550-UM","2019/10/12 18:29:17","新北市萬里區野柳里港東路6號","121.686478333333","25.2030816666667","6502800","萬里區"
"207004","291-VK","2019/10/12 18:29:10","新北市萬里區萬里里瑪鋉路21號","121.687455","25.175445","6502800","萬里區"
"252002","178-VK","2019/10/12 18:29:14","新北市三芝區中山路二段39號","121.502945","25.2551366666667","6502100","三芝區"
"252003","249-BX","2019/10/12 18:29:21","新北市三芝區後厝里北勢子41-2號","121.471961666667","25.2526033333333","6502100","三芝區"
"208001","170-UY","2019/10/12 18:29:18","新北市金山區溫泉路21巷1號","121.637791666667","25.2228016666667","6502700","金山區"
"237004","KEA-2597","2019/10/12 18:29:13","新北市三峽區五寮22號","121.374806666667","24.8703633333333","6500900","三峽區"
"237007","153-BY","2019/10/12 18:29:27","新北市三峽區中正路三段154號","121.353068333333","24.9036983333333","6500900","三峽區"
"237009","210-TH","2019/10/12 18:29:20","新北市三峽區大同路227號","121.36726","24.926745","6500900","三峽區"
"237013","252-BX","2019/10/12 18:29:14","新北市三峽區光明路69巷25號","121.376601666667","24.9292483333333","6500900","三峽區"
"237012","275-BY","2019/10/12 18:29:21","新北市三峽區三樹路214巷11號","121.379971666667","24.9416766666667","6500900","三峽區"
"237008","302-VK","2019/10/12 18:29:23","新北市三峽區白雞68-343號","121.39313","24.9094883333333","6500900","三峽區"
"237014","433-BY","2019/10/12 18:29:12","新北市三峽區文化路105號","121.370608333333","24.9360466666667","6500900","三峽區"
"237006","5529-G3","2019/10/12 18:29:25","新北市三峽區溪東路473巷5弄3號","121.413893333333","24.9284","6500900","三峽區"
"237011","KEA-2596","2019/10/12 18:29:17","新北市三峽區溪東路218巷32號","121.407133333333","24.9300866666667","6500900","三峽區"
"237015","649-BX","2019/10/12 18:29:24","新北市三峽區竹崙路116號","121.434065","24.9106816666667","6500900","三峽區"
"237010","706-TV","2019/10/12 18:29:26","新北市三峽區中山路235號","121.36278","24.9372","6500900","三峽區"
"237005","AKY-6261","2019/10/12 18:29:29","新北市三峽區民族街5巷32號","121.36981","24.9323133333333","6500900","三峽區"
"236042","KED-0685","2019/10/12 18:29:28","新北市土城區裕民路67巷4弄12號","121.45018","24.987665","6501300","土城區"
"236079","166-UM","2019/10/12 18:29:31","新北市土城區中央路四段25-10號","121.424521666667","24.96229","6501300","土城區"
"236030","253-BX","2019/10/12 18:29:22","新北市土城區水源街39-1號","121.440703333333","24.9757466666667","6501300","土城區"
"236026","269-VK","2019/10/12 18:29:17","新北市土城區南天母路135巷32號","121.44885","24.9544033333333","6501300","土城區"
"236014","270-VK","2019/10/12 18:29:20","新北市土城區青雲路39巷7號","121.460316666667","24.987425","6501300","土城區"
"236038","271-VK","2019/10/12 18:29:19","新北市土城區明德路一段323號","121.458901666667","24.9770033333333","6501300","土城區"
"236070","KEA-2877","2019/10/12 18:29:19","新北市土城區永豐路255巷23弄1號","121.475246666667","24.9733683333333","6501300","土城區"
"252001","KED-0821","2019/10/12 18:29:29","新北市三芝區中興街二段14號","121.4986","25.2562466666667","6502100","三芝區"
"236021","401-BY","2019/10/12 18:29:28","新北市土城區永豐路202巷14號","121.466478333333","24.983515","6501300","土城區"
"236063","752-BX","2019/10/12 18:28:33","新北市土城區金城路三段245號","121.471543333333","24.9898633333333","6501300","土城區"
"236059","912-UM","2019/10/12 18:29:22","新北市土城區中央路四段147號","121.415573333333","24.957155","6501300","土城區"
"236049","913-UM","2019/10/12 18:29:21","新北市土城區青雲路603號","121.459566666667","24.9697216666667","6501300","土城區"
"236055","AAC-216","2019/10/12 18:29:24","新北市土城區中華路二段1號","121.439695","24.9791583333333","6501300","土城區"
"242042","AAC-296","2019/10/12 18:29:22","新北市新莊區天祥街92巷21號","121.415656666667","25.0301383333333","6500500","新莊區"
"242061","986-R7","2019/10/12 18:29:18","新北市新莊區四維路97巷26號","121.424313333333","25.0233183333333","6500500","新莊區"
"242004","751-BX","2019/10/12 18:29:30","新北市新莊區三和路12-21號","121.441978333333","25.0386766666667","6500500","新莊區"
"242058","612-BX","2019/10/12 18:29:19","新北市新莊區中正路891-14號","121.413085","25.0224283333333","6500500","新莊區"
"242053","497-BY","2019/10/12 18:29:26","新北市新莊區樹新路120巷45號","121.430088333333","24.9960133333333","6500500","新莊區"
"242002","441-UM","2019/10/12 18:29:32","新北市新莊區瓊林路59-87號","121.442736666667","25.0247816666667","6500500","新莊區"
"242044","415-TV","2019/10/12 18:29:14","新北市新莊區中正路新旺巷41號","121.416526666667","25.0226216666667","6500500","新莊區"
"242025","362-BY","2019/10/12 18:29:24","新北市新莊區中原路656號","121.44323","25.0543433333333","6500500","新莊區"
"242015","132-UY","2019/10/12 18:29:18","新北市新莊區中正路473-1號","121.44195","25.0329216666667","6500500","新莊區"
"242056","172-VK","2019/10/12 18:29:21","新北市新莊區瓊泰路77巷16號","121.442535","25.0292666666667","6500500","新莊區"
"242009","349-TH","2019/10/12 18:29:22","新北市新莊區中華路二段36-1號","121.453798333333","25.0454516666667","6500500","新莊區"
"238015","755-BX","2019/10/12 18:29:29","新北市樹林區復興路390巷8號","121.414825","24.9856516666667","6500700","樹林區"
"238023","601-UM","2019/10/12 18:29:21","新北市樹林區三福街114號","121.406468333333","25.01633","6500700","樹林區"
"238024","5061-A6","2019/10/12 18:29:15","新北市樹林區育英街1-1號","121.422655","24.988985","6500700","樹林區"
"238018","KEA-2217","2019/10/12 18:29:22","新北市樹林區樹新路36-4號","121.428178333333","24.9952366666667","6500700","樹林區"
"238017","283-BY","2019/10/12 18:29:29","新北市樹林區保安街二段335號","121.412408333333","25.0079366666667","6500700","樹林區"
"238014","282-BY","2019/10/12 18:29:31","新北市樹林區大安路111巷25號","121.423223333333","24.99755","6500700","樹林區"
"238020","268-VK","2019/10/12 18:29:25","新北市樹林區三龍街88號","121.41428","25.0186766666667","6500700","樹林區"
"238026","172-UY","2019/10/12 18:29:21","新北市樹林區佳園路一段75巷14弄10號","121.395186666667","24.969885","6500700","樹林區"
"239007","AAC-297","2019/10/12 18:29:14","新北市鶯歌區重慶街84號","121.348665","24.9520083333333","6500800","鶯歌區"
"239006","891-R6","2019/10/12 18:29:14","新北市鶯歌區鶯桃路296巷53號","121.335831666667","24.96136","6500800","鶯歌區"
"239008","527-UM","2019/10/12 18:29:24","新北市鶯歌區朝陽街4號","121.336246666667","24.9766","6500800","鶯歌區"
"239005","526-UM","2019/10/12 18:29:24","新北市鶯歌區鶯桃路668巷73號","121.329951666667","24.9718016666667","6500800","鶯歌區"
"239001","417-VK","2019/10/12 18:29:31","新北市鶯歌區中正三路福德巷2弄8號","121.339405","24.941295","6500800","鶯歌區"
"239003","360-BY","2019/10/12 18:29:22","新北市鶯歌區福安街58號","121.335573333333","24.9652433333333","6500800","鶯歌區"
"239002","359-BY","2019/10/12 18:29:14","新北市鶯歌區中山路117號","121.350023333333","24.9569033333333","6500800","鶯歌區"
"239004","193-VK","2019/10/12 18:29:25","新北市鶯歌區尖山路174巷35弄3號","121.344426666667","24.948515","6500800","鶯歌區"
"221036","130-UY","2019/10/12 18:29:23","新北市汐止區大同路三段143號","121.669326666667","25.0777016666667","6501100","汐止區"
"221015","131-UY","2019/10/12 18:29:13","新北市汐止區鄉長路二段23巷9號","121.667515","25.0826633333333","6501100","汐止區"
"244019","KED-0667","2019/10/12 18:29:15","新北市林口區麗園二街36巷1號","121.380525","25.0690416666667","6501700","林口區"
"221010","269-BY","2019/10/12 18:29:21","新北市汐止區汐萬路二段345號","121.64446","25.09111","6501100","汐止區"
"221012","278-VK","2019/10/12 18:29:20","新北市汐止區保長路35巷13號","121.673245","25.08008","6501100","汐止區"
"221023","279-VK","2019/10/12 18:29:18","新北市汐止區康寧街474巷9號","121.632191666667","25.067895","6501100","汐止區"
"221032","280-BY","2019/10/12 18:29:19","新北市汐止區民權街二段109巷12號","121.6195","25.0467316666667","6501100","汐止區"
"221027","281-BY","2019/10/12 18:29:17","新北市汐止區和平街49號","121.662041666667","25.0707466666667","6501100","汐止區"
"221021","299-VK","2019/10/12 18:29:20","新北市汐止區連興街120號","121.65368","25.0624533333333","6501100","汐止區"
"221031","353-TW","2019/10/12 18:29:16","新北市汐止區大同路一段160-7號","121.635535","25.0553616666667","6501100","汐止區"
"221035","622-UM","2019/10/12 18:29:01","新北市汐止區大同路二段187巷6弄1號","121.65242","25.0654083333333","6501100","汐止區"
"221025","623-UM","2019/10/12 18:29:17","新北市汐止區仁愛路116號","121.662783333333","25.0637033333333","6501100","汐止區"
"221038","646-BX","2019/10/12 18:29:18","新北市汐止區忠孝東路256號","121.663013333333","25.0675266666667","6501100","汐止區"
"221033","647-BX","2019/10/12 18:29:19","新北市汐止區宜興街59巷1號","121.62243","25.0428133333333","6501100","汐止區"
"221002","707-TV","2019/10/12 18:29:16","新北市汐止區福德一路170號","121.636008333333","25.0661983333333","6501100","汐止區"
"221018","753-BX","2019/10/12 18:29:27","新北市汐止區茄苳路142號","121.668721666667","25.0700333333333","6501100","汐止區"
"220082","610-BX","2019/10/12 18:29:13","新北市板橋區華東街1-9號","121.448278333333","24.9948833333333","6500100","板橋區"
"224002","257-TC","2019/10/12 18:29:30","新北市瑞芳區正貿新村1號","121.812618333333","25.1062116666667","6501200","瑞芳區"
"220056","276-BY","2019/10/12 18:29:33","新北市板橋區華東街1-9號","121.448121666667","24.99495","6500100","板橋區"
"220071","283-VK","2019/10/12 18:29:12","新北市板橋區華東街1-9號","121.448053333333","24.9949133333333","6500100","板橋區"
"220094","285-UM","2019/10/12 18:29:27","新北市板橋區民生路二段120號","121.470348333333","25.01993","6500100","板橋區"
"220081","287-VK","2019/10/12 18:29:22","新北市板橋區華東街1-10號","121.448235","24.995015","6500100","板橋區"
"220084","296-UM","2019/10/12 18:29:29","新北市板橋區華東街1-9號","121.448128333333","24.9949616666667","6500100","板橋區"
"242046","281-VK","2019/10/12 18:29:24","新北市新莊區中正路803巷9號","121.42176","25.0279466666667","6500500","新莊區"
"220035","560-BX","2019/10/12 18:29:25","新北市板橋區南雅西路一段5巷5號","121.454685","25.00389","6500100","板橋區"
"220103","561-BX","2019/10/12 18:29:24","新北市板橋區民生路二段120號","121.470491666667","25.01964","6500100","板橋區"
"220080","568-UM","2019/10/12 18:29:14","新北市板橋區華東街1-9號","121.448156666667","24.9949266666667","6500100","板橋區"
"220077","687-BX","2019/10/12 18:29:16","新北市板橋區華東街1-10號","121.448378333333","24.9949633333333","6500100","板橋區"
"220055","827-TW","2019/10/12 18:29:20","新北市板橋區四川路二段140巷16弄13號","121.448631666667","24.9935583333333","6500100","板橋區"
"220073","985-R7","2019/10/12 18:29:28","新北市板橋區四川路二段140巷14號","121.449445","24.993285","6500100","板橋區"
"220064","AAC-253","2019/10/12 18:29:25","新北市板橋區南雅南路二段4巷22號","121.453516666667","25.0036616666667","6500100","板橋區"
"235068","KEA-2873","2019/10/12 18:29:25","新北市中和區中正路273-5號","121.49571","24.993285","6500300","中和區"
"235061","KEA-2875","2019/10/12 18:29:03","新北市中和區民享街90巷2號","121.47457","25.0004166666667","6500300","中和區"
"235062","KEA-2876","2019/10/12 18:29:07","新北市中和區中山路二段312巷33弄17號","121.494811666667","25.0038566666667","6500300","中和區"
