"lineid","car","time","location","longitude","latitude","cityid","cityname"
"234081","298-R6","2019/10/12 18:39:16","新北市永和區林森路64號","121.523918333333","25.0040516666667","6500400","永和區"
"234017","745-BX","2019/10/12 18:39:21","新北市永和區福和路1號","121.525708333333","25.0094016666667","6500400","永和區"
"234030","746-BX","2019/10/12 18:39:15","新北市永和區得和路326號","121.523241666667","24.9995416666667","6500400","永和區"
"234007","KED-0605","2019/10/12 18:39:24","新北市永和區文化路168號","121.512118333333","25.0153716666667","6500400","永和區"
"234013","KEA-2591","2019/10/12 18:39:16","新北市永和區環河西路一段99號","121.511176666667","25.0178383333333","6500400","永和區"
"234061","AAD-866","2019/10/12 18:39:28","新北市永和區環河東路二段90號","121.524373333333","25.0106516666667","6500400","永和區"
"234011","9373-KE","2019/10/12 18:39:13","新北市永和區文化路9巷34號","121.515196666667","25.014255","6500400","永和區"
"249005","172-UM","2019/10/12 18:39:29","新北市八里區中華路三段196號","121.388163333333","25.1255866666667","6502300","八里區"
"249001","173-UM","2019/10/12 18:39:29","新北市八里區龍米路一段418號","121.45108","25.1334983333333","6502300","八里區"
"249004","303-UY","2019/10/12 18:39:27","新北市八里區忠四街9號","121.424986666667","25.1608916666667","6502300","八里區"
"249002","305-UY","2019/10/12 18:39:12","新北市八里區龍形一街12巷10號","121.449866666667","25.1307983333333","6502300","八里區"
"249003","759-BX","2019/10/12 18:39:13","新北市八里區博物館路555號","121.40459","25.1555683333333","6502300","八里區"
"248014","025-BX","2019/10/12 18:39:22","新北市五股區民義路一段7號","121.437235","25.0833083333333","6501500","五股區"
"248016","026-BX","2019/10/12 18:39:28","新北市五股區凌雲路一段149巷7號","121.448906666667","25.10162","6501500","五股區"
"248008","KED-0815","2019/10/12 18:39:27","新北市五股區中興路一段149號","121.465066666667","25.0734533333333","6501500","五股區"
"248020","KED-0813","2019/10/12 18:39:16","新北市五股區凌雲路三段田埔巷16號","121.437958333333","25.1215533333333","6501500","五股區"
"248012","247-BX","2019/10/12 18:39:17","新北市五股區成泰路三段39號","121.442061666667","25.0885966666667","6501500","五股區"
"248010","655-BX","2019/10/12 18:39:19","新北市五股區水碓七路117號","121.430743333333","25.0739183333333","6501500","五股區"
"248004","677-BX","2019/10/12 18:39:26","新北市五股區民義路一段314號","121.421918333333","25.0958416666667","6501500","五股區"
"248002","678-BX","2019/10/12 18:39:26","新北市五股區西雲路218號","121.448153333333","25.0960366666667","6501500","五股區"
"234023","9380-KE","2019/10/12 18:39:24","新北市永和區福和路76巷5弄9號","121.522328333333","25.0083083333333","6500400","永和區"
"234077","969-R7","2019/10/12 18:39:14","新北市永和區中正路610-1號","121.516998333333","25.0072583333333","6500400","永和區"
"232011","375-UM","2019/10/12 18:39:13","新北市坪林區坪雙路一段41號","121.71169","24.9424466666667","6502000","坪林區"
"244025","069-UM","2019/10/12 18:39:16","新北市林口區南勢三街31號","121.358161666667","25.0781683333333","6501700","林口區"
"244007","080-UY","2019/10/12 18:39:17","新北市林口區太平里5-12號","121.379775","25.1129416666667","6501700","林口區"
"244013","KEA-2802","2019/10/12 18:39:27","新北市林口區麗園一街6巷6-3號","121.375251666667","25.0706683333333","6501700","林口區"
"244023","483-VK","2019/10/12 18:39:12","新北市林口區四維路156號","121.380836666667","25.0758533333333","6501700","林口區"
"244017","485-VK","2019/10/12 18:39:31","新北市林口區文化二路一段20巷50-1號","121.365221666667","25.066285","6501700","林口區"
"244009","656-BX","2019/10/12 18:39:18","新北市林口區竹林路344號","121.391571666667","25.0837433333333","6501700","林口區"
"244011","701-TV","2019/10/12 18:39:25","新北市林口區新寮1-65號","121.392758333333","25.0766533333333","6501700","林口區"
"244021","838-TS","2019/10/12 18:39:31","新北市林口區工六路13號","121.39966","25.0779183333333","6501700","林口區"
"243010","297-R6","2019/10/12 18:39:26","新北市泰山區公園路36號","121.428953333333","25.0543566666667","6501600","泰山區"
"243014","KEA-2801","2019/10/12 18:39:24","新北市泰山區犁頭窠3-1號","121.422206666667","25.06054","6501600","泰山區"
"243016","421-VK","2019/10/12 18:39:15","新北市泰山區泰林路二段601號","121.421538333333","25.0635833333333","6501600","泰山區"
"243015","680-BX","2019/10/12 18:39:16","新北市泰山區美寧街50號","121.430485","25.064475","6501600","泰山區"
"222003","436-BY","2019/10/12 18:39:13","新北市深坑區翠谷街21巷3號","121.626806666667","25.00833","6501800","深坑區"
"222002","659-BX","2019/10/12 18:39:25","新北市深坑區文山路一段62巷7號","121.622656666667","25.0009383333333","6501800","深坑區"
"231061","002-UM","2019/10/12 18:39:26","新北市新店區安華路28-1號","121.519663333333","24.9608416666667","6500600","新店區"
"231055","0291-UT","2019/10/12 18:39:25","新北市新店區華興街14號","121.537818333333","24.9695716666667","6500600","新店區"
"231058","0293-UT","2019/10/12 18:39:21","新北市新店區新店後街58號","121.53774","24.954005","6500600","新店區"
"231044","046-UY","2019/10/12 18:39:27","新北市新店區安康路一段50號","121.530226666667","24.9611","6500600","新店區"
"231060","106-UY","2019/10/12 18:39:23","新北市新店區安華路28-1號","121.519781666667","24.960755","6500600","新店區"
"231051","107-UY","2019/10/12 18:39:21","新北市新店區環河路78號","121.536995","24.96325","6500600","新店區"
"231065","110-UY","2019/10/12 18:39:12","新北市新店區安一路一段1-1號","121.519286666667","24.9610966666667","6500600","新店區"
"231062","256-BX","2019/10/12 18:39:30","新北市新店區安一路一段1-1號","121.519726666667","24.961275","6500600","新店區"
"231054","260-TV","2019/10/12 18:39:14","新北市新店區安一路一段1-1號","121.519473333333","24.96114","6500600","新店區"
"231042","268-BY","2019/10/12 18:39:18","新北市新店區安一路一段1-1號","121.519573333333","24.9614183333333","6500600","新店區"
"231064","278-BY","2019/10/12 18:39:26","新北市新店區安一路一段1-1號","121.519768333333","24.9612233333333","6500600","新店區"
"231050","AAD-862","2019/10/12 18:39:20","新北市新店區安華路28-1號","121.519528333333","24.9609516666667","6500600","新店區"
"231045","355-BY","2019/10/12 18:39:29","新北市新店區安華路28-1號","121.519135","24.96087","6500600","新店區"
"231056","4715-K9","2019/10/12 18:39:13","新北市新店區大豐路86號","121.538055","24.9789583333333","6500600","新店區"
"231052","512-UM","2019/10/12 18:39:33","新北市新店區永興路38號","121.543408333333","24.9386483333333","6500600","新店區"
"231063","641-BX","2019/10/12 18:39:20","新北市新店區安華路28-1號","121.519648333333","24.9606116666667","6500600","新店區"
"231048","KED-0819","2019/10/12 18:39:28","新北市新店區安一路一段1-1號","121.519821666667","24.96116","6500600","新店區"
"231046","719-UM","2019/10/12 18:39:21","新北市新店區直潭二街1號","121.53541","24.94315","6500600","新店區"
"231057","720-UM","2019/10/12 18:39:10","新北市新店區北宜路一段140巷5號","121.539886666667","24.9545466666667","6500600","新店區"
"231059","897-TW","2019/10/12 18:39:21","新北市新店區安華路28-1號","121.51967","24.96064","6500600","新店區"
"231043","899-TW","2019/10/12 18:39:24","新北市新店區安華路28-1號","121.51918","24.96085","6500600","新店區"
"231066","AKT-0513","2019/10/12 18:39:18","新北市新店區安華路1-1號","121.519388333333","24.9605183333333","6500600","新店區"
"235066","003-UY","2019/10/12 18:39:10","新北市中和區光華街44號","121.50498","25.0035966666667","6500300","中和區"
"235063","006-UY","2019/10/12 18:39:31","新北市中和區錦和路97號","121.49008","24.9955116666667","6500300","中和區"
"235056","096-UM","2019/10/12 18:39:27","新北市板橋區民生路一段20-1號","121.478016666667","25.0113433333333","6500300","中和區"
"235039","097-UM","2019/10/12 18:39:20","新北市中和區安樂路145號","121.514458333333","24.9969616666667","6500300","中和區"
"235065","098-UM","2019/10/12 18:39:28","新北市中和區莊敬路33巷36弄10號","121.500446666667","25.006455","6500300","中和區"
"235040","150-BY","2019/10/12 18:39:26","新北市中和區安平路59號","121.509503333333","24.9951166666667","6500300","中和區"
"235058","151-BY","2019/10/12 18:39:11","新北市中和區員山路143巷32號","121.479843333333","24.99575","6500300","中和區"
"235055","183-VK","2019/10/12 18:39:26","新北市中和區民生街18號","121.470271666667","25.00546","6500300","中和區"
"235038","185-VK","2019/10/12 18:39:26","新北市中和區大勇街60巷30號","121.519323333333","24.9946166666667","6500300","中和區"
"235067","255-BX","2019/10/12 18:39:14","新北市中和區新生街36號","121.483243333333","25.003665","6500300","中和區"
"235044","293-VK","2019/10/12 18:39:20","新北市中和區復興路280巷6號","121.502263333333","24.991055","6500300","中和區"
"235072","301-VK","2019/10/12 18:39:21","新北市中和區中山路二段127號","121.502608333333","25.0034566666667","6500300","中和區"
"235043","352-BY","2019/10/12 18:39:18","新北市中和區景平路73號","121.518831666667","24.9915266666667","6500300","中和區"
"235042","KEA-2878","2019/10/12 18:39:10","新北市中和區成功路41巷1號","121.52627","24.9932166666667","6500300","中和區"
"235050","4979-A6","2019/10/12 18:39:16","新北市中和區忠孝街103號","121.512045","24.9862733333333","6500300","中和區"
"235069","4980-A6","2019/10/12 18:39:16","新北市中和區連城路65巷12號","121.497896666667","25.0006733333333","6500300","中和區"
"235070","558-UM","2019/10/12 18:39:24","新北市中和區圓通路25號","121.501263333333","24.9978783333333","6500300","中和區"
"235045","565-BX","2019/10/12 18:39:21","新北市中和區復興路55號","121.504368333333","24.99011","6500300","中和區"
"235060","KED-0823","2019/10/12 18:39:15","新北市中和區中山路三段113號","121.474665","25.006215","6500300","中和區"
"235054","640-BX","2019/10/12 18:39:19","新北市中和區自治街18號","121.474521666667","25.003195","6500300","中和區"
"235047","732-UM","2019/10/12 18:39:12","新北市中和區興南路二段7號","121.507976666667","24.98623","6500300","中和區"
"235046","733-UM","2019/10/12 18:39:14","新北市中和區仁愛街36巷44號","121.511343333333","24.9862583333333","6500300","中和區"
"235057","801-TS","2019/10/12 18:39:32","新北市中和區民安街25巷11號","121.480518333333","25.0003033333333","6500300","中和區"
"235041","802-TS","2019/10/12 18:39:24","新北市中和區中安街178巷13弄3號","121.510388333333","24.9986633333333","6500300","中和區"
"235052","805-TS","2019/10/12 18:39:20","新北市中和區興南路三段20巷4號","121.496935","24.9796233333333","6500300","中和區"
"235048","896-TW","2019/10/12 18:39:17","新北市中和區南山路250巷2號","121.507738333333","24.98899","6500300","中和區"
"235053","900-TW","2019/10/12 18:39:19","新北市中和區華順街105號","121.465218333333","24.9973283333333","6500300","中和區"
"235064","911-UM","2019/10/12 18:39:26","新北市中和區連城路75巷7號","121.498281666667","24.9986266666667","6500300","中和區"
"235051","157-BY","2019/10/12 18:39:16","新北市中和區工專路145號","121.508723333333","24.9790683333333","6500300","中和區"
"235037","AAC-213","2019/10/12 18:39:23","新北市中和區秀朗路三段128巷9弄1號","121.524525","24.9931166666667","6500300","中和區"
"235059","AAC-215","2019/10/12 18:39:19","新北市中和區錦和路354巷15號","121.489761666667","24.9915583333333","6500300","中和區"
"220065","072-UY","2019/10/12 18:39:19","新北市板橋區實踐路60號","121.463868333333","25.0059216666667","6500100","板橋區"
"220069","AAD-861","2019/10/12 18:39:20","新北市板橋區大華街20號","121.458921666667","25.00619","6500100","板橋區"
"220068","120-SR","2019/10/12 18:39:17","新北市板橋區民生路二段161巷1號","121.47027","25.0200033333333","6500100","板橋區"
"226004","312-R5","2019/10/12 18:39:31","新北市平溪區平溪里三坑路19號","121.734693333333","25.0282216666667","6502400","平溪區"
"235049","251-BX","2019/10/12 18:39:26","新北市中和區明義街26號","121.504203333333","24.99502","6500300","中和區"
"228003","097-TW","2019/10/12 18:39:20","新北市貢寮區和美里龍洞街40-2號","121.915225","25.1116933333333","6502600","貢寮區"
"228001","212-TW","2019/10/12 18:39:16","新北市貢寮區仁理村保健街73號","121.923723333333","25.0516616666667","6502600","貢寮區"
"228002","663-BX","2019/10/12 18:39:28","新北市貢寮區福連里福興街4-1號","121.99032","25.0104733333333","6502600","貢寮區"
"224006","676-BX","2019/10/12 18:39:26","新北市瑞芳區一坑路46號","121.803708333333","25.10878","6501200","瑞芳區"
"224009","275-VK","2019/10/12 18:39:18","新北市瑞芳區五號路306-4號","121.857076666667","25.1116366666667","6501200","瑞芳區"
"224008","273-VK","2019/10/12 18:39:31","新北市瑞芳區岳王路31號","121.80771","25.1111533333333","6501200","瑞芳區"
"224005","271-BY","2019/10/12 18:39:14","新北市瑞芳區建基路一段50巷51號","121.817973333333","25.1281466666667","6501200","瑞芳區"
"227002","642-TC","2019/10/12 18:39:30","新北市雙溪區魚行里坤溪3-5號","121.876203333333","25.02083","6502500","雙溪區"
"227001","400-TW","2019/10/12 18:39:20","新北市雙溪區牡丹里下坑11號","121.85097","25.05619","6502500","雙溪區"
"253005","032-BX","2019/10/12 18:39:23","新北市石門區石門街37號","121.566296666667","25.2905216666667","6502200","石門區"
"253006","295-VK","2019/10/12 18:39:29","新北市石門區崁子腳28-5號","121.538418333333","25.2894666666667","6502200","石門區"
"222001","KEA-2212","2019/10/12 18:39:20","新北市深坑區北深路一段84號","121.63624","25.01062","6501800","深坑區"
"208002","KEA-2872","2019/10/12 18:39:29","新北市金山區忠孝一路22號","121.638461666667","25.2195366666667","6502700","金山區"
"208003","665-BX","2019/10/12 18:39:27","新北市金山區中山路254號","121.635663333333","25.2238833333333","6502700","金山區"
"251004","009-UM","2019/10/12 18:39:16","新北市淡水區大同路2號","121.461533333333","25.1408","6501000","淡水區"
"251001","011-UM","2019/10/12 18:39:32","新北市淡水區自強路166號","121.465585","25.1341833333333","6501000","淡水區"
"251015","KEA-2871","2019/10/12 18:39:23","新北市淡水區興福寮66巷337號","121.484221666667","25.1619766666667","6501000","淡水區"
"251016","179-VK","2019/10/12 18:39:30","新北市淡水區下圭柔山76-3號","121.443993333333","25.2069433333333","6501000","淡水區"
"251013","180-VK","2019/10/12 18:39:25","新北市淡水區奎柔山路1262號","121.48271","25.205605","6501000","淡水區"
"251008","181-VK","2019/10/12 18:39:15","新北市淡水區北投子62號","121.456748333333","25.1798","6501000","淡水區"
"251010","413-VK","2019/10/12 18:39:12","新北市淡水區沙崙路141-1號","121.423381666667","25.182975","6501000","淡水區"
"251012","443-VK","2019/10/12 18:39:16","新北市淡水區北新路121號","121.448928333333","25.1786966666667","6501000","淡水區"
"251006","561-UM","2019/10/12 18:39:29","新北市淡水區崁頂37-11號","121.438575","25.1937","6501000","淡水區"
"251014","577-R6","2019/10/12 18:39:20","新北市淡水區崙頂12-8號","121.49559","25.2172316666667","6501000","淡水區"
"251011","650-BX","2019/10/12 18:39:31","新北市淡水區中正東路一段3巷14弄1號","121.450915","25.164035","6501000","淡水區"
"251002","672-BX","2019/10/12 18:39:28","新北市淡水區中正東路一段3巷14弄1號","121.450883333333","25.1641466666667","6501000","淡水區"
"251003","673-BX","2019/10/12 18:39:19","新北市淡水區北新路69巷26號","121.446685","25.1800883333333","6501000","淡水區"
"207003","550-UM","2019/10/12 18:39:17","新北市萬里區野柳里港東路162-15號","121.690551666667","25.204125","6502800","萬里區"
"207004","291-VK","2019/10/12 18:39:32","新北市萬里區萬里里獅頭路12-4號","121.69302","25.17944","6502800","萬里區"
"252002","178-VK","2019/10/12 18:39:14","新北市三芝區民生街64巷1號","121.503445","25.2553883333333","6502100","三芝區"
"252003","249-BX","2019/10/12 18:39:21","新北市三芝區後厝里土地公坑54-15號","121.46612","25.2496683333333","6502100","三芝區"
"208001","170-UY","2019/10/12 18:39:18","新北市金山區文化三路7號","121.635156666667","25.2249916666667","6502700","金山區"
"237004","KEA-2597","2019/10/12 18:39:13","新北市三峽區插角82號","121.406178333333","24.8708966666667","6500900","三峽區"
"237007","153-BY","2019/10/12 18:39:27","新北市三峽區中正路三段31號","121.348293333333","24.903425","6500900","三峽區"
"237009","210-TH","2019/10/12 18:39:20","新北市三峽區大同路286巷3號","121.364145","24.92529","6500900","三峽區"
"237013","252-BX","2019/10/12 18:39:14","新北市三峽區光明路69巷25號","121.376585","24.9291983333333","6500900","三峽區"
"237012","275-BY","2019/10/12 18:39:21","新北市三峽區三樹路358號","121.383981666667","24.94335","6500900","三峽區"
"237008","302-VK","2019/10/12 18:39:23","新北市三峽區白雞39-1號","121.380286666667","24.9112666666667","6500900","三峽區"
"237014","433-BY","2019/10/12 18:39:12","新北市三峽區復興路465-1號","121.361631666667","24.938555","6500900","三峽區"
"237006","5529-G3","2019/10/12 18:39:25","新北市三峽區溪東路371巷2弄2號","121.41198","24.9296566666667","6500900","三峽區"
"237011","KEA-2596","2019/10/12 18:39:17","新北市三峽區成福路91號","121.418951666667","24.9297016666667","6500900","三峽區"
"237015","649-BX","2019/10/12 18:39:24","新北市三峽區成福路280號","121.428421666667","24.9233416666667","6500900","三峽區"
"237010","706-TV","2019/10/12 18:39:26","新北市三峽區復興路487號","121.361275","24.9384583333333","6500900","三峽區"
"237005","AKY-6261","2019/10/12 18:39:31","新北市三峽區民生街104巷2-8號","121.373875","24.9361183333333","6500900","三峽區"
"236042","KED-0685","2019/10/12 18:39:28","新北市土城區裕民路55巷17號","121.449225","24.9887883333333","6501300","土城區"
"236079","166-UM","2019/10/12 18:39:11","新北市土城區頂埔街59號","121.41731","24.9593133333333","6501300","土城區"
"236030","253-BX","2019/10/12 18:39:22","新北市土城區中華路二段90號","121.43841","24.97501","6501300","土城區"
"236026","269-VK","2019/10/12 18:39:17","新北市土城區忠義路49-1號","121.440446666667","24.9690733333333","6501300","土城區"
"236014","270-VK","2019/10/12 18:39:20","新北市土城區清水路207巷15號","121.459816666667","24.9823333333333","6501300","土城區"
"236038","271-VK","2019/10/12 18:39:19","新北市土城區明德路一段313巷3弄1號","121.459696666667","24.9764333333333","6501300","土城區"
"236070","KEA-2877","2019/10/12 18:39:18","新北市土城區永豐路157巷29弄6-1號","121.468358333333","24.9814583333333","6501300","土城區"
"252001","KED-0821","2019/10/12 18:39:29","新北市三芝區中興街二段266號","121.502013333333","25.252795","6502100","三芝區"
"236021","401-BY","2019/10/12 18:39:17","新北市土城區延吉街253巷1號","121.46756","24.9847166666667","6501300","土城區"
"236063","752-BX","2019/10/12 18:39:13","新北市土城區延壽路41號","121.47087","24.9914733333333","6501300","土城區"
"236059","912-UM","2019/10/12 18:39:22","新北市土城區中央路三段155號","121.432071666667","24.9654366666667","6501300","土城區"
"236049","913-UM","2019/10/12 18:39:21","新北市土城區明德路一段139號","121.465215","24.9803166666667","6501300","土城區"
"236055","AAC-216","2019/10/12 18:39:24","新北市土城區中華路一段23號","121.446855","24.9891383333333","6501300","土城區"
"242061","986-R7","2019/10/12 18:39:18","新北市新莊區新樹路247號","121.434943333333","25.0221616666667","6500500","新莊區"
"242004","751-BX","2019/10/12 18:39:30","新北市新莊區三和路12-21號","121.442188333333","25.0385883333333","6500500","新莊區"
"242009","349-TH","2019/10/12 18:39:22","新北市新莊區新莊路313巷1-4號","121.45297","25.03401","6500500","新莊區"
"238023","601-UM","2019/10/12 18:39:21","新北市樹林區三福街114號","121.406458333333","25.0162783333333","6500700","樹林區"
"238024","5061-A6","2019/10/12 18:39:15","新北市樹林區中山路二段142號","121.41317","24.982935","6500700","樹林區"
"238018","KEA-2217","2019/10/12 18:39:21","新北市樹林區鎮前街72號","121.425598333333","24.9922166666667","6500700","樹林區"
"238017","283-BY","2019/10/12 18:39:29","新北市樹林區光榮街79號","121.41201","25.002955","6500700","樹林區"
"238014","282-BY","2019/10/12 18:39:31","新北市樹林區大安路111巷25號","121.423216666667","24.9975566666667","6500700","樹林區"
"238020","268-VK","2019/10/12 18:39:25","新北市樹林區三俊街231號","121.421548333333","25.0148416666667","6500700","樹林區"
"238026","172-UY","2019/10/12 18:39:21","新北市樹林區八德街1266號","121.390828333333","24.9691083333333","6500700","樹林區"
"239007","AAC-297","2019/10/12 18:39:14","新北市鶯歌區建國路6號","121.356796666667","24.95638","6500800","鶯歌區"
"239006","891-R6","2019/10/12 18:39:14","新北市鶯歌區鶯桃路296巷53號","121.335846666667","24.9613483333333","6500800","鶯歌區"
"239008","527-UM","2019/10/12 18:39:24","新北市鶯歌區朝陽街4號","121.336243333333","24.9766083333333","6500800","鶯歌區"
"239005","526-UM","2019/10/12 18:39:24","新北市鶯歌區鳳七路101巷8號","121.329568333333","24.9704933333333","6500800","鶯歌區"
"239001","417-VK","2019/10/12 18:39:31","新北市鶯歌區國中街178號","121.338258333333","24.93919","6500800","鶯歌區"
"239003","360-BY","2019/10/12 18:39:22","新北市鶯歌區鶯桃路390號","121.333758333333","24.9636033333333","6500800","鶯歌區"
"239002","359-BY","2019/10/12 18:39:14","新北市鶯歌區文昌街2號","121.350536666667","24.9541466666667","6500800","鶯歌區"
"239004","193-VK","2019/10/12 18:39:25","新北市鶯歌區尖山路279號","121.341345","24.9437783333333","6500800","鶯歌區"
"221036","130-UY","2019/10/12 18:39:23","新北市汐止區長興街一段16號","121.669726666667","25.0788333333333","6501100","汐止區"
"221015","131-UY","2019/10/12 18:39:13","新北市汐止區鄉友街48號","121.669148333333","25.0816933333333","6501100","汐止區"
"244019","KED-0667","2019/10/12 18:39:15","新北市林口區麗園二街87號","121.382721666667","25.0667783333333","6501700","林口區"
"221010","269-BY","2019/10/12 18:39:21","新北市汐止區瑞松街47巷6號","121.645211666667","25.1062833333333","6501100","汐止區"
"221012","278-VK","2019/10/12 18:39:20","新北市汐止區保長路51巷3號","121.67341","25.0788466666667","6501100","汐止區"
"221032","280-BY","2019/10/12 18:39:19","新北市汐止區福山街60巷13弄1號","121.618458333333","25.0462933333333","6501100","汐止區"
"221029","298-VK","2019/10/12 18:39:15","新北市汐止區樟樹二路353號","121.644086666667","25.0740216666667","6501100","汐止區"
"221021","299-VK","2019/10/12 18:39:20","新北市汐止區新台五路一段181號","121.655361666667","25.0630483333333","6501100","汐止區"
"221031","353-TW","2019/10/12 18:39:16","新北市汐止區光復街8巷1-4號","121.639048333333","25.0584666666667","6501100","汐止區"
"221035","622-UM","2019/10/12 18:39:21","新北市汐止區大同路二段101號","121.649691666667","25.0631233333333","6501100","汐止區"
"221025","623-UM","2019/10/12 18:39:17","新北市汐止區福安街22巷4號","121.662821666667","25.0646366666667","6501100","汐止區"
"221033","647-BX","2019/10/12 18:39:19","台北市南港區舊莊街一段199巷16弄10號","121.623426666667","25.039205","6501100","汐止區"
"221002","707-TV","2019/10/12 18:39:23","新北市汐止區大同路一段297號","121.637128333333","25.0588033333333","6501100","汐止區"
"221018","753-BX","2019/10/12 18:39:27","新北市汐止區茄苳路224巷3弄23號","121.671216666667","25.0680966666667","6501100","汐止區"
"220082","610-BX","2019/10/12 18:39:33","新北市板橋區大觀路三段59巷17弄6-1號","121.436375","24.9954666666667","6500100","板橋區"
"224002","257-TC","2019/10/12 18:39:30","新北市瑞芳區三爪子坑路31號","121.813503333333","25.1074133333333","6501200","瑞芳區"
"220056","276-BY","2019/10/12 18:39:13","新北市板橋區南雅南路一段1巷35號","121.457688333333","25.0064333333333","6500100","板橋區"
"220071","283-VK","2019/10/12 18:39:32","新北市板橋區四川路二段97號","121.452623333333","24.99478","6500100","板橋區"
"220094","285-UM","2019/10/12 18:39:27","新北市板橋區民生路二段120號","121.470395","25.019785","6500100","板橋區"
"220083","286-VK","2019/10/12 18:39:15","新北市板橋區板城路271號","121.450045","24.9979716666667","6500100","板橋區"
"220081","287-VK","2019/10/12 18:39:22","新北市板橋區華東街1-10號","121.448245","24.9950083333333","6500100","板橋區"
"220090","288-VK","2019/10/12 18:39:23","新北市板橋區民生路二段120號","121.47037","25.01974","6500100","板橋區"
"220061","293-UM","2019/10/12 18:39:24","新北市板橋區民生路二段120號","121.470356666667","25.0196383333333","6500100","板橋區"
"220084","296-UM","2019/10/12 18:39:29","新北市板橋區大觀路二段118號","121.443763333333","24.9993183333333","6500100","板橋區"
"220053","299-UM","2019/10/12 18:39:24","新北市板橋區民生路二段161巷7號","121.470141666667","25.0196166666667","6500100","板橋區"
"242046","281-VK","2019/10/12 18:39:20","新北市新莊區富國路77巷23號","121.420438333333","25.0265033333333","6500500","新莊區"
"220075","303-R5","2019/10/12 18:39:18","新北市板橋區華東街11號","121.451086666667","24.9981283333333","6500100","板橋區"
"220092","307-R5","2019/10/12 18:39:19","新北市板橋區民生路二段89-4號","121.47126","25.018045","6500100","板橋區"
"220089","487-VK","2019/10/12 18:39:17","新北市板橋區民生路二段171號","121.469818333333","25.0201116666667","6500100","板橋區"
"220088","491-VK","2019/10/12 18:39:30","新北市板橋區民生路二段188號","121.46989","25.0205783333333","6500100","板橋區"
"220035","560-BX","2019/10/12 18:39:24","新北市板橋區南雅西路二段145巷10號","121.451568333333","25.01196","6500100","板橋區"
"220103","561-BX","2019/10/12 18:39:24","新北市板橋區民生路二段89-4號","121.47127","25.01807","6500100","板橋區"
"220080","568-UM","2019/10/12 18:39:29","新北市板橋區大觀路二段265巷7-7號","121.444138333333","24.9946016666667","6500100","板橋區"
"220063","609-BX","2019/10/12 18:39:30","新北市板橋區民生路二段169號","121.469775","25.0200416666667","6500100","板橋區"
"220086","630-UY","2019/10/12 18:39:18","新北市板橋區華東街1-9號","121.448153333333","24.994815","6500100","板橋區"
"220057","686-BX","2019/10/12 18:39:11","新北市板橋區館前西路4-1號","121.459126666667","25.0071233333333","6500100","板橋區"
"220077","687-BX","2019/10/12 18:39:16","新北市板橋區大觀路二段435-1號","121.44598","24.9948833333333","6500100","板橋區"
"220093","689-BX","2019/10/12 18:39:19","新北市板橋區民生路二段188號","121.470143333333","25.0204733333333","6500100","板橋區"
"220102","KEA-2699","2019/10/12 18:39:18","新北市板橋區民生路二段188號","121.47011","25.0203316666667","6500100","板橋區"
"220055","827-TW","2019/10/12 18:39:23","新北市板橋區忠孝路56號","121.460973333333","25.0019116666667","6500100","板橋區"
"220067","831-TW","2019/10/12 18:39:13","新北市板橋區民生路二段123號","121.470721666667","25.0185433333333","6500100","板橋區"
"220074","895-R6","2019/10/12 18:39:18","新北市板橋區南雅南路一段89號","121.45559","25.0053416666667","6500100","板橋區"
"220073","985-R7","2019/10/12 18:39:28","新北市板橋區南雅南路二段11-21號","121.45454","25.0009866666667","6500100","板橋區"
"220064","AAC-253","2019/10/12 18:39:25","新北市板橋區民生路二段36-1號","121.472076666667","25.01683","6500100","板橋區"
"235068","KEA-2873","2019/10/12 18:39:25","新北市中和區中正路211巷13弄5號","121.497081666667","24.993105","6500300","中和區"
"235061","KEA-2875","2019/10/12 18:39:03","新北市中和區民享街44巷2號","121.473793333333","25.0027666666667","6500300","中和區"
"235062","KEA-2876","2019/10/12 18:39:30","新北市中和區中山路二段356號","121.492771666667","25.0029616666667","6500300","中和區"
