"lineid","car","time","location","longitude","latitude","cityid","cityname"
"234046","148-BY","2019/10/12 19:59:25","新北市永和區成功路一段66號","121.526943333333","25.0036783333333","6500400","永和區"
"234081","298-R6","2019/10/12 19:59:16","新北市永和區永利路81巷2弄2號","121.52151","25.0035783333333","6500400","永和區"
"234038","336-UY","2019/10/12 19:59:20","新北市永和區成功路二段179-1號","121.526578333333","24.9965966666667","6500400","永和區"
"234086","338-UY","2019/10/12 19:59:22","新北市永和區福和路214號","121.51946","25.007685","6500400","永和區"
"234070","552-UM","2019/10/12 19:59:33","新北市永和區國光路16號","121.519041666667","25.00849","6500400","永和區"
"234064","553-UM","2019/10/12 19:59:25","新北市永和區中正路412巷20弄10號","121.51877","25.0015966666667","6500400","永和區"
"234017","745-BX","2019/10/12 19:59:24","新北市永和區文化路37號","121.514668333333","25.0148983333333","6500400","永和區"
"234030","746-BX","2019/10/12 19:59:14","新北市永和區民權路49巷5弄30號","121.521921666667","24.9978366666667","6500400","永和區"
"234054","KEA-2590","2019/10/12 19:59:25","新北市永和區環河東路一段124號","121.520636666667","25.0154133333333","6500400","永和區"
"234007","KED-0605","2019/10/12 19:59:24","新北市永和區保生路22巷21號","121.507191666667","25.0081333333333","6500400","永和區"
"234013","KEA-2591","2019/10/12 19:59:16","新北市永和區保生路55號","121.504711666667","25.0105633333333","6500400","永和區"
"234061","AAD-866","2019/10/12 19:59:28","新北市永和區中正路283巷64弄2號","121.516188333333","24.9997933333333","6500400","永和區"
"234042","862-TW","2019/10/12 19:59:15","新北市永和區中和路421巷5弄1號","121.50873","25.001055","6500400","永和區"
"234050","863-TW","2019/10/12 19:59:30","新北市永和區保安路254號","121.506236666667","25.0125466666667","6500400","永和區"
"234026","9371-KE","2019/10/12 19:59:32","新北市永和區水源街27巷8號","121.511236666667","25.0039766666667","6500400","永和區"
"234011","9373-KE","2019/10/12 19:59:13","新北市永和區環河西路二段241號","121.500653333333","25.009225","6500400","永和區"
"249005","172-UM","2019/10/12 19:59:29","新北市八里區楓林路1-12號","121.385651666667","25.1311716666667","6502300","八里區"
"249001","173-UM","2019/10/12 19:59:16","新北市八里區中華路二段249-1號","121.404013333333","25.1484683333333","6502300","八里區"
"249004","303-UY","2019/10/12 19:59:17","新北市八里區中華路一段333-1號","121.413186666667","25.1540466666667","6502300","八里區"
"249002","305-UY","2019/10/12 19:59:12","新北市八里區頂寮一街45號","121.450486666667","25.1240266666667","6502300","八里區"
"249003","759-BX","2019/10/12 19:59:22","新北市八里區訊塘路2號","121.398421666667","25.144535","6502300","八里區"
"248016","026-BX","2019/10/12 19:59:28","新北市五股區成泰路三段577巷80弄7號","121.449473333333","25.104255","6501500","五股區"
"248008","KED-0815","2019/10/12 19:59:20","新北市五股區四維路30巷36弄1號","121.46889","25.0714433333333","6501500","五股區"
"248020","KED-0813","2019/10/12 19:59:16","新北市五股區凌雲路三段1號","121.433176666667","25.1046633333333","6501500","五股區"
"248012","247-BX","2019/10/12 19:59:17","新北市五股區民義路一段109號","121.434016666667","25.0864433333333","6501500","五股區"
"248010","655-BX","2019/10/12 19:59:19","新北市五股區登林路74-3號","121.430991666667","25.06929","6501500","五股區"
"248004","677-BX","2019/10/12 19:59:26","新北市五股區成泰路一段32巷60號","121.434943333333","25.0669883333333","6501500","五股區"
"248002","678-BX","2019/10/12 19:59:26","新北市五股區成泰路三段487號","121.45071","25.0992233333333","6501500","五股區"
"234023","9380-KE","2019/10/12 19:59:24","新北市永和區中正路702巷18號","121.516446666667","25.0105183333333","6500400","永和區"
"234077","969-R7","2019/10/12 19:59:14","新北市永和區智光街94號","121.516095","24.9969733333333","6500400","永和區"
"234074","AAC-211","2019/10/12 19:59:23","新北市永和區豫溪街207巷22號","121.523255","25.0102966666667","6500400","永和區"
"234067","AAC-212","2019/10/12 19:59:17","新北市永和區永貞路376號","121.50974","25.0070566666667","6500400","永和區"
"234003","AAC-295","2019/10/12 19:59:28","新北市永和區中正路730號","121.515633333333","25.0100933333333","6500400","永和區"
"243012","AAD-798","2019/10/12 19:59:19","新北市泰山區全興路20號","121.432281666667","25.0589333333333","6501600","泰山區"
"243014","KEA-2801","2019/10/12 19:59:29","新北市泰山區泰林路二段33-1號","121.435813333333","25.056905","6501600","泰山區"
"243016","421-VK","2019/10/12 19:59:15","新北市泰山區貴陽街3號","121.421058333333","25.0334466666667","6501600","泰山區"
"243009","KEA-2215","2019/10/12 19:59:18","新北市泰山區楓江路16巷15號","121.43393","25.0617566666667","6501600","泰山區"
"243011","KEA-2216","2019/10/12 19:59:19","新北市泰山區明志路三段182巷54號","121.42281","25.0397766666667","6501600","泰山區"
"222003","436-BY","2019/10/12 19:59:12","新北市深坑區埔新街14號","121.620745","25.003935","6501800","深坑區"
"222002","659-BX","2019/10/12 19:59:24","新北市深坑區北深路二段81巷8弄1號","121.618315","25.0030883333333","6501800","深坑區"
"231061","002-UM","2019/10/12 19:59:25","新北市新店區安民街325號","121.517405","24.974515","6500600","新店區"
"231044","046-UY","2019/10/12 19:59:27","新北市新店區復興路27號","121.538986666667","24.9866166666667","6500600","新店區"
"231060","106-UY","2019/10/12 19:59:23","新北市新店區安康路二段416號","121.496625","24.955205","6500600","新店區"
"231051","107-UY","2019/10/12 19:59:21","新北市新店區中央二街7-1號","121.529251666667","24.9730983333333","6500600","新店區"
"231049","108-UY","2019/10/12 19:59:29","新北市新店區明德路89號","121.54158","24.9783183333333","6500600","新店區"
"231065","110-UY","2019/10/12 19:59:32","新北市新店區安祥路106巷10號","121.47879","24.9626016666667","6500600","新店區"
"231068","187-VK","2019/10/12 19:59:14","新北市新店區安康路一段355-3號","121.519833333333","24.9626866666667","6500600","新店區"
"231062","256-BX","2019/10/12 19:59:29","新北市新店區華城路36巷1-1號","121.52807","24.9553616666667","6500600","新店區"
"231054","260-TV","2019/10/12 19:59:34","新北市新店區光明街170號","121.53955","24.9619333333333","6500600","新店區"
"231042","268-BY","2019/10/12 19:59:18","新北市新店區中興路一段290號","121.545901666667","24.9690933333333","6500600","新店區"
"231064","278-BY","2019/10/12 19:59:26","新北市新店區安光路10-1號","121.513761666667","24.96408","6500600","新店區"
"231050","AAD-862","2019/10/12 19:59:20","新北市新店區北宜路二段579巷1號","121.565706666667","24.9536266666667","6500600","新店區"
"231045","355-BY","2019/10/12 19:59:29","新北市新店區北宜路二段483號","121.562145","24.95395","6500600","新店區"
"231056","4715-K9","2019/10/12 19:59:32","新北市新店區明德路26巷3號","121.542173333333","24.9777","6500600","新店區"
"231067","4772-VM","2019/10/12 19:59:18","新北市新店區秀山路11巷16號","121.531708333333","24.9591116666667","6500600","新店區"
"231052","512-UM","2019/10/12 19:59:13","新北市新店區新烏路三段寶島巷2弄3號","121.552013333333","24.89865","6500600","新店區"
"231041","619-UM","2019/10/12 19:59:17","新北市新店區中央路9號","121.53347","24.9785383333333","6500600","新店區"
"231063","641-BX","2019/10/12 19:59:20","新北市新店區車子路11號","121.503046666667","24.9519716666667","6500600","新店區"
"231048","KED-0819","2019/10/12 19:59:28","新北市新店區寶橋路138號","121.547758333333","24.976175","6500600","新店區"
"231057","720-UM","2019/10/12 19:59:30","新北市新店區花園二路一段11號","121.555463333333","24.9325083333333","6500600","新店區"
"231059","897-TW","2019/10/12 19:59:21","新北市新店區安和路一段15號","121.516901666667","24.96416","6500600","新店區"
"231040","898-TW","2019/10/12 19:59:13","新北市新店區中正路75巷71號","121.543146666667","24.9688533333333","6500600","新店區"
"231043","899-TW","2019/10/12 19:59:24","新北市新店區中正路282-11號","121.53844","24.9739616666667","6500600","新店區"
"231066","AKT-0513","2019/10/12 19:59:18","新北市新店區安康路二段341巷4號","121.49692","24.95484","6500600","新店區"
"241011","013-R5","2019/10/12 19:59:25","新北市三重區三和路二段165號","121.497916666667","25.0696283333333","6500200","三重區"
"241028","022-UY","2019/10/12 19:59:15","新北市三重區中正南路55號","121.494046666667","25.0594966666667","6500200","三重區"
"241008","059-VK","2019/10/12 19:59:20","新北市三重區永福街197巷39號","121.478138333333","25.0744916666667","6500200","三重區"
"241002","060-VK","2019/10/12 19:59:28","新北市三重區仁愛街192巷1號","121.493983333333","25.0772183333333","6500200","三重區"
"241015","062-VK","2019/10/12 19:59:21","新北市三重區三和路二段27號","121.501081666667","25.06707","6500200","三重區"
"241017","063-VK","2019/10/12 19:59:22","新北市三重區自強路一段211號","121.491443333333","25.0684466666667","6500200","三重區"
"241024","065-VK","2019/10/12 19:59:16","新北市三重區力行路二段2號","121.481785","25.0719316666667","6500200","三重區"
"241007","066-VK","2019/10/12 19:59:23","新北市三重區溪尾街154號","121.488865","25.0800366666667","6500200","三重區"
"241003","091-VK","2019/10/12 19:59:22","新北市三重區仁愛街445巷38號","121.491521666667","25.08339","6500200","三重區"
"241006","262-UM","2019/10/12 19:59:25","新北市三重區力行路二段33巷1號","121.482701666667","25.0735483333333","6500200","三重區"
"241016","266-UM","2019/10/12 19:59:29","新北市三重區正義北路28巷17號","121.496746666667","25.0632516666667","6500200","三重區"
"241009","267-UM","2019/10/12 19:59:25","新北市三重區三和路四段197號","121.482116666667","25.0792683333333","6500200","三重區"
"241018","268-UM","2019/10/12 19:59:30","新北市三重區雙園街57巷16號","121.494585","25.067835","6500200","三重區"
"241032","269-UM","2019/10/12 19:59:30","新北市三重區朝陽街26巷1弄3號","121.48316","25.0565983333333","6500200","三重區"
"241013","270-UM","2019/10/12 19:59:23","新北市三重區三和路三段125巷23號","121.493596666667","25.0736033333333","6500200","三重區"
"241035","KEA-2210","2019/10/12 19:59:27","新北市三重區大榮街7號","121.498205","25.0630333333333","6500200","三重區"
"241030","KED-0822","2019/10/12 19:59:13","新北市三重區重新路四段248-1號","121.486295","25.0533916666667","6500200","三重區"
"241031","462-BY","2019/10/12 19:59:26","新北市三重區重新路四段87號","121.486323333333","25.055755","6500200","三重區"
"241004","475-VK","2019/10/12 19:59:30","新北市三重區仁愛街425巷91-1號","121.49224","25.0826633333333","6500200","三重區"
"241020","478-VK","2019/10/12 19:59:27","新北市三重區忠孝路一段101號","121.48953","25.0721383333333","6500200","三重區"
"241014","543-UM","2019/10/12 19:59:31","新北市三重區長樂街16號","121.499561666667","25.0690333333333","6500200","三重區"
"241023","545-UM","2019/10/12 19:59:28","新北市三重區頂崁街168號","121.477573333333","25.0659033333333","6500200","三重區"
"241001","547-UM","2019/10/12 19:59:23","新北市三重區福隆路15號","121.489801666667","25.0771916666667","6500200","三重區"
"241019","KEA-2593","2019/10/12 19:59:21","新北市三重區自強路二段24號","121.48962","25.06929","6500200","三重區"
"241005","AAD-863","2019/10/12 19:59:16","新北市三重區碧華街231號","121.488985","25.0828516666667","6500200","三重區"
"241012","743-BX","2019/10/12 19:59:24","新北市三重區仁厚街61號","121.500655","25.0766783333333","6500200","三重區"
"241026","887-TS","2019/10/12 19:59:29","新北市三重區福德南路26號","121.50283","25.06312","6500200","三重區"
"241029","942-UM","2019/10/12 19:59:27","新北市三重區重安街1號","121.490033333333","25.0583083333333","6500200","三重區"
"241033","AAC-255","2019/10/12 19:59:31","新北市三重區中興北街24號","121.469681666667","25.0486116666667","6500200","三重區"
"235066","003-UY","2019/10/12 19:59:30","新北市中和區中山路二段3巷10號","121.505888333333","25.005625","6500300","中和區"
"235039","097-UM","2019/10/12 19:59:19","新北市中和區景平路278巷16弄28號","121.514588333333","24.9938516666667","6500300","中和區"
"235065","098-UM","2019/10/12 19:59:28","新北市中和區永和路39巷20號","121.497403333333","25.005185","6500300","中和區"
"235040","150-BY","2019/10/12 19:59:26","新北市中和區保健路10巷12號","121.507628333333","24.9969133333333","6500300","中和區"
"235055","183-VK","2019/10/12 19:59:26","新北市中和區中山路三段210號","121.471441666667","25.0065333333333","6500300","中和區"
"235044","293-VK","2019/10/12 19:59:20","新北市中和區復興路283號","121.502086666667","24.9902266666667","6500300","中和區"
"247016","KEA-2869","2019/10/12 19:59:26","新北市蘆洲區中正路96號","121.470081666667","25.0837833333333","6501400","蘆洲區"
"235050","4979-A6","2019/10/12 19:59:16","新北市中和區景平路239巷45號","121.509001666667","24.992295","6500300","中和區"
"235070","558-UM","2019/10/12 19:59:24","新北市中和區橋和路172號","121.494643333333","25.0063266666667","6500300","中和區"
"235046","733-UM","2019/10/12 19:59:20","新北市中和區興南路一段105巷20弄5號","121.510268333333","24.9855816666667","6500300","中和區"
"235052","805-TS","2019/10/12 19:59:20","新北市中和區華新街98號","121.508605","24.983035","6500300","中和區"
"235051","157-BY","2019/10/12 19:59:13","新北市中和區景安路220巷4弄2號","121.503375","24.9908966666667","6500300","中和區"
"235037","AAC-213","2019/10/12 19:59:15","新北市中和區大勇街46巷2號","121.51739","24.99377","6500300","中和區"
"235059","AAC-215","2019/10/12 19:59:19","新北市中和區圓通路365號","121.491345","24.9898033333333","6500300","中和區"
"220065","072-UY","2019/10/12 19:59:19","新北市板橋區民族路223號","121.469526666667","25.0071833333333","6500100","板橋區"
"220106","075-UY","2019/10/12 19:59:22","新北市板橋區懷德街66巷21號","121.477001666667","25.0319033333333","6500100","板橋區"
"220069","AAD-861","2019/10/12 19:59:20","新北市板橋區貴興路109號","121.455893333333","25.0026033333333","6500100","板橋區"
"220068","120-SR","2019/10/12 19:59:17","新北市板橋區光復街234-1號","121.484626666667","25.021525","6500100","板橋區"
"247006","893-R6","2019/10/12 19:59:20","新北市蘆洲區九芎街108號","121.465441666667","25.0795233333333","6501400","蘆洲區"
"247020","546-UM","2019/10/12 19:59:12","新北市蘆洲區民義街66號","121.47292","25.0897316666667","6501400","蘆洲區"
"247002","341-TH","2019/10/12 19:59:15","新北市蘆洲區長安街274巷4號","121.457708333333","25.0868566666667","6501400","蘆洲區"
"247004","336-TH","2019/10/12 19:59:21","新北市蘆洲區長安街202號","121.458581666667","25.0841783333333","6501400","蘆洲區"
"247014","056-VK","2019/10/12 19:59:31","新北市蘆洲區成功路132號","121.47212","25.08274","6501400","蘆洲區"
"247018","053-VK","2019/10/12 19:59:19","新北市蘆洲區民族路290巷15號","121.478588333333","25.08989","6501400","蘆洲區"
"247022","007-UY","2019/10/12 19:59:18","新北市蘆洲區中正路178號","121.467111666667","25.08776","6501400","蘆洲區"
"247008","002-UY","2019/10/12 19:59:18","新北市蘆洲區中山一路95巷20弄1號","121.47735","25.080625","6501400","蘆洲區"
"226004","312-R5","2019/10/12 19:59:11","新北市平溪區靜安路三段392巷3號","121.784383333333","25.0495083333333","6502400","平溪區"
"228003","097-TW","2019/10/12 19:59:20","新北市貢寮區仁理村仁和路214號","121.923595","25.0530983333333","6502600","貢寮區"
"224005","271-BY","2019/10/12 19:59:14","新北市瑞芳區中山路318號","121.796788333333","25.1100133333333","6501200","瑞芳區"
"227002","642-TC","2019/10/12 19:59:30","新北市雙溪區雙溪里長安街16號","121.864981666667","25.0346866666667","6502500","雙溪區"
"227001","400-TW","2019/10/12 19:59:20","新北市雙溪區新基里新基南街25號","121.866255","25.0381066666667","6502500","雙溪區"
"222001","KEA-2212","2019/10/12 19:59:20","新北市深坑區北深路三段155巷3號","121.602318333333","25.0030666666667","6501800","深坑區"
"208002","KEA-2872","2019/10/12 19:59:29","新北市金山區環金路19號","121.640366666667","25.217545","6502700","金山區"
"208003","665-BX","2019/10/12 19:59:27","新北市金山區永興里忠義路29-1號","121.630596666667","25.2637183333333","6502700","金山區"
"251009","008-UM","2019/10/12 19:59:14","新北市淡水區英專路21巷12-3號","121.444978333333","25.16978","6501000","淡水區"
"251004","009-UM","2019/10/12 19:59:26","新北市淡水區民權路177巷9號","121.460765","25.13543","6501000","淡水區"
"251005","010-UM","2019/10/12 19:59:17","新北市淡水區學府路136巷26號","121.451498333333","25.1726633333333","6501000","淡水區"
"251001","011-UM","2019/10/12 19:57:32","新北市淡水區北投子14-3號","121.449315","25.183215","6501000","淡水區"
"251015","KEA-2871","2019/10/12 19:59:23","新北市三芝區興華里田心子26號","121.492585","25.1954366666667","6501000","淡水區"
"251016","179-VK","2019/10/12 19:54:54","新北市淡水區淡金路三段446號","121.450661666667","25.2143316666667","6501000","淡水區"
"251013","180-VK","2019/10/12 19:59:25","新北市淡水區下圭柔山63-7號","121.451903333333","25.2061533333333","6501000","淡水區"
"251008","181-VK","2019/10/12 19:59:29","新北市淡水區淡海路72巷2號","121.423283333333","25.1809483333333","6501000","淡水區"
"251012","443-VK","2019/10/12 19:59:16","新北市淡水區下圭柔山100號","121.438095","25.2109516666667","6501000","淡水區"
"251006","561-UM","2019/10/12 19:59:22","新北市淡水區水碓街10號","121.44364","25.1770316666667","6501000","淡水區"
"251014","577-R6","2019/10/12 19:59:20","新北市淡水區石頭厝12-3號","121.461475","25.23627","6501000","淡水區"
"251011","650-BX","2019/10/12 19:59:14","新北市淡水區淡金路二段138號","121.446956666667","25.1881183333333","6501000","淡水區"
"251002","672-BX","2019/10/12 19:59:28","新北市淡水區新市一路一段6號","121.429045","25.1874333333333","6501000","淡水區"
"207003","550-UM","2019/10/12 19:59:17","新北市萬里區大鵬里萬里加投46號","121.64211","25.211955","6502800","萬里區"
"207004","291-VK","2019/10/12 19:59:30","新北市萬里區北基里忠二街35號","121.685671666667","25.1757266666667","6502800","萬里區"
"252002","178-VK","2019/10/12 19:59:14","新北市三芝區三民街39巷5號","121.505418333333","25.257635","6502100","三芝區"
"208001","170-UY","2019/10/12 19:59:18","新北市金山區南勢40號","121.629393333333","25.2208583333333","6502700","金山區"
"237004","KEA-2597","2019/10/12 19:59:13","新北市三峽區添福15-32號","121.372525","24.9048183333333","6500900","三峽區"
"237007","153-BY","2019/10/12 19:59:27","新北市三峽區麻園36-10號","121.363866666667","24.9196966666667","6500900","三峽區"
"237009","210-TH","2019/10/12 19:59:25","新北市三峽區民族街36號","121.3694","24.9307216666667","6500900","三峽區"
"237012","275-BY","2019/10/12 19:59:21","新北市三峽區中華路64號","121.37165","24.9297133333333","6500900","三峽區"
"237014","433-BY","2019/10/12 19:59:32","新北市三峽區嘉添221-1號","121.369683333333","24.9108216666667","6500900","三峽區"
"237006","5529-G3","2019/10/12 19:59:25","新北市三峽區中正路二段168號","121.366016666667","24.91556","6500900","三峽區"
"237015","649-BX","2019/10/12 19:59:24","新北市三峽區介壽路二段138巷1弄13-1號","121.396241666667","24.93392","6500900","三峽區"
"237005","AKY-6261","2019/10/12 19:59:29","新北市三峽區三樹路44巷2號","121.378001666667","24.9374033333333","6500900","三峽區"
"236042","KED-0685","2019/10/12 19:59:28","新北市土城區學府路一段124-4號","121.455318333333","24.9873666666667","6501300","土城區"
"236079","166-UM","2019/10/12 19:59:31","新北市土城區三民路49巷10號","121.419266666667","24.96401","6501300","土城區"
"236030","253-BX","2019/10/12 19:59:22","新北市土城區中央路一段248-3號","121.444346666667","24.984675","6501300","土城區"
"236026","269-VK","2019/10/12 19:59:17","新北市土城區員林街5號","121.442535","24.9781366666667","6501300","土城區"
"236038","271-VK","2019/10/12 19:59:26","新北市土城區國際路64號","121.46657","24.9774333333333","6501300","土城區"
"236070","KEA-2877","2019/10/12 19:59:18","新北市土城區忠義路75號","121.442531666667","24.9656166666667","6501300","土城區"
"252001","KED-0821","2019/10/12 19:59:29","新北市三芝區公正街66號","121.49982","25.2574383333333","6502100","三芝區"
"236021","401-BY","2019/10/12 19:59:23","新北市土城區延吉街29號","121.472391666667","24.988235","6501300","土城區"
"236063","752-BX","2019/10/12 19:59:13","新北市土城區延和路82號","121.466225","24.9893533333333","6501300","土城區"
"236059","912-UM","2019/10/12 19:59:26","新北市土城區中央路一段343號","121.443205","24.9813733333333","6501300","土城區"
"236049","913-UM","2019/10/12 19:59:21","新北市土城區金城路三段266號","121.47469","24.9908833333333","6501300","土城區"
"236055","AAC-216","2019/10/12 19:59:24","新北市土城區學府路一段81號","121.456688333333","24.9882033333333","6501300","土城區"
"242061","986-R7","2019/10/12 19:59:23","新北市新莊區瓊林路59-2號","121.44463","25.027845","6500500","新莊區"
"242004","751-BX","2019/10/12 19:59:30","新北市新莊區化成路486號","121.466158333333","25.0518533333333","6500500","新莊區"
"242029","615-BX","2019/10/12 19:59:23","新北市新莊區中平路377巷1-5號","121.444496666667","25.0523733333333","6500500","新莊區"
"242058","612-BX","2019/10/12 19:59:17","新北市新莊區八德街97號","121.424296666667","25.0213583333333","6500500","新莊區"
"242048","566-BX","2019/10/12 19:59:28","新北市新莊區民安路209號","121.426318333333","25.0223216666667","6500500","新莊區"
"242053","497-BY","2019/10/12 19:59:16","新北市新莊區西盛街427號","121.427265","25.0121216666667","6500500","新莊區"
"242002","441-UM","2019/10/12 19:59:28","新北市新莊區中正路174號","121.450591666667","25.0358133333333","6500500","新莊區"
"242007","440-UM","2019/10/12 19:59:30","新北市新莊區思源路539號","121.459735","25.0567516666667","6500500","新莊區"
"242013","413-TV","2019/10/12 19:59:29","新北市新莊區中誠街53巷20號","121.45143","25.0474533333333","6500500","新莊區"
"242051","400-BY","2019/10/12 19:59:10","新北市新莊區西盛街172號","121.42812","25.0190716666667","6500500","新莊區"
"242025","362-BY","2019/10/12 19:59:24","新北市新莊區五工二路86巷32號","121.460555","25.0672283333333","6500500","新莊區"
"242023","353-BY","2019/10/12 19:59:12","新北市新莊區化成路422號","121.46599","25.050965","6500500","新莊區"
"242015","132-UY","2019/10/12 19:59:26","新北市新莊區泰順街44號","121.447075","25.042825","6500500","新莊區"
"242039","135-UY","2019/10/12 19:59:13","新北市新莊區民安路287-3號","121.428908333333","25.0229533333333","6500500","新莊區"
"242056","172-VK","2019/10/12 19:59:21","新北市新莊區中正路347巷24號","121.447105","25.0341483333333","6500500","新莊區"
"242017","173-VK","2019/10/12 19:59:27","新北市新莊區中安街2號","121.452883333333","25.045215","6500500","新莊區"
"242031","175-VK","2019/10/12 19:59:20","新北市新莊區公園一路37號","121.443281666667","25.0355516666667","6500500","新莊區"
"242021","KED-0687","2019/10/12 19:59:20","新北市新莊區建中街16巷29號","121.448943333333","25.0386","6500500","新莊區"
"242036","346-TH","2019/10/12 19:59:19","新北市新莊區建安街41巷2號","121.428891666667","25.0254483333333","6500500","新莊區"
"242011","347-TH","2019/10/12 19:59:29","新北市新莊區中港路531巷12號","121.450675","25.0515833333333","6500500","新莊區"
"242034","350-TH","2019/10/12 19:59:20","新北市新莊區建中街91號","121.4467","25.0365383333333","6500500","新莊區"
"242019","351-TH","2019/10/12 19:59:24","新北市新莊區民生街15巷7號","121.455456666667","25.042575","6500500","新莊區"
"238015","755-BX","2019/10/12 19:59:28","新北市樹林區中山路三段79號","121.400335","24.974945","6500700","樹林區"
"238025","303-VK","2019/10/12 19:59:26","新北市樹林區中山路三段202號","121.38653","24.9683216666667","6500700","樹林區"
"238017","283-BY","2019/10/12 19:59:28","新北市樹林區保安街二段45巷40-5號","121.413833333333","25.0002633333333","6500700","樹林區"
"239007","AAC-297","2019/10/12 19:59:34","新北市鶯歌區大湖路239號","121.346173333333","24.9727666666667","6500800","鶯歌區"
"239006","891-R6","2019/10/12 19:59:19","新北市鶯歌區文化路115巷17號","121.357576666667","24.95517","6500800","鶯歌區"
"239002","359-BY","2019/10/12 19:59:14","新北市鶯歌區大湖路70號","121.342576666667","24.9625683333333","6500800","鶯歌區"
"221008","489-VK","2019/10/12 19:59:25","新北市汐止區康寧街141巷5號","121.62133","25.0673","6501100","汐止區"
"221015","131-UY","2019/10/12 19:59:18","新北市汐止區橋東街21號","121.6665","25.075575","6501100","汐止區"
"221010","269-BY","2019/10/12 19:59:21","新北市汐止區八連路一段9號","121.648586666667","25.0803233333333","6501100","汐止區"
"221012","278-VK","2019/10/12 19:59:20","新北市汐止區保長路273巷1號","121.681116666667","25.0740266666667","6501100","汐止區"
"221023","279-VK","2019/10/12 19:59:25","新北市汐止區民族六街4巷1號","121.629513333333","25.0701383333333","6501100","汐止區"
"221027","281-BY","2019/10/12 19:59:17","新北市汐止區中正路73號","121.661628333333","25.0695883333333","6501100","汐止區"
"221029","298-VK","2019/10/12 19:59:15","新北市汐止區樟樹二路353號","121.644086666667","25.0740216666667","6501100","汐止區"
"221021","299-VK","2019/10/12 19:59:20","新北市汐止區水源路一段183號","121.655001666667","25.06156","6501100","汐止區"
"221031","353-TW","2019/10/12 19:59:16","新北市汐止區福德二路55巷6弄1號","121.634491666667","25.0666483333333","6501100","汐止區"
"221035","622-UM","2019/10/12 19:59:21","新北市汐止區長江街9號","121.654665","25.071225","6501100","汐止區"
"221025","623-UM","2019/10/12 19:59:17","新北市汐止區秀峰路109巷26弄8號","121.661058333333","25.06346","6501100","汐止區"
"221038","646-BX","2019/10/12 19:59:30","新北市汐止區忠孝東路487-8號","121.666163333333","25.0739533333333","6501100","汐止區"
"221033","647-BX","2019/10/12 19:59:19","新北市汐止區東勢街190巷3號","121.633873333333","25.04164","6501100","汐止區"
"220079","145-BY","2019/10/12 19:59:20","新北市板橋區民權路260巷1弄40號","121.458756666667","25.0162866666667","6500100","板橋區"
"220082","610-BX","2019/10/12 19:59:13","新北市板橋區存德街9號","121.43","24.9919266666667","6500100","板橋區"
"224002","257-TC","2019/10/12 19:59:10","新北市瑞芳區三爪子坑路13巷211號","121.815956666667","25.1060166666667","6501200","瑞芳區"
"220091","267-BY","2019/10/12 19:59:19","新北市板橋區文聖街89巷17號","121.478168333333","25.0303366666667","6500100","板橋區"
"220056","276-BY","2019/10/12 19:59:13","新北市板橋區四川路二段96號","121.451611666667","24.9946233333333","6500100","板橋區"
"220072","277-BY","2019/10/12 19:59:23","新北市板橋區篤行路二段77巷12弄2號","121.432286666667","24.9917416666667","6500100","板橋區"
"220101","280-UM","2019/10/12 19:59:25","新北市板橋區雙十路二段47巷19號","121.475503333333","25.0256866666667","6500100","板橋區"
"220071","283-VK","2019/10/12 19:59:22","新北市板橋區五權街30巷4號","121.464586666667","24.99343","6500100","板橋區"
"220094","285-UM","2019/10/12 19:59:27","新北市板橋區文化路一段154號","121.465551666667","25.0191616666667","6500100","板橋區"
"220083","286-VK","2019/10/12 19:59:15","新北市板橋區僑中二街10巷22號","121.446103333333","25.01112","6500100","板橋區"
"220081","287-VK","2019/10/12 19:59:22","新北市板橋區大觀路一段28巷111弄2號","121.449718333333","25.0124583333333","6500100","板橋區"
"220090","288-VK","2019/10/12 19:59:12","新北市板橋區新海路72巷5弄31-3號","121.461463333333","25.0230583333333","6500100","板橋區"
"220061","293-UM","2019/10/12 19:59:24","新北市板橋區中山路二段23號","121.472406666667","25.0152066666667","6500100","板橋區"
"220062","295-UM","2019/10/12 19:59:14","新北市板橋區光復街114號","121.483621666667","25.0188","6500100","板橋區"
"220084","296-UM","2019/10/12 19:59:29","新北市板橋區溪崑二街112巷32號","121.425735","24.9892333333333","6500100","板橋區"
"220053","299-UM","2019/10/12 19:59:28","新北市板橋區懷仁街60號","121.476976666667","25.0187333333333","6500100","板橋區"
"220075","303-R5","2019/10/12 19:59:18","新北市板橋區金華街10巷48弄8號","121.45722","25.0198166666667","6500100","板橋區"
"220092","307-R5","2019/10/12 19:59:19","新北市板橋區文化路一段45巷18號","121.460403333333","25.0140216666667","6500100","板橋區"
"220089","487-VK","2019/10/12 19:59:21","新北市板橋區四維路331號","121.462536666667","25.029475","6500100","板橋區"
"220088","491-VK","2019/10/12 19:59:30","新北市板橋區民治街92-1號","121.47918","25.03172","6500100","板橋區"
"220035","560-BX","2019/10/12 19:59:28","新北市板橋區金華街114號","121.458996666667","25.0208483333333","6500100","板橋區"
"220103","561-BX","2019/10/12 19:59:24","新北市板橋區文化路一段90號","121.464336666667","25.0176366666667","6500100","板橋區"
"220080","568-UM","2019/10/12 19:59:25","新北市板橋區大觀路二段169巷18號","121.44616","24.9998983333333","6500100","板橋區"
"220063","609-BX","2019/10/12 19:59:31","新北市板橋區中山路二段113號","121.474825","25.0162433333333","6500100","板橋區"
"220086","630-UY","2019/10/12 19:59:18","新北市板橋區西門街18-4號","121.454523333333","25.0111716666667","6500100","板橋區"
"220057","686-BX","2019/10/12 19:59:31","新北市板橋區四川路二段241號","121.450685","24.9935966666667","6500100","板橋區"
"220077","687-BX","2019/10/12 19:59:16","新北市板橋區僑中二街2號","121.447408333333","25.0113566666667","6500100","板橋區"
"220093","689-BX","2019/10/12 19:59:19","新北市板橋區長江路一段154號","121.4611","25.0303","6500100","板橋區"
"220054","741-BX","2019/10/12 19:59:29","新北市板橋區忠孝路忠義巷18弄1號","121.4663","25.0037716666667","6500100","板橋區"
"220102","KEA-2699","2019/10/12 19:59:17","新北市板橋區莒光路40巷9號","121.47041","25.0236633333333","6500100","板橋區"
"220055","827-TW","2019/10/12 19:59:19","新北市板橋區仁愛路62巷14弄1號","121.459968333333","24.9984316666667","6500100","板橋區"
"220067","831-TW","2019/10/12 19:59:13","新北市板橋區中山路一段206巷2弄14號","121.469498333333","25.0128166666667","6500100","板橋區"
"220074","895-R6","2019/10/12 19:59:18","新北市板橋區文化路一段46巷16號","121.460288333333","25.0115016666667","6500100","板橋區"
"220073","985-R7","2019/10/12 19:59:28","新北市板橋區南雅西路二段196號","121.451703333333","25.0146516666667","6500100","板橋區"
"220097","AAC-210","2019/10/12 19:59:15","新北市板橋區復興街135號","121.461095","25.0179983333333","6500100","板橋區"
"220064","AAC-253","2019/10/12 19:59:25","新北市板橋區民族路159號","121.468235","25.007715","6500100","板橋區"
"235068","KEA-2873","2019/10/12 19:59:25","新北市中和區中山路二段250巷5號","121.497368333333","25.0030283333333","6500300","中和區"
"235026","KEA-2876","2019/10/12 19:47:47","新北市中和區員山路36巷16-3號","121.485005","24.991445","6500300","中和區"
