"lineid","car","time","location","longitude","latitude","cityid","cityname"
"234081","298-R6","2019/10/12 20:19:16","新北市永和區福和路7巷10弄7號","121.524846666667","25.00751","6500400","永和區"
"234038","336-UY","2019/10/12 20:19:20","新北市永和區成功路一段93巷12號","121.527695","25.00269","6500400","永和區"
"234086","338-UY","2019/10/12 20:19:21","新北市永和區永和路二段61號","121.514698333333","25.011175","6500400","永和區"
"234070","552-UM","2019/10/12 20:19:13","新北市永和區永安街7巷5號","121.518531666667","25.0061383333333","6500400","永和區"
"234064","553-UM","2019/10/12 20:19:26","新北市永和區中正路267號","121.51757","25.00072","6500400","永和區"
"234017","745-BX","2019/10/12 20:19:21","新北市永和區仁愛路46號","121.51415","25.01342","6500400","永和區"
"234030","746-BX","2019/10/12 20:19:14","新北市永和區民族街81巷62號","121.520156666667","24.996465","6500400","永和區"
"234054","KEA-2590","2019/10/12 20:19:25","新北市永和區光復街2巷26弄1號","121.517618333333","25.0165616666667","6500400","永和區"
"234013","KEA-2591","2019/10/12 20:19:16","新北市永和區保生路55-1號","121.504826666667","25.0116233333333","6500400","永和區"
"234061","AAD-866","2019/10/12 20:19:28","新北市永和區得和路11號","121.515241666667","25.0006566666667","6500400","永和區"
"234042","862-TW","2019/10/12 20:19:15","新北市中和區中安街172號","121.510886666667","24.99982","6500400","永和區"
"234050","863-TW","2019/10/12 20:19:30","新北市永和區文化路185號","121.509701666667","25.016975","6500400","永和區"
"249005","172-UM","2019/10/12 20:19:29","新北市八里區下罟子2-1號","121.388455","25.141665","6502300","八里區"
"249001","173-UM","2019/10/12 20:19:16","新北市八里區中華路二段341-10號","121.39924","25.1449883333333","6502300","八里區"
"249004","303-UY","2019/10/12 20:19:17","新北市八里區中山路一段326號","121.412866666667","25.15908","6502300","八里區"
"249002","305-UY","2019/10/12 20:19:12","新北市八里區五洲新村21號","121.454298333333","25.1246883333333","6502300","八里區"
"249003","759-BX","2019/10/12 20:19:22","新北市八里區訊塘路56號","121.397751666667","25.1455783333333","6502300","八里區"
"248016","026-BX","2019/10/12 20:19:29","新北市五股區凌雲路一段158巷37號","121.446873333333","25.1037383333333","6501500","五股區"
"248012","247-BX","2019/10/12 20:19:17","新北市五股區工商路57號","121.439058333333","25.0841716666667","6501500","五股區"
"248010","655-BX","2019/10/12 20:19:19","新北市泰山區楓江路111號","121.438438333333","25.064525","6501500","五股區"
"248002","678-BX","2019/10/12 20:19:29","新北市五股區成泰路三段113號","121.444175","25.0905283333333","6501500","五股區"
"234023","9380-KE","2019/10/12 20:19:24","新北市永和區永和路二段220-11號","121.516106666667","25.0140883333333","6500400","永和區"
"234077","969-R7","2019/10/12 20:19:21","新北市永和區民享街2巷2號","121.51474","24.9957966666667","6500400","永和區"
"234074","AAC-211","2019/10/12 20:19:23","新北市永和區竹林路201巷22弄6號","121.522345","25.0092766666667","6500400","永和區"
"234067","AAC-212","2019/10/12 20:19:17","新北市永和區保平路268巷19號","121.50813","25.0056583333333","6500400","永和區"
"234003","AAC-295","2019/10/12 20:19:28","新北市永和區自強街6巷1弄1號","121.514325","25.0079483333333","6500400","永和區"
"243012","AAD-798","2019/10/12 20:19:30","新北市泰山區楓江路135-2號","121.439598333333","25.06488","6501600","泰山區"
"243010","297-R6","2019/10/12 20:19:06","新北市泰山區明志路二段254巷18號","121.426106666667","25.0479616666667","6501600","泰山區"
"243014","KEA-2801","2019/10/12 20:19:29","新北市泰山區泰林路二段262號","121.431606666667","25.0623533333333","6501600","泰山區"
"243016","421-VK","2019/10/12 20:19:15","新北市泰山區明志路二段420號","121.424943333333","25.04376","6501600","泰山區"
"243009","KEA-2215","2019/10/12 20:19:19","新北市泰山區福泰街28號","121.433568333333","25.0598183333333","6501600","泰山區"
"243011","KEA-2216","2019/10/12 20:19:20","新北市泰山區貴陽街16巷5弄8號","121.422601666667","25.0320133333333","6501600","泰山區"
"243013","646-TV","2019/10/12 20:19:27","新北市泰山區民國街31號","121.425928333333","25.04377","6501600","泰山區"
"243015","680-BX","2019/10/12 20:19:17","新北市泰山區泰林路二段37-1號","121.435425","25.0573616666667","6501600","泰山區"
"222003","436-BY","2019/10/12 20:19:29","新北市深坑區文化街43號","121.617493333333","25.0018533333333","6501800","深坑區"
"222002","659-BX","2019/10/12 20:19:24","新北市深坑區萬福路75巷46號","121.598308333333","25.0098766666667","6501800","深坑區"
"231061","002-UM","2019/10/12 20:19:26","新北市新店區安興路33-1號","121.515773333333","24.9704183333333","6500600","新店區"
"231058","0293-UT","2019/10/12 20:19:20","新北市新店區安德街60巷9-1號","121.509441666667","24.9622583333333","6500600","新店區"
"231044","046-UY","2019/10/12 20:19:27","新北市新店區北新路三段87號","121.54159","24.981685","6500600","新店區"
"231060","106-UY","2019/10/12 20:19:23","新北市新店區安康路三段578-1號","121.480978333333","24.94873","6500600","新店區"
"231051","107-UY","2019/10/12 20:19:21","新北市新店區溪園路453號","121.524848333333","24.977485","6500600","新店區"
"231049","108-UY","2019/10/12 20:19:24","新北市新店區北新路一段231號","121.540661666667","24.9655316666667","6500600","新店區"
"231065","110-UY","2019/10/12 20:19:20","新北市新店區安祥路102巷26號","121.483916666667","24.9639783333333","6500600","新店區"
"231068","187-VK","2019/10/12 20:19:14","新北市新店區寶安街30號","121.542011666667","24.9823883333333","6500600","新店區"
"231062","256-BX","2019/10/12 20:19:29","新北市新店區安泰路7巷16號","121.485696666667","24.9509533333333","6500600","新店區"
"231054","260-TV","2019/10/12 20:19:14","新北市新店區檳榔路109號","121.544441666667","24.96153","6500600","新店區"
"231042","268-BY","2019/10/12 20:19:18","新北市新店區寶橋路78巷13號","121.547316666667","24.9748583333333","6500600","新店區"
"231064","278-BY","2019/10/12 20:19:26","新北市新店區安業街33號","121.517818333333","24.97695","6500600","新店區"
"231050","AAD-862","2019/10/12 20:19:30","新北市新店區博愛街8巷2號","121.541185","24.973405","6500600","新店區"
"231045","355-BY","2019/10/12 20:19:29","新北市新店區北宜路一段111號","121.540096666667","24.9544716666667","6500600","新店區"
"231056","4715-K9","2019/10/12 20:19:13","新北市新店區中正路328巷42弄14號","121.53852","24.97573","6500600","新店區"
"231067","4772-VM","2019/10/12 20:19:18","新北市新店區安康路一段351-1號","121.519615","24.9636483333333","6500600","新店區"
"231052","512-UM","2019/10/12 20:19:13","新北市新店區廣興路松碧巷1號","121.546806666667","24.9120233333333","6500600","新店區"
"231041","619-UM","2019/10/12 20:19:17","新北市新店區民權路39號","121.540581666667","24.9829216666667","6500600","新店區"
"231063","641-BX","2019/10/12 20:19:20","新北市新店區車子路1-1號","121.504715","24.9577133333333","6500600","新店區"
"231048","KED-0819","2019/10/12 20:19:28","新北市新店區寶橋路80號","121.54614","24.9755516666667","6500600","新店區"
"231057","720-UM","2019/10/12 20:19:30","新北市新店區花園五路二段27號","121.554766666667","24.9347066666667","6500600","新店區"
"231059","897-TW","2019/10/12 20:19:21","新北市新店區安德街64號","121.5105","24.9620116666667","6500600","新店區"
"231040","898-TW","2019/10/12 20:19:13","新北市新店區中正路108號","121.543055","24.9705933333333","6500600","新店區"
"231043","899-TW","2019/10/12 20:19:24","新北市新店區建國路133號","121.539361666667","24.9782","6500600","新店區"
"231066","AKT-0513","2019/10/12 20:19:18","新北市新店區柴埕路57號","121.51369","24.9651766666667","6500600","新店區"
"241011","013-R5","2019/10/12 20:19:25","新北市三重區龍門路199號","121.499821666667","25.0733483333333","6500200","三重區"
"241028","022-UY","2019/10/12 20:19:15","新北市三重區大同南路73號","121.495973333333","25.0595933333333","6500200","三重區"
"241008","059-VK","2019/10/12 20:19:20","新北市三重區永福街170號","121.480863333333","25.0743966666667","6500200","三重區"
"241002","060-VK","2019/10/12 20:19:33","新北市三重區仁義街143巷2號","121.497383333333","25.0805416666667","6500200","三重區"
"241015","062-VK","2019/10/12 20:19:21","新北市三重區新北大道一段3-1號","121.489995","25.06102","6500200","三重區"
"241017","063-VK","2019/10/12 20:19:22","新北市三重區自強路一段236號","121.493325","25.0670633333333","6500200","三重區"
"241024","065-VK","2019/10/12 20:19:16","新北市三重區忠孝路三段11號","121.481716666667","25.067485","6500200","三重區"
"241007","066-VK","2019/10/12 20:19:23","新北市三重區溪尾街108巷42-1號","121.487763333333","25.0782333333333","6500200","三重區"
"241003","091-VK","2019/10/12 20:19:22","新北市三重區富華街33號","121.490638333333","25.0830966666667","6500200","三重區"
"241006","262-UM","2019/10/12 20:19:24","新北市三重區力行路二段170號","121.483101666667","25.076795","6500200","三重區"
"241016","266-UM","2019/10/12 20:19:29","新北市三重區大同北路54巷1號","121.494316666667","25.0635516666667","6500200","三重區"
"241009","267-UM","2019/10/12 20:19:23","新北市三重區永福街28號","121.482476666667","25.0781716666667","6500200","三重區"
"241018","268-UM","2019/10/12 20:19:29","新北市三重區雙園街57巷21-2號","121.494818333333","25.068225","6500200","三重區"
"241032","269-UM","2019/10/12 20:19:30","新北市三重區捷運路19巷6弄4號","121.484821666667","25.0569333333333","6500200","三重區"
"241013","270-UM","2019/10/12 20:19:23","新北市三重區三和路三段167巷31號","121.49301","25.07439","6500200","三重區"
"241025","271-UM","2019/10/12 20:19:15","新北市三重區頂崁街210巷27號","121.475815","25.06817","6500200","三重區"
"241035","KEA-2210","2019/10/12 20:19:27","新北市三重區正義北路33巷47號","121.4989","25.06384","6500200","三重區"
"241030","KED-0822","2019/10/12 20:19:13","新北市三重區環河南路254巷53號","121.48804","25.052215","6500200","三重區"
"241031","462-BY","2019/10/12 20:19:26","新北市三重區三寧街15號","121.489405","25.0597866666667","6500200","三重區"
"241004","475-VK","2019/10/12 20:19:30","新北市三重區自強路四段107號","121.491563333333","25.0799333333333","6500200","三重區"
"241020","478-VK","2019/10/12 20:19:27","新北市三重區三和路三段170巷28號","121.491623333333","25.0726466666667","6500200","三重區"
"241014","543-UM","2019/10/12 20:19:11","新北市三重區龍門路250號","121.500981666667","25.073815","6500200","三重區"
"241023","545-UM","2019/10/12 20:19:28","新北市三重區忠孝路三段84巷16號","121.480393333333","25.064955","6500200","三重區"
"241001","547-UM","2019/10/12 20:19:23","新北市三重區自強路四段28號","121.488865","25.0766016666667","6500200","三重區"
"241019","KEA-2593","2019/10/12 20:19:21","新北市三重區重陽路四段124號","121.492453333333","25.0710083333333","6500200","三重區"
"241005","AAD-863","2019/10/12 20:19:16","新北市三重區碧華街391號","121.492878333333","25.0856666666667","6500200","三重區"
"241012","743-BX","2019/10/12 20:19:24","新北市三重區河邊北街262號","121.501673333333","25.07646","6500200","三重區"
"241022","KED-0820","2019/10/12 20:19:16","新北市三重區新北大道一段38號","121.488085","25.0613433333333","6500200","三重區"
"241026","887-TS","2019/10/12 20:19:29","新北市三重區重新路一段12號","121.504163333333","25.06371","6500200","三重區"
"241029","942-UM","2019/10/12 20:19:27","新北市三重區重安街98號","121.492638333333","25.0560233333333","6500200","三重區"
"241033","AAC-255","2019/10/12 20:19:31","新北市三重區五谷王北街50巷38號","121.475196666667","25.051345","6500200","三重區"
"235066","003-UY","2019/10/12 20:19:30","新北市中和區中山路二段3巷22弄10號","121.506086666667","25.0049683333333","6500300","中和區"
"235039","097-UM","2019/10/12 20:19:19","新北市中和區大勇街29巷12-2號","121.515853333333","24.9945433333333","6500300","中和區"
"235055","183-VK","2019/10/12 20:19:26","新北市五股區凌雲路二段18巷62-5號","121.440553333333","25.1062416666667","6500300","中和區"
"247016","KEA-2869","2019/10/12 20:19:26","新北市蘆洲區光華路132巷39號","121.465861666667","25.0837783333333","6501400","蘆洲區"
"247010","KED-0682","2019/10/12 20:19:27","新北市蘆洲區信義路253號","121.47901","25.084575","6501400","蘆洲區"
"235050","4979-A6","2019/10/12 20:19:16","新北市中和區景平路464巷2弄2號","121.505753333333","24.99392","6500300","中和區"
"235069","4980-A6","2019/10/12 20:19:16","新北市中和區南山路81巷58號","121.503868333333","24.9980283333333","6500300","中和區"
"235059","AAC-215","2019/10/12 20:19:19","新北市中和區圓通路332號","121.484408333333","24.986625","6500300","中和區"
"247006","893-R6","2019/10/12 20:19:20","新北市蘆洲區九芎街153巷9號","121.465568333333","25.078855","6501400","蘆洲區"
"247002","341-TH","2019/10/12 20:19:14","新北市蘆洲區長安街331巷30號","121.456043333333","25.086595","6501400","蘆洲區"
"247004","336-TH","2019/10/12 20:19:20","新北市蘆洲區長安街299巷7號","121.457553333333","25.0846283333333","6501400","蘆洲區"
"247024","057-VK","2019/10/12 20:19:26","新北市蘆洲區光明路112巷29弄13號","121.464173333333","25.0876516666667","6501400","蘆洲區"
"247014","056-VK","2019/10/12 20:19:11","新北市蘆洲區中山二路130號","121.471678333333","25.0816033333333","6501400","蘆洲區"
"247018","053-VK","2019/10/12 20:19:19","新北市蘆洲區民族路382號","121.475393333333","25.0912533333333","6501400","蘆洲區"
"247022","007-UY","2019/10/12 20:19:16","新北市蘆洲區三民路241號","121.469166666667","25.0888416666667","6501400","蘆洲區"
"247008","002-UY","2019/10/12 20:19:18","新北市蘆洲區集賢路245號","121.481601666667","25.0849333333333","6501400","蘆洲區"
"224010","AGQ-8101","2019/10/12 20:19:27","新北市瑞芳區輕便路338-1號","121.83978","25.1086416666667","6501200","瑞芳區"
"222001","KEA-2212","2019/10/12 20:19:20","新北市深坑區北深路三段243巷10號","121.599191666667","25.00392","6501800","深坑區"
"251009","008-UM","2019/10/12 20:19:14","新北市淡水區中山路46-1號","121.444405","25.170285","6501000","淡水區"
"251001","011-UM","2019/10/12 20:19:32","新北市淡水區淡金路二段15號","121.446375","25.18915","6501000","淡水區"
"251015","KEA-2871","2019/10/12 20:19:24","新北市淡水區埤島77-5號","121.450563333333","25.19196","6501000","淡水區"
"251016","179-VK","2019/10/12 20:19:27","新北市淡水區番子田18-4號","121.456623333333","25.2295033333333","6501000","淡水區"
"251013","180-VK","2019/10/12 20:19:25","新北市淡水區相公山1-1號","121.474446666667","25.206595","6501000","淡水區"
"251008","181-VK","2019/10/12 20:19:15","新北市淡水區淡海路180巷22號","121.421638333333","25.18456","6501000","淡水區"
"251010","413-VK","2019/10/12 20:19:32","新北市淡水區新民街一段134號","121.42763","25.188915","6501000","淡水區"
"251012","443-VK","2019/10/12 20:19:16","新北市淡水區淡金路三段374號","121.449793333333","25.2099916666667","6501000","淡水區"
"251006","561-UM","2019/10/12 20:19:22","新北市淡水區北新路169巷69弄28-1號","121.44781","25.1800766666667","6501000","淡水區"
"251014","577-R6","2019/10/12 20:19:20","新北市淡水區石頭厝2-1號","121.458155","25.2357533333333","6501000","淡水區"
"251002","672-BX","2019/10/12 20:19:28","新北市淡水區中正路232號","121.43897","25.1709033333333","6501000","淡水區"
"251003","673-BX","2019/10/12 20:19:19","新北市淡水區中山北路一段229號","121.44449","25.1795216666667","6501000","淡水區"
"207003","550-UM","2019/10/12 20:19:17","新北市萬里區大鵬里頂社14-1號","121.655083333333","25.2090583333333","6502800","萬里區"
"207004","291-VK","2019/10/12 20:19:30","新北市萬里區北基里大仁路1號","121.681568333333","25.1750216666667","6502800","萬里區"
"252002","178-VK","2019/10/12 20:19:14","新北市三芝區中正路一段23號","121.502941666667","25.25857","6502100","三芝區"
"237006","5529-G3","2019/10/12 20:19:25","新北市三峽區中正路二段41號","121.366715","24.9187666666667","6500900","三峽區"
"236030","253-BX","2019/10/12 20:19:23","新北市土城區中央路一段45巷2弄5號","121.44844","24.9901233333333","6501300","土城區"
"236026","269-VK","2019/10/12 20:19:33","新北市土城區裕生路100巷7號","121.446173333333","24.98509","6501300","土城區"
"236014","270-VK","2019/10/12 20:19:20","新北市土城區四川路1號","121.456171666667","24.9960516666667","6501300","土城區"
"247012","KED-0683","2019/10/12 20:19:18","新北市蘆洲區中興街46號","121.481446666667","25.0872366666667","6501400","蘆洲區"
"236070","KEA-2877","2019/10/12 20:19:18","新北市土城區三民路25號","121.420121666667","24.9636783333333","6501300","土城區"
"252001","KED-0821","2019/10/12 20:19:29","新北市三芝區中山路一段31號","121.500595","25.2580333333333","6502100","三芝區"
"236059","912-UM","2019/10/12 20:19:26","新北市土城區大安路101-5號","121.433453333333","24.968545","6501300","土城區"
"242042","AAC-296","2019/10/12 20:19:29","新北市新莊區壽山路61-1號","121.410166666667","25.03265","6500500","新莊區"
"242061","986-R7","2019/10/12 20:19:23","新北市新莊區瓊林路73號","121.436331666667","25.0217933333333","6500500","新莊區"
"242004","751-BX","2019/10/12 20:19:10","新北市新莊區頭前路2巷8號","121.46846","25.0529383333333","6500500","新莊區"
"242029","615-BX","2019/10/12 20:19:23","新北市新莊區中原路114號","121.450416666667","25.054355","6500500","新莊區"
"242027","613-BX","2019/10/12 20:19:31","新北市新莊區中平路377巷1-15號","121.444198333333","25.0519616666667","6500500","新莊區"
"242058","612-BX","2019/10/12 20:19:17","新北市新莊區龍安路278巷19號","121.422035","25.018515","6500500","新莊區"
"242048","566-BX","2019/10/12 20:19:28","新北市新莊區四維路186巷2號","121.421906666667","25.0211966666667","6500500","新莊區"
"242053","497-BY","2019/10/12 20:19:27","新北市新莊區民安西路270號","121.426026666667","25.0129333333333","6500500","新莊區"
"242002","441-UM","2019/10/12 20:19:11","新北市新莊區中正路36號","121.46492","25.0415916666667","6500500","新莊區"
"242007","440-UM","2019/10/12 20:19:29","新北市新莊區福壽街124巷41弄16號","121.459275","25.0518216666667","6500500","新莊區"
"242044","415-TV","2019/10/12 20:19:24","新北市新莊區中正路895-12號","121.412838333333","25.0211633333333","6500500","新莊區"
"242013","413-TV","2019/10/12 20:19:29","新北市新莊區中信街63巷4弄1號","121.44897","25.0502333333333","6500500","新莊區"
"242051","400-BY","2019/10/12 20:19:33","新北市新莊區民安西路212巷1弄2號","121.425518333333","25.0148366666667","6500500","新莊區"
"242025","362-BY","2019/10/12 20:19:24","新北市新莊區五工二路70巷20號","121.461003333333","25.066555","6500500","新莊區"
"242023","353-BY","2019/10/12 20:19:12","新北市新莊區化成路776號","121.465255","25.0590783333333","6500500","新莊區"
"242015","132-UY","2019/10/12 20:19:26","新北市新莊區永樂街233號","121.446723333333","25.0441766666667","6500500","新莊區"
"242039","135-UY","2019/10/12 20:19:13","新北市新莊區成功街83巷9號","121.424376666667","25.0192233333333","6500500","新莊區"
"242056","172-VK","2019/10/12 20:19:20","新北市新莊區新莊路649巷11-1號","121.445078333333","25.0320933333333","6500500","新莊區"
"242017","173-VK","2019/10/12 20:19:27","新北市新莊區中港一街71號","121.449963333333","25.0452816666667","6500500","新莊區"
"242031","175-VK","2019/10/12 20:19:21","新北市新莊區中正路414-1號","121.440973333333","25.0340466666667","6500500","新莊區"
"242021","KED-0687","2019/10/12 20:19:20","新北市新莊區和興街39號","121.446845","25.0401833333333","6500500","新莊區"
"242036","346-TH","2019/10/12 20:19:19","新北市新莊區建安街76巷3弄6號","121.42611","25.0249333333333","6500500","新莊區"
"242011","347-TH","2019/10/12 20:19:30","新北市新莊區中信街21號","121.45101","25.0507216666667","6500500","新莊區"
"242009","349-TH","2019/10/12 20:19:22","新北市新莊區昌隆街31號","121.4548","25.0511883333333","6500500","新莊區"
"242034","350-TH","2019/10/12 20:19:20","新北市新莊區仁愛街52號","121.444376666667","25.0369833333333","6500500","新莊區"
"242019","351-TH","2019/10/12 20:19:22","新北市新莊區復興路二段150號","121.457723333333","25.04434","6500500","新莊區"
"221008","489-VK","2019/10/12 20:19:25","台北市內湖區康樂街235號","121.6234","25.0783716666667","6501100","汐止區"
"221036","130-UY","2019/10/12 20:19:23","新北市汐止區福安街59巷2號","121.664166666667","25.063625","6501100","汐止區"
"221015","131-UY","2019/10/12 20:19:18","新北市汐止區建成路142巷19弄13號","121.661936666667","25.0739216666667","6501100","汐止區"
"221010","269-BY","2019/10/12 20:19:21","新北市汐止區八連路一段206號","121.641993333333","25.080865","6501100","汐止區"
"221012","278-VK","2019/10/12 20:19:20","新北市汐止區汐平路一段45-1號","121.681988333333","25.07061","6501100","汐止區"
"221023","279-VK","2019/10/12 20:19:25","新北市汐止區明峰街298巷7弄2號","121.624838333333","25.0690583333333","6501100","汐止區"
"221032","280-BY","2019/10/12 20:19:19","新北市汐止區弘道街45號","121.618141666667","25.048555","6501100","汐止區"
"221027","281-BY","2019/10/12 20:19:17","新北市汐止區大同路二段383號","121.657595","25.0672616666667","6501100","汐止區"
"221029","298-VK","2019/10/12 20:18:55","新北市汐止區樟樹二路353號","121.644086666667","25.0740216666667","6501100","汐止區"
"221021","299-VK","2019/10/12 20:19:20","新北市汐止區水源路一段284號","121.654201666667","25.0582766666667","6501100","汐止區"
"221031","353-TW","2019/10/12 20:19:26","新北市汐止區福德二路106號","121.63219","25.06603","6501100","汐止區"
"221035","622-UM","2019/10/12 20:19:21","新北市汐止區長江街57巷21弄1號","121.65584","25.0722866666667","6501100","汐止區"
"221025","623-UM","2019/10/12 20:19:17","新北市汐止區水源路二段30號","121.654746666667","25.057345","6501100","汐止區"
"221038","646-BX","2019/10/12 20:19:30","新北市汐止區忠孝東路432號","121.666183333333","25.0721916666667","6501100","汐止區"
"221033","647-BX","2019/10/12 20:19:19","新北市汐止區東勢街201巷92號","121.633968333333","25.04316","6501100","汐止區"
"221002","707-TV","2019/10/12 20:19:26","新北市汐止區福德三路67號","121.636851666667","25.06935","6501100","汐止區"
"221018","753-BX","2019/10/12 20:19:27","新北市汐止區茄苳路277號","121.672316666667","25.0680033333333","6501100","汐止區"
"220079","145-BY","2019/10/12 20:19:20","新北市板橋區建國街98號","121.45982","25.0173216666667","6500100","板橋區"
"224002","257-TC","2019/10/12 20:19:30","新北市瑞芳區員山子路員山巷20-1號","121.816626666667","25.1038783333333","6501200","瑞芳區"
"220083","286-VK","2019/10/12 20:19:24","新北市板橋區僑中二街92巷32號","121.44467","25.00915","6500100","板橋區"
"220081","287-VK","2019/10/12 20:19:21","新北市板橋區僑中一街80巷7弄19號","121.44689","25.012825","6500100","板橋區"
"242046","281-VK","2019/10/12 20:19:20","新北市新莊區中正路新生巷46號","121.417183333333","25.0233266666667","6500500","新莊區"
"220035","560-BX","2019/10/12 20:19:24","新北市板橋區新生街22號","121.455855","25.0210916666667","6500100","板橋區"
"220086","630-UY","2019/10/12 20:19:18","新北市板橋區大觀路三段52號","121.432343333333","24.9959783333333","6500100","板橋區"
"220054","741-BX","2019/10/12 20:18:49","新北市板橋區實踐路93巷20號","121.464888333333","25.0054083333333","6500100","板橋區"
"220055","827-TW","2019/10/12 20:19:19","新北市板橋區仁愛路25號","121.458976666667","24.9994416666667","6500100","板橋區"
"220074","895-R6","2019/10/12 20:19:18","新北市板橋區館前西路66號","121.457895","25.0070966666667","6500100","板橋區"
"235068","KEA-2873","2019/10/12 20:19:24","新北市中和區福祥路90巷1號","121.49935","25.0056633333333","6500300","中和區"
