"lineid","car","time","location","longitude","latitude","cityid","cityname"
"234013","KEA-2591","2019/10/12 20:59:16","新北市新店區安德街60巷5號","121.509876666667","24.962695","6500400","永和區"
"231061","002-UM","2019/10/12 20:59:25","新北市新店區永安街72號","121.519768333333","24.9865933333333","6500600","新店區"
"231060","106-UY","2019/10/12 20:59:23","新北市新店區安康路三段537號","121.479948333333","24.9473683333333","6500600","新店區"
"231051","107-UY","2019/10/12 20:59:21","新北市新店區中正路663巷1弄2號","121.533006666667","24.99006","6500600","新店區"
"231049","108-UY","2019/10/12 20:59:24","新北市新店區薏仁坑路6號","121.500463333333","24.9580766666667","6500600","新店區"
"231065","110-UY","2019/10/12 20:59:32","新北市新店區安祥路67巷50弄7號","121.484578333333","24.9589216666667","6500600","新店區"
"231068","187-VK","2019/10/12 20:59:34","新北市新店區寶中路73號","121.547493333333","24.980545","6500600","新店區"
"231062","256-BX","2019/10/12 20:59:29","新北市新店區裕合街177號","121.490266666667","24.9490566666667","6500600","新店區"
"231054","260-TV","2019/10/12 20:59:14","新北市新店區大新街7巷48號","121.54441","24.9676266666667","6500600","新店區"
"231042","268-BY","2019/10/12 20:59:18","新北市新店區寶興路60巷3號","121.549966666667","24.97183","6500600","新店區"
"231064","278-BY","2019/10/12 20:59:26","新北市新店區安民街65巷21-1號","121.515218333333","24.9672516666667","6500600","新店區"
"231050","AAD-862","2019/10/12 20:59:03","新北市新店區三民路31-3號","121.537878333333","24.9704566666667","6500600","新店區"
"231063","641-BX","2019/10/12 20:59:20","新北市新店區如意街1巷8號","121.496145","24.94943","6500600","新店區"
"231048","KED-0819","2019/10/12 20:59:28","新北市新店區寶強路45號","121.543395","24.9796016666667","6500600","新店區"
"231059","897-TW","2019/10/12 20:59:21","新北市新店區僑信路74巷23號","121.498866666667","24.94805","6500600","新店區"
"231040","898-TW","2019/10/12 20:59:19","新北市新店區中正路153號","121.541368333333","24.9717883333333","6500600","新店區"
"231066","AKT-0513","2019/10/12 20:59:18","新北市新店區吉安街26號","121.516231666667","24.9660416666667","6500600","新店區"
"241011","013-R5","2019/10/12 20:59:25","新北市三重區秀江街117號","121.499731666667","25.0722066666667","6500200","三重區"
"241028","022-UY","2019/10/12 20:59:15","新北市三重區正義南路53號","121.498205","25.060565","6500200","三重區"
"241008","059-VK","2019/10/12 20:59:20","新北市三重區車路頭街128號","121.484213333333","25.0753316666667","6500200","三重區"
"241002","060-VK","2019/10/12 20:59:28","新北市三重區五華街1巷96號","121.497248333333","25.08063","6500200","三重區"
"241017","063-VK","2019/10/12 20:59:22","新北市三重區國隆路30號","121.492268333333","25.0643566666667","6500200","三重區"
"241024","065-VK","2019/10/12 20:59:16","新北市三重區大勇街82巷15弄30號","121.481251666667","25.0719766666667","6500200","三重區"
"241007","066-VK","2019/10/12 20:59:23","新北市三重區慈愛街51號","121.486088333333","25.079135","6500200","三重區"
"241003","091-VK","2019/10/12 20:59:22","新北市三重區五華街141巷58號","121.49347","25.086615","6500200","三重區"
"241015","742-BX","2019/10/12 20:59:19","新北市三重區長元西街1號","121.498843333333","25.0656583333333","6500200","三重區"
"241006","262-UM","2019/10/12 20:59:24","新北市三重區力行路二段136巷27號","121.48119","25.0755466666667","6500200","三重區"
"241016","266-UM","2019/10/12 20:59:29","新北市三重區自強路一段166號","121.495358333333","25.066275","6500200","三重區"
"241009","267-UM","2019/10/12 20:59:23","新北市三重區力行路二段121號","121.483003333333","25.0765083333333","6500200","三重區"
"241018","268-UM","2019/10/12 20:59:29","新北市三重區雙園街136號","121.493863333333","25.06726","6500200","三重區"
"241032","269-UM","2019/10/12 20:59:30","新北市三重區三陽路123號","121.483333333333","25.059015","6500200","三重區"
"241013","270-UM","2019/10/12 20:59:23","新北市三重區仁賢街12-1號","121.495711666667","25.0748883333333","6500200","三重區"
"241025","271-UM","2019/10/12 20:59:15","新北市三重區貴陽街14號","121.484246666667","25.0618183333333","6500200","三重區"
"241030","KED-0822","2019/10/12 20:59:33","新北市三重區中正南路269號","121.49329","25.0522183333333","6500200","三重區"
"241031","462-BY","2019/10/12 20:59:26","新北市三重區重陽路一段113巷3號","121.487513333333","25.0598016666667","6500200","三重區"
"241004","475-VK","2019/10/12 20:59:30","新北市三重區仁愛街420號","121.490388333333","25.08142","6500200","三重區"
"241020","478-VK","2019/10/12 20:59:27","新北市三重區忠孝路二段34號","121.485808333333","25.0709866666667","6500200","三重區"
"241014","543-UM","2019/10/12 20:59:31","新北市三重區長壽街120巷11號","121.502531666667","25.06914","6500200","三重區"
"241023","545-UM","2019/10/12 20:59:28","新北市三重區洛陽街45巷11號","121.48235","25.0637383333333","6500200","三重區"
"241001","547-UM","2019/10/12 20:58:03","新北市三重區自強路三段87巷29號","121.488598333333","25.075075","6500200","三重區"
"241019","KEA-2593","2019/10/12 20:59:21","新北市三重區自強路二段74巷23-1號","121.487921666667","25.0698666666667","6500200","三重區"
"241005","AAD-863","2019/10/12 20:59:16","新北市三重區五華街180巷23號","121.487998333333","25.0859033333333","6500200","三重區"
"241012","743-BX","2019/10/12 20:59:24","新北市三重區龍門路274巷45號","121.501208333333","25.075515","6500200","三重區"
"241022","KED-0820","2019/10/12 20:59:16","新北市三重區中正北路20巷12號","121.488016666667","25.0624616666667","6500200","三重區"
"241026","887-TS","2019/10/12 20:59:29","新北市三重區文化南路46號","121.500385","25.0599566666667","6500200","三重區"
"241029","942-UM","2019/10/12 20:59:27","新北市三重區正義南路111號","121.498236666667","25.0585283333333","6500200","三重區"
"241033","AAC-255","2019/10/12 20:59:31","新北市三重區光復路二段7號","121.472091666667","25.0540066666667","6500200","三重區"
"235055","183-VK","2019/10/12 20:59:26","新北市五股區孝義路9-17號","121.449131666667","25.10691","6500300","中和區"
"247016","KEA-2869","2019/10/12 20:59:26","新北市蘆洲區正和街83號","121.468148333333","25.0806616666667","6501400","蘆洲區"
"247010","KED-0682","2019/10/12 20:59:07","新北市蘆洲區鷺江街76號","121.476961666667","25.08375","6501400","蘆洲區"
"235069","4980-A6","2019/10/12 20:59:29","新北市中和區連城路469巷44弄16號","121.482781666667","24.9941866666667","6500300","中和區"
"235018","640-BX","2019/10/12 20:56:56","新北市中和區員山路36巷16-2號","121.485328333333","24.9915216666667","6500300","中和區"
"247006","893-R6","2019/10/12 20:59:20","新北市蘆洲區永安南路二段16巷8號","121.467805","25.0772733333333","6501400","蘆洲區"
"247002","341-TH","2019/10/12 20:59:14","新北市蘆洲區永樂街38巷12號","121.458158333333","25.0889","6501400","蘆洲區"
"247004","336-TH","2019/10/12 20:59:19","新北市蘆洲區永安南路二段268號","121.458648333333","25.080735","6501400","蘆洲區"
"247024","057-VK","2019/10/12 20:59:26","新北市蘆洲區長興路213號","121.46115","25.0863583333333","6501400","蘆洲區"
"247014","056-VK","2019/10/12 20:58:11","新北市蘆洲區中山二路36巷6號","121.474466666667","25.0825833333333","6501400","蘆洲區"
"247018","053-VK","2019/10/12 20:59:19","新北市蘆洲區民權路136-2號","121.473086666667","25.0889","6501400","蘆洲區"
"247008","002-UY","2019/10/12 20:59:18","新北市蘆洲區民生街127號","121.472768333333","25.0790716666667","6501400","蘆洲區"
"251005","010-UM","2019/10/12 20:59:17","新北市淡水區學府路51巷2弄12號","121.447903333333","25.169815","6501000","淡水區"
"251001","011-UM","2019/10/12 20:59:32","新北市淡水區新市一路三段102號","121.446271666667","25.182955","6501000","淡水區"
"251015","KEA-2871","2019/10/12 20:59:23","新北市淡水區淡金路四段542巷17號","121.452848333333","25.2270333333333","6501000","淡水區"
"251016","179-VK","2019/10/12 20:59:27","新北市淡水區牛埔子11-1號","121.450328333333","25.21845","6501000","淡水區"
"251013","180-VK","2019/10/12 20:59:25","新北市淡水區番子厝13號","121.461368333333","25.2014266666667","6501000","淡水區"
"251008","181-VK","2019/10/12 20:59:15","新北市淡水區下圭柔山91-3號","121.43097","25.210115","6501000","淡水區"
"251010","413-VK","2019/10/12 20:59:32","新北市淡水區淡海路22號","121.423941666667","25.17877","6501000","淡水區"
"251007","442-VK","2019/10/12 20:59:29","新北市淡水區仁愛街2巷20-1號","121.446533333333","25.1711716666667","6501000","淡水區"
"251012","443-VK","2019/10/12 20:59:16","新北市淡水區淡金路五段106號","121.456463333333","25.2365533333333","6501000","淡水區"
"251014","577-R6","2019/10/12 20:59:20","新北市淡水區淡金路五段72號","121.454948333333","25.233545","6501000","淡水區"
"251011","650-BX","2019/10/12 20:59:14","新北市淡水區新民街103號","121.43608","25.1810016666667","6501000","淡水區"
"251002","672-BX","2019/10/12 20:59:28","新北市淡水區英專路68號","121.445661666667","25.1710583333333","6501000","淡水區"
"251003","673-BX","2019/10/12 20:59:19","新北市淡水區新春街163號","121.442825","25.18121","6501000","淡水區"
"247012","KED-0683","2019/10/12 20:59:18","新北市蘆洲區民權路6號","121.47696","25.0854966666667","6501400","蘆洲區"
"242004","751-BX","2019/10/12 20:59:10","新北市八里區荖阡坑路34號","121.402001666667","25.1293383333333","6500500","新莊區"
"242025","362-BY","2019/10/12 20:59:24","新北市八里區中山路三段409號","121.36873","25.135695","6500500","新莊區"
"242036","346-TH","2019/10/12 20:59:19","新北市新莊區中環路一段299號","121.44202","25.032425","6500500","新莊區"
"242009","349-TH","2019/10/12 20:59:22","新北市三重區中興南街37號","121.469771666667","25.04256","6500500","新莊區"
"242034","350-TH","2019/10/12 20:59:20","新北市新莊區環漢路三段530號","121.435466666667","25.001905","6500500","新莊區"
"221036","130-UY","2019/10/12 20:59:23","新北市汐止區仁愛路316巷7號","121.66475","25.0677866666667","6501100","汐止區"
"242046","281-VK","2019/10/12 20:59:20","新北市泰山區新五路一段127號","121.44016","25.06248","6500500","新莊區"
