"lineid","car","time","location","longitude","latitude","cityid","cityname"
"251004","009-UM","2019/10/12 21:59:26","新北市淡水區民權路141號","121.460101666667","25.13643","6501000","淡水區"
"251005","010-UM","2019/10/12 21:59:17","新北市淡水區鄧公路30巷2弄27號","121.453248333333","25.1691716666667","6501000","淡水區"
"251008","181-VK","2019/10/12 21:59:15","新北市淡水區學府路104號","121.44988","25.17179","6501000","淡水區"
"251010","413-VK","2019/10/12 21:59:12","新北市淡水區中正路二段206號","121.426231666667","25.1891066666667","6501000","淡水區"
"251007","442-VK","2019/10/12 21:59:26","新北市淡水區北新路184巷11號","121.449848333333","25.1782033333333","6501000","淡水區"
"251006","561-UM","2019/10/12 21:52:02","新北市淡水區中正路11巷3號","121.437896666667","25.1707283333333","6501000","淡水區"
"251011","650-BX","2019/10/12 21:59:14","新北市淡水區水碓街3號","121.443108333333","25.177035","6501000","淡水區"
"251003","673-BX","2019/10/12 21:59:19","新北市淡水區新春街87號","121.438906666667","25.182665","6501000","淡水區"
