"lineid","car","time","location","longitude","latitude","cityid","cityname"
"251004","009-UM","2019/10/12 22:29:26","新北市淡水區民族路33號","121.462348333333","25.1357766666667","6501000","淡水區"
"251008","181-VK","2019/10/12 22:29:15","新北市淡水區學府路104號","121.449881666667","25.1717983333333","6501000","淡水區"
"251010","413-VK","2019/10/12 22:29:32","新北市淡水區沙崙路242號","121.425866666667","25.184865","6501000","淡水區"
"251007","442-VK","2019/10/12 22:29:26","新北市淡水區北新路180號","121.449336666667","25.1785466666667","6501000","淡水區"
"251011","650-BX","2019/10/12 22:29:14","新北市淡水區水碓街7號","121.443188333333","25.177155","6501000","淡水區"
