"lineid","car","time","location","longitude","latitude","cityid","cityname"
"244012","KEA-2802","2019/08/05 09:39:44","新北市林口區中山路235號","121.386206666667","25.0793033333333","6501700","林口區"
"244022","483-VK","2019/08/05 09:39:40","新北市林口區仁愛路二段106巷9號","121.383298333333","25.0752916666667","6501700","林口區"
"244008","656-BX","2019/08/05 09:39:42","新北市林口區竹林路402號","121.39091","25.0842033333333","6501700","林口區"
"244010","701-TV","2019/08/05 09:39:39","新北市林口區中正路264巷13號","121.388803333333","25.07817","6501700","林口區"
"222004","289-BY","2019/08/05 09:39:36","新北市深坑區北深路一段264號","121.62938","25.0087116666667","6501800","深坑區"
"231007","189-VK","2019/08/05 09:19:19","新北市新店區新潭路三段215巷25號","121.508121666667","24.90407","6500600","新店區"
"231008","192-VK","2019/08/05 09:36:24","新北市新店區平廣路一段256號","121.507873333333","24.8883733333333","6500600","新店區"
"223003","205-TH","2019/08/05 09:39:32","新北市石碇區北宜路四段26號","121.623151666667","24.9579","6501900","石碇區"
"223008","406-TH","2019/08/05 09:39:31","新北市石碇區光明路32號","121.696083333333","25.0216066666667","6501900","石碇區"
"223001","592-UM","2019/08/05 09:39:45","新北市石碇區北宜路四段25號","121.621935","24.9577766666667","6501900","石碇區"
"223004","660-BX","2019/08/05 09:39:43","新北市石碇區碇坪路二段11號","121.680653333333","24.9759033333333","6501900","石碇區"
"227003","282-VK","2019/08/05 09:36:17","新北市雙溪區泰平里溪尾寮6號","121.819666666667","24.96313","6502500","雙溪區"
"252006","178-VK","2019/08/05 09:39:46","新北市三芝區新庄里新庄子95號","121.513266666667","25.273875","6502100","三芝區"
"252004","249-BX","2019/08/05 09:39:29","新北市三芝區福德里大水堀31號","121.509786666667","25.216625","6502100","三芝區"
"237014","760-BX","2019/08/05 09:39:36","新北市三峽區金敏130號","121.384006666667","24.8671116666667","6500900","三峽區"
"242038","AAC-296","2019/08/05 09:39:47","新北市新莊區瓊林路63-6號","121.437916666667","25.0210583333333","6500500","新莊區"
"242059","986-R7","2019/08/05 09:39:33","新北市新莊區新樹路244巷19號","121.431546666667","25.0183166666667","6500500","新莊區"
"242001","751-BX","2019/08/05 09:39:48","新北市新莊區中港路五守新村1巷1號","121.455036666667","25.038405","6500500","新莊區"
"242057","612-BX","2019/08/05 09:39:48","新北市新莊區四維路121號","121.423088333333","25.02303","6500500","新莊區"
"242045","566-BX","2019/08/05 09:39:42","新北市新莊區富國路22巷19號","121.418336666667","25.0257766666667","6500500","新莊區"
"242055","441-UM","2019/08/05 09:39:32","新北市新莊區新莊路751巷85號","121.442783333333","25.0307483333333","6500500","新莊區"
"242003","440-UM","2019/08/05 09:39:34","新北市新莊區化成路762號","121.465311666667","25.0586183333333","6500500","新莊區"
"242040","415-TV","2019/08/05 09:39:37","新北市新莊區天祥街47巷1號","121.416613333333","25.02873","6500500","新莊區"
"242047","400-BY","2019/08/05 09:39:33","新北市新莊區中正路743號","121.422486666667","25.0288683333333","6500500","新莊區"
"242035","135-UY","2019/08/05 09:39:44","新北市新莊區中正路481號","121.44141","25.03373","6500500","新莊區"
"242033","348-TH","2019/08/05 09:39:48","新北市新莊區中正路260號","121.447756666667","25.035165","6500500","新莊區"
"242030","350-TH","2019/08/05 09:39:30","新北市新莊區三泰路24號","121.440288333333","25.0341566666667","6500500","新莊區"
"242016","351-TH","2019/08/05 09:39:28","新北市新莊區新泰路357巷3弄57號","121.442001666667","25.0394633333333","6500500","新莊區"
"244018","KED-0667","2019/08/05 09:39:41","新北市林口區麗園二街87號","121.382418333333","25.0673483333333","6501700","林口區"
"233003","KEA-2870","2019/08/05 09:39:43","新北市烏來區卡拉模基2號","121.503921666667","24.77757","6502900","烏來區"
"241031","281-UM","2019/08/05 09:39:45","新北市板橋區四川路二段橋頭1巷1號","121.446793333333","24.9945783333333","6500200","三重區"
"242043","281-VK","2019/08/05 09:39:46","新北市新莊區中正路新建巷55號","121.414775","25.02138","6500500","新莊區"
