"lineid","car","time","location","longitude","latitude","cityid","cityname"
"244022","483-VK","2019/08/05 10:19:46","新北市林口區仁愛路二段700號","121.369243333333","25.08061","6501700","林口區"
"231008","192-VK","2019/08/05 10:19:45","新北市新店區小坑一路22號","121.532545","24.9139683333333","6500600","新店區"
"227003","282-VK","2019/08/05 10:08:37","新北市雙溪區泰平里灣潭路36號","121.811888333333","24.9286683333333","6502500","雙溪區"
"252006","178-VK","2019/08/05 10:19:45","新北市三芝區新庄里番社后18-2號","121.496006666667","25.2748033333333","6502100","三芝區"
"233003","KEA-2870","2019/08/05 10:19:43","新北市烏來區環山路48-3號","121.548485","24.864525","6502900","烏來區"
"241031","281-UM","2019/08/05 10:19:45","新北市板橋區和平路安樂巷47號","121.462136666667","24.9931066666667","6500200","三重區"
