"lineid","car","time","location","longitude","latitude","cityid","cityname"
"244022","483-VK","2019/08/05 10:29:40","新北市林口區民富街88號","121.37023","25.0747483333333","6501700","林口區"
"231007","189-VK","2019/08/05 10:29:42","新北市新店區新潭路三段211號","121.50452","24.9052616666667","6500600","新店區"
"231008","192-VK","2019/08/05 10:29:25","新北市新店區松林路16巷41號","121.54613","24.9067183333333","6500600","新店區"
"227003","282-VK","2019/08/05 10:08:37","新北市雙溪區泰平里灣潭路36號","121.811888333333","24.9286683333333","6502500","雙溪區"
"252006","178-VK","2019/08/05 10:29:46","新北市三芝區埔頭里埔頭48號","121.501213333333","25.2626","6502100","三芝區"
"233003","KEA-2870","2019/08/05 10:29:43","新北市烏來區烏來街6號","121.551386666667","24.8650983333333","6502900","烏來區"
"241031","281-UM","2019/08/05 10:29:45","新北市板橋區和平路安樂巷47號","121.462145","24.9931433333333","6500200","三重區"
