"lineid","car","time","location","longitude","latitude","cityid","cityname"
"248007","KED-0815","2019/08/05 15:39:51","新北市五股區中興路一段1巷31-1號","121.469463333333","25.069955","6501500","五股區"
"231030","002-UM","2019/08/05 15:39:42","新北市新店區新和街93巷6弄24號","121.521553333333","24.9870666666667","6500600","新店區"
"231005","046-UY","2019/08/05 15:39:47","新北市新店區民族路243號","121.536418333333","24.97553","6500600","新店區"
"231029","106-UY","2019/08/05 15:39:53","新北市新店區安康路三段148號","121.490526666667","24.95174","6500600","新店區"
"231018","107-UY","2019/08/05 15:39:44","新北市新店區中正路663巷7弄15號","121.53295","24.9900666666667","6500600","新店區"
"231013","108-UY","2019/08/05 15:39:40","新北市新店區永業路81巷3弄34號","121.530956666667","24.9501483333333","6500600","新店區"
"231036","110-UY","2019/08/05 15:39:45","新北市新店區安祥路69巷89弄2號","121.483578333333","24.9593333333333","6500600","新店區"
"231039","187-VK","2019/08/05 15:39:42","新北市新店區寶元路二段31巷1號","121.546696666667","24.98175","6500600","新店區"
"231014","KEA-2219","2019/08/05 15:39:40","新北市新店區北宜路二段85號","121.550096666667","24.95215","6500600","新店區"
"231031","256-BX","2019/08/05 15:39:42","新北市新店區雙城路115號","121.492478333333","24.9475383333333","6500600","新店區"
"231023","260-TV","2019/08/05 15:39:46","新北市新店區大新街7巷12號","121.543558333333","24.9681466666667","6500600","新店區"
"231003","268-BY","2019/08/05 15:39:49","新北市新店區寶興路58巷1號","121.549995","24.97219","6500600","新店區"
"231035","278-BY","2019/08/05 15:39:49","新北市新店區安興路83-3號","121.515375","24.97558","6500600","新店區"
"231038","3712-VJ","2019/08/05 15:39:50","新北市新店區安康路二段208號","121.510178333333","24.9595016666667","6500600","新店區"
"231019","513-UM","2019/08/05 15:39:33","新北市新店區花園二路三段17號","121.55607","24.9316816666667","6500600","新店區"
"231034","641-BX","2019/08/05 15:39:51","新北市新店區如意街69號","121.494121666667","24.9472216666667","6500600","新店區"
"231011","KED-0819","2019/08/05 15:39:41","新北市新店區文化路22-1號","121.543548333333","24.9797116666667","6500600","新店區"
"231026","720-UM","2019/08/05 15:39:36","新北市新店區三民路51巷3弄1號","121.536581666667","24.9704616666667","6500600","新店區"
"231028","897-TW","2019/08/05 15:39:46","新北市新店區僑義路24號","121.500585","24.9500733333333","6500600","新店區"
"231037","AKT-0513","2019/08/05 15:39:44","新北市新店區安興路69號","121.515906666667","24.9748","6500600","新店區"
"241028","022-UY","2019/08/05 15:39:51","新北市三重區重新路三段101號","121.491368333333","25.0600116666667","6500200","三重區"
"241017","063-VK","2019/08/05 15:39:43","新北市三重區大仁街1號","121.49167","25.0635966666667","6500200","三重區"
"241015","742-BX","2019/08/05 15:39:48","新北市三重區重新路四段121號","121.485073333333","25.05186","6500200","三重區"
"241018","268-UM","2019/08/05 15:39:39","新北市三重區重新路四段121號","121.485383333333","25.0520433333333","6500200","三重區"
"241013","270-UM","2019/08/05 15:39:38","新北市三重區忠孝路一段107號","121.489118333333","25.0720483333333","6500200","三重區"
"241007","398-BY","2019/08/05 15:39:45","新北市三重區重新路四段121號","121.484986666667","25.0519083333333","6500200","三重區"
"241020","478-VK","2019/08/05 15:39:43","新北市三重區忠孝路二段63號","121.484925","25.0706733333333","6500200","三重區"
"241014","543-UM","2019/08/05 15:39:55","新北市三重區重新路四段121號","121.485213333333","25.051785","6500200","三重區"
"241023","545-UM","2019/08/05 15:39:46","新北市三重區中正北路253號","121.475531666667","25.070715","6500200","三重區"
"241005","AAD-863","2019/08/05 15:39:49","新北市三重區重新路四段121號","121.484636666667","25.0520283333333","6500200","三重區"
"241022","KED-0820","2019/08/05 15:39:46","新北市三重區重新路四段121號","121.484798333333","25.0518666666667","6500200","三重區"
"241016","887-TS","2019/08/05 15:39:39","新北市三重區重新路四段121號","121.485235","25.0521083333333","6500200","三重區"
"241012","941-UM","2019/08/05 15:39:46","新北市三重區自強路一段66號","121.497135","25.0666566666667","6500200","三重區"
"241029","942-UM","2019/08/05 15:39:39","新北市三重區大同南路194號","121.496776666667","25.0569333333333","6500200","三重區"
"241033","AAC-255","2019/08/05 15:39:53","新北市三重區重新路五段408巷21-3號","121.476136666667","25.0453166666667","6500200","三重區"
"235033","4980-A6","2019/08/05 15:39:52","新北市中和區員山路359巷3號","121.480985","25.0019716666667","6500300","中和區"
"235026","800-TS","2019/08/05 15:39:47","新北市中和區立業路83巷30號","121.49129","25.0064383333333","6500300","中和區"
"235023","AAC-215","2019/08/05 15:39:53","新北市中和區員山路39號","121.4822","24.99103","6500300","中和區"
"224005","271-BY","2019/08/05 15:39:38","新北市瑞芳區中山路350號","121.795891666667","25.1102566666667","6501200","瑞芳區"
"227001","400-TW","2019/08/05 15:39:46","新北市雙溪區雙溪里中正路48號","121.865346666667","25.0399183333333","6502500","雙溪區"
"252006","073-UM","2019/08/05 15:11:32","新北市三芝區埔坪里埔頭坑41號","121.504448333333","25.2644133333333","6502100","三芝區"
"236074","166-UM","2019/08/05 15:39:50","新北市土城區中央路四段321巷32號","121.411601666667","24.95142","6501300","土城區"
"236029","253-BX","2019/08/05 15:39:38","新北市土城區裕民路32巷6號","121.447593333333","24.9880633333333","6501300","土城區"
"236024","269-VK","2019/08/05 15:39:44","新北市土城區中央路二段293號","121.444541666667","24.9841983333333","6501300","土城區"
"236012","270-VK","2019/08/05 15:39:37","新北市土城區四川路1號","121.456086666667","24.9957716666667","6501300","土城區"
"236064","KEA-2877","2019/08/05 15:39:54","新北市土城區中央路三段71-1號","121.43868","24.9692216666667","6501300","土城區"
"236016","401-BY","2019/08/05 15:39:47","新北市土城區延吉街111巷12弄10號","121.471745","24.985655","6501300","土城區"
"236057","912-UM","2019/08/05 15:39:40","新北市土城區中央路一段303號","121.443941666667","24.9835383333333","6501300","土城區"
"236045","913-UM","2019/08/05 15:39:37","新北市土城區金城路三段206巷1號","121.471566666667","24.9896983333333","6501300","土城區"
"236054","AAC-216","2019/08/05 15:39:49","新北市土城區學府路一段146號","121.454853333333","24.9870966666667","6501300","土城區"
"238002","755-BX","2019/08/05 15:39:47","新北市樹林區長壽街15-5號","121.422896666667","24.993605","6500700","樹林區"
"238010","601-UM","2019/08/05 15:39:35","新北市樹林區龍興街46巷6號","121.402738333333","25.0154516666667","6500700","樹林區"
"238006","599-UM","2019/08/05 15:39:51","新北市樹林區國凱街118號","121.42249","24.97997","6500700","樹林區"
"238011","5061-A6","2019/08/05 15:39:54","新北市樹林區中山路二段189巷6號","121.405361666667","24.97651","6500700","樹林區"
"238005","KEA-2217","2019/08/05 15:39:49","新北市樹林區中華路136號","121.417046666667","24.9803616666667","6500700","樹林區"
"238009","KEA-2213","2019/08/05 15:39:42","新北市樹林區中華路187巷4號","121.4204","24.9815566666667","6500700","樹林區"
"238008","KEA-2539","2019/08/05 15:39:38","新北市樹林區柑園街一段371號","121.388601666667","24.955955","6500700","樹林區"
"238012","303-VK","2019/08/05 15:39:42","新北市樹林區中山路二段158號","121.412403333333","24.9826083333333","6500700","樹林區"
"238004","283-BY","2019/08/05 15:39:45","新北市樹林區保安街二段295巷14號","121.411725","25.0060366666667","6500700","樹林區"
"238001","282-BY","2019/08/05 15:39:49","新北市樹林區潭興街107巷21弄12號","121.424015","24.9989866666667","6500700","樹林區"
"238007","268-VK","2019/08/05 15:39:37","新北市樹林區俊英街109-1號","121.424923333333","25.0099016666667","6500700","樹林區"
"238013","172-UY","2019/08/05 15:39:36","新北市樹林區中洲街30巷14號","121.39766","24.9716783333333","6500700","樹林區"
"238003","169-UY","2019/08/05 15:39:51","新北市樹林區復興路246號","121.41857","24.9891183333333","6500700","樹林區"
