"lineid","car","time","location","longitude","latitude","cityid","cityname"
"234046","148-BY","2019/08/05 19:09:51","新北市永和區永元路18巷17號","121.523351666667","25.0002616666667","6500400","永和區"
"234081","298-R6","2019/08/05 19:09:45","新北市永和區永亨路83號","121.522046666667","25.0057583333333","6500400","永和區"
"234038","336-UY","2019/08/05 19:09:35","新北市永和區民樂街73巷1號","121.527393333333","24.99732","6500400","永和區"
"234064","337-UY","2019/08/05 19:09:28","新北市永和區秀朗路二段33號","121.521303333333","25.00242","6500400","永和區"
"234086","338-UY","2019/08/05 19:09:30","新北市永和區永貞路71號","121.518868333333","25.004375","6500400","永和區"
"234070","552-UM","2019/08/05 19:09:36","新北市永和區豫溪街95巷9號","121.518101666667","25.0107433333333","6500400","永和區"
"234017","745-BX","2019/08/05 19:09:31","新北市永和區文化路90巷8號","121.513928333333","25.0156916666667","6500400","永和區"
"234030","746-BX","2019/08/05 19:09:44","新北市永和區民生路23號","121.522891666667","24.9988133333333","6500400","永和區"
"234054","KEA-2590","2019/08/05 19:09:46","新北市永和區中興街151號","121.519178333333","25.0124183333333","6500400","永和區"
"234007","KED-0605","2019/08/05 19:09:30","新北市永和區中山路一段238號","121.507303333333","25.007645","6500400","永和區"
"234013","KEA-2591","2019/08/05 19:09:48","新北市永和區保福路二段18號","121.511058333333","25.0114466666667","6500400","永和區"
"234061","AAD-866","2019/08/05 19:09:38","新北市永和區安樂路304巷7號","121.514466666667","25.0051366666667","6500400","永和區"
"234042","862-TW","2019/08/05 19:09:36","新北市永和區永貞路334號","121.51115","25.005545","6500400","永和區"
"234050","863-TW","2019/08/05 19:09:35","新北市永和區仁愛路104巷7弄23號","121.51097","25.0141216666667","6500400","永和區"
"234026","9371-KE","2019/08/05 19:09:39","新北市永和區安樂路272巷9弄8號","121.515273333333","25.0046566666667","6500400","永和區"
"234011","9373-KE","2019/08/05 19:09:39","新北市永和區信義路25巷53號","121.512341666667","25.011535","6500400","永和區"
"249005","172-UM","2019/08/05 19:09:28","新北市八里區中華路三段77號","121.394468333333","25.1406266666667","6502300","八里區"
"249001","173-UM","2019/08/05 19:09:43","新北市八里區龍米路二段203-9號","121.432471666667","25.15838","6502300","八里區"
"249003","593-UM","2019/08/05 19:09:40","新北市八里區仁愛路10號","121.413186666667","25.16226","6502300","八里區"
"248016","026-BX","2019/08/05 19:09:30","新北市五股區成泰路三段543巷29號","121.450183333333","25.1026916666667","6501500","五股區"
"248008","KED-0815","2019/08/05 19:09:33","新北市五股區中興路一段118巷20號","121.465991666667","25.0743966666667","6501500","五股區"
"248018","KED-0813","2019/08/05 19:09:48","新北市五股區民義路一段287巷2-8號","121.423445","25.090215","6501500","五股區"
"248012","247-BX","2019/08/05 19:09:42","新北市五股區中興路四段48巷16號","121.438606666667","25.0834183333333","6501500","五股區"
"248004","677-BX","2019/08/05 19:09:46","新北市五股區五福路11-6號","121.434253333333","25.0886716666667","6501500","五股區"
"248002","678-BX","2019/08/05 19:09:36","新北市五股區凌雲路一段158巷6號","121.447815","25.10295","6501500","五股區"
"248010","682-TV","2019/08/05 19:09:33","新北市五股區水碓一路23號","121.43059","25.0712766666667","6501500","五股區"
"234023","9380-KE","2019/08/05 19:09:30","新北市永和區中興街10巷19號","121.51586","25.0112","6500400","永和區"
"234077","969-R7","2019/08/05 19:09:44","新北市永和區民族街6號","121.518665","24.9995866666667","6500400","永和區"
"234074","AAC-211","2019/08/05 19:09:35","新北市永和區福和路85號","121.522238333333","25.0078316666667","6500400","永和區"
"234067","AAC-212","2019/08/05 19:09:36","新北市永和區保平路14號","121.512605","25.007505","6500400","永和區"
"234003","AAC-295","2019/08/05 19:09:45","新北市永和區保福路一段45號","121.512563333333","25.009265","6500400","永和區"
"244023","483-VK","2019/08/05 19:09:48","新北市林口區文林六街21號","121.371238333333","25.0807883333333","6501700","林口區"
"244011","657-BX","2019/08/05 19:09:37","新北市林口區中正路296巷1-2號","121.3884","25.0779866666667","6501700","林口區"
"244025","837-TS","2019/08/05 19:09:34","新北市林口區民族路77號","121.365791666667","25.075355","6501700","林口區"
"243012","AAD-798","2019/08/05 19:09:34","新北市泰山區辭修路34巷1號","121.428806666667","25.0580433333333","6501600","泰山區"
"243010","297-R6","2019/08/05 19:09:46","新北市泰山區明志路一段483巷1弄2號","121.431113333333","25.055395","6501600","泰山區"
"243014","KEA-2801","2019/08/05 19:09:33","新北市泰山區泰林路二段387號","121.427328333333","25.0642733333333","6501600","泰山區"
"243016","421-VK","2019/08/05 19:09:32","新北市泰山區明志路三段1號","121.424825","25.0435133333333","6501600","泰山區"
"243009","KEA-2215","2019/08/05 19:09:29","新北市泰山區明志路一段122巷19號","121.432911666667","25.0637016666667","6501600","泰山區"
"243011","KEA-2216","2019/08/05 19:09:41","新北市泰山區明志路二段346號","121.425953333333","25.0453183333333","6501600","泰山區"
"243013","646-TV","2019/08/05 19:09:47","新北市泰山區明志路三段271號","121.42312","25.03704","6501600","泰山區"
"243015","680-BX","2019/08/05 19:09:33","新北市泰山區明志路一段398號","121.430763333333","25.0571966666667","6501600","泰山區"
"222003","436-BY","2019/08/05 19:09:38","新北市深坑區深南路170號","121.626118333333","25.015055","6501800","深坑區"
"222002","659-BX","2019/08/05 19:09:39","新北市深坑區烏月路1號","121.633415","25.008395","6501800","深坑區"
"231061","002-UM","2019/08/05 19:09:38","新北市新店區安康路一段299-3號","121.52097","24.96377","6500600","新店區"
"231024","0291-UT","2019/08/05 19:09:42","新北市新店區力行路14巷10號","121.539251666667","24.965065","6500600","新店區"
"231058","0293-UT","2019/08/05 19:09:38","新北市新店區光明街112號","121.539073333333","24.96076","6500600","新店區"
"231044","046-UY","2019/08/05 19:09:39","新北市新店區寶中路45-3號","121.544948333333","24.9793683333333","6500600","新店區"
"231060","106-UY","2019/08/05 19:09:49","新北市新店區安康路二段296-2號","121.50671","24.9581","6500600","新店區"
"231051","107-UY","2019/08/05 19:09:34","新北市新店區中正路382巷20號","121.5354","24.9776683333333","6500600","新店區"
"231049","108-UY","2019/08/05 19:09:30","新北市新店區二十張路21號","121.539175","24.9822683333333","6500600","新店區"
"231065","110-UY","2019/08/05 19:09:39","新北市新店區安祥路140號","121.47439","24.95579","6500600","新店區"
"231050","KEA-2219","2019/08/05 19:09:41","新北市新店區竹林路2巷27弄1號","121.550258333333","24.950935","6500600","新店區"
"231062","256-BX","2019/08/05 19:09:40","新北市新店區安平路35巷2-1號","121.521258333333","24.967865","6500600","新店區"
"231054","260-TV","2019/08/05 19:09:30","新北市新店區新店路166號","121.537193333333","24.95569","6500600","新店區"
"231042","268-BY","2019/08/05 19:09:47","新北市新店區中興路一段203號","121.54351","24.9654866666667","6500600","新店區"
"231064","278-BY","2019/08/05 19:09:37","新北市新店區安忠路56巷6號","121.512841666667","24.959365","6500600","新店區"
"231045","355-BY","2019/08/05 19:09:34","新北市新店區北宜路一段66號","121.538501666667","24.95595","6500600","新店區"
"231067","4772-VM","2019/08/05 19:09:33","新北市新店區安康路一段263巷27號","121.524008333333","24.9615533333333","6500600","新店區"
"231052","513-UM","2019/08/05 19:09:40","新北市新店區自強路23巷1號","121.546131666667","24.9266283333333","6500600","新店區"
"231041","619-UM","2019/08/05 19:09:44","新北市新店區環河路116號","121.536855","24.967535","6500600","新店區"
"231063","641-BX","2019/08/05 19:09:42","新北市新店區車子路134號","121.505121666667","24.9486166666667","6500600","新店區"
"231047","KED-0819","2019/08/05 19:09:42","新北市新店區德正街27巷29弄14號","121.545788333333","24.9719133333333","6500600","新店區"
"231046","719-UM","2019/08/05 19:09:44","新北市新店區華潭街1巷9號","121.52937","24.949425","6500600","新店區"
"231057","720-UM","2019/08/05 19:09:47","新北市新店區百齡一路12號","121.553051666667","24.93246","6500600","新店區"
"231059","897-TW","2019/08/05 19:09:39","新北市新店區安康路一段351-1號","121.519495","24.9640416666667","6500600","新店區"
"231040","898-TW","2019/08/05 19:09:30","新北市新店區三民路122號","121.53449","24.9744716666667","6500600","新店區"
"231043","899-TW","2019/08/05 19:09:43","新北市新店區寶橋路61號","121.545296666667","24.9749566666667","6500600","新店區"
"231066","AKT-0513","2019/08/05 19:09:49","新北市新店區安康路二段458號","121.494233333333","24.9543166666667","6500600","新店區"
"241013","270-UM","2019/08/05 19:09:45","新北市三重區三和路三段107巷21號","121.495006666667","25.0730533333333","6500200","三重區"
"241035","462-BY","2019/08/05 19:09:32","新北市三重區中正北路2-3號","121.48924","25.06272","6500200","三重區"
"241026","480-VK","2019/08/05 19:09:41","新北市三重區重安街141號","121.495556666667","25.0546683333333","6500200","三重區"
"241022","KED-0820","2019/08/05 19:09:37","新北市三重區三民街155巷9號","121.484418333333","25.0647983333333","6500200","三重區"
"241029","942-UM","2019/08/05 19:09:41","新北市三重區集美街222號","121.491946666667","25.0553433333333","6500200","三重區"
"235066","003-UY","2019/08/05 19:09:41","新北市中和區廣福路12-5號","121.505303333333","25.002705","6500300","中和區"
"235064","005-UY","2019/08/05 19:09:37","新北市中和區連城路4號","121.499185","25.0024333333333","6500300","中和區"
"235063","006-UY","2019/08/05 19:09:50","新北市中和區連城路263巷1號","121.49199","24.9965783333333","6500300","中和區"
"235056","096-UM","2019/08/05 19:09:41","新北市中和區中正路1161號","121.481923333333","25.0088183333333","6500300","中和區"
"235039","097-UM","2019/08/05 19:09:33","新北市中和區自立路58巷1號","121.523601666667","24.9915216666667","6500300","中和區"
"235065","098-UM","2019/08/05 19:09:42","新北市中和區中山路二段136巷6弄1號","121.50212","25.00389","6500300","中和區"
"235040","150-BY","2019/08/05 19:09:50","新北市中和區宜安路23巷26號","121.51212","24.995005","6500300","中和區"
"235058","151-BY","2019/08/05 19:09:44","新北市中和區連城路523巷9弄2號","121.481703333333","24.9944983333333","6500300","中和區"
"235038","185-VK","2019/08/05 19:09:38","新北市中和區大仁街20巷34號","121.519313333333","24.99307","6500300","中和區"
"235049","186-VK","2019/08/05 19:09:43","新北市中和區景新街218號","121.507133333333","24.9951483333333","6500300","中和區"
"235067","255-BX","2019/08/05 19:09:40","新北市中和區民樂路46號","121.48289","25.0007316666667","6500300","中和區"
"235044","293-VK","2019/08/05 19:09:41","新北市中和區中興街235巷1號","121.500718333333","24.9895966666667","6500300","中和區"
"235072","301-VK","2019/08/05 19:09:46","新北市中和區永和路1號","121.499858333333","25.002915","6500300","中和區"
"235043","352-BY","2019/08/05 19:09:39","新北市中和區景平路300號","121.512741666667","24.9927916666667","6500300","中和區"
"235042","KEA-2878","2019/08/05 19:09:46","新北市中和區自強路66號","121.519841666667","24.9942733333333","6500300","中和區"
"235050","4979-A6","2019/08/05 19:09:41","新北市中和區南山路397號","121.506711666667","24.9900516666667","6500300","中和區"
"235069","4980-A6","2019/08/05 19:09:45","新北市中和區中和路165巷21號","121.503228333333","25.0005316666667","6500300","中和區"
"235070","558-UM","2019/08/05 19:09:46","新北市中和區連城路55號","121.497843333333","25.0015416666667","6500300","中和區"
"235045","565-BX","2019/08/05 19:09:35","新北市中和區景新街423巷36號","121.51487","24.989495","6500300","中和區"
"235060","KED-0823","2019/08/05 19:09:29","新北市中和區中山路三段33號","121.479028333333","25.005925","6500300","中和區"
"235054","640-BX","2019/08/05 19:09:43","新北市中和區國光街109巷15號","121.46968","24.9998316666667","6500300","中和區"
"235047","732-UM","2019/08/05 19:09:41","新北市中和區興南路一段106號","121.50974","24.9888416666667","6500300","中和區"
"235046","733-UM","2019/08/05 19:09:47","新北市中和區工專路111號","121.507565","24.98228","6500300","中和區"
"235071","783-BX","2019/08/05 19:09:47","新北市中和區連城路523巷9弄1號","121.481798333333","24.994625","6500300","中和區"
"235057","801-TS","2019/08/05 19:09:35","新北市中和區員山路176號","121.481298333333","25.0000883333333","6500300","中和區"
"235052","805-TS","2019/08/05 19:09:31","新北市中和區興南路二段142巷19弄2號","121.503026666667","24.983525","6500300","中和區"
"235048","896-TW","2019/08/05 19:09:39","新北市中和區忠孝街5號","121.509711666667","24.9828866666667","6500300","中和區"
"235053","900-TW","2019/08/05 19:09:31","新北市中和區華福街55號","121.466673333333","24.9966533333333","6500300","中和區"
"235051","157-BY","2019/08/05 19:09:32","新北市中和區仁愛街124號","121.511761666667","24.9867233333333","6500300","中和區"
"235037","AAC-213","2019/08/05 19:09:30","新北市中和區秀朗路三段50巷12弄8號","121.524036666667","24.9953783333333","6500300","中和區"
"235059","AAC-215","2019/08/05 19:09:48","新北市中和區圓通路294巷17-5號","121.488615","24.99045","6500300","中和區"
"220065","072-UY","2019/08/05 19:09:31","新北市板橋區民族路229號","121.469791666667","25.007235","6500100","板橋區"
"220086","073-UY","2019/08/05 19:09:39","新北市板橋區中正路250巷20號","121.456228333333","25.0193916666667","6500100","板橋區"
"220106","075-UY","2019/08/05 19:09:32","新北市板橋區江寧路三段85巷14號","121.472406666667","25.033175","6500100","板橋區"
"220069","AAD-861","2019/08/05 19:09:39","新北市板橋區華興街7號","121.45906","25.004605","6500100","板橋區"
"220068","120-SR","2019/08/05 19:09:38","新北市板橋區中山路二段443巷72號","121.480861666667","25.02207","6500100","板橋區"
"226004","312-R5","2019/08/05 19:09:45","新北市平溪區靜安路二段565號","121.749431666667","25.0239783333333","6502400","平溪區"
"235041","251-BX","2019/08/05 19:09:35","新北市中和區中和路294號","121.50866","24.99974","6500300","中和區"
"228003","097-TW","2019/08/05 19:09:45","新北市貢寮區和美里和美街36號","121.912206666667","25.0854833333333","6502600","貢寮區"
"228002","663-BX","2019/08/05 19:09:46","新北市貢寮區福隆里福隆街32-1號","121.94507","25.0173816666667","6502600","貢寮區"
"228001","670-TC","2019/08/05 19:09:40","新北市貢寮區真理里新港街10號","121.9255","25.054325","6502600","貢寮區"
"224010","AGQ-8101","2019/08/05 19:09:42","新北市瑞芳區基山街139號","121.843901666667","25.1083266666667","6501200","瑞芳區"
"224006","676-BX","2019/08/05 19:09:41","新北市瑞芳區中山路159號","121.80208","25.1065416666667","6501200","瑞芳區"
"224009","275-VK","2019/08/05 19:09:50","新北市瑞芳區洞頂路101巷56號","121.860485","25.12195","6501200","瑞芳區"
"224008","273-VK","2019/08/05 19:09:44","新北市瑞芳區瑞芳街82-2號","121.802623333333","25.1100783333333","6501200","瑞芳區"
"224005","271-BY","2019/08/05 19:09:42","新北市瑞芳區中山路251號","121.79797","25.10941","6501200","瑞芳區"
"227002","642-TC","2019/08/05 19:09:37","新北市雙溪區平林里外平林10-4號","121.859155","25.0381733333333","6502500","雙溪區"
"227001","400-TW","2019/08/05 19:09:46","新北市雙溪區牡丹里中正路27號","121.864773333333","25.0378033333333","6502500","雙溪區"
"253006","032-BX","2019/08/05 19:09:32","新北市石門區八甲4-3號","121.52084","25.2830833333333","6502200","石門區"
"253005","295-VK","2019/08/05 19:09:42","新北市石門區小坑14-3號","121.601505","25.2865633333333","6502200","石門區"
"222001","KEA-2212","2019/08/05 19:09:46","新北市深坑區北深路一段300號","121.624305","25.005775","6501800","深坑區"
"208002","KEA-2872","2019/08/05 19:09:41","新北市金山區中華路112巷13號","121.63395","25.2208233333333","6502700","金山區"
"208003","665-BX","2019/08/05 19:09:32","新北市金山區中正路136號","121.631925","25.2214483333333","6502700","金山區"
"251009","008-UM","2019/08/05 19:09:41","新北市淡水區重建街36號","121.439896666667","25.171225","6501000","淡水區"
"251005","010-UM","2019/08/05 19:09:23","新北市淡水區中山路141號","121.440823333333","25.1715966666667","6501000","淡水區"
"251001","011-UM","2019/08/05 19:09:36","新北市淡水區民權路92巷35-1號","121.462076666667","25.1267616666667","6501000","淡水區"
"251010","012-UM","2019/08/05 19:09:34","新北市淡水區中正路一段156巷1號","121.421111666667","25.1801883333333","6501000","淡水區"
"251015","KEA-2871","2019/08/05 19:09:29","新北市淡水區南勢埔1號","121.484105","25.18028","6501000","淡水區"
"251016","179-VK","2019/08/05 19:09:38","新北市淡水區淡金路三段338號","121.449215","25.2086333333333","6501000","淡水區"
"251013","180-VK","2019/08/05 19:09:43","新北市淡水區安子內12-1號","121.481505","25.2190066666667","6501000","淡水區"
"251008","181-VK","2019/08/05 19:09:27","新北市淡水區下圭柔山91-2號","121.430518333333","25.2092916666667","6501000","淡水區"
"251007","442-VK","2019/08/05 19:09:50","新北市淡水區民生路137號","121.465631666667","25.1387816666667","6501000","淡水區"
"251014","577-R6","2019/08/05 19:09:38","新北市淡水區小中寮19-9號","121.485263333333","25.2283316666667","6501000","淡水區"
"251002","672-BX","2019/08/05 19:09:51","新北市淡水區中山路33號","121.443813333333","25.1703333333333","6501000","淡水區"
"251003","766-UM","2019/08/05 19:09:48","新北市淡水區中山北路一段163號","121.443431666667","25.177595","6501000","淡水區"
"207003","550-UM","2019/08/05 19:09:39","新北市萬里區大鵬里頂社29號","121.656586666667","25.2107533333333","6502800","萬里區"
"207004","225-TW","2019/08/05 19:09:30","新北市萬里區萬里里瑪鋉下街52號","121.691608333333","25.17955","6502800","萬里區"
"252002","178-VK","2019/08/05 19:07:19","新北市三芝區埔坪里埔頭坑88-7號","121.506646666667","25.25493","6502100","三芝區"
"252003","249-BX","2019/08/05 19:09:39","新北市三芝區錫板里南勢崗6號","121.47966","25.2620583333333","6502100","三芝區"
"208001","170-UY","2019/08/05 19:09:48","新北市金山區福德街14號","121.639188333333","25.2216683333333","6502700","金山區"
"237004","KEA-2597","2019/08/05 19:09:39","新北市三峽區有木206號","121.439076666667","24.851445","6500900","三峽區"
"237007","153-BY","2019/08/05 19:09:41","新北市三峽區中正路二段42巷50號","121.364266666667","24.9206066666667","6500900","三峽區"
"237013","252-BX","2019/08/05 19:09:38","新北市三峽區光明路69巷25號","121.37659","24.92918","6500900","三峽區"
"237012","275-BY","2019/08/05 19:09:33","新北市三峽區三樹路222巷192-9號","121.388415","24.941905","6500900","三峽區"
"237008","302-VK","2019/08/05 19:09:41","新北市三峽區光明路106巷4號","121.376461666667","24.9274633333333","6500900","三峽區"
"237014","433-BY","2019/08/05 19:09:31","新北市三峽區隆恩街236號","121.357768333333","24.941125","6500900","三峽區"
"237006","5529-G3","2019/08/05 19:09:46","新北市三峽區橫溪路95-2號","121.398511666667","24.9354616666667","6500900","三峽區"
"237011","KEA-2596","2019/08/05 19:09:43","新北市三峽區介壽路三段231-9號","121.406248333333","24.9472933333333","6500900","三峽區"
"237015","649-BX","2019/08/05 19:09:32","新北市三峽區建安83號","121.453565","24.9205983333333","6500900","三峽區"
"237010","706-TV","2019/08/05 19:09:48","新北市三峽區國光街364巷2號","121.371081666667","24.939965","6500900","三峽區"
"237005","AKY-6261","2019/08/05 19:09:47","新北市三峽區中山路459巷104號","121.352818333333","24.9354916666667","6500900","三峽區"
"236042","KED-0685","2019/08/05 19:09:38","新北市土城區學府路一段239號","121.450433333333","24.9833383333333","6501300","土城區"
"236078","166-UM","2019/08/05 19:09:30","新北市土城區龍泉路10-1號","121.409698333333","24.949075","6501300","土城區"
"236026","269-VK","2019/08/05 19:09:43","新北市土城區中正路74巷3弄1號","121.44473","24.9748933333333","6501300","土城區"
"236014","270-VK","2019/08/05 19:09:36","新北市土城區學府路一段99巷6號","121.456621666667","24.9871183333333","6501300","土城區"
"236069","KEA-2877","2019/08/05 19:09:37","新北市土城區裕生路82巷1號","121.447371666667","24.9855783333333","6501300","土城區"
"252001","KED-0821","2019/08/05 19:09:48","新北市三芝區長勤街82號","121.500295","25.2550933333333","6502100","三芝區"
"236020","401-BY","2019/08/05 19:09:37","新北市土城區延安街35巷15號","121.468665","24.9847433333333","6501300","土城區"
"236059","912-UM","2019/08/05 19:09:47","新北市土城區金城路一段11號","121.439431666667","24.9690716666667","6501300","土城區"
"236055","AAC-216","2019/08/05 19:09:45","新北市土城區學府路一段268號","121.451141666667","24.9841733333333","6501300","土城區"
"242060","986-R7","2019/08/05 19:09:41","新北市樹林區中山路三段210-2號","121.381505","24.9655566666667","6500500","新莊區"
"242007","349-TH","2019/08/05 19:09:31","新北市樹林區八德街588號","121.398141666667","24.96923","6500500","新莊區"
"238015","755-BX","2019/08/05 19:09:48","新北市樹林區光明街8號","121.411013333333","24.9889833333333","6500700","樹林區"
"238023","601-UM","2019/08/05 19:09:35","新北市樹林區三興路87巷1-5號","121.393881666667","25.0128616666667","6500700","樹林區"
"238019","599-UM","2019/08/05 19:09:40","新北市樹林區東榮街91巷2弄9號","121.415738333333","24.9821333333333","6500700","樹林區"
"238022","KEA-2213","2019/08/05 19:04:02","新北市樹林區東興街57號","121.411266666667","24.9767733333333","6500700","樹林區"
"238021","KEA-2539","2019/08/05 19:09:37","新北市樹林區柑園街二段306號","121.373525","24.951775","6500700","樹林區"
"238025","303-VK","2019/08/05 19:09:42","新北市樹林區中山路三段361號","121.389566666667","24.9702366666667","6500700","樹林區"
"238017","283-BY","2019/08/05 19:09:45","新北市樹林區中山路二段209號","121.403711666667","24.976975","6500700","樹林區"
"238014","282-BY","2019/08/05 19:09:48","新北市樹林區千歲街92巷7弄29號","121.42737","24.9981866666667","6500700","樹林區"
"238020","268-VK","2019/08/05 19:09:37","新北市樹林區俊英街155巷9弄27號","121.423338333333","25.0118","6500700","樹林區"
"238026","172-UY","2019/08/05 19:09:36","新北市樹林區中山路三段160-1號","121.389278333333","24.9702083333333","6500700","樹林區"
"238016","169-UY","2019/08/05 19:09:30","新北市樹林區復興路373巷7弄16號","121.418","24.9868333333333","6500700","樹林區"
"239007","AAC-297","2019/08/05 19:09:44","新北市鶯歌區中山路6號","121.353075","24.9572666666667","6500800","鶯歌區"
"239006","891-R6","2019/08/05 19:09:40","新北市鶯歌區鶯桃路296巷84弄20號","121.3372","24.961505","6500800","鶯歌區"
"239008","527-UM","2019/08/05 19:09:41","新北市鶯歌區國際二路20巷21號","121.33723","24.975395","6500800","鶯歌區"
"239005","526-UM","2019/08/05 19:09:32","新北市鶯歌區鳳吉一街170號","121.329068333333","24.9755783333333","6500800","鶯歌區"
"239001","417-VK","2019/08/05 19:09:50","新北市鶯歌區永明街73-1號","121.3412","24.9559616666667","6500800","鶯歌區"
"239003","360-BY","2019/08/05 19:09:40","新北市鶯歌區鶯桃路636號","121.329521666667","24.968825","6500800","鶯歌區"
"239002","359-BY","2019/08/05 19:09:36","新北市鶯歌區中山路286-1號","121.344075","24.957015","6500800","鶯歌區"
"239004","193-VK","2019/08/05 19:09:29","新北市鶯歌區中正三路282巷10弄11號","121.328626666667","24.9367366666667","6500800","鶯歌區"
"221008","489-VK","2019/08/05 19:09:41","新北市汐止區康寧街432號","121.630878333333","25.0681233333333","6501100","汐止區"
"221036","130-UY","2019/08/05 19:09:42","新北市汐止區南昌街3號","121.66365","25.0697416666667","6501100","汐止區"
"221015","131-UY","2019/08/05 19:09:46","新北市汐止區鄉長路一段55巷22號","121.664808333333","25.0763","6501100","汐止區"
"244019","KED-0667","2019/08/05 19:09:32","新北市林口區四維路116號","121.377445","25.078095","6501700","林口區"
"221032","280-BY","2019/08/05 19:09:43","新北市汐止區橫科路241-1號","121.621988333333","25.049285","6501100","汐止區"
"221031","353-TW","2019/08/05 19:09:34","新北市汐止區中興路181巷29弄8號","121.6298","25.0657516666667","6501100","汐止區"
"221035","622-UM","2019/08/05 19:09:44","新北市汐止區汐萬路一段39號","121.655321666667","25.0685983333333","6501100","汐止區"
"221002","707-TV","2019/08/05 19:09:34","新北市汐止區大同路一段166號","121.634485","25.057545","6501100","汐止區"
"220079","145-BY","2019/08/05 19:09:31","新北市板橋區中正路107號","121.456473333333","25.0148683333333","6500100","板橋區"
"220080","200-UY","2019/08/05 19:09:44","新北市板橋區大觀路二段7巷110號","121.45039","25.0028","6500100","板橋區"
"220082","610-BX","2019/08/05 19:09:39","新北市板橋區溪崑二街29號","121.428646666667","24.991165","6500100","板橋區"
"220101","245-BX","2019/08/05 19:09:34","新北市板橋區莊敬路65-2號","121.474183333333","25.0268233333333","6500100","板橋區"
"220084","256-TC","2019/08/05 19:09:38","新北市板橋區溪崑一街43號","121.430285","24.9910733333333","6500100","板橋區"
"224002","257-TC","2019/08/05 19:09:40","新北市平溪區新寮里五分寮10-3號","121.79734","25.0765833333333","6501200","瑞芳區"
"220056","276-BY","2019/08/05 19:09:42","新北市板橋區信義路74巷1弄2號","121.457095","24.99309","6500100","板橋區"
"220072","277-BY","2019/08/05 19:09:46","新北市板橋區金門街369巷81號","121.428495","24.9826683333333","6500100","板橋區"
"220094","283-UM","2019/08/05 19:09:45","新北市板橋區吳鳳路19巷18號","121.46686","25.0307683333333","6500100","板橋區"
"220071","283-VK","2019/08/05 19:09:45","新北市板橋區忠孝路154巷42號","121.464216666667","25.0014833333333","6500100","板橋區"
"220053","285-VK","2019/08/05 19:09:50","新北市板橋區懷仁街35巷2弄2號","121.476748333333","25.01953","6500100","板橋區"
"220083","286-VK","2019/08/05 19:09:34","新北市板橋區龍興街101巷5號","121.444143333333","25.0032216666667","6500100","板橋區"
"220081","287-VK","2019/08/05 19:09:47","新北市板橋區光華街39巷27號","121.453035","25.012865","6500100","板橋區"
"220090","288-VK","2019/08/05 19:09:51","新北市板橋區長江路一段106巷13弄11號","121.46046","25.02929","6500100","板橋區"
"220061","293-UM","2019/08/05 19:09:35","新北市板橋區三民路二段29巷9弄42號","121.480655","25.0182416666667","6500100","板橋區"
"220075","303-R5","2019/08/05 19:09:40","新北市板橋區南雅南路一段1巷7號","121.456881666667","25.0069033333333","6500100","板橋區"
"220062","305-R5","2019/08/05 19:09:34","新北市板橋區三民路二段居仁巷1弄55-1號","121.481138333333","25.0136833333333","6500100","板橋區"
"220092","307-R5","2019/08/05 19:09:49","新北市板橋區松江街74號","121.4688","25.0278433333333","6500100","板橋區"
"220098","317-R6","2019/08/05 19:09:50","新北市板橋區民有街39-3號","121.465716666667","25.0257083333333","6500100","板橋區"
"220055","461-BY","2019/08/05 19:09:33","新北市板橋區新民街13號","121.464028333333","25.00983","6500100","板橋區"
"220089","487-VK","2019/08/05 19:09:37","新北市板橋區文化路一段241號","121.464073333333","25.017855","6500100","板橋區"
"220088","491-VK","2019/08/05 19:09:45","新北市板橋區雙十路二段4號","121.477206666667","25.02519","6500100","板橋區"
"220035","560-BX","2019/08/05 19:09:25","新北市板橋區中正路328號","121.454451666667","25.0215166666667","6500100","板橋區"
"220103","561-BX","2019/08/05 19:09:41","新北市板橋區文化路一段270巷2號","121.467318333333","25.0205016666667","6500100","板橋區"
"220063","609-BX","2019/08/05 19:09:43","新北市板橋區三民路二段192號","121.478955","25.0147366666667","6500100","板橋區"
"220091","637-BX","2019/08/05 19:09:42","新北市板橋區縣民大道三段201號","121.479806666667","25.0249166666667","6500100","板橋區"
"220057","686-BX","2019/08/05 19:09:49","新北市板橋區五權街30巷1號","121.464725","24.9933833333333","6500100","板橋區"
"220077","687-BX","2019/08/05 19:09:41","新北市板橋區大觀路二段323號","121.441633333333","24.9985766666667","6500100","板橋區"
"220093","689-BX","2019/08/05 19:09:41","新北市板橋區文化路一段283號","121.464748333333","25.0187016666667","6500100","板橋區"
"220054","741-BX","2019/08/05 19:09:43","新北市板橋區實踐路40號","121.46357","25.0066616666667","6500100","板橋區"
"220102","KEA-2699","2019/08/05 19:09:46","新北市板橋區松柏街20號","121.474595","25.0297566666667","6500100","板橋區"
"220067","829-TW","2019/08/05 19:09:44","新北市板橋區三民路二段正隆巷71號","121.47616","25.0131883333333","6500100","板橋區"
"220074","895-R6","2019/08/05 19:09:44","新北市板橋區中正路自強新村36號","121.456321666667","25.013555","6500100","板橋區"
"220073","985-R7","2019/08/05 19:09:39","新北市板橋區中正路249號","121.455803333333","25.0182516666667","6500100","板橋區"
"220097","AAC-210","2019/08/05 19:09:49","新北市板橋區幸福路60巷11號","121.46085","25.020545","6500100","板橋區"
"220064","AAC-253","2019/08/05 19:09:39","新北市板橋區板新路238號","121.468213333333","25.0161133333333","6500100","板橋區"
"235068","KEA-2873","2019/08/05 19:09:23","新北市中和區圓通路179號","121.497511666667","24.9948566666667","6500300","中和區"
"235061","KEA-2875","2019/08/05 19:09:47","新北市中和區員山路238號","121.481285","25.00134","6500300","中和區"
