"lineid","car","time","location","longitude","latitude","cityid","cityname"
"234046","148-BY","2019/08/05 19:49:41","新北市永和區永利路336號","121.525496666667","25.0033466666667","6500400","永和區"
"234081","298-R6","2019/08/05 19:49:45","新北市永和區永亨路126號","121.52451","25.00399","6500400","永和區"
"234038","336-UY","2019/08/05 19:49:38","新北市永和區環河東路四段36號","121.528503333333","24.9990483333333","6500400","永和區"
"234064","337-UY","2019/08/05 19:49:48","新北市永和區中正路404號","121.51756","25.0019316666667","6500400","永和區"
"234086","338-UY","2019/08/05 19:49:30","新北市永和區永貞路52號","121.520856666667","25.0061733333333","6500400","永和區"
"234070","552-UM","2019/08/05 19:49:35","新北市永和區竹林路81號","121.519496666667","25.0124933333333","6500400","永和區"
"234017","745-BX","2019/08/05 19:49:30","新北市永和區忠孝街26巷17號","121.51528","25.0167566666667","6500400","永和區"
"234030","746-BX","2019/08/05 19:49:44","新北市永和區民生路67巷28號","121.52408","24.9972616666667","6500400","永和區"
"234054","KEA-2590","2019/08/05 19:49:46","新北市永和區竹林路75巷25弄3號","121.520211666667","25.014035","6500400","永和區"
"234007","KED-0605","2019/08/05 19:49:49","新北市中和區光華街33號","121.505113333333","25.0038466666667","6500400","永和區"
"234013","KEA-2591","2019/08/05 19:49:40","新北市永和區仁愛路204號","121.509326666667","25.01234","6500400","永和區"
"234061","AAD-866","2019/08/05 19:49:38","新北市永和區民有街1號","121.515866666667","24.99759","6500400","永和區"
"234042","862-TW","2019/08/05 19:49:36","新北市永和區中和路305巷20弄1號","121.507821666667","25.0019316666667","6500400","永和區"
"234050","863-TW","2019/08/05 19:49:35","新北市永和區保安路77號","121.508755","25.0147816666667","6500400","永和區"
"234026","9371-KE","2019/08/05 19:49:39","新北市永和區雙和街25巷5號","121.508983333333","25.0019133333333","6500400","永和區"
"234011","9373-KE","2019/08/05 19:49:39","新北市永和區仁愛路352巷92弄18號","121.501388333333","25.0083066666667","6500400","永和區"
"249005","172-UM","2019/08/05 19:49:49","新北市八里區長坑口38-8號","121.389645","25.1281233333333","6502300","八里區"
"249001","173-UM","2019/08/05 19:49:44","新北市八里區中華路二段252號","121.405451666667","25.149655","6502300","八里區"
"249004","303-UY","2019/08/05 19:49:37","新北市八里區中山路一段268巷5弄2號","121.41457","25.160695","6502300","八里區"
"249002","305-UY","2019/08/05 19:49:47","新北市八里區頂寮五街17號","121.451531666667","25.1259616666667","6502300","八里區"
"249003","593-UM","2019/08/05 19:49:40","新北市八里區華峰三街35號","121.398471666667","25.1454083333333","6502300","八里區"
"248014","025-BX","2019/08/05 19:49:50","新北市五股區五福路16號","121.434321666667","25.0887133333333","6501500","五股區"
"248016","026-BX","2019/08/05 19:49:50","新北市五股區成泰路四段22巷13號","121.454381666667","25.1071683333333","6501500","五股區"
"248008","KED-0815","2019/08/05 19:49:33","新北市五股區四維路140號","121.46828","25.0752766666667","6501500","五股區"
"248018","KED-0813","2019/08/05 19:49:48","新北市五股區外寮路1-5號","121.425903333333","25.0768233333333","6501500","五股區"
"248012","247-BX","2019/08/05 19:49:42","新北市五股區成泰路一段235號","121.43592","25.0794333333333","6501500","五股區"
"248004","677-BX","2019/08/05 19:49:46","新北市五股區成泰路一段106-1號","121.435705","25.071755","6501500","五股區"
"248002","678-BX","2019/08/05 19:49:36","新北市五股區成泰路3段651-1號","121.452891666667","25.1051416666667","6501500","五股區"
"248010","682-TV","2019/08/05 19:49:32","新北市五股區登林路76-5號","121.43054","25.0695433333333","6501500","五股區"
"234023","9380-KE","2019/08/05 19:49:30","新北市永和區豫溪街57巷8弄7號","121.51778","25.01044","6500400","永和區"
"234077","969-R7","2019/08/05 19:49:40","新北市永和區中正路177號","121.516688333333","24.9987216666667","6500400","永和區"
"234074","AAC-211","2019/08/05 19:49:35","新北市永和區豫溪街136巷5號","121.521281666667","25.00998","6500400","永和區"
"234067","AAC-212","2019/08/05 19:49:36","新北市永和區永貞路355巷2號","121.50899","25.00752","6500400","永和區"
"234003","AAC-295","2019/08/05 19:49:45","新北市永和區福和路328號","121.515486666667","25.0072233333333","6500400","永和區"
"243012","AAD-798","2019/08/05 19:49:34","新北市泰山區仁愛路100巷28號","121.433455","25.0548833333333","6501600","泰山區"
"243016","421-VK","2019/08/05 19:49:32","新北市泰山區貴陽街22號","121.422671666667","25.0325466666667","6501600","泰山區"
"243009","KEA-2215","2019/08/05 19:49:29","新北市泰山區美寧街60號","121.430986666667","25.064695","6501600","泰山區"
"243011","KEA-2216","2019/08/05 19:49:41","新北市泰山區明志路三段196巷21弄17號","121.422625","25.0384983333333","6501600","泰山區"
"222003","436-BY","2019/08/05 19:49:38","新北市深坑區深南路51-1號","121.621168333333","25.009875","6501800","深坑區"
"222002","659-BX","2019/08/05 19:49:32","新北市深坑區北深路二段2巷1號","121.621395","25.0046116666667","6501800","深坑區"
"231061","002-UM","2019/08/05 19:49:37","新北市新店區安民街189-1號","121.516971666667","24.97108","6500600","新店區"
"231055","0291-UT","2019/08/05 19:49:36","新北市新店區中華路83巷67號","121.538245","24.96725","6500600","新店區"
"231058","0293-UT","2019/08/05 19:49:38","新北市新店區環河路182-3號","121.533905","24.97011","6500600","新店區"
"231044","046-UY","2019/08/05 19:49:39","新北市新店區復興路27號","121.53886","24.9866266666667","6500600","新店區"
"231060","106-UY","2019/08/05 19:49:49","新北市新店區安康路二段159巷2號","121.510335","24.95933","6500600","新店區"
"231051","107-UY","2019/08/05 19:49:34","新北市新店區中央二街68號","121.526286666667","24.974785","6500600","新店區"
"231049","108-UY","2019/08/05 19:49:30","新北市新店區民權路119號","121.535811666667","24.9827383333333","6500600","新店區"
"231065","110-UY","2019/08/05 19:49:39","新北市新店區安祥路109巷151弄16號","121.477746666667","24.9587983333333","6500600","新店區"
"231068","187-VK","2019/08/05 19:49:41","新北市新店區安一路一段1-1號","121.519788333333","24.96113","6500600","新店區"
"231050","KEA-2219","2019/08/05 19:49:41","新北市新店區北宜路二段230號","121.559871666667","24.9544316666667","6500600","新店區"
"231062","256-BX","2019/08/05 19:49:40","新北市新店區永業路23號","121.53325","24.9557466666667","6500600","新店區"
"231054","260-TV","2019/08/05 19:49:51","新北市新店區光明街35號","121.538581666667","24.9597416666667","6500600","新店區"
"231042","268-BY","2019/08/05 19:47:07","新北市新店區中興路一段267-4號","121.54502","24.967955","6500600","新店區"
"231064","278-BY","2019/08/05 19:49:39","新北市新店區光華街6號","121.517853333333","24.9689466666667","6500600","新店區"
"231045","355-BY","2019/08/05 19:49:34","新北市新店區北宜路二段461號","121.561728333333","24.954005","6500600","新店區"
"231056","4715-K9","2019/08/05 19:49:30","新北市新店區民權路72號","121.538215","24.98294","6500600","新店區"
"231067","4772-VM","2019/08/05 19:49:33","新北市新店區精忠路10-1號","121.532435","24.9591366666667","6500600","新店區"
"231052","513-UM","2019/08/05 19:49:39","新北市新店區新烏路三段115號","121.55221","24.9029233333333","6500600","新店區"
"231041","619-UM","2019/08/05 19:49:40","新北市新店區中央路129號","121.530601666667","24.9739416666667","6500600","新店區"
"231063","641-BX","2019/08/05 19:49:42","新北市新店區車子路11號","121.503061666667","24.951995","6500600","新店區"
"231047","KED-0819","2019/08/05 19:49:42","新北市新店區五峰路61巷13號","121.549468333333","24.96952","6500600","新店區"
"231046","719-UM","2019/08/05 19:45:44","新北市新店區三民路149-1號","121.533825","24.973125","6500600","新店區"
"231057","720-UM","2019/08/05 19:49:47","新北市新店區梅崗三路1號","121.558178333333","24.93119","6500600","新店區"
"231059","897-TW","2019/08/05 19:49:39","新北市新店區安和路二段193號","121.518125","24.9750483333333","6500600","新店區"
"231040","898-TW","2019/08/05 19:49:30","新北市新店區中正路75巷71號","121.543251666667","24.9689783333333","6500600","新店區"
"231043","899-TW","2019/08/05 19:49:43","新北市新店區中正路226號","121.540081666667","24.9727616666667","6500600","新店區"
"231066","AKT-0513","2019/08/05 19:49:49","新北市新店區安康路三段165巷5號","121.48971","24.9513966666667","6500600","新店區"
"241028","022-UY","2019/08/05 19:49:38","新北市三重區中正南路131號","121.494065","25.057085","6500200","三重區"
"241008","059-VK","2019/08/05 19:49:43","新北市三重區永福街113號","121.479351666667","25.0772533333333","6500200","三重區"
"241031","061-VK","2019/08/05 19:49:44","新北市三重區重新路四段204號","121.486321666667","25.0545283333333","6500200","三重區"
"241017","063-VK","2019/08/05 19:49:43","新北市三重區重陽路三段5巷8弄29號","121.48957","25.0665866666667","6500200","三重區"
"241024","065-VK","2019/08/05 19:49:31","新北市三重區大勇街51號","121.481271666667","25.0719283333333","6500200","三重區"
"241011","066-VK","2019/08/05 19:49:32","新北市三重區三和路三段5號","121.4971","25.070495","6500200","三重區"
"241003","091-VK","2019/08/05 19:49:36","新北市三重區五華街93巷95號","121.494081666667","25.0850616666667","6500200","三重區"
"241015","742-BX","2019/08/05 19:49:42","新北市三重區三和路一段2號","121.50401","25.064285","6500200","三重區"
"241006","262-UM","2019/08/05 19:49:44","新北市三重區永福街287-4號","121.483488333333","25.0744533333333","6500200","三重區"
"241009","267-UM","2019/08/05 19:49:39","新北市三重區三和路四段396巷6號","121.480998333333","25.0790883333333","6500200","三重區"
"241018","268-UM","2019/08/05 19:49:38","新北市三重區雙園街57巷36號","121.494526666667","25.06844","6500200","三重區"
"241032","269-UM","2019/08/05 19:49:38","新北市三重區重陽路一段44巷7號","121.486093333333","25.057755","6500200","三重區"
"241013","270-UM","2019/08/05 19:49:45","新北市三重區仁愛街92巷13號","121.49479","25.0738083333333","6500200","三重區"
"241025","271-UM","2019/08/05 19:49:31","新北市三重區頂崁街210巷11號","121.47648","25.0678083333333","6500200","三重區"
"241007","398-BY","2019/08/05 19:49:44","新北市三重區三和路四段135巷8號","121.485016666667","25.0782016666667","6500200","三重區"
"241030","KED-0822","2019/08/05 19:49:28","新北市三重區環河南路222號","121.492428333333","25.0517216666667","6500200","三重區"
"241035","462-BY","2019/08/05 19:49:32","新北市三重區大榮街46號","121.498876666667","25.0635166666667","6500200","三重區"
"241004","475-VK","2019/08/05 19:49:49","新北市三重區五華街74號","121.49336","25.082045","6500200","三重區"
"241020","478-VK","2019/08/05 19:49:41","新北市三重區後竹圍街85號","121.489645","25.0730416666667","6500200","三重區"
"241026","480-VK","2019/08/05 19:49:41","新北市三重區文化南路36-1號","121.500683333333","25.061445","6500200","三重區"
"241014","543-UM","2019/08/05 19:49:35","新北市三重區長元街98巷18弄9號","121.502165","25.0675116666667","6500200","三重區"
"241023","545-UM","2019/08/05 19:49:45","新北市三重區頂崁街172號","121.477515","25.0659466666667","6500200","三重區"
"241001","547-UM","2019/08/05 19:49:39","新北市三重區仁愛街327巷2號","121.4925","25.0796583333333","6500200","三重區"
"241019","KEA-2593","2019/08/05 19:49:40","新北市三重區自強路二段85號","121.488633333333","25.0702266666667","6500200","三重區"
"241005","AAD-863","2019/08/05 19:49:49","新北市三重區溪尾街325巷32號","121.48877","25.0834816666667","6500200","三重區"
"241016","887-TS","2019/08/05 19:49:39","新北市三重區正義北路48巷69號","121.495548333333","25.0635566666667","6500200","三重區"
"241012","941-UM","2019/08/05 19:49:46","新北市三重區仁興街50號","121.49901","25.07578","6500200","三重區"
"241029","942-UM","2019/08/05 19:49:38","新北市三重區光明路11號","121.490963333333","25.0586883333333","6500200","三重區"
"241033","AAC-255","2019/08/05 19:49:37","新北市三重區中興南街66號","121.47072","25.0439533333333","6500200","三重區"
"235066","003-UY","2019/08/05 19:49:41","新北市中和區南工路58號","121.506091666667","25.0016233333333","6500300","中和區"
"235056","096-UM","2019/08/05 19:49:35","新北市中和區漢民路402號","121.472063333333","25.00712","6500300","中和區"
"235039","097-UM","2019/08/05 19:49:32","新北市中和區大勇街27巷17號","121.516673333333","24.9935883333333","6500300","中和區"
"235065","098-UM","2019/08/05 19:49:36","新北市中和區福美路267號","121.49826","25.0050283333333","6500300","中和區"
"235040","150-BY","2019/08/05 19:49:30","新北市中和區安和路43號","121.509626666667","24.9947983333333","6500300","中和區"
"235058","151-BY","2019/08/05 19:49:44","新北市中和區員山路150巷2弄1號","121.481785","24.998335","6500300","中和區"
"235038","185-VK","2019/08/05 19:49:47","新北市中和區自立路14號","121.522248333333","24.9961416666667","6500300","中和區"
"235049","186-VK","2019/08/05 19:49:43","新北市中和區景平路526號","121.502895","24.99428","6500300","中和區"
"235067","255-BX","2019/08/05 19:49:40","新北市中和區新生街213號","121.483871666667","24.99966","6500300","中和區"
"235044","293-VK","2019/08/05 19:49:42","新北市中和區板南路114號","121.5033","24.992505","6500300","中和區"
"235043","352-BY","2019/08/05 19:49:37","新北市中和區興南路二段159巷18號","121.505246666667","24.9830166666667","6500300","中和區"
"235042","KEA-2878","2019/08/05 19:49:46","新北市中和區保健路106巷22弄17號","121.51094","24.995385","6500300","中和區"
"247014","KEA-2869","2019/08/05 19:49:29","新北市蘆洲區中央路147號","121.472171666667","25.08456","6501400","蘆洲區"
"235050","4979-A6","2019/08/05 19:49:50","新北市中和區景平路241巷84弄54號","121.506146666667","24.9923916666667","6500300","中和區"
"235070","558-UM","2019/08/05 19:49:46","新北市中和區景平路479號","121.500351666667","24.9974","6500300","中和區"
"235047","732-UM","2019/08/05 19:49:41","新北市中和區興南路一段71號","121.510223333333","24.9893433333333","6500300","中和區"
"235046","733-UM","2019/08/05 19:49:27","新北市中和區仁愛街22號","121.510725","24.9887816666667","6500300","中和區"
"235026","800-TS","2019/08/05 19:49:31","新北市中和區員山路36巷16-3號","121.485015","24.9913783333333","6500300","中和區"
"235057","801-TS","2019/08/05 19:49:35","新北市中和區中正路860號","121.484315","25.0051916666667","6500300","中和區"
"235052","805-TS","2019/08/05 19:49:31","新北市中和區華新街47號","121.507801666667","24.98454","6500300","中和區"
"235048","896-TW","2019/08/05 19:49:39","新北市中和區興南路一段83號","121.509918333333","24.98903","6500300","中和區"
"235053","900-TW","2019/08/05 19:49:32","新北市中和區民德路216號","121.468238333333","24.9980566666667","6500300","中和區"
"235051","157-BY","2019/08/05 19:49:32","新北市中和區中興街180巷52弄3號","121.498451666667","24.9883233333333","6500300","中和區"
"235037","AAC-213","2019/08/05 19:49:50","新北市中和區自立路115號","121.521956666667","24.99446","6500300","中和區"
"235059","AAC-215","2019/08/05 19:49:28","新北市中和區圓通路335巷71號","121.49426","24.989435","6500300","中和區"
"220065","072-UY","2019/08/05 19:49:31","新北市板橋區民族路270巷37號","121.469238333333","25.0060383333333","6500100","板橋區"
"220086","073-UY","2019/08/05 19:49:41","新北市板橋區中正路236巷86號","121.45834","25.0194633333333","6500100","板橋區"
"220106","075-UY","2019/08/05 19:49:32","新北市板橋區民治街42巷19號","121.478626666667","25.0333166666667","6500100","板橋區"
"220069","AAD-861","2019/08/05 19:49:39","新北市板橋區大明街13號","121.458948333333","25.0025416666667","6500100","板橋區"
"220068","120-SR","2019/08/05 19:49:33","新北市板橋區光復街136號","121.484248333333","25.0192033333333","6500100","板橋區"
"247004","893-R6","2019/08/05 19:49:45","新北市蘆洲區中原路71號","121.458525","25.08196","6501400","蘆洲區"
"247002","336-TH","2019/08/05 19:49:42","新北市蘆洲區永樂街38巷65號","121.458595","25.0903983333333","6501400","蘆洲區"
"247016","053-VK","2019/08/05 19:49:39","新北市蘆洲區中正路259號","121.467636666667","25.0870866666667","6501400","蘆洲區"
"247006","002-UY","2019/08/05 19:49:46","新北市蘆洲區永安南路二段14號","121.467313333333","25.076985","6501400","蘆洲區"
"226004","312-R5","2019/08/05 19:49:45","新北市平溪區十分里十分街66巷17號","121.774921666667","25.04267","6502400","平溪區"
"235041","251-BX","2019/08/05 19:49:35","新北市中和區中安街58號","121.512575","25.0022166666667","6500300","中和區"
"228003","097-TW","2019/08/05 19:49:45","新北市貢寮區真理里延平街171號","121.925401666667","25.0590783333333","6502600","貢寮區"
"228001","670-TC","2019/08/05 19:49:39","新北市貢寮區真理里新港街101號","121.926938333333","25.0565966666667","6502600","貢寮區"
"224010","AGQ-8101","2019/08/05 19:49:42","新北市瑞芳區輕便路131號","121.843551666667","25.1087516666667","6501200","瑞芳區"
"227002","642-TC","2019/08/05 19:49:37","新北市雙溪區雙溪里內挖路47號","121.863223333333","25.0367766666667","6502500","雙溪區"
"227001","400-TW","2019/08/05 19:49:46","新北市雙溪區新基里中華路76號","121.865868333333","25.038315","6502500","雙溪區"
"222001","KEA-2212","2019/08/05 19:49:46","新北市深坑區北深路三段71號","121.606831666667","25.0014183333333","6501800","深坑區"
"208002","KEA-2872","2019/08/05 19:49:41","新北市金山區中華路366號","121.633255","25.22446","6502700","金山區"
"208003","665-BX","2019/08/05 19:49:32","新北市金山區環金路376巷2號","121.631715","25.2219816666667","6502700","金山區"
"251009","008-UM","2019/08/05 19:49:41","新北市淡水區中正路38-1號","121.443751666667","25.16927","6501000","淡水區"
"251004","009-UM","2019/08/05 19:49:35","新北市淡水區民權路177巷51號","121.460701666667","25.13386","6501000","淡水區"
"251005","010-UM","2019/08/05 19:49:44","新北市淡水區中正東路6號","121.44705","25.1672383333333","6501000","淡水區"
"251001","011-UM","2019/08/05 19:49:36","新北市淡水區中正東路二段37號","121.459228333333","25.1562783333333","6501000","淡水區"
"251010","012-UM","2019/08/05 19:49:34","新北市淡水區下圭柔山90-8號","121.431163333333","25.210345","6501000","淡水區"
"251015","KEA-2871","2019/08/05 19:49:49","新北市淡水區山子頂24-1號","121.491395","25.1872716666667","6501000","淡水區"
"251016","179-VK","2019/08/05 19:49:38","新北市淡水區三塊厝5-2號","121.457246666667","25.20993","6501000","淡水區"
"251013","180-VK","2019/08/05 19:49:43","新北市淡水區頂田寮路109號","121.457726666667","25.2159833333333","6501000","淡水區"
"251008","181-VK","2019/08/05 19:49:47","新北市淡水區中正路二段24巷2-1號","121.426768333333","25.1769533333333","6501000","淡水區"
"251012","441-VK","2019/08/05 19:49:34","新北市淡水區埤島28號","121.447541666667","25.1983066666667","6501000","淡水區"
"251007","442-VK","2019/08/05 19:49:30","新北市淡水區中正東路一段3巷31號","121.451785","25.16536","6501000","淡水區"
"251006","561-UM","2019/08/05 19:49:32","新北市淡水區水碓街5號","121.443253333333","25.1769133333333","6501000","淡水區"
"251014","577-R6","2019/08/05 19:49:42","新北市淡水區石頭厝14-58號","121.465788333333","25.236775","6501000","淡水區"
"251011","650-BX","2019/08/05 19:49:39","新北市淡水區八勢一街26號","121.460846666667","25.1558816666667","6501000","淡水區"
"251002","672-BX","2019/08/05 19:49:31","新北市淡水區下圭柔山90-8號","121.431303333333","25.2103733333333","6501000","淡水區"
"207003","550-UM","2019/08/05 19:49:39","新北市萬里區大鵬里下社11號","121.64801","25.21718","6502800","萬里區"
"207004","225-TW","2019/08/05 19:49:30","新北市萬里區萬里里瑪鋉路189-1號","121.690391666667","25.1786966666667","6502800","萬里區"
"252002","178-VK","2019/08/05 19:49:39","新北市三芝區三民街31號","121.504591666667","25.2583933333333","6502100","三芝區"
"208001","170-UY","2019/08/05 19:49:48","新北市金山區重和里六股林口39號","121.60246","25.219425","6502700","金山區"
"237004","KEA-2597","2019/08/05 19:49:39","新北市三峽區添福247號","121.375273333333","24.8953383333333","6500900","三峽區"
"237007","153-BY","2019/08/05 19:49:41","新北市三峽區二鬮路136巷47號","121.358013333333","24.9088633333333","6500900","三峽區"
"237009","210-TH","2019/08/05 19:49:41","新北市三峽區中園街13-1號","121.368696666667","24.927075","6500900","三峽區"
"237013","252-BX","2019/08/05 19:49:38","新北市三峽區溪北街95號","121.397891666667","24.9355666666667","6500900","三峽區"
"237012","275-BY","2019/08/05 19:49:33","新北市三峽區中華路26號","121.373953333333","24.9323933333333","6500900","三峽區"
"237008","302-VK","2019/08/05 19:49:41","新北市三峽區安溪路345號","121.370048333333","24.926395","6500900","三峽區"
"237014","433-BY","2019/08/05 19:49:50","新北市三峽區嘉添35號","121.368698333333","24.91115","6500900","三峽區"
"237006","5529-G3","2019/08/05 19:49:46","新北市三峽區中正路一段336巷15弄2號","121.36994","24.925","6500900","三峽區"
"237011","KEA-2596","2019/08/05 19:49:43","新北市三峽區介壽路二段6巷2號","121.389186666667","24.93459","6500900","三峽區"
"237015","649-BX","2019/08/05 19:49:32","新北市三峽區成福路70號","121.420026666667","24.9297866666667","6500900","三峽區"
"237010","706-TV","2019/08/05 19:49:48","新北市三峽區復興路31號","121.373815","24.936605","6500900","三峽區"
"237005","AKY-6261","2019/08/05 19:49:47","新北市三峽區長泰街6巷21號","121.379355","24.9319766666667","6500900","三峽區"
"236042","KED-0685","2019/08/05 19:49:38","新北市土城區金城路二段212號","121.455678333333","24.9823583333333","6501300","土城區"
"236078","166-UM","2019/08/05 19:49:49","新北市土城區中央路四段207號","121.413943333333","24.9559983333333","6501300","土城區"
"236030","253-BX","2019/08/05 19:49:37","新北市土城區中央路一段294號","121.443313333333","24.98239","6501300","土城區"
"236026","269-VK","2019/08/05 19:49:43","新北市土城區中央路二段61巷40號","121.443823333333","24.9784783333333","6501300","土城區"
"236039","271-VK","2019/08/05 19:49:35","新北市土城區國際路158巷54號","121.467961666667","24.9749083333333","6501300","土城區"
"236069","KEA-2877","2019/08/05 19:49:39","新北市土城區中央路二段346巷13號","121.439481666667","24.9722433333333","6501300","土城區"
"252001","KED-0821","2019/08/05 19:49:48","新北市三芝區公正街66號","121.499826666667","25.2574683333333","6502100","三芝區"
"236020","401-BY","2019/08/05 19:49:37","新北市土城區峰廷街35號","121.469643333333","24.9863283333333","6501300","土城區"
"236059","912-UM","2019/08/05 19:49:47","新北市土城區中央路一段133號","121.446765","24.988245","6501300","土城區"
"236048","913-UM","2019/08/05 19:49:45","新北市土城區青雲路287號","121.45906","24.9799683333333","6501300","土城區"
"236063","915-UM","2019/08/05 19:49:47","新北市土城區延和路146巷9號","121.468128333333","24.9897383333333","6501300","土城區"
"236055","AAC-216","2019/08/05 19:49:32","新北市土城區延平街1號","121.468196666667","24.990405","6501300","土城區"
"242039","AAC-296","2019/08/05 19:49:37","新北市新莊區民安路299巷49號","121.429638333333","25.0234766666667","6500500","新莊區"
"242060","986-R7","2019/08/05 19:49:40","新北市新莊區瓊林路59-75號","121.444131666667","25.02725","6500500","新莊區"
"242004","440-UM","2019/08/05 19:49:38","新北市新莊區化成路63巷24弄9號","121.46281","25.0459666666667","6500500","新莊區"
"242048","400-BY","2019/08/05 19:49:38","新北市新莊區後港一路28巷16弄2號","121.425536666667","25.02494","6500500","新莊區"
"242025","362-BY","2019/08/05 19:49:48","新北市新莊區五權一路12巷21弄8號","121.45804","25.0645283333333","6500500","新莊區"
"242023","353-BY","2019/08/05 19:49:28","新北市新莊區化成路182號","121.465575","25.0458233333333","6500500","新莊區"
"242013","132-UY","2019/08/05 19:49:35","新北市新莊區中泰街51號","121.45021","25.0468333333333","6500500","新莊區"
"242036","135-UY","2019/08/05 19:49:37","新北市新莊區建安街60號","121.42719","25.0247566666667","6500500","新莊區"
"242015","173-VK","2019/08/05 19:49:33","新北市新莊區新泰路502巷46號","121.444068333333","25.046395","6500500","新莊區"
"242034","348-TH","2019/08/05 19:49:29","新北市新莊區仁愛街63號","121.44419","25.03753","6500500","新莊區"
"242031","350-TH","2019/08/05 19:49:42","新北市新莊區公園一路112號","121.44463","25.0378783333333","6500500","新莊區"
"238015","755-BX","2019/08/05 19:49:48","新北市樹林區中山路二段125號","121.407835","24.9797216666667","6500700","樹林區"
"238023","601-UM","2019/08/05 19:49:35","新北市樹林區中正路118號","121.42425","25.002035","6500700","樹林區"
"238019","599-UM","2019/08/05 19:49:31","新北市樹林區中華路188-3號","121.412798333333","24.980465","6500700","樹林區"
"238024","5061-A6","2019/08/05 19:49:43","新北市樹林區育德街78-1號","121.387728333333","24.9681983333333","6500700","樹林區"
"238021","KEA-2539","2019/08/05 19:49:41","新北市樹林區佳園路三段111號","121.386913333333","24.95099","6500700","樹林區"
"238025","303-VK","2019/08/05 19:49:42","新北市樹林區中山路一段103號","121.4232","24.9910033333333","6500700","樹林區"
"238017","283-BY","2019/08/05 19:49:45","新北市樹林區保安街二段195-2號","121.414076666667","25.0037416666667","6500700","樹林區"
"238014","282-BY","2019/08/05 19:49:48","新北市樹林區千歲街70巷1弄2號","121.426695","24.997215","6500700","樹林區"
"238020","268-VK","2019/08/05 19:49:37","新北市板橋區大觀路三段45-1號","121.433866666667","24.9954316666667","6500700","樹林區"
"238026","172-UY","2019/08/05 19:49:36","新北市樹林區佳園路二段15巷21號","121.394691666667","24.9629366666667","6500700","樹林區"
"239006","891-R6","2019/08/05 19:49:40","新北市鶯歌區永昌街37號","121.342541666667","24.9497433333333","6500800","鶯歌區"
"239001","417-VK","2019/08/05 19:49:50","新北市鶯歌區尖山埔路114號","121.344265","24.950055","6500800","鶯歌區"
"239002","359-BY","2019/08/05 19:49:36","新北市鶯歌區湖山路32巷2號","121.340353333333","24.97464","6500800","鶯歌區"
"239004","193-VK","2019/08/05 19:49:49","新北市鶯歌區二甲路108號","121.337045","24.931395","6500800","鶯歌區"
"221008","489-VK","2019/08/05 19:49:41","新北市汐止區康寧街61巷24號","121.61948","25.0672233333333","6501100","汐止區"
"221010","269-BY","2019/08/05 19:49:35","新北市汐止區汐萬路一段417號","121.649155","25.0795566666667","6501100","汐止區"
"221012","278-VK","2019/08/05 19:49:35","新北市汐止區大同路三段344號","121.679956666667","25.07106","6501100","汐止區"
"221023","279-VK","2019/08/05 19:49:41","新北市汐止區中興路286巷1號","121.628315","25.069545","6501100","汐止區"
"221029","298-VK","2019/08/05 19:49:35","新北市汐止區康寧街901號","121.65142","25.0749616666667","6501100","汐止區"
"221021","299-VK","2019/08/05 19:49:48","新北市汐止區莊敬街70號","121.656355","25.0615233333333","6501100","汐止區"
"221031","353-TW","2019/08/05 19:49:34","新北市汐止區汐萬路一段301號","121.64924","25.0759333333333","6501100","汐止區"
"221025","623-UM","2019/08/05 19:49:46","新北市汐止區秀峰路81巷25號","121.661101666667","25.0647883333333","6501100","汐止區"
"221038","646-BX","2019/08/05 19:49:32","新北市汐止區忠孝東路357號","121.665536666667","25.070675","6501100","汐止區"
"220079","145-BY","2019/08/05 19:49:31","新北市板橋區民權路202巷17弄24號","121.459833333333","25.0166016666667","6500100","板橋區"
"220080","200-UY","2019/08/05 19:49:44","新北市板橋區大觀路二段37巷50號","121.449018333333","25.0025533333333","6500100","板橋區"
"220082","610-BX","2019/08/05 19:49:45","新北市板橋區溪崑一街30巷1號","121.429986666667","24.9908116666667","6500100","板橋區"
"220101","245-BX","2019/08/05 19:49:34","新北市板橋區縣民大道三段105-3號","121.476215","25.0225583333333","6500100","板橋區"
"220084","256-TC","2019/08/05 19:49:38","新北市板橋區滿平二街10巷6號","121.425555","24.9868033333333","6500100","板橋區"
"224002","257-TC","2019/08/05 19:49:40","新北市瑞芳區三爪子坑路13巷281-20號","121.815533333333","25.1060783333333","6501200","瑞芳區"
"220056","276-BY","2019/08/05 19:49:42","新北市板橋區四川路二段47巷1弄1號","121.454068333333","24.9950283333333","6500100","板橋區"
"220072","277-BY","2019/08/05 19:49:46","新北市板橋區金門街163-1號","121.433138333333","24.990365","6500100","板橋區"
"220094","283-UM","2019/08/05 19:49:45","新北市板橋區雨農路17巷3號","121.462056666667","25.0244833333333","6500100","板橋區"
"220071","283-VK","2019/08/05 19:49:45","新北市板橋區和平路174巷14號","121.464185","24.9949833333333","6500100","板橋區"
"220053","285-VK","2019/08/05 19:49:41","新北市板橋區永豐街13號","121.474756666667","25.01682","6500100","板橋區"
"220083","286-VK","2019/08/05 19:49:34","新北市板橋區龍興街63巷23號","121.4423","25.0016166666667","6500100","板橋區"
"220081","287-VK","2019/08/05 19:49:47","新北市板橋區大觀路一段29巷179弄22號","121.449321666667","25.00465","6500100","板橋區"
"220090","288-VK","2019/08/05 19:49:31","新北市板橋區漢生西路159號","121.46303","25.0234433333333","6500100","板橋區"
"220061","293-UM","2019/08/05 19:49:46","新北市板橋區中山路一段283巷2弄9號","121.47041","25.0148233333333","6500100","板橋區"
"220075","303-R5","2019/08/05 19:49:50","新北市板橋區大仁街110巷7弄1號","121.452483333333","25.0167766666667","6500100","板橋區"
"220062","305-R5","2019/08/05 19:49:34","新北市板橋區三民路二段29巷31弄3號","121.481463333333","25.0176633333333","6500100","板橋區"
"220092","307-R5","2019/08/05 19:49:48","新北市板橋區幸福路32巷2弄27號","121.460966666667","25.021735","6500100","板橋區"
"220098","317-R6","2019/08/05 19:49:42","新北市板橋區四維路279巷63號","121.460665","25.0273483333333","6500100","板橋區"
"220055","461-BY","2019/08/05 19:49:50","新北市板橋區國慶路149巷21弄12號","121.460218333333","24.99733","6500100","板橋區"
"220089","487-VK","2019/08/05 19:49:37","新北市板橋區四維路180號","121.464406666667","25.02671","6500100","板橋區"
"220088","491-VK","2019/08/05 19:49:49","新北市板橋區懷德街166號","121.479055","25.0304516666667","6500100","板橋區"
"220035","560-BX","2019/08/05 19:49:49","新北市板橋區金華街85巷14號","121.458478333333","25.0213166666667","6500100","板橋區"
"220103","561-BX","2019/08/05 19:49:41","新北市板橋區陽明街279巷18-1號","121.461276666667","25.0257866666667","6500100","板橋區"
"220063","609-BX","2019/08/05 19:49:43","新北市板橋區三民路一段5巷1號","121.479056666667","25.0233983333333","6500100","板橋區"
"220091","637-BX","2019/08/05 19:49:39","新北市板橋區民治街81巷15號","121.480336666667","25.0322366666667","6500100","板橋區"
"220057","686-BX","2019/08/05 19:49:30","新北市板橋區德興街30號","121.453415","24.9939516666667","6500100","板橋區"
"220077","687-BX","2019/08/05 19:49:41","新北市板橋區僑中二街116巷1號","121.445806666667","25.0063083333333","6500100","板橋區"
"220093","689-BX","2019/08/05 19:49:41","新北市板橋區文化路二段652號","121.47836","25.0360733333333","6500100","板橋區"
"220054","741-BX","2019/08/05 19:49:48","新北市板橋區忠孝路221號","121.465645","25.00275","6500100","板橋區"
"220102","KEA-2699","2019/08/05 19:49:45","新北市板橋區莊敬路87號","121.472758333333","25.0264483333333","6500100","板橋區"
"220067","829-TW","2019/08/05 19:49:44","新北市板橋區長安街138巷1弄89號","121.474865","25.0114116666667","6500100","板橋區"
"220074","895-R6","2019/08/05 19:49:44","新北市板橋區館前西路142號","121.456255","25.0080933333333","6500100","板橋區"
"220073","985-R7","2019/08/05 19:49:39","新北市板橋區國光路49巷2號","121.45804","25.0180583333333","6500100","板橋區"
"220097","AAC-210","2019/08/05 19:49:48","新北市板橋區光正街33號","121.462156666667","25.0172416666667","6500100","板橋區"
"220064","AAC-253","2019/08/05 19:49:39","新北市板橋區民族路233號","121.469845","25.007125","6500100","板橋區"
"235068","KEA-2873","2019/08/05 19:49:23","新北市中和區莊敬路10號","121.499753333333","25.00435","6500300","中和區"
