"lineid","car","time","location","longitude","latitude","cityid","cityname"
"234046","148-BY","2019/08/05 20:09:35","新北市永和區成功路二段75號","121.526726666667","24.9997633333333","6500400","永和區"
"234081","298-R6","2019/08/05 20:09:45","新北市永和區國中路28號","121.524616666667","25.0053933333333","6500400","永和區"
"234038","336-UY","2019/08/05 20:09:35","新北市永和區成功路一段62號","121.526898333333","25.0038333333333","6500400","永和區"
"234064","337-UY","2019/08/05 20:09:48","新北市永和區秀朗路二段43號","121.521588333333","25.0024316666667","6500400","永和區"
"234086","338-UY","2019/08/05 20:09:30","新北市永和區福和路5-2號","121.524775","25.00869","6500400","永和區"
"234070","552-UM","2019/08/05 20:09:35","新北市永和區福和路183巷1號","121.520078333333","25.00727","6500400","永和區"
"234017","745-BX","2019/08/05 20:09:30","新北市永和區文化路154號","121.51243","25.01527","6500400","永和區"
"234030","746-BX","2019/08/05 20:09:44","新北市永和區民權路49巷33號","121.521846666667","24.9975466666667","6500400","永和區"
"234054","KEA-2590","2019/08/05 20:09:46","新北市永和區博愛街5號","121.516745","25.0159066666667","6500400","永和區"
"234007","KED-0605","2019/08/05 20:09:49","新北市永和區保順路37巷7號","121.503101666667","25.0103683333333","6500400","永和區"
"234013","KEA-2591","2019/08/05 20:09:40","新北市永和區保順路11號","121.504255","25.0093083333333","6500400","永和區"
"234061","AAD-866","2019/08/05 20:09:38","新北市永和區中正路151巷5弄2-1號","121.51563","24.9987516666667","6500400","永和區"
"234042","862-TW","2019/08/05 20:09:39","新北市永和區雙和街64巷7號","121.509348333333","25.0034883333333","6500400","永和區"
"234050","863-TW","2019/08/05 20:09:35","新北市永和區環河西路二段151號","121.505653333333","25.0140316666667","6500400","永和區"
"249005","172-UM","2019/08/05 20:09:48","新北市八里區下罟子61-1號","121.387208333333","25.1364933333333","6502300","八里區"
"249001","173-UM","2019/08/05 20:09:44","新北市八里區中華路二段305-7號","121.403343333333","25.1478416666667","6502300","八里區"
"249004","303-UY","2019/08/05 20:09:37","新北市八里區中山路一段189巷5號","121.411941666667","25.1581316666667","6502300","八里區"
"249002","305-UY","2019/08/05 20:09:47","新北市五股區成泰路四段45-1號","121.457036666667","25.1119833333333","6502300","八里區"
"249003","593-UM","2019/08/05 20:09:40","新北市八里區中山路二段540巷9弄15號","121.396645","25.1467583333333","6502300","八里區"
"248016","026-BX","2019/08/05 20:09:50","新北市五股區成泰路三段577巷80弄72號","121.448985","25.1047916666667","6501500","五股區"
"248008","KED-0815","2019/08/05 20:09:33","新北市三重區中正北路560巷37弄19號","121.4699","25.0708583333333","6501500","五股區"
"248018","KED-0813","2019/08/05 20:09:28","新北市五股區登林路92號","121.428768333333","25.0693666666667","6501500","五股區"
"248012","247-BX","2019/08/05 20:09:42","新北市五股區六合街70號","121.431848333333","25.0900616666667","6501500","五股區"
"248004","677-BX","2019/08/05 20:09:46","新北市五股區成泰路一段196號","121.43582","25.07836","6501500","五股區"
"248002","678-BX","2019/08/05 20:09:36","新北市五股區成泰路三段323號","121.44796","25.0949416666667","6501500","五股區"
"248010","682-TV","2019/08/05 20:09:33","新北市五股區成泰路一段7巷11號","121.432986666667","25.0668066666667","6501500","五股區"
"234023","9380-KE","2019/08/05 20:09:30","新北市永和區中正路654巷26號","121.517623333333","25.0084766666667","6500400","永和區"
"234077","969-R7","2019/08/05 20:09:40","新北市永和區智光街115號","121.51557","24.9961483333333","6500400","永和區"
"234074","AAC-211","2019/08/05 20:09:44","新北市永和區豫溪街136巷1號","121.521323333333","25.0103533333333","6500400","永和區"
"234067","AAC-212","2019/08/05 20:09:36","新北市永和區保平路214巷11弄2號","121.508863333333","25.0067","6500400","永和區"
"234003","AAC-295","2019/08/05 20:09:45","新北市永和區中正路614-1號","121.517128333333","25.00761","6500400","永和區"
"243012","AAD-798","2019/08/05 20:09:34","新北市泰山區楓江路22號","121.434065","25.062395","6501600","泰山區"
"243010","297-R6","2019/08/05 20:09:46","新北市泰山區明志路二段136巷21弄4號","121.425803333333","25.051925","6501600","泰山區"
"243014","KEA-2801","2019/08/05 20:09:33","新北市泰山區明志路一段72號","121.433495","25.064595","6501600","泰山區"
"243016","421-VK","2019/08/05 20:09:31","新北市泰山區明志路三段405號","121.421305","25.0341133333333","6501600","泰山區"
"243009","KEA-2215","2019/08/05 20:09:35","新北市泰山區泰林路二段116巷1弄2號","121.434931666667","25.0594666666667","6501600","泰山區"
"243011","KEA-2216","2019/08/05 20:09:41","新北市泰山區明志路三段531巷2號","121.421375","25.0297166666667","6501600","泰山區"
"243015","680-BX","2019/08/05 20:09:47","新北市泰山區明志路二段62號","121.429121666667","25.052775","6501600","泰山區"
"222003","436-BY","2019/08/05 20:09:38","新北市深坑區埔新街56號","121.620271666667","25.0025666666667","6501800","深坑區"
"222002","659-BX","2019/08/05 20:09:32","新北市深坑區北深路三段158巷28號","121.60186","25.00422","6501800","深坑區"
"231061","002-UM","2019/08/05 20:09:37","新北市新店區安興路96-2號","121.515138333333","24.976605","6500600","新店區"
"231055","0291-UT","2019/08/05 20:09:36","新北市新店區中華路48巷12號","121.540266666667","24.9687666666667","6500600","新店區"
"231044","046-UY","2019/08/05 20:09:39","新北市新店區寶元路一段15巷20號","121.542008333333","24.9870066666667","6500600","新店區"
"231060","106-UY","2019/08/05 20:09:29","新北市新店區安康路三段356號","121.485991666667","24.951695","6500600","新店區"
"231051","107-UY","2019/08/05 20:09:34","新北市新店區中央路238-1號","121.529276666667","24.97243","6500600","新店區"
"231049","108-UY","2019/08/05 20:09:30","新北市新店區北新路二段139巷12弄20號","121.542173333333","24.976225","6500600","新店區"
"231065","110-UY","2019/08/05 20:09:39","新北市新店區安祥路106巷155號","121.473575","24.959025","6500600","新店區"
"231068","187-VK","2019/08/05 20:09:41","新北市新店區中興路三段88號","121.545378333333","24.9787416666667","6500600","新店區"
"231050","KEA-2219","2019/08/05 20:09:41","新北市新店區北新路一段337號","121.541796666667","24.9686916666667","6500600","新店區"
"231062","256-BX","2019/08/05 20:09:39","新北市新店區華城路2號","121.530543333333","24.9606483333333","6500600","新店區"
"231054","260-TV","2019/08/05 20:09:30","新北市新店區檳榔路44號","121.541598333333","24.9636566666667","6500600","新店區"
"231042","268-BY","2019/08/05 20:09:47","新北市新店區中興路二段89號","121.547043333333","24.9713166666667","6500600","新店區"
"231064","278-BY","2019/08/05 20:09:37","新北市新店區安德街2號","121.512408333333","24.962925","6500600","新店區"
"231045","355-BY","2019/08/05 20:09:34","新北市新店區北宜路二段10號","121.547828333333","24.9517983333333","6500600","新店區"
"231056","4715-K9","2019/08/05 20:09:50","新北市新店區中正路275巷25號","121.53699","24.9732233333333","6500600","新店區"
"231067","4772-VM","2019/08/05 20:09:33","新北市新店區溪洲路6巷3號","121.533928333333","24.9613383333333","6500600","新店區"
"231052","513-UM","2019/08/05 20:09:39","新北市新店區新烏路三段寶島巷2弄3號","121.55203","24.8986383333333","6500600","新店區"
"231041","619-UM","2019/08/05 20:09:40","新北市新店區中正路407號","121.534265","24.9776416666667","6500600","新店區"
"231063","641-BX","2019/08/05 20:09:42","新北市新店區黎明路55巷1號","121.502383333333","24.948395","6500600","新店區"
"231047","KED-0819","2019/08/05 20:09:42","新北市新店區寶宏路11號","121.549541666667","24.97573","6500600","新店區"
"231057","720-UM","2019/08/05 20:09:47","新北市新店區百齡一路12號","121.553096666667","24.9324433333333","6500600","新店區"
"231059","897-TW","2019/08/05 20:09:39","新北市新店區安成街30號","121.510191666667","24.96108","6500600","新店區"
"231040","898-TW","2019/08/05 20:09:30","新北市新店區中正路78號","121.543793333333","24.970235","6500600","新店區"
"231043","899-TW","2019/08/05 20:09:43","新北市新店區中正路309號","121.536518333333","24.9749733333333","6500600","新店區"
"231066","AKT-0513","2019/08/05 20:09:49","新北市新店區安興路20號","121.51519","24.9659266666667","6500600","新店區"
"241028","022-UY","2019/08/05 20:09:38","新北市三重區仁化街107號","121.494455","25.0580816666667","6500200","三重區"
"241008","059-VK","2019/08/05 20:09:43","新北市三重區永福街197巷6-1號","121.478428333333","25.07447","6500200","三重區"
"241002","060-VK","2019/08/05 20:09:32","新北市三重區仁義街225巷40號","121.497635","25.0830183333333","6500200","三重區"
"241031","061-VK","2019/08/05 20:09:44","新北市三重區過圳街19號","121.488655","25.0601333333333","6500200","三重區"
"241017","063-VK","2019/08/05 20:09:43","新北市三重區自強路一段244號","121.492923333333","25.06729","6500200","三重區"
"241024","065-VK","2019/08/05 20:09:31","新北市三重區力行路一段160號","121.482275","25.071105","6500200","三重區"
"241011","066-VK","2019/08/05 20:09:32","新北市三重區秀江街265號","121.495683333333","25.07125","6500200","三重區"
"241003","091-VK","2019/08/05 20:09:31","新北市三重區仁愛街435號","121.490136666667","25.0820466666667","6500200","三重區"
"241015","742-BX","2019/08/05 20:09:42","新北市三重區福德北路24號","121.502325","25.064735","6500200","三重區"
"241006","262-UM","2019/08/05 20:09:44","新北市三重區力行路二段123巷1號","121.483153333333","25.0763233333333","6500200","三重區"
"241009","267-UM","2019/08/05 20:09:39","新北市三重區永福街62-4號","121.480853333333","25.07784","6500200","三重區"
"241018","268-UM","2019/08/05 20:09:38","新北市三重區正義北路256巷131號","121.493238333333","25.06783","6500200","三重區"
"241032","269-UM","2019/08/05 20:09:38","新北市三重區捷運路73號","121.482913333333","25.0554966666667","6500200","三重區"
"241013","270-UM","2019/08/05 20:09:45","新北市三重區三和路三段139巷35號","121.494018333333","25.07408","6500200","三重區"
"241025","271-UM","2019/08/05 20:09:44","新北市三重區中正北路416號","121.475228333333","25.0707316666667","6500200","三重區"
"241007","398-BY","2019/08/05 20:09:44","新北市三重區仁美街48號","121.487228333333","25.0777583333333","6500200","三重區"
"241030","KED-0822","2019/08/05 20:09:48","新北市三重區重新路四段244巷9號","121.486351666667","25.0533783333333","6500200","三重區"
"241035","462-BY","2019/08/05 20:09:32","新北市三重區平安街3號","121.498908333333","25.0642633333333","6500200","三重區"
"241004","475-VK","2019/08/05 20:09:49","新北市三重區仁愛街352號","121.491621666667","25.0802016666667","6500200","三重區"
"241020","478-VK","2019/08/05 20:09:41","新北市三重區後竹圍街2巷2號","121.491921666667","25.0735033333333","6500200","三重區"
"241026","480-VK","2019/08/05 20:09:41","新北市三重區中央南路128號","121.50193","25.0598816666667","6500200","三重區"
"241014","543-UM","2019/08/05 20:09:35","新北市三重區長樂街54號","121.500491666667","25.0692933333333","6500200","三重區"
"241023","545-UM","2019/08/05 20:09:46","新北市三重區頂崁街225號","121.477018333333","25.0681616666667","6500200","三重區"
"241001","547-UM","2019/08/05 20:09:40","新北市三重區三和路四段89巷34號","121.490471666667","25.076195","6500200","三重區"
"241019","KEA-2593","2019/08/05 20:09:40","新北市三重區自強路二段33巷46號","121.490531666667","25.06991","6500200","三重區"
"241005","AAD-863","2019/08/05 20:09:29","新北市三重區分子尾街92號","121.488821666667","25.0825116666667","6500200","三重區"
"241016","887-TS","2019/08/05 20:09:38","新北市三重區大同北路54巷4號","121.49407","25.0633433333333","6500200","三重區"
"241012","941-UM","2019/08/05 20:09:46","新北市三重區仁興街70號","121.498555","25.0763616666667","6500200","三重區"
"241029","942-UM","2019/08/05 20:09:38","新北市三重區光明路32巷26號","121.491956666667","25.0587783333333","6500200","三重區"
"241033","AAC-255","2019/08/05 20:09:37","新北市三重區光復路一段61巷28號","121.473463333333","25.0493466666667","6500200","三重區"
"235066","003-UY","2019/08/05 20:09:41","新北市中和區水源路127巷9號","121.50806","25.0037033333333","6500300","中和區"
"235039","097-UM","2019/08/05 20:09:32","新北市中和區大勇街25巷38弄1號","121.515855","24.9937166666667","6500300","中和區"
"235065","098-UM","2019/08/05 20:09:36","新北市中和區永和路120號","121.496555","25.006345","6500300","中和區"
"235040","150-BY","2019/08/05 20:09:50","新北市中和區保健路33巷5號","121.50894","24.9980166666667","6500300","中和區"
"247014","KEA-2869","2019/08/05 20:09:49","新北市蘆洲區和平路18號","121.472471666667","25.079685","6501400","蘆洲區"
"247008","KED-0682","2019/08/05 20:09:44","新北市蘆洲區中山一路135巷6弄32號","121.47474","25.080895","6501400","蘆洲區"
"235050","4979-A6","2019/08/05 20:09:41","新北市中和區景平路316號","121.512335","24.9926116666667","6500300","中和區"
"235069","4980-A6","2019/08/05 20:09:45","新北市中和區景新街132巷8-4號","121.50459","24.9981933333333","6500300","中和區"
"235070","558-UM","2019/08/05 20:09:46","新北市中和區中正路866-1號","121.484516666667","25.0058266666667","6500300","中和區"
"235026","800-TS","2019/08/05 19:49:31","新北市中和區員山路36巷16-3號","121.485015","24.9913783333333","6500300","中和區"
"235051","157-BY","2019/08/05 20:09:32","新北市中和區復興路280巷3弄1號","121.502198333333","24.9907983333333","6500300","中和區"
"235059","AAC-215","2019/08/05 20:09:48","新北市中和區圓通路335巷33弄21號","121.493285","24.988845","6500300","中和區"
"220065","072-UY","2019/08/05 20:09:31","新北市板橋區中山路一段154巷21號","121.465386666667","25.0105333333333","6500100","板橋區"
"247004","893-R6","2019/08/05 20:09:48","新北市蘆洲區永安南路二段328巷15弄2號","121.456805","25.083825","6501400","蘆洲區"
"247018","546-UM","2019/08/05 20:09:39","新北市蘆洲區民族路314巷11-2號","121.477988333333","25.0907233333333","6501400","蘆洲區"
"247024","337-TH","2019/08/05 20:09:38","新北市蘆洲區光榮路120巷8弄23號","121.464978333333","25.0882","6501400","蘆洲區"
"247002","336-TH","2019/08/05 20:09:42","新北市蘆洲區長榮路319號","121.459145","25.0865183333333","6501400","蘆洲區"
"247022","057-VK","2019/08/05 20:09:44","新北市蘆洲區三民路171巷12號","121.470571666667","25.0869916666667","6501400","蘆洲區"
"247012","056-VK","2019/08/05 20:09:41","新北市蘆洲區民族路252號","121.479085","25.0887066666667","6501400","蘆洲區"
"247016","053-VK","2019/08/05 20:09:41","新北市蘆洲區光華路165號","121.465165","25.08202","6501400","蘆洲區"
"247020","007-UY","2019/08/05 20:09:46","新北市蘆洲區民權路106巷5弄22號","121.474291666667","25.08921","6501400","蘆洲區"
"247006","002-UY","2019/08/05 20:09:49","新北市蘆洲區永安南路二段16巷5號","121.467756666667","25.0771633333333","6501400","蘆洲區"
"226004","312-R5","2019/08/05 20:09:45","新北市平溪區嶺腳里嶺腳寮24號","121.747963333333","25.0299516666667","6502400","平溪區"
"228003","097-TW","2019/08/05 20:09:45","新北市貢寮區仁理村研海街20號","121.929623333333","25.0371333333333","6502600","貢寮區"
"222001","KEA-2212","2019/08/05 20:09:46","新北市深坑區北深路三段195號","121.601093333333","25.0036233333333","6501800","深坑區"
"208003","665-BX","2019/08/05 20:09:32","新北市金山區海興路1-3號","121.63416","25.246075","6502700","金山區"
"251009","008-UM","2019/08/05 20:09:41","新北市淡水區博愛街45號","121.446515","25.1692916666667","6501000","淡水區"
"251004","009-UM","2019/08/05 20:09:35","新北市淡水區民族路29巷24-1號","121.461648333333","25.1368266666667","6501000","淡水區"
"251005","010-UM","2019/08/05 20:09:44","新北市淡水區學府路116號","121.45028","25.1723283333333","6501000","淡水區"
"251001","011-UM","2019/08/05 20:09:36","新北市淡水區淡金路二段15號","121.44644","25.1891716666667","6501000","淡水區"
"251010","012-UM","2019/08/05 20:09:34","新北市淡水區中正路二段305巷32號","121.423465","25.1961483333333","6501000","淡水區"
"251015","KEA-2871","2019/08/05 20:09:29","新北市淡水區泉洲厝25-1號","121.484798333333","25.1891883333333","6501000","淡水區"
"251016","179-VK","2019/08/05 20:09:38","新北市淡水區番子田18-11號","121.455796666667","25.2300933333333","6501000","淡水區"
"251013","180-VK","2019/08/05 20:09:42","新北市淡水區奎柔山路586號","121.46908","25.2051933333333","6501000","淡水區"
"251008","181-VK","2019/08/05 20:09:47","新北市淡水區淡海路72巷30弄11號","121.424781666667","25.1826816666667","6501000","淡水區"
"251012","441-VK","2019/08/05 20:09:34","新北市淡水區淡金路三段224號","121.44895","25.2049","6501000","淡水區"
"251006","561-UM","2019/08/05 20:09:32","新北市淡水區北新路141巷3號","121.449241666667","25.1792016666667","6501000","淡水區"
"251014","577-R6","2019/08/05 20:09:38","新北市淡水區石頭厝2-1號","121.458165","25.2357016666667","6501000","淡水區"
"251011","650-BX","2019/08/05 20:09:39","新北市淡水區崁頂55-3號","121.442296666667","25.19664","6501000","淡水區"
"251002","672-BX","2019/08/05 20:09:31","新北市淡水區中正路235號","121.435176666667","25.17351","6501000","淡水區"
"251003","766-UM","2019/08/05 20:09:48","新北市淡水區新市一路二段257號","121.444036666667","25.1829733333333","6501000","淡水區"
"207003","550-UM","2019/08/05 20:09:39","新北市萬里區大鵬里萬里加投186號","121.642788333333","25.2156433333333","6502800","萬里區"
"207004","225-TW","2019/08/05 20:09:30","新北市萬里區北基里孝五街27號","121.683153333333","25.1768866666667","6502800","萬里區"
"252002","178-VK","2019/08/05 20:09:39","新北市三芝區三民街1號","121.50406","25.2577916666667","6502100","三芝區"
"237012","275-BY","2019/08/05 20:09:33","新北市三峽區中正路一段216巷16號","121.371466666667","24.9281066666667","6500900","三峽區"
"237014","433-BY","2019/08/05 20:09:50","新北市三峽區添福11-3號","121.372451666667","24.90687","6500900","三峽區"
"237006","5529-G3","2019/08/05 20:09:46","新北市三峽區嘉添227-16號","121.370476666667","24.9113416666667","6500900","三峽區"
"237011","KEA-2596","2019/08/05 20:09:43","新北市三峽區中正路一段328-1號","121.37135","24.924895","6500900","三峽區"
"237015","649-BX","2019/08/05 20:09:32","新北市三峽區介壽路二段138巷1弄21號","121.396515","24.93352","6500900","三峽區"
"237005","AKY-6261","2019/08/05 20:09:47","新北市三峽區三樹路88號","121.378208333333","24.9388083333333","6500900","三峽區"
"236042","KED-0685","2019/08/05 20:09:43","新北市土城區學享街66號","121.45242","24.986225","6501300","土城區"
"236078","166-UM","2019/08/05 20:09:43","新北市土城區三民路23巷8弄4號","121.419801666667","24.9634583333333","6501300","土城區"
"236030","253-BX","2019/08/05 20:09:37","新北市土城區中央路一段118巷1弄19號","121.445575","24.9875333333333","6501300","土城區"
"236026","269-VK","2019/08/05 20:09:43","新北市土城區中央路二段293號","121.444571666667","24.9842633333333","6501300","土城區"
"236014","270-VK","2019/08/05 20:09:36","新北市土城區廣興街39號","121.454995","24.991495","6501300","土城區"
"236039","271-VK","2019/08/05 20:09:35","新北市土城區延吉街355號","121.464525","24.9840416666667","6501300","土城區"
"247010","KED-0683","2019/08/05 20:09:42","新北市蘆洲區集賢路406號","121.480133333333","25.0819016666667","6501400","蘆洲區"
"236069","KEA-2877","2019/08/05 20:09:37","新北市土城區中央路三段183-11號","121.431271666667","24.9648666666667","6501300","土城區"
"252001","KED-0821","2019/08/05 20:09:28","新北市三芝區公正街9號","121.49969","25.2576383333333","6502100","三芝區"
"236020","401-BY","2019/08/05 20:09:37","新北市土城區延吉街111巷1弄1號","121.471508333333","24.986455","6501300","土城區"
"236059","912-UM","2019/08/05 20:09:47","新北市土城區中央路二段388號","121.439716666667","24.97101","6501300","土城區"
"236048","913-UM","2019/08/05 20:09:36","新北市土城區清水路259號","121.463005","24.9844766666667","6501300","土城區"
"236055","AAC-216","2019/08/05 20:09:32","新北市土城區中華路一段166號","121.44145","24.9831633333333","6501300","土城區"
"242039","AAC-296","2019/08/05 20:09:37","新北市新莊區龍安路499號","121.426091666667","25.0180366666667","6500500","新莊區"
"242060","986-R7","2019/08/05 20:09:41","新北市新莊區瓊林路59-17號","121.442033333333","25.0250316666667","6500500","新莊區"
"242002","751-BX","2019/08/05 20:09:45","新北市新莊區中正路121-1號","121.459975","25.0385566666667","6500500","新莊區"
"242029","615-BX","2019/08/05 20:09:44","新北市新莊區中原路512號","121.446505","25.0545333333333","6500500","新莊區"
"242058","612-BX","2019/08/05 20:09:42","新北市新莊區八德街161號","121.42341","25.0192416666667","6500500","新莊區"
"242046","566-BX","2019/08/05 20:09:48","新北市新莊區裕民街55巷14號","121.419081666667","25.0236666666667","6500500","新莊區"
"242056","441-UM","2019/08/05 20:09:43","新北市新莊區豐年街28巷1弄11號","121.446023333333","25.031915","6500500","新莊區"
"242004","440-UM","2019/08/05 20:09:38","新北市新莊區頭興街14號","121.465065","25.0535766666667","6500500","新莊區"
"242042","415-TV","2019/08/05 20:09:44","新北市新莊區青山路一段177號","121.400523333333","25.0301266666667","6500500","新莊區"
"242011","413-TV","2019/08/05 20:09:43","新北市新莊區中信街67巷8號","121.448528333333","25.0507316666667","6500500","新莊區"
"242048","400-BY","2019/08/05 20:09:45","新北市新莊區四維路152巷17號","121.42225","25.0227583333333","6500500","新莊區"
"242025","362-BY","2019/08/05 20:09:28","新北市新莊區五工三路78巷9號","121.45921","25.0654616666667","6500500","新莊區"
"242023","353-BY","2019/08/05 20:09:28","新北市新莊區化成路540-4號","121.46628","25.0535166666667","6500500","新莊區"
"242013","132-UY","2019/08/05 20:09:35","新北市新莊區中港路483巷10號","121.451576666667","25.0497433333333","6500500","新莊區"
"242036","135-UY","2019/08/05 20:09:37","新北市新莊區後港一路130巷37號","121.429961666667","25.0259583333333","6500500","新莊區"
"242053","172-VK","2019/08/05 20:09:40","新北市新莊區西盛街395巷22弄8號","121.42852","25.0128166666667","6500500","新莊區"
"242015","173-VK","2019/08/05 20:09:33","新北市新莊區中平路26巷21號","121.445835","25.0433683333333","6500500","新莊區"
"242021","175-VK","2019/08/05 20:09:42","新北市新莊區中興街27號","121.449161666667","25.0365766666667","6500500","新莊區"
"242019","KED-0687","2019/08/05 20:09:31","新北市新莊區民樂街66號","121.457975","25.0422383333333","6500500","新莊區"
"242009","346-TH","2019/08/05 20:09:40","新北市新莊區昌盛街35巷2弄1號","121.454166666667","25.0503483333333","6500500","新莊區"
"242050","347-TH","2019/08/05 20:09:30","新北市新莊區民安西路174號","121.42588","25.0159183333333","6500500","新莊區"
"242034","348-TH","2019/08/05 20:09:49","新北市新莊區中正路318巷16號","121.44648","25.035975","6500500","新莊區"
"242007","349-TH","2019/08/05 20:09:31","新北市新莊區福壽街184巷28號","121.459311666667","25.0532316666667","6500500","新莊區"
"242031","350-TH","2019/08/05 20:09:42","新北市新莊區忠孝街29巷36號","121.44365","25.0370316666667","6500500","新莊區"
"242017","351-TH","2019/08/05 20:09:36","新北市新莊區中港路370號","121.452263333333","25.0472516666667","6500500","新莊區"
"238021","KEA-2539","2019/08/05 20:09:37","新北市樹林區西圳街一段118巷16號","121.394481666667","24.9659316666667","6500700","樹林區"
"239006","891-R6","2019/08/05 20:09:40","新北市鶯歌區文化路115巷11號","121.357228333333","24.9553083333333","6500800","鶯歌區"
"221008","489-VK","2019/08/05 20:09:40","台北市內湖區康樂街119號","121.619211666667","25.070965","6501100","汐止區"
"221036","130-UY","2019/08/05 20:09:42","新北市汐止區新台五路二段41巷1號","121.663038333333","25.0666416666667","6501100","汐止區"
"221015","131-UY","2019/08/05 20:09:44","新北市汐止區建成路26號","121.664516666667","25.0727133333333","6501100","汐止區"
"221010","269-BY","2019/08/05 20:09:32","新北市汐止區連峰街270號","121.644258333333","25.08149","6501100","汐止區"
"221012","278-VK","2019/08/05 20:09:35","新北市汐止區大同路三段505號","121.68044","25.071165","6501100","汐止區"
"221023","279-VK","2019/08/05 20:09:41","新北市汐止區明峰街200-1號","121.627725","25.06927","6501100","汐止區"
"221032","280-BY","2019/08/05 20:09:43","新北市汐止區力行街59巷9弄4號","121.61721","25.049765","6501100","汐止區"
"221027","281-BY","2019/08/05 20:09:36","新北市汐止區民生街4巷2號","121.660151666667","25.0688483333333","6501100","汐止區"
"221029","298-VK","2019/08/05 20:09:35","新北市汐止區樟樹一路119巷10弄1號","121.641221666667","25.0646083333333","6501100","汐止區"
"221021","299-VK","2019/08/05 20:09:48","新北市汐止區連興街121號","121.653866666667","25.0624366666667","6501100","汐止區"
"221031","353-TW","2019/08/05 20:09:34","新北市汐止區福德一路255號","121.633435","25.0644","6501100","汐止區"
"221035","622-UM","2019/08/05 20:09:44","新北市汐止區長江街39巷20號","121.655381666667","25.0719966666667","6501100","汐止區"
"221025","623-UM","2019/08/05 20:09:46","新北市汐止區秀峰路74號","121.659855","25.0643066666667","6501100","汐止區"
"221038","646-BX","2019/08/05 20:09:32","新北市汐止區大同路三段66-3號","121.668105","25.07728","6501100","汐止區"
"221033","647-BX","2019/08/05 20:09:49","新北市汐止區東勢街201巷104號","121.633485","25.0429133333333","6501100","汐止區"
"221002","707-TV","2019/08/05 20:09:34","新北市汐止區康寧街815巷1號","121.64116","25.0750483333333","6501100","汐止區"
"221018","753-BX","2019/08/05 20:09:32","新北市汐止區茄苳路325號","121.67376","25.0664216666667","6501100","汐止區"
"220079","145-BY","2019/08/05 20:09:31","新北市板橋區建國街113號","121.460338333333","25.0176333333333","6500100","板橋區"
"220080","200-UY","2019/08/05 20:09:24","新北市板橋區大觀路二段153巷15號","121.446241666667","25.0005133333333","6500100","板橋區"
"220082","610-BX","2019/08/05 20:09:35","新北市板橋區篤行路二段119-2號","121.431301666667","24.990855","6500100","板橋區"
"220101","245-BX","2019/08/05 20:09:43","新北市板橋區雙十路二段47巷2弄17號","121.475553333333","25.0267216666667","6500100","板橋區"
"220084","256-TC","2019/08/05 20:09:41","新北市板橋區溪崑二街112巷33弄2號","121.425553333333","24.9891516666667","6500100","板橋區"
"224002","257-TC","2019/08/05 20:09:40","新北市瑞芳區員山子路員山巷17-1號","121.81682","25.1040333333333","6501200","瑞芳區"
"220083","286-VK","2019/08/05 20:09:38","新北市板橋區僑中二街48巷8號","121.445978333333","25.0102766666667","6500100","板橋區"
"220081","287-VK","2019/08/05 20:09:47","新北市板橋區僑中一街80巷5弄1-1號","121.447795","25.0124433333333","6500100","板橋區"
"220061","293-UM","2019/08/05 20:09:35","新北市板橋區中山路一段272巷18-1號","121.46929","25.0136666666667","6500100","板橋區"
"242044","281-VK","2019/08/05 20:09:48","新北市新莊區萬壽路一段21巷25號","121.410811666667","25.0198833333333","6500500","新莊區"
"220075","303-R5","2019/08/05 20:09:40","新北市板橋區金華街10巷48弄55號","121.458903333333","25.0201633333333","6500100","板橋區"
"220062","305-R5","2019/08/05 20:09:34","新北市板橋區萬安街85巷1弄11號","121.484433333333","25.0249783333333","6500100","板橋區"
"220055","461-BY","2019/08/05 20:09:33","新北市板橋區仁愛路76巷3弄2號","121.460721666667","24.9990483333333","6500100","板橋區"
"220035","560-BX","2019/08/05 20:09:48","新北市板橋區新生街87巷32號","121.45653","25.0221833333333","6500100","板橋區"
"220103","561-BX","2019/08/05 20:09:41","新北市板橋區漢生東路73巷26號","121.4672","25.0169433333333","6500100","板橋區"
"220077","687-BX","2019/08/05 20:09:41","新北市板橋區僑中一街102巷7弄20號","121.446041666667","25.012965","6500100","板橋區"
"220054","741-BX","2019/08/05 20:09:28","新北市板橋區實踐路93巷9-2號","121.464631666667","25.0054566666667","6500100","板橋區"
"220067","829-TW","2019/08/05 20:09:44","新北市板橋區中山路一段206巷89號","121.471886666667","25.0133316666667","6500100","板橋區"
"220074","895-R6","2019/08/05 20:09:32","新北市板橋區縣民大道一段291號","121.460781666667","25.010345","6500100","板橋區"
"220073","985-R7","2019/08/05 20:09:48","新北市板橋區館前西路162號","121.452831666667","25.00856","6500100","板橋區"
"220097","AAC-210","2019/08/05 20:09:47","新北市板橋區公館街21號","121.460701666667","25.0146433333333","6500100","板橋區"
"235068","KEA-2873","2019/08/05 20:09:23","新北市中和區福祥路85巷3號","121.498776666667","25.0057133333333","6500300","中和區"
