"lineid","car","time","location","longitude","latitude","cityid","cityname"
"234081","298-R6","2019/08/05 20:29:45","新北市永和區福和路63號","121.52287","25.00795","6500400","永和區"
"234038","336-UY","2019/08/05 20:29:41","新北市永和區民樂街31巷8弄13號","121.528885","25.0013333333333","6500400","永和區"
"234064","337-UY","2019/08/05 20:29:48","新北市永和區中正路393號","121.51725","25.0040316666667","6500400","永和區"
"234086","338-UY","2019/08/05 20:29:33","新北市永和區永和路二段216號","121.515623333333","25.0139833333333","6500400","永和區"
"234070","552-UM","2019/08/05 20:29:36","新北市永和區永亨路11號","121.519513333333","25.0058133333333","6500400","永和區"
"234017","745-BX","2019/08/05 20:29:30","新北市永和區仁愛路97號","121.512931666667","25.0131916666667","6500400","永和區"
"234030","746-BX","2019/08/05 20:29:44","新北市永和區民族街81巷58號","121.520023333333","24.996445","6500400","永和區"
"234054","KEA-2590","2019/08/05 20:29:46","新北市永和區環河東路一段82號","121.519615","25.01642","6500400","永和區"
"234013","KEA-2591","2019/08/05 20:29:40","新北市永和區仁愛路284號","121.503306666667","25.00853","6500400","永和區"
"234061","AAD-866","2019/08/05 20:29:38","新北市永和區安樂路194巷19號","121.515873333333","25.00102","6500400","永和區"
"234042","862-TW","2019/08/05 20:29:36","新北市永和區安樂路433號","121.514335","25.00463","6500400","永和區"
"234050","863-TW","2019/08/05 20:29:35","新北市永和區新生路118巷1弄16號","121.50666","25.01449","6500400","永和區"
"249001","173-UM","2019/08/05 20:29:44","新北市八里區中山路三段106號","121.390993333333","25.1421883333333","6502300","八里區"
"249004","303-UY","2019/08/05 20:29:37","新北市八里區中山路一段129巷19-1號","121.413946666667","25.1586866666667","6502300","八里區"
"249002","305-UY","2019/08/05 20:29:47","新北市八里區龍米路二段125巷23號","121.445876666667","25.14557","6502300","八里區"
"249003","593-UM","2019/08/05 20:29:43","新北市八里區華峰一街18號","121.399245","25.1467433333333","6502300","八里區"
"248002","678-BX","2019/08/05 20:29:36","新北市五股區新五路二段373號","121.444165","25.0885233333333","6501500","五股區"
"234023","9380-KE","2019/08/05 20:29:30","新北市永和區博愛街32巷17-1號","121.518928333333","25.0152866666667","6500400","永和區"
"234074","AAC-211","2019/08/05 20:29:35","新北市永和區豫溪街217巷19號","121.524521666667","25.00994","6500400","永和區"
"234067","AAC-212","2019/08/05 20:29:36","新北市中和區保平路231號","121.50803","25.0044366666667","6500400","永和區"
"243012","AAD-798","2019/08/05 20:29:34","新北市泰山區楓江路8號","121.433481666667","25.062395","6501600","泰山區"
"243010","297-R6","2019/08/05 20:29:46","新北市泰山區新生路33-1號","121.427525","25.0455066666667","6501600","泰山區"
"243014","KEA-2801","2019/08/05 20:29:33","新北市泰山區泰林路二段519號","121.423918333333","25.0637266666667","6501600","泰山區"
"243016","421-VK","2019/08/05 20:29:31","新北市泰山區文程路16號","121.428226666667","25.049165","6501600","泰山區"
"243009","KEA-2215","2019/08/05 20:29:49","新北市泰山區忠孝街16巷1號","121.427591666667","25.065015","6501600","泰山區"
"243011","KEA-2216","2019/08/05 20:29:41","新北市泰山區新北大道六段235號","121.425413333333","25.0351883333333","6501600","泰山區"
"243013","646-TV","2019/08/05 20:29:38","新北市泰山區中央路5巷4號","121.426698333333","25.0435933333333","6501600","泰山區"
"243015","680-BX","2019/08/05 20:29:33","新北市泰山區仁德路84號","121.433055","25.0565133333333","6501600","泰山區"
"222003","436-BY","2019/08/05 20:29:38","新北市深坑區深坑街27號","121.615881666667","25.0023116666667","6501800","深坑區"
"222002","659-BX","2019/08/05 20:28:32","新北市深坑區萬福路16巷36-1號","121.61093","25.00801","6501800","深坑區"
"231061","002-UM","2019/08/05 20:29:37","新北市新店區安興路33-1號","121.51594","24.9707166666667","6500600","新店區"
"231055","0291-UT","2019/08/05 20:29:36","新北市新店區光明街145號","121.539305","24.9622516666667","6500600","新店區"
"231058","0293-UT","2019/08/05 20:29:38","新北市新店區中央路17號","121.533291666667","24.978305","6500600","新店區"
"231044","046-UY","2019/08/05 20:29:39","新北市新店區民族路61號","121.53978","24.97838","6500600","新店區"
"231060","106-UY","2019/08/05 20:29:29","新北市新店區錦秀路11巷96弄2號","121.48016","24.9421883333333","6500600","新店區"
"231051","107-UY","2019/08/05 20:29:34","新北市新店區中央七街40號","121.528918333333","24.975655","6500600","新店區"
"231049","108-UY","2019/08/05 20:29:50","新北市新店區永業路81巷1弄10號","121.53016","24.9499083333333","6500600","新店區"
"231065","110-UY","2019/08/05 20:29:39","新北市新店區安祥路102巷46弄66號","121.486876666667","24.963305","6500600","新店區"
"231068","187-VK","2019/08/05 20:29:41","新北市新店區民權路10號","121.542326666667","24.9829133333333","6500600","新店區"
"231050","KEA-2219","2019/08/05 20:29:41","新北市新店區建興街7號","121.53995","24.9764483333333","6500600","新店區"
"231062","256-BX","2019/08/05 20:29:40","新北市新店區安泰路60巷51號","121.483871666667","24.94582","6500600","新店區"
"231054","260-TV","2019/08/05 20:29:30","新北市新店區檳榔路109號","121.54451","24.9617216666667","6500600","新店區"
"231042","268-BY","2019/08/05 20:29:47","新北市新店區寶橋路230號","121.551555","24.9788266666667","6500600","新店區"
"231064","278-BY","2019/08/05 20:29:37","新北市新店區新和街59巷17號","121.519351666667","24.9859983333333","6500600","新店區"
"231045","355-BY","2019/08/05 20:29:34","新北市新店區新坡一街58-3號","121.550068333333","24.96383","6500600","新店區"
"231056","4715-K9","2019/08/05 20:29:30","新北市新店區中正路347號","121.535413333333","24.9759083333333","6500600","新店區"
"231067","4772-VM","2019/08/05 20:29:33","新北市新店區安華路28-1號","121.519661666667","24.9608866666667","6500600","新店區"
"231052","513-UM","2019/08/05 20:29:39","新北市新店區松林路38號","121.546318333333","24.9102216666667","6500600","新店區"
"231041","619-UM","2019/08/05 20:29:40","新北市新店區民權路105號","121.536481666667","24.9826916666667","6500600","新店區"
"231063","641-BX","2019/08/05 20:29:42","新北市新店區玫瑰路4-1號","121.493531666667","24.95142","6500600","新店區"
"231047","KED-0819","2019/08/05 20:29:42","新北市新店區寶元路一段61號","121.542156666667","24.9858583333333","6500600","新店區"
"231057","720-UM","2019/08/05 20:29:28","新北市新店區花園六路二段7號","121.555565","24.933345","6500600","新店區"
"231059","897-TW","2019/08/05 20:29:39","新北市新店區安德街151號","121.508321666667","24.9598","6500600","新店區"
"231040","898-TW","2019/08/05 20:29:30","新北市新店區三民路147-1號","121.534028333333","24.9730266666667","6500600","新店區"
"231043","899-TW","2019/08/05 20:29:43","新北市新店區民族路39號","121.540711666667","24.97849","6500600","新店區"
"231066","AKT-0513","2019/08/05 20:29:29","新北市新店區安民街230號","121.517496666667","24.972665","6500600","新店區"
"241028","022-UY","2019/08/05 20:29:38","新北市三重區光興街91號","121.497383333333","25.0599533333333","6500200","三重區"
"241008","059-VK","2019/08/05 20:29:43","新北市三重區下竹圍街91號","121.48119","25.07479","6500200","三重區"
"241002","060-VK","2019/08/05 20:29:32","新北市三重區仁義街167巷40號","121.498773333333","25.0826416666667","6500200","三重區"
"241031","061-VK","2019/08/05 20:29:44","新北市三重區三寧街15號","121.489426666667","25.0596616666667","6500200","三重區"
"241017","063-VK","2019/08/05 20:29:43","新北市三重區自強路一段288號","121.491663333333","25.0681733333333","6500200","三重區"
"241024","065-VK","2019/08/05 20:29:31","新北市三重區忠孝路三段15巷14號","121.480895","25.0676016666667","6500200","三重區"
"241011","066-VK","2019/08/05 20:29:39","新北市三重區龍門路29號","121.49562","25.0720616666667","6500200","三重區"
"241003","091-VK","2019/08/05 20:29:51","新北市三重區富華街134號","121.492066666667","25.0841833333333","6500200","三重區"
"241015","742-BX","2019/08/05 20:29:42","新北市三重區文化北路43巷7號","121.49925","25.06542","6500200","三重區"
"241006","262-UM","2019/08/05 20:29:44","新北市三重區車路頭街139巷12號","121.484271666667","25.0763783333333","6500200","三重區"
"241009","267-UM","2019/08/05 20:29:39","新北市三重區永福街77號","121.48023","25.0774983333333","6500200","三重區"
"241018","268-UM","2019/08/05 20:29:38","新北市三重區正義北路216巷4號","121.49592","25.0674283333333","6500200","三重區"
"241032","269-UM","2019/08/05 20:29:38","新北市三重區重陽路一段120巷35號","121.485095","25.0601783333333","6500200","三重區"
"241013","270-UM","2019/08/05 20:29:45","新北市三重區溪尾街5巷45號","121.493333333333","25.07491","6500200","三重區"
"241025","271-UM","2019/08/05 20:29:51","新北市三重區頂崁街210巷27號","121.47579","25.0682183333333","6500200","三重區"
"241007","398-BY","2019/08/05 20:29:44","新北市三重區溪尾街108巷2號","121.489278333333","25.0787583333333","6500200","三重區"
"241030","KED-0822","2019/08/05 20:29:28","新北市三重區成功路145巷11號","121.48734","25.0526016666667","6500200","三重區"
"241035","462-BY","2019/08/05 20:29:32","新北市三重區正義北路132號","121.49679","25.0656966666667","6500200","三重區"
"241004","475-VK","2019/08/05 20:29:49","新北市三重區溪尾街191號","121.488733333333","25.0805216666667","6500200","三重區"
"241020","478-VK","2019/08/05 20:29:41","新北市三重區明德街61號","121.491968333333","25.0720933333333","6500200","三重區"
"241026","480-VK","2019/08/05 20:29:41","新北市三重區環河南路23號","121.503426666667","25.06239","6500200","三重區"
"241014","543-UM","2019/08/05 20:29:35","新北市三重區龍濱路64號","121.502486666667","25.0692966666667","6500200","三重區"
"241023","545-UM","2019/08/05 20:29:45","新北市三重區自由街14號","121.479893333333","25.066415","6500200","三重區"
"241001","547-UM","2019/08/05 20:29:39","新北市三重區福隆路7號","121.489605","25.077045","6500200","三重區"
"241019","KEA-2593","2019/08/05 20:29:40","新北市三重區大智街137-1號","121.490985","25.0706866666667","6500200","三重區"
"241005","AAD-863","2019/08/05 20:29:29","新北市三重區碧華街426號","121.492473333333","25.0853933333333","6500200","三重區"
"241022","KED-0820","2019/08/05 20:29:42","新北市三重區中正北路20巷12號","121.488","25.0626066666667","6500200","三重區"
"241016","887-TS","2019/08/05 20:29:38","新北市三重區長壽西街94號","121.495901666667","25.06695","6500200","三重區"
"241012","941-UM","2019/08/05 20:29:46","新北市三重區龍濱路269號","121.501361666667","25.07313","6500200","三重區"
"241029","942-UM","2019/08/05 20:29:38","新北市三重區集美街212號","121.490831666667","25.0543733333333","6500200","三重區"
"241033","AAC-255","2019/08/05 20:29:51","新北市三重區五谷王北街86號","121.476065","25.05342","6500200","三重區"
"235066","003-UY","2019/08/05 20:29:41","新北市中和區保平路362巷13號","121.50573","25.00382","6500300","中和區"
"247014","KEA-2869","2019/08/05 20:29:29","新北市蘆洲區中山一路278號","121.471355","25.07926","6501400","蘆洲區"
"247008","KED-0682","2019/08/05 20:29:44","新北市蘆洲區永安北路二段76巷12-1號","121.483173333333","25.0850683333333","6501400","蘆洲區"
"235050","4979-A6","2019/08/05 20:29:41","新北市中和區景新街160巷19號","121.504956666667","24.9965983333333","6500300","中和區"
"235069","4980-A6","2019/08/05 20:29:45","新北市中和區中正路432巷28號","121.490888333333","24.99562","6500300","中和區"
"235059","AAC-215","2019/08/05 20:29:28","新北市中和區員山路8-6號","121.484896666667","24.9812183333333","6500300","中和區"
"247004","893-R6","2019/08/05 20:29:45","新北市蘆洲區長安街295號","121.45814","25.08482","6501400","蘆洲區"
"247018","546-UM","2019/08/05 20:29:39","新北市蘆洲區民族路327巷13弄1號","121.474813333333","25.0905533333333","6501400","蘆洲區"
"247024","337-TH","2019/08/05 20:29:18","新北市蘆洲區光復路70巷25號","121.464901666667","25.0849783333333","6501400","蘆洲區"
"247002","336-TH","2019/08/05 20:29:42","新北市蘆洲區長安街347巷32號","121.455351666667","25.08709","6501400","蘆洲區"
"247022","057-VK","2019/08/05 20:29:44","新北市蘆洲區中正路227號","121.468031666667","25.086525","6501400","蘆洲區"
"247012","056-VK","2019/08/05 20:29:41","新北市蘆洲區復興路231號","121.479986666667","25.089725","6501400","蘆洲區"
"247016","053-VK","2019/08/05 20:29:39","新北市蘆洲區光華路52號","121.468555","25.0830583333333","6501400","蘆洲區"
"247020","007-UY","2019/08/05 20:29:46","新北市蘆洲區水湳街395號","121.469408333333","25.0945","6501400","蘆洲區"
"247006","002-UY","2019/08/05 20:29:46","新北市蘆洲區和平路121巷8弄43號","121.465791666667","25.0807466666667","6501400","蘆洲區"
"228003","097-TW","2019/08/05 20:29:45","新北市貢寮區雙玉里學苑街2號","121.914305","25.0215783333333","6502600","貢寮區"
"222001","KEA-2212","2019/08/05 20:29:46","新北市深坑區北深路三段345號","121.597236666667","25.0052166666667","6501800","深坑區"
"251009","008-UM","2019/08/05 20:29:41","新北市淡水區中山北路二段375號","121.444248333333","25.1870716666667","6501000","淡水區"
"251001","011-UM","2019/08/05 20:29:37","新北市淡水區新市一路三段16號","121.4452","25.1829783333333","6501000","淡水區"
"251010","012-UM","2019/08/05 20:29:34","新北市淡水區沙崙路181巷15號","121.424001666667","25.184435","6501000","淡水區"
"251015","KEA-2871","2019/08/05 20:29:49","新北市淡水區埤島3-17號","121.447136666667","25.1903366666667","6501000","淡水區"
"251016","179-VK","2019/08/05 20:29:38","新北市淡水區新埔子11-1號","121.447371666667","25.228515","6501000","淡水區"
"251013","180-VK","2019/08/05 20:29:42","新北市淡水區後坑子6號","121.463518333333","25.206565","6501000","淡水區"
"251008","181-VK","2019/08/05 20:29:30","新北市淡水區淡海路206巷20號","121.42155","25.1855333333333","6501000","淡水區"
"251012","441-VK","2019/08/05 20:29:34","新北市淡水區頂田寮路37號","121.455416666667","25.2163083333333","6501000","淡水區"
"251006","561-UM","2019/08/05 20:29:36","新北市淡水區商工路356號","121.468683333333","25.1853733333333","6501000","淡水區"
"251014","577-R6","2019/08/05 20:29:38","新北市淡水區石頭厝13-3號","121.463218333333","25.2366033333333","6501000","淡水區"
"251002","672-BX","2019/08/05 20:29:31","新北市淡水區中正路118號","121.441463333333","25.1695766666667","6501000","淡水區"
"251003","766-UM","2019/08/05 20:29:48","新北市淡水區新民街21號","121.43936","25.1751966666667","6501000","淡水區"
"207004","225-TW","2019/08/05 20:29:30","新北市萬里區北基里孝一街9號","121.684335","25.1770266666667","6502800","萬里區"
"252002","178-VK","2019/08/05 20:29:39","新北市三芝區淡金路二段47-2號","121.50367","25.2605666666667","6502100","三芝區"
"247010","KED-0683","2019/08/05 20:29:42","新北市蘆洲區信義路224號","121.478941666667","25.0852866666667","6501400","蘆洲區"
"252001","KED-0821","2019/08/05 20:29:28","新北市三芝區中山路一段35號","121.500595","25.2579066666667","6502100","三芝區"
"242039","AAC-296","2019/08/05 20:29:37","新北市新莊區民安路294號","121.428083333333","25.0217366666667","6500500","新莊區"
"242060","986-R7","2019/08/05 20:29:40","新北市新莊區新樹路244巷46號","121.431278333333","25.0191683333333","6500500","新莊區"
"242002","751-BX","2019/08/05 20:29:45","新北市新莊區中正路78-1號","121.458538333333","25.0378233333333","6500500","新莊區"
"242029","615-BX","2019/08/05 20:29:41","新北市新莊區昌隆街10號","121.45319","25.0508216666667","6500500","新莊區"
"242058","612-BX","2019/08/05 20:29:42","新北市新莊區四維路183號","121.422161666667","25.0211316666667","6500500","新莊區"
"242046","566-BX","2019/08/05 20:29:47","新北市新莊區裕民街72巷5號","121.418256666667","25.0242033333333","6500500","新莊區"
"242056","441-UM","2019/08/05 20:29:42","新北市新莊區新莊路751巷50號","121.442741666667","25.031545","6500500","新莊區"
"242004","440-UM","2019/08/05 20:29:38","新北市新莊區頭前路30號","121.467541666667","25.05248","6500500","新莊區"
"242042","415-TV","2019/08/05 20:29:44","新北市新莊區中正路694巷77號","121.417036666667","25.0296383333333","6500500","新莊區"
"242011","413-TV","2019/08/05 20:29:47","新北市新莊區中義街35號","121.450101666667","25.0510683333333","6500500","新莊區"
"242048","400-BY","2019/08/05 20:29:42","新北市新莊區龍安路256號","121.421346666667","25.0194716666667","6500500","新莊區"
"242025","362-BY","2019/08/05 20:29:48","新北市新莊區五工二路62巷15號","121.461035","25.0661266666667","6500500","新莊區"
"242023","353-BY","2019/08/05 20:29:48","新北市新莊區化成路896號","121.464648333333","25.0616166666667","6500500","新莊區"
"242013","132-UY","2019/08/05 20:29:50","新北市新莊區中平路270巷7弄54號","121.446193333333","25.05092","6500500","新莊區"
"242036","135-UY","2019/08/05 20:29:37","新北市新莊區後港一路76巷10弄2號","121.427165","25.026085","6500500","新莊區"
"242053","172-VK","2019/08/05 20:29:48","新北市新莊區民安西路245巷1號","121.42627","25.0137583333333","6500500","新莊區"
"242015","173-VK","2019/08/05 20:29:50","新北市新莊區中平路26巷23號","121.446096666667","25.0435016666667","6500500","新莊區"
"242021","175-VK","2019/08/05 20:29:42","新北市新莊區公園路36號","121.448771666667","25.0392016666667","6500500","新莊區"
"242019","KED-0687","2019/08/05 20:29:31","新北市新莊區民樂街79號","121.457948333333","25.0429733333333","6500500","新莊區"
"242009","346-TH","2019/08/05 20:29:40","新北市新莊區昌盛街81巷4弄2號","121.455528333333","25.0505366666667","6500500","新莊區"
"242050","347-TH","2019/08/05 20:29:30","新北市新莊區民安西路232號","121.425973333333","25.0142633333333","6500500","新莊區"
"242034","348-TH","2019/08/05 20:29:47","新北市新莊區新泰路185號","121.447445","25.0376833333333","6500500","新莊區"
"242007","349-TH","2019/08/05 20:29:31","新北市新莊區福壽街124巷30號","121.458978333333","25.0513066666667","6500500","新莊區"
"242031","350-TH","2019/08/05 20:28:22","新北市新莊區三和路58-15號","121.43745","25.039455","6500500","新莊區"
"242017","351-TH","2019/08/05 20:29:43","新北市新莊區中港一街44號","121.450628333333","25.0456616666667","6500500","新莊區"
"221008","489-VK","2019/08/05 20:29:40","新北市汐止區康寧街115號","121.620788333333","25.0664933333333","6501100","汐止區"
"221036","130-UY","2019/08/05 20:29:48","新北市汐止區福安街27巷10號","121.663041666667","25.0654666666667","6501100","汐止區"
"221015","131-UY","2019/08/05 20:29:43","新北市汐止區建成路160巷6號","121.661895","25.07361","6501100","汐止區"
"221010","269-BY","2019/08/05 20:29:32","新北市汐止區八連路二段36巷10號","121.637411666667","25.094365","6501100","汐止區"
"221012","278-VK","2019/08/05 20:29:35","新北市汐止區汐平路二段72號","121.699288333333","25.0607166666667","6501100","汐止區"
"221023","279-VK","2019/08/05 20:29:41","新北市汐止區明峰街185號","121.628231666667","25.069675","6501100","汐止區"
"221032","280-BY","2019/08/05 20:29:43","新北市汐止區弘道街53巷12號","121.618728333333","25.0488916666667","6501100","汐止區"
"221027","281-BY","2019/08/05 20:29:36","新北市汐止區中正路226號","121.658136666667","25.0688866666667","6501100","汐止區"
"221029","298-VK","2019/08/05 20:29:35","新北市汐止區樟樹一路129巷31號","121.640535","25.0649233333333","6501100","汐止區"
"221021","299-VK","2019/08/05 20:29:48","新北市汐止區水源路一段286號","121.654238333333","25.0582016666667","6501100","汐止區"
"221031","353-TW","2019/08/05 20:29:34","新北市汐止區中興路150巷1號","121.632475","25.0646016666667","6501100","汐止區"
"221035","622-UM","2019/08/05 20:29:44","新北市汐止區長江街79巷14號","121.657746666667","25.07287","6501100","汐止區"
"221025","623-UM","2019/08/05 20:29:45","新北市汐止區水源路二段86號","121.656525","25.0561933333333","6501100","汐止區"
"221038","646-BX","2019/08/05 20:29:32","新北市汐止區忠孝東路9號","121.657758333333","25.0656816666667","6501100","汐止區"
"221033","647-BX","2019/08/05 20:29:49","新北市汐止區林森街124號","121.624546666667","25.040645","6501100","汐止區"
"221002","707-TV","2019/08/05 20:29:34","新北市汐止區福德二路114號","121.63193","25.06572","6501100","汐止區"
"221018","753-BX","2019/08/05 20:26:32","新北市汐止區茄苳路225巷9弄1號","121.67128","25.0690733333333","6501100","汐止區"
"220079","145-BY","2019/08/05 20:29:51","新北市五股區新五路二段86號","121.437001666667","25.0739316666667","6500100","板橋區"
"220080","200-UY","2019/08/05 20:29:44","新北市新莊區瓊林路59-87號","121.44259","25.02541","6500100","板橋區"
"220083","286-VK","2019/08/05 20:29:44","新北市板橋區僑中二街102巷14號","121.445516666667","25.0084783333333","6500100","板橋區"
"220081","287-VK","2019/08/05 20:29:47","新北市板橋區僑中一街80巷1弄7號","121.447175","25.0118483333333","6500100","板橋區"
"242044","281-VK","2019/08/05 20:29:48","新北市新莊區龍安路66-3號","121.414841666667","25.0214083333333","6500500","新莊區"
