"lineid","car","time","location","longitude","latitude","cityid","cityname"
"231061","002-UM","2019/08/05 20:59:37","新北市新店區永安街64號","121.519458333333","24.9868966666667","6500600","新店區"
"231060","106-UY","2019/08/05 20:59:29","新北市新店區安康路三段527號","121.482213333333","24.9472633333333","6500600","新店區"
"231051","107-UY","2019/08/05 20:59:34","新北市新店區中正路663巷1弄2號","121.533001666667","24.9900316666667","6500600","新店區"
"231049","108-UY","2019/08/05 20:59:30","新北市新店區安光路16號","121.513683333333","24.9647566666667","6500600","新店區"
"231065","110-UY","2019/08/05 20:59:39","新北市新店區安祥路67巷28弄47號","121.483773333333","24.9592066666667","6500600","新店區"
"231068","187-VK","2019/08/05 20:59:41","新北市新店區寶元路二段31巷2號","121.546798333333","24.981705","6500600","新店區"
"231050","KEA-2219","2019/08/05 20:59:41","新北市新店區三民路75巷3弄1號","121.535743333333","24.9710533333333","6500600","新店區"
"231062","256-BX","2019/08/05 20:59:47","新北市新店區雙城路4巷3號","121.491066666667","24.950825","6500600","新店區"
"231054","260-TV","2019/08/05 20:59:30","新北市新店區中興路一段274號","121.545385","24.9682433333333","6500600","新店區"
"231042","268-BY","2019/08/05 20:59:46","新北市新店區寶興路60巷3號","121.549928333333","24.9717933333333","6500600","新店區"
"231064","278-BY","2019/08/05 20:59:37","新北市新店區安民街121巷12號","121.51563","24.9692","6500600","新店區"
"231063","641-BX","2019/08/05 20:59:42","新北市新店區玫瑰路38號","121.495826666667","24.9499116666667","6500600","新店區"
"231059","897-TW","2019/08/05 20:59:39","新北市新店區僑信路114巷42號","121.499178333333","24.946275","6500600","新店區"
"231040","898-TW","2019/08/05 20:59:51","新北市新店區中正路137號","121.54176","24.9714433333333","6500600","新店區"
"231043","899-TW","2019/08/05 20:59:43","新北市新店區民族路173號","121.537516666667","24.9765733333333","6500600","新店區"
"231066","AKT-0513","2019/08/05 20:59:49","新北市新店區吉安街21號","121.516153333333","24.9658516666667","6500600","新店區"
"241028","022-UY","2019/08/05 20:59:38","新北市三重區正義南路47號","121.498218333333","25.06077","6500200","三重區"
"241008","059-VK","2019/08/05 20:59:43","新北市三重區車路頭街128號","121.484251666667","25.0752916666667","6500200","三重區"
"241002","060-VK","2019/08/05 20:59:32","新北市三重區五華街1巷36號","121.496273333333","25.0800933333333","6500200","三重區"
"241031","061-VK","2019/08/05 20:59:44","新北市三重區重陽路一段113巷2弄1號","121.487601666667","25.0598766666667","6500200","三重區"
"241017","063-VK","2019/08/05 20:59:43","新北市三重區國隆路30-1號","121.4921","25.0644966666667","6500200","三重區"
"241024","065-VK","2019/08/05 20:59:31","新北市三重區大勇街82巷15弄30號","121.481281666667","25.07198","6500200","三重區"
"241011","066-VK","2019/08/05 20:59:32","新北市三重區秀江街117號","121.499728333333","25.0721866666667","6500200","三重區"
"241003","091-VK","2019/08/05 20:59:31","新北市三重區五華街141巷58號","121.493558333333","25.0868016666667","6500200","三重區"
"241015","742-BX","2019/08/05 20:59:42","新北市三重區三和路二段8號","121.501031666667","25.06693","6500200","三重區"
"241006","262-UM","2019/08/05 20:59:44","新北市三重區永福街64-1號","121.48062","25.077755","6500200","三重區"
"241009","267-UM","2019/08/05 20:59:39","新北市三重區車路頭街129號","121.484186666667","25.0757566666667","6500200","三重區"
"241018","268-UM","2019/08/05 20:59:38","新北市三重區雙園街99號","121.493805","25.06729","6500200","三重區"
"241032","269-UM","2019/08/05 20:59:38","新北市三重區興華街145號","121.482858333333","25.0598916666667","6500200","三重區"
"241013","270-UM","2019/08/05 20:59:45","新北市三重區仁愛街129巷2號","121.495673333333","25.0749416666667","6500200","三重區"
"241025","271-UM","2019/08/05 20:59:31","新北市三重區貴陽街14號","121.484086666667","25.0617816666667","6500200","三重區"
"241007","398-BY","2019/08/05 20:59:44","新北市三重區慈愛街10號","121.484525","25.0785416666667","6500200","三重區"
"241030","KED-0822","2019/08/05 20:59:48","新北市三重區中正南路269號","121.493278333333","25.0522583333333","6500200","三重區"
"241004","475-VK","2019/08/05 20:59:49","新北市三重區仁愛街423-1號","121.490396666667","25.0814383333333","6500200","三重區"
"241020","478-VK","2019/08/05 20:59:41","新北市三重區忠孝路二段34號","121.485863333333","25.0710466666667","6500200","三重區"
"241026","480-VK","2019/08/05 20:59:41","新北市三重區文化南路51號","121.500263333333","25.061285","6500200","三重區"
"241014","543-UM","2019/08/05 20:59:35","新北市三重區長壽街120巷11號","121.502515","25.06906","6500200","三重區"
"241023","545-UM","2019/08/05 20:59:45","新北市三重區洛陽街45巷13號","121.482393333333","25.06375","6500200","三重區"
"241001","547-UM","2019/08/05 20:59:39","新北市三重區自強路三段79號","121.48729","25.0743816666667","6500200","三重區"
"241019","KEA-2593","2019/08/05 20:59:40","新北市三重區自強路二段74巷5號","121.488285","25.0701233333333","6500200","三重區"
"241005","AAD-863","2019/08/05 20:59:29","新北市三重區三信路182號","121.488065","25.0861433333333","6500200","三重區"
"241022","KED-0820","2019/08/05 20:59:37","新北市三重區中正北路20巷12號","121.487988333333","25.0624916666667","6500200","三重區"
"241016","887-TS","2019/08/05 20:59:38","新北市三重區正義北路81號","121.49711","25.0650616666667","6500200","三重區"
"241012","941-UM","2019/08/05 20:59:46","新北市三重區仁和街140號","121.50131","25.075465","6500200","三重區"
"241029","942-UM","2019/08/05 20:59:38","新北市三重區正義南路111號","121.49826","25.0585433333333","6500200","三重區"
"241033","AAC-255","2019/08/05 20:59:37","新北市三重區光復路二段1號","121.47227","25.053265","6500200","三重區"
"247014","KEA-2869","2019/08/05 20:59:49","新北市蘆洲區中山二路46巷30號","121.475286666667","25.0824816666667","6501400","蘆洲區"
"247008","KED-0682","2019/08/05 20:59:44","新北市蘆洲區民生街123號","121.47284","25.0789666666667","6501400","蘆洲區"
"235069","4980-A6","2019/08/05 20:59:45","新北市中和區中正路637巷17號","121.484915","24.99462","6500300","中和區"
"235018","640-BX","2019/08/05 20:57:30","新北市中和區員山路36巷16-2號","121.485266666667","24.991625","6500300","中和區"
"247004","893-R6","2019/08/05 20:59:45","新北市蘆洲區永安南路二段268號","121.45877","25.08066","6501400","蘆洲區"
"247018","546-UM","2019/08/05 20:59:39","新北市蘆洲區民權路144號","121.47288","25.0892466666667","6501400","蘆洲區"
"247024","337-TH","2019/08/05 20:59:38","新北市蘆洲區長興路213號","121.461148333333","25.0863883333333","6501400","蘆洲區"
"247002","336-TH","2019/08/05 20:59:42","新北市蘆洲區永樂街38巷69號","121.458545","25.0905316666667","6501400","蘆洲區"
"247022","057-VK","2019/08/05 20:59:44","新北市蘆洲區中正路263巷2號","121.467343333333","25.087405","6501400","蘆洲區"
"247012","056-VK","2019/08/05 20:59:41","新北市蘆洲區民權路6號","121.476853333333","25.0854766666667","6501400","蘆洲區"
"247016","053-VK","2019/08/05 20:59:39","新北市蘆洲區正和街94號","121.468135","25.0808033333333","6501400","蘆洲區"
"247020","007-UY","2019/08/05 20:59:46","新北市蘆洲區民族路371號","121.471156666667","25.0912433333333","6501400","蘆洲區"
"247006","002-UY","2019/08/05 20:59:46","新北市蘆洲區永安南路二段16巷5號","121.467758333333","25.0771633333333","6501400","蘆洲區"
"251005","010-UM","2019/08/05 20:59:44","新北市淡水區學府路51巷2弄16號","121.448005","25.17006","6501000","淡水區"
"251001","011-UM","2019/08/05 20:59:36","新北市淡水區北投子14-5號","121.448866666667","25.1832666666667","6501000","淡水區"
"251010","012-UM","2019/08/05 20:59:34","新北市淡水區中正路一段116-3號","121.423866666667","25.1786966666667","6501000","淡水區"
"251015","KEA-2871","2019/08/05 20:59:36","新北市淡水區淡金路四段542巷17號","121.452843333333","25.2270633333333","6501000","淡水區"
"251016","179-VK","2019/08/05 20:59:38","新北市淡水區牛埔子11-1號","121.450145","25.2184383333333","6501000","淡水區"
"251013","180-VK","2019/08/05 20:59:42","新北市淡水區番子厝13號","121.46139","25.201445","6501000","淡水區"
"251012","441-VK","2019/08/05 20:59:34","新北市淡水區淡金路五段116-1號","121.456548333333","25.2369283333333","6501000","淡水區"
"251007","442-VK","2019/08/05 20:59:46","新北市淡水區仁愛街2巷10號","121.446313333333","25.1707266666667","6501000","淡水區"
"251014","577-R6","2019/08/05 20:59:38","新北市淡水區溪口7-3號","121.455675","25.23659","6501000","淡水區"
"251011","650-BX","2019/08/05 20:59:39","新北市淡水區新春街2號","121.436231666667","25.1809","6501000","淡水區"
"251002","672-BX","2019/08/05 20:59:31","新北市淡水區英專路76號","121.445748333333","25.171205","6501000","淡水區"
"251003","766-UM","2019/08/05 20:59:48","新北市淡水區新春街137號","121.44208","25.1817733333333","6501000","淡水區"
"247010","KED-0683","2019/08/05 20:59:42","新北市蘆洲區鷺江街70號","121.476973333333","25.083715","6501400","蘆洲區"
"242056","441-UM","2019/08/05 20:58:22","新北市五股區中直路17-3號","121.422113333333","25.1115883333333","6500500","新莊區"
"242034","348-TH","2019/08/05 20:59:29","新北市新莊區中正路289號","121.448655","25.0352633333333","6500500","新莊區"
