"lineid","car","time","location","longitude","latitude","cityid","cityname"
"247016","053-VK","2019/08/05 22:19:39","新北市五股區中興路三段163號","121.4493","25.0807266666667","6501400","蘆洲區"
"251004","009-UM","2019/08/05 22:19:35","新北市淡水區民族路33號","121.462273333333","25.1358016666667","6501000","淡水區"
"251010","012-UM","2019/08/05 22:19:34","新北市淡水區沙崙路200號","121.424691666667","25.1838783333333","6501000","淡水區"
"251008","181-VK","2019/08/05 22:19:47","新北市淡水區學府路104號","121.449936666667","25.1718833333333","6501000","淡水區"
"251007","442-VK","2019/08/05 22:19:50","新北市淡水區北新路180號","121.449481666667","25.178705","6501000","淡水區"
"251011","650-BX","2019/08/05 22:19:38","新北市淡水區水碓街7號","121.443183333333","25.1771616666667","6501000","淡水區"
