"lineid","car","time","location","longitude","latitude","cityid","cityname"
"244005","248-BX","2019/09/28 08:49:35","新北市八里區中華路三段98-1號","121.39268","25.1375783333333","6501700","林口區"
"222007","289-BY","2019/09/28 08:49:35","新北市深坑區王軍寮1-10號","121.61765","24.9889266666667","6501800","深坑區"
"231007","189-VK","2019/09/28 08:49:31","新北市新店區新潭路一段160巷17號","121.52964","24.93226","6500600","新店區"
"231008","192-VK","2019/09/28 08:49:32","新北市新店區新烏路三段286號","121.549775","24.8983216666667","6500600","新店區"
"226005","5620-A6","2019/09/28 08:49:30","新北市平溪區十分里十分街212號","121.779438333333","25.0442116666667","6502400","平溪區"
"226007","APG-9813","2019/09/28 08:49:18","新北市平溪區東勢里芊蓁坑30號","121.727433333333","24.979205","6502400","平溪區"
"226003","AGD-0702","2019/09/28 08:49:28","新北市平溪區十分里十分街252號","121.77818","25.04489","6502400","平溪區"
"223003","205-TH","2019/09/28 08:49:32","新北市石碇區北宜路六段柑腳巷2號","121.65959","24.9380483333333","6501900","石碇區"
"223008","406-TH","2019/09/28 08:49:18","新北市石碇區光明路頂紙寮坑巷1號","121.681021666667","25.027545","6501900","石碇區"
"223004","437-BY","2019/09/28 08:49:23","新北市石碇區崩山47號","121.678505","24.9705116666667","6501900","石碇區"
"223001","592-UM","2019/09/28 08:49:23","新北市石碇區北宜路六段柑腳巷2號","121.659586666667","24.938105","6501900","石碇區"
"223007","661-BX","2019/09/28 08:49:19","新北市石碇區碇南路二段鹿窟巷8號","121.670276666667","25.026715","6501900","石碇區"
"223005","677-TV","2019/09/28 08:49:36","新北市石碇區崩山43號","121.679901666667","24.9665616666667","6501900","石碇區"
"227004","282-VK","2019/09/28 08:49:22","新北市雙溪區上林里大瀨1號","121.83","25.0251416666667","6502500","雙溪區"
"252004","249-BX","2019/09/28 08:49:20","新北市三芝區興華里田心子12-2號","121.492666666667","25.2058366666667","6502100","三芝區"
"252007","AAC-283","2019/09/28 08:49:22","新北市三芝區後厝里北勢子35號","121.478188333333","25.247675","6502100","三芝區"
"237014","760-BX","2019/09/28 08:49:33","新北市三峽區金敏3號","121.383206666667","24.8755083333333","6500900","三峽區"
"233003","KEA-2870","2019/09/28 08:49:33","新北市烏來區卡拉模基20號","121.502926666667","24.78012","6502900","烏來區"
