"lineid","car","time","location","longitude","latitude","cityid","cityname"
"222007","289-BY","2019/09/28 09:59:35","新北市深坑區深南路162號","121.62544","25.0150116666667","6501800","深坑區"
"231007","189-VK","2019/09/28 09:59:31","新北市新店區新潭路三段15號","121.508458333333","24.9147766666667","6500600","新店區"
"231008","192-VK","2019/09/28 09:59:32","新北市新店區小坑一路21-1號","121.530341666667","24.9112466666667","6500600","新店區"
"227004","282-VK","2019/09/28 09:59:22","新北市雙溪區長源里盤山坑13號","121.772846666667","24.9960883333333","6502500","雙溪區"
"252004","249-BX","2019/09/28 09:59:20","新北市三芝區錫板里棟板頭24號","121.514448333333","25.2281716666667","6502100","三芝區"
"252007","AAC-283","2019/09/28 09:59:22","新北市三芝區新庄里新庄子51-25號","121.507526666667","25.2780783333333","6502100","三芝區"
