"lineid","car","time","location","longitude","latitude","cityid","cityname"
"234044","148-BY","2019/09/28 13:39:25","新北市永和區永利路147號","121.524401666667","25.003565","6500400","永和區"
"234078","298-R6","2019/09/28 13:39:22","新北市永和區林森路20巷5號","121.525888333333","25.0056066666667","6500400","永和區"
"234036","336-UY","2019/09/28 13:39:28","新北市永和區民樂街31巷6弄2號","121.528063333333","25.0012616666667","6500400","永和區"
"234062","337-UY","2019/09/28 13:39:27","新北市永和區秀朗路二段24巷28弄14號","121.519533333333","25.00197","6500400","永和區"
"234084","338-UY","2019/09/28 13:39:21","新北市永和區永亨路165巷10號","121.52625","25.0042216666667","6500400","永和區"
"234068","552-UM","2019/09/28 13:39:33","新北市永和區永和路二段233號","121.51552","25.014225","6500400","永和區"
"234015","745-BX","2019/09/28 13:39:35","新北市永和區忠孝街26巷27弄1號","121.515231666667","25.0169583333333","6500400","永和區"
"234028","746-BX","2019/09/28 13:39:32","新北市永和區民生路37巷18號","121.523626666667","24.99795","6500400","永和區"
"234052","KEA-2590","2019/09/28 13:39:19","新北市永和區竹林路39巷21號","121.518988333333","25.0147833333333","6500400","永和區"
"234005","KED-0605","2019/09/28 13:39:31","新北市永和區中山路一段23號","121.51365","25.0103916666667","6500400","永和區"
"234012","KEA-2591","2019/09/28 13:39:33","新北市永和區永平路246號","121.508606666667","25.0110833333333","6500400","永和區"
"234060","AAD-866","2019/09/28 13:39:24","新北市永和區中正路456號","121.51745","25.0029366666667","6500400","永和區"
"234040","862-TW","2019/09/28 13:39:35","新北市永和區中和路573號","121.511918333333","25.0036033333333","6500400","永和區"
"234048","863-TW","2019/09/28 13:39:36","新北市永和區文化路210號","121.510125","25.0166066666667","6500400","永和區"
"234025","9371-KE","2019/09/28 13:39:33","新北市永和區永和路一段125號","121.513928333333","25.008305","6500400","永和區"
"234010","9373-KE","2019/09/28 13:39:19","新北市永和區保福路二段20號","121.510973333333","25.0114716666667","6500400","永和區"
"248017","KED-0813","2019/09/28 13:39:39","新北市五股區民義路二段48巷1-6號","121.414031666667","25.1024866666667","6501500","五股區"
"234022","9380-KE","2019/09/28 13:39:17","新北市永和區中正路702巷18號","121.516431666667","25.0105766666667","6500400","永和區"
"234076","969-R7","2019/09/28 13:39:32","新北市永和區民族街43巷13號","121.519163333333","24.998425","6500400","永和區"
"234072","AAC-211","2019/09/28 13:39:31","新北市永和區竹林路213巷6號","121.521225","25.0088183333333","6500400","永和區"
"234066","AAC-212","2019/09/28 13:39:34","新北市永和區中山路一段197號","121.508983333333","25.008785","6500400","永和區"
"234001","AAC-295","2019/09/28 13:39:27","新北市永和區永和路一段105號","121.513775","25.0078216666667","6500400","永和區"
"244005","248-BX","2019/09/28 13:39:32","新北市林口區中湖48-21號","121.379998333333","25.0933016666667","6501700","林口區"
"231030","002-UM","2019/09/28 13:39:36","新北市新店區安康路一段222-3號","121.522533333333","24.9637416666667","6500600","新店區"
"231024","0291-UT","2019/09/28 13:38:37","新北市新店區中華路139號","121.538456666667","24.969985","6500600","新店區"
"231005","046-UY","2019/09/28 13:39:21","新北市新店區寶橋路132號","121.547346666667","24.9761033333333","6500600","新店區"
"231029","106-UY","2019/09/28 13:39:24","新北市新店區安康路二段310號","121.505695","24.95807","6500600","新店區"
"231018","107-UY","2019/09/28 13:39:29","新北市新店區百忍街12號","121.534723333333","24.9756466666667","6500600","新店區"
"231013","108-UY","2019/09/28 13:39:32","新北市新店區中正路454-5號","121.53453","24.97904","6500600","新店區"
"231036","110-UY","2019/09/28 13:39:36","新北市新店區安祥路147巷36號","121.476","24.956635","6500600","新店區"
"231033","256-BX","2019/09/28 13:39:32","新北市新店區莒光路85巷1號","121.52333","24.9563433333333","6500600","新店區"
"231023","260-TV","2019/09/28 13:39:24","新北市新店區新店路122號","121.537108333333","24.9549283333333","6500600","新店區"
"231003","268-BY","2019/09/28 13:39:36","新北市新店區光明街127號","121.539158333333","24.9619033333333","6500600","新店區"
"231035","278-BY","2019/09/28 13:39:24","新北市新店區安忠路86號","121.511948333333","24.95858","6500600","新店區"
"231017","AAD-862","2019/09/28 13:39:34","新北市新店區竹林路2巷29弄1號","121.550046666667","24.950545","6500600","新店區"
"231006","355-BY","2019/09/28 13:39:37","新北市新店區北新路一段35號","121.537936666667","24.9591483333333","6500600","新店區"
"231038","3712-VJ","2019/09/28 13:39:24","新北市新店區安華路30巷3號","121.519575","24.95921","6500600","新店區"
"231027","3713-VJ","2019/09/28 13:39:33","新北市新店區國校路70號","121.538391666667","24.953185","6500600","新店區"
"231025","4715-K9","2019/09/28 13:39:29","新北市新店區中央五街37號","121.528643333333","24.9749666666667","6500600","新店區"
"231020","512-UM","2019/09/28 13:39:29","新北市新店區永興路88-1號","121.544061666667","24.9336983333333","6500600","新店區"
"231002","619-UM","2019/09/28 13:37:14","新北市新店區中央一街2號","121.528813333333","24.9723533333333","6500600","新店區"
"231034","641-BX","2019/09/28 13:39:39","新北市新店區車子路109號","121.50521","24.9521166666667","6500600","新店區"
"231046","719-UM","2019/09/28 13:39:29","新北市新店區中央路137號","121.530215","24.9736783333333","6500600","新店區"
"231026","720-UM","2019/09/28 13:39:33","新北市新店區北新路一段150號","121.542685","24.9706333333333","6500600","新店區"
"231028","897-TW","2019/09/28 13:39:32","新北市新店區安和路一段39號","121.517231666667","24.9653283333333","6500600","新店區"
"231001","898-TW","2019/09/28 13:39:32","新北市新店區中央路75號","121.53247","24.9766883333333","6500600","新店區"
"231004","899-TW","2019/09/28 13:39:22","新北市新店區北新路二段7號","121.542735","24.9713333333333","6500600","新店區"
"231037","AKT-0513","2019/09/28 13:39:32","新北市新店區安康路二段418號","121.496345","24.9551366666667","6500600","新店區"
"235030","003-UY","2019/09/28 13:39:37","新北市中和區水源路34巷2號","121.50469","25.0035533333333","6500300","中和區"
"235027","006-UY","2019/09/28 13:39:34","新北市中和區中正路700號","121.4862","24.9963416666667","6500300","中和區"
"235020","096-UM","2019/09/28 13:39:32","新北市中和區員山路466巷17弄20號","121.480478333333","25.00751","6500300","中和區"
"235003","097-UM","2019/09/28 13:39:27","新北市中和區景平路278巷16弄2號","121.513876666667","24.9932566666667","6500300","中和區"
"235029","098-UM","2019/09/28 13:39:22","新北市中和區莊敬路33巷15號","121.500313333333","25.0069283333333","6500300","中和區"
"235004","150-BY","2019/09/28 13:39:30","新北市中和區安平路59號","121.50967","24.9951583333333","6500300","中和區"
"235022","151-BY","2019/09/28 13:39:19","新北市中和區圓通路316號","121.48648","24.9879016666667","6500300","中和區"
"235019","183-VK","2019/09/28 13:39:35","新北市中和區德光路70號","121.469291666667","25.00394","6500300","中和區"
"235002","185-VK","2019/09/28 13:39:22","新北市中和區大勇街45巷1號","121.518121666667","24.9948416666667","6500300","中和區"
"235031","255-BX","2019/09/28 13:39:19","新北市中和區新生街220巷15弄3號","121.483061666667","24.9982333333333","6500300","中和區"
"235008","293-VK","2019/09/28 13:39:28","新北市中和區復興路280巷1弄2號","121.502231666667","24.99069","6500300","中和區"
"235036","301-VK","2019/09/28 13:39:29","新北市中和區連城路103號","121.496353333333","24.9995866666667","6500300","中和區"
"235007","352-BY","2019/09/28 13:39:35","新北市中和區景平路73-1號","121.518731666667","24.991355","6500300","中和區"
"235006","KEA-2878","2019/09/28 13:39:16","新北市中和區成功路72號","121.525851666667","24.9919183333333","6500300","中和區"
"235014","4979-A6","2019/09/28 13:39:30","新北市中和區忠孝街136號","121.512021666667","24.9867466666667","6500300","中和區"
"235033","4980-A6","2019/09/28 13:39:18","新北市中和區連城路65巷11號","121.497943333333","25.000805","6500300","中和區"
"235034","558-UM","2019/09/28 13:39:25","新北市中和區圓通路9號","121.501636666667","24.9979383333333","6500300","中和區"
"235009","565-BX","2019/09/28 13:39:31","新北市中和區南山路236-2號","121.506206666667","24.9893966666667","6500300","中和區"
"235024","KED-0823","2019/09/28 13:39:22","新北市中和區中山路三段206號","121.471575","25.006545","6500300","中和區"
"235018","640-BX","2019/09/28 13:39:23","新北市中和區自治街32號","121.475036666667","25.003225","6500300","中和區"
"235011","732-UM","2019/09/28 13:39:20","新北市中和區興南路二段3巷1號","121.508106666667","24.9865583333333","6500300","中和區"
"235010","733-UM","2019/09/28 13:39:21","新北市中和區忠孝街101巷1號","121.511753333333","24.98604","6500300","中和區"
"235074","783-BX","2019/09/28 13:39:19","新北市中和區立德街57號","121.487868333333","25.00763","6500300","中和區"
"235021","801-TS","2019/09/28 13:39:37","新北市中和區民安街4號","121.480921666667","25.001075","6500300","中和區"
"235005","802-TS","2019/09/28 13:39:26","新北市中和區中和路458巷6號","121.51234","25.003695","6500300","中和區"
"235016","805-TS","2019/09/28 13:38:53","新北市中和區興南路三段90號","121.49092","24.9738733333333","6500300","中和區"
"235012","896-TW","2019/09/28 13:39:18","新北市中和區中正路83號","121.500661666667","24.9933966666667","6500300","中和區"
"235017","900-TW","2019/09/28 13:39:35","新北市中和區華福街64號","121.466961666667","24.996555","6500300","中和區"
"235028","911-UM","2019/09/28 13:39:22","新北市中和區景平路587-1號","121.497393333333","25.0002983333333","6500300","中和區"
"235015","157-BY","2019/09/28 13:39:26","新北市中和區華新街143巷106弄25號","121.506668333333","24.97827","6500300","中和區"
"235001","AAC-213","2019/09/28 13:39:21","新北市中和區秀朗路三段128巷1弄2號","121.524658333333","24.9923333333333","6500300","中和區"
"235023","AAC-215","2019/09/28 13:39:34","新北市中和區錦和路354巷15號","121.489448333333","24.9915616666667","6500300","中和區"
"220013","072-UY","2019/09/28 13:39:30","新北市板橋區實踐路77號","121.463871666667","25.0061983333333","6500100","板橋區"
"220034","073-UY","2019/09/28 13:39:32","新北市板橋區南雅南路二段118號","121.452433333333","25.0003016666667","6500100","板橋區"
"220017","AAD-861","2019/09/28 13:39:35","新北市板橋區南雅南路二段146號","121.451746666667","24.996145","6500100","板橋區"
"247021","341-TH","2019/09/28 13:39:22","新北市五股區凌雲路一段21號","121.454551666667","25.0989583333333","6501400","蘆洲區"
"247003","336-TH","2019/09/28 13:39:27","新北市蘆洲區中原路31號","121.460055","25.082695","6501400","蘆洲區"
"247013","056-VK","2019/09/28 13:39:31","新北市五股區成泰路三段436號","121.452078333333","25.0995216666667","6501400","蘆洲區"
"247001","001-UY","2019/09/28 13:39:26","新北市五股區中興路三段163號","121.4492","25.080735","6501400","蘆洲區"
"235013","251-BX","2019/09/28 13:39:31","新北市中和區明義街11巷10弄1號","121.503728333333","24.9947883333333","6500300","中和區"
"228005","097-TW","2019/09/28 13:39:26","新北市貢寮區美豐里文秀坑8號","121.902596666667","25.0504966666667","6502600","貢寮區"
"228004","212-TW","2019/09/28 13:39:27","新北市貢寮區龍崗里嵩陽街41-2號","121.907116666667","25.0069233333333","6502600","貢寮區"
"253003","6232-TK","2019/09/28 13:39:32","新北市石門區內石門21-1號","121.571556666667","25.27354","6502200","石門區"
"253004","6251-TK","2019/09/28 13:39:37","新北市石門區草埔尾34-5號","121.602888333333","25.2652183333333","6502200","石門區"
"253002","637-UY","2019/09/28 13:39:34","新北市石門區九芎林36-1號","121.565971666667","25.2530616666667","6502200","石門區"
"253001","KEC-0718","2019/09/28 13:39:18","新北市石門區八甲60-5號","121.526166666667","25.2712083333333","6502200","石門區"
"207002","749-BX","2019/09/28 13:39:20","新北市萬里區崁腳里崁腳路166號","121.645048333333","25.1558133333333","6502800","萬里區"
"207001","662-BX","2019/09/28 13:39:26","新北市萬里區大鵬里萬里加投45-1號","121.641811666667","25.2110333333333","6502800","萬里區"
"252005","AAC-283","2019/09/28 13:39:33","新北市三芝區圓山里木屐寮38-2號","121.531608333333","25.2278183333333","6502100","三芝區"
"236074","166-UM","2019/09/28 13:39:33","新北市土城區福仁街10號","121.440195","24.9761566666667","6501300","土城區"
"247011","KED-0683","2019/09/28 13:39:31","新北市五股區新五路三段8號","121.443903333333","25.0871133333333","6501400","蘆洲區"
"236068","KEA-2877","2019/09/28 13:39:22","新北市土城區城林路6巷80號","121.438701666667","24.9795683333333","6501300","土城區"
"236017","401-BY","2019/09/28 13:39:29","新北市土城區城林路6巷80號","121.43848","24.9798216666667","6501300","土城區"
"236045","913-UM","2019/09/28 13:39:33","新北市土城區城林路6巷80號","121.438485","24.9797066666667","6501300","土城區"
"220027","145-BY","2019/09/28 13:39:28","新北市板橋區大觀路一段35巷1號","121.449538333333","25.0084666666667","6500100","板橋區"
"220028","200-UY","2019/09/28 13:39:17","新北市板橋區大觀路二段435-10號","121.44567","24.9945683333333","6500100","板橋區"
"220030","610-BX","2019/09/28 13:39:21","新北市板橋區大觀路二段443-2號","121.44067","24.9950416666667","6500100","板橋區"
"220032","256-TC","2019/09/28 13:39:31","新北市板橋區大觀路二段148巷68號","121.441821666667","25.0007916666667","6500100","板橋區"
"220004","276-BY","2019/09/28 13:39:21","新北市板橋區南雅南路一段5巷19號","121.456591666667","25.005345","6500100","板橋區"
"220020","277-BY","2019/09/28 13:39:24","新北市板橋區大觀路二段443-2號","121.439375","24.9952083333333","6500100","板橋區"
"220019","283-VK","2019/09/28 13:39:29","新北市板橋區四川路二段14號","121.456078333333","24.9962266666667","6500100","板橋區"
"220043","285-UM","2019/09/28 13:39:22","新北市板橋區民生路二段120號","121.470341666667","25.0198383333333","6500100","板橋區"
"220031","286-VK","2019/09/28 13:39:31","新北市板橋區板城路271號","121.450015","24.9980033333333","6500100","板橋區"
"220029","287-VK","2019/09/28 13:39:21","新北市板橋區大觀路一段51號","121.447635","25.0064833333333","6500100","板橋區"
"220039","288-VK","2019/09/28 13:39:33","新北市板橋區民生路二段120號","121.470376666667","25.019725","6500100","板橋區"
"220009","293-UM","2019/09/28 13:39:24","新北市板橋區民生路二段161巷5號","121.470198333333","25.0197366666667","6500100","板橋區"
"220001","299-UM","2019/09/28 13:39:33","新北市板橋區民生路二段188號","121.470308333333","25.0201933333333","6500100","板橋區"
"220023","303-R5","2019/09/28 13:39:28","新北市板橋區大觀路二段266號","121.44913","24.9964716666667","6500100","板橋區"
"220010","305-R5","2019/09/28 13:39:15","新北市板橋區民生路二段161巷7號","121.470168333333","25.0196333333333","6500100","板橋區"
"220041","307-R5","2019/09/28 13:39:26","新北市板橋區縣民大道二段283號","121.470241666667","25.017965","6500100","板橋區"
"220038","487-VK","2019/09/28 13:39:21","新北市板橋區民生路二段161巷1號","121.470055","25.0202066666667","6500100","板橋區"
"220037","491-VK","2019/09/28 13:39:33","新北市板橋區民生路二段171號","121.469818333333","25.0200683333333","6500100","板橋區"
"220104","560-BX","2019/09/28 13:39:22","新北市板橋區南雅西路二段145巷10號","121.45156","25.0118866666667","6500100","板橋區"
"220052","561-BX","2019/09/28 13:39:34","新北市板橋區民生路二段123號","121.470573333333","25.018545","6500100","板橋區"
"220063","609-BX","2019/09/28 13:39:32","新北市板橋區民生路二段161巷3號","121.470225","25.0198383333333","6500100","板橋區"
"220005","686-BX","2019/09/28 13:39:25","新北市板橋區南雅南路一段3巷25-16號","121.456595","25.0055033333333","6500100","板橋區"
"220025","687-BX","2019/09/28 13:39:38","新北市板橋區大觀路三段212巷70號","121.429775","24.9935333333333","6500100","板橋區"
"220042","689-BX","2019/09/28 13:39:36","新北市板橋區民生路二段161巷1號","121.470043333333","25.020205","6500100","板橋區"
"220002","741-BX","2019/09/28 13:39:24","新北市板橋區大觀路二段266號","121.449001666667","24.99638","6500100","板橋區"
"220003","827-TW","2019/09/28 13:39:35","新北市板橋區忠孝路40號","121.46041","25.0018866666667","6500100","板橋區"
"220022","895-R6","2019/09/28 13:39:28","新北市板橋區南雅南路一段8號","121.4558","25.0063066666667","6500100","板橋區"
"220021","985-R7","2019/09/28 13:39:20","新北市板橋區南雅南路二段11-18號","121.45472","25.0015616666667","6500100","板橋區"
"220046","AAC-210","2019/09/28 13:39:03","新北市板橋區民生路二段161巷5號","121.470205","25.01975","6500100","板橋區"
"220012","AAC-253","2019/09/28 13:39:24","新北市板橋區縣民大道二段82號","121.465818333333","25.014665","6500100","板橋區"
"235032","KEA-2873","2019/09/28 13:39:19","新北市中和區中正路211巷13弄36號","121.497883333333","24.9933333333333","6500300","中和區"
"235025","KEA-2875","2019/09/28 13:39:28","新北市中和區民治街17巷2號","121.47524","25.0029533333333","6500300","中和區"
"235073","KEA-2876","2019/09/28 13:39:34","新北市中和區中山路二段340巷38號","121.493353333333","25.0038583333333","6500300","中和區"
