"lineid","car","time","location","longitude","latitude","cityid","cityname"
"234044","148-BY","2019/09/28 13:59:25","新北市永和區成功路一段87號","121.526908333333","25.00297","6500400","永和區"
"234078","298-R6","2019/09/28 13:59:21","新北市永和區永利路77號","121.521346666667","25.0036383333333","6500400","永和區"
"234036","336-UY","2019/09/28 13:59:19","新北市永和區成功路二段167號","121.526643333333","24.9970716666667","6500400","永和區"
"234062","337-UY","2019/09/28 13:59:35","新北市永和區中正路412巷20弄21號","121.5189","25.0015216666667","6500400","永和區"
"234084","338-UY","2019/09/28 13:59:28","新北市永和區福和路202號","121.519826666667","25.0077733333333","6500400","永和區"
"234068","552-UM","2019/09/28 13:59:33","新北市永和區國光路51號","121.518956666667","25.0082716666667","6500400","永和區"
"234015","745-BX","2019/09/28 13:59:27","新北市永和區文化路54號","121.514536666667","25.0151683333333","6500400","永和區"
"234028","746-BX","2019/09/28 13:59:32","新北市永和區民權路49巷3號","121.5204","24.99726","6500400","永和區"
"234052","KEA-2590","2019/09/28 13:59:19","新北市永和區竹林路39巷46號","121.520205","25.0152716666667","6500400","永和區"
"234005","KED-0605","2019/09/28 13:59:29","新北市中和區中和路326號","121.509668333333","25.00109","6500400","永和區"
"234012","KEA-2591","2019/09/28 13:59:33","新北市永和區保生路55號","121.504731666667","25.0105666666667","6500400","永和區"
"234060","AAD-866","2019/09/28 13:59:24","新北市永和區中正路236號","121.516341666667","24.9980866666667","6500400","永和區"
"234040","862-TW","2019/09/28 13:59:35","新北市永和區中和路335巷18弄9號","121.507705","25.0003966666667","6500400","永和區"
"234048","863-TW","2019/09/28 13:59:36","新北市永和區保安路260號","121.50601","25.0124333333333","6500400","永和區"
"234025","9371-KE","2019/09/28 13:59:33","新北市永和區自由街47號","121.513993333333","25.0059433333333","6500400","永和區"
"234010","9373-KE","2019/09/28 13:59:39","新北市永和區仁愛路352巷124號","121.500215","25.0086116666667","6500400","永和區"
"248017","KED-0813","2019/09/28 13:59:39","新北市五股區民義路一段220巷17號","121.428625","25.0947066666667","6501500","五股區"
"234022","9380-KE","2019/09/28 13:59:37","新北市永和區復興街41巷5號","121.516456666667","25.0133916666667","6500400","永和區"
"234076","969-R7","2019/09/28 13:59:27","新北市永和區民治街59巷4號","121.518278333333","24.9977883333333","6500400","永和區"
"234072","AAC-211","2019/09/28 13:59:30","新北市永和區豫溪街155號","121.521303333333","25.0104016666667","6500400","永和區"
"234066","AAC-212","2019/09/28 13:59:23","新北市永和區永貞路356號","121.510213333333","25.006455","6500400","永和區"
"234001","AAC-295","2019/09/28 13:59:27","新北市永和區福和路332號","121.515405","25.00732","6500400","永和區"
"231030","002-UM","2019/09/28 13:59:36","新北市新店區安康路一段302-3號","121.51772","24.9641416666667","6500600","新店區"
"231024","0291-UT","2019/09/28 13:59:18","新北市新店區新生街17號","121.539888333333","24.9662966666667","6500600","新店區"
"231005","046-UY","2019/09/28 13:59:21","新北市新店區中興路三段248號","121.54289","24.983925","6500600","新店區"
"231029","106-UY","2019/09/28 13:59:24","新北市新店區安康路二段12號","121.516196666667","24.963805","6500600","新店區"
"231018","107-UY","2019/09/28 13:59:29","新北市新店區中央路107號","121.530981666667","24.974755","6500600","新店區"
"231013","108-UY","2019/09/28 13:59:32","新北市新店區明德路60號","121.54165","24.9792933333333","6500600","新店區"
"231036","110-UY","2019/09/28 13:59:36","新北市新店區安祥路109巷3弄30號","121.476305","24.960275","6500600","新店區"
"231033","256-BX","2019/09/28 13:59:29","新北市新店區青山路399巷1號","121.523383333333","24.9530333333333","6500600","新店區"
"231023","260-TV","2019/09/28 13:59:24","新北市新店區文中路40號","121.539735","24.9565083333333","6500600","新店區"
"231003","268-BY","2019/09/28 13:59:16","新北市新店區中興路一段92號","121.53998","24.9605016666667","6500600","新店區"
"231035","278-BY","2019/09/28 13:59:24","新北市新店區安和路二段115號","121.518665","24.9704433333333","6500600","新店區"
"231017","AAD-862","2019/09/28 13:59:34","新北市新店區北宜路二段150號","121.55772","24.952945","6500600","新店區"
"231006","355-BY","2019/09/28 13:59:36","新北市新店區北宜路二段36號","121.548515","24.9513716666667","6500600","新店區"
"231038","3712-VJ","2019/09/28 13:59:24","新北市新店區安華路1-1號","121.5198","24.9602383333333","6500600","新店區"
"231027","3713-VJ","2019/09/28 13:59:28","新北市新店區中興路一段16號","121.538605","24.9580166666667","6500600","新店區"
"231025","4715-K9","2019/09/28 13:59:29","新北市新店區中正路312巷16號","121.537881666667","24.9751166666667","6500600","新店區"
"231020","512-UM","2019/09/28 13:59:29","新北市新店區櫻花街112號","121.547418333333","24.9233816666667","6500600","新店區"
"231002","619-UM","2019/09/28 13:37:14","新北市新店區中央一街2號","121.528813333333","24.9723533333333","6500600","新店區"
"231034","641-BX","2019/09/28 13:59:39","新北市新店區達觀路27-1號","121.504021666667","24.9385","6500600","新店區"
"231046","719-UM","2019/09/28 13:58:49","新北市新店區三民路60巷9號","121.535435","24.97264","6500600","新店區"
"231026","720-UM","2019/09/28 13:59:33","新北市新店區三民路159巷19弄5號","121.532748333333","24.974035","6500600","新店區"
"231028","897-TW","2019/09/28 13:59:32","新北市新店區安和路三段114號","121.517021666667","24.9854116666667","6500600","新店區"
"231001","898-TW","2019/09/28 13:59:32","新北市新店區三民路43號","121.53711","24.9708583333333","6500600","新店區"
"231004","899-TW","2019/09/28 13:59:26","新北市新店區北新路二段141-1號","121.542888333333","24.975685","6500600","新店區"
"231037","AKT-0513","2019/09/28 13:59:26","新北市新店區安康路三段456號","121.484333333333","24.9510683333333","6500600","新店區"
"235030","003-UY","2019/09/28 13:59:37","新北市中和區中山路二段131巷5弄5號","121.502863333333","25.0029466666667","6500300","中和區"
"235027","006-UY","2019/09/28 13:59:34","新北市中和區中正路700號","121.486158333333","24.996305","6500300","中和區"
"235020","096-UM","2019/09/28 13:59:32","新北市板橋區三民路二段228號","121.478766666667","25.01134","6500300","中和區"
"235003","097-UM","2019/09/28 13:59:27","新北市中和區秀朗路三段179號","121.524503333333","24.990805","6500300","中和區"
"235029","098-UM","2019/09/28 13:59:22","新北市中和區中山路二段2巷43號","121.502528333333","25.0071233333333","6500300","中和區"
"235004","150-BY","2019/09/28 13:59:30","新北市中和區保健路46巷2號","121.509703333333","24.997085","6500300","中和區"
"235022","151-BY","2019/09/28 13:59:19","新北市中和區連城路532巷3-3號","121.475381666667","24.9918916666667","6500300","中和區"
"235019","183-VK","2019/09/28 13:59:35","新北市中和區德光路82號","121.468991666667","25.003665","6500300","中和區"
"235002","185-VK","2019/09/28 13:59:22","新北市中和區立人街22號","121.518985","24.9941916666667","6500300","中和區"
"235031","255-BX","2019/09/28 13:59:19","新北市中和區新生街266號","121.483423333333","24.9972583333333","6500300","中和區"
"235008","293-VK","2019/09/28 13:59:28","新北市中和區中興街178號","121.499855","24.9909633333333","6500300","中和區"
"235036","301-VK","2019/09/28 13:59:29","新北市中和區中山路二段110號","121.50295","25.0038416666667","6500300","中和區"
"235007","352-BY","2019/09/28 13:59:35","新北市中和區成功路139號","121.525628333333","24.9903516666667","6500300","中和區"
"235006","KEA-2878","2019/09/28 13:59:36","新北市中和區秀朗路三段24號","121.526328333333","24.99633","6500300","中和區"
"247015","KEA-2869","2019/09/28 13:59:39","新北市蘆洲區光華路42號","121.46886","25.0831766666667","6501400","蘆洲區"
"247009","KED-0682","2019/09/28 13:59:19","新北市蘆洲區集賢路224巷27號","121.481765","25.0869966666667","6501400","蘆洲區"
"235014","4979-A6","2019/09/28 13:59:30","新北市中和區忠孝街60巷2弄8號","121.511673333333","24.9834966666667","6500300","中和區"
"235033","4980-A6","2019/09/28 13:59:38","新北市中和區圓通路107號","121.499543333333","24.99656","6500300","中和區"
"235034","558-UM","2019/09/28 13:59:25","新北市中和區中和路128號","121.503426666667","24.9997516666667","6500300","中和區"
"235009","565-BX","2019/09/28 13:59:31","新北市中和區景新街467巷22號","121.514181666667","24.9883833333333","6500300","中和區"
"235024","KED-0823","2019/09/28 13:59:22","新北市中和區自治街46號","121.475411666667","25.0034166666667","6500300","中和區"
"235018","640-BX","2019/09/28 13:59:23","新北市中和區民德路189巷1號","121.468756666667","24.999285","6500300","中和區"
"235011","732-UM","2019/09/28 13:59:20","新北市中和區興南路二段93號","121.5062","24.984775","6500300","中和區"
"235010","733-UM","2019/09/28 13:59:33","新北市中和區興南路二段31巷6號","121.507878333333","24.98559","6500300","中和區"
"235074","783-BX","2019/09/28 13:59:19","新北市中和區建康路39號","121.4864","25.0002933333333","6500300","中和區"
"235021","801-TS","2019/09/28 13:59:36","新北市中和區民利街56號","121.479145","24.9987016666667","6500300","中和區"
"235005","802-TS","2019/09/28 13:59:26","新北市中和區中安街58號","121.512728333333","25.0022366666667","6500300","中和區"
"235016","805-TS","2019/09/28 13:59:33","新北市中和區興南路二段152號","121.503905","24.9829383333333","6500300","中和區"
"235012","896-TW","2019/09/28 13:59:18","新北市中和區華新街31號","121.507693333333","24.98482","6500300","中和區"
"235017","900-TW","2019/09/28 13:59:35","新北市板橋區五權街1-9號","121.463668333333","24.99515","6500300","中和區"
"235028","911-UM","2019/09/28 13:59:22","新北市中和區泰和街44巷25號","121.49823","25.00102","6500300","中和區"
"235015","157-BY","2019/09/28 13:59:26","新北市中和區忠孝街19巷6號","121.510186666667","24.9831266666667","6500300","中和區"
"235001","AAC-213","2019/09/28 13:59:21","新北市中和區秀朗路三段60巷28號","121.525388333333","24.995035","6500300","中和區"
"235023","AAC-215","2019/09/28 13:59:34","新北市中和區圓通路369巷14弄8號","121.490405","24.9878483333333","6500300","中和區"
"220013","072-UY","2019/09/28 13:59:30","新北市板橋區民族路247巷9弄46號","121.470873333333","25.0087583333333","6500100","板橋區"
"220034","073-UY","2019/09/28 13:59:35","新北市板橋區大智街11號","121.455753333333","25.0148283333333","6500100","板橋區"
"220105","075-UY","2019/09/28 13:59:24","新北市板橋區文化路二段263巷12號","121.470948333333","25.029515","6500100","板橋區"
"220017","AAD-861","2019/09/28 13:59:35","新北市板橋區東興街36號","121.45788","25.0053166666667","6500100","板橋區"
"247005","893-R6","2019/09/28 13:59:29","新北市蘆洲區永安南路二段14號","121.467331666667","25.0770666666667","6501400","蘆洲區"
"247019","546-UM","2019/09/28 13:59:31","新北市蘆洲區民族路422巷17號","121.473958333333","25.0927666666667","6501400","蘆洲區"
"247021","341-TH","2019/09/28 13:59:22","新北市蘆洲區中正路263巷2號","121.467345","25.087395","6501400","蘆洲區"
"247003","336-TH","2019/09/28 13:59:27","新北市蘆洲區長安街100號","121.461711666667","25.080855","6501400","蘆洲區"
"247013","056-VK","2019/09/28 13:59:35","新北市蘆洲區保和街77號","121.469183333333","25.0860783333333","6501400","蘆洲區"
"247017","053-VK","2019/09/28 13:59:28","新北市蘆洲區民族路257巷2號","121.47644","25.090545","6501400","蘆洲區"
"247007","002-UY","2019/09/28 13:59:20","新北市三重區永安北路二段5巷1號","121.48155","25.0808783333333","6501400","蘆洲區"
"247001","001-UY","2019/09/28 13:59:35","新北市蘆洲區三民路605號","121.460633333333","25.093735","6501400","蘆洲區"
"235013","251-BX","2019/09/28 13:59:31","新北市中和區景安路163號","121.505465","24.994545","6500300","中和區"
"228005","097-TW","2019/09/28 13:59:26","新北市貢寮區美豐里雞母嶺街52-1號","121.88855","25.0684866666667","6502600","貢寮區"
"228004","212-TW","2019/09/28 13:59:27","新北市貢寮區龍崗里泮宮路51-1號","121.908121666667","25.017025","6502600","貢寮區"
"253003","6232-TK","2019/09/28 13:59:33","新北市石門區尖子鹿52-1號","121.57926","25.2735516666667","6502200","石門區"
"253004","6251-TK","2019/09/28 13:59:37","新北市石門區小坑40號","121.598795","25.265905","6502200","石門區"
"253002","637-UY","2019/09/28 13:56:14","新北市石門區七股56號","121.552835","25.2560766666667","6502200","石門區"
"253001","KEC-0718","2019/09/28 13:59:18","新北市石門區八甲78號","121.52979","25.2631","6502200","石門區"
"207002","749-BX","2019/09/28 13:59:32","新北市萬里區溪底里烏塗炭10號","121.632746666667","25.1504666666667","6502800","萬里區"
"207001","662-BX","2019/09/28 13:59:26","新北市萬里區磺潭里清水2-2號","121.642443333333","25.20164","6502800","萬里區"
"252005","AAC-283","2019/09/28 13:59:33","新北市三芝區圓山里二坪頂79號","121.540481666667","25.2452083333333","6502100","三芝區"
"236040","KED-0685","2019/09/28 13:59:28","新北市土城區城林路6巷80號","121.438485","24.9798066666667","6501300","土城區"
"236074","166-UM","2019/09/28 13:59:34","新北市土城區永寧路32巷2號","121.42932","24.9606533333333","6501300","土城區"
"236024","269-VK","2019/09/28 13:59:24","新北市土城區城林路6巷80號","121.438183333333","24.9797583333333","6501300","土城區"
"236013","270-VK","2019/09/28 13:59:36","新北市土城區光明街28巷30號","121.441388333333","24.9743133333333","6501300","土城區"
"236032","271-VK","2019/09/28 13:59:25","新北市土城區中正路75號","121.445038333333","24.9757133333333","6501300","土城區"
"247011","KED-0683","2019/09/28 13:59:31","新北市蘆洲區民族路158號","121.479606666667","25.086195","6501400","蘆洲區"
"236068","KEA-2877","2019/09/28 13:59:22","新北市土城區金城路一段88巷26號","121.446106666667","24.9733766666667","6501300","土城區"
"236017","401-BY","2019/09/28 13:59:29","新北市土城區城林路6巷80號","121.438525","24.9797766666667","6501300","土城區"
"236057","912-UM","2019/09/28 13:59:33","新北市土城區中央路三段250號","121.427683333333","24.96424","6501300","土城區"
"236045","913-UM","2019/09/28 13:59:33","新北市土城區城林路6巷80號","121.43844","24.9796816666667","6501300","土城區"
"236060","915-UM","2019/09/28 13:59:21","新北市土城區城林路6巷80號","121.438535","24.9797116666667","6501300","土城區"
"236054","AAC-216","2019/09/28 13:59:36","新北市土城區城林路6巷80號","121.438625","24.9797216666667","6501300","土城區"
"220027","145-BY","2019/09/28 13:59:28","新北市板橋區中正路183巷44號","121.455036666667","25.0160766666667","6500100","板橋區"
"220028","200-UY","2019/09/28 13:59:37","新北市板橋區大觀路二段265巷3弄1號","121.442885","24.9983916666667","6500100","板橋區"
"220030","610-BX","2019/09/28 13:59:21","新北市板橋區篤行路三段玉平巷76弄25號","121.427215","24.98568","6500100","板橋區"
"220032","256-TC","2019/09/28 13:59:31","新北市板橋區篤行路一段16號","121.431298333333","24.9954966666667","6500100","板橋區"
"220040","267-BY","2019/09/28 13:59:20","新北市板橋區大同街8巷43號","121.477805","25.0262933333333","6500100","板橋區"
"220004","276-BY","2019/09/28 13:59:34","新北市板橋區信義路127號","121.457771666667","24.99329","6500100","板橋區"
"220020","277-BY","2019/09/28 13:59:24","新北市板橋區篤行路一段18號","121.432125","24.9950883333333","6500100","板橋區"
"220050","280-UM","2019/09/28 13:59:32","新北市板橋區莊敬路218號","121.472506666667","25.0212316666667","6500100","板橋區"
"220019","283-VK","2019/09/28 13:59:39","新北市板橋區重慶路245巷67弄2號","121.465661666667","25.001235","6500100","板橋區"
"220043","285-UM","2019/09/28 13:59:22","新北市板橋區光武街151號","121.465561666667","25.029465","6500100","板橋區"
"220031","286-VK","2019/09/28 13:59:31","新北市板橋區大觀路一段38巷156弄141號","121.443638333333","25.008735","6500100","板橋區"
"220029","287-VK","2019/09/28 13:59:32","新北市板橋區光華街19巷6號","121.45372","25.0121733333333","6500100","板橋區"
"220039","288-VK","2019/09/28 13:59:33","新北市板橋區四維路339巷16號","121.461796666667","25.02934","6500100","板橋區"
"220009","293-UM","2019/09/28 13:59:24","新北市板橋區中山路二段224號","121.478165","25.0179616666667","6500100","板橋區"
"220001","299-UM","2019/09/28 13:59:33","新北市板橋區太和街6巷2號","121.473815","25.0199583333333","6500100","板橋區"
"220023","303-R5","2019/09/28 13:59:28","新北市板橋區南雅東路88號","121.453885","25.0076183333333","6500100","板橋區"
"220010","305-R5","2019/09/28 13:59:36","新北市板橋區三民路二段245巷44號","121.480941666667","25.0124783333333","6500100","板橋區"
"220041","307-R5","2019/09/28 13:59:26","新北市板橋區光武街36巷40-3號","121.46862","25.0262866666667","6500100","板橋區"
"220047","317-R6","2019/09/28 13:59:26","新北市板橋區民生路二段226巷23號","121.47096","25.022045","6500100","板橋區"
"220038","487-VK","2019/09/28 13:59:21","新北市板橋區文化路二段171號","121.470483333333","25.0274633333333","6500100","板橋區"
"220037","491-VK","2019/09/28 13:59:32","新北市板橋區莊敬路38號","121.472766666667","25.0269883333333","6500100","板橋區"
"220104","560-BX","2019/09/28 13:59:22","新北市板橋區中正路325巷23號","121.4542","25.019705","6500100","板橋區"
"220052","561-BX","2019/09/28 13:59:34","新北市板橋區介壽街28號","121.467968333333","25.0200916666667","6500100","板橋區"
"220011","609-BX","2019/09/28 13:59:32","新北市板橋區中山路二段305號","121.478755","25.01849","6500100","板橋區"
"220005","686-BX","2019/09/28 13:59:29","新北市板橋區重慶路305號","121.463758333333","24.99883","6500100","板橋區"
"220025","687-BX","2019/09/28 13:59:38","新北市板橋區龍興街71巷52號","121.441676666667","25.0029166666667","6500100","板橋區"
"220042","689-BX","2019/09/28 13:59:37","新北市板橋區民生路三段139號","121.466091666667","25.0264033333333","6500100","板橋區"
"220002","741-BX","2019/09/28 13:59:24","新北市板橋區重慶路139巷21號","121.46371","25.0047266666667","6500100","板橋區"
"220051","KEA-2699","2019/09/28 13:59:30","新北市板橋區田單街2巷29號","121.482146666667","25.028075","6500100","板橋區"
"220003","827-TW","2019/09/28 13:59:35","新北市板橋區中山路一段144號","121.463631666667","25.0110866666667","6500100","板橋區"
"220016","830-TW","2019/09/28 13:59:22","新北市板橋區中山路二段443巷76號","121.481101666667","25.0222766666667","6500100","板橋區"
"220014","831-TW","2019/09/28 13:59:34","新北市板橋區三民路二段正隆巷12弄2號","121.477965","25.0128066666667","6500100","板橋區"
"220022","895-R6","2019/09/28 13:59:28","新北市板橋區南雅南路一段2號","121.456305","25.0070016666667","6500100","板橋區"
"220021","985-R7","2019/09/28 13:59:20","新北市板橋區西門街2號","121.455831666667","25.0115666666667","6500100","板橋區"
"220046","AAC-210","2019/09/28 13:59:23","新北市板橋區幸福路60巷75號","121.459741666667","25.0217666666667","6500100","板橋區"
"220012","AAC-253","2019/09/28 13:59:27","新北市板橋區板新路38號","121.473916666667","25.013765","6500100","板橋區"
"235032","KEA-2873","2019/09/28 13:59:19","新北市中和區連勝街38巷7號","121.497635","24.9979483333333","6500300","中和區"
"235025","KEA-2875","2019/09/28 13:59:28","新北市中和區員山路360號","121.480996666667","25.0037366666667","6500300","中和區"
"235073","KEA-2876","2019/09/28 13:59:34","新北市中和區中山路二段468號","121.488396666667","25.0046233333333","6500300","中和區"
