"lineid","car","time","location","longitude","latitude","cityid","cityname"
"234025","9371-KE","2019/09/28 14:49:33","新北市永和區雙和街52巷2號","121.509031666667","25.0031066666667","6500400","永和區"
"248017","KED-0813","2019/09/28 14:49:19","新北市五股區外寮路13-1號","121.424843333333","25.0812183333333","6501500","五股區"
"231030","002-UM","2019/09/28 14:49:36","新北市新店區安民街307號","121.517571666667","24.9738916666667","6500600","新店區"
"231024","0291-UT","2019/09/28 14:49:17","新北市新店區中華路83巷47號","121.538575","24.967625","6500600","新店區"
"231005","046-UY","2019/09/28 14:49:21","新北市新店區復興路2號","121.532431666667","24.98827","6500600","新店區"
"231029","106-UY","2019/09/28 14:49:24","新北市新店區安康路三段578-1號","121.481046666667","24.9487316666667","6500600","新店區"
"231018","107-UY","2019/09/28 14:49:29","新北市新店區中央七街1號","121.530746666667","24.974875","6500600","新店區"
"231013","108-UY","2019/09/28 14:49:32","新北市新店區北新路二段59巷3號","121.542555","24.9732","6500600","新店區"
"231036","110-UY","2019/09/28 14:49:36","新北市新店區安祥路102巷32號","121.484136666667","24.9639033333333","6500600","新店區"
"231039","187-VK","2019/09/28 14:49:29","新北市新店區安一路一段1-1號","121.51958","24.9611816666667","6500600","新店區"
"231033","256-BX","2019/09/28 14:49:29","新北市新店區安康路三段79號","121.491921666667","24.9519733333333","6500600","新店區"
"231023","260-TV","2019/09/28 14:49:24","新北市新店區檳榔路111號","121.54459","24.9615583333333","6500600","新店區"
"231003","268-BY","2019/09/28 14:49:16","新北市新店區中興路二段196號","121.5486","24.9738733333333","6500600","新店區"
"231035","278-BY","2019/09/28 14:49:24","新北市新店區安和路二段220號","121.518648333333","24.9764833333333","6500600","新店區"
"231017","AAD-862","2019/09/28 14:49:34","新北市新店區北宜路三段144號","121.585195","24.9503983333333","6500600","新店區"
"231006","355-BY","2019/09/28 14:49:36","新北市新店區北宜路二段6號","121.54764","24.9517933333333","6500600","新店區"
"231038","3712-VJ","2019/09/28 14:49:24","新北市新店區安華路28-1號","121.519726666667","24.960825","6500600","新店區"
"231027","3713-VJ","2019/09/28 14:49:27","新北市新店區中正路76巷11弄11號","121.543953333333","24.9712716666667","6500600","新店區"
"231025","4715-K9","2019/09/28 14:49:29","新北市新店區建國路198巷2號","121.538043333333","24.9803316666667","6500600","新店區"
"231020","512-UM","2019/09/28 14:49:28","新北市新店區桂山路38號","121.558145","24.9028766666667","6500600","新店區"
"231034","641-BX","2019/09/28 14:49:19","新北市新店區安康路二段400號","121.497168333333","24.9554733333333","6500600","新店區"
"231028","897-TW","2019/09/28 14:49:32","新北市新店區安德街79號","121.510073333333","24.9613933333333","6500600","新店區"
"231001","898-TW","2019/09/28 14:49:32","新北市新店區中正路187號","121.540735","24.9722933333333","6500600","新店區"
"231004","899-TW","2019/09/28 14:49:22","新北市新店區建國路133號","121.539373333333","24.97833","6500600","新店區"
"231037","AKT-0513","2019/09/28 14:49:26","新北市新店區柴埕路60巷9-2號","121.508478333333","24.965015","6500600","新店區"
"235030","003-UY","2019/09/28 14:49:37","新北市中和區南工路40號","121.505783333333","25.00123","6500300","中和區"
"235020","096-UM","2019/09/28 14:49:32","新北市中和區民富街60-2號","121.476636666667","25.0073733333333","6500300","中和區"
"235003","097-UM","2019/09/28 14:49:27","新北市中和區宜安路18巷13號","121.51387","24.996315","6500300","中和區"
"235029","098-UM","2019/09/28 14:49:22","新北市中和區永和路67-2號","121.49658","25.0055716666667","6500300","中和區"
"235004","150-BY","2019/09/28 14:49:29","新北市中和區安和路43號","121.509633333333","24.99489","6500300","中和區"
"235022","151-BY","2019/09/28 14:49:19","新北市中和區員山路148巷1號","121.481423333333","24.997105","6500300","中和區"
"235019","183-VK","2019/09/28 14:49:35","新北市中和區中山路三段134號","121.473871666667","25.006215","6500300","中和區"
"235002","185-VK","2019/09/28 14:49:22","新北市永和區民生路46巷50號","121.520991666667","24.9962666666667","6500300","中和區"
"235008","293-VK","2019/09/28 14:49:28","新北市中和區板南路100號","121.503725","24.9924616666667","6500300","中和區"
"235036","301-VK","2019/09/28 14:49:29","新北市中和區中山路二段3巷22弄24號","121.50599","25.0045033333333","6500300","中和區"
"235007","352-BY","2019/09/28 14:49:35","新北市中和區興南路一段36號","121.511136666667","24.9908816666667","6500300","中和區"
"247015","KEA-2869","2019/09/28 14:49:19","新北市蘆洲區和平路187號","121.466288333333","25.0813233333333","6501400","蘆洲區"
"235014","4979-A6","2019/09/28 14:49:30","新北市中和區景平路241巷84弄54號","121.50615","24.9923683333333","6500300","中和區"
"235034","558-UM","2019/09/28 14:49:25","新北市中和區景平路493號","121.50012","24.9977716666667","6500300","中和區"
"235018","640-BX","2019/09/28 14:49:23","新北市中和區中山路三段209號","121.471956666667","25.0064616666667","6500300","中和區"
"235010","733-UM","2019/09/28 14:49:21","新北市中和區捷運路6號","121.510093333333","24.9894166666667","6500300","中和區"
"235016","805-TS","2019/09/28 14:49:33","新北市中和區華新街144巷9號","121.50756","24.9830966666667","6500300","中和區"
"235012","896-TW","2019/09/28 14:49:18","新北市中和區忠孝街39-1號","121.511545","24.9836833333333","6500300","中和區"
"235017","900-TW","2019/09/28 14:49:35","新北市中和區民德路163號","121.4686","24.9997616666667","6500300","中和區"
"235015","157-BY","2019/09/28 14:49:26","新北市中和區復興路301巷16號","121.50142","24.9895533333333","6500300","中和區"
"235001","AAC-213","2019/09/28 14:49:21","新北市中和區自立路135號","121.522006666667","24.993835","6500300","中和區"
"235023","AAC-215","2019/09/28 14:49:34","新北市中和區圓通路305巷5弄32號","121.494375","24.9903066666667","6500300","中和區"
"220013","072-UY","2019/09/28 14:49:30","新北市板橋區民族路232號","121.468923333333","25.0070483333333","6500100","板橋區"
"220034","073-UY","2019/09/28 14:49:32","新北市板橋區國光路1號","121.456413333333","25.01729","6500100","板橋區"
"220105","075-UY","2019/09/28 14:49:32","新北市板橋區民治街69號","121.479655","25.03287","6500100","板橋區"
"220017","AAD-861","2019/09/28 14:49:35","新北市板橋區大明街33號","121.458153333333","25.0026633333333","6500100","板橋區"
"247001","001-UY","2019/09/28 14:49:26","新北市蘆洲區永康街6號","121.459293333333","25.0859816666667","6501400","蘆洲區"
"235013","251-BX","2019/09/28 14:49:31","新北市中和區景平路385巷53號","121.501536666667","24.9943333333333","6500300","中和區"
"228005","097-TW","2019/09/28 14:49:26","新北市貢寮區美豐里丹裡街69號","121.905271666667","25.0556116666667","6502600","貢寮區"
"228004","212-TW","2019/09/28 14:49:27","新北市貢寮區福隆里裕隆街2號","121.946846666667","25.0150783333333","6502600","貢寮區"
"253003","6232-TK","2019/09/28 14:49:12","新北市石門區尖子鹿101-2號","121.581971666667","25.2925383333333","6502200","石門區"
"253004","6251-TK","2019/09/28 14:49:17","新北市石門區阿里磅89號","121.590511666667","25.2613233333333","6502200","石門區"
"253002","637-UY","2019/09/28 14:49:14","新北市石門區楓林47號","121.540645","25.2784633333333","6502200","石門區"
"253001","KEC-0718","2019/09/28 14:49:18","新北市石門區崁子腳47-10號","121.534228333333","25.2837716666667","6502200","石門區"
"207002","749-BX","2019/09/28 14:49:20","新北市萬里區崁腳里崁腳路73號","121.647588333333","25.1596","6502800","萬里區"
"207001","662-BX","2019/09/28 14:49:25","新北市萬里區雙興里二坪路1-3號","121.649926666667","25.17747","6502800","萬里區"
"252005","AAC-283","2019/09/28 14:49:33","新北市三芝區埔坪里埔頭坑147號","121.510331666667","25.2499016666667","6502100","三芝區"
"236040","KED-0685","2019/09/28 14:49:35","新北市土城區裕民路136巷8弄2號","121.450711666667","24.9851916666667","6501300","土城區"
"236074","166-UM","2019/09/28 14:49:34","新北市土城區中央路四段185巷28號","121.415521666667","24.9558666666667","6501300","土城區"
"236029","253-BX","2019/09/28 14:49:32","新北市土城區忠義路36巷10號","121.440058333333","24.9697033333333","6501300","土城區"
"236024","269-VK","2019/09/28 14:49:24","新北市土城區慶安街82號","121.440663333333","24.9727216666667","6501300","土城區"
"236013","270-VK","2019/09/28 14:49:36","新北市土城區金城路二段354巷18號","121.46094","24.9842883333333","6501300","土城區"
"236032","271-VK","2019/09/28 14:49:25","新北市土城區仁愛路48-7號","121.462081666667","24.978955","6501300","土城區"
"236068","KEA-2877","2019/09/28 14:49:22","新北市土城區裕民路267-1號","121.455463333333","24.9823083333333","6501300","土城區"
"236017","401-BY","2019/09/28 14:49:31","新北市土城區延安街42-5號","121.467523333333","24.98522","6501300","土城區"
"236079","752-BX","2019/09/28 14:49:32","新北市土城區永和街27-16號","121.434546666667","24.961305","6501300","土城區"
"236057","912-UM","2019/09/28 14:49:33","新北市土城區金城路二段10號","121.449141666667","24.9771733333333","6501300","土城區"
"236045","913-UM","2019/09/28 14:49:33","新北市土城區青雲路35號","121.459995","24.9886166666667","6501300","土城區"
"236060","915-UM","2019/09/28 14:49:23","新北市土城區金城路三段207巷6弄1號","121.470268333333","24.9900166666667","6501300","土城區"
"236054","AAC-216","2019/09/28 14:49:36","新北市土城區裕民路135號","121.45153","24.9864066666667","6501300","土城區"
"220027","145-BY","2019/09/28 14:49:28","新北市板橋區民權路202巷24號","121.460703333333","25.01715","6500100","板橋區"
"220028","200-UY","2019/09/28 14:49:37","新北市板橋區大觀路二段55號","121.446711666667","25.0028366666667","6500100","板橋區"
"220030","610-BX","2019/09/28 14:49:20","新北市板橋區大觀路三段212巷36號","121.429585","24.99315","6500100","板橋區"
"220032","256-TC","2019/09/28 14:49:31","新北市板橋區溪崑二街96巷2號","121.426831666667","24.9890333333333","6500100","板橋區"
"220040","267-BY","2019/09/28 14:49:20","新北市板橋區懷德街166號","121.479093333333","25.03051","6500100","板橋區"
"220004","276-BY","2019/09/28 14:49:35","新北市板橋區信義路1巷2號","121.457223333333","24.9969566666667","6500100","板橋區"
"220020","277-BY","2019/09/28 14:49:24","新北市板橋區金門街151巷25號","121.434021666667","24.9901816666667","6500100","板橋區"
"220050","280-UM","2019/09/28 14:49:32","新北市板橋區莒光路178號","121.474091666667","25.022855","6500100","板橋區"
"220019","283-VK","2019/09/28 14:49:35","新北市板橋區和平路174巷47號","121.465568333333","24.9937866666667","6500100","板橋區"
"220043","285-UM","2019/09/28 14:49:22","新北市板橋區英士路13號","121.462028333333","25.0250133333333","6500100","板橋區"
"220031","286-VK","2019/09/28 14:49:31","新北市板橋區僑中二街10巷38號","121.445488333333","25.0111766666667","6500100","板橋區"
"220029","287-VK","2019/09/28 14:49:25","新北市板橋區大觀路一段29巷15號","121.45017","25.0080066666667","6500100","板橋區"
"220039","288-VK","2019/09/28 14:49:33","新北市板橋區新海路72巷3號","121.46212","25.022085","6500100","板橋區"
"220009","293-UM","2019/09/28 14:49:24","新北市板橋區中山路一段61號","121.461091666667","25.0094983333333","6500100","板橋區"
"220001","299-UM","2019/09/28 14:49:33","新北市板橋區中山路二段60巷1弄26號","121.475201666667","25.0158","6500100","板橋區"
"220023","303-R5","2019/09/28 14:49:28","新北市板橋區南雅西路二段301巷50弄12號","121.452373333333","25.017015","6500100","板橋區"
"220010","305-R5","2019/09/28 14:49:15","新北市板橋區中山路二段光榮巷30弄2號","121.484756666667","25.0206316666667","6500100","板橋區"
"220041","307-R5","2019/09/28 14:49:26","新北市板橋區新海路385巷30號","121.457668333333","25.025475","6500100","板橋區"
"220047","317-R6","2019/09/28 14:49:19","新北市板橋區裕民街93巷4號","121.4604","25.027775","6500100","板橋區"
"220038","487-VK","2019/09/28 14:49:21","新北市板橋區新海路378號","121.459176666667","25.025845","6500100","板橋區"
"220037","491-VK","2019/09/28 14:49:32","新北市板橋區仁化街165號","121.477905","25.0334883333333","6500100","板橋區"
"220104","560-BX","2019/09/28 14:49:22","新北市板橋區金華街105號","121.458856666667","25.0208883333333","6500100","板橋區"
"220052","561-BX","2019/09/28 14:49:34","新北市板橋區新海路133號","121.460831666667","25.023165","6500100","板橋區"
"220011","609-BX","2019/09/28 14:49:32","新北市板橋區中山路二段385號","121.480181666667","25.019355","6500100","板橋區"
"220005","686-BX","2019/09/28 14:49:25","新北市板橋區信義路15號","121.456925","24.996765","6500100","板橋區"
"220025","687-BX","2019/09/28 14:49:24","新北市板橋區僑中二街114巷2號","121.445725","25.0068466666667","6500100","板橋區"
"220042","689-BX","2019/09/28 14:49:16","新北市板橋區文化路二段503號","121.475996666667","25.034595","6500100","板橋區"
"220002","741-BX","2019/09/28 14:49:24","新北市板橋區忠孝路忠義巷16弄1號","121.466021666667","25.0037466666667","6500100","板橋區"
"220051","KEA-2699","2019/09/28 14:49:30","新北市板橋區文聖街61號","121.476788333333","25.0311066666667","6500100","板橋區"
"220003","827-TW","2019/09/28 14:49:35","新北市板橋區國慶路149巷13弄13號","121.460393333333","24.9969366666667","6500100","板橋區"
"220016","830-TW","2019/09/28 14:49:18","新北市板橋區光復街136號","121.484233333333","25.01914","6500100","板橋區"
"220014","831-TW","2019/09/28 14:49:34","新北市板橋區漢生東路193巷91號","121.473081666667","25.0120683333333","6500100","板橋區"
"220022","895-R6","2019/09/28 14:49:28","新北市板橋區府中路29-2號","121.45854","25.0080166666667","6500100","板橋區"
"220021","985-R7","2019/09/28 14:49:24","新北市板橋區大仁街53巷3弄3號","121.454865","25.0164383333333","6500100","板橋區"
"220046","AAC-210","2019/09/28 14:49:25","新北市板橋區光正街18巷1-2號","121.462653333333","25.0172866666667","6500100","板橋區"
"220012","AAC-253","2019/09/28 14:49:24","新北市板橋區實踐路110號","121.46411","25.0044733333333","6500100","板橋區"
"235032","KEA-2873","2019/09/28 14:49:19","新北市中和區景平路727號","121.496335","25.0040916666667","6500300","中和區"
"235073","KEA-2876","2019/09/28 14:49:34","新北市中和區建八路146號","121.489778333333","24.998565","6500300","中和區"
