"lineid","car","time","location","longitude","latitude","cityid","cityname"
"234025","9371-KE","2019/09/28 14:59:33","新北市永和區水源街21巷4號","121.511435","25.0044433333333","6500400","永和區"
"248017","KED-0813","2019/09/28 14:59:19","新北市五股區登林路118號","121.418523333333","25.07368","6501500","五股區"
"231030","002-UM","2019/09/28 14:59:36","新北市新店區安民街341-1號","121.516616666667","24.9749416666667","6500600","新店區"
"231024","0291-UT","2019/09/28 14:59:18","新北市新店區新生街3巷1號","121.54027","24.9655583333333","6500600","新店區"
"231005","046-UY","2019/09/28 14:59:21","新北市新店區復興路19號","121.539341666667","24.986715","6500600","新店區"
"231029","106-UY","2019/09/28 14:59:24","新北市新店區錦秀路11巷90弄1號","121.480351666667","24.9429566666667","6500600","新店區"
"231018","107-UY","2019/09/28 14:59:29","新北市新店區中央路111號","121.530988333333","24.9745816666667","6500600","新店區"
"231013","108-UY","2019/09/28 14:59:32","新北市新店區華城路11號","121.529406666667","24.95944","6500600","新店區"
"231036","110-UY","2019/09/28 14:59:36","新北市新店區安祥路102巷46弄5號","121.484938333333","24.9641733333333","6500600","新店區"
"231039","187-VK","2019/09/28 14:59:29","新北市新店區中興路二段188號","121.548246666667","24.973025","6500600","新店區"
"231033","256-BX","2019/09/28 14:59:29","新北市新店區安泰路60巷21號","121.483566666667","24.946525","6500600","新店區"
"231023","260-TV","2019/09/28 14:59:24","新北市新店區檳榔路123號","121.544636666667","24.9615283333333","6500600","新店區"
"231003","268-BY","2019/09/28 14:58:56","新北市新店區中興路二段22-2號","121.546756666667","24.9704333333333","6500600","新店區"
"231035","278-BY","2019/09/28 14:59:24","新北市新店區安業街17號","121.516708333333","24.9779083333333","6500600","新店區"
"231017","AAD-862","2019/09/28 14:59:34","新北市新店區北宜路三段88-1號","121.578748333333","24.9508916666667","6500600","新店區"
"231006","355-BY","2019/09/28 14:59:16","新北市新店區五峰路145巷7號","121.545501666667","24.9647883333333","6500600","新店區"
"231038","3712-VJ","2019/09/28 14:59:24","新北市新店區安華路28-1號","121.519798333333","24.9608816666667","6500600","新店區"
"231027","3713-VJ","2019/09/28 14:59:28","新北市新店區中正路334巷7號","121.536866666667","24.9754","6500600","新店區"
"231025","4715-K9","2019/09/28 14:59:29","新北市新店區大同街8巷15號","121.539178333333","24.9805933333333","6500600","新店區"
"231020","512-UM","2019/09/28 14:59:29","新北市新店區新烏路三段1號","121.55234","24.90629","6500600","新店區"
"231034","641-BX","2019/09/28 14:59:19","新北市新店區玫瑰路4-1號","121.493615","24.9513966666667","6500600","新店區"
"231026","720-UM","2019/09/28 14:59:19","新北市新店區北新路一段140號","121.542506666667","24.97047","6500600","新店區"
"231028","897-TW","2019/09/28 14:59:32","新北市新店區安德街171號","121.508678333333","24.9590616666667","6500600","新店區"
"231001","898-TW","2019/09/28 14:59:32","新北市新店區中正路263號","121.538696666667","24.973645","6500600","新店區"
"231004","899-TW","2019/09/28 14:59:22","新北市新店區民族路12號","121.541541666667","24.9788733333333","6500600","新店區"
"231037","AKT-0513","2019/09/28 14:59:26","新北市新店區安民街365巷7弄2號","121.51609","24.9753783333333","6500600","新店區"
"235030","003-UY","2019/09/28 14:59:37","新北市中和區中山路二段44號","121.50427","25.0049933333333","6500300","中和區"
"235020","096-UM","2019/09/28 14:59:32","新北市中和區中山路三段136巷10弄2號","121.473976666667","25.0067183333333","6500300","中和區"
"235003","097-UM","2019/09/28 14:59:27","新北市中和區安樂路217巷40弄1號","121.5133","24.9979533333333","6500300","中和區"
"235029","098-UM","2019/09/28 14:59:22","新北市中和區福美路312巷5號","121.49663","25.0051733333333","6500300","中和區"
"235004","150-BY","2019/09/28 14:59:29","新北市中和區景安路79巷23號","121.50704","24.9967033333333","6500300","中和區"
"235019","183-VK","2019/09/28 14:59:15","新北市中和區中正路1190號","121.480628333333","25.0102666666667","6500300","中和區"
"235036","301-VK","2019/09/28 14:59:29","新北市中和區中山路二段3巷22弄1號","121.506331666667","25.0053166666667","6500300","中和區"
"235007","352-BY","2019/09/28 14:59:35","新北市中和區華新街232巷10號","121.505756666667","24.9822033333333","6500300","中和區"
"235014","4979-A6","2019/09/28 14:59:30","新北市中和區景平路153號","121.513553333333","24.9918383333333","6500300","中和區"
"235034","558-UM","2019/09/28 14:59:25","新北市中和區圓通路208號","121.496025","24.9939566666667","6500300","中和區"
"235010","733-UM","2019/09/28 14:59:21","新北市中和區忠孝街31巷33弄1號","121.50997","24.98445","6500300","中和區"
"235012","896-TW","2019/09/28 14:59:38","新北市中和區忠孝街1巷2-1號","121.509","24.983045","6500300","中和區"
"235015","157-BY","2019/09/28 14:59:26","新北市中和區景安路220巷20號","121.502763333333","24.991375","6500300","中和區"
"235001","AAC-213","2019/09/28 14:59:21","新北市中和區立人街57號","121.520281666667","24.99423","6500300","中和區"
"235023","AAC-215","2019/09/28 14:59:34","新北市中和區圓通路335巷1弄1號","121.492116666667","24.990435","6500300","中和區"
"220013","072-UY","2019/09/28 14:59:30","新北市板橋區民族路233號","121.469808333333","25.007075","6500100","板橋區"
"220034","073-UY","2019/09/28 14:59:32","新北市板橋區館前西路160巷20號","121.452416666667","25.009075","6500100","板橋區"
"220105","075-UY","2019/09/28 14:59:24","新北市板橋區懷德街66巷28號","121.476665","25.0318183333333","6500100","板橋區"
"220017","AAD-861","2019/09/28 14:59:35","新北市板橋區貴興路113號","121.455781666667","25.002605","6500100","板橋區"
"247001","001-UY","2019/09/28 14:59:26","新北市五股區中興路三段163號","121.449201666667","25.080655","6501400","蘆洲區"
"228004","212-TW","2019/09/28 14:59:27","新北市貢寮區雙玉里田寮洋街1號","121.928036666667","25.0182816666667","6502600","貢寮區"
"253004","6251-TK","2019/09/28 14:59:17","新北市石門區坪林52-1號","121.595056666667","25.272095","6502200","石門區"
"253002","637-UY","2019/09/28 14:59:34","新北市石門區崁子腳28-2號","121.54003","25.2889133333333","6502200","石門區"
"207002","749-BX","2019/09/28 14:59:20","新北市萬里區崁腳里崁腳路73號","121.647591666667","25.159615","6502800","萬里區"
"207001","662-BX","2019/09/28 14:59:25","新北市萬里區雙興里太和路30-1號","121.654706666667","25.1783333333333","6502800","萬里區"
"252005","AAC-283","2019/09/28 14:59:33","新北市三芝區埔坪里埔頭坑117號","121.517135","25.2452683333333","6502100","三芝區"
"236040","KED-0685","2019/09/28 14:59:30","新北市土城區學府路一段189巷1號","121.452385","24.9847883333333","6501300","土城區"
"236074","166-UM","2019/09/28 14:59:34","新北市土城區中央路四段125巷2弄21號","121.416288333333","24.95675","6501300","土城區"
"236029","253-BX","2019/09/28 14:59:32","新北市土城區中央路二段152巷6號","121.441661666667","24.9768866666667","6501300","土城區"
"236024","269-VK","2019/09/28 14:59:24","新北市土城區中正路56巷2號","121.44387","24.9752633333333","6501300","土城區"
"236013","270-VK","2019/09/28 14:59:36","新北市土城區永豐路31巷2號","121.462908333333","24.9880666666667","6501300","土城區"
"236032","271-VK","2019/09/28 14:59:25","新北市土城區青雲路231號","121.459145","24.9815533333333","6501300","土城區"
"236068","KEA-2877","2019/09/28 14:59:22","新北市土城區明德路二段207號","121.446505","24.9837633333333","6501300","土城區"
"236017","401-BY","2019/09/28 14:59:29","新北市土城區延吉街168巷1號","121.468298333333","24.9855116666667","6501300","土城區"
"236057","912-UM","2019/09/28 14:59:33","新北市土城區金城路二段260-3號","121.457435","24.9835983333333","6501300","土城區"
"236045","913-UM","2019/09/28 14:59:34","新北市土城區青雲路322巷2弄4號","121.458056666667","24.9773166666667","6501300","土城區"
"236060","915-UM","2019/09/28 14:59:21","新北市土城區延和路41巷6弄4號","121.466136666667","24.9900783333333","6501300","土城區"
"236054","AAC-216","2019/09/28 14:59:36","新北市土城區學成路38號","121.452525","24.987405","6501300","土城區"
"220027","145-BY","2019/09/28 14:59:28","新北市板橋區復興街28號","121.458076666667","25.017375","6500100","板橋區"
"220028","200-UY","2019/09/28 14:59:17","新北市板橋區大觀路二段169巷23號","121.446618333333","24.9997433333333","6500100","板橋區"
"220030","610-BX","2019/09/28 14:59:20","新北市板橋區溪北路45號","121.427623333333","24.9899283333333","6500100","板橋區"
"220032","256-TC","2019/09/28 14:59:31","新北市板橋區溪崑二街134號","121.425893333333","24.9877983333333","6500100","板橋區"
"220040","267-BY","2019/09/28 14:59:20","新北市板橋區文聖街149巷41號","121.480105","25.029055","6500100","板橋區"
"220004","276-BY","2019/09/28 14:59:34","新北市板橋區四川路二段99巷11號","121.453121666667","24.994245","6500100","板橋區"
"220020","277-BY","2019/09/28 14:59:25","新北市板橋區篤行路二段31巷8號","121.432341666667","24.99258","6500100","板橋區"
"220050","280-UM","2019/09/28 14:59:11","新北市板橋區莒光路165巷32-2號","121.474233333333","25.0247683333333","6500100","板橋區"
"220019","283-VK","2019/09/28 14:59:32","新北市板橋區五權街30巷24弄27號","121.463693333333","24.9937416666667","6500100","板橋區"
"220043","285-UM","2019/09/28 14:59:22","新北市板橋區文化路一段379號","121.466923333333","25.0216666666667","6500100","板橋區"
"220031","286-VK","2019/09/28 14:59:31","新北市板橋區僑中二街88巷2號","121.446515","25.00941","6500100","板橋區"
"220029","287-VK","2019/09/28 14:59:21","新北市板橋區僑中一街80巷6弄1號","121.447701666667","25.012055","6500100","板橋區"
"220009","293-UM","2019/09/28 14:59:24","新北市板橋區四川路一段288號","121.458556666667","25.0008066666667","6500100","板橋區"
"220001","299-UM","2019/09/28 14:59:33","新北市板橋區永豐街83號","121.473576666667","25.0189433333333","6500100","板橋區"
"220023","303-R5","2019/09/28 14:59:28","新北市板橋區金華街3號","121.45548","25.0201766666667","6500100","板橋區"
"220010","305-R5","2019/09/28 14:59:35","新北市板橋區萬安街85巷1弄11號","121.484425","25.0249916666667","6500100","板橋區"
"220041","307-R5","2019/09/28 14:59:26","新北市板橋區新海路14號","121.462425","25.02091","6500100","板橋區"
"220047","317-R6","2019/09/28 14:59:19","新北市板橋區新海路385巷24號","121.457951666667","25.025605","6500100","板橋區"
"220038","487-VK","2019/09/28 14:59:21","新北市板橋區四維路253號","121.463413333333","25.027795","6500100","板橋區"
"220037","491-VK","2019/09/28 14:59:33","新北市板橋區大同街89號","121.479996666667","25.028285","6500100","板橋區"
"220104","560-BX","2019/09/28 14:59:39","新北市板橋區新生街23巷10號","121.456235","25.0217216666667","6500100","板橋區"
"220052","561-BX","2019/09/28 14:59:34","新北市板橋區漢生東路35號","121.465496666667","25.01708","6500100","板橋區"
"220011","609-BX","2019/09/28 14:59:32","新北市板橋區三民路一段91巷87弄20號","121.479896666667","25.021375","6500100","板橋區"
"220005","686-BX","2019/09/28 14:59:25","新北市板橋區四川路二段245巷71號","121.452726666667","24.991985","6500100","板橋區"
"220025","687-BX","2019/09/28 14:59:18","新北市板橋區僑中二街82號","121.44661","25.00969","6500100","板橋區"
"220042","689-BX","2019/09/28 14:59:26","新北市板橋區長江路二段245號","121.468973333333","25.032725","6500100","板橋區"
"220002","741-BX","2019/09/28 14:59:37","新北市板橋區忠孝路201巷42號","121.46498","25.00374","6500100","板橋區"
"220051","KEA-2699","2019/09/28 14:59:34","新北市板橋區莒光路40巷17弄7號","121.470473333333","25.0236333333333","6500100","板橋區"
"220003","827-TW","2019/09/28 14:59:35","新北市板橋區仁愛路64號","121.459956666667","24.99939","6500100","板橋區"
"220016","830-TW","2019/09/28 14:59:18","新北市板橋區中山路二段497號","121.4826","25.0209216666667","6500100","板橋區"
"220014","831-TW","2019/09/28 14:59:34","新北市板橋區中山路一段206巷123號","121.472555","25.0134816666667","6500100","板橋區"
"220022","895-R6","2019/09/28 14:59:30","新北市板橋區文化路一段46巷19號","121.460165","25.0116366666667","6500100","板橋區"
"220021","985-R7","2019/09/28 14:59:20","新北市板橋區南雅西路二段82號","121.452546666667","25.0109383333333","6500100","板橋區"
"220046","AAC-210","2019/09/28 14:59:22","新北市板橋區光正街45巷2弄15號","121.461176666667","25.01729","6500100","板橋區"
"220012","AAC-253","2019/09/28 14:59:24","新北市板橋區民族路261號","121.4705","25.0069583333333","6500100","板橋區"
"235032","KEA-2873","2019/09/28 14:59:25","新北市中和區勝利路35巷1弄12號","121.499483333333","25.0074333333333","6500300","中和區"
