"lineid","car","time","location","longitude","latitude","cityid","cityname"
"249005","172-UM","2019/09/28 17:19:30","新北市五股區中直路69-6號","121.41396","25.1229916666667","6502300","八里區"
"249001","173-UM","2019/09/28 17:19:17","新北市八里區中華路二段165巷3號","121.407668333333","25.150905","6502300","八里區"
"249004","303-UY","2019/09/28 17:19:23","新北市八里區賢三街18號","121.418688333333","25.158905","6502300","八里區"
"249002","305-UY","2019/09/28 17:19:34","新北市八里區龍米路二段117巷29-1號","121.446433333333","25.1428316666667","6502300","八里區"
"249003","593-UM","2019/09/28 17:19:22","新北市八里區商港路48號","121.396208333333","25.145335","6502300","八里區"
"244007","080-UY","2019/09/28 17:19:32","新北市林口區湖子22-1號","121.3859","25.0926916666667","6501700","林口區"
"244013","KEA-2802","2019/09/28 17:19:27","新北市林口區粉寮69號","121.404811666667","25.090795","6501700","林口區"
"244023","483-VK","2019/09/28 17:19:17","新北市林口區隆林街34號","121.38809","25.0754383333333","6501700","林口區"
"244017","485-VK","2019/09/28 17:19:34","新北市林口區文化一路二段200號","121.383033333333","25.0808183333333","6501700","林口區"
"244009","656-BX","2019/09/28 17:19:31","新北市林口區中北一街15巷86號","121.384706666667","25.0868016666667","6501700","林口區"
"244025","837-TS","2019/09/28 17:19:20","新北市林口區仁愛二路79號","121.368045","25.0759133333333","6501700","林口區"
"244021","838-TS","2019/09/28 17:19:24","新北市林口區粉寮路67-16號","121.403968333333","25.0908133333333","6501700","林口區"
"231046","719-UM","2019/09/28 17:05:45","新北市新店區直潭一街108號","121.53481","24.938765","6500600","新店區"
"241011","013-R5","2019/09/28 17:19:31","新北市三重區河邊北街100巷12-1號","121.503396666667","25.0701416666667","6500200","三重區"
"241028","022-UY","2019/09/28 17:19:29","新北市三重區中正南路98號","121.49431","25.05856","6500200","三重區"
"241008","059-VK","2019/09/28 17:19:20","新北市三重區永福街72巷37號","121.480191666667","25.0763483333333","6500200","三重區"
"241026","060-VK","2019/09/28 17:19:27","新北市三重區正義南路47號","121.498186666667","25.0607766666667","6500200","三重區"
"241015","062-VK","2019/09/28 17:19:27","新北市三重區三和路一段99號","121.501975","25.0663","6500200","三重區"
"241017","063-VK","2019/09/28 17:19:23","新北市三重區大同北路91號","121.494721666667","25.0636283333333","6500200","三重區"
"241024","065-VK","2019/09/28 17:19:26","新北市三重區中正北路193巷21弄26-1號","121.477815","25.0708016666667","6500200","三重區"
"241007","066-VK","2019/09/28 17:19:18","新北市三重區慈愛街9-1號","121.485153333333","25.0785916666667","6500200","三重區"
"241002","090-VK","2019/09/28 17:19:35","新北市三重區自強路五段66-1號","121.49584","25.0825716666667","6500200","三重區"
"241003","091-VK","2019/09/28 17:19:19","新北市三重區富福街48號","121.491565","25.0842666666667","6500200","三重區"
"241016","266-UM","2019/09/28 17:19:25","新北市三重區大同北路54巷3號","121.494051666667","25.0636516666667","6500200","三重區"
"241009","267-UM","2019/09/28 17:19:25","新北市三重區仁美街97號","121.48592","25.0802766666667","6500200","三重區"
"241018","268-UM","2019/09/28 17:19:29","新北市三重區安慶街124號","121.49489","25.0689083333333","6500200","三重區"
"241032","269-UM","2019/09/28 17:19:28","新北市三重區興華街146號","121.482855","25.0598616666667","6500200","三重區"
"241013","270-UM","2019/09/28 17:19:37","新北市三重區仁愛街104號","121.495356666667","25.0741033333333","6500200","三重區"
"241025","271-UM","2019/09/28 17:19:28","新北市三重區中正北路406號","121.475413333333","25.0706483333333","6500200","三重區"
"241030","KED-0822","2019/09/28 17:19:30","新北市三重區成功路73巷29號","121.490031666667","25.0527183333333","6500200","三重區"
"241004","475-VK","2019/09/28 17:19:31","新北市三重區仁義街286號","121.49352","25.0859933333333","6500200","三重區"
"241020","478-VK","2019/09/28 17:19:31","新北市三重區永德街9號","121.489198333333","25.0725366666667","6500200","三重區"
"241014","543-UM","2019/09/28 17:19:28","新北市三重區三和路二段83號","121.50011","25.0684233333333","6500200","三重區"
"241023","545-UM","2019/09/28 17:19:33","新北市三重區三民街150號","121.482471666667","25.06532","6500200","三重區"
"241001","547-UM","2019/09/28 17:19:27","新北市三重區分子尾街83號","121.488948333333","25.0825366666667","6500200","三重區"
"241019","KEA-2593","2019/09/28 17:19:30","新北市三重區忠孝路二段4號","121.486718333333","25.0713183333333","6500200","三重區"
"241005","AAD-863","2019/09/28 17:19:31","新北市三重區永安北路二段5巷39號","121.482848333333","25.0812616666667","6500200","三重區"
"241022","KED-0820","2019/09/28 17:19:24","新北市三重區重陽路二段34巷18號","121.486343333333","25.0633933333333","6500200","三重區"
"241012","887-TS","2019/09/28 17:19:38","新北市三重區龍門路274巷47號","121.501195","25.075755","6500200","三重區"
"247016","KEA-2869","2019/09/28 17:19:29","新北市蘆洲區正和街97號","121.467856666667","25.0805616666667","6501400","蘆洲區"
"247010","KED-0682","2019/09/28 17:19:40","新北市蘆洲區三民路26巷29號","121.47684","25.082875","6501400","蘆洲區"
"247006","893-R6","2019/09/28 17:19:25","新北市蘆洲區長安街73巷10號","121.462258333333","25.0796366666667","6501400","蘆洲區"
"247020","546-UM","2019/09/28 17:19:19","新北市蘆洲區仁愛街35巷12號","121.471505","25.0926533333333","6501400","蘆洲區"
"247022","341-TH","2019/09/28 17:19:22","新北市蘆洲區三民路128巷31號","121.469945","25.0894883333333","6501400","蘆洲區"
"247004","336-TH","2019/09/28 17:19:26","新北市蘆洲區中原路59號","121.458903333333","25.08215","6501400","蘆洲區"
"247024","057-VK","2019/09/28 17:19:24","新北市蘆洲區長榮路460-1號","121.459513333333","25.0888366666667","6501400","蘆洲區"
"247014","056-VK","2019/09/28 17:19:25","新北市蘆洲區中正路96號","121.470145","25.0840066666667","6501400","蘆洲區"
"247018","053-VK","2019/09/28 17:19:30","新北市蘆洲區民權路98號","121.474156666667","25.088025","6501400","蘆洲區"
"247008","002-UY","2019/09/28 17:19:32","新北市蘆洲區永安北路一段72巷58號","121.47599","25.0768766666667","6501400","蘆洲區"
"247002","001-UY","2019/09/28 17:19:24","新北市蘆洲區永樂街38巷43號","121.45824","25.0898","6501400","蘆洲區"
"228003","097-TW","2019/09/28 17:19:28","新北市貢寮區福隆里興隆街24-1號","121.944378333333","25.016655","6502600","貢寮區"
"228001","212-TW","2019/09/28 17:19:34","新北市貢寮區仁理村尖山腳街18-3號","121.925486666667","25.04829","6502600","貢寮區"
"228002","663-BX","2019/09/28 17:19:32","新北市貢寮區雙玉里下雙溪街24號","121.922963333333","25.0098666666667","6502600","貢寮區"
"224006","676-BX","2019/09/28 17:19:30","新北市瑞芳區傑魚坑路322號","121.786386666667","25.1047333333333","6501200","瑞芳區"
"224009","275-VK","2019/09/28 17:19:24","新北市瑞芳區汽車路93號","121.842731666667","25.1095566666667","6501200","瑞芳區"
"224008","273-VK","2019/09/28 17:19:20","新北市瑞芳區侯硐路33-1號","121.826131666667","25.0837366666667","6501200","瑞芳區"
"224005","271-BY","2019/09/28 17:19:32","新北市瑞芳區鼻頭路101號","121.916045","25.123775","6501200","瑞芳區"
"227001","642-TC","2019/09/28 17:19:28","新北市雙溪區三貂里十三層5號","121.8506","25.0648133333333","6502500","雙溪區"
"227002","400-TW","2019/09/28 17:19:25","新北市雙溪區共和里東榮街1號","121.865263333333","25.0344133333333","6502500","雙溪區"
"251009","008-UM","2019/09/28 17:19:22","新北市淡水區三民街20號","121.439035","25.1717683333333","6501000","淡水區"
"251004","009-UM","2019/09/28 17:13:49","新北市淡水區中正東路二段88巷15號","121.459056666667","25.150535","6501000","淡水區"
"251005","010-UM","2019/09/28 17:19:21","新北市淡水區鄧公路19號","121.451401666667","25.1699783333333","6501000","淡水區"
"251015","KEA-2871","2019/09/28 17:19:30","新北市淡水區樹林口25號","121.476241666667","25.1692866666667","6501000","淡水區"
"251016","179-VK","2019/09/28 17:19:32","新北市淡水區鄒厝崙12-3號","121.463618333333","25.1908716666667","6501000","淡水區"
"251013","180-VK","2019/09/28 17:19:26","新北市淡水區演戲埔腳9-1號","121.47297","25.1962783333333","6501000","淡水區"
"251008","181-VK","2019/09/28 17:19:28","新北市淡水區大同路283號","121.46788","25.14247","6501000","淡水區"
"251010","413-VK","2019/09/28 17:19:26","新北市淡水區沙崙路141號","121.42329","25.1829016666667","6501000","淡水區"
"251012","441-VK","2019/09/28 17:19:23","新北市淡水區中山北路一段160號","121.444356666667","25.17807","6501000","淡水區"
"251007","442-VK","2019/09/28 17:19:20","新北市淡水區民生路60號","121.462078333333","25.1379616666667","6501000","淡水區"
"251006","561-UM","2019/09/28 17:19:32","新北市淡水區大智街10號","121.441666666667","25.1745766666667","6501000","淡水區"
"251014","577-R6","2019/09/28 17:19:22","新北市淡水區番子田114號","121.463706666667","25.2296883333333","6501000","淡水區"
"251011","650-BX","2019/09/28 17:19:32","新北市淡水區坪頂路70巷6號","121.459343333333","25.1628683333333","6501000","淡水區"
"251002","672-BX","2019/09/28 17:19:29","新北市淡水區中正路二段31號","121.419395","25.181605","6501000","淡水區"
"251003","766-UM","2019/09/28 17:19:30","新北市淡水區中正路二段4號","121.42068","25.18029","6501000","淡水區"
"207003","550-UM","2019/09/28 17:19:35","新北市萬里區萬里里獅頭路23號","121.69329","25.1783133333333","6502800","萬里區"
"252002","178-VK","2019/09/28 17:19:24","新北市三芝區忠孝街1-14號","121.505526666667","25.2539283333333","6502100","三芝區"
"233002","762-BX","2019/09/28 17:19:24","新北市烏來區環山路82巷56號","121.547746666667","24.8635883333333","6502900","烏來區"
"247012","KED-0683","2019/09/28 17:19:20","新北市蘆洲區信義路319巷10弄1號","121.47762","25.0863683333333","6501400","蘆洲區"
"252001","KED-0821","2019/09/28 17:19:22","新北市三芝區長安街119號","121.498021666667","25.2596733333333","6502100","三芝區"
"242042","AAC-296","2019/09/28 17:19:27","新北市新莊區中正路481號","121.441413333333","25.0338","6500500","新莊區"
"242061","986-R7","2019/09/28 17:19:27","新北市新莊區新泰路357巷3弄19號","121.441911666667","25.040785","6500500","新莊區"
"242029","615-BX","2019/09/28 17:19:34","新北市新莊區幸福路616號","121.451448333333","25.0492283333333","6500500","新莊區"
"242027","613-BX","2019/09/28 17:19:32","新北市新莊區中港一街143號","121.447903333333","25.0450566666667","6500500","新莊區"
"242058","612-BX","2019/09/28 17:19:17","新北市新莊區新泰路255巷83號","121.442083333333","25.0390033333333","6500500","新莊區"
"242048","566-BX","2019/09/28 17:19:31","新北市新莊區龍安路249巷1號","121.419095","25.0209216666667","6500500","新莊區"
"242053","497-BY","2019/09/28 17:19:23","新北市新莊區環河路462號","121.44011","25.019745","6500500","新莊區"
"242004","442-UM","2019/09/28 17:19:21","新北市新莊區中港路280號","121.453136666667","25.0441866666667","6500500","新莊區"
"242002","441-UM","2019/09/28 17:19:25","新北市新莊區瓊林路46-3號","121.447313333333","25.0293866666667","6500500","新莊區"
"242007","440-UM","2019/09/28 17:19:38","新北市新莊區中環路二段427號","121.442085","25.04518","6500500","新莊區"
"242044","415-TV","2019/09/28 17:19:38","新北市新莊區民安路31號","121.423296666667","25.0275666666667","6500500","新莊區"
"242013","413-TV","2019/09/28 17:19:25","新北市新莊區中環路二段392-1號","121.44237","25.045455","6500500","新莊區"
"242051","400-BY","2019/09/28 17:19:24","新北市新莊區瓊林南路12-4號","121.436248333333","25.0187516666667","6500500","新莊區"
"242025","362-BY","2019/09/28 17:19:21","新北市新莊區新泰路488號","121.442496666667","25.045895","6500500","新莊區"
"242023","353-BY","2019/09/28 17:19:37","新北市新莊區中港一街159號","121.447413333333","25.044995","6500500","新莊區"
"242015","132-UY","2019/09/28 17:19:36","新北市新莊區新泰路357巷3弄57號","121.442341666667","25.0392883333333","6500500","新莊區"
"242039","135-UY","2019/09/28 17:19:19","新北市新莊區新樹路207-7號","121.43589","25.0239266666667","6500500","新莊區"
"242056","172-VK","2019/09/28 17:19:28","新北市新莊區新莊路658號","121.44244","25.0329083333333","6500500","新莊區"
"242017","173-VK","2019/09/28 17:19:30","新北市新莊區三和路12-21號","121.442008333333","25.0388033333333","6500500","新莊區"
"242031","175-VK","2019/09/28 17:19:28","新北市新莊區中環路二段392-1號","121.442388333333","25.0452566666667","6500500","新莊區"
"242021","KED-0687","2019/09/28 17:19:22","新北市新莊區新泰路275號","121.445753333333","25.04042","6500500","新莊區"
"242036","348-TH","2019/09/28 17:19:20","新北市新莊區新樹路207-7號","121.435815","25.0238683333333","6500500","新莊區"
"242009","349-TH","2019/09/28 17:19:19","新北市新莊區中環路二段392-1號","121.442388333333","25.04575","6500500","新莊區"
"242034","350-TH","2019/09/28 17:19:35","新北市新莊區新樹路69-66號","121.442105","25.0293616666667","6500500","新莊區"
"242019","351-TH","2019/09/28 17:19:34","新北市新莊區新泰路320號","121.44506","25.0416433333333","6500500","新莊區"
"238023","601-UM","2019/09/28 17:19:36","新北市樹林區中正路439-1號","121.415091666667","25.008785","6500700","樹林區"
"238019","599-UM","2019/09/28 17:19:22","新北市樹林區太平路269號","121.419418333333","24.9729933333333","6500700","樹林區"
"238024","5061-A6","2019/09/28 17:19:24","新北市樹林區樹新路38號","121.427286666667","24.99482","6500700","樹林區"
"238018","KEA-2217","2019/09/28 17:19:34","新北市樹林區樹中街63-1號","121.421421666667","24.9850516666667","6500700","樹林區"
"238022","KEA-2213","2019/09/28 17:19:34","新北市樹林區仁愛街42號","121.423585","24.9826783333333","6500700","樹林區"
"238021","KEA-2539","2019/09/28 17:19:33","新北市樹林區西圳街一段71號","121.400366666667","24.9629983333333","6500700","樹林區"
"238025","303-VK","2019/09/28 17:19:37","新北市樹林區保安二街69號","121.424635","24.99499","6500700","樹林區"
"238017","283-BY","2019/09/28 17:19:28","新北市樹林區光武街28號","121.416131666667","25.0057116666667","6500700","樹林區"
"238014","282-BY","2019/09/28 17:19:31","新北市樹林區長壽街70巷31弄1號","121.421265","24.9946333333333","6500700","樹林區"
"238020","268-VK","2019/09/28 17:19:35","新北市樹林區千歲街101號","121.428526666667","25.0008733333333","6500700","樹林區"
"238026","172-UY","2019/09/28 17:19:20","新北市樹林區東順街97-1號","121.40881","24.9760083333333","6500700","樹林區"
"238016","169-UY","2019/09/28 17:19:38","新北市樹林區中山路一段241號","121.420668333333","24.9867333333333","6500700","樹林區"
"239007","AAC-297","2019/09/28 17:19:28","新北市鶯歌區中正一路53號","121.352326666667","24.9540733333333","6500800","鶯歌區"
"239006","891-R6","2019/09/28 17:19:22","新北市鶯歌區鶯桃路301號","121.33361","24.9605483333333","6500800","鶯歌區"
"239008","527-UM","2019/09/28 17:19:19","新北市鶯歌區西湖街289巷8號","121.340243333333","24.9680866666667","6500800","鶯歌區"
"239005","526-UM","2019/09/28 17:19:34","新北市鶯歌區福德一路24號","121.329748333333","24.9668183333333","6500800","鶯歌區"
"239001","417-VK","2019/09/28 17:19:31","新北市鶯歌區黃厝街31巷39-1號","121.342635","24.9454133333333","6500800","鶯歌區"
"239003","360-BY","2019/09/28 17:19:31","新北市鶯歌區德昌街195號","121.330935","24.960535","6500800","鶯歌區"
"239002","359-BY","2019/09/28 17:19:22","新北市鶯歌區南昌街6號","121.349936666667","24.9536633333333","6500800","鶯歌區"
"239004","193-VK","2019/09/28 17:19:25","新北市鶯歌區文化路256巷15弄22號","121.352163333333","24.947105","6500800","鶯歌區"
"244019","KED-0667","2019/09/28 17:19:25","新北市林口區公園路120-1號","121.370665","25.0712516666667","6501700","林口區"
"233001","KEA-2870","2019/09/28 17:19:37","新北市烏來區環山路181-1號","121.549068333333","24.8538233333333","6502900","烏來區"
"242046","281-VK","2019/09/28 17:19:32","新北市新莊區新樹路65-5號","121.43945","25.0308033333333","6500500","新莊區"
"242011","280-VK","2019/09/28 17:19:23","新北市新莊區中環路二段392-1號","121.4424","25.045435","6500500","新莊區"
"235061","KEA-2875","2019/09/28 17:14:52","新北市中和區員山路36巷16-2號","121.485318333333","24.991675","6500300","中和區"
