"lineid","car","time","location","longitude","latitude","cityid","cityname"
"234081","298-R6","2019/09/28 18:19:35","新北市永和區福和路1號","121.526456666667","25.0099266666667","6500400","永和區"
"234017","745-BX","2019/09/28 18:19:32","新北市永和區福和路1號","121.526426666667","25.00967","6500400","永和區"
"234007","KED-0605","2019/09/28 18:19:31","新北市永和區環河西路二段217巷5號","121.501586666667","25.0099233333333","6500400","永和區"
"234026","9371-KE","2019/09/28 18:19:29","新北市永和區豫溪街42巷18號","121.51535","25.0091","6500400","永和區"
"234011","9373-KE","2019/09/28 18:19:36","新北市永和區光復街42號","121.51688","25.01797","6500400","永和區"
"249005","172-UM","2019/09/28 18:19:30","新北市八里區荖阡坑路15-8號","121.400513333333","25.1401466666667","6502300","八里區"
"249001","173-UM","2019/09/28 18:19:36","新北市八里區龍米路一段129號","121.452178333333","25.1267166666667","6502300","八里區"
"249004","303-UY","2019/09/28 18:19:23","新北市八里區龍米路二段232巷3號","121.431666666667","25.1589516666667","6502300","八里區"
"249002","305-UY","2019/09/28 18:19:33","新北市八里區龍形三街2號","121.45062","25.1320966666667","6502300","八里區"
"249003","593-UM","2019/09/28 18:15:56","新北市八里區博物館路10-1號","121.415093333333","25.16396","6502300","八里區"
"248016","026-BX","2019/09/28 18:19:19","新北市五股區成泰路三段477巷18號","121.449906666667","25.09889","6501500","五股區"
"248006","077-UY","2019/09/28 18:19:27","新北市五股區中興路一段68號","121.467148333333","25.072935","6501500","五股區"
"248008","KED-0815","2019/09/28 18:19:24","新北市五股區更洲路32巷8弄14號","121.459258333333","25.0796066666667","6501500","五股區"
"248020","KED-0813","2019/09/28 18:19:37","新北市五股區孝義路47巷11號","121.453488333333","25.11004","6501500","五股區"
"248012","247-BX","2019/09/28 18:19:22","新北市五股區御史路1巷101弄2號","121.440996666667","25.0911966666667","6501500","五股區"
"248014","261-SL","2019/09/28 18:19:30","新北市五股區自強路68號","121.43324","25.0734816666667","6501500","五股區"
"248004","677-BX","2019/09/28 18:19:24","新北市五股區成泰路二段149號","121.439123333333","25.085505","6501500","五股區"
"248002","678-BX","2019/09/28 18:19:32","新北市五股區西雲路46號","121.443513333333","25.0909133333333","6501500","五股區"
"248010","682-TV","2019/09/28 18:19:17","新北市五股區成泰路一段189巷6號","121.434556666667","25.0766033333333","6501500","五股區"
"234077","969-R7","2019/09/28 18:19:29","新北市永和區福和路1號","121.526411666667","25.00986","6500400","永和區"
"232011","375-UM","2019/09/28 18:19:20","新北市坪林區坪雙路一段41號","121.711725","24.942465","6502000","坪林區"
"244007","080-UY","2019/09/28 18:19:32","新北市林口區湖子18-3號","121.385685","25.0923333333333","6501700","林口區"
"244013","KEA-2802","2019/09/28 18:19:35","新北市林口區文化一路二段100巷17弄16號","121.382998333333","25.0793433333333","6501700","林口區"
"244023","483-VK","2019/09/28 18:19:17","新北市林口區東湖路153巷135號","121.382211666667","25.07353","6501700","林口區"
"244017","485-VK","2019/09/28 18:19:34","新北市林口區公園路8號","121.366145","25.066455","6501700","林口區"
"244009","656-BX","2019/09/28 18:19:31","新北市林口區文林一街11巷23號","121.376433333333","25.08625","6501700","林口區"
"244011","701-TV","2019/09/28 18:19:26","新北市林口區仁愛路一段292號","121.392765","25.0764216666667","6501700","林口區"
"244025","837-TS","2019/09/28 18:19:20","新北市林口區南勢七街28-11號","121.355801666667","25.06897","6501700","林口區"
"244021","838-TS","2019/09/28 18:19:24","新北市林口區自強一街6號","121.397746666667","25.0786316666667","6501700","林口區"
"222003","436-BY","2019/09/28 18:19:24","新北市深坑區旺耽路67號","121.62624","25.0030166666667","6501800","深坑區"
"222002","659-BX","2019/09/28 18:19:19","新北市深坑區雲鄉路22號","121.621326666667","24.9996166666667","6501800","深坑區"
"231061","002-UM","2019/09/28 18:19:29","新北市新店區安華路28-1號","121.519686666667","24.9607466666667","6500600","新店區"
"231055","0291-UT","2019/09/28 18:19:28","新北市新店區秀山路66號","121.530791666667","24.96098","6500600","新店區"
"231044","046-UY","2019/09/28 18:19:34","新北市新店區安華路28-1號","121.519301666667","24.9608166666667","6500600","新店區"
"231060","106-UY","2019/09/28 18:19:24","新北市新店區安華路28-1號","121.51961","24.9608766666667","6500600","新店區"
"231051","107-UY","2019/09/28 18:19:24","新北市新店區安一路一段1-1號","121.519616666667","24.96143","6500600","新店區"
"231065","110-UY","2019/09/28 18:19:23","新北市新店區安一路一段1-1號","121.519353333333","24.961245","6500600","新店區"
"231062","256-BX","2019/09/28 18:19:35","新北市新店區安一路一段1-1號","121.519625","24.9611866666667","6500600","新店區"
"231054","260-TV","2019/09/28 18:19:26","新北市新店區安一路一段1-1號","121.519208333333","24.9612266666667","6500600","新店區"
"231064","278-BY","2019/09/28 18:19:27","新北市新店區安一路一段1-1號","121.519676666667","24.96108","6500600","新店區"
"231050","AAD-862","2019/09/28 18:19:35","新北市新店區安一路一段1-1號","121.519793333333","24.961195","6500600","新店區"
"231045","355-BY","2019/09/28 18:19:28","新北市新店區安華路28-1號","121.51917","24.960915","6500600","新店區"
"231058","3713-VJ","2019/09/28 18:19:18","新北市新店區安康路一段96號","121.527591666667","24.9623033333333","6500600","新店區"
"231056","4715-K9","2019/09/28 18:19:27","新北市新店區中央路228號","121.529558333333","24.97275","6500600","新店區"
"231052","515-UM","2019/09/28 18:19:28","新北市新店區安康路一段11號","121.533465","24.9604366666667","6500600","新店區"
"231063","641-BX","2019/09/28 18:19:35","新北市新店區安華路1-1號","121.519538333333","24.9603416666667","6500600","新店區"
"231040","898-TW","2019/09/28 18:19:21","新北市新店區安一路一段1-1號","121.519468333333","24.9610633333333","6500600","新店區"
"231043","899-TW","2019/09/28 18:19:22","新北市新店區安華路28-1號","121.519111666667","24.9607633333333","6500600","新店區"
"241024","065-VK","2019/09/28 18:19:26","新北市蘆洲區永安南路一段132號","121.470343333333","25.0760016666667","6500200","三重區"
"241032","269-UM","2019/09/28 18:19:28","新北市三重區光復路二段180號","121.47163","25.0623016666667","6500200","三重區"
"235063","006-UY","2019/09/28 18:19:22","新北市中和區連城路347巷45號","121.488626666667","24.994675","6500300","中和區"
"235056","096-UM","2019/09/28 18:19:21","新北市中和區員山路568號","121.478643333333","25.0108033333333","6500300","中和區"
"235039","097-UM","2019/09/28 18:19:21","新北市中和區宜安路62號","121.511551666667","24.99699","6500300","中和區"
"235065","098-UM","2019/09/28 18:19:22","新北市中和區莊敬路49巷18號","121.501646666667","25.0061066666667","6500300","中和區"
"235040","150-BY","2019/09/28 18:19:21","新北市中和區安平路59號","121.509613333333","24.9951733333333","6500300","中和區"
"235058","151-BY","2019/09/28 18:19:32","新北市中和區圓通路369巷39-24號","121.490096666667","24.98536","6500300","中和區"
"235055","183-VK","2019/09/28 18:19:32","新北市土城區延壽路111巷2號","121.469156666667","24.993795","6500300","中和區"
"235038","185-VK","2019/09/28 18:19:35","新北市中和區大智街115號","121.523706666667","24.9925733333333","6500300","中和區"
"235072","301-VK","2019/09/28 18:19:39","新北市中和區連城路263巷1號","121.492148333333","24.9965316666667","6500300","中和區"
"235043","352-BY","2019/09/28 18:19:22","新北市中和區景平路381號","121.503913333333","24.9933216666667","6500300","中和區"
"235042","KEA-2878","2019/09/28 18:19:28","新北市中和區大仁街20巷25弄19號","121.51855","24.993555","6500300","中和區"
"235050","4979-A6","2019/09/28 18:19:19","新北市中和區捷運路61巷26號","121.50903","24.98924","6500300","中和區"
"235069","4980-A6","2019/09/28 18:19:28","新北市中和區安邦街10號","121.49566","24.9981616666667","6500300","中和區"
"235070","558-UM","2019/09/28 18:19:19","新北市中和區南山路127巷18弄46號","121.503368333333","24.9964583333333","6500300","中和區"
"235045","565-BX","2019/09/28 18:19:34","新北市中和區南山路236巷22弄10號","121.505473333333","24.9892366666667","6500300","中和區"
"235060","KED-0823","2019/09/28 18:19:33","新北市中和區中山路二段578號","121.482763333333","25.005095","6500300","中和區"
"235054","640-BX","2019/09/28 18:19:34","新北市中和區民享街100號","121.47476","24.99955","6500300","中和區"
"235047","732-UM","2019/09/28 18:19:37","新北市中和區南山路479號","121.507891666667","24.988295","6500300","中和區"
"235046","733-UM","2019/09/28 18:19:22","新北市中和區中正路271-1號","121.49577","24.9936366666667","6500300","中和區"
"235057","801-TS","2019/09/28 18:19:17","新北市中和區民安街59號","121.478893333333","24.99974","6500300","中和區"
"235041","802-TS","2019/09/28 18:19:28","新北市中和區中正路273-2號","121.495696666667","24.9935483333333","6500300","中和區"
"235052","805-TS","2019/09/28 18:19:34","新北市中和區興南路二段96號","121.50519","24.98423","6500300","中和區"
"235048","896-TW","2019/09/28 18:19:35","新北市中和區錦和路350-1號","121.490475","24.993555","6500300","中和區"
"235053","900-TW","2019/09/28 18:19:34","新北市中和區中正路637巷52弄1號","121.485343333333","24.9936916666667","6500300","中和區"
"235064","911-UM","2019/09/28 18:19:34","新北市中和區圓通路141巷48弄3號","121.498665","24.9942533333333","6500300","中和區"
"235051","157-BY","2019/09/28 18:19:29","新北市中和區興南路二段242巷21號","121.502425","24.9829966666667","6500300","中和區"
"235037","AAC-213","2019/09/28 18:19:18","新北市中和區景德街95-2號","121.51548","24.9911266666667","6500300","中和區"
"235059","AAC-215","2019/09/28 18:19:38","新北市中和區員山路36巷16-3號","121.485035","24.991405","6500300","中和區"
"226004","312-R5","2019/09/28 18:19:35","新北市平溪區薯榔里一坑路67號","121.713021666667","25.0224683333333","6502400","平溪區"
"235049","251-BX","2019/09/28 18:19:21","新北市中和區中正路273號","121.4956","24.9936583333333","6500300","中和區"
"228003","097-TW","2019/09/28 18:19:28","新北市貢寮區真理里美艷山街63號","121.921435","25.0717783333333","6502600","貢寮區"
"228001","212-TW","2019/09/28 18:19:34","新北市貢寮區真理里新港街26巷55弄2-1號","121.927386666667","25.0528433333333","6502600","貢寮區"
"228002","663-BX","2019/09/28 18:19:32","新北市貢寮區福連里馬崗街1號","121.996136666667","25.0164916666667","6502600","貢寮區"
"224006","676-BX","2019/09/28 18:19:24","新北市瑞芳區三爪子坑路106巷112號","121.808453333333","25.104435","6501200","瑞芳區"
"224002","639-TC","2019/09/28 18:19:21","新北市瑞芳區三爪子坑路149巷20號","121.811246666667","25.1065466666667","6501200","瑞芳區"
"224007","285-BY","2019/09/28 18:19:35","新北市瑞芳區大埔路國宅新村1號","121.764885","25.1008933333333","6501200","瑞芳區"
"224009","275-VK","2019/09/28 18:19:24","新北市瑞芳區祈堂路223號","121.856938333333","25.109425","6501200","瑞芳區"
"224008","273-VK","2019/09/28 18:19:20","新北市瑞芳區逢甲路13號","121.809888333333","25.1086516666667","6501200","瑞芳區"
"224005","271-BY","2019/09/28 18:19:32","新北市瑞芳區建基路二段7號","121.808295","25.13258","6501200","瑞芳區"
"227001","642-TC","2019/09/28 18:19:20","新北市雙溪區牡丹里牡丹73號","121.851698333333","25.0593716666667","6502500","雙溪區"
"227002","400-TW","2019/09/28 18:19:21","新北市雙溪區共和里中山路2號","121.8638","25.0338066666667","6502500","雙溪區"
"253005","032-BX","2019/09/28 18:19:18","新北市石門區中央路25-5號","121.56798","25.2930816666667","6502200","石門區"
"253006","295-VK","2019/09/28 18:19:34","新北市石門區老梅路67號","121.545875","25.2892633333333","6502200","石門區"
"222001","KEA-2212","2019/09/28 18:19:39","新北市深坑區北深路二段51-1號","121.619186666667","25.0041716666667","6501800","深坑區"
"208002","KEA-2872","2019/09/28 18:19:39","新北市金山區磺清路135號","121.639395","25.22732","6502700","金山區"
"208003","665-BX","2019/09/28 18:19:33","新北市金山區中山路69號","121.641728333333","25.2186133333333","6502700","金山區"
"251004","009-UM","2019/09/28 18:19:36","新北市淡水區民權路215巷104號","121.462765","25.1336183333333","6501000","淡水區"
"251005","010-UM","2019/09/28 18:19:22","新北市淡水區水源街一段122巷39號","121.447286666667","25.1704116666667","6501000","淡水區"
"251015","KEA-2871","2019/09/28 18:19:30","新北市淡水區興福寮88巷85號","121.484536666667","25.1655866666667","6501000","淡水區"
"251016","179-VK","2019/09/28 18:19:32","新北市淡水區淡金路三段228巷17號","121.449683333333","25.204965","6501000","淡水區"
"251013","180-VK","2019/09/28 18:19:26","新北市淡水區行忠路657號","121.47013","25.1992066666667","6501000","淡水區"
"251008","181-VK","2019/09/28 18:19:27","新北市淡水區水源街二段346巷1弄1號","121.463398333333","25.1758716666667","6501000","淡水區"
"251010","413-VK","2019/09/28 18:19:26","新北市淡水區淡海路223號","121.420228333333","25.18545","6501000","淡水區"
"251012","441-VK","2019/09/28 18:19:23","新北市淡水區北新路二段77-5號","121.480606666667","25.1855566666667","6501000","淡水區"
"251001","559-UM","2019/09/28 18:19:17","新北市淡水區自強路108-19號","121.461685","25.1313483333333","6501000","淡水區"
"251006","561-UM","2019/09/28 18:19:31","新北市淡水區新民街62號","121.438918333333","25.1760516666667","6501000","淡水區"
"251014","577-R6","2019/09/28 18:19:29","新北市淡水區崙頂16號","121.49148","25.2216366666667","6501000","淡水區"
"251011","650-BX","2019/09/28 18:19:32","新北市淡水區三空泉6-3號","121.477055","25.162315","6501000","淡水區"
"251002","672-BX","2019/09/28 18:19:29","新北市淡水區中正東路一段91號","121.453148333333","25.1613733333333","6501000","淡水區"
"251003","766-UM","2019/09/28 18:19:30","新北市淡水區北新路180號","121.449501666667","25.1787066666667","6501000","淡水區"
"207003","550-UM","2019/09/28 18:19:34","新北市萬里區野柳里港西路74號","121.685711666667","25.20507","6502800","萬里區"
"207004","291-VK","2019/09/28 18:19:27","新北市萬里區中幅里中福路211號","121.672563333333","25.165115","6502800","萬里區"
"252002","178-VK","2019/09/28 18:19:24","新北市三芝區中山路二段39號","121.502958333333","25.25512","6502100","三芝區"
"252003","249-BX","2019/09/28 18:19:25","新北市三芝區錫板里南勢崗5-5號","121.480686666667","25.2630966666667","6502100","三芝區"
"208001","170-UY","2019/09/28 18:19:37","新北市金山區中山路16號","121.641248333333","25.2176183333333","6502700","金山區"
"237004","KEA-2597","2019/09/28 18:19:31","新北市三峽區五寮41-6號","121.367446666667","24.8646883333333","6500900","三峽區"
"237007","153-BY","2019/09/28 18:19:20","新北市三峽區中正路二段608號","121.358773333333","24.9056883333333","6500900","三峽區"
"237009","210-TH","2019/09/28 18:19:29","新北市三峽區大勇路3巷2-1號","121.36713","24.937225","6500900","三峽區"
"237013","252-BX","2019/09/28 18:19:30","新北市三峽區永安街45號","121.376155","24.930135","6500900","三峽區"
"237012","275-BY","2019/09/28 18:19:37","新北市三峽區民生街1巷1-6號","121.377123333333","24.93678","6500900","三峽區"
"237008","302-VK","2019/09/28 18:19:29","新北市三峽區白雞68-188號","121.392163333333","24.9072316666667","6500900","三峽區"
"237014","433-BY","2019/09/28 18:19:20","新北市三峽區復興路78號","121.3732","24.93737","6500900","三峽區"
"237006","5529-G3","2019/09/28 18:19:24","新北市三峽區溪東路218巷32號","121.407118333333","24.9301683333333","6500900","三峽區"
"237015","649-BX","2019/09/28 18:19:25","新北市三峽區竹崙路10號","121.426701666667","24.9227483333333","6500900","三峽區"
"237011","078-UY","2019/09/28 18:19:36","新北市三峽區橫溪路7號","121.39612","24.9360683333333","6500900","三峽區"
"237010","706-TV","2019/09/28 18:19:29","新北市三峽區民族街81號","121.369508333333","24.9292983333333","6500900","三峽區"
"237005","AKY-6261","2019/09/28 18:19:26","新北市三峽區長福街13-1號","121.370498333333","24.933815","6500900","三峽區"
"236042","KED-0685","2019/09/28 18:19:25","新北市土城區樂利街3巷6號","121.448468333333","24.9861483333333","6501300","土城區"
"236079","166-UM","2019/09/28 18:19:34","新北市土城區中央路三段281巷1號","121.426786666667","24.9631316666667","6501300","土城區"
"236030","253-BX","2019/09/28 18:19:30","新北市土城區順風路28號","121.440303333333","24.9769916666667","6501300","土城區"
"236026","269-VK","2019/09/28 18:19:26","新北市土城區承天路67號","121.43956","24.9635366666667","6501300","土城區"
"236014","270-VK","2019/09/28 18:19:24","新北市土城區青雲路39巷7號","121.460255","24.9874016666667","6501300","土城區"
"236038","271-VK","2019/09/28 18:19:36","新北市土城區青雲路483巷9號","121.459341666667","24.9735883333333","6501300","土城區"
"236070","KEA-2877","2019/09/28 18:19:33","新北市土城區明德路一段126號","121.463918333333","24.9790716666667","6501300","土城區"
"252001","KED-0821","2019/09/28 18:19:22","新北市三芝區中興街二段2號","121.498345","25.2566666666667","6502100","三芝區"
"236021","401-BY","2019/09/28 18:19:18","新北市土城區明德路一段375-3號","121.454506666667","24.9783266666667","6501300","土城區"
"236059","912-UM","2019/09/28 18:19:35","新北市土城區中央路四段464號","121.409963333333","24.9505283333333","6501300","土城區"
"236049","913-UM","2019/09/28 18:19:24","新北市土城區明德路一段361-2號","121.456418333333","24.977665","6501300","土城區"
"236063","915-UM","2019/09/28 18:19:21","新北市土城區裕民路280號","121.455365","24.9821183333333","6501300","土城區"
"236055","AAC-216","2019/09/28 18:19:27","新北市土城區中華路二段196號","121.437501666667","24.9707016666667","6501300","土城區"
"242042","AAC-296","2019/09/28 18:19:37","新北市新莊區天祥街90號","121.415333333333","25.02949","6500500","新莊區"
"242061","986-R7","2019/09/28 18:19:27","新北市新莊區新樹路69-4號","121.438733333333","25.0297216666667","6500500","新莊區"
"242027","613-BX","2019/09/28 18:19:32","新北市新莊區幸福路749號","121.448501666667","25.0490783333333","6500500","新莊區"
"242058","612-BX","2019/09/28 18:19:16","新北市新莊區新北大道七段782號","121.412941666667","25.0247333333333","6500500","新莊區"
"242048","566-BX","2019/09/28 18:19:31","新北市新莊區民安路47號","121.42387","25.0263283333333","6500500","新莊區"
"242053","497-BY","2019/09/28 18:19:22","新北市新莊區民安西路392-7號","121.428596666667","25.0097416666667","6500500","新莊區"
"242004","442-UM","2019/09/28 18:19:21","新北市新莊區中港一街6號","121.451783333333","25.0457683333333","6500500","新莊區"
"242002","441-UM","2019/09/28 18:19:25","新北市新莊區碧江街18-7號","121.45543","25.0346083333333","6500500","新莊區"
"242007","440-UM","2019/09/28 18:19:18","新北市新莊區自強街69巷8號","121.454145","25.0474533333333","6500500","新莊區"
"242044","415-TV","2019/09/28 18:19:38","新北市新莊區天泉二街24巷2號","121.414911666667","25.0252883333333","6500500","新莊區"
"242051","400-BY","2019/09/28 18:19:24","新北市新莊區民本街5巷1號","121.427873333333","25.0200633333333","6500500","新莊區"
"242025","362-BY","2019/09/28 18:19:21","新北市新莊區五工三路94巷11號","121.458573333333","25.0659566666667","6500500","新莊區"
"242015","132-UY","2019/09/28 18:19:36","新北市新莊區中平路184巷10弄7號","121.44553","25.0484133333333","6500500","新莊區"
"242039","135-UY","2019/09/28 18:19:19","新北市新莊區新樹路206巷20號","121.43265","25.02185","6500500","新莊區"
"242056","172-VK","2019/09/28 18:19:28","新北市新莊區豐年街53巷48號","121.447965","25.03177","6500500","新莊區"
"242031","175-VK","2019/09/28 18:19:34","新北市新莊區新泰路255巷76號","121.443163333333","25.039455","6500500","新莊區"
"242021","KED-0687","2019/09/28 18:19:22","新北市新莊區中正路170號","121.45074","25.03591","6500500","新莊區"
"242036","348-TH","2019/09/28 18:19:20","新北市新莊區新樹路172-13號","121.43459","25.0216016666667","6500500","新莊區"
"242009","349-TH","2019/09/28 18:19:19","新北市新莊區中華路二段152-1號","121.453216666667","25.0506116666667","6500500","新莊區"
"242034","350-TH","2019/09/28 18:19:35","新北市新莊區景德路201號","121.449658333333","25.0337216666667","6500500","新莊區"
"242019","351-TH","2019/09/28 18:19:34","新北市新莊區新泰路308號","121.445353333333","25.0412083333333","6500500","新莊區"
"238015","755-BX","2019/09/28 18:19:35","新北市樹林區文化街116巷2號","121.416398333333","24.9894416666667","6500700","樹林區"
"238023","601-UM","2019/09/28 18:19:36","新北市樹林區忠義街19號","121.409603333333","25.0150333333333","6500700","樹林區"
"238019","599-UM","2019/09/28 18:19:22","新北市樹林區水源街32巷36號","121.425165","24.98096","6500700","樹林區"
"238024","5061-A6","2019/09/28 18:19:23","新北市樹林區保安二街149號","121.422408333333","24.9952466666667","6500700","樹林區"
"238018","KEA-2217","2019/09/28 18:19:34","新北市樹林區保安街一段20巷1號","121.427563333333","24.9935633333333","6500700","樹林區"
"238025","303-VK","2019/09/28 18:19:30","新北市樹林區保安街一段204號","121.42117","24.9958366666667","6500700","樹林區"
"238017","283-BY","2019/09/28 18:19:31","新北市樹林區保安街二段333巷2號","121.412476666667","25.00761","6500700","樹林區"
"238014","282-BY","2019/09/28 18:19:31","新北市樹林區大安路111巷11號","121.423123333333","24.997655","6500700","樹林區"
"238020","268-VK","2019/09/28 18:19:34","新北市樹林區三俊街72-1號","121.413493333333","25.0157016666667","6500700","樹林區"
"238026","172-UY","2019/09/28 18:19:39","新北市樹林區佳園路一段50號","121.392921666667","24.9707","6500700","樹林區"
"239007","AAC-297","2019/09/28 18:19:28","新北市鶯歌區南雅路41號","121.348656666667","24.9542033333333","6500800","鶯歌區"
"239006","891-R6","2019/09/28 18:19:22","新北市鶯歌區鶯桃路365巷110號","121.330371666667","24.9620983333333","6500800","鶯歌區"
"239008","527-UM","2019/09/28 18:19:19","新北市鶯歌區朝陽街4號","121.336246666667","24.9766033333333","6500800","鶯歌區"
"239005","526-UM","2019/09/28 18:19:34","新北市鶯歌區鶯桃路668巷73號","121.329938333333","24.9717866666667","6500800","鶯歌區"
"239001","417-VK","2019/09/28 18:19:31","新北市鶯歌區尖山路276-1號","121.341435","24.9451466666667","6500800","鶯歌區"
"239003","360-BY","2019/09/28 18:19:31","新北市鶯歌區福安街58號","121.335645","24.9652183333333","6500800","鶯歌區"
"239002","359-BY","2019/09/28 18:19:22","新北市鶯歌區永明街135號","121.342856666667","24.9559183333333","6500800","鶯歌區"
"239004","193-VK","2019/09/28 18:19:25","新北市鶯歌區尖山路166巷36-1號","121.344918333333","24.949165","6500800","鶯歌區"
"221036","130-UY","2019/09/28 18:19:28","新北市汐止區長安路144號","121.671025","25.07739","6501100","汐止區"
"221015","131-UY","2019/09/28 18:19:36","新北市汐止區長江街365號","121.667976666667","25.0823433333333","6501100","汐止區"
"244019","KED-0667","2019/09/28 18:19:25","新北市林口區忠孝路622巷5號","121.377856666667","25.0672783333333","6501700","林口區"
"221010","269-BY","2019/09/28 18:19:20","新北市汐止區祥雲街15巷1號","121.646325","25.0900283333333","6501100","汐止區"
"221012","278-VK","2019/09/28 18:19:22","新北市汐止區保一街51號","121.674436666667","25.0800716666667","6501100","汐止區"
"221023","279-VK","2019/09/28 18:19:38","新北市汐止區中興路201號","121.629221666667","25.0684583333333","6501100","汐止區"
"221032","280-BY","2019/09/28 18:19:17","新北市汐止區力行街46號","121.616646666667","25.0498666666667","6501100","汐止區"
"221027","281-BY","2019/09/28 18:19:36","新北市汐止區和平街25號","121.66272","25.0707633333333","6501100","汐止區"
"221021","299-VK","2019/09/28 18:19:28","新北市汐止區龍安路21號","121.655543333333","25.0639216666667","6501100","汐止區"
"221031","353-TW","2019/09/28 18:19:22","新北市汐止區中興路158-1號","121.632215","25.065055","6501100","汐止區"
"221035","622-UM","2019/09/28 18:19:23","新北市汐止區汐萬路一段20號","121.655935","25.0675916666667","6501100","汐止區"
"221025","623-UM","2019/09/28 18:19:32","新北市汐止區勤進路12巷27號","121.65915","25.062355","6501100","汐止區"
"221038","646-BX","2019/09/28 18:19:31","新北市汐止區仁愛路178號","121.66478","25.06567","6501100","汐止區"
"221033","647-BX","2019/09/28 18:19:32","新北市汐止區宜興街40巷3號","121.622058333333","25.041955","6501100","汐止區"
"221002","707-TV","2019/09/28 18:19:22","新北市汐止區福德一路201巷19號","121.636075","25.0649466666667","6501100","汐止區"
"221018","753-BX","2019/09/28 18:19:18","新北市汐止區茄苳路72巷9號","121.666591666667","25.0701916666667","6501100","汐止區"
"220080","200-UY","2019/09/28 18:19:31","新北市板橋區華東街1-9號","121.448168333333","24.9949366666667","6500100","板橋區"
"220082","610-BX","2019/09/28 18:19:27","新北市板橋區華東街1-9號","121.448231666667","24.9948916666667","6500100","板橋區"
"242046","281-VK","2019/09/28 18:19:32","新北市新莊區中正路829巷22弄45號","121.42063","25.0267966666667","6500500","新莊區"
"242011","280-VK","2019/09/28 18:19:23","新北市新莊區中港路591巷32號","121.44971","25.0523316666667","6500500","新莊區"
"235068","KEA-2873","2019/09/28 18:19:11","新北市中和區員山路36巷16-8號","121.485391666667","24.9924066666667","6500300","中和區"
"235061","KEA-2875","2019/09/28 18:19:17","新北市中和區民享街97巷2號","121.475053333333","24.9993533333333","6500300","中和區"
"235062","KEA-2876","2019/09/28 18:19:12","新北市中和區景平路707號","121.496558333333","25.0036316666667","6500300","中和區"
