"lineid","car","time","location","longitude","latitude","cityid","cityname"
"234046","148-BY","2019/09/28 18:29:22","新北市永和區福和路1號","121.526423333333","25.0099466666667","6500400","永和區"
"234081","298-R6","2019/09/28 18:29:35","新北市永和區福和路1號","121.526451666667","25.0099216666667","6500400","永和區"
"234017","745-BX","2019/09/28 18:29:32","新北市永和區福和路1號","121.526425","25.0097283333333","6500400","永和區"
"234007","KED-0605","2019/09/28 18:29:31","新北市永和區新生路2-7號","121.50934","25.016985","6500400","永和區"
"234026","9371-KE","2019/09/28 18:29:29","新北市永和區永貞路419號","121.50716","25.0093633333333","6500400","永和區"
"234011","9373-KE","2019/09/28 18:29:36","新北市永和區保福路二段158巷1號","121.509088333333","25.014985","6500400","永和區"
"249005","172-UM","2019/09/28 18:29:30","新北市八里區中華路三段145巷9號","121.39231","25.1331966666667","6502300","八里區"
"249001","173-UM","2019/09/28 18:29:36","新北市八里區龍米路一段156號","121.452763333333","25.12589","6502300","八里區"
"249004","303-UY","2019/09/28 18:29:23","新北市八里區忠孝路70號","121.426375","25.1604033333333","6502300","八里區"
"249002","305-UY","2019/09/28 18:29:33","新北市八里區龍形二街41號","121.45014","25.1328466666667","6502300","八里區"
"249003","593-UM","2019/09/28 18:15:56","新北市八里區博物館路10-1號","121.415093333333","25.16396","6502300","八里區"
"248016","026-BX","2019/09/28 18:29:28","新北市五股區凌雲路一段83巷22弄7號","121.450045","25.1009133333333","6501500","五股區"
"248008","KED-0815","2019/09/28 18:29:24","新北市蘆洲區永安南路二段150號","121.461938333333","25.0784266666667","6501500","五股區"
"248020","KED-0813","2019/09/28 18:29:39","新北市五股區孝義路90號","121.448908333333","25.1151616666667","6501500","五股區"
"248012","247-BX","2019/09/28 18:29:22","新北市五股區御成路108號","121.441573333333","25.093515","6501500","五股區"
"248014","261-SL","2019/09/28 18:29:29","新北市五股區明德路5號","121.435086666667","25.071275","6501500","五股區"
"248004","677-BX","2019/09/28 18:29:24","新北市五股區民義路一段152號","121.433133333333","25.08744","6501500","五股區"
"248002","678-BX","2019/09/28 18:29:32","新北市五股區西雲路116-6號","121.444733333333","25.0936266666667","6501500","五股區"
"248010","682-TV","2019/09/28 18:29:37","新北市五股區水碓路16巷9號","121.433933333333","25.0729566666667","6501500","五股區"
"234077","969-R7","2019/09/28 18:29:29","新北市永和區福和路1號","121.526431666667","25.0098483333333","6500400","永和區"
"232011","375-UM","2019/09/28 18:29:20","新北市坪林區坪雙路一段43號","121.711725","24.9425266666667","6502000","坪林區"
"244007","080-UY","2019/09/28 18:29:32","新北市林口區後湖19-1號","121.38785","25.098525","6501700","林口區"
"244013","KEA-2802","2019/09/28 18:29:27","新北市林口區中正路514巷17號","121.381845","25.0775983333333","6501700","林口區"
"244023","483-VK","2019/09/28 18:29:37","新北市林口區仁愛路二段46號","121.385036666667","25.0757866666667","6501700","林口區"
"244017","485-VK","2019/09/28 18:29:34","新北市林口區八德路78號","121.3656","25.0657066666667","6501700","林口區"
"244009","656-BX","2019/09/28 18:29:31","新北市林口區竹林路564號","121.386785","25.0836683333333","6501700","林口區"
"244011","701-TV","2019/09/28 18:29:26","新北市林口區林口路9號","121.391698333333","25.07774","6501700","林口區"
"244025","837-TS","2019/09/28 18:29:20","新北市林口區源泉街43號","121.357305","25.072205","6501700","林口區"
"244021","838-TS","2019/09/28 18:29:24","新北市林口區自強二街46號","121.39909","25.07718","6501700","林口區"
"222003","436-BY","2019/09/28 18:29:24","新北市深坑區翠谷街49號","121.627258333333","25.0092566666667","6501800","深坑區"
"222002","659-BX","2019/09/28 18:29:19","新北市深坑區雲鄉路133號","121.622793333333","24.9980633333333","6501800","深坑區"
"231061","002-UM","2019/09/28 18:29:29","新北市新店區安華路28-1號","121.519683333333","24.9606966666667","6500600","新店區"
"231055","0291-UT","2019/09/28 18:29:28","新北市新店區北新路一段140號","121.542526666667","24.9704416666667","6500600","新店區"
"231044","046-UY","2019/09/28 18:29:34","新北市新店區安華路28-1號","121.519355","24.96077","6500600","新店區"
"231060","106-UY","2019/09/28 18:29:24","新北市新店區安華路28-1號","121.519555","24.9608883333333","6500600","新店區"
"231051","107-UY","2019/09/28 18:29:24","新北市新店區安一路一段1-1號","121.519578333333","24.9612483333333","6500600","新店區"
"231065","110-UY","2019/09/28 18:29:23","新北市新店區安一路一段1-1號","121.519391666667","24.961125","6500600","新店區"
"231062","256-BX","2019/09/28 18:29:35","新北市新店區安一路一段1-1號","121.519628333333","24.961075","6500600","新店區"
"231054","260-TV","2019/09/28 18:29:25","新北市新店區安一路一段1-1號","121.519253333333","24.9612466666667","6500600","新店區"
"231042","268-BY","2019/09/28 18:29:22","新北市新店區安華路28-1號","121.519448333333","24.9607483333333","6500600","新店區"
"231064","278-BY","2019/09/28 18:29:28","新北市新店區安一路一段1-1號","121.519736666667","24.9610566666667","6500600","新店區"
"231050","AAD-862","2019/09/28 18:29:35","新北市新店區安一路一段1-1號","121.519653333333","24.9611966666667","6500600","新店區"
"231045","355-BY","2019/09/28 18:29:28","新北市新店區安華路28-1號","121.519138333333","24.9609183333333","6500600","新店區"
"231058","3713-VJ","2019/09/28 18:29:38","新北市新店區環河路19巷15號","121.537605","24.9601433333333","6500600","新店區"
"231056","4715-K9","2019/09/28 18:29:27","新北市新店區二十張路129巷5弄5號","121.53665","24.9788133333333","6500600","新店區"
"231052","515-UM","2019/09/28 18:29:28","新北市新店區北宜路一段254號","121.545491666667","24.9528166666667","6500600","新店區"
"231063","641-BX","2019/09/28 18:29:35","新北市新店區安華路28-1號","121.519496666667","24.9605266666667","6500600","新店區"
"231048","KED-0819","2019/09/28 18:29:21","新北市新店區安一路一段1-1號","121.51985","24.96113","6500600","新店區"
"231040","898-TW","2019/09/28 18:29:21","新北市新店區安一路一段1-1號","121.519501666667","24.9610833333333","6500600","新店區"
"231043","899-TW","2019/09/28 18:29:22","新北市新店區安華路28-1號","121.519116666667","24.9608083333333","6500600","新店區"
"235063","006-UY","2019/09/28 18:29:22","新北市中和區連城路403巷2弄2號","121.486181666667","24.9959183333333","6500300","中和區"
"235056","096-UM","2019/09/28 18:29:21","新北市中和區員山路611巷1號","121.47787","25.0112516666667","6500300","中和區"
"235039","097-UM","2019/09/28 18:29:21","新北市中和區安樂路241號","121.514151666667","24.9994733333333","6500300","中和區"
"235065","098-UM","2019/09/28 18:29:22","新北市中和區中山路二段64巷12號","121.503546666667","25.005195","6500300","中和區"
"235040","150-BY","2019/09/28 18:29:21","新北市中和區安平路59號","121.509593333333","24.9951116666667","6500300","中和區"
"235058","151-BY","2019/09/28 18:29:32","新北市中和區圓通路369巷30弄100號","121.487853333333","24.9845516666667","6500300","中和區"
"235055","183-VK","2019/09/28 18:29:34","新北市中和區民生街22號","121.470096666667","25.0053716666667","6500300","中和區"
"235038","185-VK","2019/09/28 18:29:35","新北市中和區自強路60號","121.520005","24.99442","6500300","中和區"
"235067","255-BX","2019/09/28 18:29:23","新北市中和區新生街28號","121.483131666667","25.00395","6500300","中和區"
"235072","301-VK","2019/09/28 18:29:19","新北市中和區連城路145號","121.495723333333","24.9987166666667","6500300","中和區"
"235043","352-BY","2019/09/28 18:29:22","新北市中和區景平路257號","121.508613333333","24.9930016666667","6500300","中和區"
"235042","KEA-2878","2019/09/28 18:29:31","新北市中和區自立路56巷19號","121.522563333333","24.99162","6500300","中和區"
"235050","4979-A6","2019/09/28 18:29:39","新北市中和區景新街410巷18弄23號","121.51182","24.9898533333333","6500300","中和區"
"235069","4980-A6","2019/09/28 18:29:28","新北市中和區連城路99巷3號","121.496786666667","24.9994733333333","6500300","中和區"
"235070","558-UM","2019/09/28 18:29:19","新北市中和區南華路45號","121.503825","24.9966583333333","6500300","中和區"
"235045","565-BX","2019/09/28 18:29:34","新北市中和區南山路236巷22弄39號","121.504335","24.9890466666667","6500300","中和區"
"235060","KED-0823","2019/09/28 18:29:33","新北市中和區中山路三段33號","121.47906","25.0057883333333","6500300","中和區"
"235054","640-BX","2019/09/28 18:29:34","新北市中和區民享街86巷27號","121.472966666667","25.000465","6500300","中和區"
"235047","732-UM","2019/09/28 18:29:18","新北市中和區南山路479號","121.507828333333","24.9884133333333","6500300","中和區"
"235046","733-UM","2019/09/28 18:29:22","新北市中和區仁愛街95號","121.511793333333","24.986725","6500300","中和區"
"235057","801-TS","2019/09/28 18:29:37","新北市中和區員山路327巷5號","121.480745","25.0013916666667","6500300","中和區"
"235041","802-TS","2019/09/28 18:29:28","新北市中和區宜安路166號","121.50899","24.9990516666667","6500300","中和區"
"235052","805-TS","2019/09/28 18:29:34","新北市中和區興南路二段104號","121.50485","24.9840233333333","6500300","中和區"
"235048","896-TW","2019/09/28 18:29:35","新北市中和區中正路46號","121.501921666667","24.9935566666667","6500300","中和區"
"235053","900-TW","2019/09/28 18:29:34","新北市中和區民享街462號","121.469743333333","24.9922516666667","6500300","中和區"
"235064","911-UM","2019/09/28 18:29:34","新北市中和區景平路597號","121.49704","25.0005533333333","6500300","中和區"
"235051","157-BY","2019/09/28 18:29:29","新北市中和區興南路二段114巷10弄38號","121.504031666667","24.9851383333333","6500300","中和區"
"235037","AAC-213","2019/09/28 18:29:18","新北市中和區景德街52號","121.517613333333","24.991525","6500300","中和區"
"235059","AAC-215","2019/09/28 18:29:18","新北市中和區員山路36巷16-3號","121.485026666667","24.9912666666667","6500300","中和區"
"220065","072-UY","2019/09/28 18:29:22","新北市板橋區南雅南路二段1-1號","121.454828333333","25.00383","6500100","板橋區"
"226004","312-R5","2019/09/28 18:29:35","新北市平溪區靜安路二段293號","121.733395","25.0232583333333","6502400","平溪區"
"235049","251-BX","2019/09/28 18:29:21","新北市中和區景安路123號","121.50577","24.996205","6500300","中和區"
"228003","097-TW","2019/09/28 18:29:28","新北市貢寮區和美里和美街38號","121.912256666667","25.08922","6502600","貢寮區"
"228001","212-TW","2019/09/28 18:29:34","新北市貢寮區仁理村仁和路166號","121.923408333333","25.0521916666667","6502600","貢寮區"
"228002","663-BX","2019/09/28 18:29:32","新北市貢寮區福連里福連街37號","121.988861666667","25.0108416666667","6502600","貢寮區"
"224010","AGQ-8101","2019/09/28 18:29:29","新北市瑞芳區烏勢巷107號","121.846156666667","25.1086183333333","6501200","瑞芳區"
"224006","676-BX","2019/09/28 18:29:24","新北市瑞芳區逢甲路72號","121.810781666667","25.1082566666667","6501200","瑞芳區"
"224002","639-TC","2019/09/28 18:29:29","新北市瑞芳區三爪子坑路69巷34號","121.812611666667","25.1062783333333","6501200","瑞芳區"
"224007","285-BY","2019/09/28 18:29:35","新北市瑞芳區大埔路有勝二村26號","121.763888333333","25.099815","6501200","瑞芳區"
"224009","275-VK","2019/09/28 18:29:24","新北市瑞芳區五號路215號","121.856048333333","25.1103566666667","6501200","瑞芳區"
"224008","273-VK","2019/09/28 18:29:20","新北市瑞芳區岳王路1巷13號","121.806246666667","25.11037","6501200","瑞芳區"
"224005","271-BY","2019/09/28 18:29:32","新北市瑞芳區台電新村123號","121.811231666667","25.1275616666667","6501200","瑞芳區"
"227001","642-TC","2019/09/28 18:29:34","新北市雙溪區牡丹里牡丹131號","121.85085","25.059335","6502500","雙溪區"
"227002","400-TW","2019/09/28 18:29:21","新北市雙溪區魚行里新店45號","121.86957","25.0311183333333","6502500","雙溪區"
"253005","032-BX","2019/09/28 18:29:18","新北市石門區老崩山11-13號","121.55185","25.2905866666667","6502200","石門區"
"253006","295-VK","2019/09/28 18:29:28","新北市石門區公地16號","121.545748333333","25.2902383333333","6502200","石門區"
"222001","KEA-2212","2019/09/28 18:29:38","新北市深坑區北深路一段175號","121.632988333333","25.0108716666667","6501800","深坑區"
"208002","KEA-2872","2019/09/28 18:29:19","新北市金山區民生路200號","121.644685","25.22257","6502700","金山區"
"208003","665-BX","2019/09/28 18:29:33","新北市金山區中山路192號","121.637903333333","25.2215283333333","6502700","金山區"
"251004","009-UM","2019/09/28 18:29:36","新北市淡水區民族路31巷36號","121.462565","25.1365933333333","6501000","淡水區"
"251005","010-UM","2019/09/28 18:29:22","新北市淡水區中正東路35巷9號","121.446403333333","25.1686","6501000","淡水區"
"251015","KEA-2871","2019/09/28 18:29:30","新北市淡水區興福寮88巷216號","121.48598","25.1666083333333","6501000","淡水區"
"251016","179-VK","2019/09/28 18:29:32","新北市淡水區下圭柔山114-1號","121.445523333333","25.210955","6501000","淡水區"
"251013","180-VK","2019/09/28 18:29:26","新北市淡水區椿子林19-3號","121.480263333333","25.2032","6501000","淡水區"
"251008","181-VK","2019/09/28 18:29:27","新北市淡水區北投子84號","121.468718333333","25.1788866666667","6501000","淡水區"
"251010","413-VK","2019/09/28 18:29:26","新北市淡水區沙崙路181巷1號","121.424145","25.18417","6501000","淡水區"
"251012","441-VK","2019/09/28 18:29:23","新北市淡水區北新路一段134號","121.458576666667","25.18232","6501000","淡水區"
"251001","559-UM","2019/09/28 18:29:17","新北市淡水區自強路371號","121.464443333333","25.1332333333333","6501000","淡水區"
"251006","561-UM","2019/09/28 18:29:32","新北市淡水區新生街51巷35號","121.440748333333","25.1759433333333","6501000","淡水區"
"251014","577-R6","2019/09/28 18:29:21","新北市淡水區南平20號","121.494416666667","25.216405","6501000","淡水區"
"251011","650-BX","2019/09/28 18:29:32","新北市淡水區淡金路33-15號","121.45706","25.1621383333333","6501000","淡水區"
"251002","672-BX","2019/09/28 18:29:29","新北市淡水區竿蓁二街21號","121.453228333333","25.16297","6501000","淡水區"
"251003","766-UM","2019/09/28 18:29:30","新北市淡水區北新路169巷35-1號","121.449433333333","25.18017","6501000","淡水區"
"207003","550-UM","2019/09/28 18:29:34","新北市萬里區野柳里港東路8號","121.686783333333","25.203415","6502800","萬里區"
"207004","291-VK","2019/09/28 18:29:27","新北市萬里區萬里里瑪鋉路21號","121.687473333333","25.1754433333333","6502800","萬里區"
"252002","178-VK","2019/09/28 18:29:24","新北市三芝區中山路二段39號","121.50296","25.2551166666667","6502100","三芝區"
"252003","249-BX","2019/09/28 18:29:25","新北市三芝區後厝里北勢子42-1號","121.471495","25.2522766666667","6502100","三芝區"
"208001","170-UY","2019/09/28 18:29:37","新北市金山區溫泉路21巷1號","121.637793333333","25.2228066666667","6502700","金山區"
"237004","KEA-2597","2019/09/28 18:29:31","新北市三峽區五寮12號","121.375393333333","24.8707216666667","6500900","三峽區"
"237007","153-BY","2019/09/28 18:29:20","新北市三峽區中正路三段170巷34號","121.352656666667","24.904565","6500900","三峽區"
"237009","210-TH","2019/09/28 18:29:29","新北市三峽區民權街231號","121.367945","24.92784","6500900","三峽區"
"237013","252-BX","2019/09/28 18:29:30","新北市三峽區光明路69巷25號","121.376546666667","24.9291766666667","6500900","三峽區"
"237012","275-BY","2019/09/28 18:29:36","新北市三峽區三樹路168巷11號","121.379083333333","24.9406316666667","6500900","三峽區"
"237008","302-VK","2019/09/28 18:29:29","新北市三峽區白雞81-1號","121.40378","24.9089866666667","6500900","三峽區"
"237014","433-BY","2019/09/28 18:29:30","新北市三峽區和平街65號","121.37003","24.9367433333333","6500900","三峽區"
"237006","5529-G3","2019/09/28 18:29:24","新北市三峽區溪東路218巷25號","121.40725","24.9301216666667","6500900","三峽區"
"237015","649-BX","2019/09/28 18:29:25","新北市三峽區竹崙路144號","121.435048333333","24.908935","6500900","三峽區"
"237011","078-UY","2019/09/28 18:29:36","新北市三峽區溪東路218巷25號","121.406993333333","24.9304433333333","6500900","三峽區"
"237010","706-TV","2019/09/28 18:29:29","新北市三峽區中山路125號","121.365425","24.9359833333333","6500900","三峽區"
"237005","AKY-6261","2019/09/28 18:29:26","新北市三峽區清水街336號","121.371203333333","24.9337983333333","6500900","三峽區"
"236042","KED-0685","2019/09/28 18:29:25","新北市土城區學成路91巷20號","121.450341666667","24.9877466666667","6501300","土城區"
"236079","166-UM","2019/09/28 18:29:33","新北市土城區大暖路61-2號","121.422103333333","24.9581866666667","6501300","土城區"
"236030","253-BX","2019/09/28 18:29:30","新北市土城區水源街81巷18號","121.439361666667","24.9759466666667","6501300","土城區"
"236026","269-VK","2019/09/28 18:29:27","新北市土城區南天母路135巷20號","121.448678333333","24.95471","6501300","土城區"
"236014","270-VK","2019/09/28 18:29:24","新北市土城區青雲路39巷7號","121.46027","24.987405","6501300","土城區"
"236038","271-VK","2019/09/28 18:29:36","新北市土城區青雲路449號","121.458571666667","24.9751183333333","6501300","土城區"
"236070","KEA-2877","2019/09/28 18:29:33","新北市土城區永豐路255巷27弄43號","121.477008333333","24.9737016666667","6501300","土城區"
"252001","KED-0821","2019/09/28 18:29:22","新北市三芝區中興街二段2號","121.498318333333","25.25666","6502100","三芝區"
"236021","401-BY","2019/09/28 18:29:38","新北市土城區永豐路202巷14號","121.466301666667","24.9834216666667","6501300","土城區"
"236059","912-UM","2019/09/28 18:29:35","新北市土城區中央路四段129號","121.416143333333","24.95753","6501300","土城區"
"236049","913-UM","2019/09/28 18:29:23","新北市土城區青雲路406號","121.458793333333","24.972625","6501300","土城區"
"236063","915-UM","2019/09/28 18:29:21","新北市土城區延壽路55巷1號","121.469843333333","24.99215","6501300","土城區"
"236055","AAC-216","2019/09/28 18:29:27","新北市土城區中華路一段243號","121.441205","24.98221","6501300","土城區"
"242042","AAC-296","2019/09/28 18:29:34","新北市新莊區天祥街121巷19號","121.414198333333","25.0288866666667","6500500","新莊區"
"242061","986-R7","2019/09/28 18:29:27","新北市新莊區民安路284號","121.427865","25.0216133333333","6500500","新莊區"
"242027","613-BX","2019/09/28 18:29:32","新北市新莊區新泰路528號","121.441995","25.0467783333333","6500500","新莊區"
"242058","612-BX","2019/09/28 18:29:36","新北市新莊區中正路897-10號","121.411608333333","25.02164","6500500","新莊區"
"242053","497-BY","2019/09/28 18:29:22","新北市新莊區樹新路120巷43號","121.430121666667","24.996035","6500500","新莊區"
"242002","441-UM","2019/09/28 18:29:25","新北市新莊區瓊林路13-4號","121.448708333333","25.0308683333333","6500500","新莊區"
"242044","415-TV","2019/09/28 18:29:18","新北市新莊區新北大道七段840號","121.413631666667","25.0238466666667","6500500","新莊區"
"242051","400-BY","2019/09/28 18:29:24","新北市新莊區新樹路206巷4號","121.433665","25.0204733333333","6500500","新莊區"
"242025","362-BY","2019/09/28 18:29:21","新北市新莊區五工路97巷2號","121.45684","25.0635233333333","6500500","新莊區"
"242015","132-UY","2019/09/28 18:29:36","新北市新莊區新泰路357巷3弄17號","121.441965","25.0408416666667","6500500","新莊區"
"242056","172-VK","2019/09/28 18:29:28","新北市新莊區瓊泰路77巷16號","121.442595","25.029045","6500500","新莊區"
"242036","348-TH","2019/09/28 18:29:20","新北市板橋區金門街337巷9弄2-1號","121.432285","24.98339","6500500","新莊區"
"242009","349-TH","2019/09/28 18:29:39","新北市新莊區中華路二段20-1號","121.453286666667","25.0447266666667","6500500","新莊區"
"238015","755-BX","2019/09/28 18:29:35","新北市樹林區大安路519號","121.41411","24.9861366666667","6500700","樹林區"
"238023","601-UM","2019/09/28 18:29:36","新北市樹林區三福街114號","121.406483333333","25.0164216666667","6500700","樹林區"
"238019","599-UM","2019/09/28 18:29:22","新北市樹林區國凱街136巷25號","121.423685","24.979635","6500700","樹林區"
"238024","5061-A6","2019/09/28 18:29:26","新北市樹林區中山路一段115-18號","121.423308333333","24.9900833333333","6500700","樹林區"
"238018","KEA-2217","2019/09/28 18:29:34","新北市樹林區保安街一段20巷40號","121.428431666667","24.9948166666667","6500700","樹林區"
"238025","303-VK","2019/09/28 18:29:30","新北市樹林區保安街一段118號","121.42351","24.994905","6500700","樹林區"
"238017","283-BY","2019/09/28 18:29:28","新北市樹林區光榮街18-1號","121.412391666667","25.0039083333333","6500700","樹林區"
"238014","282-BY","2019/09/28 18:29:31","新北市樹林區大安路111巷11號","121.423095","24.9975983333333","6500700","樹林區"
"238020","268-VK","2019/09/28 18:29:34","新北市樹林區三龍街26號","121.411575","25.0177933333333","6500700","樹林區"
"238026","172-UY","2019/09/28 18:29:19","新北市樹林區佳園路一段75巷30號","121.395463333333","24.9700466666667","6500700","樹林區"
"239007","AAC-297","2019/09/28 18:29:28","新北市鶯歌區中正一路461-2號","121.363238333333","24.956695","6500800","鶯歌區"
"239006","891-R6","2019/09/28 18:29:22","新北市鶯歌區鶯桃路268巷16弄13號","121.336371666667","24.9601383333333","6500800","鶯歌區"
"239008","527-UM","2019/09/28 18:29:19","新北市鶯歌區朝陽街2號","121.336231666667","24.976595","6500800","鶯歌區"
"239005","526-UM","2019/09/28 18:29:34","新北市鶯歌區鶯桃路668巷1號","121.328945","24.96974","6500800","鶯歌區"
"239001","417-VK","2019/09/28 18:29:31","新北市鶯歌區中正三路福德巷2弄8號","121.339378333333","24.9413366666667","6500800","鶯歌區"
"239003","360-BY","2019/09/28 18:29:31","新北市鶯歌區福安街58號","121.335646666667","24.965245","6500800","鶯歌區"
"239002","359-BY","2019/09/28 18:29:25","新北市鶯歌區中正一路21巷1號","121.352461666667","24.9532816666667","6500800","鶯歌區"
"239004","193-VK","2019/09/28 18:29:25","新北市鶯歌區黃厝街7巷26號","121.344061666667","24.9461216666667","6500800","鶯歌區"
"221036","130-UY","2019/09/28 18:29:28","新北市汐止區大同路三段141號","121.66939","25.077815","6501100","汐止區"
"221015","131-UY","2019/09/28 18:29:36","新北市汐止區鄉長路二段90-1號","121.665963333333","25.085545","6501100","汐止區"
"244019","KED-0667","2019/09/28 18:29:25","新北市林口區麗園二街36巷1號","121.380396666667","25.0691283333333","6501700","林口區"
"221010","269-BY","2019/09/28 18:29:20","新北市汐止區汐萬路35號","121.644171666667","25.091615","6501100","汐止區"
"221012","278-VK","2019/09/28 18:29:22","新北市汐止區保長路35巷13號","121.673238333333","25.0800366666667","6501100","汐止區"
"221023","279-VK","2019/09/28 18:29:18","新北市汐止區中興路228巷1號","121.630613333333","25.0674483333333","6501100","汐止區"
"221032","280-BY","2019/09/28 18:29:37","新北市汐止區民權街二段109巷8弄1號","121.61931","25.0468083333333","6501100","汐止區"
"221027","281-BY","2019/09/28 18:29:36","新北市汐止區和平街69號","121.66146","25.07071","6501100","汐止區"
"221021","299-VK","2019/09/28 18:29:33","新北市汐止區連興街116號","121.653743333333","25.0627016666667","6501100","汐止區"
"221031","353-TW","2019/09/28 18:29:22","新北市汐止區大同路一段160-7號","121.635555","25.0557466666667","6501100","汐止區"
"221035","622-UM","2019/09/28 18:29:22","新北市汐止區大同路二段187巷43號","121.652475","25.06569","6501100","汐止區"
"221025","623-UM","2019/09/28 18:29:32","新北市汐止區仁愛路111號","121.662288333333","25.0634033333333","6501100","汐止區"
"221038","646-BX","2019/09/28 18:29:31","新北市汐止區忠孝東路303號","121.66423","25.0689416666667","6501100","汐止區"
"221033","647-BX","2019/09/28 18:28:12","新北市汐止區宜興街130號","121.623365","25.0434583333333","6501100","汐止區"
"221002","707-TV","2019/09/28 18:29:22","新北市汐止區福德一路175號","121.635843333333","25.0660166666667","6501100","汐止區"
"221018","753-BX","2019/09/28 18:29:38","新北市汐止區茄苳路120巷2號","121.667758333333","25.0699516666667","6501100","汐止區"
"220079","145-BY","2019/09/28 18:29:29","新北市板橋區華東街1-10號","121.448325","24.9950983333333","6500100","板橋區"
"220080","200-UY","2019/09/28 18:29:31","新北市板橋區華東街1-9號","121.44811","24.994905","6500100","板橋區"
"220082","610-BX","2019/09/28 18:29:27","新北市板橋區華東街1-9號","121.448251666667","24.9949233333333","6500100","板橋區"
"220056","276-BY","2019/09/28 18:29:23","新北市板橋區華東街1-9號","121.448096666667","24.994945","6500100","板橋區"
"220071","283-VK","2019/09/28 18:29:27","新北市板橋區華東街1-9號","121.448076666667","24.9948966666667","6500100","板橋區"
"220094","285-UM","2019/09/28 18:29:31","新北市板橋區民生路二段161巷5號","121.470215","25.0197483333333","6500100","板橋區"
"242046","281-VK","2019/09/28 18:29:32","新北市新莊區中正路803巷24號","121.42162","25.0280166666667","6500500","新莊區"
"220075","303-R5","2019/09/28 18:29:23","新北市板橋區華東街1-9號","121.448198333333","24.994985","6500100","板橋區"
"242011","280-VK","2019/09/28 18:29:23","新北市新莊區中榮街97號","121.445038333333","25.0527883333333","6500500","新莊區"
"220035","560-BX","2019/09/28 18:29:33","新北市板橋區南雅西路一段5巷5號","121.454705","25.0040183333333","6500100","板橋區"
"220057","686-BX","2019/09/28 18:29:18","新北市板橋區華東街1-10號","121.448711666667","24.9947466666667","6500100","板橋區"
"220077","687-BX","2019/09/28 18:29:38","新北市板橋區華東街1-10號","121.448328333333","24.9949866666667","6500100","板橋區"
"220054","741-BX","2019/09/28 18:29:19","新北市板橋區華東街1-9號","121.448105","24.9949933333333","6500100","板橋區"
"220073","985-R7","2019/09/28 18:29:28","新北市板橋區四川路二段140巷6號","121.449658333333","24.9932233333333","6500100","板橋區"
"220064","AAC-253","2019/09/28 18:29:31","新北市板橋區華東街296號","121.452721666667","25.0022133333333","6500100","板橋區"
"235068","KEA-2873","2019/09/28 18:29:11","新北市中和區中正路273-5號","121.495571666667","24.993245","6500300","中和區"
"235061","KEA-2875","2019/09/28 18:29:28","新北市中和區民享街92巷20號","121.474246666667","24.99976","6500300","中和區"
"235062","KEA-2876","2019/09/28 18:29:12","新北市中和區中山路二段312巷31號","121.495136666667","25.0038183333333","6500300","中和區"
