"lineid","car","time","location","longitude","latitude","cityid","cityname"
"234046","148-BY","2019/09/28 19:09:22","新北市永和區永元路18巷1號","121.52252","25.00032","6500400","永和區"
"234001","209-UY","2019/09/28 19:09:32","新北市永和區保生路55號","121.504585","25.0107716666667","6500400","永和區"
"234081","298-R6","2019/09/28 19:09:35","新北市永和區永亨路59號","121.520928333333","25.00614","6500400","永和區"
"234038","336-UY","2019/09/28 19:09:26","新北市永和區民樂街71巷2號","121.527351666667","24.99733","6500400","永和區"
"234064","337-UY","2019/09/28 19:09:34","新北市永和區秀朗路二段48號","121.52163","25.0022516666667","6500400","永和區"
"234086","338-UY","2019/09/28 19:09:30","新北市永和區永貞路118號","121.518738333333","25.00447","6500400","永和區"
"234070","552-UM","2019/09/28 19:09:33","新北市永和區豫溪街137巷1弄14號","121.519006666667","25.01053","6500400","永和區"
"234017","745-BX","2019/09/28 19:09:32","新北市永和區文化路90巷9弄1號","121.513831666667","25.0157383333333","6500400","永和區"
"234030","746-BX","2019/09/28 19:09:26","新北市永和區民生路23號","121.522873333333","24.9988166666667","6500400","永和區"
"234054","KEA-2590","2019/09/28 19:09:33","新北市永和區中興街133巷8號","121.518685","25.0127083333333","6500400","永和區"
"234007","KED-0605","2019/09/28 19:09:33","新北市永和區中山路一段172號","121.509301666667","25.0090866666667","6500400","永和區"
"234013","KEA-2591","2019/09/28 19:09:23","新北市永和區永和路二段105號","121.514856666667","25.0119683333333","6500400","永和區"
"234061","AAD-866","2019/09/28 19:09:20","新北市永和區安樂路304巷7號","121.514585","25.0050783333333","6500400","永和區"
"234042","862-TW","2019/09/28 19:09:35","新北市永和區永和路一段49巷3弄81號","121.511881666667","25.0061083333333","6500400","永和區"
"234050","863-TW","2019/09/28 19:09:21","新北市永和區文化路135巷32弄1號","121.510935","25.014055","6500400","永和區"
"234026","9371-KE","2019/09/28 19:09:09","新北市永和區安樂路272巷9弄7號","121.515038333333","25.0045583333333","6500400","永和區"
"234011","9373-KE","2019/09/28 19:09:36","新北市永和區信義路25巷53號","121.51229","25.0115783333333","6500400","永和區"
"249005","172-UM","2019/09/28 19:09:30","新北市八里區中華路三段7巷5號","121.397466666667","25.1438083333333","6502300","八里區"
"249001","173-UM","2019/09/28 19:09:36","新北市八里區龍米路二段236-1號","121.430975","25.1586666666667","6502300","八里區"
"249003","593-UM","2019/09/28 19:09:38","新北市八里區博物館路105號","121.408943333333","25.1593383333333","6502300","八里區"
"248008","KED-0815","2019/09/28 19:09:24","新北市五股區中興路二段15號","121.462933333333","25.0742883333333","6501500","五股區"
"248020","KED-0813","2019/09/28 19:09:18","新北市五股區凌雲路三段57號","121.425281666667","25.125","6501500","五股區"
"248012","247-BX","2019/09/28 19:09:22","新北市五股區中興路四段48巷16號","121.438558333333","25.08346","6501500","五股區"
"248004","677-BX","2019/09/28 19:09:24","新北市五股區五福路20號","121.434231666667","25.0888133333333","6501500","五股區"
"248002","678-BX","2019/09/28 19:09:32","新北市五股區凌雲路一段158巷6號","121.447803333333","25.10296","6501500","五股區"
"248010","682-TV","2019/09/28 19:09:17","新北市五股區水碓一路23號","121.430576666667","25.0712566666667","6501500","五股區"
"234023","9380-KE","2019/09/28 19:09:23","新北市永和區中興街12號","121.515796666667","25.0119433333333","6500400","永和區"
"234077","969-R7","2019/09/28 19:09:29","新北市永和區民族街44號","121.51847","24.9987516666667","6500400","永和區"
"234074","AAC-211","2019/09/28 19:09:32","新北市永和區福和路85號","121.522228333333","25.0078766666667","6500400","永和區"
"234067","AAC-212","2019/09/28 19:09:31","新北市永和區保平路23號","121.512656666667","25.00733","6500400","永和區"
"234003","AAC-295","2019/09/28 19:09:18","新北市永和區保福路一段80號","121.512316666667","25.0101383333333","6500400","永和區"
"244023","483-VK","2019/09/28 19:09:37","新北市林口區民權路22號","121.37158","25.0804683333333","6501700","林口區"
"244011","701-TV","2019/09/28 19:09:26","新北市林口區竹林路65號","121.387775","25.0785783333333","6501700","林口區"
"244025","837-TS","2019/09/28 19:09:24","新北市林口區民族路67-1號","121.365771666667","25.0753","6501700","林口區"
"243012","AAD-798","2019/09/28 19:09:23","新北市泰山區辭修路10-11號","121.429645","25.0580766666667","6501600","泰山區"
"243010","297-R6","2019/09/28 19:09:20","新北市泰山區明志路一段483巷1弄2號","121.431173333333","25.0553183333333","6501600","泰山區"
"243014","KEA-2801","2019/09/28 19:09:34","新北市泰山區泰林路二段422號","121.426893333333","25.0643283333333","6501600","泰山區"
"243016","421-VK","2019/09/28 19:09:20","新北市泰山區明志路二段355號","121.425428333333","25.0443416666667","6501600","泰山區"
"243009","KEA-2215","2019/09/28 19:09:34","新北市泰山區福德街41號","121.432331666667","25.0634033333333","6501600","泰山區"
"243011","KEA-2216","2019/09/28 19:09:24","新北市泰山區明志路二段368號","121.425536666667","25.044835","6501600","泰山區"
"243013","646-TV","2019/09/28 19:09:29","新北市泰山區明志路三段277號","121.423171666667","25.0367633333333","6501600","泰山區"
"243015","680-BX","2019/09/28 19:09:22","新北市泰山區明志路一段410號","121.430675","25.0569083333333","6501600","泰山區"
"222003","436-BY","2019/09/28 19:09:28","新北市深坑區深南路170號","121.625878333333","25.0151316666667","6501800","深坑區"
"222002","659-BX","2019/09/28 19:09:19","新北市深坑區北深路一段199號","121.630836666667","25.009475","6501800","深坑區"
"231061","002-UM","2019/09/28 19:09:29","新北市新店區安康路一段319號","121.522151666667","24.9637333333333","6500600","新店區"
"231055","0291-UT","2019/09/28 19:09:28","新北市新店區力行路12號","121.539356666667","24.9646183333333","6500600","新店區"
"231044","046-UY","2019/09/28 19:09:34","新北市新店區中興路三段218號","121.543525","24.9825633333333","6500600","新店區"
"231060","106-UY","2019/09/28 19:09:24","新北市新店區安康路二段316號","121.505181666667","24.9580733333333","6500600","新店區"
"231051","107-UY","2019/09/28 19:09:24","新北市新店區中正路382巷34號","121.535601666667","24.978175","6500600","新店區"
"231049","108-UY","2019/09/28 19:09:35","新北市新店區二十張路25巷18弄16號","121.539246666667","24.9816266666667","6500600","新店區"
"231065","110-UY","2019/09/28 19:09:23","新北市新店區安祥路143號","121.474453333333","24.9558483333333","6500600","新店區"
"231062","256-BX","2019/09/28 19:09:35","新北市新店區安平路23-1號","121.521268333333","24.96685","6500600","新店區"
"231054","260-TV","2019/09/28 19:09:26","新北市新店區新店路173號","121.53709","24.955765","6500600","新店區"
"231042","268-BY","2019/09/28 19:09:22","新北市新店區中興路一段203號","121.543716666667","24.9657166666667","6500600","新店區"
"231064","278-BY","2019/09/28 19:09:27","新北市新店區安忠路56巷2號","121.512841666667","24.95935","6500600","新店區"
"231050","AAD-862","2019/09/28 19:09:15","新北市新店區竹林路2巷27弄1號","121.550223333333","24.9508433333333","6500600","新店區"
"231045","355-BY","2019/09/28 19:09:27","新北市新店區北宜路一段90號","121.538736666667","24.9555366666667","6500600","新店區"
"231058","3713-VJ","2019/09/28 19:09:18","新北市新店區光明街94號","121.538961666667","24.960325","6500600","新店區"
"231056","4715-K9","2019/09/28 19:09:27","新北市新店區安業街2號","121.515216666667","24.97857","6500600","新店區"
"231067","4772-VM","2019/09/28 19:09:20","新北市新店區安康路一段263巷15號","121.524048333333","24.962225","6500600","新店區"
"231052","515-UM","2019/09/28 19:09:28","新北市新店區自強路61號","121.546328333333","24.9246866666667","6500600","新店區"
"231063","641-BX","2019/09/28 19:09:35","新北市新店區車子路110號","121.505258333333","24.9520716666667","6500600","新店區"
"231048","KED-0819","2019/09/28 19:09:23","新北市新店區德正街27巷29弄131號","121.545713333333","24.9731016666667","6500600","新店區"
"231046","719-UM","2019/09/28 19:06:25","新北市新店區永業路81巷12號","121.532068333333","24.9457833333333","6500600","新店區"
"231057","720-UM","2019/09/28 19:04:24","新北市新店區百齡一路12號","121.553113333333","24.9324733333333","6500600","新店區"
"231059","897-TW","2019/09/28 19:09:36","新北市新店區安和路一段16號","121.51727","24.96528","6500600","新店區"
"231040","898-TW","2019/09/28 19:09:29","新北市新店區自由街2-1號","121.535593333333","24.9756133333333","6500600","新店區"
"231043","899-TW","2019/09/28 19:09:22","新北市新店區寶橋路88號","121.546836666667","24.9760083333333","6500600","新店區"
"231066","AKT-0513","2019/09/28 19:09:17","","121.493883333333","24.9542516666667","6500600","新店區"
"241026","060-VK","2019/09/28 19:09:31","新北市三重區泉州街70巷1號","121.494975","25.05477","6500200","三重區"
"241035","KEA-2210","2019/09/28 19:09:21","新北市三重區中正北路105號","121.489523333333","25.063445","6500200","三重區"
"241022","KED-0820","2019/09/28 19:09:27","新北市三重區三民街155巷5號","121.484326666667","25.064675","6500200","三重區"
"241029","942-UM","2019/09/28 19:09:24","新北市三重區集美街222號","121.491933333333","25.0552966666667","6500200","三重區"
"235066","003-UY","2019/09/28 19:09:37","新北市中和區廣福路12-2號","121.50545","25.00285","6500300","中和區"
"235063","006-UY","2019/09/28 19:09:22","新北市中和區連城路249巷26弄1號","121.49465","24.995285","6500300","中和區"
"235056","096-UM","2019/09/28 19:09:28","新北市中和區中正路1161號","121.481978333333","25.0088316666667","6500300","中和區"
"235039","097-UM","2019/09/28 19:09:21","新北市中和區景平路3號","121.523655","24.9902183333333","6500300","中和區"
"235065","098-UM","2019/09/28 19:09:22","新北市中和區莊敬路37號","121.500821666667","25.0049883333333","6500300","中和區"
"235040","150-BY","2019/09/28 19:09:21","新北市中和區宜安路80號","121.511006666667","24.9974483333333","6500300","中和區"
"235058","151-BY","2019/09/28 19:09:32","新北市中和區中正路637巷52弄1號","121.48536","24.9936616666667","6500300","中和區"
"235055","183-VK","2019/09/28 19:09:32","新北市中和區德光路132號","121.468005","25.00323","6500300","中和區"
"235038","185-VK","2019/09/28 19:09:35","新北市中和區大仁街38號","121.517866666667","24.9938233333333","6500300","中和區"
"235067","255-BX","2019/09/28 19:09:24","新北市中和區新生街177巷5號","121.48411","25.0007216666667","6500300","中和區"
"235044","293-VK","2019/09/28 19:09:28","新北市中和區復興路329號","121.500755","24.9901816666667","6500300","中和區"
"235072","301-VK","2019/09/28 19:09:19","新北市中和區永和路1號","121.49988","25.00292","6500300","中和區"
"235043","352-BY","2019/09/28 19:09:22","新北市中和區景平路320號","121.512238333333","24.9928666666667","6500300","中和區"
"235042","KEA-2878","2019/09/28 19:09:28","新北市中和區自立路117巷2弄2號","121.522273333333","24.9944683333333","6500300","中和區"
"235050","4979-A6","2019/09/28 19:09:19","新北市中和區南山路403號","121.506893333333","24.9899383333333","6500300","中和區"
"235069","4980-A6","2019/09/28 19:09:28","新北市中和區中和路165巷15號","121.502623333333","25.0004433333333","6500300","中和區"
"235070","558-UM","2019/09/28 19:08:39","新北市中和區景平路670號","121.497008333333","25.000995","6500300","中和區"
"235045","565-BX","2019/09/28 19:09:34","新北市中和區景新街467巷35弄30號","121.513648333333","24.9887516666667","6500300","中和區"
"235060","KED-0823","2019/09/28 19:09:33","新北市中和區員山路437-3號","121.48076","25.0039916666667","6500300","中和區"
"235054","640-BX","2019/09/28 19:09:34","新北市中和區國光街107巷2弄30號","121.469555","24.999245","6500300","中和區"
"235047","732-UM","2019/09/28 19:09:37","新北市中和區興南路一段61號","121.510368333333","24.9896733333333","6500300","中和區"
"235046","733-UM","2019/09/28 19:09:22","新北市中和區華新街122號","121.508335","24.9827416666667","6500300","中和區"
"235071","783-BX","2019/09/28 19:09:40","新北市中和區連城路362號","121.481968333333","24.9953833333333","6500300","中和區"
"235057","801-TS","2019/09/28 19:09:37","新北市中和區員山路423巷12弄1號","121.480498333333","25.0031283333333","6500300","中和區"
"235041","802-TS","2019/09/28 19:09:28","新北市中和區中和路262號","121.50846","24.999645","6500300","中和區"
"235052","805-TS","2019/09/28 19:09:34","新北市中和區興南路二段142巷19弄38號","121.502678333333","24.98355","6500300","中和區"
"235048","896-TW","2019/09/28 19:09:35","新北市中和區忠孝街28號","121.510583333333","24.98308","6500300","中和區"
"235053","900-TW","2019/09/28 19:09:34","新北市中和區民德路260號","121.467831666667","24.99695","6500300","中和區"
"235064","911-UM","2019/09/28 19:09:34","新北市中和區中和路36號","121.499996666667","25.0015966666667","6500300","中和區"
"235051","157-BY","2019/09/28 19:09:29","新北市中和區興南路一段73巷2號","121.510185","24.9889516666667","6500300","中和區"
"235037","AAC-213","2019/09/28 19:09:18","新北市中和區秀朗路三段10巷37弄4號","121.524101666667","24.9958166666667","6500300","中和區"
"235059","AAC-215","2019/09/28 19:09:38","新北市中和區圓通路294巷17-5號","121.488588333333","24.99039","6500300","中和區"
"220065","072-UY","2019/09/28 19:09:22","新北市板橋區民族路247巷3弄2號","121.470483333333","25.0076916666667","6500100","板橋區"
"220086","073-UY","2019/09/28 19:09:25","新北市板橋區中正路250巷31號","121.456958333333","25.0196166666667","6500100","板橋區"
"220106","075-UY","2019/09/28 19:09:32","新北市板橋區雙十路三段66巷1號","121.47057","25.031965","6500100","板橋區"
"220069","AAD-861","2019/09/28 19:09:19","新北市板橋區大明街20巷27號","121.458635","25.0036483333333","6500100","板橋區"
"226004","312-R5","2019/09/28 19:09:35","新北市平溪區靜安路三段276號","121.776388333333","25.0405733333333","6502400","平溪區"
"235049","251-BX","2019/09/28 19:09:21","新北市中和區景新街141號","121.506098333333","24.99662","6500300","中和區"
"228003","097-TW","2019/09/28 19:09:28","新北市貢寮區和美里和美街40-3號","121.913128333333","25.090775","6502600","貢寮區"
"228001","212-TW","2019/09/28 19:09:33","新北市貢寮區真理里新港街10號","121.925446666667","25.0543583333333","6502600","貢寮區"
"228002","663-BX","2019/09/28 19:09:32","新北市貢寮區福隆里福隆街32-1號","121.945086666667","25.01741","6502600","貢寮區"
"224010","AGQ-8101","2019/09/28 19:09:29","新北市瑞芳區基山街117號","121.844276666667","25.1086816666667","6501200","瑞芳區"
"224002","639-TC","2019/09/28 19:09:21","新北市平溪區新寮里五分寮10-3號","121.797173333333","25.077185","6501200","瑞芳區"
"224009","275-VK","2019/09/28 19:09:23","新北市瑞芳區洞頂路148號","121.859456666667","25.1181783333333","6501200","瑞芳區"
"224008","273-VK","2019/09/28 19:09:20","新北市瑞芳區明燈路三段180號","121.803461666667","25.1098533333333","6501200","瑞芳區"
"227001","642-TC","2019/09/28 19:09:20","新北市雙溪區牡丹里自強路8巷18號","121.864946666667","25.038045","6502500","雙溪區"
"227002","400-TW","2019/09/28 19:09:21","新北市雙溪區平林里外平林9-5號","121.859121666667","25.03801","6502500","雙溪區"
"253005","032-BX","2019/09/28 19:09:35","新北市石門區阿里荖35-2號","121.606223333333","25.28067","6502200","石門區"
"253006","295-VK","2019/09/28 19:09:28","新北市石門區崁子腳1-1號","121.53178","25.2877583333333","6502200","石門區"
"222001","KEA-2212","2019/09/28 19:09:18","新北市深坑區北深路一段300號","121.624001666667","25.00564","6501800","深坑區"
"208002","KEA-2872","2019/09/28 19:09:19","新北市金山區中正路71巷5號","121.633615","25.221475","6502700","金山區"
"208003","665-BX","2019/09/28 19:09:33","新北市金山區中山路206號","121.63761","25.221705","6502700","金山區"
"251009","008-UM","2019/09/28 19:09:22","新北市淡水區重建街36號","121.439945","25.1712633333333","6501000","淡水區"
"251015","KEA-2871","2019/09/28 19:09:30","新北市淡水區南勢埔34號","121.484291666667","25.17999","6501000","淡水區"
"251016","179-VK","2019/09/28 19:09:32","新北市淡水區淡金路三段170號","121.448656666667","25.2025783333333","6501000","淡水區"
"251013","180-VK","2019/09/28 19:09:26","新北市淡水區安子內12-1號","121.481495","25.2190966666667","6501000","淡水區"
"251010","413-VK","2019/09/28 19:09:26","新北市淡水區中正路一段156巷1號","121.421178333333","25.1801466666667","6501000","淡水區"
"251012","441-VK","2019/09/28 19:09:23","新北市淡水區新市一路一段111號","121.432301666667","25.1867216666667","6501000","淡水區"
"251007","442-VK","2019/09/28 19:09:20","新北市淡水區民生路135巷2號","121.465878333333","25.1387966666667","6501000","淡水區"
"251001","559-UM","2019/09/28 19:09:17","新北市淡水區民權路92巷35-1號","121.462135","25.1267683333333","6501000","淡水區"
"251014","577-R6","2019/09/28 19:09:21","新北市淡水區小中寮19-2號","121.484791666667","25.2293933333333","6501000","淡水區"
"251002","672-BX","2019/09/28 19:09:29","新北市淡水區中山路68-1號","121.443348333333","25.170475","6501000","淡水區"
"251003","766-UM","2019/09/28 19:09:30","新北市淡水區中山北路一段109號","121.442588333333","25.176665","6501000","淡水區"
"207003","550-UM","2019/09/28 19:09:14","新北市萬里區大鵬里頂社44號","121.65605","25.2114266666667","6502800","萬里區"
"207004","291-VK","2019/09/28 19:09:27","新北市萬里區萬里里瑪鋉下街52號","121.691611666667","25.1795483333333","6502800","萬里區"
"252002","178-VK","2019/09/28 19:09:24","新北市三芝區埔坪里埔頭坑88-7號","121.50674","25.254915","6502100","三芝區"
"252003","249-BX","2019/09/28 19:09:25","新北市三芝區錫板里南勢崗5-3號","121.48","25.2623","6502100","三芝區"
"208001","170-UY","2019/09/28 19:09:17","新北市金山區溫泉路4號","121.639626666667","25.2219566666667","6502700","金山區"
"237004","KEA-2597","2019/09/28 19:09:31","新北市三峽區有木205-1號","121.439045","24.8515483333333","6500900","三峽區"
"237007","153-BY","2019/09/28 19:09:20","新北市三峽區中正路二段42巷50號","121.364308333333","24.920565","6500900","三峽區"
"237013","252-BX","2019/09/28 19:09:30","新北市三峽區光明路69巷25號","121.37668","24.9291683333333","6500900","三峽區"
"237012","275-BY","2019/09/28 19:09:36","新北市三峽區三樹路222巷254弄15號","121.392153333333","24.9440583333333","6500900","三峽區"
"237008","302-VK","2019/09/28 19:09:29","新北市三峽區大同路154號","121.373106666667","24.9267616666667","6500900","三峽區"
"237014","433-BY","2019/09/28 19:09:20","新北市三峽區復興路465-1號","121.361653333333","24.9384833333333","6500900","三峽區"
"237006","5529-G3","2019/09/28 19:09:24","新北市三峽區溪東路233巷47弄2號","121.411058333333","24.9348566666667","6500900","三峽區"
"237015","649-BX","2019/09/28 19:09:25","新北市三峽區安坑33-5號","121.45161","24.9301616666667","6500900","三峽區"
"237011","078-UY","2019/09/28 19:09:36","新北市三峽區介壽路三段233巷10-1號","121.406763333333","24.948305","6500900","三峽區"
"237010","706-TV","2019/09/28 19:09:29","新北市三峽區國光街366號","121.370898333333","24.9396633333333","6500900","三峽區"
"237005","AKY-6261","2019/09/28 19:09:26","新北市三峽區中山路459巷131號","121.350653333333","24.9343416666667","6500900","三峽區"
"236042","KED-0685","2019/09/28 19:09:25","新北市土城區學府路一段276號","121.450173333333","24.983295","6501300","土城區"
"236079","166-UM","2019/09/28 19:09:38","新北市土城區龍泉路68-2號","121.419863333333","24.942725","6501300","土城區"
"236026","269-VK","2019/09/28 19:09:26","新北市土城區中正路74巷6弄1號","121.444768333333","24.9747283333333","6501300","土城區"
"236014","270-VK","2019/09/28 19:09:24","新北市土城區學府路一段37巷8號","121.457856666667","24.988035","6501300","土城區"
"236038","271-VK","2019/09/28 19:09:36","新北市土城區清水路32巷16號","121.45738","24.9811283333333","6501300","土城區"
"236070","KEA-2877","2019/09/28 19:09:33","新北市土城區裕生路65-1號","121.447458333333","24.9856233333333","6501300","土城區"
"252001","KED-0821","2019/09/28 19:09:22","新北市三芝區長勤街80號","121.500275","25.2551116666667","6502100","三芝區"
"236021","401-BY","2019/09/28 19:09:18","新北市土城區延峰街36巷2號","121.469606666667","24.9847566666667","6501300","土城區"
"236059","912-UM","2019/09/28 19:09:36","新北市土城區金城路一段15號","121.439585","24.96906","6501300","土城區"
"236063","915-UM","2019/09/28 19:09:22","新北市土城區金城路三段93巷21號","121.466746666667","24.9884383333333","6501300","土城區"
"236055","AAC-216","2019/09/28 19:09:32","新北市土城區學府路一段213號","121.451558333333","24.9844916666667","6501300","土城區"
"242036","348-TH","2019/09/28 19:08:12","新北市新莊區民安東路119號","121.430588333333","25.0207466666667","6500500","新莊區"
"238023","601-UM","2019/09/28 19:09:36","新北市樹林區三興路29號","121.396456666667","25.014865","6500700","樹林區"
"238019","599-UM","2019/09/28 19:09:21","新北市樹林區東榮街145號","121.414521666667","24.9815566666667","6500700","樹林區"
"238022","KEA-2213","2019/09/28 19:09:34","新北市樹林區東順街90巷3弄2號","121.407975","24.9763216666667","6500700","樹林區"
"238021","KEA-2539","2019/09/28 19:09:21","新北市樹林區柑園街二段446號","121.363595","24.9464616666667","6500700","樹林區"
"238025","303-VK","2019/09/28 19:09:29","新北市樹林區民和街79號","121.380173333333","24.9721583333333","6500700","樹林區"
"238017","283-BY","2019/09/28 19:09:27","新北市樹林區光興街50號","121.409856666667","25.00277","6500700","樹林區"
"238014","282-BY","2019/09/28 19:09:31","新北市樹林區千歲街92巷7弄35號","121.42755","24.9983166666667","6500700","樹林區"
"238020","268-VK","2019/09/28 19:09:34","新北市樹林區俊英街155巷43弄11號","121.42282","25.0116233333333","6500700","樹林區"
"238026","172-UY","2019/09/28 19:09:20","新北市樹林區佳園路一段41巷28弄2號","121.394546666667","24.970875","6500700","樹林區"
"238016","169-UY","2019/09/28 19:09:35","新北市樹林區文化街25巷22號","121.418233333333","24.9867566666667","6500700","樹林區"
"239007","AAC-297","2019/09/28 19:09:28","新北市鶯歌區中山路138巷3-10號","121.349623333333","24.958525","6500800","鶯歌區"
"239006","891-R6","2019/09/28 19:09:22","新北市鶯歌區鶯桃路296巷98號","121.336918333333","24.9621483333333","6500800","鶯歌區"
"239008","527-UM","2019/09/28 19:09:39","新北市鶯歌區國際二路20巷52號","121.33806","24.9760916666667","6500800","鶯歌區"
"239005","526-UM","2019/09/28 19:09:34","新北市鶯歌區大湖路584號","121.3357","24.9731966666667","6500800","鶯歌區"
"239001","417-VK","2019/09/28 19:09:31","新北市鶯歌區鶯桃路97-1號","121.338828333333","24.9541966666667","6500800","鶯歌區"
"239003","360-BY","2019/09/28 19:09:31","新北市鶯歌區鶯桃路658巷135號","121.332955","24.9713466666667","6500800","鶯歌區"
"239002","359-BY","2019/09/28 19:09:22","新北市鶯歌區中山路268號","121.344421666667","24.9569383333333","6500800","鶯歌區"
"239004","193-VK","2019/09/28 19:09:25","新北市鶯歌區中正三路282巷10弄12號","121.32875","24.9365983333333","6500800","鶯歌區"
"221008","489-VK","2019/09/28 19:09:28","新北市汐止區康寧街418-1號","121.630513333333","25.0680633333333","6501100","汐止區"
"221036","130-UY","2019/09/28 19:09:28","新北市汐止區南昌街22號","121.663145","25.0683316666667","6501100","汐止區"
"221029","298-VK","2019/09/28 19:09:30","新北市汐止區汐萬路一段312號","121.650518333333","25.075125","6501100","汐止區"
"221031","353-TW","2019/09/28 19:09:22","新北市汐止區中興路181巷16弄12號","121.629511666667","25.0666933333333","6501100","汐止區"
"221035","622-UM","2019/09/28 19:09:22","新北市汐止區中正路295號","121.656503333333","25.0678316666667","6501100","汐止區"
"221002","707-TV","2019/09/28 19:09:22","新北市汐止區大同路一段207號","121.633618333333","25.057245","6501100","汐止區"
"220079","145-BY","2019/09/28 19:09:29","新北市板橋區文化路一段18-1號","121.457731666667","25.0128266666667","6500100","板橋區"
"220080","200-UY","2019/09/28 19:09:38","新北市板橋區大觀路二段37巷276號","121.449808333333","25.0011433333333","6500100","板橋區"
"220082","610-BX","2019/09/28 19:09:37","新北市板橋區大觀路三段263號","121.429178333333","24.9921383333333","6500100","板橋區"
"220084","256-TC","2019/09/28 19:09:21","新北市板橋區大觀路三段207號","121.431401666667","24.9931116666667","6500100","板橋區"
"220091","267-BY","2019/09/28 19:09:27","新北市板橋區縣民大道三段205巷1號","121.479881666667","25.0250833333333","6500100","板橋區"
"220056","276-BY","2019/09/28 19:09:23","新北市板橋區信義路150巷49號","121.45719","24.9917816666667","6500100","板橋區"
"220072","277-BY","2019/09/28 19:09:35","新北市板橋區金門街369巷56號","121.42789","24.98199","6500100","板橋區"
"220101","280-UM","2019/09/28 19:09:24","新北市板橋區雙十路二段47巷52號","121.474913333333","25.0254583333333","6500100","板橋區"
"220071","283-VK","2019/09/28 19:09:27","新北市板橋區忠孝路154巷29號","121.464305","25.0013733333333","6500100","板橋區"
"220094","285-UM","2019/09/28 19:09:31","新北市板橋區吳鳳路82號","121.467006666667","25.0312883333333","6500100","板橋區"
"220083","286-VK","2019/09/28 19:09:18","新北市板橋區龍興街99巷5號","121.443963333333","25.00295","6500100","板橋區"
"220081","287-VK","2019/09/28 19:09:40","新北市板橋區南雅西路二段110巷23號","121.452578333333","25.0126533333333","6500100","板橋區"
"220090","288-VK","2019/09/28 19:09:25","新北市板橋區長江路一段106巷13弄11號","121.460475","25.029325","6500100","板橋區"
"220061","293-UM","2019/09/28 19:09:29","新北市板橋區中山路二段318巷25號","121.480476666667","25.01858","6500100","板橋區"
"220053","299-UM","2019/09/28 19:09:32","新北市板橋區懷仁街35巷2弄2號","121.476763333333","25.0195583333333","6500100","板橋區"
"220075","303-R5","2019/09/28 19:09:23","新北市板橋區南雅南路一段1巷40號","121.457336666667","25.0065916666667","6500100","板橋區"
"220062","305-R5","2019/09/28 19:09:31","新北市板橋區三民路二段213號","121.479301666667","25.0128583333333","6500100","板橋區"
"220092","307-R5","2019/09/28 19:09:21","新北市板橋區松江街72巷32號","121.469843333333","25.0276583333333","6500100","板橋區"
"220098","317-R6","2019/09/28 19:09:21","新北市板橋區民有街49號","121.465496666667","25.0260283333333","6500100","板橋區"
"220089","487-VK","2019/09/28 19:09:38","新北市板橋區文化路一段239號","121.464108333333","25.0177383333333","6500100","板橋區"
"220088","491-VK","2019/09/28 19:09:33","新北市板橋區雙十路二段33巷1-1號","121.476921666667","25.0256616666667","6500100","板橋區"
"220035","560-BX","2019/09/28 19:09:33","新北市板橋區中正路413巷15號","121.453483333333","25.0225133333333","6500100","板橋區"
"220103","561-BX","2019/09/28 19:09:29","新北市板橋區文化路一段220號","121.466796666667","25.02068","6500100","板橋區"
"220063","609-BX","2019/09/28 19:09:31","新北市板橋區三民路二段136-4號","121.479026666667","25.016095","6500100","板橋區"
"220057","686-BX","2019/09/28 19:09:38","新北市板橋區五權街59號","121.46477","24.9935083333333","6500100","板橋區"
"220077","687-BX","2019/09/28 19:09:38","新北市板橋區大觀路二段241號","121.443641666667","24.999175","6500100","板橋區"
"220093","689-BX","2019/09/28 19:09:33","新北市板橋區文化路一段247號","121.464461666667","25.018055","6500100","板橋區"
"220054","741-BX","2019/09/28 19:09:19","新北市板橋區重慶路71-2號","121.462036666667","25.0068866666667","6500100","板橋區"
"220102","KEA-2699","2019/09/28 19:09:30","新北市板橋區田單街20號","121.482323333333","25.0286116666667","6500100","板橋區"
"220055","827-TW","2019/09/28 19:09:26","新北市板橋區中山路一段146號","121.463993333333","25.0111466666667","6500100","板橋區"
"220068","830-TW","2019/09/28 19:09:35","新北市板橋區中山路二段443巷76號","121.480786666667","25.0222416666667","6500100","板橋區"
"220067","831-TW","2019/09/28 19:09:32","新北市板橋區長安街222-2號","121.474925","25.0123516666667","6500100","板橋區"
"220074","895-R6","2019/09/28 19:09:24","新北市板橋區中正路自強新村45-1號","121.45485","25.0139133333333","6500100","板橋區"
"220073","985-R7","2019/09/28 19:09:28","新北市板橋區中正路251號","121.455836666667","25.01836","6500100","板橋區"
"220097","AAC-210","2019/09/28 19:09:32","新北市板橋區漢生西路89巷5弄2號","121.461331666667","25.01919","6500100","板橋區"
"220064","AAC-253","2019/09/28 19:09:31","新北市板橋區中山路二段17號","121.472231666667","25.0150633333333","6500100","板橋區"
"235068","KEA-2873","2019/09/28 19:09:11","新北市中和區圓通路162巷39號","121.496415","24.9955433333333","6500300","中和區"
"235061","KEA-2875","2019/09/28 19:09:17","新北市中和區員山路271-1號","121.481266666667","24.9995033333333","6500300","中和區"
