"lineid","car","time","location","longitude","latitude","cityid","cityname"
"234046","148-BY","2019/09/28 19:29:22","新北市永和區秀朗路二段151號","121.524888333333","25.0015866666667","6500400","永和區"
"234001","209-UY","2019/09/28 19:29:32","新北市永和區保生路55號","121.50462","25.0107916666667","6500400","永和區"
"234081","298-R6","2019/09/28 19:29:35","新北市永和區環河東路三段52巷7號","121.52642","25.0057966666667","6500400","永和區"
"234038","336-UY","2019/09/28 19:29:26","新北市永和區民樂街39巷2號","121.527633333333","25.0002","6500400","永和區"
"234064","337-UY","2019/09/28 19:29:33","新北市永和區得和路243巷26號","121.52079","25.0011216666667","6500400","永和區"
"234086","338-UY","2019/09/28 19:29:30","新北市永和區成功路一段18巷15號","121.526243333333","25.0049966666667","6500400","永和區"
"234070","552-UM","2019/09/28 19:29:33","新北市永和區警光街12號","121.519733333333","25.0095816666667","6500400","永和區"
"234017","745-BX","2019/09/28 19:29:32","新北市永和區環河西路一段87號","121.5124","25.017885","6500400","永和區"
"234030","746-BX","2019/09/28 19:29:26","新北市永和區四維街117號","121.523276666667","24.9981083333333","6500400","永和區"
"234054","KEA-2590","2019/09/28 19:29:33","新北市永和區復興街19巷9號","121.516125","25.0132066666667","6500400","永和區"
"234007","KED-0605","2019/09/28 19:29:31","新北市永和區永和路一段93號","121.51342","25.0073933333333","6500400","永和區"
"234013","KEA-2591","2019/09/28 19:29:22","新北市永和區永和路二段37號","121.514596666667","25.01063","6500400","永和區"
"234061","AAD-866","2019/09/28 19:29:20","新北市永和區中正路401號","121.517256666667","25.0046","6500400","永和區"
"234042","862-TW","2019/09/28 19:29:38","新北市永和區水源街39巷6號","121.51044","25.00402","6500400","永和區"
"234050","863-TW","2019/09/28 19:29:21","新北市永和區信義路123號","121.512336666667","25.01501","6500400","永和區"
"234026","9371-KE","2019/09/28 19:27:09","新北市中和區安樂路161-1號","121.514673333333","24.9973033333333","6500400","永和區"
"234011","9373-KE","2019/09/28 19:29:36","新北市永和區保安路292號","121.505005","25.0117683333333","6500400","永和區"
"249003","593-UM","2019/09/28 19:29:38","新北市八里區中山路二段448號","121.399183333333","25.1472983333333","6502300","八里區"
"248008","KED-0815","2019/09/28 19:29:24","新北市五股區中興路一段93號","121.466701666667","25.0729316666667","6501500","五股區"
"248020","KED-0813","2019/09/28 19:29:18","新北市五股區凌雲路三段35-1號","121.430708333333","25.1168983333333","6501500","五股區"
"248012","247-BX","2019/09/28 19:29:22","新北市五股區成泰路二段91巷9號","121.437551666667","25.0841616666667","6501500","五股區"
"248014","261-SL","2019/09/28 19:29:38","新北市五股區民義路一段172巷11號","121.433523333333","25.0880716666667","6501500","五股區"
"248004","677-BX","2019/09/28 19:29:24","新北市五股區工商路148-1號","121.433883333333","25.08731","6501500","五股區"
"248002","678-BX","2019/09/28 19:29:32","新北市五股區凌雲路一段158巷6號","121.4478","25.1029533333333","6501500","五股區"
"248010","682-TV","2019/09/28 19:29:17","新北市五股區水碓一路23號","121.43057","25.07125","6501500","五股區"
"234023","9380-KE","2019/09/28 19:29:23","新北市永和區竹林路91巷48號","121.52135","25.0127616666667","6500400","永和區"
"234077","969-R7","2019/09/28 19:29:29","新北市永和區民權路58巷3號","121.51954","24.9982833333333","6500400","永和區"
"234074","AAC-211","2019/09/28 19:29:32","新北市永和區永和路二段278號","121.515963333333","25.0152983333333","6500400","永和區"
"234067","AAC-212","2019/09/28 19:29:24","新北市永和區保平路186號","121.510555","25.0064916666667","6500400","永和區"
"234003","AAC-295","2019/09/28 19:29:38","新北市永和區福和路372號","121.514386666667","25.00764","6500400","永和區"
"244023","483-VK","2019/09/28 19:29:37","新北市林口區民富街99號","121.370456666667","25.0752566666667","6501700","林口區"
"243012","AAD-798","2019/09/28 19:29:23","新北市泰山區仁義路220巷12號","121.432858333333","25.0536066666667","6501600","泰山區"
"243010","297-R6","2019/09/28 19:29:25","新北市泰山區民生路17巷3號","121.430008333333","25.0523266666667","6501600","泰山區"
"243014","KEA-2801","2019/09/28 19:29:34","新北市泰山區中港西路420號","121.43382","25.0539216666667","6501600","泰山區"
"243016","421-VK","2019/09/28 19:29:20","新北市泰山區明志路三段356號","121.421213333333","25.0347866666667","6501600","泰山區"
"243009","KEA-2215","2019/09/28 19:29:32","新北市泰山區明志路一段17號","121.433775","25.06585","6501600","泰山區"
"243011","KEA-2216","2019/09/28 19:29:24","新北市泰山區貴子路140號","121.428863333333","25.040385","6501600","泰山區"
"243013","646-TV","2019/09/28 19:29:29","新北市泰山區貴子路36巷16號","121.425866666667","25.0411","6501600","泰山區"
"243015","680-BX","2019/09/28 19:29:21","新北市泰山區明志路二段130號","121.427338333333","25.05151","6501600","泰山區"
"222003","436-BY","2019/09/28 19:29:24","新北市深坑區深南路51-1號","121.621253333333","25.00983","6501800","深坑區"
"222002","659-BX","2019/09/28 19:29:19","新北市深坑區北深路一段177號","121.632543333333","25.0108833333333","6501800","深坑區"
"231061","002-UM","2019/09/28 19:29:29","新北市新店區安康路一段302-3號","121.517886666667","24.9640816666667","6500600","新店區"
"231044","046-UY","2019/09/28 19:29:35","新北市新店區北新路二段268號","121.542838333333","24.978855","6500600","新店區"
"231060","106-UY","2019/09/28 19:29:24","新北市新店區安康路二段74號","121.514363333333","24.9635316666667","6500600","新店區"
"231051","107-UY","2019/09/28 19:29:24","新北市新店區中央五街22號","121.529318333333","24.974485","6500600","新店區"
"231049","108-UY","2019/09/28 19:29:35","新北市新店區北新路三段65巷34弄28號","121.540061666667","24.9818266666667","6500600","新店區"
"231065","110-UY","2019/09/28 19:29:23","新北市新店區安祥路109巷1弄91號","121.478823333333","24.9602533333333","6500600","新店區"
"231062","256-BX","2019/09/28 19:29:35","新北市新店區莒光路97號","121.522693333333","24.9545033333333","6500600","新店區"
"231054","260-TV","2019/09/28 19:29:25","新北市新店區文中路40號","121.539686666667","24.95654","6500600","新店區"
"231042","268-BY","2019/09/28 19:29:22","新北市新店區中興路一段76號","121.539533333333","24.9599833333333","6500600","新店區"
"231064","278-BY","2019/09/28 19:29:29","新北市新店區安康路二段85巷2-1號","121.513445","24.9626783333333","6500600","新店區"
"231050","AAD-862","2019/09/28 19:29:35","新北市新店區竹林路82號","121.554471666667","24.9504333333333","6500600","新店區"
"231045","355-BY","2019/09/28 19:29:27","新北市新店區北宜路二段207號","121.553116666667","24.9532783333333","6500600","新店區"
"231058","3713-VJ","2019/09/28 19:29:18","新北市新店區北新路二段228巷3號","121.543065","24.977425","6500600","新店區"
"231056","4715-K9","2019/09/28 19:29:27","新北市新店區安民街121巷12號","121.515403333333","24.96923","6500600","新店區"
"231052","515-UM","2019/09/28 19:29:28","新北市新店區新烏路二段321號","121.549866666667","24.910885","6500600","新店區"
"231063","641-BX","2019/09/28 19:29:35","新北市新店區達觀路16號","121.502703333333","24.9412583333333","6500600","新店區"
"231048","KED-0819","2019/09/28 19:29:21","新北市新店區五峰路83號","121.546196666667","24.9675283333333","6500600","新店區"
"231046","719-UM","2019/09/28 19:29:25","新北市新店區北新路一段14號","121.540798333333","24.9655883333333","6500600","新店區"
"231057","720-UM","2019/09/28 19:29:35","新北市新店區花園一路二段27號","121.551358333333","24.9324466666667","6500600","新店區"
"231059","897-TW","2019/09/28 19:29:31","新北市新店區安和路三段53號","121.517978333333","24.9826816666667","6500600","新店區"
"231040","898-TW","2019/09/28 19:29:21","新北市新店區三民路20巷2號","121.537633333333","24.97061","6500600","新店區"
"231043","899-TW","2019/09/28 19:29:22","新北市新店區北新路二段228巷1號","121.542881666667","24.9776016666667","6500600","新店區"
"231066","AKT-0513","2019/09/28 19:29:37","新北市新店區安康路三段359巷12弄1號","121.484581666667","24.9497833333333","6500600","新店區"
"241028","022-UY","2019/09/28 19:29:27","新北市三重區中寮街30號","121.492638333333","25.05899","6500200","三重區"
"241008","059-VK","2019/09/28 19:29:34","新北市三重區永福街135巷32弄11號","121.476991666667","25.0770916666667","6500200","三重區"
"241026","060-VK","2019/09/28 19:29:26","新北市三重區文化南路47巷7號","121.499831666667","25.0612933333333","6500200","三重區"
"241017","063-VK","2019/09/28 19:29:23","新北市三重區國隆路31號","121.492271666667","25.0645116666667","6500200","三重區"
"241007","066-VK","2019/09/28 19:29:38","新北市三重區溪尾街126巷21號","121.48882","25.0792416666667","6500200","三重區"
"241006","262-UM","2019/09/28 19:29:23","新北市三重區後竹圍街205巷61號","121.484681666667","25.0730433333333","6500200","三重區"
"241009","267-UM","2019/09/28 19:29:25","新北市三重區溪尾街242巷71號","121.485978333333","25.0814633333333","6500200","三重區"
"241032","269-UM","2019/09/28 19:29:28","新北市三重區三陽路64號","121.483871666667","25.0587033333333","6500200","三重區"
"241013","270-UM","2019/09/28 19:29:23","新北市三重區仁愛街125巷2號","121.496261666667","25.0753083333333","6500200","三重區"
"241025","271-UM","2019/09/28 19:29:24","新北市三重區頂崁街210巷28弄9號","121.47579","25.0671316666667","6500200","三重區"
"241035","KEA-2210","2019/09/28 19:29:21","新北市三重區信義西街1號","121.498105","25.0648966666667","6500200","三重區"
"241030","KED-0822","2019/09/28 19:29:38","新北市三重區成功路41巷4號","121.490113333333","25.0514283333333","6500200","三重區"
"241020","478-VK","2019/09/28 19:29:28","新北市三重區三和路四段20巷22號","121.490138333333","25.0736266666667","6500200","三重區"
"241023","545-UM","2019/09/28 19:29:33","新北市三重區頂崁街99號","121.477961666667","25.0638483333333","6500200","三重區"
"241031","743-BX","2019/09/28 19:29:24","新北市三重區集美街100號","121.488516666667","25.05413","6500200","三重區"
"241022","KED-0820","2019/09/28 19:29:27","新北市三重區重陽路二段52巷83弄1號","121.484236666667","25.0655683333333","6500200","三重區"
"241029","942-UM","2019/09/28 19:29:20","新北市三重區泉州街84巷18號","121.495646666667","25.0541916666667","6500200","三重區"
"235066","003-UY","2019/09/28 19:29:37","新北市中和區中和路108號","121.502915","24.999625","6500300","中和區"
"235063","006-UY","2019/09/28 19:29:22","新北市中和區安邦街16號","121.495998333333","24.9980383333333","6500300","中和區"
"235056","096-UM","2019/09/28 19:29:21","新北市中和區員山路581巷31弄29號","121.476516666667","25.0102816666667","6500300","中和區"
"235039","097-UM","2019/09/28 19:29:21","新北市中和區秀峰街105號","121.52059","24.9902366666667","6500300","中和區"
"235065","098-UM","2019/09/28 19:29:38","新北市中和區中山路二段2巷13弄1號","121.504001666667","25.0068","6500300","中和區"
"235040","150-BY","2019/09/28 19:29:21","新北市中和區景安路79巷50號","121.50791","24.99565","6500300","中和區"
"235058","151-BY","2019/09/28 19:29:32","新北市中和區連城路372號","121.481791666667","24.9953066666667","6500300","中和區"
"235055","183-VK","2019/09/28 19:29:32","新北市中和區民享街29巷1號","121.473976666667","25.0044816666667","6500300","中和區"
"235038","185-VK","2019/09/28 19:29:35","新北市中和區自強路5號","121.520025","24.99372","6500300","中和區"
"235067","255-BX","2019/09/28 19:29:23","新北市中和區連城路340巷10弄12號","121.48302","24.99656","6500300","中和區"
"235044","293-VK","2019/09/28 19:29:28","新北市中和區捷運路185號","121.505436666667","24.99145","6500300","中和區"
"235072","301-VK","2019/09/28 19:29:19","新北市中和區連城路265巷10弄1號","121.491675","24.995295","6500300","中和區"
"235043","352-BY","2019/09/28 19:29:28","新北市中和區景平路336號","121.511863333333","24.99289","6500300","中和區"
"235042","KEA-2878","2019/09/28 19:29:28","新北市中和區中和路350巷15弄1號","121.510621666667","25.0010033333333","6500300","中和區"
"235050","4979-A6","2019/09/28 19:29:19","新北市中和區中正路151號","121.499051666667","24.9932683333333","6500300","中和區"
"235070","558-UM","2019/09/28 19:29:19","新北市中和區景平路575-1號","121.497916666667","25.00008","6500300","中和區"
"235045","565-BX","2019/09/28 19:29:34","新北市中和區景新街399巷10弄4-1號","121.513148333333","24.9898166666667","6500300","中和區"
"235060","KED-0823","2019/09/28 19:29:33","新北市中和區中山路二段499號","121.48239","25.005035","6500300","中和區"
"235054","640-BX","2019/09/28 19:29:34","新北市中和區國光街107巷2弄32號","121.469228333333","24.998985","6500300","中和區"
"235047","732-UM","2019/09/28 19:29:37","新北市中和區景平路241巷64弄10號","121.50751","24.9926716666667","6500300","中和區"
"235046","733-UM","2019/09/28 19:29:17","新北市中和區忠孝街2巷14弄34號","121.510408333333","24.9812133333333","6500300","中和區"
"235071","783-BX","2019/09/28 19:29:20","新北市中和區連城路469巷21弄2號","121.483865","24.99503","6500300","中和區"
"235057","801-TS","2019/09/28 19:29:37","新北市中和區員山路150-16號","121.481373333333","24.997805","6500300","中和區"
"235041","802-TS","2019/09/28 19:29:28","新北市中和區中和路390號","121.51125","25.0025383333333","6500300","中和區"
"235052","805-TS","2019/09/28 19:29:34","新北市中和區華新街143巷65弄2號","121.506636666667","24.9789783333333","6500300","中和區"
"235048","896-TW","2019/09/28 19:29:35","新北市中和區忠孝街76號","121.512066666667","24.9842083333333","6500300","中和區"
"235053","900-TW","2019/09/28 19:29:34","新北市中和區華順街30巷7號","121.467301666667","24.9991283333333","6500300","中和區"
"235064","911-UM","2019/09/28 19:29:34","新北市中和區南山路127巷5號","121.502663333333","24.9973033333333","6500300","中和區"
"235051","157-BY","2019/09/28 19:29:29","新北市中和區南華路89號","121.505628333333","24.9973383333333","6500300","中和區"
"235037","AAC-213","2019/09/28 19:29:38","新北市中和區秀朗路三段50巷4弄4號","121.525703333333","24.995695","6500300","中和區"
"235059","AAC-215","2019/09/28 19:29:38","新北市中和區圓通路252巷6號","121.493078333333","24.9918066666667","6500300","中和區"
"220065","072-UY","2019/09/28 19:29:36","新北市板橋區國泰街75巷3號","121.467508333333","25.0063","6500100","板橋區"
"220086","073-UY","2019/09/28 19:29:21","新北市板橋區中正路216巷23號","121.45669","25.0186666666667","6500100","板橋區"
"220106","075-UY","2019/09/28 19:29:32","新北市板橋區雙十路三段58號","121.470955","25.0315733333333","6500100","板橋區"
"220069","AAD-861","2019/09/28 19:29:19","新北市板橋區貴興路88-3號","121.455903333333","25.0033383333333","6500100","板橋區"
"247004","336-TH","2019/09/28 19:29:26","新北市蘆洲區長安街130號","121.46038","25.081995","6501400","蘆洲區"
"226004","312-R5","2019/09/28 19:29:35","新北市平溪區十分里十分街65號","121.775996666667","25.0418283333333","6502400","平溪區"
"235049","251-BX","2019/09/28 19:29:21","新北市中和區景新街273巷9號","121.509676666667","24.993825","6500300","中和區"
"228003","097-TW","2019/09/28 19:29:28","新北市貢寮區和美里和美街22-1號","121.912811666667","25.0826333333333","6502600","貢寮區"
"228001","212-TW","2019/09/28 19:29:34","新北市貢寮區真理里大澳街31號","121.92502","25.056335","6502600","貢寮區"
"224008","273-VK","2019/09/28 19:29:20","新北市瑞芳區一坑路297號","121.800846666667","25.1085066666667","6501200","瑞芳區"
"227001","642-TC","2019/09/28 19:29:20","新北市雙溪區新基里新基北街43號","121.868195","25.0396883333333","6502500","雙溪區"
"227002","400-TW","2019/09/28 19:29:21","新北市雙溪區雙溪里光復街22號","121.865211666667","25.0354216666667","6502500","雙溪區"
"222001","KEA-2212","2019/09/28 19:29:38","新北市深坑區北深路二段134號","121.615836666667","25.0029316666667","6501800","深坑區"
"208002","KEA-2872","2019/09/28 19:29:39","新北市金山區中正路14號","121.636148333333","25.2223516666667","6502700","金山區"
"208003","665-BX","2019/09/28 19:29:33","新北市金山區仁愛路37-5號","121.636153333333","25.21981","6502700","金山區"
"251009","008-UM","2019/09/28 19:29:22","新北市淡水區中山路159-1號","121.44082","25.1730616666667","6501000","淡水區"
"251005","010-UM","2019/09/28 19:29:21","新北市淡水區水源街一段47巷30號","121.444068333333","25.1731966666667","6501000","淡水區"
"251015","KEA-2871","2019/09/28 19:29:30","新北市淡水區山子頂24-1號","121.491393333333","25.1871816666667","6501000","淡水區"
"251016","179-VK","2019/09/28 19:29:32","新北市淡水區淡金路三段350巷18號","121.45077","25.208355","6501000","淡水區"
"251013","180-VK","2019/09/28 19:29:26","新北市淡水區安子內18號","121.471995","25.218815","6501000","淡水區"
"251008","181-VK","2019/09/28 19:29:27","新北市淡水區中正路一段66號","121.425243333333","25.1769783333333","6501000","淡水區"
"251010","413-VK","2019/09/28 19:29:26","新北市淡水區中正路二段150-5號","121.423245","25.1878166666667","6501000","淡水區"
"251007","442-VK","2019/09/28 19:29:20","新北市淡水區八勢路50巷9號","121.46359","25.1511766666667","6501000","淡水區"
"251001","559-UM","2019/09/28 19:29:17","新北市淡水區民權路139-1號","121.460091666667","25.136485","6501000","淡水區"
"251006","561-UM","2019/09/28 19:29:32","新北市淡水區大義街51號","121.441426666667","25.1782783333333","6501000","淡水區"
"251014","577-R6","2019/09/28 19:29:21","新北市淡水區小中寮19-7號","121.48474","25.2296383333333","6501000","淡水區"
"251003","766-UM","2019/09/28 19:29:30","新北市淡水區濱海路一段53號","121.443826666667","25.1891416666667","6501000","淡水區"
"207003","550-UM","2019/09/28 19:29:34","新北市萬里區大鵬里萬里加投153-1號","121.645165","25.213815","6502800","萬里區"
"207004","291-VK","2019/09/28 19:29:27","新北市萬里區萬里里瑪鋉路87-1號","121.688676666667","25.177225","6502800","萬里區"
"252002","178-VK","2019/09/28 19:29:24","新北市三芝區淡金路二段18-1號","121.502686666667","25.2595133333333","6502100","三芝區"
"208001","170-UY","2019/09/28 19:29:37","新北市金山區金包里街85號","121.638025","25.222075","6502700","金山區"
"237004","KEA-2597","2019/09/28 19:29:31","新北市三峽區有木206號","121.439093333333","24.8515666666667","6500900","三峽區"
"237007","153-BY","2019/09/28 19:29:20","新北市三峽區二鬮路136巷20弄85號","121.358268333333","24.908915","6500900","三峽區"
"237009","210-TH","2019/09/28 19:29:37","新北市三峽區中山路32號","121.369898333333","24.9339566666667","6500900","三峽區"
"237013","252-BX","2019/09/28 19:29:30","新北市三峽區介壽路一段318巷13號","121.381158333333","24.9295833333333","6500900","三峽區"
"237012","275-BY","2019/09/28 19:29:37","新北市三峽區三樹路98巷106號","121.384871666667","24.9408566666667","6500900","三峽區"
"237008","302-VK","2019/09/28 19:29:29","新北市三峽區永安街183號","121.373163333333","24.9269566666667","6500900","三峽區"
"237014","433-BY","2019/09/28 19:29:20","新北市三峽區中山路67巷5號","121.366685","24.9342716666667","6500900","三峽區"
"237006","5529-G3","2019/09/28 19:29:24","新北市三峽區介壽路一段360號","121.382276666667","24.9305316666667","6500900","三峽區"
"237015","649-BX","2019/09/28 19:29:24","新北市三峽區安坑1-12號","121.438623333333","24.9265066666667","6500900","三峽區"
"237011","078-UY","2019/09/28 19:29:36","新北市三峽區介壽路二段91-3號","121.391735","24.9354983333333","6500900","三峽區"
"237010","706-TV","2019/09/28 19:29:29","新北市三峽區復興路183號","121.3687","24.9388183333333","6500900","三峽區"
"237005","AKY-6261","2019/09/28 19:29:26","新北市三峽區復興路367巷11號","121.363768333333","24.937655","6500900","三峽區"
"236079","166-UM","2019/09/28 19:29:33","新北市土城區中州路3巷44號","121.413653333333","24.95666","6501300","土城區"
"236014","270-VK","2019/09/28 19:29:32","新北市土城區廣興街18號","121.456425","24.99179","6501300","土城區"
"236070","KEA-2877","2019/09/28 19:29:33","新北市土城區學府路一段129巷4號","121.454263333333","24.9862266666667","6501300","土城區"
"252001","KED-0821","2019/09/28 19:29:22","新北市三芝區長勤街63-4號","121.500095","25.2558533333333","6502100","三芝區"
"236021","401-BY","2019/09/28 19:29:38","新北市土城區峰廷街3號","121.469071666667","24.9873283333333","6501300","土城區"
"236049","913-UM","2019/09/28 19:29:29","新北市土城區青雲路216號","121.458936666667","24.98154","6501300","土城區"
"236055","AAC-216","2019/09/28 19:29:27","新北市土城區學府路一段276號","121.450115","24.9832033333333","6501300","土城區"
"242036","348-TH","2019/09/28 19:08:12","新北市新莊區民安東路119號","121.430588333333","25.0207466666667","6500500","新莊區"
"238015","755-BX","2019/09/28 19:29:34","新北市樹林區復興路271號","121.419188333333","24.9897666666667","6500700","樹林區"
"238023","601-UM","2019/09/28 19:29:36","新北市樹林區三福街30號","121.408328333333","25.01659","6500700","樹林區"
"238019","599-UM","2019/09/28 19:29:21","新北市樹林區東榮街39號","121.41737","24.9832566666667","6500700","樹林區"
"238024","5061-A6","2019/09/28 19:29:23","新北市樹林區福德街18號","121.400943333333","24.9761183333333","6500700","樹林區"
"238018","KEA-2217","2019/09/28 19:29:28","新北市樹林區中華路94號","121.418725","24.9810583333333","6500700","樹林區"
"238022","KEA-2213","2019/09/28 19:29:34","新北市樹林區國凱街39號","121.420271666667","24.978885","6500700","樹林區"
"238021","KEA-2539","2019/09/28 19:29:25","新北市樹林區佳園路三段225號","121.38511","24.9461366666667","6500700","樹林區"
"238025","303-VK","2019/09/28 19:29:29","新北市樹林區大安路620號","121.41138","24.98287","6500700","樹林區"
"238017","283-BY","2019/09/28 19:29:28","新北市樹林區光興街221號","121.40808","25.0048933333333","6500700","樹林區"
"238014","282-BY","2019/09/28 19:29:31","新北市樹林區千歲街6巷24號","121.425713333333","24.9951066666667","6500700","樹林區"
"238020","268-VK","2019/09/28 19:29:34","新北市樹林區俊英街111巷1-10號","121.423883333333","25.0094983333333","6500700","樹林區"
"238026","172-UY","2019/09/28 19:29:19","新北市樹林區佳園路三段93號","121.387598333333","24.9523566666667","6500700","樹林區"
"238016","169-UY","2019/09/28 19:29:18","新北市樹林區復興路464巷46號","121.412791666667","24.9834316666667","6500700","樹林區"
"239007","AAC-297","2019/09/28 19:29:28","新北市鶯歌區大湖路326巷14號","121.346156666667","24.970105","6500800","鶯歌區"
"239006","891-R6","2019/09/28 19:29:22","新北市鶯歌區鶯桃路96-1號","121.339666666667","24.95368","6500800","鶯歌區"
"239008","527-UM","2019/09/28 19:29:19","新北市鶯歌區大湖路560號","121.33695","24.9732966666667","6500800","鶯歌區"
"239005","526-UM","2019/09/28 19:27:34","新北市鶯歌區中湖街152巷3號","121.349755","24.97361","6500800","鶯歌區"
"239001","417-VK","2019/09/28 19:29:31","新北市鶯歌區永智街45號","121.336635","24.9541333333333","6500800","鶯歌區"
"239003","360-BY","2019/09/28 19:29:31","新北市鶯歌區中正二路155-3號","121.34536","24.9497916666667","6500800","鶯歌區"
"239002","359-BY","2019/09/28 19:29:22","新北市鶯歌區中山路93號","121.350343333333","24.9570033333333","6500800","鶯歌區"
"239004","193-VK","2019/09/28 19:29:25","新北市鶯歌區中正三路鄭厝巷16-9號","121.333411666667","24.9340283333333","6500800","鶯歌區"
"221008","489-VK","2019/09/28 19:29:28","新北市汐止區康寧街235號","121.623938333333","25.0668116666667","6501100","汐止區"
"221027","281-BY","2019/09/28 19:29:36","新北市汐止區忠孝東路9號","121.658258333333","25.065925","6501100","汐止區"
"221031","353-TW","2019/09/28 19:29:22","新北市汐止區康寧街901號","121.650848333333","25.0752566666667","6501100","汐止區"
"221025","623-UM","2019/09/28 19:29:12","新北市汐止區秀峰路9號","121.659316666667","25.0663216666667","6501100","汐止區"
"221033","647-BX","2019/09/28 19:29:32","新北市汐止區南勢街1巷1號","121.627068333333","25.0374166666667","6501100","汐止區"
"221002","707-TV","2019/09/28 19:29:26","新北市汐止區大同路一段219巷27號","121.633298333333","25.0583066666667","6501100","汐止區"
"220079","145-BY","2019/09/28 19:29:29","新北市板橋區公館街27號","121.461038333333","25.015325","6500100","板橋區"
"220080","200-UY","2019/09/28 19:29:31","新北市板橋區大觀路二段3巷48號","121.44878","25.0034566666667","6500100","板橋區"
"220082","610-BX","2019/09/28 19:29:27","新北市板橋區金門街299號","121.43013","24.9865333333333","6500100","板橋區"
"220084","256-TC","2019/09/28 19:29:25","新北市板橋區滿平街136巷8弄12號","121.427471666667","24.9876316666667","6500100","板橋區"
"220091","267-BY","2019/09/28 19:29:27","新北市板橋區文聖街149巷22號","121.479505","25.0284716666667","6500100","板橋區"
"220056","276-BY","2019/09/28 19:29:24","新北市板橋區信義路60號","121.457245","24.99379","6500100","板橋區"
"220072","277-BY","2019/09/28 19:29:33","新北市板橋區篤行路二段141巷13號","121.430375","24.987955","6500100","板橋區"
"220101","280-UM","2019/09/28 19:29:25","新北市板橋區縣民大道三段33巷15號","121.47392","25.0211333333333","6500100","板橋區"
"220071","283-VK","2019/09/28 19:29:27","新北市板橋區忠孝路48巷9弄19號","121.46201","25.000415","6500100","板橋區"
"220094","285-UM","2019/09/28 19:29:30","新北市板橋區銘傳街41號","121.468763333333","25.0311383333333","6500100","板橋區"
"220083","286-VK","2019/09/28 19:29:18","新北市板橋區龍興街73巷22號","121.443083333333","25.002485","6500100","板橋區"
"220081","287-VK","2019/09/28 19:29:20","新北市板橋區南雅西路一段4號","121.454823333333","25.0045283333333","6500100","板橋區"
"220090","288-VK","2019/09/28 19:29:25","新北市板橋區長江路一段48巷4弄1-3號","121.459133333333","25.0285016666667","6500100","板橋區"
"220061","293-UM","2019/09/28 19:29:30","新北市板橋區中山路一段267號","121.468808333333","25.0135216666667","6500100","板橋區"
"220053","299-UM","2019/09/28 19:29:31","新北市板橋區懷仁街77巷14號","121.47756","25.0188183333333","6500100","板橋區"
"220075","303-R5","2019/09/28 19:29:23","新北市板橋區中正路275巷93號","121.450766666667","25.0180683333333","6500100","板橋區"
"220062","305-R5","2019/09/28 19:29:31","新北市板橋區三民路二段123巷8號","121.479763333333","25.0155683333333","6500100","板橋區"
"220092","307-R5","2019/09/28 19:29:21","新北市板橋區陽明街164巷21號","121.46439","25.0245766666667","6500100","板橋區"
"220098","317-R6","2019/09/28 19:29:31","新北市板橋區民有街108號","121.46455","25.0282566666667","6500100","板橋區"
"220089","487-VK","2019/09/28 19:29:32","新北市板橋區龍泉街93-3號","121.456986666667","25.0246666666667","6500100","板橋區"
"220088","491-VK","2019/09/28 19:29:29","新北市板橋區文化路二段560號","121.476391666667","25.0343616666667","6500100","板橋區"
"220035","560-BX","2019/09/28 19:29:33","新北市板橋區中正路346號","121.454321666667","25.0235666666667","6500100","板橋區"
"220103","561-BX","2019/09/28 19:29:29","新北市板橋區陽明街29巷32號","121.463735","25.0226933333333","6500100","板橋區"
"220063","609-BX","2019/09/28 19:29:35","新北市板橋區中山路二段505巷55號","121.481891666667","25.023005","6500100","板橋區"
"220057","686-BX","2019/09/28 19:29:38","新北市板橋區和平路安樂巷27號","121.461635","24.993525","6500100","板橋區"
"220077","687-BX","2019/09/28 19:29:32","新北市板橋區大觀路一段28巷62號","121.449798333333","25.0104166666667","6500100","板橋區"
"220093","689-BX","2019/09/28 19:29:33","新北市板橋區新海路440號","121.457971666667","25.0278033333333","6500100","板橋區"
"220054","741-BX","2019/09/28 19:29:18","新北市板橋區重慶路153號","121.462526666667","25.0038816666667","6500100","板橋區"
"220102","KEA-2699","2019/09/28 19:29:21","新北市板橋區雙十路二段130巷2弄76號","121.475676666667","25.0291733333333","6500100","板橋區"
"220055","827-TW","2019/09/28 19:29:26","新北市板橋區重慶路278巷5號","121.462668333333","24.9996366666667","6500100","板橋區"
"220068","830-TW","2019/09/28 19:29:35","新北市板橋區萬安街85號","121.48368","25.0243866666667","6500100","板橋區"
"220067","831-TW","2019/09/28 19:29:33","新北市板橋區漢生東路313巷6號","121.47242","25.0083166666667","6500100","板橋區"
"220074","895-R6","2019/09/28 19:29:24","新北市板橋區北門街8號","121.457706666667","25.0105483333333","6500100","板橋區"
"220073","985-R7","2019/09/28 19:29:28","新北市板橋區中正路431號","121.454253333333","25.0230866666667","6500100","板橋區"
"220097","AAC-210","2019/09/28 19:29:32","新北市板橋區幸福路32巷2號","121.461628333333","25.0204716666667","6500100","板橋區"
"220064","AAC-253","2019/09/28 19:29:31","新北市板橋區民權路33號","121.4622","25.0109466666667","6500100","板橋區"
"235068","KEA-2873","2019/09/28 19:29:11","新北市中和區景平路493巷12弄23號","121.498623333333","24.9970166666667","6500300","中和區"
"235061","KEA-2875","2019/09/28 19:29:17","新北市中和區民安街2巷35弄2號","121.479955","25.001595","6500300","中和區"
