"lineid","car","time","location","longitude","latitude","cityid","cityname"
"234046","148-BY","2019/09/28 19:39:22","新北市永和區永元路94號","121.522456666667","25.0016916666667","6500400","永和區"
"234001","209-UY","2019/09/28 19:39:32","新北市永和區保生路55號","121.504611666667","25.0108016666667","6500400","永和區"
"234081","298-R6","2019/09/28 19:39:35","新北市永和區國中路104巷8弄9號","121.525008333333","25.006705","6500400","永和區"
"234038","336-UY","2019/09/28 19:39:32","新北市永和區成功路一段125巷11號","121.527416666667","25.001995","6500400","永和區"
"234064","337-UY","2019/09/28 19:39:34","新北市永和區秀朗路二段24巷28弄14號","121.519561666667","25.00187","6500400","永和區"
"234086","338-UY","2019/09/28 19:39:31","新北市永和區永亨路132號","121.524665","25.0039633333333","6500400","永和區"
"234070","552-UM","2019/09/28 19:39:33","新北市永和區永和路二段233號","121.51548","25.0141916666667","6500400","永和區"
"234017","745-BX","2019/09/28 19:39:32","新北市永和區永和路二段425巷62號","121.513768333333","25.0173783333333","6500400","永和區"
"234030","746-BX","2019/09/28 19:39:26","新北市永和區民生路67巷31號","121.52438","24.997335","6500400","永和區"
"234054","KEA-2590","2019/09/28 19:39:33","新北市永和區竹林路52號","121.517825","25.0141016666667","6500400","永和區"
"234007","KED-0605","2019/09/28 19:39:31","新北市永和區中和路431-1號","121.509428333333","25.00089","6500400","永和區"
"234013","KEA-2591","2019/09/28 19:39:23","新北市永和區永平路222號","121.509083333333","25.0105933333333","6500400","永和區"
"234061","AAD-866","2019/09/28 19:39:20","新北市永和區中正路446號","121.51749","25.002805","6500400","永和區"
"234042","862-TW","2019/09/28 19:39:35","新北市永和區中和路347號","121.508056666667","24.9997783333333","6500400","永和區"
"234050","863-TW","2019/09/28 19:39:34","新北市永和區保安路47號","121.509571666667","25.0159316666667","6500400","永和區"
"234026","9371-KE","2019/09/28 19:39:29","新北市永和區中和路497號","121.510496666667","25.00239","6500400","永和區"
"249002","305-UY","2019/09/28 19:39:28","新北市八里區頂寮二街83號","121.450058333333","25.12561","6502300","八里區"
"249003","593-UM","2019/09/28 19:39:18","新北市八里區華峰三街60號","121.399081666667","25.145805","6502300","八里區"
"248016","026-BX","2019/09/28 19:39:40","新北市五股區成泰路三段557號","121.452056666667","25.1019883333333","6501500","五股區"
"248008","KED-0815","2019/09/28 19:39:24","新北市五股區四維路118巷13號","121.469208333333","25.0742716666667","6501500","五股區"
"248020","KED-0813","2019/09/28 19:39:18","新北市五股區中直路17-2號","121.422731666667","25.1122016666667","6501500","五股區"
"248012","247-BX","2019/09/28 19:39:22","新北市五股區蓬萊路6巷43號","121.43581","25.0803716666667","6501500","五股區"
"248014","261-SL","2019/09/28 19:39:18","新北市五股區五福路42巷27號","121.434863333333","25.0901116666667","6501500","五股區"
"248004","677-BX","2019/09/28 19:39:24","新北市五股區成泰路二段78號","121.437415","25.0822816666667","6501500","五股區"
"248002","678-BX","2019/09/28 19:39:32","新北市五股區成泰路三段577巷81號","121.449665","25.1037283333333","6501500","五股區"
"248010","682-TV","2019/09/28 19:39:17","新北市五股區自強路164號","121.432135","25.0697833333333","6501500","五股區"
"234023","9380-KE","2019/09/28 19:39:23","新北市永和區保生路55-1號","121.504536666667","25.0108933333333","6500400","永和區"
"234077","969-R7","2019/09/28 19:39:29","新北市永和區民權路1巷10號","121.520855","24.9983433333333","6500400","永和區"
"234074","AAC-211","2019/09/28 19:39:32","新北市永和區竹林路225巷30號","121.521808333333","25.0085816666667","6500400","永和區"
"234067","AAC-212","2019/09/28 19:39:24","新北市永和區中山路一段191巷7弄2號","121.509543333333","25.0082733333333","6500400","永和區"
"234003","AAC-295","2019/09/28 19:39:17","新北市永和區自由街58號","121.51373","25.0058116666667","6500400","永和區"
"244023","483-VK","2019/09/28 19:39:37","新北市林口區仁愛路二段309號","121.372226666667","25.0785333333333","6501700","林口區"
"243012","AAD-798","2019/09/28 19:39:23","新北市泰山區仁愛路132號","121.434158333333","25.0558883333333","6501600","泰山區"
"243016","421-VK","2019/09/28 19:39:37","新北市新莊區新北大道七段36號","121.419615","25.03228","6501600","泰山區"
"243009","KEA-2215","2019/09/28 19:39:32","新北市泰山區美寧街60號","121.430941666667","25.064645","6501600","泰山區"
"243011","KEA-2216","2019/09/28 19:39:24","新北市泰山區新北大道六段100號","121.42756","25.037845","6501600","泰山區"
"243015","680-BX","2019/09/28 19:36:41","新北市泰山區民權街55號","121.428906666667","25.0503566666667","6501600","泰山區"
"222003","436-BY","2019/09/28 19:39:24","新北市深坑區深南路51-1號","121.621231666667","25.0098333333333","6501800","深坑區"
"222002","659-BX","2019/09/28 19:39:39","新北市深坑區北深路一段177號","121.632528333333","25.0108683333333","6501800","深坑區"
"231061","002-UM","2019/09/28 19:39:35","新北市新店區安民街131號","121.516323333333","24.969085","6500600","新店區"
"231044","046-UY","2019/09/28 19:39:34","新北市新店區復興路18號","121.539538333333","24.98679","6500600","新店區"
"231060","106-UY","2019/09/28 19:39:24","新北市新店區安康路二段161號","121.51015","24.9593166666667","6500600","新店區"
"231051","107-UY","2019/09/28 19:39:24","新北市新店區中央四街47號","121.527786666667","24.9750566666667","6500600","新店區"
"231049","108-UY","2019/09/28 19:39:35","新北市新店區大豐路65號","121.53952","24.9796116666667","6500600","新店區"
"231065","110-UY","2019/09/28 19:39:23","新北市新店區安祥路109巷67號","121.477405","24.9599983333333","6500600","新店區"
"231062","256-BX","2019/09/28 19:39:34","新北市新店區合作路11號","121.53326","24.9576133333333","6500600","新店區"
"231054","260-TV","2019/09/28 19:39:25","新北市新店區文中路40號","121.539656666667","24.95656","6500600","新店區"
"231042","268-BY","2019/09/28 19:39:22","新北市新店區中興路一段191號","121.543205","24.9650816666667","6500600","新店區"
"231064","278-BY","2019/09/28 19:39:27","新北市新店區安和路二段115號","121.518676666667","24.970405","6500600","新店區"
"231050","AAD-862","2019/09/28 19:39:35","新北市新店區秀水路2號","121.555008333333","24.9538433333333","6500600","新店區"
"231045","355-BY","2019/09/28 19:39:27","新北市新店區北宜路二段207號","121.553088333333","24.953265","6500600","新店區"
"231058","3713-VJ","2019/09/28 19:39:38","新北市新店區寶橋路69-1號","121.545493333333","24.9750916666667","6500600","新店區"
"231056","4715-K9","2019/09/28 19:39:27","新北市新店區民權路72號","121.538095","24.9831616666667","6500600","新店區"
"231052","515-UM","2019/09/28 19:39:28","新北市新店區新烏路二段446號","121.551628333333","24.9080166666667","6500600","新店區"
"231063","641-BX","2019/09/28 19:39:35","新北市新店區達觀路27-1號","121.503998333333","24.9384483333333","6500600","新店區"
"231048","KED-0819","2019/09/28 19:39:21","新北市新店區五峰路63巷8弄40號","121.547755","24.9687666666667","6500600","新店區"
"231046","719-UM","2019/09/28 19:39:25","新北市新店區中正路329巷3弄1號","121.535506666667","24.97475","6500600","新店區"
"231057","720-UM","2019/09/28 19:39:35","新北市新店區橘園一路11號","121.547968333333","24.9340283333333","6500600","新店區"
"231059","897-TW","2019/09/28 19:39:31","新北市新店區安和路三段47-1號","121.518036666667","24.9823083333333","6500600","新店區"
"231040","898-TW","2019/09/28 19:39:21","新北市新店區北新路一段40號","121.54098","24.966055","6500600","新店區"
"231043","899-TW","2019/09/28 19:39:22","新北市新店區北新路二段1號","121.542585","24.971215","6500600","新店區"
"231066","AKT-0513","2019/09/28 19:39:17","新北市新店區安康路三段456號","121.484305","24.9511016666667","6500600","新店區"
"241011","013-R5","2019/09/28 19:39:31","新北市三重區秀江街166號","121.498208333333","25.0717316666667","6500200","三重區"
"241028","022-UY","2019/09/28 19:39:27","新北市三重區中正南路115號","121.494091666667","25.0575016666667","6500200","三重區"
"241008","059-VK","2019/09/28 19:39:34","新北市三重區永福街135巷1號","121.478651666667","25.076835","6500200","三重區"
"241026","060-VK","2019/09/28 19:39:26","新北市三重區文化南路65巷27號","121.4992","25.0607716666667","6500200","三重區"
"241015","062-VK","2019/09/28 19:39:27","新北市三重區福德北路34號","121.50209","25.0652666666667","6500200","三重區"
"241017","063-VK","2019/09/28 19:39:23","新北市三重區重陽路三段5巷48號","121.49213","25.06485","6500200","三重區"
"241007","066-VK","2019/09/28 19:39:18","新北市三重區仁美街63號","121.486696666667","25.0784133333333","6500200","三重區"
"241006","262-UM","2019/09/28 19:39:23","新北市三重區聯華街77號","121.485931666667","25.0753916666667","6500200","三重區"
"241009","267-UM","2019/09/28 19:39:25","新北市三重區三和路四段410號","121.480856666667","25.0796666666667","6500200","三重區"
"241032","269-UM","2019/09/28 19:39:29","新北市三重區重陽路一段60巷76號","121.48427","25.058215","6500200","三重區"
"241013","270-UM","2019/09/28 19:39:23","新北市三重區仁賢街29號","121.496475","25.0748416666667","6500200","三重區"
"241025","271-UM","2019/09/28 19:39:23","新北市三重區頂崁街151號","121.47811","25.0649716666667","6500200","三重區"
"241035","KEA-2210","2019/09/28 19:39:21","新北市三重區正義北路68號","121.497156666667","25.0644933333333","6500200","三重區"
"241030","KED-0822","2019/09/28 19:39:29","新北市三重區新興路28巷9號","121.491763333333","25.0529683333333","6500200","三重區"
"241020","478-VK","2019/09/28 19:39:28","新北市三重區自強路三段80號","121.487108333333","25.07443","6500200","三重區"
"241014","543-UM","2019/09/28 19:39:28","新北市三重區長榮路123號","121.503653333333","25.0694033333333","6500200","三重區"
"241023","545-UM","2019/09/28 19:39:33","新北市三重區忠孝路三段99巷12號","121.479693333333","25.064185","6500200","三重區"
"241001","547-UM","2019/09/28 19:39:27","新北市三重區五華街23號","121.494778333333","25.08059","6500200","三重區"
"241019","KEA-2593","2019/09/28 19:39:27","新北市三重區六張街194巷1弄2號","121.488591666667","25.0680716666667","6500200","三重區"
"241031","743-BX","2019/09/28 19:39:24","新北市三重區重新路四段218號","121.485948333333","25.0542633333333","6500200","三重區"
"241012","887-TS","2019/09/28 19:39:38","新北市三重區仁義街8號","121.499923333333","25.0757283333333","6500200","三重區"
"241029","942-UM","2019/09/28 19:39:20","新北市三重區光明路122號","121.49288","25.055915","6500200","三重區"
"235066","003-UY","2019/09/28 19:39:17","新北市中和區景新街162號","121.505715","24.9971366666667","6500300","中和區"
"235063","006-UY","2019/09/28 19:39:22","新北市中和區連城路263巷16號","121.492521666667","24.994825","6500300","中和區"
"235056","096-UM","2019/09/28 19:39:32","新北市中和區民富街37號","121.476355","25.0080966666667","6500300","中和區"
"235039","097-UM","2019/09/28 19:39:21","新北市中和區景平路131號","121.514813333333","24.9920916666667","6500300","中和區"
"235065","098-UM","2019/09/28 19:39:22","新北市中和區中山路二段189號","121.500248333333","25.0027866666667","6500300","中和區"
"235040","150-BY","2019/09/28 19:39:29","新北市中和區宜安路80號","121.511005","24.99751","6500300","中和區"
"235058","151-BY","2019/09/28 19:39:12","新北市中和區員山路132巷1號","121.481441666667","24.99635","6500300","中和區"
"235055","183-VK","2019/09/28 19:39:32","新北市中和區莒光路37巷5號","121.472545","25.0051666666667","6500300","中和區"
"235038","185-VK","2019/09/28 19:39:35","新北市中和區自立路29巷14弄30號","121.522821666667","24.9951616666667","6500300","中和區"
"235067","255-BX","2019/09/28 19:39:23","新北市中和區新生街208號","121.483815","24.99892","6500300","中和區"
"235044","293-VK","2019/09/28 19:39:28","新北市中和區南山路300號","121.507913333333","24.9870166666667","6500300","中和區"
"235072","301-VK","2019/09/28 19:39:19","新北市中和區中正路432巷11號","121.490715","24.9957566666667","6500300","中和區"
"235043","352-BY","2019/09/28 19:39:22","新北市中和區華新街230號","121.506011666667","24.9816716666667","6500300","中和區"
"235042","KEA-2878","2019/09/28 19:39:28","新北市中和區保健路46巷22弄4號","121.50869","24.9959166666667","6500300","中和區"
"235050","4979-A6","2019/09/28 19:39:19","新北市中和區員山路36巷16-3號","121.484715","24.9909816666667","6500300","中和區"
"235070","558-UM","2019/09/28 19:39:19","新北市中和區連勝街33號","121.498363333333","24.9977733333333","6500300","中和區"
"235045","565-BX","2019/09/28 19:39:34","新北市中和區四維街8號","121.513475","24.9875133333333","6500300","中和區"
"235060","KED-0823","2019/09/28 19:39:33","新北市中和區新生街30巷6號","121.482905","25.003855","6500300","中和區"
"235054","640-BX","2019/09/28 19:39:38","新北市中和區莒光路138號","121.472565","25.0012633333333","6500300","中和區"
"235047","732-UM","2019/09/28 19:39:37","新北市中和區景平路361號","121.504596666667","24.9934316666667","6500300","中和區"
"235046","733-UM","2019/09/28 19:39:37","新北市中和區忠孝街104號","121.512045","24.9848883333333","6500300","中和區"
"235071","783-BX","2019/09/28 19:39:20","新北市中和區中正路839巷29號","121.483538333333","25.0024183333333","6500300","中和區"
"235057","801-TS","2019/09/28 19:39:37","新北市中和區中正路810號","121.484986666667","25.00295","6500300","中和區"
"235041","802-TS","2019/09/28 19:39:28","新北市中和區永貞路258號","121.51394","25.0036816666667","6500300","中和區"
"235052","805-TS","2019/09/28 19:39:34","新北市中和區華新街206巷10號","121.50642","24.982375","6500300","中和區"
"235048","896-TW","2019/09/28 19:39:35","新北市中和區華新街32號","121.507763333333","24.9844783333333","6500300","中和區"
"235053","900-TW","2019/09/28 19:39:34","新北市中和區國光街215巷8弄6-4號","121.46656","25.0010733333333","6500300","中和區"
"235051","157-BY","2019/09/28 19:39:29","新北市中和區中興街132巷9號","121.498888333333","24.9917433333333","6500300","中和區"
"235037","AAC-213","2019/09/28 19:39:18","新北市中和區秀朗路三段173-2號","121.52439","24.9913583333333","6500300","中和區"
"235059","AAC-215","2019/09/28 19:39:38","新北市中和區錦和路203巷9號","121.491281666667","24.9905283333333","6500300","中和區"
"220065","072-UY","2019/09/28 19:39:22","新北市板橋區國泰街111巷17號","121.466115","25.00595","6500100","板橋區"
"220086","073-UY","2019/09/28 19:39:30","新北市板橋區中正路236巷16號","121.456436666667","25.01906","6500100","板橋區"
"220106","075-UY","2019/09/28 19:39:40","新北市板橋區文化路二段606號","121.47719","25.0350933333333","6500100","板橋區"
"220069","AAD-861","2019/09/28 19:39:39","新北市板橋區南雅南路二段11-5號","121.453985","25.0023633333333","6500100","板橋區"
"247004","336-TH","2019/09/28 19:39:26","新北市蘆洲區中原路21巷7弄40號","121.461715","25.0830766666667","6501400","蘆洲區"
"247002","001-UY","2019/09/28 19:39:38","新北市蘆洲區長榮路711號","121.46111","25.09295","6501400","蘆洲區"
"226004","312-R5","2019/09/28 19:39:35","新北市平溪區靜安路三段392巷3號","121.784363333333","25.0495433333333","6502400","平溪區"
"235049","251-BX","2019/09/28 19:39:21","新北市中和區景平路411號","121.502106666667","24.9948216666667","6500300","中和區"
"228003","097-TW","2019/09/28 19:39:28","新北市貢寮區真理里美艷山街31號","121.923263333333","25.0689966666667","6502600","貢寮區"
"228001","212-TW","2019/09/28 19:39:33","新北市貢寮區真理里延平街49號","121.924606666667","25.0556466666667","6502600","貢寮區"
"224010","AGQ-8101","2019/09/28 19:39:29","新北市瑞芳區基山街233號","121.841968333333","25.1069216666667","6501200","瑞芳區"
"227001","642-TC","2019/09/28 19:39:20","新北市雙溪區新基里新基北街22號","121.867205","25.0389216666667","6502500","雙溪區"
"227002","400-TW","2019/09/28 19:39:21","新北市雙溪區雙溪里太平路61號","121.86498","25.03578","6502500","雙溪區"
"222001","KEA-2212","2019/09/28 19:39:38","新北市深坑區北深路三段10號","121.610361666667","25.00097","6501800","深坑區"
"208002","KEA-2872","2019/09/28 19:39:19","新北市金山區三民街34號","121.634798333333","25.2234416666667","6502700","金山區"
"208003","665-BX","2019/09/28 19:39:33","新北市金山區中正路16號","121.636101666667","25.22234","6502700","金山區"
"251009","008-UM","2019/09/28 19:39:22","新北市淡水區中山北路一段184巷8號","121.445286666667","25.17857","6501000","淡水區"
"251005","010-UM","2019/09/28 19:39:21","新北市淡水區原德路108巷2號","121.44339","25.1735683333333","6501000","淡水區"
"251015","KEA-2871","2019/09/28 19:37:30","新北市淡水區山子頂24-1號","121.491395","25.1871766666667","6501000","淡水區"
"251016","179-VK","2019/09/28 19:39:32","新北市淡水區淡金路三段350巷18號","121.450765","25.2083533333333","6501000","淡水區"
"251013","180-VK","2019/09/28 19:39:26","新北市淡水區店子後10號","121.460263333333","25.2190366666667","6501000","淡水區"
"251008","181-VK","2019/09/28 19:39:27","新北市淡水區中正路一段8巷1弄11號","121.428231666667","25.1759883333333","6501000","淡水區"
"251010","413-VK","2019/09/28 19:39:26","新北市淡水區崁頂三路135號","121.431461666667","25.2009566666667","6501000","淡水區"
"251007","442-VK","2019/09/28 19:39:20","新北市淡水區淡金路59號","121.455795","25.1613283333333","6501000","淡水區"
"251001","559-UM","2019/09/28 19:39:33","新北市淡水區民權路49號","121.459735","25.139245","6501000","淡水區"
"251006","561-UM","2019/09/28 19:39:31","新北市淡水區中山北路一段207巷55-2號","121.442196666667","25.1790783333333","6501000","淡水區"
"251014","577-R6","2019/09/28 19:39:21","新北市淡水區北勢子21號","121.477981666667","25.2305616666667","6501000","淡水區"
"251011","650-BX","2019/09/28 19:39:18","新北市淡水區中正東路二段143巷2弄1號","121.460668333333","25.1471783333333","6501000","淡水區"
"207003","550-UM","2019/09/28 19:39:34","新北市萬里區大鵬里萬里加投300號","121.64541","25.2196866666667","6502800","萬里區"
"207004","291-VK","2019/09/28 19:39:27","新北市萬里區萬里里瑪鋉路33-1號","121.687533333333","25.1756616666667","6502800","萬里區"
"252002","178-VK","2019/09/28 19:39:24","新北市三芝區中正路一段18巷50號","121.504126666667","25.2588616666667","6502100","三芝區"
"208001","170-UY","2019/09/28 19:39:17","新北市金山區南勢湖15號","121.621141666667","25.2193","6502700","金山區"
"237004","KEA-2597","2019/09/28 19:39:31","新北市三峽區插角220-1號","121.415486666667","24.8668433333333","6500900","三峽區"
"237007","153-BY","2019/09/28 19:39:20","新北市三峽區二鬮路136巷24弄41號","121.356798333333","24.9106066666667","6500900","三峽區"
"237009","210-TH","2019/09/28 19:39:29","新北市三峽區中園街34號","121.368208333333","24.9266183333333","6500900","三峽區"
"237013","252-BX","2019/09/28 19:39:30","新北市三峽區介壽路一段586號","121.388735","24.9342466666667","6500900","三峽區"
"237012","275-BY","2019/09/28 19:39:36","新北市三峽區民生街3號","121.374545","24.935405","6500900","三峽區"
"237008","302-VK","2019/09/28 19:39:29","新北市三峽區大同路176號","121.372586666667","24.9267116666667","6500900","三峽區"
"237014","433-BY","2019/09/28 19:39:20","新北市三峽區大利路14號","121.366721666667","24.9116333333333","6500900","三峽區"
"237006","5529-G3","2019/09/28 19:39:24","新北市三峽區中正路一段336巷15弄2號","121.369941666667","24.9249316666667","6500900","三峽區"
"237015","649-BX","2019/09/28 19:39:24","新北市三峽區成福路167號","121.421093333333","24.9300383333333","6500900","三峽區"
"237011","078-UY","2019/09/28 19:39:36","新北市三峽區中正路一段160號","121.373013333333","24.9286266666667","6500900","三峽區"
"237010","706-TV","2019/09/28 19:39:29","新北市三峽區復興路31號","121.373776666667","24.9366266666667","6500900","三峽區"
"237005","AKY-6261","2019/09/28 19:39:26","新北市三峽區中山路169巷9號","121.36429","24.9360216666667","6500900","三峽區"
"236079","166-UM","2019/09/28 19:39:33","新北市土城區溪頭路30巷29號","121.412531666667","24.9563133333333","6501300","土城區"
"236030","253-BX","2019/09/28 19:39:30","新北市土城區福祥街48號","121.441388333333","24.981065","6501300","土城區"
"236038","271-VK","2019/09/28 19:39:36","新北市土城區清水路98巷3弄30號","121.458455","24.9808366666667","6501300","土城區"
"236070","KEA-2877","2019/09/28 19:39:33","新北市土城區裕民路225號","121.454116666667","24.9834983333333","6501300","土城區"
"252001","KED-0821","2019/09/28 19:39:22","新北市三芝區公正街66號","121.499788333333","25.257455","6502100","三芝區"
"236021","401-BY","2019/09/28 19:39:18","新北市土城區峰廷街18號","121.469021666667","24.9873016666667","6501300","土城區"
"236049","913-UM","2019/09/28 19:39:23","新北市土城區明德路一段30號","121.465073333333","24.9847216666667","6501300","土城區"
"236063","915-UM","2019/09/28 19:39:21","新北市土城區延平街19號","121.468208333333","24.9912033333333","6501300","土城區"
"236055","AAC-216","2019/09/28 19:39:33","新北市土城區立德路22號","121.462816666667","24.9878","6501300","土城區"
"242004","442-UM","2019/09/28 19:39:34","新北市新莊區化成路21號","121.465038333333","25.0435216666667","6500500","新莊區"
"242023","353-BY","2019/09/28 19:39:37","新北市新莊區復興路三段115號","121.464295","25.0445283333333","6500500","新莊區"
"242039","135-UY","2019/09/28 19:39:23","新北市新莊區建國二路85-9號","121.430886666667","25.02588","6500500","新莊區"
"242031","175-VK","2019/09/28 19:39:28","新北市新莊區新泰路213巷31號","121.444863333333","25.0383883333333","6500500","新莊區"
"242036","348-TH","2019/09/28 19:39:39","新北市新莊區民安路181巷2弄12號","121.426478333333","25.0226283333333","6500500","新莊區"
"242034","350-TH","2019/09/28 19:39:35","新北市新莊區中正路342號","121.444378333333","25.0344733333333","6500500","新莊區"
"238015","755-BX","2019/09/28 19:39:33","新北市樹林區中興街2號","121.42074","24.98967","6500700","樹林區"
"238023","601-UM","2019/09/28 19:39:36","新北市樹林區三福街122號","121.406076666667","25.016025","6500700","樹林區"
"238019","599-UM","2019/09/28 19:39:38","新北市樹林區鎮前街347巷2弄20號","121.416165","24.9836983333333","6500700","樹林區"
"238024","5061-A6","2019/09/28 19:39:23","新北市樹林區中山路三段125號","121.398866666667","24.9742416666667","6500700","樹林區"
"238022","KEA-2213","2019/09/28 19:39:34","新北市樹林區名園街78巷6號","121.419913333333","24.9777083333333","6500700","樹林區"
"238021","KEA-2539","2019/09/28 19:39:21","新北市樹林區佳園路三段147號","121.385948333333","24.9493233333333","6500700","樹林區"
"238025","303-VK","2019/09/28 19:39:29","新北市樹林區保安二街12號","121.424866666667","24.9940416666667","6500700","樹林區"
"238017","283-BY","2019/09/28 19:39:28","新北市樹林區光榮街79號","121.412","25.0030633333333","6500700","樹林區"
"238014","282-BY","2019/09/28 19:39:31","新北市樹林區保安二街40號","121.424648333333","24.9950333333333","6500700","樹林區"
"238020","268-VK","2019/09/28 19:39:34","新北市樹林區俊英街6-1號","121.429861666667","24.9995416666667","6500700","樹林區"
"238026","172-UY","2019/09/28 19:39:19","新北市樹林區佳園路二段34-1號","121.391468333333","24.9620616666667","6500700","樹林區"
"238016","169-UY","2019/09/28 19:39:37","新北市樹林區東和街35號","121.401793333333","24.9825783333333","6500700","樹林區"
"239007","AAC-297","2019/09/28 19:39:28","新北市鶯歌區大湖路356號","121.346321666667","24.97255","6500800","鶯歌區"
"239006","891-R6","2019/09/28 19:39:22","新北市鶯歌區永昌街192號","121.339156666667","24.9505383333333","6500800","鶯歌區"
"239001","417-VK","2019/09/28 19:39:31","新北市鶯歌區鶯桃路97號","121.338991666667","24.9538616666667","6500800","鶯歌區"
"239002","359-BY","2019/09/28 19:39:29","新北市鶯歌區湖山路54巷2號","121.339508333333","24.9751416666667","6500800","鶯歌區"
"239004","193-VK","2019/09/28 19:39:25","新北市鶯歌區二甲路37號","121.340578333333","24.9368066666667","6500800","鶯歌區"
"221008","489-VK","2019/09/28 19:39:28","新北市汐止區康寧街145號","121.621865","25.0666183333333","6501100","汐止區"
"221027","281-BY","2019/09/28 19:39:36","新北市汐止區忠孝東路9號","121.65827","25.0659266666667","6501100","汐止區"
"221021","299-VK","2019/09/28 19:39:28","新北市汐止區連興街140號","121.65403","25.0615433333333","6501100","汐止區"
"221031","353-TW","2019/09/28 19:39:21","新北市汐止區康寧街901號","121.650845","25.0752716666667","6501100","汐止區"
"221025","623-UM","2019/09/28 19:39:31","新北市汐止區新台五路二段90號","121.66257","25.0653683333333","6501100","汐止區"
"221038","646-BX","2019/09/28 19:39:30","新北市汐止區忠孝東路262號","121.663211666667","25.0677833333333","6501100","汐止區"
"221033","647-BX","2019/09/28 19:39:32","新北市汐止區南勢街3號","121.627073333333","25.037395","6501100","汐止區"
"220079","145-BY","2019/09/28 19:39:29","新北市板橋區民權路296號","121.457313333333","25.0160916666667","6500100","板橋區"
"220080","200-UY","2019/09/28 19:39:31","新北市板橋區大觀路二段37巷244號","121.449723333333","25.0017733333333","6500100","板橋區"
"220082","610-BX","2019/09/28 19:39:27","新北市板橋區篤行路一段48號","121.431896666667","24.99368","6500100","板橋區"
"220084","256-TC","2019/09/28 19:39:20","新北市板橋區滿平街84巷110弄27號","121.426006666667","24.98562","6500100","板橋區"
"220091","267-BY","2019/09/28 19:39:27","新北市板橋區懷德街139巷20弄6-2號","121.480145","25.0306583333333","6500100","板橋區"
"220056","276-BY","2019/09/28 19:39:36","新北市板橋區國慶路49巷21號","121.4596","24.99634","6500100","板橋區"
"220072","277-BY","2019/09/28 19:39:33","新北市板橋區金門街235巷3號","121.43261","24.9892716666667","6500100","板橋區"
"220101","280-UM","2019/09/28 19:39:24","新北市板橋區莊敬路262-1號","121.474183333333","25.021765","6500100","板橋區"
"220071","283-VK","2019/09/28 19:39:27","新北市板橋區四川路一段325巷3弄5號","121.459393333333","25.0005733333333","6500100","板橋區"
"220094","285-UM","2019/09/28 19:39:30","新北市板橋區長江路二段216-1號","121.467943333333","25.0323483333333","6500100","板橋區"
"220083","286-VK","2019/09/28 19:39:18","新北市板橋區龍興街71巷22號","121.442901666667","25.0023","6500100","板橋區"
"220081","287-VK","2019/09/28 19:39:40","新北市板橋區大觀路一段75巷8號","121.447475","25.0044316666667","6500100","板橋區"
"220090","288-VK","2019/09/28 19:39:25","新北市板橋區龍泉街54巷7弄2號","121.456823333333","25.0266533333333","6500100","板橋區"
"220061","293-UM","2019/09/28 19:39:34","新北市板橋區漢生東路113巷20號","121.46807","25.0154716666667","6500100","板橋區"
"220053","299-UM","2019/09/28 19:39:33","新北市板橋區民生路一段36-1號","121.474706666667","25.01439","6500100","板橋區"
"220075","303-R5","2019/09/28 19:39:32","新北市板橋區中正路253巷36號","121.454326666667","25.0178316666667","6500100","板橋區"
"220062","305-R5","2019/09/28 19:39:31","新北市板橋區三民路二段83號","121.479406666667","25.0166416666667","6500100","板橋區"
"220092","307-R5","2019/09/28 19:39:21","新北市板橋區四維路259巷70號","121.460303333333","25.02664","6500100","板橋區"
"220098","317-R6","2019/09/28 19:39:21","新北市板橋區四維路326巷10號","121.462735","25.0303716666667","6500100","板橋區"
"220089","487-VK","2019/09/28 19:39:32","新北市板橋區新海路403巷2號","121.458438333333","25.0267033333333","6500100","板橋區"
"220088","491-VK","2019/09/28 19:39:31","新北市板橋區仁化街66號","121.475956666667","25.0317983333333","6500100","板橋區"
"220035","560-BX","2019/09/28 19:39:33","新北市板橋區中正路399巷26號","121.453311666667","25.0226083333333","6500100","板橋區"
"220103","561-BX","2019/09/28 19:39:29","新北市板橋區文化路一段435巷31弄1號","121.466808333333","25.02297","6500100","板橋區"
"220063","609-BX","2019/09/28 19:39:31","新北市板橋區中山路二段407號","121.480661666667","25.01946","6500100","板橋區"
"220057","686-BX","2019/09/28 19:39:34","新北市板橋區信義路18號","121.457013333333","24.9954433333333","6500100","板橋區"
"220077","687-BX","2019/09/28 19:39:18","新北市板橋區僑中二街52號","121.446596666667","25.0101566666667","6500100","板橋區"
"220093","689-BX","2019/09/28 19:39:33","新北市板橋區長江路二段223號","121.468213333333","25.0325566666667","6500100","板橋區"
"220054","741-BX","2019/09/28 19:39:38","新北市板橋區光明街15號","121.46037","25.0026083333333","6500100","板橋區"
"220102","KEA-2699","2019/09/28 19:39:21","新北市板橋區文化路二段410巷23號","121.474783333333","25.0308016666667","6500100","板橋區"
"220055","827-TW","2019/09/28 19:39:26","新北市板橋區國慶路149巷1弄1號","121.461311666667","24.9964016666667","6500100","板橋區"
"220068","830-TW","2019/09/28 19:39:35","新北市板橋區中山路二段416巷2號","121.48289","25.0209866666667","6500100","板橋區"
"220067","831-TW","2019/09/28 19:39:32","新北市板橋區長安街251巷2號","121.472511666667","25.0103366666667","6500100","板橋區"
"220074","895-R6","2019/09/28 19:39:37","新北市板橋區府中路127號","121.456123333333","25.0095716666667","6500100","板橋區"
"220073","985-R7","2019/09/28 19:39:28","新北市板橋區國光路49巷15號","121.458856666667","25.0187866666667","6500100","板橋區"
"220097","AAC-210","2019/09/28 19:39:12","新北市板橋區文化路一段285巷2弄28號","121.464088333333","25.0196883333333","6500100","板橋區"
"220064","AAC-253","2019/09/28 19:39:35","新北市板橋區實踐路106號","121.464076666667","25.0047233333333","6500100","板橋區"
"235068","KEA-2873","2019/09/28 19:39:11","新北市中和區廟美街26號","121.500895","25.001805","6500300","中和區"
"235061","KEA-2875","2019/09/28 19:39:17","新北市中和區民樂路12號","121.482165","25.00122","6500300","中和區"
"235026","KEA-2876","2019/09/28 19:39:12","新北市中和區員山路36巷13號","121.484303333333","24.9907216666667","6500300","中和區"
