"lineid","car","time","location","longitude","latitude","cityid","cityname"
"234001","209-UY","2019/09/28 20:19:32","新北市永和區保生路55號","121.504605","25.0107783333333","6500400","永和區"
"234081","298-R6","2019/09/28 20:19:35","新北市永和區福和路7巷10弄7號","121.524893333333","25.0074983333333","6500400","永和區"
"234038","336-UY","2019/09/28 20:19:26","新北市永和區成功路一段93巷20弄5號","121.528371666667","25.0026233333333","6500400","永和區"
"234064","337-UY","2019/09/28 20:19:33","新北市永和區得和路124號","121.51873","25.00019","6500400","永和區"
"234086","338-UY","2019/09/28 20:19:30","新北市永和區中正路653號","121.515046666667","25.01015","6500400","永和區"
"234070","552-UM","2019/09/28 20:19:33","新北市永和區福和路261號","121.517831666667","25.0073","6500400","永和區"
"234017","745-BX","2019/09/28 20:19:32","新北市永和區仁愛路38號","121.514256666667","25.0134633333333","6500400","永和區"
"234054","KEA-2590","2019/09/28 20:19:33","新北市永和區光復街2巷26弄1號","121.517626666667","25.0166066666667","6500400","永和區"
"234013","KEA-2591","2019/09/28 20:19:34","新北市永和區保生路5巷5號","121.505931666667","25.00713","6500400","永和區"
"234061","AAD-866","2019/09/28 20:19:20","新北市中和區安平路222號","121.514075","25.0000083333333","6500400","永和區"
"234042","862-TW","2019/09/28 20:19:35","新北市中和區中安街168號","121.51089","24.9998633333333","6500400","永和區"
"234050","863-TW","2019/09/28 20:19:21","新北市永和區保安路13號","121.510468333333","25.0169216666667","6500400","永和區"
"249005","172-UM","2019/09/28 20:19:30","新北市八里區下罟子2-1號","121.388488333333","25.1417183333333","6502300","八里區"
"249001","173-UM","2019/09/28 20:19:24","新北市八里區中華路二段538號","121.399093333333","25.1450383333333","6502300","八里區"
"249004","303-UY","2019/09/28 20:19:23","新北市八里區中山路一段326號","121.41282","25.159115","6502300","八里區"
"249002","305-UY","2019/09/28 20:19:28","新北市八里區龍米路一段338號","121.4515","25.1305733333333","6502300","八里區"
"249003","593-UM","2019/09/28 20:19:38","新北市八里區華峰一街68號","121.398005","25.14595","6502300","八里區"
"248016","026-BX","2019/09/28 20:19:19","新北市五股區凌雲路一段158巷39弄16號","121.44644","25.104155","6501500","五股區"
"248012","247-BX","2019/09/28 20:19:22","新北市五股區工商路8號","121.439765","25.082835","6501500","五股區"
"248002","678-BX","2019/09/28 20:19:37","新北市五股區成泰路三段157號","121.445036666667","25.09169","6501500","五股區"
"248010","682-TV","2019/09/28 20:19:37","新北市泰山區楓江路111號","121.438213333333","25.0650016666667","6501500","五股區"
"234023","9380-KE","2019/09/28 20:19:23","新北市永和區復興街19巷17號","121.516166666667","25.0134333333333","6500400","永和區"
"234074","AAC-211","2019/09/28 20:19:32","新北市永和區豫溪街160巷1號","121.523311666667","25.0095566666667","6500400","永和區"
"234067","AAC-212","2019/09/28 20:19:24","新北市永和區保平路199號","121.508945","25.0051","6500400","永和區"
"234003","AAC-295","2019/09/28 20:19:37","新北市永和區大新街14號","121.514996666667","25.0084733333333","6500400","永和區"
"243012","AAD-798","2019/09/28 20:19:23","新北市泰山區楓江路135-2號","121.439601666667","25.0649133333333","6501600","泰山區"
"243010","297-R6","2019/09/28 20:19:20","新北市泰山區明志路二段254巷14號","121.426153333333","25.0480066666667","6501600","泰山區"
"243014","KEA-2801","2019/09/28 20:19:34","新北市泰山區泰林路二段280巷2號","121.431588333333","25.062365","6501600","泰山區"
"243016","421-VK","2019/09/28 20:19:34","新北市泰山區明志路二段373號","121.425138333333","25.043925","6501600","泰山區"
"243009","KEA-2215","2019/09/28 20:19:32","新北市泰山區福泰街14號","121.43289","25.06018","6501600","泰山區"
"243011","KEA-2216","2019/09/28 20:19:24","新北市泰山區貴陽街16巷5弄10號","121.422635","25.0319516666667","6501600","泰山區"
"243013","646-TV","2019/09/28 20:19:23","新北市泰山區民國街27號","121.425861666667","25.0436416666667","6501600","泰山區"
"243015","680-BX","2019/09/28 20:19:21","新北市泰山區明志路一段290號","121.431751666667","25.059895","6501600","泰山區"
"222003","436-BY","2019/09/28 20:19:24","新北市深坑區文化街43號","121.617611666667","25.0017866666667","6501800","深坑區"
"222002","659-BX","2019/09/28 20:19:39","新北市深坑區萬福路75巷48號","121.598248333333","25.0099483333333","6501800","深坑區"
"231061","002-UM","2019/09/28 20:19:29","新北市新店區安興路32號","121.515786666667","24.9703733333333","6500600","新店區"
"231055","0291-UT","2019/09/28 20:19:29","新北市新店區中華路48巷35號","121.541366666667","24.9695","6500600","新店區"
"231044","046-UY","2019/09/28 20:19:34","新北市新店區北新路三段89號","121.541451666667","24.9817133333333","6500600","新店區"
"231060","106-UY","2019/09/28 20:19:24","新北市新店區安康路三段578-1號","121.48106","24.9486816666667","6500600","新店區"
"231051","107-UY","2019/09/28 20:19:24","新北市新店區中央六街95號","121.526105","24.9769566666667","6500600","新店區"
"231049","108-UY","2019/09/28 20:19:35","新北市新店區北新路一段321號","121.541721666667","24.9681983333333","6500600","新店區"
"231065","110-UY","2019/09/28 20:19:23","新北市新店區安祥路102巷32號","121.484138333333","24.9638966666667","6500600","新店區"
"231068","187-VK","2019/09/28 20:19:32","新北市新店區寶安街30號","121.542031666667","24.98234","6500600","新店區"
"231062","256-BX","2019/09/28 20:19:35","新北市新店區安泰路7巷16號","121.48568","24.9509516666667","6500600","新店區"
"231054","260-TV","2019/09/28 20:19:25","新北市新店區檳榔路109號","121.544393333333","24.9616133333333","6500600","新店區"
"231042","268-BY","2019/09/28 20:19:22","新北市新店區中興路二段228號","121.547896666667","24.9751916666667","6500600","新店區"
"231064","278-BY","2019/09/28 20:19:27","新北市新店區安業街67巷22號","121.519051666667","24.976125","6500600","新店區"
"231050","AAD-862","2019/09/28 20:19:36","新北市新店區博愛街8巷2號","121.541191666667","24.9733983333333","6500600","新店區"
"231045","355-BY","2019/09/28 20:19:27","新北市新店區中興路一段112號","121.540868333333","24.961555","6500600","新店區"
"231058","3713-VJ","2019/09/28 20:19:37","新北市新店區薏仁坑路自強巷6號","121.496475","24.9584483333333","6500600","新店區"
"231056","4715-K9","2019/09/28 20:19:27","新北市新店區中正路309號","121.536646666667","24.97498","6500600","新店區"
"231067","4772-VM","2019/09/28 20:19:40","新北市新店區安康路一段83-2號","121.529573333333","24.9613666666667","6500600","新店區"
"231052","515-UM","2019/09/28 20:19:28","新北市新店區松林路6-6號","121.546745","24.9110666666667","6500600","新店區"
"231063","641-BX","2019/09/28 20:19:35","新北市新店區車子路1-1號","121.504783333333","24.9577733333333","6500600","新店區"
"231048","KED-0819","2019/09/28 20:19:21","新北市新店區永華街33巷34號","121.544586666667","24.97691","6500600","新店區"
"231057","720-UM","2019/09/28 20:19:37","新北市新店區花園十路二段7-6號","121.554235","24.93451","6500600","新店區"
"231059","897-TW","2019/09/28 20:19:31","新北市新店區安德街60巷25號","121.510956666667","24.9631116666667","6500600","新店區"
"231040","898-TW","2019/09/28 20:19:21","新北市新店區中正路106號","121.543083333333","24.9705816666667","6500600","新店區"
"231043","899-TW","2019/09/28 20:19:22","新北市新店區建國路131號","121.539468333333","24.9782366666667","6500600","新店區"
"231066","AKT-0513","2019/09/28 20:19:34","新北市新店區安德街60巷35號","121.510545","24.963495","6500600","新店區"
"241011","013-R5","2019/09/28 20:19:31","新北市三重區龍門路162號","121.498786666667","25.073135","6500200","三重區"
"241028","022-UY","2019/09/28 20:19:27","新北市三重區光興街131號","121.496558333333","25.0598433333333","6500200","三重區"
"241008","059-VK","2019/09/28 20:19:34","新北市三重區永福街227號","121.480416666667","25.0744433333333","6500200","三重區"
"241026","060-VK","2019/09/28 20:19:26","新北市三重區環河南路3號","121.504005","25.0636483333333","6500200","三重區"
"241015","062-VK","2019/09/28 20:19:27","新北市三重區文化北路6號","121.499643333333","25.063475","6500200","三重區"
"241017","063-VK","2019/09/28 20:19:23","新北市三重區大智街100號","121.493126666667","25.066415","6500200","三重區"
"241007","066-VK","2019/09/28 20:19:38","新北市三重區溪尾街108巷52號","121.487406666667","25.0781483333333","6500200","三重區"
"241002","090-VK","2019/09/28 20:19:34","新北市三重區仁義街143巷2號","121.49741","25.0804966666667","6500200","三重區"
"241003","091-VK","2019/09/28 20:19:22","新北市三重區富華街43號","121.490796666667","25.0832433333333","6500200","三重區"
"241006","262-UM","2019/09/28 20:19:23","新北市三重區車路頭街135-1號","121.484226666667","25.07617","6500200","三重區"
"241016","266-UM","2019/09/28 20:19:25","新北市三重區大同北路56-1號","121.494265","25.063725","6500200","三重區"
"241009","267-UM","2019/09/28 20:19:25","新北市三重區三和路四段376號","121.482556666667","25.0788466666667","6500200","三重區"
"241018","268-UM","2019/09/28 20:19:29","新北市三重區雙園街101號","121.493758333333","25.0673183333333","6500200","三重區"
"241032","269-UM","2019/09/28 20:19:28","新北市三重區捷運路19巷6弄18號","121.484421666667","25.056795","6500200","三重區"
"241013","270-UM","2019/09/28 20:19:23","新北市三重區三和路三段167巷21號","121.492755","25.0743266666667","6500200","三重區"
"241025","271-UM","2019/09/28 20:19:33","新北市三重區頂崁街210巷26號","121.47603","25.0679566666667","6500200","三重區"
"241035","KEA-2210","2019/09/28 20:19:21","新北市三重區正義北路33巷52號","121.499076666667","25.0639433333333","6500200","三重區"
"241030","KED-0822","2019/09/28 20:19:30","新北市三重區集美街89巷38號","121.488133333333","25.0522733333333","6500200","三重區"
"241004","475-VK","2019/09/28 20:19:30","新北市三重區仁政街193號","121.490941666667","25.0799133333333","6500200","三重區"
"241020","478-VK","2019/09/28 20:19:28","新北市三重區三和路三段170巷14號","121.492233333333","25.072865","6500200","三重區"
"241014","543-UM","2019/09/28 20:19:28","新北市三重區長榮路123號","121.503726666667","25.0693866666667","6500200","三重區"
"241023","545-UM","2019/09/28 20:19:33","新北市三重區忠孝路三段84巷1號","121.48034","25.0647316666667","6500200","三重區"
"241001","547-UM","2019/09/28 20:19:27","新北市三重區自強路四段33號","121.488945","25.0766033333333","6500200","三重區"
"241019","KEA-2593","2019/09/28 20:19:27","新北市三重區忠孝路一段30巷58號","121.490526666667","25.0711716666667","6500200","三重區"
"241005","AAD-863","2019/09/28 20:19:31","新北市三重區碧華街345號","121.491903333333","25.0848916666667","6500200","三重區"
"241031","743-BX","2019/09/28 20:19:24","新北市三重區三寧街15號","121.489463333333","25.0598066666667","6500200","三重區"
"241022","KED-0820","2019/09/28 20:19:27","新北市三重區新北大道一段36號","121.488171666667","25.0614083333333","6500200","三重區"
"241012","887-TS","2019/09/28 20:17:38","新北市三重區河邊北街385號","121.501606666667","25.07676","6500200","三重區"
"241029","942-UM","2019/09/28 20:19:20","新北市三重區重安街98號","121.492596666667","25.056045","6500200","三重區"
"235066","003-UY","2019/09/28 20:19:37","新北市中和區南工路94巷1號","121.507181666667","25.0030083333333","6500300","中和區"
"235039","097-UM","2019/09/28 20:19:21","新北市中和區大勇街27巷10號","121.51701","24.9938233333333","6500300","中和區"
"235065","098-UM","2019/09/28 20:19:22","新北市中和區永和路128巷26號","121.497465","25.0069266666667","6500300","中和區"
"235055","183-VK","2019/09/28 20:19:32","新北市五股區凌雲路三段24巷19號","121.435056666667","25.1072583333333","6500300","中和區"
"247016","KEA-2869","2019/09/28 20:19:25","新北市蘆洲區中正路185巷47號","121.465688333333","25.0838733333333","6501400","蘆洲區"
"247010","KED-0682","2019/09/28 20:19:27","新北市蘆洲區信義路269號","121.478935","25.0850183333333","6501400","蘆洲區"
"235050","4979-A6","2019/09/28 20:19:19","新北市中和區景新街274巷18號","121.510233333333","24.9920466666667","6500300","中和區"
"235069","4980-A6","2019/09/28 20:19:36","新北市中和區圓通路196號","121.496316666667","24.9946083333333","6500300","中和區"
"235059","AAC-215","2019/09/28 20:19:38","新北市中和區圓通路367巷7號","121.492311666667","24.9881183333333","6500300","中和區"
"247006","893-R6","2019/09/28 20:19:19","新北市蘆洲區九芎街136號","121.46508","25.0789566666667","6501400","蘆洲區"
"247022","341-TH","2019/09/28 20:19:24","新北市蘆洲區三民路263號","121.468148333333","25.089315","6501400","蘆洲區"
"247004","336-TH","2019/09/28 20:19:26","新北市蘆洲區永康街53號","121.456761666667","25.0851633333333","6501400","蘆洲區"
"247024","057-VK","2019/09/28 20:19:26","新北市蘆洲區光榮路120巷8弄39號","121.464593333333","25.087945","6501400","蘆洲區"
"247014","056-VK","2019/09/28 20:19:30","新北市蘆洲區成功路58號","121.472533333333","25.0803566666667","6501400","蘆洲區"
"247018","053-VK","2019/09/28 20:19:28","新北市蘆洲區民族路255巷12號","121.476185","25.0897083333333","6501400","蘆洲區"
"247008","002-UY","2019/09/28 20:19:20","新北市蘆洲區集賢路320號","121.481503333333","25.0849083333333","6501400","蘆洲區"
"247002","001-UY","2019/09/28 20:19:19","新北市蘆洲區長安街331巷30號","121.456106666667","25.08665","6501400","蘆洲區"
"224002","639-TC","2019/09/28 20:19:21","新北市瑞芳區中正路2號","121.809211666667","25.1069583333333","6501200","瑞芳區"
"222001","KEA-2212","2019/09/28 20:19:18","新北市深坑區北深路三段255號","121.599145","25.004205","6501800","深坑區"
"251009","008-UM","2019/09/28 20:19:22","新北市淡水區中山路46-1號","121.444178333333","25.1701866666667","6501000","淡水區"
"251015","KEA-2871","2019/09/28 20:19:31","新北市淡水區埤島77-3號","121.451185","25.1922","6501000","淡水區"
"251016","179-VK","2019/09/28 20:19:23","新北市淡水區番子田19號","121.457588333333","25.22914","6501000","淡水區"
"251013","180-VK","2019/09/28 20:19:26","新北市淡水區相公山1-3號","121.47416","25.2066683333333","6501000","淡水區"
"251008","181-VK","2019/09/28 20:19:27","新北市淡水區淡海路150巷21號","121.422021666667","25.1844883333333","6501000","淡水區"
"251010","413-VK","2019/09/28 20:19:26","新北市淡水區新民街一段134號","121.427508333333","25.1888816666667","6501000","淡水區"
"251012","441-VK","2019/09/28 20:19:23","新北市淡水區淡金路三段374號","121.449801666667","25.21","6501000","淡水區"
"251001","559-UM","2019/09/28 20:19:37","新北市淡水區淡金路二段15號","121.446331666667","25.1892083333333","6501000","淡水區"
"251006","561-UM","2019/09/28 20:19:31","新北市淡水區北新路141巷80弄26號","121.448168333333","25.18024","6501000","淡水區"
"251014","577-R6","2019/09/28 20:19:21","新北市淡水區石頭厝2-1號","121.458125","25.2356783333333","6501000","淡水區"
"251011","650-BX","2019/09/28 20:19:18","新北市淡水區下圭柔山90-8號","121.431193333333","25.2103","6501000","淡水區"
"251002","672-BX","2019/09/28 20:19:29","新北市淡水區中正路232號","121.439041666667","25.17082","6501000","淡水區"
"251003","766-UM","2019/09/28 20:19:30","新北市淡水區中山北路一段192號","121.444468333333","25.1792866666667","6501000","淡水區"
"207003","550-UM","2019/09/28 20:19:34","新北市萬里區大鵬里頂社2-1號","121.658385","25.2085583333333","6502800","萬里區"
"207004","291-VK","2019/09/28 20:19:27","新北市萬里區北基里仁六街2-1號","121.68157","25.175065","6502800","萬里區"
"252002","178-VK","2019/09/28 20:19:24","新北市三芝區中正路一段49號","121.50335","25.2581266666667","6502100","三芝區"
"237006","5529-G3","2019/09/28 20:19:24","新北市三峽區中正路二段87-1號","121.366538333333","24.9178366666667","6500900","三峽區"
"236079","166-UM","2019/09/28 20:19:33","新北市土城區德安街4巷1號","121.422155","24.9648783333333","6501300","土城區"
"236030","253-BX","2019/09/28 20:19:30","新北市土城區中央路一段45巷2弄3號","121.448461666667","24.9902133333333","6501300","土城區"
"236026","269-VK","2019/09/28 20:19:26","新北市土城區裕生路100巷5號","121.446311666667","24.985025","6501300","土城區"
"236014","270-VK","2019/09/28 20:19:23","新北市土城區廣明街90巷18號","121.455441666667","24.9945116666667","6501300","土城區"
"247012","KED-0683","2019/09/28 20:19:19","新北市蘆洲區中興街46號","121.48147","25.0871916666667","6501400","蘆洲區"
"236070","KEA-2877","2019/09/28 20:19:33","新北市土城區中山路99號","121.432976666667","24.970975","6501300","土城區"
"252001","KED-0821","2019/09/28 20:19:22","新北市三芝區中山路一段31號","121.500626666667","25.25808","6502100","三芝區"
"236059","912-UM","2019/09/28 20:19:25","新北市土城區中央路三段134-1號","121.433588333333","24.9656183333333","6501300","土城區"
"242042","AAC-296","2019/09/28 20:19:29","新北市新莊區壽山路61-1號","121.410163333333","25.0326433333333","6500500","新莊區"
"242061","986-R7","2019/09/28 20:19:39","新北市新莊區瓊林路182-5號","121.439896666667","25.0214766666667","6500500","新莊區"
"242029","615-BX","2019/09/28 20:19:34","新北市新莊區中原路255號","121.448863333333","25.054355","6500500","新莊區"
"242027","613-BX","2019/09/28 20:19:36","新北市新莊區立信五街1號","121.444515","25.0514733333333","6500500","新莊區"
"242058","612-BX","2019/09/28 20:19:32","新北市新莊區龍安路278巷22號","121.42172","25.0184966666667","6500500","新莊區"
"242048","566-BX","2019/09/28 20:19:31","新北市新莊區四維路186巷2號","121.421873333333","25.0211916666667","6500500","新莊區"
"242053","497-BY","2019/09/28 20:19:37","新北市新莊區西盛街388巷3號","121.427491666667","25.01292","6500500","新莊區"
"242004","442-UM","2019/09/28 20:19:34","新北市新莊區頭前路2巷5號","121.468413333333","25.052965","6500500","新莊區"
"242002","441-UM","2019/09/28 20:19:27","新北市新莊區化成路7號","121.464841666667","25.0429033333333","6500500","新莊區"
"242007","440-UM","2019/09/28 20:19:27","新北市新莊區福壽街124巷41弄6號","121.459308333333","25.051495","6500500","新莊區"
"242044","415-TV","2019/09/28 20:19:31","新北市新莊區中正路895號","121.412411666667","25.0220733333333","6500500","新莊區"
"242013","413-TV","2019/09/28 20:19:25","新北市新莊區幸福路710巷5弄1號","121.44914","25.049755","6500500","新莊區"
"242051","400-BY","2019/09/28 20:19:33","新北市新莊區民安西路232號","121.42598","25.0143033333333","6500500","新莊區"
"242025","362-BY","2019/09/28 20:19:29","新北市新莊區五工三路70巷12-1號","121.459673333333","25.0651966666667","6500500","新莊區"
"242023","353-BY","2019/09/28 20:19:36","新北市新莊區化成路766號","121.465241666667","25.0588233333333","6500500","新莊區"
"242015","132-UY","2019/09/28 20:19:36","新北市新莊區泰順街33巷2號","121.446151666667","25.0425583333333","6500500","新莊區"
"242039","135-UY","2019/09/28 20:19:26","新北市新莊區八德街133巷9號","121.42471","25.02002","6500500","新莊區"
"242056","172-VK","2019/09/28 20:19:28","新北市新莊區新莊路649巷40號","121.4449","25.0317366666667","6500500","新莊區"
"242017","173-VK","2019/09/28 20:19:33","新北市新莊區中港一街47號","121.450568333333","25.0454783333333","6500500","新莊區"
"242031","175-VK","2019/09/28 20:19:28","新北市新莊區義豐街27號","121.44113","25.0351366666667","6500500","新莊區"
"242021","KED-0687","2019/09/28 20:19:22","新北市新莊區和興街37-4號","121.44704","25.0397766666667","6500500","新莊區"
"242036","348-TH","2019/09/28 20:19:19","新北市新莊區建安街76巷1弄4號","121.426305","25.024625","6500500","新莊區"
"242009","349-TH","2019/09/28 20:19:19","新北市新莊區昌平街1號","121.454841666667","25.0512833333333","6500500","新莊區"
"242034","350-TH","2019/09/28 20:19:39","新北市新莊區建中街116巷3弄2號","121.445506666667","25.037125","6500500","新莊區"
"242019","351-TH","2019/09/28 20:19:17","新北市新莊區博愛路8巷2號","121.456131666667","25.0438716666667","6500500","新莊區"
"221008","489-VK","2019/09/28 20:19:28","台北市內湖區康樂街201巷43號","121.622496666667","25.076595","6501100","汐止區"
"221036","130-UY","2019/09/28 20:19:28","新北市汐止區福安街59巷3號","121.6642","25.063735","6501100","汐止區"
"221015","131-UY","2019/09/28 20:19:35","新北市汐止區建成路160巷23號","121.661748333333","25.073945","6501100","汐止區"
"221010","269-BY","2019/09/28 20:19:20","新北市汐止區八連路一段197巷25號","121.641531666667","25.079335","6501100","汐止區"
"221012","278-VK","2019/09/28 20:19:22","新北市汐止區汐平路一段45-1號","121.681923333333","25.0706283333333","6501100","汐止區"
"221023","279-VK","2019/09/28 20:19:18","新北市汐止區明峰街298巷10弄1號","121.625018333333","25.0689033333333","6501100","汐止區"
"221032","280-BY","2019/09/28 20:19:17","新北市汐止區弘道街45號","121.6181","25.0485533333333","6501100","汐止區"
"221029","298-VK","2019/09/28 20:19:36","新北市汐止區樟樹一路99巷7弄1號","121.641298333333","25.0636066666667","6501100","汐止區"
"221021","299-VK","2019/09/28 20:19:28","新北市汐止區水源路一段291巷1號","121.654356666667","25.058425","6501100","汐止區"
"221031","353-TW","2019/09/28 20:19:26","新北市汐止區福德二路104號","121.632248333333","25.0660283333333","6501100","汐止區"
"221035","622-UM","2019/09/28 20:19:22","新北市汐止區長江街57巷16號","121.656083333333","25.0720866666667","6501100","汐止區"
"221025","623-UM","2019/09/28 20:19:31","新北市汐止區水源路二段34號","121.654955","25.0572733333333","6501100","汐止區"
"221038","646-BX","2019/09/28 20:19:30","新北市汐止區忠孝東路414號","121.665961666667","25.0714066666667","6501100","汐止區"
"221033","647-BX","2019/09/28 20:19:32","新北市汐止區東勢街215巷6號","121.634601666667","25.0431066666667","6501100","汐止區"
"221002","707-TV","2019/09/28 20:19:21","新北市汐止區福德一路86巷10號","121.637773333333","25.0688433333333","6501100","汐止區"
"221018","753-BX","2019/09/28 20:19:18","新北市汐止區茄安路31號","121.67327","25.0680366666667","6501100","汐止區"
"220084","256-TC","2019/09/28 20:19:20","新北市板橋區篤行路三段玉平巷76弄14號","121.427475","24.9859716666667","6500100","板橋區"
"220083","286-VK","2019/09/28 20:19:38","新北市板橋區僑中二街92巷28號","121.444916666667","25.0091966666667","6500100","板橋區"
"220081","287-VK","2019/09/28 20:19:29","新北市板橋區僑中一街102巷7弄5號","121.446583333333","25.0128966666667","6500100","板橋區"
"242046","281-VK","2019/09/28 20:19:31","新北市新莊區中正路新生巷62號","121.417383333333","25.022825","6500500","新莊區"
"242011","280-VK","2019/09/28 20:19:35","新北市新莊區中信街39號","121.450283333333","25.0507733333333","6500500","新莊區"
"220054","741-BX","2019/09/28 20:19:18","新北市板橋區成都街69號","121.462358333333","25.0050783333333","6500100","板橋區"
"220055","827-TW","2019/09/28 20:19:26","新北市板橋區仁愛路84號","121.460936666667","24.9996233333333","6500100","板橋區"
"220074","895-R6","2019/09/28 20:19:32","新北市板橋區南雅南路一段7巷22弄1號","121.456006666667","25.0048366666667","6500100","板橋區"
"220097","AAC-210","2019/09/28 20:19:32","新北市板橋區民權路202巷22號","121.461026666667","25.0167366666667","6500100","板橋區"
"235068","KEA-2873","2019/09/28 20:19:11","新北市中和區勝利路35巷1弄36號","121.500441666667","25.00795","6500300","中和區"
