"lineid","car","time","location","longitude","latitude","cityid","cityname"
"234001","209-UY","2019/09/28 20:29:32","新北市永和區保生路55號","121.504635","25.010775","6500400","永和區"
"234081","298-R6","2019/09/28 20:29:35","新北市永和區福和路59號","121.522956666667","25.0078583333333","6500400","永和區"
"234038","336-UY","2019/09/28 20:29:07","新北市永和區民樂街31巷17弄6號","121.52851","25.0019066666667","6500400","永和區"
"234064","337-UY","2019/09/28 20:29:33","新北市永和區中正路417-1號","121.517161666667","25.0049816666667","6500400","永和區"
"234086","338-UY","2019/09/28 20:29:30","新北市永和區永和路二段239-2號","121.515748333333","25.014625","6500400","永和區"
"234070","552-UM","2019/09/28 20:29:33","新北市永和區永利路92號","121.520878333333","25.0038483333333","6500400","永和區"
"234054","KEA-2590","2019/09/28 20:29:36","新北市永和區環河東路一段76號","121.51939","25.0166616666667","6500400","永和區"
"234013","KEA-2591","2019/09/28 20:29:23","新北市永和區仁愛路296號","121.50372","25.008175","6500400","永和區"
"234061","AAD-866","2019/09/28 20:29:20","新北市永和區安樂路194巷19號","121.515853333333","25.001045","6500400","永和區"
"234042","862-TW","2019/09/28 20:29:34","新北市永和區安樂路284號","121.514421666667","25.0044233333333","6500400","永和區"
"234050","863-TW","2019/09/28 20:29:21","新北市永和區新生路138巷1弄1號","121.50663","25.0143516666667","6500400","永和區"
"249005","172-UM","2019/09/28 20:29:30","新北市八里區中山路三段309號","121.37982","25.138195","6502300","八里區"
"249001","173-UM","2019/09/28 20:29:24","新北市八里區中山路三段106號","121.391021666667","25.1422283333333","6502300","八里區"
"249004","303-UY","2019/09/28 20:29:23","新北市八里區中山路一段129巷33號","121.414211666667","25.158525","6502300","八里區"
"249002","305-UY","2019/09/28 20:29:28","新北市八里區龍米路二段58-2號","121.448286666667","25.1410683333333","6502300","八里區"
"249003","593-UM","2019/09/28 20:29:38","新北市八里區舊城路21號","121.399816666667","25.1470633333333","6502300","八里區"
"248002","678-BX","2019/09/28 20:29:32","新北市五股區新五路二段335號","121.443776666667","25.0873416666667","6501500","五股區"
"234023","9380-KE","2019/09/28 20:29:23","新北市永和區博愛街32巷18號","121.51869","25.015205","6500400","永和區"
"234074","AAC-211","2019/09/28 20:29:35","新北市永和區豫溪街191巷7弄25號","121.523205","25.010985","6500400","永和區"
"234067","AAC-212","2019/09/28 20:29:24","新北市永和區保平路292巷13弄2號","121.507273333333","25.0053283333333","6500400","永和區"
"234003","AAC-295","2019/09/28 20:29:37","新北市永和區中正路614-2號","121.517073333333","25.0076483333333","6500400","永和區"
"243012","AAD-798","2019/09/28 20:29:23","新北市泰山區楓江路48號","121.435226666667","25.0624933333333","6501600","泰山區"
"243010","297-R6","2019/09/28 20:29:20","新北市泰山區新生路31巷7號","121.427645","25.0458466666667","6501600","泰山區"
"243014","KEA-2801","2019/09/28 20:29:34","新北市泰山區泰林路二段455號","121.425691666667","25.0640533333333","6501600","泰山區"
"243016","421-VK","2019/09/28 20:29:20","新北市泰山區明志路二段229號","121.427401666667","25.0485416666667","6501600","泰山區"
"243009","KEA-2215","2019/09/28 20:29:32","新北市泰山區忠孝街42巷2號","121.4287","25.0654566666667","6501600","泰山區"
"243011","KEA-2216","2019/09/28 20:29:24","新北市泰山區明志路三段42巷18號","121.424141666667","25.0423516666667","6501600","泰山區"
"243013","646-TV","2019/09/28 20:29:39","新北市泰山區中央路14巷1號","121.42655","25.0436683333333","6501600","泰山區"
"243015","680-BX","2019/09/28 20:29:01","新北市泰山區仁愛路41號","121.432213333333","25.0554","6501600","泰山區"
"222003","436-BY","2019/09/28 20:29:24","新北市深坑區深坑街77號","121.614833333333","25.0016266666667","6501800","深坑區"
"222002","659-BX","2019/09/28 20:26:29","新北市深坑區萬福路16巷49號","121.610426666667","25.0086566666667","6501800","深坑區"
"231061","002-UM","2019/09/28 20:29:29","新北市新店區安興路32號","121.515773333333","24.9703366666667","6500600","新店區"
"231055","0291-UT","2019/09/28 20:29:28","新北市新店區安康路一段266巷4號","121.520125","24.963975","6500600","新店區"
"231044","046-UY","2019/09/28 20:29:34","新北市新店區建國路217-1號","121.537656666667","24.98071","6500600","新店區"
"231060","106-UY","2019/09/28 20:29:24","新北市新店區錦秀路11巷38號","121.480856666667","24.9438316666667","6500600","新店區"
"231051","107-UY","2019/09/28 20:29:24","新北市新店區中央七街21號","121.529793333333","24.975185","6500600","新店區"
"231049","108-UY","2019/09/28 20:29:35","新北市新店區永業路81巷3弄2號","121.530038333333","24.9490716666667","6500600","新店區"
"231065","110-UY","2019/09/28 20:29:36","新北市新店區安祥路102巷46弄35號","121.485773333333","24.963645","6500600","新店區"
"231068","187-VK","2019/09/28 20:29:32","新北市新店區民權路9號","121.542523333333","24.9828816666667","6500600","新店區"
"231062","256-BX","2019/09/28 20:29:35","新北市新店區安泰路60巷37號","121.483715","24.946185","6500600","新店區"
"231054","260-TV","2019/09/28 20:29:25","新北市新店區檳榔路109號","121.544395","24.9615566666667","6500600","新店區"
"231042","268-BY","2019/09/28 20:29:22","新北市新店區寶橋路230號","121.551481666667","24.97878","6500600","新店區"
"231064","278-BY","2019/09/28 20:29:28","新北市新店區永安街56巷6-2號","121.518635","24.9861716666667","6500600","新店區"
"231050","AAD-862","2019/09/28 20:29:35","新北市新店區建興街9巷11號","121.539841666667","24.9762566666667","6500600","新店區"
"231045","355-BY","2019/09/28 20:29:27","新北市新店區新坡一街38號","121.549286666667","24.9624366666667","6500600","新店區"
"231058","3713-VJ","2019/09/28 20:29:18","新北市新店區安和路三段2-1號","121.518121666667","24.9800766666667","6500600","新店區"
"231056","4715-K9","2019/09/28 20:29:27","新北市新店區中央六街22號","121.529571666667","24.9748333333333","6500600","新店區"
"231052","515-UM","2019/09/28 20:29:28","新北市新店區松林路38號","121.546245","24.910255","6500600","新店區"
"231063","641-BX","2019/09/28 20:29:35","新北市新店區玫瑰路4-1號","121.493546666667","24.95139","6500600","新店區"
"231048","KED-0819","2019/09/28 20:29:21","新北市新店區寶元路一段15巷11號","121.542005","24.9871983333333","6500600","新店區"
"231057","720-UM","2019/09/28 20:29:35","新北市新店區花園十路二段3號","121.55505","24.9339766666667","6500600","新店區"
"231059","897-TW","2019/09/28 20:29:31","新北市新店區安德街134號","121.508595","24.9602366666667","6500600","新店區"
"231040","898-TW","2019/09/28 20:29:27","新北市新店區三民路121號","121.534856666667","24.9723316666667","6500600","新店區"
"231043","899-TW","2019/09/28 20:29:22","新北市新店區建國路99巷1號","121.540403333333","24.9771316666667","6500600","新店區"
"231066","AKT-0513","2019/09/28 20:29:37","新北市新店區安興路81號","121.515491666667","24.9753233333333","6500600","新店區"
"241011","013-R5","2019/09/28 20:29:31","新北市三重區龍門路72號","121.496878333333","25.0726416666667","6500200","三重區"
"241028","022-UY","2019/09/28 20:29:27","新北市三重區光興街89號","121.497441666667","25.05994","6500200","三重區"
"241008","059-VK","2019/09/28 20:29:34","新北市三重區下竹圍街91號","121.481091666667","25.0748883333333","6500200","三重區"
"241026","060-VK","2019/09/28 20:29:26","新北市三重區福德南路56號","121.503298333333","25.0620016666667","6500200","三重區"
"241015","062-VK","2019/09/28 20:29:27","新北市三重區長元街2-2號","121.498741666667","25.06585","6500200","三重區"
"241017","063-VK","2019/09/28 20:29:23","新北市三重區自強路一段193-1號","121.491781666667","25.0681516666667","6500200","三重區"
"241007","066-VK","2019/09/28 20:29:18","新北市三重區溪尾街106號","121.489538333333","25.078855","6500200","三重區"
"241002","090-VK","2019/09/28 20:29:34","新北市三重區仁義街211巷33號","121.49783","25.0824216666667","6500200","三重區"
"241003","091-VK","2019/09/28 20:29:22","新北市三重區富華街159號","121.49324","25.0849533333333","6500200","三重區"
"241006","262-UM","2019/09/28 20:29:23","新北市三重區車路頭街139巷12號","121.48424","25.0762133333333","6500200","三重區"
"241016","266-UM","2019/09/28 20:29:25","新北市三重區正義北路192號","121.496243333333","25.0668683333333","6500200","三重區"
"241009","267-UM","2019/09/28 20:29:25","新北市三重區三和路四段382巷96弄6號","121.478885","25.078025","6500200","三重區"
"241018","268-UM","2019/09/28 20:29:29","新北市三重區正義北路216巷7號","121.495856666667","25.0674983333333","6500200","三重區"
"241032","269-UM","2019/09/28 20:29:28","新北市三重區重陽路一段120巷48號","121.485058333333","25.0601533333333","6500200","三重區"
"241013","270-UM","2019/09/28 20:29:23","新北市三重區溪尾街5巷9號","121.492158333333","25.0744333333333","6500200","三重區"
"241025","271-UM","2019/09/28 20:29:23","新北市三重區頂崁街210巷27號","121.475813333333","25.0681683333333","6500200","三重區"
"241035","KEA-2210","2019/09/28 20:29:21","新北市三重區正義北路104號","121.49702","25.0650683333333","6500200","三重區"
"241030","KED-0822","2019/09/28 20:29:29","新北市三重區成功路60號","121.488696666667","25.050975","6500200","三重區"
"241004","475-VK","2019/09/28 20:29:30","新北市三重區溪尾街203號","121.488545","25.080715","6500200","三重區"
"241020","478-VK","2019/09/28 20:29:28","新北市三重區明德街50號","121.49206","25.071805","6500200","三重區"
"241014","543-UM","2019/09/28 20:29:28","新北市三重區長興街117號","121.502133333333","25.0692083333333","6500200","三重區"
"241023","545-UM","2019/09/28 20:29:33","新北市三重區自由街17巷1號","121.479846666667","25.0665883333333","6500200","三重區"
"241001","547-UM","2019/09/28 20:29:27","新北市三重區自強路三段114號","121.48685","25.0748016666667","6500200","三重區"
"241019","KEA-2593","2019/09/28 20:29:27","新北市三重區重陽路四段77號","121.492521666667","25.0710316666667","6500200","三重區"
"241005","AAD-863","2019/09/28 20:29:31","新北市三重區五華街141巷55號","121.493268333333","25.0863666666667","6500200","三重區"
"241031","743-BX","2019/09/28 20:29:24","新北市三重區三寧街22號","121.489496666667","25.0599","6500200","三重區"
"241022","KED-0820","2019/09/28 20:29:27","新北市三重區中正北路20巷2號","121.488145","25.0629316666667","6500200","三重區"
"241012","887-TS","2019/09/28 20:29:18","新北市三重區龍濱路287號","121.500836666667","25.0736183333333","6500200","三重區"
"241029","942-UM","2019/09/28 20:29:20","新北市三重區集美街112巷1號","121.488926666667","25.0540016666667","6500200","三重區"
"235066","003-UY","2019/09/28 20:29:17","新北市中和區光華街62號","121.505633333333","25.00371","6500300","中和區"
"235055","183-VK","2019/09/28 20:29:32","新北市八里區中山路三段386號","121.368481666667","25.13604","6500300","中和區"
"247010","KED-0682","2019/09/28 20:29:27","新北市蘆洲區信義路220號","121.479173333333","25.0852633333333","6501400","蘆洲區"
"235050","4979-A6","2019/09/28 20:29:29","新北市中和區景新街160巷19號","121.504936666667","24.9966216666667","6500300","中和區"
"235069","4980-A6","2019/09/28 20:29:16","新北市中和區中正路436號","121.491085","24.9942033333333","6500300","中和區"
"235059","AAC-215","2019/09/28 20:29:38","新北市中和區員山路5-9號","121.483158333333","24.984535","6500300","中和區"
"247006","893-R6","2019/09/28 20:29:19","新北市蘆洲區和平路121巷14弄29號","121.466083333333","25.0801216666667","6501400","蘆洲區"
"247020","546-UM","2019/09/28 20:29:35","新北市蘆洲區仁愛街136號","121.469028333333","25.09438","6501400","蘆洲區"
"247022","341-TH","2019/09/28 20:29:33","新北市蘆洲區中正路263巷2號","121.467263333333","25.0876433333333","6501400","蘆洲區"
"247004","336-TH","2019/09/28 20:29:26","新北市蘆洲區長安街297號","121.458081666667","25.0848816666667","6501400","蘆洲區"
"247024","057-VK","2019/09/28 20:29:26","新北市蘆洲區光復路70巷19號","121.464666666667","25.08514","6501400","蘆洲區"
"247014","056-VK","2019/09/28 20:29:30","新北市蘆洲區中山二路73號","121.473353333333","25.082","6501400","蘆洲區"
"247018","053-VK","2019/09/28 20:29:28","新北市蘆洲區民族路336巷36號","121.477916666667","25.09131","6501400","蘆洲區"
"247008","002-UY","2019/09/28 20:29:20","新北市蘆洲區永安北路二段76巷12-1號","121.483145","25.08504","6501400","蘆洲區"
"247002","001-UY","2019/09/28 20:29:19","新北市蘆洲區長安街361巷24號","121.456061666667","25.08758","6501400","蘆洲區"
"224002","639-TC","2019/09/28 20:29:33","新北市瑞芳區傑魚坑路255號","121.787585","25.1063666666667","6501200","瑞芳區"
"222001","KEA-2212","2019/09/28 20:29:18","新北市深坑區北深路三段327號","121.597335","25.0049283333333","6501800","深坑區"
"251015","KEA-2871","2019/09/28 20:29:30","新北市淡水區淡金路三段23號","121.446241666667","25.1972433333333","6501000","淡水區"
"251016","179-VK","2019/09/28 20:29:23","新北市淡水區新埔子11-7號","121.447413333333","25.2285233333333","6501000","淡水區"
"251013","180-VK","2019/09/28 20:29:26","新北市淡水區後坑子6號","121.463585","25.20659","6501000","淡水區"
"251008","181-VK","2019/09/28 20:29:27","新北市淡水區淡海路204號","121.420245","25.1856016666667","6501000","淡水區"
"251010","413-VK","2019/09/28 20:29:26","新北市淡水區沙崙路181巷15號","121.423986666667","25.1842916666667","6501000","淡水區"
"251012","441-VK","2019/09/28 20:29:23","新北市淡水區頂田寮路58號","121.455265","25.2163616666667","6501000","淡水區"
"251001","559-UM","2019/09/28 20:29:17","新北市淡水區新市一路三段2號","121.444916666667","25.182865","6501000","淡水區"
"251006","561-UM","2019/09/28 20:29:31","新北市淡水區商工路356號","121.468426666667","25.1854083333333","6501000","淡水區"
"251014","577-R6","2019/09/28 20:29:21","新北市淡水區石頭厝14-53號","121.464076666667","25.2366516666667","6501000","淡水區"
"251002","672-BX","2019/09/28 20:29:29","新北市淡水區中正路25號","121.442563333333","25.1695516666667","6501000","淡水區"
"251003","766-UM","2019/09/28 20:29:30","新北市淡水區新生街94號","121.4397","25.17482","6501000","淡水區"
"207004","291-VK","2019/09/28 20:29:27","新北市萬里區北基里忠四街22號","121.684583333333","25.17583","6502800","萬里區"
"252002","178-VK","2019/09/28 20:29:24","新北市三芝區淡金路二段47-2號","121.503696666667","25.2605133333333","6502100","三芝區"
"247012","KED-0683","2019/09/28 20:29:19","新北市蘆洲區復興路266號","121.48016","25.0897316666667","6501400","蘆洲區"
"236070","KEA-2877","2019/09/28 20:29:33","新北市土城區福安街100-8號","121.41733","24.9644916666667","6501300","土城區"
"252001","KED-0821","2019/09/28 20:29:22","新北市三芝區中山路一段14號","121.500645","25.2580466666667","6502100","三芝區"
"242042","AAC-296","2019/09/28 20:29:36","新北市新莊區天祥街92巷3號","121.415261666667","25.029825","6500500","新莊區"
"242061","986-R7","2019/09/28 20:29:17","新北市新莊區民安路396巷12號","121.430906666667","25.0224566666667","6500500","新莊區"
"242029","615-BX","2019/09/28 20:29:34","新北市新莊區中華路二段149號","121.452763333333","25.051375","6500500","新莊區"
"242027","613-BX","2019/09/28 20:29:36","新北市新莊區幸福路570號","121.45426","25.0493133333333","6500500","新莊區"
"242058","612-BX","2019/09/28 20:29:36","新北市新莊區四維路177號","121.422255","25.0212833333333","6500500","新莊區"
"242048","566-BX","2019/09/28 20:29:31","新北市新莊區龍安路252號","121.421106666667","25.0196383333333","6500500","新莊區"
"242053","497-BY","2019/09/28 20:29:37","新北市新莊區西盛街346號","121.42786","25.014115","6500500","新莊區"
"242004","442-UM","2019/09/28 20:29:34","新北市新莊區化成路746巷39號","121.466898333333","25.0582183333333","6500500","新莊區"
"242002","441-UM","2019/09/28 20:29:25","新北市新莊區明中街43巷29號","121.456963333333","25.0385","6500500","新莊區"
"242007","440-UM","2019/09/28 20:29:27","新北市新莊區福壽街124巷34弄2號","121.459188333333","25.0513","6500500","新莊區"
"242044","415-TV","2019/09/28 20:29:31","新北市新莊區中正路新建巷15弄42號","121.414901666667","25.021435","6500500","新莊區"
"242013","413-TV","2019/09/28 20:29:33","新北市新莊區中平路270巷7弄60號","121.446351666667","25.0508983333333","6500500","新莊區"
"242051","400-BY","2019/09/28 20:29:33","新北市新莊區民安西路189巷18號","121.426861666667","25.0153383333333","6500500","新莊區"
"242025","362-BY","2019/09/28 20:29:29","新北市新莊區五工二路62巷26號","121.461308333333","25.0662816666667","6500500","新莊區"
"242023","353-BY","2019/09/28 20:29:37","新北市新莊區化成路519號","121.46505","25.06378","6500500","新莊區"
"242015","132-UY","2019/09/28 20:29:29","新北市新莊區永樂街192號","121.447736666667","25.0445333333333","6500500","新莊區"
"242039","135-UY","2019/09/28 20:29:23","新北市新莊區民安路294號","121.428098333333","25.0217116666667","6500500","新莊區"
"242056","172-VK","2019/09/28 20:29:28","新北市新莊區新莊路751巷50號","121.442686666667","25.031435","6500500","新莊區"
"242017","173-VK","2019/09/28 20:29:33","新北市新莊區中港二街68號","121.449935","25.0458666666667","6500500","新莊區"
"242031","175-VK","2019/09/28 20:29:30","新北市新莊區三和路17-4號","121.438793333333","25.0377616666667","6500500","新莊區"
"242021","KED-0687","2019/09/28 20:29:22","新北市新莊區公園路36號","121.448816666667","25.0392466666667","6500500","新莊區"
"242036","348-TH","2019/09/28 20:29:19","新北市新莊區後港一路76巷10弄1號","121.427163333333","25.02595","6500500","新莊區"
"242009","349-TH","2019/09/28 20:29:19","新北市新莊區昌隆街76號","121.455516666667","25.0508366666667","6500500","新莊區"
"242034","350-TH","2019/09/28 20:29:34","新北市新莊區新泰路127號","121.448296666667","25.036245","6500500","新莊區"
"242019","351-TH","2019/09/28 20:29:17","新北市新莊區民樂街83號","121.45795","25.0430933333333","6500500","新莊區"
"221008","489-VK","2019/09/28 20:29:28","新北市汐止區康寧街243號","121.624761666667","25.0668433333333","6501100","汐止區"
"221036","130-UY","2019/09/28 20:29:28","新北市汐止區福安街37巷12號","121.66344","25.0652066666667","6501100","汐止區"
"221015","131-UY","2019/09/28 20:29:35","新北市汐止區建成路160巷23號","121.661708333333","25.0739266666667","6501100","汐止區"
"221010","269-BY","2019/09/28 20:29:20","新北市汐止區八連路二段161號","121.634675","25.0948783333333","6501100","汐止區"
"221012","278-VK","2019/09/28 20:29:22","新北市汐止區汐平路二段66號","121.698336666667","25.06106","6501100","汐止區"
"221023","279-VK","2019/09/28 20:29:18","新北市汐止區明峰街129號","121.630478333333","25.07103","6501100","汐止區"
"221032","280-BY","2019/09/28 20:29:37","新北市汐止區弘道街53巷12號","121.61868","25.0488766666667","6501100","汐止區"
"221027","281-BY","2019/09/28 20:29:36","新北市汐止區中正路214號","121.658196666667","25.0688683333333","6501100","汐止區"
"221029","298-VK","2019/09/28 20:29:36","新北市汐止區樟樹一路129巷32號","121.640573333333","25.0651433333333","6501100","汐止區"
"221021","299-VK","2019/09/28 20:29:28","新北市汐止區水源路一段280號","121.654201666667","25.0583416666667","6501100","汐止區"
"221031","353-TW","2019/09/28 20:29:21","新北市汐止區中興路150巷8號","121.633093333333","25.0649666666667","6501100","汐止區"
"221035","622-UM","2019/09/28 20:29:22","新北市汐止區長江街97號","121.65816","25.0728233333333","6501100","汐止區"
"221025","623-UM","2019/09/28 20:29:31","新北市汐止區水源路二段90號","121.656518333333","25.0560416666667","6501100","汐止區"
"221038","646-BX","2019/09/28 20:29:30","新北市汐止區水源路一段72號","121.65683","25.0653016666667","6501100","汐止區"
"221033","647-BX","2019/09/28 20:29:32","新北市汐止區林森街73巷13號","121.62365","25.0412166666667","6501100","汐止區"
"221002","707-TV","2019/09/28 20:29:22","新北市汐止區福德二路47號","121.634331666667","25.0672933333333","6501100","汐止區"
"221018","753-BX","2019/09/28 20:22:57","新北市汐止區茄苳路239巷1號","121.671406666667","25.0684766666667","6501100","汐止區"
"220083","286-VK","2019/09/28 20:29:18","新北市板橋區僑中二街102巷13號","121.445493333333","25.0082816666667","6500100","板橋區"
"220081","287-VK","2019/09/28 20:29:20","新北市板橋區僑中二街152號","121.44495","25.0043316666667","6500100","板橋區"
"242046","281-VK","2019/09/28 20:29:31","新北市新莊區裕民街90巷22號","121.417826666667","25.0238433333333","6500500","新莊區"
"242011","280-VK","2019/09/28 20:29:23","新北市新莊區中義街2號","121.451625","25.051205","6500500","新莊區"
"220055","827-TW","2019/09/28 20:29:26","新北市板橋區仁愛路28號","121.458855","24.999385","6500100","板橋區"
