"lineid","car","time","location","longitude","latitude","cityid","cityname"
"234001","209-UY","2019/09/28 20:49:32","新北市永和區保生路55號","121.50464","25.0107633333333","6500400","永和區"
"234042","862-TW","2019/09/28 20:49:34","台北市中正區汀州路三段230巷16弄7號","121.531758333333","25.0083366666667","6500400","永和區"
"249004","303-UY","2019/09/28 20:49:23","新北市八里區中山路一段65巷13號","121.418383333333","25.1593366666667","6502300","八里區"
"234074","AAC-211","2019/09/28 20:49:32","新北市永和區環河東路二段20號","121.522445","25.01294","6500400","永和區"
"222003","436-BY","2019/09/28 20:49:24","新北市深坑區文山路三段48-1號","121.609891666667","24.99851","6501800","深坑區"
"222002","659-BX","2019/09/28 20:49:39","新北市深坑區北深路三段93巷29號","121.604938333333","25.0002583333333","6501800","深坑區"
"231061","002-UM","2019/09/28 20:49:29","新北市新店區新和街89號","121.520798333333","24.986595","6500600","新店區"
"231044","046-UY","2019/09/28 20:49:34","新北市新店區民生路158巷89號","121.526223333333","24.9807916666667","6500600","新店區"
"231060","106-UY","2019/09/28 20:49:24","新北市新店區安康路三段740號","121.47382","24.9419816666667","6500600","新店區"
"231051","107-UY","2019/09/28 20:49:24","新北市新店區民生路158巷70號","121.527305","24.98192","6500600","新店區"
"231049","108-UY","2019/09/28 20:49:35","新北市新店區華潭街14號","121.529625","24.95229","6500600","新店區"
"231065","110-UY","2019/09/28 20:49:23","新北市新店區安祥路69巷17號","121.481941666667","24.9613733333333","6500600","新店區"
"231068","187-VK","2019/09/28 20:49:32","新北市新店區寶元路一段102號","121.54499","24.98326","6500600","新店區"
"231062","256-BX","2019/09/28 20:49:34","新北市新店區和成街19巷30號","121.487853333333","24.9460333333333","6500600","新店區"
"231054","260-TV","2019/09/28 20:49:25","新北市新店區北新路一段96巷23號","121.543036666667","24.9688366666667","6500600","新店區"
"231042","268-BY","2019/09/28 20:49:24","新北市新店區寶高路120巷1號","121.554793333333","24.97613","6500600","新店區"
"231064","278-BY","2019/09/28 20:49:27","新北市新店區安和路二段169巷7號","121.518308333333","24.9741116666667","6500600","新店區"
"231050","AAD-862","2019/09/28 20:49:35","新北市新店區三民路20巷44號","121.538273333333","24.9716466666667","6500600","新店區"
"231058","3713-VJ","2019/09/28 20:49:37","新北市新店區平等街17號","121.536856666667","24.9738566666667","6500600","新店區"
"231067","4772-VM","2019/09/28 20:49:20","新北市新店區安康路二段234巷27號","121.508738333333","24.9603383333333","6500600","新店區"
"231052","515-UM","2019/09/28 20:49:28","新北市新店區新烏路二段50巷1號","121.54737","24.9283983333333","6500600","新店區"
"231063","641-BX","2019/09/28 20:49:35","新北市新店區如意街15號","121.494783333333","24.9481166666667","6500600","新店區"
"231048","KED-0819","2019/09/28 20:49:37","新北市新店區文化路73巷1號","121.544883333333","24.9824933333333","6500600","新店區"
"231057","720-UM","2019/09/28 20:49:35","新北市新店區新烏路一段171號","121.545015","24.934565","6500600","新店區"
"231059","897-TW","2019/09/28 20:49:31","新北市新店區僑愛七路21號","121.500856666667","24.9444016666667","6500600","新店區"
"231040","898-TW","2019/09/28 20:49:21","新北市新店區中正路266號","121.539036666667","24.97353","6500600","新店區"
"231043","899-TW","2019/09/28 20:49:35","新北市新店區建國路103號","121.540243333333","24.9773983333333","6500600","新店區"
"231066","AKT-0513","2019/09/28 20:49:37","新北市新店區吉安街33號","121.515938333333","24.965995","6500600","新店區"
"241011","013-R5","2019/09/28 20:49:32","新北市三重區秀江街113號","121.499821666667","25.0722083333333","6500200","三重區"
"241028","022-UY","2019/09/28 20:49:27","新北市三重區重新路三段90號","121.492985","25.060805","6500200","三重區"
"241008","059-VK","2019/09/28 20:49:34","新北市三重區永福街72巷11號","121.47943","25.0767616666667","6500200","三重區"
"241026","060-VK","2019/09/28 20:49:26","新北市三重區文化南路7號","121.50003","25.0623266666667","6500200","三重區"
"241015","062-VK","2019/09/28 20:49:27","新北市三重區自強路一段2號","121.499006666667","25.06848","6500200","三重區"
"241017","063-VK","2019/09/28 20:49:23","新北市三重區民生街16號","121.492056666667","25.0674","6500200","三重區"
"241007","066-VK","2019/09/28 20:49:38","新北市三重區自強路四段12號","121.488485","25.076275","6500200","三重區"
"241002","090-VK","2019/09/28 20:49:34","新北市三重區仁義街157巷96號","121.499115","25.0821533333333","6500200","三重區"
"241003","091-VK","2019/09/28 20:49:22","新北市三重區五華街141巷58號","121.493535","25.086725","6500200","三重區"
"241006","262-UM","2019/09/28 20:49:23","新北市三重區車路頭街139巷12號","121.484256666667","25.07621","6500200","三重區"
"241016","266-UM","2019/09/28 20:49:25","新北市三重區自強路一段236號","121.49338","25.0670016666667","6500200","三重區"
"241009","267-UM","2019/09/28 20:49:25","新北市三重區三和路四段197號","121.482076666667","25.0792433333333","6500200","三重區"
"241018","268-UM","2019/09/28 20:49:29","新北市三重區自強路一段155號","121.493641666667","25.06707","6500200","三重區"
"241032","269-UM","2019/09/28 20:49:28","新北市三重區重陽路一段120巷46號","121.485091666667","25.0601416666667","6500200","三重區"
"241013","270-UM","2019/09/28 20:49:23","新北市三重區仁賢街4號","121.495593333333","25.0748","6500200","三重區"
"241025","271-UM","2019/09/28 20:49:23","新北市三重區貴陽街14號","121.484158333333","25.061815","6500200","三重區"
"241035","KEA-2210","2019/09/28 20:49:21","新北市三重區正義北路133號","121.4969","25.066515","6500200","三重區"
"241030","KED-0822","2019/09/28 20:49:29","新北市三重區昌隆街26號","121.49202","25.05225","6500200","三重區"
"241004","475-VK","2019/09/28 20:49:30","新北市三重區分子尾街36-1號","121.489418333333","25.0809783333333","6500200","三重區"
"241020","478-VK","2019/09/28 20:49:28","新北市三重區忠孝路一段177號","121.487556666667","25.071705","6500200","三重區"
"241014","543-UM","2019/09/28 20:49:28","新北市三重區長壽街120巷60號","121.501783333333","25.0703483333333","6500200","三重區"
"241023","545-UM","2019/09/28 20:49:33","新北市三重區忠孝路三段84巷1號","121.480343333333","25.0647216666667","6500200","三重區"
"241001","547-UM","2019/09/28 20:49:27","新北市三重區自強路三段97號","121.487681666667","25.07517","6500200","三重區"
"241019","KEA-2593","2019/09/28 20:49:27","新北市三重區三張街75號","121.490088333333","25.0706833333333","6500200","三重區"
"241005","AAD-863","2019/09/28 20:49:31","新北市三重區三信路186號","121.487833333333","25.0862066666667","6500200","三重區"
"241031","743-BX","2019/09/28 20:49:24","新北市三重區重陽路一段113巷1弄1號","121.487468333333","25.05978","6500200","三重區"
"241022","KED-0820","2019/09/28 20:49:27","新北市三重區過圳街27-5號","121.487948333333","25.0624216666667","6500200","三重區"
"241012","887-TS","2019/09/28 20:49:38","新北市三重區仁信街29號","121.501241666667","25.07554","6500200","三重區"
"241029","942-UM","2019/09/28 20:49:20","新北市三重區重安街14號","121.490191666667","25.0581066666667","6500200","三重區"
"235055","183-VK","2019/09/28 20:49:32","新北市五股區凌雲路三段24巷22號","121.432291666667","25.10784","6500300","中和區"
"247010","KED-0682","2019/09/28 20:49:27","新北市蘆洲區中山一路49號","121.47886","25.081005","6501400","蘆洲區"
"235050","4979-A6","2019/09/28 20:49:19","新北市中和區員山路36巷16-3號","121.484801666667","24.990895","6500300","中和區"
"235069","4980-A6","2019/09/28 20:49:36","新北市中和區連城路469巷79弄2號","121.48345","24.9937316666667","6500300","中和區"
"247006","893-R6","2019/09/28 20:49:39","新北市蘆洲區永安南路二段16巷5號","121.467743333333","25.0772116666667","6501400","蘆洲區"
"247020","546-UM","2019/09/28 20:49:35","新北市蘆洲區仁愛街73號","121.471505","25.0938133333333","6501400","蘆洲區"
"247022","341-TH","2019/09/28 20:49:24","新北市蘆洲區水湳街52號","121.471171666667","25.0899116666667","6501400","蘆洲區"
"247004","336-TH","2019/09/28 20:49:26","新北市蘆洲區長安街100號","121.461683333333","25.080925","6501400","蘆洲區"
"247024","057-VK","2019/09/28 20:49:26","新北市蘆洲區長樂路136號","121.462105","25.090145","6501400","蘆洲區"
"247014","056-VK","2019/09/28 20:49:30","新北市蘆洲區三民路88號","121.473688333333","25.0852116666667","6501400","蘆洲區"
"247008","002-UY","2019/09/28 20:49:20","新北市蘆洲區永安北路二段46-1號","121.482576666667","25.0832383333333","6501400","蘆洲區"
"247002","001-UY","2019/09/28 20:49:24","新北市蘆洲區長安街240號","121.45772","25.0856766666667","6501400","蘆洲區"
"222001","KEA-2212","2019/09/28 20:49:34","新北市深坑區北深路三段63號","121.607031666667","25.001535","6501800","深坑區"
"251015","KEA-2871","2019/09/28 20:49:30","新北市淡水區興仁路103巷35號","121.449865","25.2170483333333","6501000","淡水區"
"251016","179-VK","2019/09/28 20:49:23","新北市淡水區淡金路四段476號","121.451845","25.22386","6501000","淡水區"
"251013","180-VK","2019/09/28 20:49:26","新北市淡水區行忠路98號","121.452136666667","25.19868","6501000","淡水區"
"251010","413-VK","2019/09/28 20:49:26","新北市淡水區沙崙路145號","121.423386666667","25.1831016666667","6501000","淡水區"
"251012","441-VK","2019/09/28 20:49:23","新北市淡水區興仁路162號","121.451581666667","25.2206316666667","6501000","淡水區"
"251007","442-VK","2019/09/28 20:49:19","新北市淡水區鄧公路29巷15號","121.452061666667","25.1702116666667","6501000","淡水區"
"251001","559-UM","2019/09/28 20:49:37","新北市淡水區淡金路55號","121.455986666667","25.161285","6501000","淡水區"
"251014","577-R6","2019/09/28 20:49:21","新北市淡水區公埔子32-8號","121.461641666667","25.2323233333333","6501000","淡水區"
"251011","650-BX","2019/09/28 20:49:38","新北市淡水區義山路一段163巷181號","121.434675","25.1878433333333","6501000","淡水區"
"251002","672-BX","2019/09/28 20:49:29","新北市淡水區鼻頭街9號","121.446913333333","25.1668116666667","6501000","淡水區"
"251003","766-UM","2019/09/28 20:49:30","新北市淡水區中山北路一段247巷96號","121.442165","25.179395","6501000","淡水區"
"247012","KED-0683","2019/09/28 20:49:19","新北市蘆洲區復興路340巷20-1號","121.483173333333","25.089295","6501400","蘆洲區"
"242042","AAC-296","2019/09/28 20:49:29","新北市新莊區天祥街47巷9號","121.416523333333","25.0284083333333","6500500","新莊區"
"242029","615-BX","2019/09/28 20:49:34","新北市新莊區中華路二段26-1號","121.453481666667","25.0451433333333","6500500","新莊區"
"242027","613-BX","2019/09/28 20:49:36","新北市新莊區中正路119號","121.460503333333","25.038235","6500500","新莊區"
"242058","612-BX","2019/09/28 20:49:21","新北市新莊區建國一路136號","121.434863333333","25.0283583333333","6500500","新莊區"
"242048","566-BX","2019/09/28 20:49:31","新北市新莊區中正路715-1號","121.424366666667","25.0294316666667","6500500","新莊區"
"242002","441-UM","2019/09/28 20:49:25","新北市新莊區中港路6號","121.454963333333","25.0368816666667","6500500","新莊區"
"242007","440-UM","2019/09/28 20:49:27","新北市新莊區思源路56號","121.460185","25.0441633333333","6500500","新莊區"
"242013","413-TV","2019/09/28 20:49:24","新北市新莊區中和街220-1號","121.448366666667","25.0512116666667","6500500","新莊區"
"242051","400-BY","2019/09/28 20:49:33","新北市新莊區民安西路62號","121.427328333333","25.0203116666667","6500500","新莊區"
"242025","362-BY","2019/09/28 20:49:29","新北市新莊區化成路579巷1號","121.464456666667","25.0660666666667","6500500","新莊區"
"242023","353-BY","2019/09/28 20:49:36","新北市新莊區復興路三段12號","121.460656666667","25.0444683333333","6500500","新莊區"
"242015","132-UY","2019/09/28 20:49:36","新北市新莊區中和街37號","121.448075","25.044215","6500500","新莊區"
"242031","175-VK","2019/09/28 20:49:28","新北市新莊區中正路508巷5弄2號","121.43505","25.0338183333333","6500500","新莊區"
"242036","348-TH","2019/09/28 20:49:19","新北市新莊區建國一路75號","121.434903333333","25.0291016666667","6500500","新莊區"
"242009","349-TH","2019/09/28 20:49:19","新北市新莊區幸福路34號","121.458505","25.0494966666667","6500500","新莊區"
"242034","350-TH","2019/09/28 20:49:34","新北市新莊區中正路242號","121.448148333333","25.0352666666667","6500500","新莊區"
"221036","130-UY","2019/09/28 20:49:28","新北市汐止區新昌路90號","121.663983333333","25.0690533333333","6501100","汐止區"
"221012","278-VK","2019/09/28 20:49:22","新北市汐止區保新街33號","121.68458","25.0729566666667","6501100","汐止區"
"221023","279-VK","2019/09/28 20:49:19","新北市汐止區明峰街11號","121.635208333333","25.071335","6501100","汐止區"
"221027","281-BY","2019/09/28 20:49:36","新北市汐止區大同路二段353號","121.657006666667","25.0672633333333","6501100","汐止區"
"221021","299-VK","2019/09/28 20:49:28","新北市汐止區莊敬街115號","121.655181666667","25.0610566666667","6501100","汐止區"
"221035","622-UM","2019/09/28 20:49:22","新北市汐止區長江街101-5號","121.658713333333","25.07316","6501100","汐止區"
"221033","647-BX","2019/09/28 20:49:32","新北市汐止區合順街18巷8弄5號","121.620345","25.0419033333333","6501100","汐止區"
"242046","281-VK","2019/09/28 20:49:31","新北市新莊區裕民街54巷27號","121.417523333333","25.0245583333333","6500500","新莊區"
"242011","280-VK","2019/09/28 20:49:23","新北市泰山區新五路一段97號","121.44076","25.0613733333333","6500500","新莊區"
