"lineid","car","time","location","longitude","latitude","cityid","cityname"
"251009","008-UM","2019/09/28 21:59:22","新北市淡水區大同路2-1號","121.461178333333","25.1405266666667","6501000","淡水區"
"251004","009-UM","2019/09/28 21:59:21","新北市淡水區民權路185-10號","121.45936","25.1337233333333","6501000","淡水區"
"251005","010-UM","2019/09/28 21:59:21","新北市淡水區鄧公路30巷2弄45號","121.453778333333","25.1692733333333","6501000","淡水區"
"251008","181-VK","2019/09/28 21:59:27","新北市淡水區學府路104號","121.449835","25.1717933333333","6501000","淡水區"
"251010","413-VK","2019/09/28 21:59:26","新北市淡水區中正路二段206號","121.426225","25.18909","6501000","淡水區"
"251007","442-VK","2019/09/28 21:59:19","新北市淡水區北新路184巷19號","121.450273333333","25.1780583333333","6501000","淡水區"
"251006","561-UM","2019/09/28 21:59:26","新北市淡水區中正路11巷3號","121.437881666667","25.1707283333333","6501000","淡水區"
"251011","650-BX","2019/09/28 21:59:38","新北市淡水區中山北路一段108號","121.442903333333","25.1768166666667","6501000","淡水區"
"251003","766-UM","2019/09/28 21:59:30","新北市淡水區新春街86號","121.438713333333","25.18227","6501000","淡水區"
