"lineid","car","time","location","longitude","latitude","cityid","cityname"
"222005","289-BY","2019/07/12 08:39:29","新北市深坑區深南路204號","121.626641666667","25.0160516666667","6501800","深坑區"
"231007","189-VK","2019/07/12 08:39:10","新北市新店區小坑二路15號","121.530461666667","24.9167383333333","6500600","新店區"
"231009","718-UY","2019/07/12 08:39:18","新北市新店區新烏路三段177號","121.550585","24.9012316666667","6500600","新店區"
"226001","7418-A5","2019/07/12 08:39:22","新北市平溪區東勢里火燒寮36-1號","121.768531666667","24.9864066666667","6502400","平溪區"
"226006","AGD-0702","2019/07/12 08:39:11","新北市平溪區十分里十分街238號","121.778116666667","25.0441233333333","6502400","平溪區"
"223003","205-TH","2019/07/12 08:39:18","新北市石碇區北宜路六段直潭巷10-3號","121.66148","24.9350066666667","6501900","石碇區"
"223008","406-TH","2019/07/12 08:39:23","新北市石碇區十八重溪69號","121.673355","25.0146516666667","6501900","石碇區"
"223001","592-UM","2019/07/12 08:39:24","新北市石碇區北宜路六段直潭巷9號","121.661241666667","24.9361016666667","6501900","石碇區"
"223004","660-BX","2019/07/12 08:39:17","新北市石碇區崩山3-2號","121.675373333333","24.9735883333333","6501900","石碇區"
"223007","661-BX","2019/07/12 08:39:14","新北市石碇區十八重溪69號","121.673443333333","25.014695","6501900","石碇區"
"223005","677-TV","2019/07/12 08:39:15","新北市石碇區崩山23-4號","121.677138333333","24.9696483333333","6501900","石碇區"
"227003","282-VK","2019/07/12 08:39:12","新北市雙溪區外柑里三叉坑11-3號","121.828516666667","25.0036466666667","6502500","雙溪區"
"237014","760-BX","2019/07/12 08:39:25","新北市三峽區建安77-1號","121.451923333333","24.9241733333333","6500900","三峽區"
"226005","ANY-2373","2019/07/12 08:39:11","新北市平溪區南山里南山坪123號","121.78407","25.0450116666667","6502400","平溪區"
"220003","827-TW","2019/07/12 08:20:16","新北市板橋區溪城路90-2號","121.429108333333","24.980335","6500100","板橋區"
