"lineid","car","time","location","longitude","latitude","cityid","cityname"
"222005","289-BY","2019/07/12 09:39:09","新北市深坑區北深路一段278巷16號","121.629096666667","25.0116566666667","6501800","深坑區"
"231007","189-VK","2019/07/12 09:39:10","新北市新店區新烏路三段215巷19號","121.50649","24.9032666666667","6500600","新店區"
"231009","718-UY","2019/07/12 09:39:10","新北市新店區小坑一路1巷1號","121.535775","24.91157","6500600","新店區"
"223008","406-TH","2019/07/12 09:39:23","新北市石碇區大湖格1-1號","121.70364","25.0128683333333","6501900","石碇區"
"223001","592-UM","2019/07/12 09:39:24","新北市石碇區北宜路四段18號","121.617463333333","24.95986","6501900","石碇區"
"227003","282-VK","2019/07/12 09:32:32","新北市雙溪區泰平里溪尾寮2-2號","121.819101666667","24.9644483333333","6502500","雙溪區"
"237014","760-BX","2019/07/12 09:39:25","新北市三峽區安坑105-3號","121.444733333333","24.93914","6500900","三峽區"
