"lineid","car","time","location","longitude","latitude","cityid","cityname"
"234078","298-R6","2019/07/12 14:19:26","新北市永和區福和路19巷14號","121.52431","25.0077266666667","6500400","永和區"
"234036","336-UY","2019/07/12 14:19:09","新北市永和區成功路一段93巷9號","121.527415","25.0027866666667","6500400","永和區"
"234062","337-UY","2019/07/12 14:19:10","新北市永和區得和路131號","121.519058333333","25.0002133333333","6500400","永和區"
"234084","338-UY","2019/07/12 14:19:18","新北市永和區永和路二段166號","121.515356666667","25.0129","6500400","永和區"
"234068","552-UM","2019/07/12 14:19:25","新北市永和區福和路263巷8號","121.517873333333","25.00692","6500400","永和區"
"234028","746-BX","2019/07/12 14:19:10","新北市永和區民權路49巷15號","121.520861666667","24.9973333333333","6500400","永和區"
"234052","KEA-2590","2019/07/12 14:19:24","新北市永和區光復街27號","121.516586666667","25.0175433333333","6500400","永和區"
"234005","KED-0605","2019/07/12 14:19:20","新北市永和區中正路411號","121.516993333333","25.0047783333333","6500400","永和區"
"234012","KEA-2591","2019/07/12 14:19:14","新北市永和區保生路64號","121.505135","25.0089216666667","6500400","永和區"
"234060","AAD-866","2019/07/12 14:19:25","新北市永和區安樂路194巷17弄10號","121.516138333333","25.0013866666667","6500400","永和區"
"234040","862-TW","2019/07/12 14:19:13","新北市中和區中安街188號","121.511261666667","24.9993666666667","6500400","永和區"
"234048","863-TW","2019/07/12 14:19:08","新北市永和區新生路51號","121.508945","25.0164183333333","6500400","永和區"
"234025","9371-KE","2019/07/12 14:19:06","新北市永和區安樂路144巷29號","121.515135","24.9997533333333","6500400","永和區"
"234010","9373-KE","2019/07/12 14:19:17","新北市永和區保生路55號","121.504536666667","25.010865","6500400","永和區"
"248019","KED-0813","2019/07/12 14:01:45","新北市五股區凌雲路三段57號","121.42534","25.125035","6501500","五股區"
"234076","969-R7","2019/07/12 14:19:25","新北市永和區民族街81巷58號","121.52002","24.9966083333333","6500400","永和區"
"234072","AAC-211","2019/07/12 14:19:14","新北市永和區豫溪街191巷7弄34號","121.522888333333","25.0115266666667","6500400","永和區"
"234066","AAC-212","2019/07/12 14:19:12","新北市永和區保平路290號","121.508043333333","25.0044566666667","6500400","永和區"
"234001","AAC-295","2019/07/12 14:19:22","新北市永和區自強街19巷2號","121.514955","25.0080266666667","6500400","永和區"
"244004","248-BX","2019/07/12 14:19:16","新北市林口區南勢里34-8號","121.352465","25.0702216666667","6501700","林口區"
"231030","002-UM","2019/07/12 14:19:19","新北市新店區安民街65巷21-2號","121.515271666667","24.9675233333333","6500600","新店區"
"231027","0293-UT","2019/07/12 14:19:08","新北市新店區光明街286巷4號","121.540528333333","24.963825","6500600","新店區"
"231005","046-UY","2019/07/12 14:19:10","新北市新店區中興路三段207號","121.54375","24.9817116666667","6500600","新店區"
"231029","106-UY","2019/07/12 14:19:16","新北市新店區安康路二段214號","121.509846666667","24.9595383333333","6500600","新店區"
"231018","107-UY","2019/07/12 14:19:18","新北市新店區中央四街26號","121.528841666667","24.9742116666667","6500600","新店區"
"231013","108-UY","2019/07/12 14:19:18","新北市新店區民權路88-4號","121.536501666667","24.9833383333333","6500600","新店區"
"231036","110-UY","2019/07/12 14:19:06","新北市新店區安祥路109巷90弄96號","121.475866666667","24.9576883333333","6500600","新店區"
"231016","KEA-2219","2019/07/12 14:19:14","新北市新店區北宜路二段483號","121.562296666667","24.9538566666667","6500600","新店區"
"231032","256-BX","2019/07/12 14:19:27","新北市新店區溪洲路163號","121.530705","24.9640266666667","6500600","新店區"
"231023","260-TV","2019/07/12 14:19:24","新北市新店區光明街23號","121.53852","24.9595033333333","6500600","新店區"
"231003","268-BY","2019/07/12 14:19:25","新北市新店區中興路一段202號","121.543631666667","24.965395","6500600","新店區"
"231035","278-BY","2019/07/12 14:19:15","新北市新店區光華街8巷15號","121.517856666667","24.9694483333333","6500600","新店區"
"231006","355-BY","2019/07/12 14:19:12","新北市新店區北宜路二段268號","121.56067","24.9543233333333","6500600","新店區"
"231038","3712-VJ","2019/07/12 14:19:09","新北市新店區溪洲路6巷88號","121.533116666667","24.9640616666667","6500600","新店區"
"231024","4716-K9","2019/07/12 14:19:20","新北市新店區薏仁坑路6號","121.500466666667","24.9580316666667","6500600","新店區"
"231022","513-UM","2019/07/12 14:19:19","新北市新店區新烏路二段198巷2弄2號","121.547756666667","24.9169933333333","6500600","新店區"
"231001","617-UM","2019/07/12 14:19:29","新北市新店區北新路一段32號","121.540946666667","24.9659133333333","6500600","新店區"
"231002","619-UM","2019/07/12 14:19:27","新北市新店區中央路155號","121.529783333333","24.972835","6500600","新店區"
"231034","641-BX","2019/07/12 14:19:18","新北市新店區車子路11號","121.503008333333","24.952045","6500600","新店區"
"231012","KED-0819","2019/07/12 14:19:11","新北市新店區五峰路63巷8弄25號","121.547558333333","24.9692916666667","6500600","新店區"
"231028","897-TW","2019/07/12 14:19:14","新北市新店區安和路二段221號","121.517403333333","24.9758366666667","6500600","新店區"
"231004","899-TW","2019/07/12 14:19:29","新北市新店區中正路193號","121.540521666667","24.972455","6500600","新店區"
"231037","AKT-0513","2019/07/12 14:19:23","新北市新店區安康路二段341巷1號","121.496811666667","24.955145","6500600","新店區"
"235030","003-UY","2019/07/12 14:19:23","新北市中和區景新街2號","121.502611666667","24.9997633333333","6500300","中和區"
"235028","005-UY","2019/07/12 14:19:10","新北市中和區南山路131-1號","121.502195","24.9966066666667","6500300","中和區"
"235027","006-UY","2019/07/12 14:19:23","新北市中和區連城路219巷16號","121.494781666667","24.9968783333333","6500300","中和區"
"235001","031-BX","2019/07/12 14:19:09","新北市中和區華新街143巷106弄23號","121.506553333333","24.97817","6500300","中和區"
"235020","096-UM","2019/07/12 14:19:16","新北市中和區中山路三段104號","121.476885","25.006155","6500300","中和區"
"235003","097-UM","2019/07/12 14:19:13","新北市中和區秀峰街129號","121.518095","24.9900516666667","6500300","中和區"
"235029","098-UM","2019/07/12 14:19:13","新北市中和區莊敬路49巷2號","121.501361666667","25.0054833333333","6500300","中和區"
"235004","150-BY","2019/07/12 14:19:12","新北市中和區宜安路41號","121.51186","24.9963566666667","6500300","中和區"
"235022","151-BY","2019/07/12 14:19:26","新北市中和區員山路124巷2號","121.481516666667","24.9958916666667","6500300","中和區"
"235019","183-VK","2019/07/12 14:19:19","新北市中和區中山路三段181巷18弄37號","121.47264","25.0049133333333","6500300","中和區"
"235002","185-VK","2019/07/12 14:19:09","新北市中和區大仁街106號","121.520456666667","24.9929383333333","6500300","中和區"
"235013","186-VK","2019/07/12 14:19:17","新北市中和區景新街275號","121.509358333333","24.9936433333333","6500300","中和區"
"235031","255-BX","2019/07/12 14:19:20","新北市中和區新生街282號","121.483698333333","24.9967333333333","6500300","中和區"
"235008","293-VK","2019/07/12 14:19:26","新北市中和區復興路308號","121.501198333333","24.9903166666667","6500300","中和區"
"235036","301-VK","2019/07/12 14:19:13","新北市中和區中和路74號","121.5008","25.0001983333333","6500300","中和區"
"235007","352-BY","2019/07/12 14:19:09","新北市中和區景平路350號","121.511461666667","24.9929083333333","6500300","中和區"
"235006","KEA-2878","2019/07/12 14:19:18","新北市中和區安樂路217巷35弄8號","121.513878333333","24.9977283333333","6500300","中和區"
"247013","KEA-2869","2019/07/12 14:19:12","新北市蘆洲區中山一路196號","121.473755","25.08085","6501400","蘆洲區"
"247007","KED-0682","2019/07/12 14:19:13","新北市蘆洲區中山一路197巷6弄21號","121.474136666667","25.0802166666667","6501400","蘆洲區"
"235014","4979-A6","2019/07/12 14:19:13","新北市中和區景安路208巷8號","121.503581666667","24.9912166666667","6500300","中和區"
"235033","4980-A6","2019/07/12 14:19:16","新北市中和區永和路39巷14號","121.497488333333","25.0049416666667","6500300","中和區"
"235034","558-UM","2019/07/12 14:19:12","新北市中和區景平路547號","121.498528333333","24.9994483333333","6500300","中和區"
"235009","565-BX","2019/07/12 14:19:11","新北市中和區景新街383巷55號","121.513618333333","24.9907666666667","6500300","中和區"
"235024","KED-0823","2019/07/12 14:19:13","新北市中和區中山路二段570號","121.482918333333","25.0050433333333","6500300","中和區"
"235018","640-BX","2019/07/12 14:19:11","新北市中和區莒光路118號","121.472441666667","25.0018783333333","6500300","中和區"
"235011","732-UM","2019/07/12 14:19:25","新北市中和區景平路239巷73號","121.508161666667","24.9921083333333","6500300","中和區"
"235010","733-UM","2019/07/12 14:19:13","新北市中和區忠孝街37巷5號","121.510878333333","24.983445","6500300","中和區"
"235035","783-BX","2019/07/12 14:19:26","新北市中和區建康路3號","121.48555","25.0001666666667","6500300","中和區"
"235026","800-TS","2019/07/12 14:19:22","新北市中和區中山路二段526巷37號","121.485833333333","25.0059","6500300","中和區"
"235021","801-TS","2019/07/12 14:19:15","新北市中和區中山路三段37巷17號","121.479175","25.0050633333333","6500300","中和區"
"235005","802-TS","2019/07/12 14:19:24","新北市中和區宜安路96號","121.510591666667","24.9977216666667","6500300","中和區"
"235016","805-TS","2019/07/12 14:19:20","新北市中和區興南路二段128巷1弄8號","121.503665","24.9835483333333","6500300","中和區"
"235017","900-TW","2019/07/12 14:19:22","新北市中和區華順街2巷2號","121.467586666667","24.998855","6500300","中和區"
"235012","911-UM","2019/07/12 14:19:21","新北市中和區華新街109巷1號","121.508795","24.9824816666667","6500300","中和區"
"235015","157-BY","2019/07/12 14:19:16","新北市中和區捷運路129號","121.507253333333","24.99084","6500300","中和區"
"235001","AAC-213","2019/07/12 14:19:14","新北市中和區秀朗路三段10巷14弄14號","121.525046666667","24.9966116666667","6500300","中和區"
"235023","AAC-215","2019/07/12 14:19:26","新北市中和區圓通路252巷5弄38號","121.492211666667","24.9915966666667","6500300","中和區"
"220016","015-TV","2019/07/12 14:19:20","新北市板橋區林森街1巷30號","121.482755","25.0243316666667","6500100","板橋區"
"220013","072-UY","2019/07/12 14:19:20","新北市板橋區民族路168-2號","121.46732","25.0078283333333","6500100","板橋區"
"220034","073-UY","2019/07/12 14:19:24","新北市板橋區中正路216巷53號","121.45744","25.01894","6500100","板橋區"
"220105","075-UY","2019/07/12 14:19:22","新北市板橋區文化路二段417巷1號","121.473753333333","25.03339","6500100","板橋區"
"220017","AAD-861","2019/07/12 14:19:11","新北市板橋區稚暉街35號","121.457076666667","25.004075","6500100","板橋區"
"220047","120-SR","2019/07/12 14:19:10","新北市板橋區自由路53-3號","121.465575","25.023625","6500100","板橋區"
"247003","893-R6","2019/07/12 14:19:06","新北市蘆洲區中原路12巷36號","121.460563333333","25.0841983333333","6501400","蘆洲區"
"247017","546-UM","2019/07/12 14:19:21","新北市蘆洲區民權路144號","121.472751666667","25.0891666666667","6501400","蘆洲區"
"247023","337-TH","2019/07/12 14:19:24","新北市蘆洲區長榮路673號","121.460246666667","25.0917866666667","6501400","蘆洲區"
"247001","336-TH","2019/07/12 14:19:28","新北市蘆洲區永樂街83號","121.455921666667","25.08867","6501400","蘆洲區"
"247021","057-VK","2019/07/12 14:19:10","新北市蘆洲區仁愛街212巷28-1號","121.464081666667","25.0946933333333","6501400","蘆洲區"
"247011","056-VK","2019/07/12 14:19:18","新北市蘆洲區民權路3巷18號","121.4757","25.0852283333333","6501400","蘆洲區"
"247015","053-VK","2019/07/12 14:19:12","新北市蘆洲區光華路110巷24號","121.466675","25.0835966666667","6501400","蘆洲區"
"247019","007-UY","2019/07/12 14:19:13","新北市蘆洲區仁愛街35巷8號","121.471753333333","25.092745","6501400","蘆洲區"
"247005","002-UY","2019/07/12 14:19:20","新北市蘆洲區長安街22巷3弄2號","121.464418333333","25.0795116666667","6501400","蘆洲區"
"207002","681-TV","2019/07/12 14:19:22","新北市萬里區溪底里瑞泉路9號","121.605211666667","25.1438733333333","6502800","萬里區"
"207001","662-BX","2019/07/12 14:19:06","新北市萬里區磺潭里清水18號","121.637851666667","25.19772","6502800","萬里區"
"236040","KED-0685","2019/07/12 14:19:09","新北市土城區裕生路21巷6弄1號","121.448793333333","24.9869716666667","6501300","土城區"
"236077","166-UM","2019/07/12 14:19:23","新北市土城區中央路三段281巷23弄1號","121.425951666667","24.9620016666667","6501300","土城區"
"236029","253-BX","2019/07/12 14:19:15","新北市土城區順風路43號","121.440496666667","24.976985","6501300","土城區"
"236024","269-VK","2019/07/12 14:19:20","新北市土城區承天路67號","121.439441666667","24.9636783333333","6501300","土城區"
"236013","270-VK","2019/07/12 14:19:25","新北市土城區青雲路39巷7號","121.46031","24.9875666666667","6501300","土城區"
"236032","271-VK","2019/07/12 14:19:16","新北市土城區青雲路483巷10弄28號","121.459305","24.9726566666667","6501300","土城區"
"247009","KED-0683","2019/07/12 14:19:21","新北市蘆洲區三民路26巷35號","121.477238333333","25.0829616666667","6501400","蘆洲區"
"236067","KEA-2877","2019/07/12 14:19:24","新北市土城區明德路一段128巷7號","121.463273333333","24.9790716666667","6501300","土城區"
"236016","401-BY","2019/07/12 14:19:14","新北市土城區明德路一段295號","121.460026666667","24.9772733333333","6501300","土城區"
"236057","912-UM","2019/07/12 14:19:21","新北市土城區中央路四段466號","121.409956666667","24.95058","6501300","土城區"
"236045","913-UM","2019/07/12 14:19:25","新北市土城區明德路一段369號","121.455343333333","24.9779766666667","6501300","土城區"
"236060","915-UM","2019/07/12 14:19:18","新北市土城區金城路三段202-3號","121.469463333333","24.9885916666667","6501300","土城區"
"236054","AAC-216","2019/07/12 14:19:13","新北市土城區中華路二段92號","121.43838","24.9747566666667","6501300","土城區"
"221029","298-VK","2019/07/12 14:19:07","台北市南港區研究院路四段299號","121.60412","25.0257933333333","6501100","汐止區"
"220027","145-BY","2019/07/12 14:19:19","新北市板橋區民權路260巷1弄7號","121.458048333333","25.0156766666667","6500100","板橋區"
"220028","200-UY","2019/07/12 14:19:28","新北市板橋區大觀路二段19巷107號","121.450118333333","25.0027283333333","6500100","板橋區"
"220030","610-BX","2019/07/12 14:19:23","新北市板橋區滿平街84巷98號","121.426571666667","24.9867416666667","6500100","板橋區"
"220050","245-BX","2019/07/12 14:19:23","新北市板橋區莊敬路208巷2弄1號","121.471708333333","25.0210883333333","6500100","板橋區"
"220040","267-BY","2019/07/12 14:18:48","新北市板橋區松柏街90號","121.476605","25.0304883333333","6500100","板橋區"
"220004","276-BY","2019/07/12 14:19:13","新北市板橋區信義路279巷11-3號","121.462325","24.9896166666667","6500100","板橋區"
"220020","277-BY","2019/07/12 14:19:19","新北市板橋區篤行路三段玉平巷31弄5號","121.429436666667","24.9868583333333","6500100","板橋區"
"220043","283-UM","2019/07/12 14:19:10","新北市板橋區松江街124巷4號","121.46942","25.0302966666667","6500100","板橋區"
"220019","283-VK","2019/07/12 14:19:13","新北市板橋區大豐街15號","121.462358333333","25.0014283333333","6500100","板橋區"
"220001","285-VK","2019/07/12 14:19:13","新北市板橋區富山街10號","121.4787","25.0219866666667","6500100","板橋區"
"220031","286-VK","2019/07/12 14:19:21","新北市板橋區龍興街99巷43號","121.443028333333","25.0034066666667","6500100","板橋區"
"220029","287-VK","2019/07/12 14:19:18","新北市板橋區南雅西路二段2-1號","121.453211666667","25.00874","6500100","板橋區"
"220039","288-VK","2019/07/12 14:19:17","新北市板橋區長江路一段105巷1弄1號","121.459295","25.030095","6500100","板橋區"
"220009","295-UM","2019/07/12 14:19:20","新北市板橋區中山路二段157號","121.475726666667","25.0167133333333","6500100","板橋區"
"220032","296-UM","2019/07/12 14:19:10","新北市板橋區滿平街136巷6弄11號","121.427576666667","24.9878","6500100","板橋區"
"220023","303-R5","2019/07/12 14:19:14","新北市板橋區南雅南路一段1巷29號","121.45733","25.0066383333333","6500100","板橋區"
"220010","305-R5","2019/07/12 14:19:16","新北市板橋區三民路二段153巷7弄1號","121.480636666667","25.015105","6500100","板橋區"
"220041","307-R5","2019/07/12 14:19:10","新北市板橋區文化路二段1號","121.468405","25.02381","6500100","板橋區"
"220038","487-VK","2019/07/12 14:19:21","新北市板橋區英士路76號","121.460133333333","25.0242516666667","6500100","板橋區"
"220037","491-VK","2019/07/12 14:19:19","新北市板橋區雙十路二段4-7號","121.476906666667","25.02584","6500100","板橋區"
"220104","560-BX","2019/07/12 14:19:06","新北市板橋區瑞安街31巷9號","121.456095","25.022715","6500100","板橋區"
"220052","561-BX","2019/07/12 14:19:10","新北市板橋區陽明街23巷8弄19號","121.465258333333","25.0206916666667","6500100","板橋區"
"220011","609-BX","2019/07/12 14:19:13","新北市中和區員山路570號","121.47878","25.01128","6500100","板橋區"
"220022","630-UY","2019/07/12 14:19:06","新北市板橋區北門街55號","121.45616","25.0117383333333","6500100","板橋區"
"220005","686-BX","2019/07/12 14:19:21","新北市板橋區和平路59號","121.46101","24.9945916666667","6500100","板橋區"
"220025","687-BX","2019/07/12 14:19:28","新北市板橋區大觀路二段142-1號","121.442636666667","24.9991383333333","6500100","板橋區"
"220042","689-BX","2019/07/12 14:19:11","新北市板橋區英士路151號","121.460086666667","25.0238716666667","6500100","板橋區"
"220002","741-BX","2019/07/12 14:19:08","新北市板橋區校前街42號","121.46142","25.0033483333333","6500100","板橋區"
"220051","KEA-2699","2019/07/12 14:19:19","新北市板橋區松柏街22巷36號","121.475075","25.028905","6500100","板橋區"
"220003","827-TW","2019/07/12 14:19:16","新北市板橋區新民街5號","121.463903333333","25.0096683333333","6500100","板橋區"
"220014","829-TW","2019/07/12 14:19:13","新北市板橋區長安街138巷1弄67號","121.474456666667","25.0107866666667","6500100","板橋區"
"220021","985-R7","2019/07/12 14:19:17","新北市板橋區中正路249號","121.455813333333","25.0183116666667","6500100","板橋區"
"220046","AAC-210","2019/07/12 14:19:15","新北市板橋區幸福路36號","121.461615","25.02023","6500100","板橋區"
"220012","AAC-253","2019/07/12 14:19:19","新北市板橋區中山路一段85號","121.461535","25.0100183333333","6500100","板橋區"
"235032","KEA-2873","2019/07/12 14:19:10","新北市中和區中山路二段136巷3弄6號","121.501426666667","25.0037566666667","6500300","中和區"
"235025","KEA-2875","2019/07/12 14:19:19","新北市中和區民安街22巷3號","121.480263333333","25.0009016666667","6500300","中和區"
