"lineid","car","time","location","longitude","latitude","cityid","cityname"
"249005","172-UM","2019/07/12 17:19:20","新北市五股區民義路二段132號","121.408113333333","25.1213383333333","6502300","八里區"
"249001","173-UM","2019/07/12 17:19:09","新北市八里區中華路二段165巷3號","121.407621666667","25.1508916666667","6502300","八里區"
"249004","303-UY","2019/07/12 17:19:11","新北市八里區大崁三街15-5號","121.416381666667","25.1573633333333","6502300","八里區"
"249002","305-UY","2019/07/12 17:19:08","新北市八里區龍米路二段117巷26號","121.444778333333","25.14277","6502300","八里區"
"249003","593-UM","2019/07/12 17:19:13","新北市八里區中山路二段459號","121.396353333333","25.14537","6502300","八里區"
"244007","080-UY","2019/07/12 17:19:16","新北市林口區湖北里2鄰9號","121.387921666667","25.0897866666667","6501700","林口區"
"244019","402-UM","2019/07/12 17:19:26","新北市林口區公園路227號","121.374023333333","25.07443","6501700","林口區"
"244013","KEA-2802","2019/07/12 17:19:13","新北市林口區粉寮69號","121.404775","25.09077","6501700","林口區"
"244023","483-VK","2019/07/12 17:19:25","新北市林口區隆林街93號","121.385565","25.0750216666667","6501700","林口區"
"244009","656-BX","2019/07/12 17:19:22","新北市林口區民享路362號","121.384476666667","25.0870116666667","6501700","林口區"
"244011","701-TV","2019/07/12 17:19:13","新北市林口區中山路2號","121.396758333333","25.0783516666667","6501700","林口區"
"244025","837-TS","2019/07/12 17:19:25","新北市林口區仁愛二路63號","121.368548333333","25.075435","6501700","林口區"
"244021","838-TS","2019/07/12 17:19:23","新北市林口區粉寮路二段1-1號","121.400401666667","25.0836633333333","6501700","林口區"
"231046","719-UM","2019/07/12 17:12:44","新北市新店區直潭路60號","121.531696666667","24.9411783333333","6500600","新店區"
"241011","013-R5","2019/07/12 17:19:27","新北市三重區河邊北街128巷2號","121.503426666667","25.0716516666667","6500200","三重區"
"241028","022-UY","2019/07/12 17:19:17","新北市三重區中正南路81號","121.494241666667","25.058595","6500200","三重區"
"241008","059-VK","2019/07/12 17:19:18","新北市三重區永福街72巷33號","121.480141666667","25.0763033333333","6500200","三重區"
"241015","062-VK","2019/07/12 17:19:22","新北市三重區福德北路89號","121.501876666667","25.0662283333333","6500200","三重區"
"241017","063-VK","2019/07/12 17:19:25","新北市三重區大同北路52號","121.495131666667","25.0630983333333","6500200","三重區"
"241024","065-VK","2019/07/12 17:19:13","新北市三重區中正北路193巷11弄34號","121.478241666667","25.0705383333333","6500200","三重區"
"241023","066-VK","2019/07/12 17:19:26","新北市三重區忠孝路三段50巷31號","121.481848333333","25.065095","6500200","三重區"
"241002","090-VK","2019/07/12 17:19:11","新北市三重區仁義街283號","121.495671666667","25.08366","6500200","三重區"
"241003","091-VK","2019/07/12 17:19:09","新北市三重區五華街148號","121.491073333333","25.0838866666667","6500200","三重區"
"241030","742-BX","2019/07/12 17:19:26","新北市三重區成功路73巷40號","121.489781666667","25.05247","6500200","三重區"
"241016","266-UM","2019/07/12 17:18:52","新北市三重區大同北路54巷1號","121.494163333333","25.0636383333333","6500200","三重區"
"241009","267-UM","2019/07/12 17:19:25","新北市三重區仁愛街598號","121.484155","25.0809516666667","6500200","三重區"
"241018","268-UM","2019/07/12 17:19:21","新北市三重區安慶街181號","121.493383333333","25.06845","6500200","三重區"
"241032","269-UM","2019/07/12 17:19:19","新北市三重區中華路2巷2號","121.483086666667","25.0602166666667","6500200","三重區"
"241013","270-UM","2019/07/12 17:19:13","新北市三重區三和路三段107巷24號","121.495058333333","25.0731183333333","6500200","三重區"
"241025","271-UM","2019/07/12 17:19:12","新北市三重區中正北路181號","121.477778333333","25.0696183333333","6500200","三重區"
"241007","398-BY","2019/07/12 17:19:27","新北市三重區三和路四段155巷33號","121.48489","25.0787333333333","6500200","三重區"
"241006","462-BY","2019/07/12 17:19:10","新北市三重區中正北路315巷6弄94號","121.477443333333","25.07332","6500200","三重區"
"241004","475-VK","2019/07/12 17:19:26","新北市三重區集賢路87-1號","121.493618333333","25.0868083333333","6500200","三重區"
"241020","478-VK","2019/07/12 17:19:26","新北市三重區忠孝路一段127號","121.488713333333","25.0720633333333","6500200","三重區"
"241026","480-VK","2019/07/12 17:19:10","新北市三重區正義南路60-6號","121.498375","25.06015","6500200","三重區"
"241014","543-UM","2019/07/12 17:19:17","新北市三重區三和路二段83號","121.500113333333","25.0684283333333","6500200","三重區"
"241001","547-UM","2019/07/12 17:19:26","新北市三重區仁愛街385號","121.491366666667","25.0806133333333","6500200","三重區"
"241019","KEA-2593","2019/07/12 17:19:24","新北市三重區自強路二段100號","121.487421666667","25.0711816666667","6500200","三重區"
"241022","KED-0820","2019/07/12 17:19:20","新北市三重區中正北路64巷11號","121.486268333333","25.0641066666667","6500200","三重區"
"241005","887-TS","2019/07/12 17:19:22","新北市三重區永安北路二段25巷18號","121.482598333333","25.0819083333333","6500200","三重區"
"241012","941-UM","2019/07/12 17:19:13","新北市三重區河邊北街272號","121.501598333333","25.0766416666667","6500200","三重區"
"241033","AAC-255","2019/07/12 17:19:25","新北市三重區中興北街162號","121.469028333333","25.056995","6500200","三重區"
"235064","005-UY","2019/07/12 17:19:19","新北市中和區員山路36巷16-3號","121.484978333333","24.9913016666667","6500300","中和區"
"247014","KEA-2869","2019/07/12 17:19:09","新北市蘆洲區光華路11-1號","121.469941666667","25.0833133333333","6501400","蘆洲區"
"247008","KED-0682","2019/07/12 17:19:14","新北市蘆洲區永安北路一段72巷17號","121.47649","25.0770033333333","6501400","蘆洲區"
"247004","893-R6","2019/07/12 17:19:12","新北市蘆洲區永安南路二段286號","121.45778","25.0812516666667","6501400","蘆洲區"
"247018","546-UM","2019/07/12 17:19:08","新北市蘆洲區民權路96巷5弄1號","121.47467","25.08852","6501400","蘆洲區"
"247024","337-TH","2019/07/12 17:19:22","新北市蘆洲區光榮路2號","121.460345","25.08628","6501400","蘆洲區"
"247002","336-TH","2019/07/12 17:19:12","新北市蘆洲區永樂街38巷33弄6號","121.457955","25.0896566666667","6501400","蘆洲區"
"247022","057-VK","2019/07/12 17:19:13","新北市蘆洲區三民路134號","121.470966666667","25.087785","6501400","蘆洲區"
"247012","056-VK","2019/07/12 17:19:18","新北市蘆洲區信義路319巷12號","121.477695","25.0863033333333","6501400","蘆洲區"
"247016","053-VK","2019/07/12 17:19:16","新北市蘆洲區正和街96巷7號","121.46767","25.0811466666667","6501400","蘆洲區"
"247020","007-UY","2019/07/12 17:19:19","新北市蘆洲區仁愛街35巷12號","121.47156","25.092625","6501400","蘆洲區"
"247006","002-UY","2019/07/12 17:19:19","新北市蘆洲區長安街73巷10號","121.462191666667","25.079595","6501400","蘆洲區"
"228001","212-TW","2019/07/12 17:19:12","新北市貢寮區仁理村仁和路72號","121.922795","25.050055","6502600","貢寮區"
"228002","663-BX","2019/07/12 17:19:26","新北市貢寮區雙玉里田寮洋街43號","121.925961666667","25.0127033333333","6502600","貢寮區"
"228003","828-UM","2019/07/12 17:19:14","新北市貢寮區福隆里興隆街24-1號","121.944423333333","25.0166466666667","6502600","貢寮區"
"224006","676-BX","2019/07/12 17:19:19","新北市瑞芳區大寮路2-1號","121.78568","25.1012383333333","6501200","瑞芳區"
"224009","275-VK","2019/07/12 17:19:12","新北市瑞芳區汽車路123號","121.839525","25.11042","6501200","瑞芳區"
"224008","273-VK","2019/07/12 17:19:17","新北市瑞芳區侯硐路48號","121.825773333333","25.08295","6501200","瑞芳區"
"224005","271-BY","2019/07/12 17:19:21","新北市瑞芳區鼻頭路247號","121.912691666667","25.123855","6501200","瑞芳區"
"227001","642-TC","2019/07/12 17:19:15","新北市雙溪區三貂里政光路3號","121.85136","25.0632133333333","6502500","雙溪區"
"227002","400-TW","2019/07/12 17:19:17","新北市雙溪區雙溪里太平路2號","121.863548333333","25.0349033333333","6502500","雙溪區"
"251004","009-UM","2019/07/12 17:12:23","新北市淡水區中正東路二段88巷15號","121.459063333333","25.15047","6501000","淡水區"
"251008","181-VK","2019/07/12 17:19:25","新北市淡水區大同路272號","121.467025","25.1415683333333","6501000","淡水區"
"251010","413-VK","2019/07/12 17:19:28","新北市淡水區中正路一段22巷100號","121.426771666667","25.18575","6501000","淡水區"
"251012","441-VK","2019/07/12 17:19:15","新北市淡水區中山北路一段158號","121.44424","25.1778983333333","6501000","淡水區"
"251007","442-VK","2019/07/12 17:19:25","新北市淡水區民生路56號","121.462006666667","25.13793","6501000","淡水區"
"251005","443-VK","2019/07/12 17:19:10","新北市淡水區鄧公路19號","121.451425","25.17003","6501000","淡水區"
"251006","561-UM","2019/07/12 17:19:09","新北市淡水區中山路190號","121.441445","25.1744733333333","6501000","淡水區"
"251009","575-R6","2019/07/12 17:19:14","新北市淡水區三民街19號","121.439013333333","25.171815","6501000","淡水區"
"251011","650-BX","2019/07/12 17:19:13","新北市淡水區坪頂路139號","121.466536666667","25.1615733333333","6501000","淡水區"
"251002","672-BX","2019/07/12 17:19:26","新北市淡水區中正路二段31號","121.419343333333","25.181635","6501000","淡水區"
"251003","766-UM","2019/07/12 17:19:08","新北市淡水區中正路二段31號","121.419353333333","25.1823083333333","6501000","淡水區"
"207003","550-UM","2019/07/12 17:19:11","新北市萬里區萬里里獅頭路23號","121.693498333333","25.1782416666667","6502800","萬里區"
"252002","178-VK","2019/07/12 17:19:24","新北市三芝區忠孝街1-15號","121.505575","25.2539366666667","6502100","三芝區"
"233002","762-BX","2019/07/12 17:19:26","新北市烏來區環山路82巷82號","121.547433333333","24.86363","6502900","烏來區"
"247010","KED-0683","2019/07/12 17:19:08","新北市蘆洲區中山一路120巷7弄33號","121.476885","25.0825783333333","6501400","蘆洲區"
"252001","KED-0821","2019/07/12 17:19:10","新北市三芝區長安街119號","121.498016666667","25.2596366666667","6502100","三芝區"
"242039","AAC-296","2019/07/12 17:19:16","新北市新莊區新樹路207號","121.435915","25.0240583333333","6500500","新莊區"
"242060","986-R7","2019/07/12 17:19:12","新北市新莊區新泰路357巷3弄57號","121.442338333333","25.0393266666667","6500500","新莊區"
"242002","751-BX","2019/07/12 17:19:12","新北市新莊區瓊林路19號","121.445636666667","25.02872","6500500","新莊區"
"242029","615-BX","2019/07/12 17:19:16","新北市新莊區新泰路488號","121.442433333333","25.0458616666667","6500500","新莊區"
"242027","613-BX","2019/07/12 17:19:09","新北市新莊區中港路301號","121.452776666667","25.044465","6500500","新莊區"
"242058","612-BX","2019/07/12 17:19:20","新北市新莊區新泰路357巷3弄57號","121.442128333333","25.0391533333333","6500500","新莊區"
"242046","566-BX","2019/07/12 17:19:27","新北市新莊區新泰路357巷2-2號","121.442013333333","25.0411966666667","6500500","新莊區"
"242050","497-BY","2019/07/12 17:19:09","新北市新莊區瓊林南路25-2號","121.436715","25.019485","6500500","新莊區"
"242056","441-UM","2019/07/12 17:19:24","新北市新莊區中正路473-1號","121.442093333333","25.0330666666667","6500500","新莊區"
"242005","440-UM","2019/07/12 17:19:17","新北市新莊區中平路82巷32號","121.446143333333","25.0447866666667","6500500","新莊區"
"242041","415-TV","2019/07/12 17:19:21","新北市新莊區新樹路52-7號","121.436935","25.0271916666667","6500500","新莊區"
"242048","400-BY","2019/07/12 17:19:12","新北市新莊區中正路612-1號","121.426081666667","25.0301033333333","6500500","新莊區"
"242025","362-BY","2019/07/12 17:19:17","新北市新莊區新泰路500號","121.442493333333","25.0459383333333","6500500","新莊區"
"242023","353-BY","2019/07/12 17:19:25","新北市新莊區新泰路488號","121.442441666667","25.0457333333333","6500500","新莊區"
"242013","132-UY","2019/07/12 17:19:24","新北市新莊區中環路二段392-1號","121.442456666667","25.0454566666667","6500500","新莊區"
"242037","135-UY","2019/07/12 17:19:13","新北市新莊區中正路481號","121.441365","25.03377","6500500","新莊區"
"242054","172-VK","2019/07/12 17:19:17","新北市新莊區新莊路664-2號","121.442196666667","25.0330783333333","6500500","新莊區"
"242015","173-VK","2019/07/12 17:19:13","新北市新莊區三和路12-21號","121.442036666667","25.0387116666667","6500500","新莊區"
"242021","175-VK","2019/07/12 17:19:25","新北市新莊區中平路82巷36-2號","121.446405","25.0449133333333","6500500","新莊區"
"242019","KED-0687","2019/07/12 17:19:25","新北市新莊區新泰路286號","121.445781666667","25.0405266666667","6500500","新莊區"
"242011","346-TH","2019/07/12 17:19:14","新北市新莊區中平路73號","121.44474","25.0449233333333","6500500","新莊區"
"242034","348-TH","2019/07/12 17:19:09","新北市新莊區中正路461號","121.44201","25.0340666666667","6500500","新莊區"
"242007","349-TH","2019/07/12 17:19:15","新北市新莊區中環路二段392-1號","121.442383333333","25.0455383333333","6500500","新莊區"
"242032","350-TH","2019/07/12 17:19:24","新北市新莊區中環路二段392-1號","121.442323333333","25.0452933333333","6500500","新莊區"
"242017","351-TH","2019/07/12 17:19:19","新北市新莊區中環路二段392-1號","121.442431666667","25.0454933333333","6500500","新莊區"
"238023","601-UM","2019/07/12 17:19:12","新北市樹林區保安街二段275-1號","121.41274","25.005695","6500700","樹林區"
"238024","5061-A6","2019/07/12 17:19:12","新北市樹林區樹新路81號","121.427586666667","24.9953783333333","6500700","樹林區"
"238018","KEA-2217","2019/07/12 17:19:28","新北市樹林區鎮前街269巷15號","121.420178333333","24.9853983333333","6500700","樹林區"
"238022","KEA-2213","2019/07/12 17:19:25","新北市樹林區仁愛街73巷1號","121.423526666667","24.9827583333333","6500700","樹林區"
"238021","KEA-2539","2019/07/12 17:19:20","新北市樹林區西圳街一段146號","121.395926666667","24.9626966666667","6500700","樹林區"
"238025","303-VK","2019/07/12 17:19:23","新北市樹林區保安二街69號","121.42461","24.9949866666667","6500700","樹林區"
"238017","283-BY","2019/07/12 17:19:13","新北市樹林區光武街7-3號","121.415766666667","25.0053666666667","6500700","樹林區"
"238016","169-UY","2019/07/12 17:18:57","新北市樹林區中山路一段146號","121.422646666667","24.9900683333333","6500700","樹林區"
"239007","AAC-297","2019/07/12 17:19:18","新北市鶯歌區光復街27號","121.351333333333","24.955505","6500800","鶯歌區"
"239006","891-R6","2019/07/12 17:19:22","新北市鶯歌區福昌街10號","121.333195","24.9608416666667","6500800","鶯歌區"
"239008","527-UM","2019/07/12 17:19:23","新北市鶯歌區中山路48號","121.352136666667","24.9570433333333","6500800","鶯歌區"
"239005","526-UM","2019/07/12 17:19:01","新北市鶯歌區鶯桃路551號","121.330321666667","24.968015","6500800","鶯歌區"
"239001","417-VK","2019/07/12 17:19:21","新北市鶯歌區尖山路260號","121.34236","24.9461766666667","6500800","鶯歌區"
"239003","360-BY","2019/07/12 17:19:13","新北市鶯歌區德昌二街71號","121.33344","24.9581983333333","6500800","鶯歌區"
"239002","359-BY","2019/07/12 17:19:27","新北市鶯歌區建國路302號","121.344598333333","24.9526166666667","6500800","鶯歌區"
"239004","193-VK","2019/07/12 17:19:25","新北市鶯歌區文化路256巷15弄31號","121.35226","24.9469033333333","6500800","鶯歌區"
"233001","KEA-2870","2019/07/12 17:19:20","新北市烏來區瀑布5號","121.551548333333","24.8483533333333","6502900","烏來區"
"242044","281-VK","2019/07/12 17:19:18","新北市新莊區中正路400號","121.441766666667","25.0339083333333","6500500","新莊區"
"242009","280-VK","2019/07/12 17:19:26","新北市新莊區中環路二段392-1號","121.442385","25.0456333333333","6500500","新莊區"
