"lineid","car","time","location","longitude","latitude","cityid","cityname"
"249005","172-UM","2019/07/12 17:29:20","新北市八里區荖阡坑路28-8號","121.404128333333","25.1289816666667","6502300","八里區"
"249001","173-UM","2019/07/12 17:29:09","新北市八里區龍米路三段45號","121.424663333333","25.1590133333333","6502300","八里區"
"249004","303-UY","2019/07/12 17:29:11","新北市八里區民治街173號","121.413371666667","25.1567583333333","6502300","八里區"
"249002","305-UY","2019/07/12 17:29:28","新北市八里區龍米路一段446號","121.450486666667","25.1345416666667","6502300","八里區"
"249003","593-UM","2019/07/12 17:29:13","新北市八里區中山路二段313號","121.400735","25.1478483333333","6502300","八里區"
"232011","375-UM","2019/07/12 17:29:23","新北市坪林區鶯子瀨11-2號","121.710906666667","24.915225","6502000","坪林區"
"244007","080-UY","2019/07/12 17:29:16","新北市林口區中湖46號","121.382943333333","25.0952583333333","6501700","林口區"
"244019","402-UM","2019/07/12 17:29:26","新北市林口區文化一路一段137號","121.373551666667","25.0721383333333","6501700","林口區"
"244013","KEA-2802","2019/07/12 17:29:13","新北市林口區中山路202號","121.388398333333","25.079115","6501700","林口區"
"244023","483-VK","2019/07/12 17:29:25","新北市林口區東明一街35巷2號","121.392331666667","25.072015","6501700","林口區"
"244009","656-BX","2019/07/12 17:29:22","新北市林口區中北三街266號","121.382076666667","25.08233","6501700","林口區"
"244011","701-TV","2019/07/12 17:29:13","新北市林口區仁愛路一段675號","121.387263333333","25.0766533333333","6501700","林口區"
"244025","837-TS","2019/07/12 17:29:25","新北市林口區文化二路一段241巷28號","121.36608","25.0717433333333","6501700","林口區"
"244021","838-TS","2019/07/12 17:29:23","新北市林口區中山路1號","121.396746666667","25.077965","6501700","林口區"
"231046","719-UM","2019/07/12 17:12:44","新北市新店區直潭路60號","121.531696666667","24.9411783333333","6500600","新店區"
"241011","013-R5","2019/07/12 17:29:14","新北市三重區河邊北街100巷35號","121.502418333333","25.0701366666667","6500200","三重區"
"241008","059-VK","2019/07/12 17:29:18","新北市三重區永福街136號","121.479868333333","25.0746566666667","6500200","三重區"
"241015","062-VK","2019/07/12 17:29:22","新北市三重區三和路一段47巷13號","121.50385","25.0655766666667","6500200","三重區"
"241017","063-VK","2019/07/12 17:29:25","新北市三重區重新路三段45-6號","121.49344","25.0617583333333","6500200","三重區"
"241024","065-VK","2019/07/12 17:29:13","新北市三重區大勇街82巷11號","121.479586666667","25.0716133333333","6500200","三重區"
"241023","066-VK","2019/07/12 17:29:06","新北市三重區忠孝路三段50巷54號","121.48233","25.0650083333333","6500200","三重區"
"241003","091-VK","2019/07/12 17:29:09","新北市三重區進安街76號","121.496165","25.0845316666667","6500200","三重區"
"241030","742-BX","2019/07/12 17:29:26","新北市三重區中正南路281號","121.49321","25.0521683333333","6500200","三重區"
"241016","266-UM","2019/07/12 17:29:12","新北市三重區信義西街41號","121.495295","25.0640516666667","6500200","三重區"
"241009","267-UM","2019/07/12 17:29:25","新北市三重區永福街127號","121.478943333333","25.0770083333333","6500200","三重區"
"241013","270-UM","2019/07/12 17:29:13","新北市三重區仁愛街124號","121.494861666667","25.074795","6500200","三重區"
"241007","398-BY","2019/07/12 17:29:07","新北市三重區三和路四段145巷157號","121.487603333333","25.0792283333333","6500200","三重區"
"241020","478-VK","2019/07/12 17:29:26","新北市三重區忠孝路三段34號","121.481208333333","25.0666916666667","6500200","三重區"
"241014","543-UM","2019/07/12 17:29:17","新北市三重區安和路17號","121.501336666667","25.06846","6500200","三重區"
"241001","547-UM","2019/07/12 17:29:26","新北市三重區仁政街107號","121.491903333333","25.0785316666667","6500200","三重區"
"241019","KEA-2593","2019/07/12 17:29:24","新北市三重區六張街156號","121.48953","25.0688483333333","6500200","三重區"
"241005","887-TS","2019/07/12 17:29:22","新北市三重區永安北路二段25巷8號","121.482305","25.0820883333333","6500200","三重區"
"241012","941-UM","2019/07/12 17:29:13","新北市三重區龍濱路285號","121.501078333333","25.0734","6500200","三重區"
"241033","AAC-255","2019/07/12 17:29:25","新北市三重區光復路二段42巷40號","121.469085","25.0543716666667","6500200","三重區"
"235064","005-UY","2019/07/12 17:29:18","新北市中和區員山路36巷16-3號","121.484903333333","24.991265","6500300","中和區"
"247014","KEA-2869","2019/07/12 17:29:29","新北市蘆洲區三民路38-2號","121.475531666667","25.0829383333333","6501400","蘆洲區"
"247008","KED-0682","2019/07/12 17:29:14","新北市蘆洲區民生街109號","121.473348333333","25.0787116666667","6501400","蘆洲區"
"247004","893-R6","2019/07/12 17:29:12","新北市蘆洲區長安街229號","121.45944","25.08282","6501400","蘆洲區"
"247018","546-UM","2019/07/12 17:29:08","新北市蘆洲區民義街22巷7號","121.471668333333","25.08834","6501400","蘆洲區"
"247024","337-TH","2019/07/12 17:29:22","新北市蘆洲區長興路296-5號","121.460403333333","25.089885","6501400","蘆洲區"
"247002","336-TH","2019/07/12 17:29:20","新北市蘆洲區永樂街38巷57弄26號","121.457251666667","25.09081","6501400","蘆洲區"
"247022","057-VK","2019/07/12 17:29:10","新北市蘆洲區三民路289號","121.466866666667","25.09032","6501400","蘆洲區"
"247012","056-VK","2019/07/12 17:29:18","新北市蘆洲區民族路42號","121.476611666667","25.08446","6501400","蘆洲區"
"247016","053-VK","2019/07/12 17:29:16","新北市蘆洲區光華路22巷53號","121.46806","25.0849566666667","6501400","蘆洲區"
"247020","007-UY","2019/07/12 17:29:19","新北市蘆洲區水湳街150號","121.470041666667","25.0937516666667","6501400","蘆洲區"
"247006","002-UY","2019/07/12 17:29:18","新北市蘆洲區長安街68巷47號","121.464176666667","25.081155","6501400","蘆洲區"
"228001","212-TW","2019/07/12 17:29:13","新北市貢寮區仁理村仁愛路54號","121.925425","25.0533133333333","6502600","貢寮區"
"228002","663-BX","2019/07/12 17:29:11","新北市貢寮區福隆里福隆街18號","121.944993333333","25.0165083333333","6502600","貢寮區"
"228003","828-UM","2019/07/12 17:29:17","新北市貢寮區仁理村仁和路2-2號","121.923331666667","25.0484733333333","6502600","貢寮區"
"224010","AGQ-8101","2019/07/12 17:29:21","新北市瑞芳區逢甲路61號","121.8081","25.1093116666667","6501200","瑞芳區"
"224006","676-BX","2019/07/12 17:29:19","新北市瑞芳區靜安路四段92號","121.793211666667","25.1099733333333","6501200","瑞芳區"
"224009","275-VK","2019/07/12 17:29:12","新北市瑞芳區汽車路18號","121.845321666667","25.11006","6501200","瑞芳區"
"224008","273-VK","2019/07/12 17:29:17","新北市瑞芳區侯硐路204號","121.83041","25.0882333333333","6501200","瑞芳區"
"224005","271-BY","2019/07/12 17:29:21","新北市瑞芳區哩咾路1號","121.872913333333","25.1241983333333","6501200","瑞芳區"
"227001","642-TC","2019/07/12 17:20:36","新北市雙溪區三貂里定福路1-2號","121.85072","25.0634166666667","6502500","雙溪區"
"227002","400-TW","2019/07/12 17:23:59","新北市雙溪區共和里東榮街52號","121.866313333333","25.0336483333333","6502500","雙溪區"
"251004","009-UM","2019/07/12 17:12:23","新北市淡水區中正東路二段88巷15號","121.459063333333","25.15047","6501000","淡水區"
"251008","181-VK","2019/07/12 17:29:25","新北市淡水區大同路26-1號","121.462493333333","25.140125","6501000","淡水區"
"251010","413-VK","2019/07/12 17:29:08","新北市淡水區中正路二段211號","121.42618","25.1891166666667","6501000","淡水區"
"251012","441-VK","2019/07/12 17:29:15","新北市淡水區北新路124號","121.448038333333","25.1782783333333","6501000","淡水區"
"251007","442-VK","2019/07/12 17:29:25","新北市淡水區民生路47-4號","121.462016666667","25.1380033333333","6501000","淡水區"
"251005","443-VK","2019/07/12 17:29:10","新北市淡水區鄧公路31巷1號","121.451285","25.170905","6501000","淡水區"
"251006","561-UM","2019/07/12 17:29:29","新北市淡水區大仁街13號","121.442338333333","25.175005","6501000","淡水區"
"251009","575-R6","2019/07/12 17:29:14","新北市淡水區新生街30巷1號","121.438911666667","25.173225","6501000","淡水區"
"251011","650-BX","2019/07/12 17:29:13","新北市淡水區三空泉8-1號","121.475956666667","25.1612766666667","6501000","淡水區"
"251002","672-BX","2019/07/12 17:29:06","新北市淡水區中正路二段38號","121.419486666667","25.1824","6501000","淡水區"
"251003","766-UM","2019/07/12 17:29:28","新北市淡水區中山路157號","121.440731666667","25.17283","6501000","淡水區"
"207003","550-UM","2019/07/12 17:29:23","新北市萬里區龜吼里美崙路93號","121.685298333333","25.1851066666667","6502800","萬里區"
"207004","225-TW","2019/07/12 17:29:13","新北市萬里區萬里里景美路15號","121.687435","25.1742466666667","6502800","萬里區"
"252002","178-VK","2019/07/12 17:29:24","新北市三芝區忠孝街1-15號","121.505596666667","25.2539583333333","6502100","三芝區"
"233002","762-BX","2019/07/12 17:29:11","新北市烏來區溫泉街2號","121.54937","24.8652266666667","6502900","烏來區"
"247010","KED-0683","2019/07/12 17:29:28","新北市蘆洲區信義路161號","121.479826666667","25.0818833333333","6501400","蘆洲區"
"252001","KED-0821","2019/07/12 17:29:10","新北市三芝區長安街119號","121.498013333333","25.259635","6502100","三芝區"
"242039","AAC-296","2019/07/12 17:29:16","新北市新莊區民安路278號","121.427665","25.02156","6500500","新莊區"
"242060","986-R7","2019/07/12 17:29:12","新北市新莊區中正路461號","121.442058333333","25.0341266666667","6500500","新莊區"
"242002","751-BX","2019/07/12 17:29:12","新北市新莊區新莊路154號","121.455183333333","25.0354916666667","6500500","新莊區"
"242029","615-BX","2019/07/12 17:29:16","新北市新莊區幸福路90號","121.45627","25.0493866666667","6500500","新莊區"
"242027","613-BX","2019/07/12 17:29:09","新北市新莊區思源路32號","121.460333333333","25.04055","6500500","新莊區"
"242058","612-BX","2019/07/12 17:29:20","新北市新莊區中正路400號","121.441915","25.0342583333333","6500500","新莊區"
"242046","566-BX","2019/07/12 17:29:27","新北市新莊區新樹路65-5號","121.439385","25.0308116666667","6500500","新莊區"
"242050","497-BY","2019/07/12 17:29:09","新北市新莊區新樹路447號","121.43281","25.013465","6500500","新莊區"
"242056","441-UM","2019/07/12 17:29:24","新北市新莊區景德路261號","121.448198333333","25.0336066666667","6500500","新莊區"
"242005","440-UM","2019/07/12 17:29:17","新北市新莊區中港路282號","121.452945","25.0440733333333","6500500","新莊區"
"242041","415-TV","2019/07/12 17:29:20","新北市新莊區新樹路113巷33號","121.439571666667","25.0264166666667","6500500","新莊區"
"242048","400-BY","2019/07/12 17:29:12","新北市新莊區龍安路252-2號","121.42124","25.01962","6500500","新莊區"
"242025","362-BY","2019/07/12 17:29:17","新北市新莊區中港路266號","121.453273333333","25.043865","6500500","新莊區"
"242023","353-BY","2019/07/12 17:29:25","新北市新莊區公園路152號","121.453205","25.04011","6500500","新莊區"
"242013","132-UY","2019/07/12 17:29:24","新北市新莊區中誠街14號","121.452046666667","25.048155","6500500","新莊區"
"242037","135-UY","2019/07/12 17:29:13","新北市新莊區新樹路136巷32號","121.434005","25.0261283333333","6500500","新莊區"
"242054","172-VK","2019/07/12 17:29:17","新北市新莊區瓊林南路275巷18號","121.436073333333","25.0063633333333","6500500","新莊區"
"242015","173-VK","2019/07/12 17:29:13","新北市新莊區建中街69號","121.447605","25.036845","6500500","新莊區"
"242021","175-VK","2019/07/12 17:29:25","新北市新莊區中正路130號","121.452823333333","25.0362883333333","6500500","新莊區"
"242019","KED-0687","2019/07/12 17:29:25","新北市新莊區中港路五守新村16巷10號","121.45478","25.0390733333333","6500500","新莊區"
"242011","346-TH","2019/07/12 17:29:14","新北市新莊區中港路467號","121.452386666667","25.0490283333333","6500500","新莊區"
"242034","348-TH","2019/07/12 17:29:29","新北市新莊區新莊路364號","121.449518333333","25.03344","6500500","新莊區"
"242007","349-TH","2019/07/12 17:29:15","新北市新莊區自強街22號","121.454753333333","25.0459866666667","6500500","新莊區"
"242032","350-TH","2019/07/12 17:29:24","新北市新莊區新泰路462號","121.443393333333","25.044925","6500500","新莊區"
"242017","351-TH","2019/07/12 17:29:19","新北市新莊區中華路一段103號","121.452756666667","25.043925","6500500","新莊區"
"238015","755-BX","2019/07/12 17:29:08","新北市樹林區復興路31號","121.422406666667","24.99392","6500700","樹林區"
"238023","601-UM","2019/07/12 17:29:12","新北市樹林區三福街114號","121.4065","25.0162733333333","6500700","樹林區"
"238024","5061-A6","2019/07/12 17:29:12","新北市樹林區鎮前街144號","121.42462","24.9904133333333","6500700","樹林區"
"238018","KEA-2217","2019/07/12 17:29:08","新北市樹林區鎮前街113號","121.424231666667","24.9896933333333","6500700","樹林區"
"238022","KEA-2213","2019/07/12 17:29:25","新北市樹林區仁愛街12巷2號","121.421796666667","24.981795","6500700","樹林區"
"238021","KEA-2539","2019/07/12 17:29:21","新北市樹林區西圳街一段203巷35號","121.394755","24.9578316666667","6500700","樹林區"
"238025","303-VK","2019/07/12 17:29:07","新北市樹林區保安街一段390號","121.417178333333","24.9989683333333","6500700","樹林區"
"238017","283-BY","2019/07/12 17:29:13","新北市樹林區中正路246號","121.417946666667","25.0075166666667","6500700","樹林區"
"238020","268-VK","2019/07/12 17:29:20","新北市樹林區千歲街101號","121.42853","25.000865","6500700","樹林區"
"238026","172-UY","2019/07/12 17:29:26","新北市樹林區味王街1號","121.404226666667","24.9747833333333","6500700","樹林區"
"238016","169-UY","2019/07/12 17:26:37","新北市樹林區日新街26號","121.422998333333","24.9926766666667","6500700","樹林區"
"239007","AAC-297","2019/07/12 17:29:18","新北市鶯歌區中正一路187號","121.353306666667","24.9568883333333","6500800","鶯歌區"
"239006","891-R6","2019/07/12 17:29:22","新北市鶯歌區鶯桃路472巷21號","121.33308","24.9659566666667","6500800","鶯歌區"
"239008","527-UM","2019/07/12 17:29:23","新北市鶯歌區西湖街243巷15-1號","121.338985","24.9652916666667","6500800","鶯歌區"
"239005","526-UM","2019/07/12 17:29:21","新北市鶯歌區福隆一街26號","121.325348333333","24.9716066666667","6500800","鶯歌區"
"239001","417-VK","2019/07/12 17:29:21","新北市鶯歌區中正三路136號","121.336458333333","24.9400783333333","6500800","鶯歌區"
"239003","360-BY","2019/07/12 17:29:15","新北市鶯歌區鶯桃路297-1號","121.334666666667","24.96038","6500800","鶯歌區"
"239002","359-BY","2019/07/12 17:29:07","新北市鶯歌區建國路158號","121.350595","24.9536683333333","6500800","鶯歌區"
"239004","193-VK","2019/07/12 17:29:25","新北市鶯歌區三鶯路29巷28號","121.354041666667","24.9397066666667","6500800","鶯歌區"
"233001","KEA-2870","2019/07/12 17:29:20","新北市烏來區信福路169-2號","121.523936666667","24.8344016666667","6502900","烏來區"
"242044","281-VK","2019/07/12 17:29:18","新北市新莊區富國路107號","121.423393333333","25.0249633333333","6500500","新莊區"
"242009","280-VK","2019/07/12 17:29:26","新北市新莊區中原路228號","121.45326","25.0546616666667","6500500","新莊區"
