"lineid","car","time","location","longitude","latitude","cityid","cityname"
"234026","9371-KE","2019/07/12 17:39:19","新北市永和區永和路一段147-1號","121.51422","25.0091383333333","6500400","永和區"
"249005","172-UM","2019/07/12 17:39:20","新北市八里區荖阡坑路34-1號","121.402728333333","25.1296716666667","6502300","八里區"
"249001","173-UM","2019/07/12 17:39:29","新北市八里區龍米路二段157-2號","121.439743333333","25.1537383333333","6502300","八里區"
"249004","303-UY","2019/07/12 17:39:11","新北市八里區中華路一段81巷15號","121.420165","25.156885","6502300","八里區"
"249002","305-UY","2019/07/12 17:39:28","新北市八里區龍形三街9巷2號","121.450648333333","25.1317816666667","6502300","八里區"
"249003","593-UM","2019/07/12 17:39:14","新北市八里區中山路二段270號","121.405015","25.1511066666667","6502300","八里區"
"232011","375-UM","2019/07/12 17:39:23","新北市坪林區北宜路八段141號","121.706601666667","24.9346466666667","6502000","坪林區"
"244007","080-UY","2019/07/12 17:39:16","新北市林口區林口路194號","121.387308333333","25.083055","6501700","林口區"
"244019","402-UM","2019/07/12 17:39:27","新北市林口區忠孝路528號","121.372313333333","25.0686583333333","6501700","林口區"
"244013","KEA-2802","2019/07/12 17:39:13","新北市林口區中正路505巷4號","121.38331","25.077185","6501700","林口區"
"244023","483-VK","2019/07/12 17:39:25","新北市林口區興林路150號","121.388351666667","25.0715466666667","6501700","林口區"
"244017","485-VK","2019/07/12 17:39:26","新北市林口區文化二路一段220號","121.369406666667","25.0723666666667","6501700","林口區"
"244009","656-BX","2019/07/12 17:39:22","新北市林口區寶林路269號","121.384475","25.0847666666667","6501700","林口區"
"244011","701-TV","2019/07/12 17:39:13","新北市林口區佳林路253號","121.382856666667","25.0761233333333","6501700","林口區"
"244025","837-TS","2019/07/12 17:39:25","新北市林口區文化三路一段249巷28號","121.362765","25.0722283333333","6501700","林口區"
"244021","838-TS","2019/07/12 17:39:23","新北市林口區仁愛路一段139巷35號","121.397123333333","25.0712233333333","6501700","林口區"
"222002","016-RS","2019/07/12 17:39:25","新北市深坑區北深路一段300號","121.622586666667","25.006175","6501800","深坑區"
"222003","436-BY","2019/07/12 17:39:20","新北市深坑區深南路51-1號","121.621341666667","25.0096283333333","6501800","深坑區"
"231046","719-UM","2019/07/12 17:12:44","新北市新店區直潭路60號","121.531696666667","24.9411783333333","6500600","新店區"
"241015","062-VK","2019/07/12 17:39:22","新北市三重區三和路二段38號","121.50013","25.0678933333333","6500200","三重區"
"241024","065-VK","2019/07/12 17:39:13","新北市三重區大勇街17號","121.483108333333","25.0715566666667","6500200","三重區"
"241023","066-VK","2019/07/12 17:39:26","新北市三重區忠孝路三段84巷5號","121.480196666667","25.06437","6500200","三重區"
"241016","266-UM","2019/07/12 17:39:22","新北市三重區正義北路17號","121.497651666667","25.0631816666667","6500200","三重區"
"241007","398-BY","2019/07/12 17:39:07","新北市三重區福隆路15號","121.489776666667","25.0772066666667","6500200","三重區"
"241014","543-UM","2019/07/12 17:39:17","新北市三重區河邊北街70-3號","121.504398333333","25.0683766666667","6500200","三重區"
"241001","547-UM","2019/07/12 17:39:26","新北市三重區福隆路57號","121.491176666667","25.077805","6500200","三重區"
"241005","887-TS","2019/07/12 17:39:22","新北市三重區碧華街91號","121.485435","25.081635","6500200","三重區"
"241012","941-UM","2019/07/12 17:39:13","新北市三重區龍濱路285號","121.501068333333","25.07339","6500200","三重區"
"241033","AAC-255","2019/07/12 17:39:25","新北市三重區光復路一段138-1號","121.47201","25.0530366666667","6500200","三重區"
"235064","005-UY","2019/07/12 17:39:18","新北市中和區員山路36巷16-3號","121.484968333333","24.9913033333333","6500300","中和區"
"235063","006-UY","2019/07/12 17:39:20","新北市中和區員山路36巷16-3號","121.485013333333","24.9913516666667","6500300","中和區"
"247014","KEA-2869","2019/07/12 17:39:08","新北市蘆洲區中正路1號","121.471586666667","25.0817266666667","6501400","蘆洲區"
"247008","KED-0682","2019/07/12 17:39:25","新北市蘆洲區和平路21號","121.472155","25.0792533333333","6501400","蘆洲區"
"247004","893-R6","2019/07/12 17:39:12","新北市蘆洲區長安街249巷34號","121.457915","25.0826866666667","6501400","蘆洲區"
"247018","546-UM","2019/07/12 17:39:27","新北市蘆洲區三民路98巷11號","121.472668333333","25.08722","6501400","蘆洲區"
"247024","337-TH","2019/07/12 17:39:22","新北市蘆洲區長樂路125-1號","121.462156666667","25.0880716666667","6501400","蘆洲區"
"247002","336-TH","2019/07/12 17:39:12","新北市蘆洲區永平街38號","121.458398333333","25.0911883333333","6501400","蘆洲區"
"247022","057-VK","2019/07/12 17:39:10","新北市蘆洲區中正路325號","121.466086666667","25.0888466666667","6501400","蘆洲區"
"247012","056-VK","2019/07/12 17:39:18","新北市蘆洲區民權路3巷12號","121.475915","25.0853066666667","6501400","蘆洲區"
"247016","053-VK","2019/07/12 17:39:16","新北市蘆洲區中正路185巷31弄44號","121.467121666667","25.0831283333333","6501400","蘆洲區"
"247020","007-UY","2019/07/12 17:39:18","新北市蘆洲區民族路446-1號","121.47293","25.0919816666667","6501400","蘆洲區"
"247006","002-UY","2019/07/12 17:39:18","新北市蘆洲區長安街40號","121.463553333333","25.0795883333333","6501400","蘆洲區"
"228001","212-TW","2019/07/12 17:39:12","新北市貢寮區仁理村仁愛路95-1號","121.927665","25.0554266666667","6502600","貢寮區"
"228002","663-BX","2019/07/12 17:39:26","新北市貢寮區福隆里外隆林街14-1號","121.9592","25.0037066666667","6502600","貢寮區"
"228003","828-UM","2019/07/12 17:39:24","新北市貢寮區真理里延平街11號","121.92439","25.0546833333333","6502600","貢寮區"
"224006","676-BX","2019/07/12 17:39:23","新北市瑞芳區靜安路四段98號","121.79338","25.1104883333333","6501200","瑞芳區"
"224009","275-VK","2019/07/12 17:39:13","新北市瑞芳區山尖路215-1號","121.84876","25.1120233333333","6501200","瑞芳區"
"224008","273-VK","2019/07/12 17:39:17","新北市瑞芳區瑞柑新村10號","121.82883","25.1065366666667","6501200","瑞芳區"
"224005","271-BY","2019/07/12 17:39:21","新北市瑞芳區海濱路8-6號","121.831085","25.1259933333333","6501200","瑞芳區"
"227001","642-TC","2019/07/12 17:20:36","新北市雙溪區三貂里定福路1-2號","121.85072","25.0634166666667","6502500","雙溪區"
"227002","400-TW","2019/07/12 17:23:59","新北市雙溪區共和里東榮街52號","121.866313333333","25.0336483333333","6502500","雙溪區"
"251004","009-UM","2019/07/12 17:39:30","新北市淡水區中正東路二段145號","121.459251666667","25.1472366666667","6501000","淡水區"
"251008","181-VK","2019/07/12 17:39:25","新北市淡水區中正東路二段143巷6弄1號","121.461246666667","25.1473483333333","6501000","淡水區"
"251010","413-VK","2019/07/12 17:39:08","新北市淡水區淡海路280巷97號","121.419956666667","25.1889166666667","6501000","淡水區"
"251012","441-VK","2019/07/12 17:39:15","新北市淡水區北新路200巷8號","121.4517","25.17972","6501000","淡水區"
"251007","442-VK","2019/07/12 17:39:25","新北市淡水區民生路124巷23號","121.464241666667","25.137585","6501000","淡水區"
"251005","443-VK","2019/07/12 17:39:10","新北市淡水區鄧公路33巷1號","121.451381666667","25.171195","6501000","淡水區"
"251006","561-UM","2019/07/12 17:39:29","新北市淡水區大信街32號","121.442105","25.1771366666667","6501000","淡水區"
"251009","575-R6","2019/07/12 17:39:14","新北市淡水區中正路90-3號","121.442266666667","25.1696183333333","6501000","淡水區"
"251011","650-BX","2019/07/12 17:39:13","新北市淡水區坪頂路718號","121.482561666667","25.1584816666667","6501000","淡水區"
"251002","672-BX","2019/07/12 17:39:26","新北市淡水區文化路57號","121.43879","25.1728083333333","6501000","淡水區"
"251003","766-UM","2019/07/12 17:39:08","新北市淡水區中山北路一段33號","121.441618333333","25.1753266666667","6501000","淡水區"
"207003","550-UM","2019/07/12 17:39:24","新北市萬里區龜吼里漁澳路16號","121.686873333333","25.1948166666667","6502800","萬里區"
"207004","225-TW","2019/07/12 17:39:26","新北市萬里區中幅里中福路27-1號","121.679918333333","25.1677066666667","6502800","萬里區"
"252002","178-VK","2019/07/12 17:39:24","新北市三芝區中正路二段21號","121.504408333333","25.2553266666667","6502100","三芝區"
"237013","252-BX","2019/07/12 17:39:24","新北市三峽區愛國路33-8號","121.374735","24.9332016666667","6500900","三峽區"
"237014","433-BY","2019/07/12 17:39:17","新北市三峽區中山路459巷135號","121.348856666667","24.933085","6500900","三峽區"
"237010","706-TV","2019/07/12 17:39:26","新北市三峽區中山路138號","121.365296666667","24.9361666666667","6500900","三峽區"
"237005","AKY-6261","2019/07/12 17:39:09","新北市三峽區中山路459巷135號","121.348573333333","24.9330066666667","6500900","三峽區"
"233002","762-BX","2019/07/12 17:39:11","新北市烏來區烏來街3-2號","121.551173333333","24.8654783333333","6502900","烏來區"
"236014","270-VK","2019/07/12 17:39:24","新北市土城區城林路6巷80號","121.4386","24.979585","6501300","土城區"
"236039","271-VK","2019/07/12 17:39:10","新北市土城區城林路6巷80號","121.438493333333","24.9795716666667","6501300","土城區"
"247010","KED-0683","2019/07/12 17:39:08","新北市蘆洲區中山一路53號","121.478671666667","25.0810833333333","6501400","蘆洲區"
"236069","KEA-2877","2019/07/12 17:39:15","新北市土城區城林路6巷80號","121.438555","24.9797783333333","6501300","土城區"
"252001","KED-0821","2019/07/12 17:39:29","新北市三芝區淡金路一段83號","121.502091666667","25.2589816666667","6502100","三芝區"
"236020","401-BY","2019/07/12 17:39:22","新北市土城區城林路6巷80號","121.438815","24.97957","6501300","土城區"
"236048","913-UM","2019/07/12 17:39:16","新北市土城區城林路6巷80號","121.438551666667","24.979715","6501300","土城區"
"236063","915-UM","2019/07/12 17:39:14","新北市土城區城林路6巷80號","121.438473333333","24.97968","6501300","土城區"
"242039","AAC-296","2019/07/12 17:39:16","新北市新莊區民全街16號","121.42906","25.021945","6500500","新莊區"
"242060","986-R7","2019/07/12 17:39:12","新北市新莊區瓊林南路12-6號","121.436173333333","25.018525","6500500","新莊區"
"242002","751-BX","2019/07/12 17:39:12","新北市新莊區新莊路286號","121.451325","25.0337716666667","6500500","新莊區"
"242029","615-BX","2019/07/12 17:39:16","新北市新莊區復興路二段117號","121.45664","25.04434","6500500","新莊區"
"242027","613-BX","2019/07/12 17:39:09","新北市新莊區福壽街106-1號","121.458058333333","25.050485","6500500","新莊區"
"242058","612-BX","2019/07/12 17:39:20","新北市新莊區中正路606號","121.426623333333","25.03022","6500500","新莊區"
"242046","566-BX","2019/07/12 17:39:27","新北市新莊區福營路25巷20號","121.437245","25.031965","6500500","新莊區"
"242050","497-BY","2019/07/12 17:39:09","新北市新莊區西盛街191號","121.428215","25.0173716666667","6500500","新莊區"
"242056","441-UM","2019/07/12 17:39:24","新北市新莊區泰豐街30巷16號","121.448828333333","25.03201","6500500","新莊區"
"242005","440-UM","2019/07/12 17:39:17","新北市新莊區自立街180號","121.456093333333","25.0454416666667","6500500","新莊區"
"242041","415-TV","2019/07/12 17:39:20","新北市新莊區中正路514巷51號","121.432195","25.0336433333333","6500500","新莊區"
"242048","400-BY","2019/07/12 17:39:15","新北市新莊區萬安街141號","121.420525","25.021915","6500500","新莊區"
"242025","362-BY","2019/07/12 17:39:24","新北市新莊區思源路90號","121.46013","25.0455216666667","6500500","新莊區"
"242023","353-BY","2019/07/12 17:39:27","新北市新莊區公園路129-5號","121.45747","25.0408783333333","6500500","新莊區"
"242013","132-UY","2019/07/12 17:39:24","新北市新莊區中誠街105號","121.449775","25.0476633333333","6500500","新莊區"
"242037","135-UY","2019/07/12 17:39:25","新北市新莊區後港一路154號","121.429866666667","25.0274533333333","6500500","新莊區"
"242054","172-VK","2019/07/12 17:39:17","新北市新莊區新樹路711號","121.43201","25.0020533333333","6500500","新莊區"
"242015","173-VK","2019/07/12 17:39:13","新北市新莊區新泰路291號","121.445486666667","25.0406983333333","6500500","新莊區"
"242021","175-VK","2019/07/12 17:39:27","新北市新莊區中華路一段112號","121.45242","25.0403016666667","6500500","新莊區"
"242019","KED-0687","2019/07/12 17:39:25","新北市新莊區中港路177號","121.454903333333","25.0414","6500500","新莊區"
"242011","346-TH","2019/07/12 17:39:14","新北市新莊區中港路633號","121.451001666667","25.0540583333333","6500500","新莊區"
"242034","348-TH","2019/07/12 17:39:21","新北市新莊區新莊路637號","121.445316666667","25.0328383333333","6500500","新莊區"
"242007","349-TH","2019/07/12 17:39:15","新北市新莊區福樂街69號","121.457158333333","25.0478","6500500","新莊區"
"242032","350-TH","2019/07/12 17:39:24","新北市新莊區新泰路369巷14號","121.442976666667","25.04328","6500500","新莊區"
"242017","351-TH","2019/07/12 17:39:19","新北市新莊區復興路一段149巷21弄23號","121.448948333333","25.0438483333333","6500500","新莊區"
"238015","755-BX","2019/07/12 17:39:29","新北市樹林區樹德街136巷12號","121.419573333333","24.9937583333333","6500700","樹林區"
"238023","601-UM","2019/07/12 17:39:12","新北市樹林區福興街3巷23號","121.404733333333","25.01671","6500700","樹林區"
"238024","5061-A6","2019/07/12 17:39:12","新北市樹林區中華路1號","121.424826666667","24.9836933333333","6500700","樹林區"
"238018","KEA-2217","2019/07/12 17:39:08","新北市樹林區鎮前街25號","121.425701666667","24.992405","6500700","樹林區"
"238022","KEA-2213","2019/07/12 17:39:25","新北市樹林區太元街25號","121.418338333333","24.9800166666667","6500700","樹林區"
"238021","KEA-2539","2019/07/12 17:39:20","新北市樹林區柑園街一段253巷1號","121.395738333333","24.9562416666667","6500700","樹林區"
"238025","303-VK","2019/07/12 17:39:27","新北市樹林區保安街三段69號","121.412665","25.0121333333333","6500700","樹林區"
"238017","283-BY","2019/07/12 17:39:13","新北市樹林區三德街30巷16弄38號","121.41353","25.0121183333333","6500700","樹林區"
"238020","268-VK","2019/07/12 17:39:20","新北市樹林區俊英街160巷17號","121.427483333333","25.0069083333333","6500700","樹林區"
"238026","172-UY","2019/07/12 17:39:26","新北市樹林區新興街17號","121.400063333333","24.9727183333333","6500700","樹林區"
"238016","169-UY","2019/07/12 17:26:37","新北市樹林區日新街26號","121.422998333333","24.9926766666667","6500700","樹林區"
"239007","AAC-297","2019/07/12 17:39:18","新北市鶯歌區國光街20號","121.340168333333","24.9570983333333","6500800","鶯歌區"
"239006","891-R6","2019/07/12 17:39:22","新北市鶯歌區永和街34巷24號","121.333783333333","24.967005","6500800","鶯歌區"
"239008","527-UM","2019/07/12 17:39:23","新北市鶯歌區大湖路614號","121.334845","24.974685","6500800","鶯歌區"
"239005","526-UM","2019/07/12 17:39:01","新北市鶯歌區鶯桃路二段22號","121.326105","24.9723916666667","6500800","鶯歌區"
"239001","417-VK","2019/07/12 17:39:21","新北市鶯歌區中正三路228號","121.331313333333","24.9374833333333","6500800","鶯歌區"
"239003","360-BY","2019/07/12 17:39:13","新北市鶯歌區鶯桃路206巷12號","121.33753","24.959395","6500800","鶯歌區"
"239002","359-BY","2019/07/12 17:39:27","新北市鶯歌區國慶街98號","121.350231666667","24.9544916666667","6500800","鶯歌區"
"239004","193-VK","2019/07/12 17:39:25","新北市鶯歌區三鶯路31巷1號","121.354768333333","24.9430316666667","6500800","鶯歌區"
"221029","298-VK","2019/07/12 17:39:11","新北市汐止區汐萬路一段256巷1號","121.651661666667","25.07485","6501100","汐止區"
"233001","KEA-2870","2019/07/12 17:39:20","新北市烏來區娃娃谷15-7號","121.526538333333","24.8387683333333","6502900","烏來區"
"242044","281-VK","2019/07/12 17:39:18","新北市新莊區中正路871巷8號","121.418473333333","25.0268183333333","6500500","新莊區"
"242009","280-VK","2019/07/12 17:39:26","新北市新莊區昌明街14巷10號","121.457428333333","25.0532216666667","6500500","新莊區"
"235061","KEA-2875","2019/07/12 17:35:49","新北市中和區員山路36巷16-2號","121.485311666667","24.9916583333333","6500300","中和區"
