"lineid","car","time","location","longitude","latitude","cityid","cityname"
"234046","148-BY","2019/07/12 19:29:03","新北市永和區成功路二段6號","121.526495","25.00093","6500400","永和區"
"234081","298-R6","2019/07/12 19:29:10","新北市永和區環河東路三段60號","121.526855","25.00582","6500400","永和區"
"234038","336-UY","2019/07/12 19:29:24","新北市永和區成功路二段47巷11號","121.527533333333","25.0002533333333","6500400","永和區"
"234064","337-UY","2019/07/12 19:29:21","新北市永和區中正路368巷1弄88號","121.520455","25.00071","6500400","永和區"
"234086","338-UY","2019/07/12 19:29:24","新北市永和區成功路一段18巷20號","121.526143333333","25.0051683333333","6500400","永和區"
"234070","552-UM","2019/07/12 19:29:12","新北市永和區警光街12號","121.519733333333","25.0095483333333","6500400","永和區"
"234017","745-BX","2019/07/12 19:29:23","新北市永和區環河西路一段73號","121.51331","25.0181916666667","6500400","永和區"
"234030","746-BX","2019/07/12 19:29:14","新北市永和區民生路55號","121.522675","24.9976466666667","6500400","永和區"
"234054","KEA-2590","2019/07/12 19:29:16","新北市永和區復興街19巷9號","121.51603","25.013185","6500400","永和區"
"234007","KED-0605","2019/07/12 19:29:25","新北市永和區中山路一段18巷4弄2號","121.514191666667","25.010715","6500400","永和區"
"234013","KEA-2591","2019/07/12 19:29:23","新北市永和區中山路一段132-1號","121.51042","25.0099033333333","6500400","永和區"
"234061","AAD-866","2019/07/12 19:29:29","新北市永和區中正路518號","121.517313333333","25.0048233333333","6500400","永和區"
"234042","862-TW","2019/07/12 19:29:20","新北市永和區水源街30巷2號","121.511378333333","25.0046383333333","6500400","永和區"
"234050","863-TW","2019/07/12 19:29:09","新北市永和區信義路118號","121.512438333333","25.0145416666667","6500400","永和區"
"234026","9371-KE","2019/07/12 19:29:19","新北市永和區安樂路92號","121.51432","24.9988566666667","6500400","永和區"
"234011","9373-KE","2019/07/12 19:29:20","新北市永和區仁愛路169號","121.510715","25.0126716666667","6500400","永和區"
"249003","593-UM","2019/07/12 19:29:15","新北市八里區商港六路11號","121.396998333333","25.1480883333333","6502300","八里區"
"248014","025-BX","2019/07/12 19:29:32","新北市五股區工商路158號","121.433441666667","25.0877283333333","6501500","五股區"
"248008","KED-0815","2019/07/12 19:29:16","新北市五股區中興路一段95巷7號","121.466663333333","25.072545","6501500","五股區"
"248018","KED-0813","2019/07/12 19:29:17","新北市五股區外寮路9號","121.419738333333","25.0784083333333","6501500","五股區"
"248012","247-BX","2019/07/12 19:29:18","新北市五股區成泰路二段91巷23-1號","121.437468333333","25.0843466666667","6501500","五股區"
"248010","272-BY","2019/07/12 19:29:11","新北市五股區自強路90巷72號","121.430731666667","25.071265","6501500","五股區"
"248004","677-BX","2019/07/12 19:29:18","新北市五股區工商路113號","121.436748333333","25.0856516666667","6501500","五股區"
"248002","678-BX","2019/07/12 19:29:12","新北市五股區凌雲路一段158巷6號","121.447803333333","25.10297","6501500","五股區"
"234023","9380-KE","2019/07/12 19:29:19","新北市永和區竹林路91巷70號","121.52197","25.0137183333333","6500400","永和區"
"234077","969-R7","2019/07/12 19:29:21","新北市永和區民權路60號","121.519796666667","24.998245","6500400","永和區"
"234074","AAC-211","2019/07/12 19:29:31","新北市永和區環河東路二段48號","121.523103333333","25.011935","6500400","永和區"
"234067","AAC-212","2019/07/12 19:29:25","新北市永和區永貞路354號","121.510386666667","25.0063483333333","6500400","永和區"
"234003","AAC-295","2019/07/12 19:29:27","新北市永和區秀朗路一段22號","121.51402","25.0068133333333","6500400","永和區"
"244023","483-VK","2019/07/12 19:29:25","新北市林口區文化三路一段617巷136號","121.371228333333","25.0781416666667","6501700","林口區"
"243012","AAD-798","2019/07/12 19:29:14","新北市泰山區仁義路211號","121.433143333333","25.0536683333333","6501600","泰山區"
"243010","297-R6","2019/07/12 19:29:12","新北市泰山區民生路17巷53號","121.429348333333","25.0512683333333","6501600","泰山區"
"243014","KEA-2801","2019/07/12 19:29:29","新北市泰山區泰林路二段28號","121.436498333333","25.05608","6501600","泰山區"
"243016","421-VK","2019/07/12 19:29:13","新北市泰山區明志路三段352巷10號","121.421211666667","25.0356966666667","6501600","泰山區"
"243009","KEA-2215","2019/07/12 19:29:31","新北市泰山區半山雅1號","121.431863333333","25.0673633333333","6501600","泰山區"
"243011","KEA-2216","2019/07/12 19:29:23","新北市泰山區中山路二段561-9號","121.43001","25.0405733333333","6501600","泰山區"
"243013","646-TV","2019/07/12 19:29:29","新北市泰山區貴子路36巷16號","121.4259","25.0411483333333","6501600","泰山區"
"243015","680-BX","2019/07/12 19:29:20","新北市泰山區明志路二段81號","121.428863333333","25.0523783333333","6501600","泰山區"
"222002","016-RS","2019/07/12 19:29:25","新北市深坑區北深路一段177號","121.632488333333","25.0107083333333","6501800","深坑區"
"222003","436-BY","2019/07/12 19:29:19","新北市深坑區深南路51-1號","121.62124","25.0098233333333","6501800","深坑區"
"231061","002-UM","2019/07/12 19:29:24","新北市新店區安康路一段302-3號","121.517776666667","24.964105","6500600","新店區"
"231058","0293-UT","2019/07/12 19:29:20","新北市新店區北新路二段228巷13號","121.543446666667","24.97713","6500600","新店區"
"231044","046-UY","2019/07/12 19:29:21","新北市新店區中興路三段195號","121.543936666667","24.98145","6500600","新店區"
"231060","106-UY","2019/07/12 19:29:19","新北市新店區安康路二段1號","121.51642","24.9637383333333","6500600","新店區"
"231051","107-UY","2019/07/12 19:29:16","新北市新店區中央路97號","121.53129","24.9750033333333","6500600","新店區"
"231049","108-UY","2019/07/12 19:29:24","新北市新店區北新路三段65巷34弄15號","121.540001666667","24.9815583333333","6500600","新店區"
"231065","110-UY","2019/07/12 19:29:28","新北市新店區安祥路109巷1弄19號","121.476218333333","24.959855","6500600","新店區"
"231050","KEA-2219","2019/07/12 19:29:17","新北市新店區北宜路二段82巷5-1號","121.553615","24.952865","6500600","新店區"
"231062","256-BX","2019/07/12 19:29:06","新北市新店區莒光路21號","121.525456666667","24.9599766666667","6500600","新店區"
"231054","260-TV","2019/07/12 19:29:17","新北市新店區文中路39巷2號","121.539511666667","24.9568683333333","6500600","新店區"
"231042","268-BY","2019/07/12 19:29:21","新北市新店區中興路一段148號","121.542451666667","24.9637816666667","6500600","新店區"
"231064","278-BY","2019/07/12 19:29:16","新北市新店區安康路二段85巷18號","121.513783333333","24.96217","6500600","新店區"
"231045","355-BY","2019/07/12 19:29:14","新北市新店區北宜路二段171號","121.552341666667","24.953165","6500600","新店區"
"231056","4715-K9","2019/07/12 19:29:19","新北市新店區安德街60巷35號","121.510983333333","24.9637716666667","6500600","新店區"
"231067","4772-VM","2019/07/12 19:09:20","新北市新店區安康路一段263巷15號","121.52402","24.9621866666667","6500600","新店區"
"231053","513-UM","2019/07/12 19:29:13","新北市新店區新烏路二段212-1號","121.547516666667","24.915985","6500600","新店區"
"231040","617-UM","2019/07/12 19:29:22","新北市新店區中華路111號","121.538921666667","24.9693083333333","6500600","新店區"
"231041","619-UM","2019/07/12 19:29:26","新北市新店區中正路566號","121.533838333333","24.98755","6500600","新店區"
"231063","641-BX","2019/07/12 19:29:19","新北市新店區達觀路14巷3號","121.503078333333","24.9417216666667","6500600","新店區"
"231048","KED-0819","2019/07/12 19:29:33","新北市新店區五峰路64號","121.545936666667","24.9682566666667","6500600","新店區"
"231046","719-UM","2019/07/12 19:29:28","新北市新店區北新路一段14號","121.54084","24.9656683333333","6500600","新店區"
"231057","720-UM","2019/07/12 19:29:26","新北市新店區花園一路四段43號","121.551105","24.9325233333333","6500600","新店區"
"231059","897-TW","2019/07/12 19:29:29","新北市新店區安和路三段44號","121.518068333333","24.9817216666667","6500600","新店區"
"231043","899-TW","2019/07/12 19:29:16","新北市新店區北新路二段198號","121.54304","24.9766683333333","6500600","新店區"
"231066","AKT-0513","2019/07/12 19:29:19","新北市新店區安康路三段359巷12弄3號","121.48432","24.9497766666667","6500600","新店區"
"241028","022-UY","2019/07/12 19:29:25","新北市三重區中寮街30號","121.492583333333","25.0589766666667","6500200","三重區"
"241008","059-VK","2019/07/12 19:29:13","新北市三重區永福街135巷40號","121.477165","25.0773","6500200","三重區"
"241029","060-VK","2019/07/12 19:29:31","新北市三重區泉州街84巷18號","121.495733333333","25.0542366666667","6500200","三重區"
"241031","061-VK","2019/07/12 19:29:20","新北市三重區集美街100號","121.488535","25.0541633333333","6500200","三重區"
"241017","063-VK","2019/07/12 19:29:24","新北市三重區中正北路25巷25弄4號","121.493318333333","25.062685","6500200","三重區"
"241023","066-VK","2019/07/12 19:29:20","新北市三重區頂崁街183號","121.47805","25.0638116666667","6500200","三重區"
"241030","742-BX","2019/07/12 19:29:26","新北市三重區成功路41巷3號","121.490238333333","25.05133","6500200","三重區"
"241009","267-UM","2019/07/12 19:29:25","新北市三重區溪尾街242巷59號","121.486255","25.08152","6500200","三重區"
"241032","269-UM","2019/07/12 19:29:26","新北市三重區三陽路109號","121.483835","25.0588466666667","6500200","三重區"
"241025","271-UM","2019/07/12 19:29:28","新北市三重區頂崁街210巷28弄9號","121.475811666667","25.0671583333333","6500200","三重區"
"241007","398-BY","2019/07/12 19:29:23","新北市三重區溪尾街126巷17號","121.488906666667","25.079245","6500200","三重區"
"241035","462-BY","2019/07/12 19:29:30","新北市三重區長元西街37號","121.49803","25.0653616666667","6500200","三重區"
"241020","478-VK","2019/07/12 19:29:22","新北市三重區三和路四段20巷83號","121.488856666667","25.073435","6500200","三重區"
"241026","480-VK","2019/07/12 19:29:12","新北市三重區文化南路47巷3號","121.499901666667","25.06141","6500200","三重區"
"241006","AAD-863","2019/07/12 19:29:16","新北市三重區三和路四段111-2號","121.485673333333","25.0772333333333","6500200","三重區"
"241022","KED-0820","2019/07/12 19:29:29","新北市三重區三民街165巷15號","121.484093333333","25.0653533333333","6500200","三重區"
"235066","003-UY","2019/07/12 19:29:23","新北市中和區景新街86號","121.5047","24.9987783333333","6500300","中和區"
"235064","005-UY","2019/07/12 19:29:18","新北市中和區南華路43號","121.503665","24.9967066666667","6500300","中和區"
"235063","006-UY","2019/07/12 19:29:20","新北市中和區連城路203巷10弄4號","121.494845","24.9973216666667","6500300","中和區"
"235056","096-UM","2019/07/12 19:29:25","新北市中和區中正路1173號","121.480768333333","25.0098333333333","6500300","中和區"
"235039","097-UM","2019/07/12 19:29:15","新北市中和區秀峰街113號","121.520358333333","24.9905466666667","6500300","中和區"
"235065","098-UM","2019/07/12 19:29:12","新北市中和區中山路二段2巷45弄12號","121.50205","25.0067","6500300","中和區"
"235040","150-BY","2019/07/12 19:29:33","新北市中和區保健路46巷26弄24號","121.507978333333","24.9956116666667","6500300","中和區"
"235058","151-BY","2019/07/12 19:29:25","新北市中和區員山路132巷16號","121.48201","24.99624","6500300","中和區"
"235055","183-VK","2019/07/12 19:29:20","新北市中和區民享街32巷2號","121.474041666667","25.0033033333333","6500300","中和區"
"235038","185-VK","2019/07/12 19:29:21","新北市中和區立人街7號","121.521743333333","24.9941483333333","6500300","中和區"
"235049","186-VK","2019/07/12 19:29:13","新北市中和區安和路25號","121.510713333333","24.99418","6500300","中和區"
"235031","255-BX","2019/07/12 19:29:28","新北市中和區連城路322號","121.483421666667","24.9960433333333","6500300","中和區"
"235044","293-VK","2019/07/12 19:29:29","新北市中和區捷運路63號","121.508955","24.9897766666667","6500300","中和區"
"235072","301-VK","2019/07/12 19:29:18","新北市中和區連城路265巷8弄1號","121.491583333333","24.9955916666667","6500300","中和區"
"235043","352-BY","2019/07/12 19:29:24","新北市中和區安和路41號","121.509665","24.9945833333333","6500300","中和區"
"235042","KEA-2878","2019/07/12 19:29:24","新北市中和區中和路262巷45號","121.51011","24.9998683333333","6500300","中和區"
"235041","551-UM","2019/07/12 19:29:22","新北市中和區中和路400巷17號","121.511553333333","25.0023966666667","6500300","中和區"
"235070","558-UM","2019/07/12 19:29:15","新北市中和區連城路127巷35號","121.497613333333","24.9972066666667","6500300","中和區"
"235045","565-BX","2019/07/12 19:29:20","新北市中和區景新街440號","121.513175","24.98816","6500300","中和區"
"235060","KED-0823","2019/07/12 19:29:29","新北市中和區中山路二段523巷56號","121.482286666667","25.0030183333333","6500300","中和區"
"235054","640-BX","2019/07/12 19:29:16","新北市中和區莒光路127號","121.472665","25.0019433333333","6500300","中和區"
"235047","732-UM","2019/07/12 19:29:30","新北市中和區景平路329巷1弄4號","121.505985","24.9929533333333","6500300","中和區"
"235046","733-UM","2019/07/12 19:29:28","新北市中和區興南路一段105巷20弄35號","121.51054","24.9848666666667","6500300","中和區"
"235071","783-BX","2019/07/12 19:29:12","新北市中和區中正路637巷18弄20號","121.484271666667","24.99508","6500300","中和區"
"235057","801-TS","2019/07/12 19:29:19","新北市中和區員山路152-3號","121.481466666667","24.9986816666667","6500300","中和區"
"235052","805-TS","2019/07/12 19:29:22","新北市中和區華新街143巷67弄31號","121.507486666667","24.9792233333333","6500300","中和區"
"235053","900-TW","2019/07/12 19:29:30","新北市中和區國光街144號","121.468283333333","25.001515","6500300","中和區"
"235048","911-UM","2019/07/12 19:29:06","新北市中和區忠孝街160號","121.512646666667","24.9876166666667","6500300","中和區"
"235051","157-BY","2019/07/12 19:29:16","新北市中和區景平路572號","121.501733333333","24.9952933333333","6500300","中和區"
"235037","AAC-213","2019/07/12 19:29:14","新北市中和區秀朗路三段50巷4弄4號","121.525728333333","24.9956933333333","6500300","中和區"
"235059","AAC-215","2019/07/12 19:29:19","新北市中和區圓通路252巷6號","121.492988333333","24.9916833333333","6500300","中和區"
"220068","015-TV","2019/07/12 19:29:29","新北市板橋區萬安街55號","121.483948333333","25.023825","6500100","板橋區"
"220065","072-UY","2019/07/12 19:29:15","新北市板橋區國泰街75巷28弄27號","121.46777","25.0046366666667","6500100","板橋區"
"220086","073-UY","2019/07/12 19:29:28","新北市板橋區中正路216巷38-1號","121.457093333333","25.0188383333333","6500100","板橋區"
"220106","075-UY","2019/07/12 19:29:21","新北市板橋區文化路二段426號","121.474266666667","25.0319883333333","6500100","板橋區"
"220069","AAD-861","2019/07/12 19:29:20","新北市板橋區貴興路88-3號","121.455941666667","25.0032766666667","6500100","板橋區"
"220098","120-SR","2019/07/12 19:29:25","新北市板橋區四維路206號","121.46416","25.027345","6500100","板橋區"
"247004","893-R6","2019/07/12 19:29:26","新北市蘆洲區長安街140號","121.460165","25.0820433333333","6501400","蘆洲區"
"226004","312-R5","2019/07/12 19:29:16","新北市平溪區十分里十分街162號","121.778288333333","25.043525","6502400","平溪區"
"228001","212-TW","2019/07/12 19:29:12","新北市貢寮區真理里延平街68號","121.925381666667","25.0574233333333","6502600","貢寮區"
"228003","828-UM","2019/07/12 19:29:14","新北市貢寮區和美里和美街19-2號","121.912785","25.0825583333333","6502600","貢寮區"
"224008","273-VK","2019/07/12 19:29:16","新北市瑞芳區一坑路173-1號","121.801438333333","25.108085","6501200","瑞芳區"
"227001","642-TC","2019/07/12 19:29:28","新北市雙溪區新基里新基北街63號","121.868401666667","25.03969","6502500","雙溪區"
"227002","400-TW","2019/07/12 19:29:21","新北市雙溪區雙溪里光復街20號","121.865143333333","25.03546","6502500","雙溪區"
"222001","KEA-2212","2019/07/12 19:29:21","新北市深坑區北深路二段125號","121.615876666667","25.0025266666667","6501800","深坑區"
"208002","KEA-2872","2019/07/12 19:29:26","新北市金山區中正路55號","121.634456666667","25.2218933333333","6502700","金山區"
"208003","665-BX","2019/07/12 19:29:20","新北市金山區中山路263巷14號","121.636375","25.2215916666667","6502700","金山區"
"251001","011-UM","2019/07/12 19:29:02","新北市淡水區民權路163號","121.460016666667","25.1359866666667","6501000","淡水區"
"251010","413-VK","2019/07/12 19:29:27","新北市淡水區中正路二段150號","121.422915","25.1877433333333","6501000","淡水區"
"251007","442-VK","2019/07/12 19:29:25","新北市淡水區坪頂路49號","121.457663333333","25.1625766666667","6501000","淡水區"
"251005","443-VK","2019/07/12 19:29:14","新北市淡水區水源街一段47巷33號","121.444016666667","25.1732833333333","6501000","淡水區"
"251006","561-UM","2019/07/12 19:29:29","新北市淡水區大義街29巷18號","121.441453333333","25.1780416666667","6501000","淡水區"
"251009","575-R6","2019/07/12 19:29:31","新北市淡水區中正路28號","121.44437","25.16908","6501000","淡水區"
"251002","672-BX","2019/07/12 19:29:25","新北市淡水區沙崙路149號","121.423591666667","25.1832483333333","6501000","淡水區"
"251003","766-UM","2019/07/12 19:29:28","新北市淡水區中山北路三段16巷30號","121.443775","25.1896833333333","6501000","淡水區"
"207003","550-UM","2019/07/12 19:29:31","新北市萬里區大鵬里萬里加投101號","121.646115","25.21294","6502800","萬里區"
"207004","225-TW","2019/07/12 19:29:32","新北市萬里區萬里里瑪鋉路8-3號","121.687596666667","25.1754","6502800","萬里區"
"252002","178-VK","2019/07/12 19:29:24","新北市三芝區淡金路二段18-1號","121.50262","25.259565","6502100","三芝區"
"208001","170-UY","2019/07/12 19:29:32","新北市金山區中正路168號","121.63045","25.2211616666667","6502700","金山區"
"237004","KEA-2597","2019/07/12 19:29:15","新北市三峽區有木205-1號","121.439051666667","24.8514716666667","6500900","三峽區"
"237007","153-BY","2019/07/12 19:29:24","新北市三峽區二鬮路136巷20弄75號","121.357806666667","24.9093116666667","6500900","三峽區"
"237009","210-TH","2019/07/12 19:29:27","新北市三峽區中山路11號","121.369393333333","24.9343266666667","6500900","三峽區"
"237013","252-BX","2019/07/12 19:29:24","新北市三峽區介壽路一段318巷13號","121.38118","24.9295733333333","6500900","三峽區"
"237012","275-BY","2019/07/12 19:29:17","新北市三峽區三樹路98巷169-1號","121.383953333333","24.9396716666667","6500900","三峽區"
"237008","302-VK","2019/07/12 19:29:20","新北市三峽區永安街143號","121.373571666667","24.9281816666667","6500900","三峽區"
"237014","433-BY","2019/07/12 19:29:17","新北市三峽區中山路63巷12號","121.366958333333","24.9343016666667","6500900","三峽區"
"237006","5529-G3","2019/07/12 19:29:23","新北市三峽區中正路一段336巷15弄2號","121.369943333333","24.9249533333333","6500900","三峽區"
"237011","KEA-2596","2019/07/12 19:29:09","新北市三峽區介壽路一段420號","121.384231666667","24.9312383333333","6500900","三峽區"
"237015","649-BX","2019/07/12 19:29:30","新北市三峽區安坑27-3號","121.446261666667","24.928315","6500900","三峽區"
"237010","706-TV","2019/07/12 19:29:26","新北市三峽區復興路183號","121.368868333333","24.9387966666667","6500900","三峽區"
"237005","AKY-6261","2019/07/12 19:29:29","新北市三峽區復興路367巷1弄21號","121.364205","24.93806","6500900","三峽區"
"236042","KED-0685","2019/07/12 19:29:20","新北市土城區學府路一段239號","121.450393333333","24.9833433333333","6501300","土城區"
"236069","KEA-2877","2019/07/12 19:29:15","新北市土城區學成路1號","121.453495","24.9863083333333","6501300","土城區"
"252001","KED-0821","2019/07/12 19:29:29","新北市三芝區長勤街62號","121.500153333333","25.25605","6502100","三芝區"
"236020","401-BY","2019/07/12 19:29:22","新北市土城區峰廷街3號","121.469083333333","24.9872433333333","6501300","土城區"
"236048","913-UM","2019/07/12 19:29:16","新北市土城區清水路196號","121.460388333333","24.9818666666667","6501300","土城區"
"236055","AAC-216","2019/07/12 19:29:20","新北市土城區學府路一段276號","121.450221666667","24.9833433333333","6501300","土城區"
"242032","350-TH","2019/07/12 19:29:25","新北市新莊區三和路12-9號","121.442235","25.0367083333333","6500500","新莊區"
"238015","755-BX","2019/07/12 19:29:26","新北市樹林區中山路一段154號","121.421885","24.990085","6500700","樹林區"
"238023","601-UM","2019/07/12 19:29:12","新北市樹林區三福街75號","121.407483333333","25.016365","6500700","樹林區"
"238024","5061-A6","2019/07/12 19:29:12","新北市樹林區中山路三段155巷14弄3號","121.396088333333","24.972485","6500700","樹林區"
"238018","KEA-2217","2019/07/12 19:29:29","新北市樹林區中華路70號","121.419598333333","24.9816483333333","6500700","樹林區"
"238022","KEA-2213","2019/07/12 19:29:25","新北市樹林區名園街61號","121.420058333333","24.977975","6500700","樹林區"
"238021","KEA-2539","2019/07/12 19:29:27","新北市樹林區大雅路7號","121.380621666667","24.9444483333333","6500700","樹林區"
"238025","303-VK","2019/07/12 19:29:27","新北市樹林區中山路一段27-8號","121.424491666667","24.9931783333333","6500700","樹林區"
"238017","283-BY","2019/07/12 19:29:13","新北市樹林區光興街132號","121.406795","25.0030116666667","6500700","樹林區"
"238014","282-BY","2019/07/12 19:29:29","新北市樹林區保安二街64巷25號","121.424436666667","24.9967183333333","6500700","樹林區"
"238020","268-VK","2019/07/12 19:29:19","新北市樹林區俊英街162號","121.426671666667","25.0066483333333","6500700","樹林區"
"238026","172-UY","2019/07/12 19:29:26","新北市樹林區佳園路三段26號","121.387943333333","24.9540566666667","6500700","樹林區"
"238016","169-UY","2019/07/12 19:29:22","新北市樹林區復興路412號","121.414425","24.9848166666667","6500700","樹林區"
"239007","AAC-297","2019/07/12 19:29:18","新北市鶯歌區西湖街53巷30-1號","121.34196","24.9609666666667","6500800","鶯歌區"
"239006","891-R6","2019/07/12 19:29:22","新北市鶯歌區尖山埔路227號","121.345021666667","24.95042","6500800","鶯歌區"
"239008","527-UM","2019/07/12 19:29:23","新北市鶯歌區大湖路335號","121.341775","24.9726066666667","6500800","鶯歌區"
"239001","417-VK","2019/07/12 19:29:21","新北市鶯歌區鶯桃路39-2號","121.34258","24.9509716666667","6500800","鶯歌區"
"239003","360-BY","2019/07/12 19:29:33","新北市鶯歌區中正一路55號","121.352061666667","24.95408","6500800","鶯歌區"
"239002","359-BY","2019/07/12 19:29:26","新北市鶯歌區大湖路532號","121.337458333333","24.9724033333333","6500800","鶯歌區"
"239004","193-VK","2019/07/12 19:29:25","新北市鶯歌區二甲路83-8號","121.340216666667","24.931855","6500800","鶯歌區"
"221008","489-VK","2019/07/12 19:29:17","新北市汐止區康寧街235號","121.623966666667","25.066775","6501100","汐止區"
"221027","281-BY","2019/07/12 19:29:24","新北市汐止區水源路一段39號","121.657186666667","25.0662516666667","6501100","汐止區"
"221031","353-TW","2019/07/12 19:29:21","新北市汐止區康寧街901號","121.650748333333","25.07535","6501100","汐止區"
"221002","707-TV","2019/07/12 19:29:13","新北市汐止區大同路一段335號","121.6384","25.059495","6501100","汐止區"
"220079","145-BY","2019/07/12 19:29:20","新北市板橋區民權路202巷10弄1號","121.460468333333","25.0153333333333","6500100","板橋區"
"220080","200-UY","2019/07/12 19:29:14","新北市板橋區大觀路二段5號","121.447126666667","25.003915","6500100","板橋區"
"220082","610-BX","2019/07/12 19:29:26","新北市板橋區金門街231號","121.432176666667","24.989545","6500100","板橋區"
"220101","245-BX","2019/07/12 19:29:10","新北市板橋區萬板路46巷8號","121.472531666667","25.022535","6500100","板橋區"
"220091","267-BY","2019/07/12 19:29:22","新北市板橋區懷德街199號","121.480293333333","25.0292366666667","6500100","板橋區"
"220056","276-BY","2019/07/12 19:29:15","新北市板橋區信義路80號","121.457686666667","24.9932883333333","6500100","板橋區"
"220072","277-BY","2019/07/12 19:29:18","新北市板橋區金門街236號","121.430683333333","24.98737","6500100","板橋區"
"220094","283-UM","2019/07/12 19:29:33","新北市板橋區銘傳街41號","121.468825","25.0312283333333","6500100","板橋區"
"220071","283-VK","2019/07/12 19:29:24","新北市板橋區忠孝路48巷9弄28號","121.462018333333","25.0001733333333","6500100","板橋區"
"220053","285-VK","2019/07/12 19:29:26","新北市板橋區富山街53巷1弄104號","121.477795","25.0198266666667","6500100","板橋區"
"220083","286-VK","2019/07/12 19:29:24","新北市板橋區龍興街73巷21號","121.442928333333","25.0025316666667","6500100","板橋區"
"220081","287-VK","2019/07/12 19:29:24","新北市板橋區南雅南路一段106號","121.454931666667","25.0043816666667","6500100","板橋區"
"220090","288-VK","2019/07/12 19:29:11","新北市板橋區長江路一段48巷3弄1號","121.459151666667","25.0285966666667","6500100","板橋區"
"220061","295-UM","2019/07/12 19:29:22","新北市板橋區中山路一段265巷36弄1號","121.469013333333","25.0151766666667","6500100","板橋區"
"220084","296-UM","2019/07/12 19:29:18","新北市板橋區篤行路三段玉平巷79號","121.428241666667","24.9860633333333","6500100","板橋區"
"220075","303-R5","2019/07/12 19:29:17","新北市板橋區中正路275巷93號","121.45081","25.018055","6500100","板橋區"
"220062","305-R5","2019/07/12 19:29:28","新北市板橋區三民路二段173號","121.47941","25.01439","6500100","板橋區"
"220092","307-R5","2019/07/12 19:29:30","新北市板橋區陽明街164巷15號","121.464048333333","25.024455","6500100","板橋區"
"220089","487-VK","2019/07/12 19:29:17","新北市板橋區雨農路58號","121.46066","25.0241533333333","6500100","板橋區"
"220088","491-VK","2019/07/12 19:29:22","新北市板橋區文化路二段488號","121.4753","25.0330283333333","6500100","板橋區"
"220035","560-BX","2019/07/12 19:29:28","新北市板橋區中正路433巷5號","121.45389","25.0232666666667","6500100","板橋區"
"220103","561-BX","2019/07/12 19:29:31","新北市板橋區陽明街29巷1弄20號","121.464288333333","25.0219333333333","6500100","板橋區"
"220063","609-BX","2019/07/12 19:29:15","新北市板橋區林森街3巷1弄6號","121.482663333333","25.0235566666667","6500100","板橋區"
"220074","630-UY","2019/07/12 19:29:19","新北市板橋區民權路97-2號","121.459765","25.0129433333333","6500100","板橋區"
"220057","686-BX","2019/07/12 19:29:28","新北市板橋區和平路安樂巷11-2號","121.461458333333","24.994115","6500100","板橋區"
"220077","687-BX","2019/07/12 19:29:23","新北市板橋區大觀路一段28巷44號","121.449945","25.00997","6500100","板橋區"
"220093","689-BX","2019/07/12 19:29:29","新北市板橋區長江路一段51號","121.458681666667","25.029225","6500100","板橋區"
"220054","741-BX","2019/07/12 19:29:30","新北市板橋區光明街25號","121.460733333333","25.0027366666667","6500100","板橋區"
"220102","KEA-2699","2019/07/12 19:29:17","新北市板橋區雙十路二段70巷7號","121.475501666667","25.0283783333333","6500100","板橋區"
"220055","827-TW","2019/07/12 19:29:30","新北市板橋區重慶路278巷5號","121.462648333333","24.99966","6500100","板橋區"
"220067","829-TW","2019/07/12 19:29:20","新北市板橋區漢生東路313巷7號","121.4722","25.00825","6500100","板橋區"
"220073","985-R7","2019/07/12 19:29:20","新北市板橋區中正路302號","121.454916666667","25.0206","6500100","板橋區"
"220097","AAC-210","2019/07/12 19:29:23","新北市板橋區文化路一段285巷1號","121.464405","25.0188383333333","6500100","板橋區"
"220064","AAC-253","2019/07/12 19:29:27","新北市板橋區民權路33號","121.462208333333","25.0109416666667","6500100","板橋區"
"235068","KEA-2873","2019/07/12 19:29:24","新北市中和區連勝街57巷20號","121.498086666667","24.9964466666667","6500300","中和區"
"235061","KEA-2875","2019/07/12 19:29:09","新北市中和區員山路325-5號","121.481088333333","25.0011016666667","6500300","中和區"
