"lineid","car","time","location","longitude","latitude","cityid","cityname"
"234046","148-BY","2019/07/12 20:09:24","新北市永和區得和路419號","121.526001666667","24.9992033333333","6500400","永和區"
"234081","298-R6","2019/07/12 20:09:30","新北市永和區國中路27號","121.524516666667","25.0053333333333","6500400","永和區"
"234038","336-UY","2019/07/12 20:09:12","新北市永和區成功路一段69號","121.526978333333","25.0033616666667","6500400","永和區"
"234064","337-UY","2019/07/12 20:09:21","新北市永和區永元路95巷2號","121.522408333333","25.00201","6500400","永和區"
"234086","338-UY","2019/07/12 20:09:26","新北市永和區中正路618-1號","121.516926666667","25.007735","6500400","永和區"
"234070","552-UM","2019/07/12 20:09:30","新北市永和區中正路626號","121.51703","25.0079616666667","6500400","永和區"
"234017","745-BX","2019/07/12 20:09:23","新北市永和區文化路62號","121.514386666667","25.01518","6500400","永和區"
"234030","746-BX","2019/07/12 20:09:14","新北市永和區民權路49巷9號","121.520616666667","24.9974083333333","6500400","永和區"
"234054","KEA-2590","2019/07/12 20:09:16","新北市永和區博愛街12號","121.516818333333","25.0158083333333","6500400","永和區"
"234007","KED-0605","2019/07/12 20:09:25","新北市永和區保順路37巷8號","121.503051666667","25.0105266666667","6500400","永和區"
"234013","KEA-2591","2019/07/12 20:09:23","新北市永和區永貞路415號","121.507433333333","25.0092966666667","6500400","永和區"
"234061","AAD-866","2019/07/12 20:09:29","新北市永和區安樂路58巷2號","121.515126666667","24.9980183333333","6500400","永和區"
"234042","862-TW","2019/07/12 20:09:20","新北市永和區雙和街23號","121.509113333333","25.0021583333333","6500400","永和區"
"234050","863-TW","2019/07/12 20:09:29","新北市永和區新生路210巷7-1號","121.505433333333","25.01308","6500400","永和區"
"234011","9373-KE","2019/07/12 20:09:20","新北市永和區仁愛路352巷124號","121.500195","25.0085283333333","6500400","永和區"
"249005","172-UM","2019/07/12 20:09:20","新北市八里區下罟子58-6號","121.389668333333","25.1386966666667","6502300","八里區"
"249001","173-UM","2019/07/12 20:09:26","新北市八里區中華路二段305-7號","121.403445","25.14796","6502300","八里區"
"249004","303-UY","2019/07/12 20:09:24","新北市八里區中山路一段217巷70號","121.411898333333","25.1575566666667","6502300","八里區"
"249002","305-UY","2019/07/12 20:09:24","新北市五股區成泰路四段22巷46-1號","121.457451666667","25.1122883333333","6502300","八里區"
"249003","593-UM","2019/07/12 20:09:14","新北市八里區中山路二段540巷9弄27號","121.396475","25.1465416666667","6502300","八里區"
"248016","026-BX","2019/07/12 20:09:10","新北市五股區成泰路三段577巷80弄72號","121.448963333333","25.1047383333333","6501500","五股區"
"248008","KED-0815","2019/07/12 20:09:16","新北市五股區中興路一段1巷12弄17號","121.46938","25.0708183333333","6501500","五股區"
"248018","KED-0813","2019/07/12 20:09:17","新北市五股區自強路135號","121.432195","25.0697216666667","6501500","五股區"
"248012","247-BX","2019/07/12 20:09:18","新北市五股區六合街70號","121.431873333333","25.0900733333333","6501500","五股區"
"248010","272-BY","2019/07/12 20:09:11","新北市五股區成泰路一段7巷4號","121.433315","25.0667383333333","6501500","五股區"
"248004","677-BX","2019/07/12 20:09:18","新北市五股區成泰路一段210號","121.436165","25.0790966666667","6501500","五股區"
"248002","678-BX","2019/07/12 20:09:24","新北市五股區成泰路三段323-1號","121.44807","25.0951133333333","6501500","五股區"
"234023","9380-KE","2019/07/12 20:09:14","新北市永和區中正路654巷45號","121.518085","25.0085383333333","6500400","永和區"
"234077","969-R7","2019/07/12 20:09:14","新北市永和區民享街23巷5弄8號","121.516086666667","24.9956716666667","6500400","永和區"
"234074","AAC-211","2019/07/12 20:09:29","新北市永和區豫溪街163號","121.521558333333","25.010445","6500400","永和區"
"234067","AAC-212","2019/07/12 20:09:30","新北市永和區保平路214巷11弄2號","121.50889","25.0067283333333","6500400","永和區"
"234003","AAC-295","2019/07/12 20:09:27","新北市永和區中正路616巷1號","121.517218333333","25.0077566666667","6500400","永和區"
"243012","AAD-798","2019/07/12 20:09:19","新北市泰山區楓江路17號","121.433911666667","25.0624216666667","6501600","泰山區"
"243010","297-R6","2019/07/12 20:09:12","新北市泰山區明志路二段136巷19號","121.426076666667","25.0518383333333","6501600","泰山區"
"243014","KEA-2801","2019/07/12 20:09:29","新北市泰山區明志路一段42號","121.433561666667","25.065175","6501600","泰山區"
"243016","421-VK","2019/07/12 20:09:13","新北市泰山區明志路三段409號","121.42123","25.0340233333333","6501600","泰山區"
"243009","KEA-2215","2019/07/12 20:09:16","新北市泰山區泰林路二段116巷2弄2號","121.434918333333","25.0593716666667","6501600","泰山區"
"243011","KEA-2216","2019/07/12 20:09:23","新北市泰山區明志路三段531巷2號","121.421483333333","25.0296666666667","6501600","泰山區"
"243015","680-BX","2019/07/12 20:09:21","新北市泰山區明志路二段81號","121.428898333333","25.0524133333333","6501600","泰山區"
"222002","016-RS","2019/07/12 20:09:25","新北市深坑區北深路三段158巷32弄1號","121.601611666667","25.0045033333333","6501800","深坑區"
"222003","436-BY","2019/07/12 20:09:19","新北市深坑區埔新街58巷1號","121.620085","25.0026133333333","6501800","深坑區"
"231061","002-UM","2019/07/12 20:09:24","新北市新店區安興路61號","121.516196666667","24.97245","6500600","新店區"
"231044","046-UY","2019/07/12 20:09:20","新北市新店區寶慶街58巷2號","121.54207","24.986855","6500600","新店區"
"231060","106-UY","2019/07/12 20:09:19","新北市新店區安康路三段352號","121.486263333333","24.9518","6500600","新店區"
"231051","107-UY","2019/07/12 20:09:16","新北市新店區中央五街3-1號","121.530293333333","24.9742966666667","6500600","新店區"
"231049","108-UY","2019/07/12 20:09:24","新北市新店區北新路二段139巷12弄20號","121.542206666667","24.97608","6500600","新店區"
"231065","110-UY","2019/07/12 20:09:28","新北市新店區安祥路106巷165號","121.47374","24.959305","6500600","新店區"
"231068","187-VK","2019/07/12 20:09:19","新北市新店區中興路三段88號","121.545565","24.9785116666667","6500600","新店區"
"231050","KEA-2219","2019/07/12 20:09:17","新北市新店區北新路一段72號","121.541538333333","24.967305","6500600","新店區"
"221035","KEA-2785","2019/07/12 20:09:28","新北市汐止區長江街39巷5號","121.655505","25.0717316666667","6501100","汐止區"
"231062","256-BX","2019/07/12 20:09:26","新北市新店區安康路一段188號","121.524721666667","24.963345","6500600","新店區"
"231054","260-TV","2019/07/12 20:09:17","新北市新店區檳榔路46號","121.54168","24.9636583333333","6500600","新店區"
"231042","268-BY","2019/07/12 20:09:21","新北市新店區中興路二段55號","121.546506666667","24.9702283333333","6500600","新店區"
"231064","278-BY","2019/07/12 20:09:16","新北市新店區安光路15巷15號","121.512285","24.963315","6500600","新店區"
"231045","355-BY","2019/07/12 20:09:13","新北市新店區北宜路二段39-1號","121.548756666667","24.9514566666667","6500600","新店區"
"231055","4716-K9","2019/07/12 20:09:23","新北市新店區中華路48巷40號","121.541173333333","24.9694916666667","6500600","新店區"
"231056","4715-K9","2019/07/12 20:09:19","新北市新店區中正路275巷17-1號","121.537223333333","24.9735333333333","6500600","新店區"
"231053","513-UM","2019/07/12 20:09:13","新北市新店區新烏路三段寶島巷2弄3號","121.552028333333","24.898645","6500600","新店區"
"231040","617-UM","2019/07/12 20:09:20","新北市新店區中正路82號","121.543713333333","24.9703066666667","6500600","新店區"
"231041","619-UM","2019/07/12 20:09:26","新北市新店區中正路435號","121.533998333333","24.9784","6500600","新店區"
"231063","641-BX","2019/07/12 20:09:19","新北市新店區黎明路59巷1號","121.502473333333","24.9474133333333","6500600","新店區"
"231048","KED-0819","2019/07/12 20:09:13","新北市新店區寶宏路30號","121.54945","24.9758166666667","6500600","新店區"
"231057","720-UM","2019/07/12 20:09:12","新北市新店區百齡一路12號","121.553065","24.9324666666667","6500600","新店區"
"231059","897-TW","2019/07/12 20:09:29","新北市新店區安德街80號","121.510108333333","24.9615483333333","6500600","新店區"
"231043","899-TW","2019/07/12 20:09:16","新北市新店區民族路160巷19號","121.536763333333","24.9762933333333","6500600","新店區"
"231066","AKT-0513","2019/07/12 20:09:16","新北市新店區安興路20號","121.515","24.965925","6500600","新店區"
"241011","013-R5","2019/07/12 20:09:29","新北市三重區仁愛街30號","121.496358333333","25.071725","6500200","三重區"
"241028","022-UY","2019/07/12 20:09:26","新北市三重區仁化街107號","121.494505","25.05798","6500200","三重區"
"241008","059-VK","2019/07/12 20:09:13","新北市三重區永福街197巷9號","121.479066666667","25.0744283333333","6500200","三重區"
"241029","060-VK","2019/07/12 20:09:28","新北市三重區光明路32巷12弄2-1號","121.491606666667","25.0586516666667","6500200","三重區"
"241031","061-VK","2019/07/12 20:09:20","新北市三重區過圳街9-1號","121.488781666667","25.0600433333333","6500200","三重區"
"241015","062-VK","2019/07/12 20:09:27","新北市三重區福德北路33號","121.502381666667","25.0647483333333","6500200","三重區"
"241017","063-VK","2019/07/12 20:09:24","新北市三重區大同北路221巷36號","121.492248333333","25.06654","6500200","三重區"
"241024","065-VK","2019/07/12 20:09:13","新北市三重區力行路一段174號","121.481906666667","25.0713916666667","6500200","三重區"
"241023","066-VK","2019/07/12 20:09:21","新北市三重區三民街300巷1號","121.47784","25.06904","6500200","三重區"
"241002","090-VK","2019/07/12 20:09:11","新北市三重區仁忠街41號","121.49531","25.0817133333333","6500200","三重區"
"241003","091-VK","2019/07/12 20:09:28","新北市三重區仁愛街457號","121.48977","25.0818766666667","6500200","三重區"
"241030","742-BX","2019/07/12 20:09:26","新北市三重區集美街75巷22號","121.488165","25.0528783333333","6500200","三重區"
"241016","266-UM","2019/07/12 20:09:12","新北市三重區大同北路54巷1號","121.494325","25.0634783333333","6500200","三重區"
"241009","267-UM","2019/07/12 20:09:25","新北市三重區三和路四段382巷94弄1號","121.479415","25.0780383333333","6500200","三重區"
"241018","268-UM","2019/07/12 20:09:21","新北市三重區正義北路256巷111號","121.493598333333","25.06797","6500200","三重區"
"241032","269-UM","2019/07/12 20:09:26","新北市三重區捷運路73號","121.482975","25.055505","6500200","三重區"
"241013","270-UM","2019/07/12 20:09:16","新北市三重區三和路三段151巷43號","121.4939","25.0743533333333","6500200","三重區"
"241025","271-UM","2019/07/12 20:09:28","新北市三重區中正北路169號","121.47853","25.06944","6500200","三重區"
"241007","398-BY","2019/07/12 20:09:23","新北市三重區三和路四段111-12號","121.486736666667","25.0776116666667","6500200","三重區"
"241035","462-BY","2019/07/12 20:09:30","新北市三重區文化北路8號","121.499448333333","25.0635633333333","6500200","三重區"
"241004","475-VK","2019/07/12 20:09:26","新北市三重區自強路四段112號","121.491623333333","25.080175","6500200","三重區"
"241020","478-VK","2019/07/12 20:09:22","新北市三重區後竹圍街2巷2號","121.491896666667","25.0734466666667","6500200","三重區"
"241026","480-VK","2019/07/12 20:09:32","新北市三重區福德南路71號","121.502353333333","25.0601016666667","6500200","三重區"
"241014","543-UM","2019/07/12 20:09:17","新北市三重區長樂街114號","121.501691666667","25.0695933333333","6500200","三重區"
"241001","547-UM","2019/07/12 20:09:26","新北市三重區溪尾街26號","121.49095","25.0763933333333","6500200","三重區"
"241019","KEA-2593","2019/07/12 20:09:13","新北市三重區自強路二段33巷44號","121.490493333333","25.0698033333333","6500200","三重區"
"241006","AAD-863","2019/07/12 20:09:16","新北市三重區車路頭街135-1號","121.484298333333","25.076155","6500200","三重區"
"241005","887-TS","2019/07/12 20:09:22","新北市三重區碧華街294巷14號","121.489061666667","25.0843166666667","6500200","三重區"
"241012","941-UM","2019/07/12 20:09:13","新北市三重區河邊北街379-1號","121.501695","25.07647","6500200","三重區"
"241033","AAC-255","2019/07/12 20:09:29","新北市三重區光復路一段61巷12號","121.472545","25.0493666666667","6500200","三重區"
"235066","003-UY","2019/07/12 20:09:23","新北市中和區水源路154巷6號","121.508235","25.0032566666667","6500300","中和區"
"235056","096-UM","2019/07/12 20:09:25","新北市中和區漢民路427號","121.472486666667","25.0066983333333","6500300","中和區"
"235039","097-UM","2019/07/12 20:09:15","新北市中和區立人街24-5號","121.518955","24.994135","6500300","中和區"
"235065","098-UM","2019/07/12 20:09:14","新北市中和區永和路39巷4號","121.497945","25.0050216666667","6500300","中和區"
"235040","150-BY","2019/07/12 20:09:13","新北市中和區保健路19巷2弄1號","121.508388333333","24.9983733333333","6500300","中和區"
"235055","183-VK","2019/07/12 20:09:20","新北市三重區光復路二段143巷16號","121.47396","25.060605","6500300","中和區"
"235031","255-BX","2019/07/12 20:09:28","新北市板橋區民生路一段78號","121.473581666667","25.015355","6500300","中和區"
"247014","KEA-2869","2019/07/12 20:09:16","新北市蘆洲區和平路52-1號","121.470343333333","25.07946","6501400","蘆洲區"
"247008","KED-0682","2019/07/12 20:09:30","新北市蘆洲區中山一路199號","121.474358333333","25.0809666666667","6501400","蘆洲區"
"235050","4979-A6","2019/07/12 20:09:28","新北市中和區景平路183號","121.511773333333","24.9925633333333","6500300","中和區"
"235051","157-BY","2019/07/12 20:09:16","新北市中和區復興路6號","121.506211666667","24.989805","6500300","中和區"
"235037","AAC-213","2019/07/12 20:09:14","新北市板橋區民生路一段28-12號","121.476505","25.0122716666667","6500300","中和區"
"235059","AAC-215","2019/07/12 20:09:19","新北市中和區圓通路335巷35號","121.493675","24.98948","6500300","中和區"
"220065","072-UY","2019/07/12 20:09:15","新北市板橋區區運路19號","121.465503333333","25.0102166666667","6500100","板橋區"
"220086","073-UY","2019/07/12 20:09:26","新北市板橋區大觀路一段31號","121.449925","25.0085083333333","6500100","板橋區"
"247004","893-R6","2019/07/12 20:09:26","新北市蘆洲區長安街285巷30號","121.45666","25.08403","6501400","蘆洲區"
"247018","546-UM","2019/07/12 20:09:15","新北市蘆洲區民族路312號","121.477378333333","25.0902016666667","6501400","蘆洲區"
"247002","500-BY","2019/07/12 20:09:19","新北市蘆洲區永康街6號","121.45925","25.085935","6501400","蘆洲區"
"247024","337-TH","2019/07/12 20:09:15","新北市蘆洲區光榮路120巷8弄39號","121.464661666667","25.0878766666667","6501400","蘆洲區"
"247022","057-VK","2019/07/12 20:09:17","新北市蘆洲區三民路171巷16號","121.470478333333","25.0869966666667","6501400","蘆洲區"
"247012","056-VK","2019/07/12 20:09:20","新北市蘆洲區民族路266號","121.478763333333","25.0889866666667","6501400","蘆洲區"
"247016","053-VK","2019/07/12 20:09:15","新北市蘆洲區光華路188號","121.464703333333","25.0820183333333","6501400","蘆洲區"
"247020","007-UY","2019/07/12 20:09:26","新北市蘆洲區民義街70號","121.47313","25.089855","6501400","蘆洲區"
"247006","002-UY","2019/07/12 20:09:20","新北市蘆洲區中山二路309號","121.468763333333","25.07749","6501400","蘆洲區"
"226004","312-R5","2019/07/12 20:09:16","新北市平溪區十分里十分街311號","121.775146666667","25.0435133333333","6502400","平溪區"
"227002","400-TW","2019/07/12 20:09:21","新北市雙溪區魚行里新店74-1號","121.872111666667","25.0299466666667","6502500","雙溪區"
"222001","KEA-2212","2019/07/12 20:09:20","新北市深坑區北深路三段191號","121.601191666667","25.0037","6501800","深坑區"
"251004","009-UM","2019/07/12 20:09:12","新北市淡水區民族路29巷24-1號","121.461705","25.1367383333333","6501000","淡水區"
"251001","011-UM","2019/07/12 20:09:22","新北市淡水區淡金路二段15號","121.446485","25.1892083333333","6501000","淡水區"
"251008","181-VK","2019/07/12 20:09:25","新北市淡水區淡海路72巷30弄1號","121.424316666667","25.1826416666667","6501000","淡水區"
"251010","413-VK","2019/07/12 20:09:27","新北市淡水區新市二路二段8號","121.424635","25.19661","6501000","淡水區"
"251012","441-VK","2019/07/12 20:09:15","新北市淡水區淡金路三段224號","121.44895","25.2048366666667","6501000","淡水區"
"251007","442-VK","2019/07/12 20:09:25","新北市淡水區淡金路一段69號","121.458091666667","25.1735316666667","6501000","淡水區"
"251005","443-VK","2019/07/12 20:09:14","新北市淡水區學府路136巷43號","121.452036666667","25.1726716666667","6501000","淡水區"
"251006","561-UM","2019/07/12 20:09:29","新北市淡水區北新路141巷2弄2號","121.4493","25.17914","6501000","淡水區"
"251009","575-R6","2019/07/12 20:09:11","新北市淡水區英專路2巷24號","121.446583333333","25.1692266666667","6501000","淡水區"
"251011","650-BX","2019/07/12 20:09:11","新北市淡水區崁頂55-3號","121.442303333333","25.1967233333333","6501000","淡水區"
"251002","672-BX","2019/07/12 20:09:25","新北市淡水區中正路342號","121.435073333333","25.17358","6501000","淡水區"
"207003","550-UM","2019/07/12 20:09:31","新北市萬里區大鵬里萬里加投197-3號","121.642936666667","25.215815","6502800","萬里區"
"207004","225-TW","2019/07/12 20:09:32","新北市萬里區北基里愛二街2號","121.68241","25.1767816666667","6502800","萬里區"
"252002","178-VK","2019/07/12 20:09:24","新北市三芝區中正路一段72號","121.503961666667","25.2576466666667","6502100","三芝區"
"237012","275-BY","2019/07/12 20:09:17","新北市三峽區中華路133號","121.371306666667","24.9276166666667","6500900","三峽區"
"237006","5529-G3","2019/07/12 20:09:23","新北市三峽區嘉添1號","121.368426666667","24.91188","6500900","三峽區"
"237005","AKY-6261","2019/07/12 20:09:29","新北市三峽區三樹路25號","121.377698333333","24.9378383333333","6500900","三峽區"
"236042","KED-0685","2019/07/12 20:09:21","新北市土城區學享街40號","121.451951666667","24.9868733333333","6501300","土城區"
"236030","253-BX","2019/07/12 20:09:10","新北市土城區中央路一段116號","121.446375","24.98819","6501300","土城區"
"236026","269-VK","2019/07/12 20:09:14","新北市土城區中央路一段267巷5號","121.44535","24.985135","6501300","土城區"
"236014","270-VK","2019/07/12 20:09:24","新北市土城區德興街137號","121.455143333333","24.99169","6501300","土城區"
"236039","271-VK","2019/07/12 20:09:14","新北市土城區明德路一段48巷13號","121.464671666667","24.983635","6501300","土城區"
"247010","KED-0683","2019/07/12 20:09:24","新北市蘆洲區集賢路406號","121.48007","25.0817233333333","6501400","蘆洲區"
"236069","KEA-2877","2019/07/12 20:09:15","新北市土城區中央路三段161號","121.431991666667","24.9651016666667","6501300","土城區"
"252001","KED-0821","2019/07/12 20:09:09","新北市三芝區公正街66號","121.499846666667","25.2574116666667","6502100","三芝區"
"236020","401-BY","2019/07/12 20:09:22","新北市土城區延吉街101號","121.471655","24.986855","6501300","土城區"
"236059","912-UM","2019/07/12 20:09:26","新北市土城區中央路二段263號","121.439813333333","24.9710316666667","6501300","土城區"
"236048","913-UM","2019/07/12 20:09:32","新北市土城區清水路95號","121.456555","24.9817916666667","6501300","土城區"
"236063","915-UM","2019/07/12 20:09:14","新北市土城區金城路二段269號","121.463901666667","24.986025","6501300","土城區"
"236055","AAC-216","2019/07/12 20:09:20","新北市土城區中華路一段164巷5號","121.44154","24.9833483333333","6501300","土城區"
"242039","AAC-296","2019/07/12 20:09:24","新北市新莊區民安西路109號","121.426868333333","25.0183383333333","6500500","新莊區"
"242060","986-R7","2019/07/12 20:09:23","新北市新莊區瓊林路59-38號","121.44112","25.0234183333333","6500500","新莊區"
"242029","615-BX","2019/07/12 20:09:16","新北市新莊區中原路319-1號","121.446638333333","25.0544383333333","6500500","新莊區"
"242027","613-BX","2019/07/12 20:08:31","新北市新莊區中平路377巷17弄6號","121.443961666667","25.0522933333333","6500500","新莊區"
"242058","612-BX","2019/07/12 20:09:29","新北市新莊區八德街169號","121.423326666667","25.019085","6500500","新莊區"
"242046","566-BX","2019/07/12 20:09:26","新北市新莊區福營路476號","121.41939","25.02429","6500500","新莊區"
"242050","497-BY","2019/07/12 20:09:09","新北市新莊區民安西路175號","121.426066666667","25.0159266666667","6500500","新莊區"
"242056","441-UM","2019/07/12 20:09:23","新北市新莊區新莊路649巷13弄19號","121.445646666667","25.03189","6500500","新莊區"
"242005","440-UM","2019/07/12 20:09:12","新北市新莊區頭興街118號","121.462226666667","25.0537433333333","6500500","新莊區"
"242041","415-TV","2019/07/12 20:09:26","新北市新莊區壽山路49-1號","121.414598333333","25.030765","6500500","新莊區"
"242048","400-BY","2019/07/12 20:09:32","新北市新莊區四維路182巷8號","121.421835","25.021835","6500500","新莊區"
"242025","362-BY","2019/07/12 20:09:17","新北市新莊區五工三路74號","121.459071666667","25.0649616666667","6500500","新莊區"
"242023","353-BY","2019/07/12 20:09:19","新北市新莊區化成路548號","121.466263333333","25.0536933333333","6500500","新莊區"
"242013","132-UY","2019/07/12 20:09:18","新北市新莊區中港路483巷6號","121.45175","25.04973","6500500","新莊區"
"242037","135-UY","2019/07/12 20:09:30","新北市新莊區建安街37號","121.42899","25.0256616666667","6500500","新莊區"
"242054","172-VK","2019/07/12 20:09:17","新北市新莊區西盛街387巷34弄5號","121.428521666667","25.012945","6500500","新莊區"
"242015","173-VK","2019/07/12 20:09:13","新北市新莊區中平路26巷25號","121.446191666667","25.0432916666667","6500500","新莊區"
"242021","175-VK","2019/07/12 20:09:19","新北市新莊區建中街28號","121.449065","25.0374933333333","6500500","新莊區"
"242019","KED-0687","2019/07/12 20:09:24","新北市新莊區思源路131號","121.4599","25.043355","6500500","新莊區"
"242011","346-TH","2019/07/12 20:09:28","新北市新莊區中信街67巷2號","121.448835","25.0508683333333","6500500","新莊區"
"242034","348-TH","2019/07/12 20:09:28","新北市新莊區中正路326號","121.446025","25.0348366666667","6500500","新莊區"
"242007","349-TH","2019/07/12 20:09:26","新北市新莊區福壽街184巷24號","121.459398333333","25.0530666666667","6500500","新莊區"
"242032","350-TH","2019/07/12 20:09:25","新北市新莊區忠孝街29巷6號","121.443653333333","25.0358066666667","6500500","新莊區"
"242017","351-TH","2019/07/12 20:09:30","新北市新莊區中港路360號","121.452","25.0469833333333","6500500","新莊區"
"221008","489-VK","2019/07/12 20:09:17","台北市內湖區康樂街138號","121.619308333333","25.0722683333333","6501100","汐止區"
"221036","130-UY","2019/07/12 20:09:13","新北市汐止區新台五路二段41巷21號","121.662871666667","25.067035","6501100","汐止區"
"221015","131-UY","2019/07/12 20:09:27","新北市汐止區建成路13號","121.66456","25.0725733333333","6501100","汐止區"
"221010","269-BY","2019/07/12 20:09:21","新北市汐止區連峰街270號","121.644258333333","25.08151","6501100","汐止區"
"221012","278-VK","2019/07/12 20:09:14","新北市汐止區大同路三段457號","121.679033333333","25.0712733333333","6501100","汐止區"
"221023","279-VK","2019/07/12 20:09:18","新北市汐止區明峰街201-1號","121.627618333333","25.0689516666667","6501100","汐止區"
"221032","280-BY","2019/07/12 20:09:14","新北市汐止區弘道街9巷4弄2號","121.61702","25.04916","6501100","汐止區"
"221027","281-BY","2019/07/12 20:09:24","新北市汐止區光明街28號","121.660221666667","25.0687516666667","6501100","汐止區"
"221033","297-VK","2019/07/12 20:09:15","新北市汐止區東勢街201巷104號","121.633545","25.0429133333333","6501100","汐止區"
"221029","298-VK","2019/07/12 20:09:15","新北市汐止區樟樹一路119巷8-5號","121.641373333333","25.0644416666667","6501100","汐止區"
"221021","299-VK","2019/07/12 20:09:27","新北市汐止區水源路一段231號","121.65431","25.060865","6501100","汐止區"
"221031","353-TW","2019/07/12 20:09:21","新北市汐止區福德一路258號","121.633428333333","25.0646416666667","6501100","汐止區"
"221025","623-UM","2019/07/12 20:09:13","新北市汐止區秀峰路74號","121.659893333333","25.064315","6501100","汐止區"
"221038","646-BX","2019/07/12 20:09:30","新北市汐止區大同路三段66-3號","121.668043333333","25.0772483333333","6501100","汐止區"
"220079","145-BY","2019/07/12 20:09:20","新北市板橋區建國街76號","121.45932","25.0171216666667","6500100","板橋區"
"220080","200-UY","2019/07/12 20:09:14","新北市板橋區大觀路二段169巷7號","121.445733333333","25.0000666666667","6500100","板橋區"
"220082","610-BX","2019/07/12 20:09:26","新北市板橋區篤行路二段120-3號","121.43125","24.9907966666667","6500100","板橋區"
"220101","245-BX","2019/07/12 20:09:30","新北市板橋區萬板路820號","121.483541666667","25.0276733333333","6500100","板橋區"
"224002","257-TC","2019/07/12 20:09:33","新北市瑞芳區蛇子形路7號","121.826013333333","25.1049733333333","6501200","瑞芳區"
"220072","277-BY","2019/07/12 20:09:18","新北市板橋區金門街117-3號","121.433073333333","24.99181","6500100","板橋區"
"220071","283-VK","2019/07/12 20:09:24","新北市土城區四川路20-1號","121.455338333333","24.9959866666667","6500100","板橋區"
"220083","286-VK","2019/07/12 20:09:25","新北市板橋區僑中二街86號","121.446533333333","25.0095566666667","6500100","板橋區"
"220081","287-VK","2019/07/12 20:09:04","新北市板橋區僑中一街80巷14弄2號","121.448268333333","25.013435","6500100","板橋區"
"220061","295-UM","2019/07/12 20:09:22","新北市板橋區四川路一段281號","121.459463333333","25.0019216666667","6500100","板橋區"
"242044","281-VK","2019/07/12 20:09:23","桃園市龜山區萬壽路一段21巷14號","121.41066","25.01998","6500500","新莊區"
"220075","303-R5","2019/07/12 20:09:17","新北市板橋區金華街10巷48弄78號","121.460223333333","25.0203233333333","6500100","板橋區"
"220062","305-R5","2019/07/12 20:09:19","新北市板橋區萬安街140-3號","121.484065","25.0260983333333","6500100","板橋區"
"242009","280-VK","2019/07/12 20:09:14","新北市新莊區昌盛街21號","121.453576666667","25.0499883333333","6500500","新莊區"
"220035","560-BX","2019/07/12 20:09:28","新北市板橋區新生街89巷10號","121.457833333333","25.0223633333333","6500100","板橋區"
"220103","561-BX","2019/07/12 20:09:19","新北市板橋區漢生東路73巷26號","121.467248333333","25.0169566666667","6500100","板橋區"
"220074","630-UY","2019/07/12 20:09:17","新北市板橋區縣民大道一段287號","121.460808333333","25.01018","6500100","板橋區"
"220077","687-BX","2019/07/12 20:09:19","新北市板橋區僑中一街102巷5弄16號","121.445993333333","25.0127433333333","6500100","板橋區"
"220054","741-BX","2019/07/12 20:09:13","新北市板橋區忠孝路忠義巷3弄20號","121.465333333333","25.004005","6500100","板橋區"
"220055","827-TW","2019/07/12 20:09:30","新北市板橋區仁愛路84號","121.460966666667","24.9995716666667","6500100","板橋區"
"220073","985-R7","2019/07/12 20:09:20","新北市板橋區南雅西路二段2-1號","121.45317","25.0090283333333","6500100","板橋區"
"235068","KEA-2873","2019/07/12 20:09:24","新北市中和區福美路253號","121.498726666667","25.00516","6500300","中和區"
