"lineid","car","time","location","longitude","latitude","cityid","cityname"
"234046","148-BY","2019/07/12 20:19:24","新北市永和區永元路120號","121.522776666667","25.00269","6500400","永和區"
"234081","298-R6","2019/07/12 20:19:29","新北市永和區福和路7巷10弄7號","121.524858333333","25.00755","6500400","永和區"
"234038","336-UY","2019/07/12 20:19:13","新北市永和區成功路一段93巷20弄2號","121.528151666667","25.002665","6500400","永和區"
"234064","337-UY","2019/07/12 20:19:21","新北市永和區中正路340號","121.517923333333","25.00003","6500400","永和區"
"234086","338-UY","2019/07/12 20:19:30","新北市永和區永和路二段207號","121.515428333333","25.013555","6500400","永和區"
"234070","552-UM","2019/07/12 20:19:32","新北市永和區永利路27號","121.518265","25.00611","6500400","永和區"
"234017","745-BX","2019/07/12 20:19:23","新北市永和區仁愛路46號","121.514123333333","25.0134433333333","6500400","永和區"
"234030","746-BX","2019/07/12 20:19:14","新北市永和區民族街81巷1號","121.518663333333","24.9966816666667","6500400","永和區"
"234054","KEA-2590","2019/07/12 20:19:16","新北市永和區永和路二段336號","121.516395","25.0166716666667","6500400","永和區"
"234013","KEA-2591","2019/07/12 20:19:23","新北市永和區保生路64號","121.505228333333","25.0090366666667","6500400","永和區"
"234061","AAD-866","2019/07/12 20:19:31","新北市永和區得和路55號","121.517001666667","25.0001716666667","6500400","永和區"
"234042","862-TW","2019/07/12 20:19:20","新北市中和區中安街168號","121.510883333333","24.9998483333333","6500400","永和區"
"234050","863-TW","2019/07/12 20:19:29","新北市永和區環河西路二段9號","121.508766666667","25.016635","6500400","永和區"
"249005","172-UM","2019/07/12 20:19:20","新北市八里區中山路三段132號","121.385426666667","25.1417066666667","6502300","八里區"
"249001","173-UM","2019/07/12 20:19:26","新北市八里區中華路二段538號","121.39908","25.14507","6502300","八里區"
"249004","303-UY","2019/07/12 20:19:24","新北市八里區中山路一段396號","121.41174","25.1584066666667","6502300","八里區"
"249002","305-UY","2019/07/12 20:19:24","新北市八里區龍米路一段102號","121.45336","25.1249316666667","6502300","八里區"
"249003","593-UM","2019/07/12 20:19:14","新北市八里區訊塘路42號","121.397855","25.145505","6502300","八里區"
"248016","026-BX","2019/07/12 20:19:30","新北市五股區凌雲路一段158巷39弄12號","121.446558333333","25.1040316666667","6501500","五股區"
"248012","247-BX","2019/07/12 20:19:18","新北市五股區民義路一段52號","121.436656666667","25.0842516666667","6501500","五股區"
"248002","678-BX","2019/07/12 20:19:32","新北市五股區成泰路三段173號","121.445353333333","25.0919316666667","6501500","五股區"
"234023","9380-KE","2019/07/12 20:19:14","新北市永和區復興街2巷2號","121.515641666667","25.0126016666667","6500400","永和區"
"234077","969-R7","2019/07/12 20:19:14","新北市永和區民享街2巷2號","121.51471","24.9958466666667","6500400","永和區"
"234074","AAC-211","2019/07/12 20:19:23","新北市永和區竹林路201巷35號","121.522178333333","25.0096466666667","6500400","永和區"
"234067","AAC-212","2019/07/12 20:19:30","新北市永和區保平路268巷27號","121.507945","25.0058966666667","6500400","永和區"
"234003","AAC-295","2019/07/12 20:19:27","新北市永和區大新街12號","121.514818333333","25.0084983333333","6500400","永和區"
"243012","AAD-798","2019/07/12 20:19:13","新北市泰山區楓江路162號","121.440798333333","25.065645","6501600","泰山區"
"243010","297-R6","2019/07/12 20:19:12","新北市泰山區明志路二段254巷7號","121.426123333333","25.0477583333333","6501600","泰山區"
"243014","KEA-2801","2019/07/12 20:19:29","新北市泰山區泰林路二段262號","121.431645","25.0623766666667","6501600","泰山區"
"243016","421-VK","2019/07/12 20:11:13","新北市泰山區明志路三段328號","121.422178333333","25.0356516666667","6501600","泰山區"
"243009","KEA-2215","2019/07/12 20:19:31","新北市泰山區福泰街18號","121.432956666667","25.06016","6501600","泰山區"
"243011","KEA-2216","2019/07/12 20:19:23","新北市新莊區壽山路160巷21號","121.417496666667","25.03188","6501600","泰山區"
"243013","646-TV","2019/07/12 20:19:16","新北市泰山區明志路二段359巷22號","121.42603","25.0439116666667","6501600","泰山區"
"243015","680-BX","2019/07/12 20:19:20","新北市泰山區明志路一段278號","121.432051666667","25.06007","6501600","泰山區"
"222002","016-RS","2019/07/12 20:19:24","新北市深坑區萬福路75巷21號","121.599103333333","25.0096733333333","6501800","深坑區"
"222003","436-BY","2019/07/12 20:19:19","新北市深坑區文化街43號","121.617593333333","25.00187","6501800","深坑區"
"231061","002-UM","2019/07/12 20:19:24","新北市新店區安興路33-1號","121.515821666667","24.970425","6500600","新店區"
"231058","0293-UT","2019/07/12 20:19:20","新北市新店區薏仁坑路6-3號","121.49975","24.9586366666667","6500600","新店區"
"231044","046-UY","2019/07/12 20:19:20","新北市新店區北新路三段196號","121.541528333333","24.9832716666667","6500600","新店區"
"231060","106-UY","2019/07/12 20:19:19","新北市新店區安康路三段578-1號","121.481068333333","24.9487266666667","6500600","新店區"
"231051","107-UY","2019/07/12 20:19:16","新北市新店區中央六街75號","121.527101666667","24.976395","6500600","新店區"
"231049","108-UY","2019/07/12 20:19:24","新北市新店區北新路二段35號","121.542786666667","24.97248","6500600","新店區"
"231065","110-UY","2019/07/12 20:19:28","新北市新店區安祥路102巷32號","121.48414","24.9638366666667","6500600","新店區"
"231068","187-VK","2019/07/12 20:19:19","新北市新店區寶安街30號","121.542015","24.9823383333333","6500600","新店區"
"231050","KEA-2219","2019/07/12 20:19:17","新北市新店區博愛街6巷1號","121.541078333333","24.9732866666667","6500600","新店區"
"221035","KEA-2785","2019/07/12 20:19:29","新北市汐止區長江街67巷2弄5號","121.656553333333","25.0723866666667","6501100","汐止區"
"231062","256-BX","2019/07/12 20:19:26","新北市新店區安康路三段24號","121.493196666667","24.9532816666667","6500600","新店區"
"231054","260-TV","2019/07/12 20:19:17","新北市新店區檳榔路109號","121.544556666667","24.9615833333333","6500600","新店區"
"231042","268-BY","2019/07/12 20:19:21","新北市新店區寶橋路78巷17號","121.547286666667","24.9746266666667","6500600","新店區"
"231064","278-BY","2019/07/12 20:19:16","新北市新店區安業街8巷1號","121.51583","24.9773366666667","6500600","新店區"
"231045","355-BY","2019/07/12 20:19:33","新北市新店區北宜路一段47號","121.53834","24.9570116666667","6500600","新店區"
"231055","4716-K9","2019/07/12 20:19:23","新北市新店區中華路48巷21號","121.540511666667","24.96906","6500600","新店區"
"231056","4715-K9","2019/07/12 20:19:19","新北市新店區中正路328巷1號","121.53692","24.97526","6500600","新店區"
"231053","513-UM","2019/07/12 20:19:15","新北市新店區新烏路二段399號","121.551228333333","24.9096083333333","6500600","新店區"
"231040","617-UM","2019/07/12 20:19:20","新北市新店區中正路108號","121.543101666667","24.970685","6500600","新店區"
"231041","619-UM","2019/07/12 20:19:26","新北市新店區民權路72號","121.538168333333","24.9830333333333","6500600","新店區"
"231063","641-BX","2019/07/12 20:19:19","新北市新店區車子路12號","121.504856666667","24.954195","6500600","新店區"
"231048","KED-0819","2019/07/12 20:19:13","新北市新店區北新路二段230-7號","121.543853333333","24.977175","6500600","新店區"
"231057","720-UM","2019/07/12 20:19:12","新北市新店區花園十路二段7-6號","121.554113333333","24.9342683333333","6500600","新店區"
"231059","897-TW","2019/07/12 20:19:31","新北市新店區安德街116巷10號","121.509065","24.9608716666667","6500600","新店區"
"231043","899-TW","2019/07/12 20:19:16","新北市新店區建國路133號","121.539296666667","24.978265","6500600","新店區"
"231066","AKT-0513","2019/07/12 20:19:16","新北市新店區柴埕路29號","121.513933333333","24.96579","6500600","新店區"
"241011","013-R5","2019/07/12 20:19:29","新北市三重區仁愛街55巷164號","121.499841666667","25.0731266666667","6500200","三重區"
"241028","022-UY","2019/07/12 20:19:25","新北市三重區大同南路90號","121.49613","25.0590616666667","6500200","三重區"
"241008","059-VK","2019/07/12 20:19:16","新北市三重區永福街160號","121.48052","25.074525","6500200","三重區"
"241029","060-VK","2019/07/12 20:19:31","新北市三重區光明路116號","121.492753333333","25.056085","6500200","三重區"
"241031","061-VK","2019/07/12 20:19:20","新北市三重區三寧街18號","121.48942","25.0598683333333","6500200","三重區"
"241015","062-VK","2019/07/12 20:19:27","新北市三重區重新路一段136號","121.500176666667","25.0627616666667","6500200","三重區"
"241017","063-VK","2019/07/12 20:19:24","新北市三重區自強路一段288號","121.491568333333","25.0681333333333","6500200","三重區"
"241024","065-VK","2019/07/12 20:19:13","新北市三重區中正北路262號","121.481313333333","25.06838","6500200","三重區"
"241023","066-VK","2019/07/12 20:19:20","新北市三重區自由街12號","121.479946666667","25.066485","6500200","三重區"
"241002","090-VK","2019/07/12 20:19:11","新北市三重區仁義街101巷2號","121.49802","25.080115","6500200","三重區"
"241003","091-VK","2019/07/12 20:19:28","新北市三重區富華街82號","121.490793333333","25.0833733333333","6500200","三重區"
"241030","742-BX","2019/07/12 20:19:26","新北市三重區集美街75巷41號","121.487648333333","25.0525866666667","6500200","三重區"
"241016","266-UM","2019/07/12 20:19:32","新北市三重區大同北路97-3號","121.494435","25.0636466666667","6500200","三重區"
"241009","267-UM","2019/07/12 20:19:25","新北市三重區永福街9號","121.482468333333","25.0782966666667","6500200","三重區"
"241018","268-UM","2019/07/12 20:19:21","新北市三重區雙園街97號","121.493873333333","25.0673","6500200","三重區"
"241032","269-UM","2019/07/12 20:19:26","新北市三重區捷運路19巷8弄12號","121.484498333333","25.057265","6500200","三重區"
"241013","270-UM","2019/07/12 20:19:16","新北市三重區三和路三段163號","121.491955","25.074065","6500200","三重區"
"241025","271-UM","2019/07/12 20:19:28","新北市三重區頂崁街210巷27號","121.475806666667","25.0681433333333","6500200","三重區"
"241007","398-BY","2019/07/12 20:19:23","新北市三重區溪尾街108巷56號","121.487278333333","25.0781216666667","6500200","三重區"
"241035","462-BY","2019/07/12 20:19:30","新北市三重區重新路一段137號","121.499863333333","25.063095","6500200","三重區"
"241004","475-VK","2019/07/12 20:19:26","新北市三重區慈愛街201號","121.49092","25.0807433333333","6500200","三重區"
"241020","478-VK","2019/07/12 20:19:22","新北市三重區三和路三段170巷13號","121.492141666667","25.0729433333333","6500200","三重區"
"241026","480-VK","2019/07/12 20:19:12","新北市三重區重新路一段52-1號","121.5028","25.0635766666667","6500200","三重區"
"241014","543-UM","2019/07/12 20:19:17","新北市三重區龍門路254號","121.501041666667","25.0738416666667","6500200","三重區"
"241001","547-UM","2019/07/12 20:19:26","新北市三重區溪尾街30-1號","121.49094","25.0767116666667","6500200","三重區"
"241019","KEA-2593","2019/07/12 20:19:16","新北市三重區忠孝路一段77號","121.490445","25.0720633333333","6500200","三重區"
"241006","AAD-863","2019/07/12 20:19:16","新北市三重區車路頭街135-1號","121.484245","25.07615","6500200","三重區"
"241022","KED-0820","2019/07/12 20:19:29","新北市三重區新北大道一段50號","121.487626666667","25.061335","6500200","三重區"
"241005","887-TS","2019/07/12 20:19:22","新北市三重區仁愛街508號","121.488005","25.0820883333333","6500200","三重區"
"241012","941-UM","2019/07/12 20:19:13","新北市三重區河邊北街379-1號","121.50174","25.07642","6500200","三重區"
"241033","AAC-255","2019/07/12 20:19:29","新北市三重區五谷王北街50巷57號","121.474856666667","25.0514233333333","6500200","三重區"
"235066","003-UY","2019/07/12 20:19:23","新北市中和區保平路336號","121.506743333333","25.004315","6500300","中和區"
"235039","097-UM","2019/07/12 20:19:15","新北市中和區大勇街29巷17號","121.515826666667","24.9945466666667","6500300","中和區"
"235065","098-UM","2019/07/12 20:19:12","新北市中和區永和路128巷47號","121.497683333333","25.00684","6500300","中和區"
"235040","150-BY","2019/07/12 20:19:13","新北市中和區保健路26巷21號","121.508638333333","24.997195","6500300","中和區"
"235055","183-VK","2019/07/12 20:19:20","新北市八里區荖阡坑路16-8號","121.39863","25.1390933333333","6500300","中和區"
"235031","255-BX","2019/07/12 20:19:28","新北市五股區成泰路三段544-1號","121.45451","25.1031533333333","6500300","中和區"
"247014","KEA-2869","2019/07/12 20:19:11","新北市蘆洲區成功路60號","121.472485","25.0803683333333","6501400","蘆洲區"
"247008","KED-0682","2019/07/12 20:19:21","新北市蘆洲區集賢路240號","121.481995","25.085695","6501400","蘆洲區"
"235050","4979-A6","2019/07/12 20:19:28","新北市中和區景安路177巷10號","121.505833333333","24.99407","6500300","中和區"
"235037","AAC-213","2019/07/12 20:19:14","新北市五股區凌雲路一段21號","121.452821666667","25.100475","6500300","中和區"
"235059","AAC-215","2019/07/12 20:19:19","新北市中和區員山路30-3號","121.483611666667","24.987875","6500300","中和區"
"220065","072-UY","2019/07/12 20:19:15","新北市板橋區南雅南路二段43號","121.451423333333","24.9944233333333","6500100","板橋區"
"247004","893-R6","2019/07/12 20:19:26","新北市蘆洲區長安街297號","121.457836666667","25.08474","6501400","蘆洲區"
"247002","500-BY","2019/07/12 20:19:19","新北市蘆洲區長安街331巷30號","121.456126666667","25.0866","6501400","蘆洲區"
"247024","337-TH","2019/07/12 20:19:15","新北市蘆洲區光榮路120巷8弄41號","121.464456666667","25.087915","6501400","蘆洲區"
"247022","057-VK","2019/07/12 20:19:17","新北市蘆洲區三民路241號","121.469065","25.0888466666667","6501400","蘆洲區"
"247012","056-VK","2019/07/12 20:19:20","新北市蘆洲區中興街30號","121.480886666667","25.0868733333333","6501400","蘆洲區"
"247020","007-UY","2019/07/12 20:19:26","新北市蘆洲區仁愛街57號","121.471916666667","25.09329","6501400","蘆洲區"
"247006","002-UY","2019/07/12 20:19:20","新北市蘆洲區九芎街136號","121.465113333333","25.079055","6501400","蘆洲區"
"222001","KEA-2212","2019/07/12 20:19:20","新北市深坑區北深路三段257號","121.59905","25.0043133333333","6501800","深坑區"
"251001","011-UM","2019/07/12 20:19:22","新北市淡水區淡金路二段15號","121.446505","25.1891683333333","6501000","淡水區"
"251008","181-VK","2019/07/12 20:19:25","新北市淡水區淡海路150巷21號","121.422113333333","25.1843916666667","6501000","淡水區"
"251010","413-VK","2019/07/12 20:19:27","新北市淡水區新民街一段155號","121.427471666667","25.18885","6501000","淡水區"
"251012","441-VK","2019/07/12 20:19:15","新北市淡水區下圭柔山431-1號","121.449836666667","25.2102133333333","6501000","淡水區"
"251007","442-VK","2019/07/12 20:19:25","新北市淡水區淡金路一段69號","121.458076666667","25.1735283333333","6501000","淡水區"
"251005","443-VK","2019/07/12 20:19:14","新北市淡水區淡金路二段401號","121.446886666667","25.1870983333333","6501000","淡水區"
"251006","561-UM","2019/07/12 20:19:29","新北市淡水區北新路169巷69弄28-1號","121.447796666667","25.1800966666667","6501000","淡水區"
"251009","575-R6","2019/07/12 20:19:31","新北市淡水區中山路143-2號","121.44062","25.1720266666667","6501000","淡水區"
"251002","672-BX","2019/07/12 20:19:25","新北市淡水區中正路177號","121.4387","25.1712166666667","6501000","淡水區"
"251003","766-UM","2019/07/12 20:19:28","新北市淡水區中山北路一段229號","121.444441666667","25.1795183333333","6501000","淡水區"
"207003","550-UM","2019/07/12 20:19:11","新北市萬里區大鵬里萬里加投6號","121.654163333333","25.2088433333333","6502800","萬里區"
"207004","225-TW","2019/07/12 20:19:29","新北市萬里區北基里大仁路1號","121.681701666667","25.1751433333333","6502800","萬里區"
"252002","178-VK","2019/07/12 20:19:24","新北市三芝區中正路一段49號","121.503321666667","25.2581016666667","6502100","三芝區"
"237006","5529-G3","2019/07/12 20:19:23","新北市三峽區中正路二段41號","121.366728333333","24.918795","6500900","三峽區"
"237005","AKY-6261","2019/07/12 20:19:29","新北市三峽區三樹路98巷93號","121.381988333333","24.9399166666667","6500900","三峽區"
"236042","KED-0685","2019/07/12 20:19:20","新北市土城區城林路6巷80號","121.438485","24.980055","6501300","土城區"
"236030","253-BX","2019/07/12 20:19:29","新北市土城區學成路128巷13弄6號","121.449515","24.990165","6501300","土城區"
"236026","269-VK","2019/07/12 20:19:31","新北市土城區中央路一段249巷27號","121.446335","24.985455","6501300","土城區"
"236014","270-VK","2019/07/12 20:19:24","新北市板橋區信義路26巷18號","121.456128333333","24.99509","6501300","土城區"
"247010","KED-0683","2019/07/12 20:19:25","新北市蘆洲區信義路188巷19號","121.479988333333","25.08459","6501400","蘆洲區"
"236069","KEA-2877","2019/07/12 20:19:15","新北市土城區中山路38號","121.425291666667","24.964195","6501300","土城區"
"252001","KED-0821","2019/07/12 20:19:29","新北市三芝區中山路一段31號","121.500618333333","25.2580616666667","6502100","三芝區"
"236059","912-UM","2019/07/12 20:19:26","新北市土城區大安路101-5號","121.433478333333","24.96851","6501300","土城區"
"242039","AAC-296","2019/07/12 20:19:24","新北市新莊區成功街75號","121.424633333333","25.0198533333333","6500500","新莊區"
"242060","986-R7","2019/07/12 20:19:23","新北市新莊區民安東路141號","121.431445","25.0207766666667","6500500","新莊區"
"242029","615-BX","2019/07/12 20:19:16","新北市新莊區中原路193-2號","121.451506666667","25.054305","6500500","新莊區"
"242027","613-BX","2019/07/12 20:19:31","新北市新莊區幸福路729號","121.449216666667","25.0491233333333","6500500","新莊區"
"242058","612-BX","2019/07/12 20:19:09","新北市新莊區四維路215號","121.421633333333","25.0199866666667","6500500","新莊區"
"242046","566-BX","2019/07/12 20:19:26","新北市新莊區裕民街132號","121.418013333333","25.0221333333333","6500500","新莊區"
"242050","497-BY","2019/07/12 20:19:29","新北市新莊區民安西路240號","121.425905","25.0141766666667","6500500","新莊區"
"242056","441-UM","2019/07/12 20:19:23","新北市新莊區新莊路649巷15弄1號","121.444916666667","25.0315266666667","6500500","新莊區"
"242005","440-UM","2019/07/12 20:19:12","新北市新莊區頭前路2巷8號","121.468506666667","25.052935","6500500","新莊區"
"242041","415-TV","2019/07/12 20:19:26","新北市新莊區天祥街92巷14號","121.415585","25.0301033333333","6500500","新莊區"
"242048","400-BY","2019/07/12 20:19:12","新北市新莊區龍安路277號","121.42045","25.0199083333333","6500500","新莊區"
"242025","362-BY","2019/07/12 20:19:19","新北市新莊區五工二路70巷5號","121.46044","25.0660733333333","6500500","新莊區"
"242023","353-BY","2019/07/12 20:19:21","新北市新莊區化成路752-1號","121.465495","25.05797","6500500","新莊區"
"242013","132-UY","2019/07/12 20:19:17","新北市新莊區幸福路710巷5弄1號","121.449131666667","25.0497566666667","6500500","新莊區"
"242037","135-UY","2019/07/12 20:19:10","新北市新莊區建安街62巷22號","121.426841666667","25.0252283333333","6500500","新莊區"
"242054","172-VK","2019/07/12 20:19:26","新北市新莊區民安西路261巷11號","121.426885","25.0131416666667","6500500","新莊區"
"242015","173-VK","2019/07/12 20:19:15","新北市新莊區中和街42號","121.448181666667","25.0441216666667","6500500","新莊區"
"242021","175-VK","2019/07/12 20:19:19","新北市新莊區和興街49號","121.446493333333","25.04065","6500500","新莊區"
"242019","KED-0687","2019/07/12 20:19:24","新北市新莊區復興路二段183號","121.458996666667","25.0445183333333","6500500","新莊區"
"242011","346-TH","2019/07/12 20:19:18","新北市新莊區中信街37巷2弄1號","121.450268333333","25.0504883333333","6500500","新莊區"
"242034","348-TH","2019/07/12 20:19:29","新北市新莊區新泰路199巷6號","121.446698333333","25.0379816666667","6500500","新莊區"
"242007","349-TH","2019/07/12 20:19:14","新北市新莊區福壽街124巷41弄14號","121.459333333333","25.0517383333333","6500500","新莊區"
"242032","350-TH","2019/07/12 20:19:25","新北市新莊區義豐街11號","121.441083333333","25.03474","6500500","新莊區"
"242017","351-TH","2019/07/12 20:19:30","新北市新莊區中港一街119號","121.448525","25.0451633333333","6500500","新莊區"
"221008","489-VK","2019/07/12 20:19:17","新北市汐止區忠三街9巷32號","121.624553333333","25.0802583333333","6501100","汐止區"
"221036","130-UY","2019/07/12 20:19:13","新北市汐止區福安街59巷1號","121.664136666667","25.0636916666667","6501100","汐止區"
"221015","131-UY","2019/07/12 20:19:27","新北市汐止區建成路160巷16號","121.66187","25.074025","6501100","汐止區"
"221010","269-BY","2019/07/12 20:19:21","新北市汐止區八連路一段203號","121.64093","25.0810466666667","6501100","汐止區"
"221012","278-VK","2019/07/12 20:19:14","新北市汐止區汐平路一段45-1號","121.682116666667","25.0706283333333","6501100","汐止區"
"221023","279-VK","2019/07/12 20:19:19","新北市汐止區明峰街298巷10弄2號","121.625018333333","25.0688366666667","6501100","汐止區"
"221032","280-BY","2019/07/12 20:19:14","新北市汐止區弘道街57號","121.61878","25.048425","6501100","汐止區"
"221033","297-VK","2019/07/12 20:19:15","新北市汐止區東勢街201巷40號","121.634898333333","25.0436933333333","6501100","汐止區"
"221029","298-VK","2019/07/12 20:19:11","新北市汐止區樟樹一路99巷7弄3號","121.64128","25.063485","6501100","汐止區"
"221021","299-VK","2019/07/12 20:19:30","新北市汐止區水源路一段284號","121.654198333333","25.0583133333333","6501100","汐止區"
"221031","353-TW","2019/07/12 20:19:21","新北市汐止區原興路73巷1號","121.632026666667","25.06608","6501100","汐止區"
"221025","623-UM","2019/07/12 20:19:13","新北市汐止區水源路二段28號","121.654736666667","25.0573766666667","6501100","汐止區"
"221038","646-BX","2019/07/12 20:19:31","新北市汐止區茄苳路43號","121.665828333333","25.0709316666667","6501100","汐止區"
"221002","707-TV","2019/07/12 20:19:33","新北市汐止區福德一路86巷25號","121.637566666667","25.0688666666667","6501100","汐止區"
"221018","753-BX","2019/07/12 20:19:16","新北市汐止區茄苳路277號","121.672328333333","25.0680183333333","6501100","汐止區"
"220080","200-UY","2019/07/12 20:19:14","新北市板橋區大觀路二段205號","121.44459","24.9994616666667","6500100","板橋區"
"220101","245-BX","2019/07/12 20:19:10","新北市五股區凌雲路二段18巷64-3號","121.440993333333","25.1063","6500100","板橋區"
"220083","286-VK","2019/07/12 20:19:24","新北市板橋區僑中二街92巷8號","121.445886666667","25.0090516666667","6500100","板橋區"
"220081","287-VK","2019/07/12 20:19:24","新北市板橋區僑中一街80巷14弄2號","121.448245","25.0135416666667","6500100","板橋區"
"242044","281-VK","2019/07/12 20:19:23","新北市新莊區中正路893巷6-1號","121.41368","25.0208616666667","6500500","新莊區"
"242009","280-VK","2019/07/12 20:19:14","新北市新莊區昌平街18號","121.455023333333","25.0527083333333","6500500","新莊區"
"220074","630-UY","2019/07/12 20:19:17","新北市板橋區館前西路66號","121.45773","25.0071333333333","6500100","板橋區"
"220077","687-BX","2019/07/12 20:19:19","新北市板橋區大觀路一段28巷1弄104號","121.451748333333","25.00574","6500100","板橋區"
"220054","741-BX","2019/07/12 20:19:10","新北市板橋區成都街16號","121.460601666667","25.0048516666667","6500100","板橋區"
"220055","827-TW","2019/07/12 20:19:30","新北市板橋區仁愛路23號","121.458935","24.99949","6500100","板橋區"
"235068","KEA-2873","2019/07/12 20:19:24","新北市中和區勝利路35巷1弄36號","121.500315","25.0078533333333","6500300","中和區"
