"lineid","car","time","location","longitude","latitude","cityid","cityname"
"231051","107-UY","2019/07/12 21:19:16","新北市新店區中正路700巷322-9號","121.535045","24.9940133333333","6500600","新店區"
"231050","KEA-2219","2019/07/12 21:19:17","新北市新店區中正路189巷14號","121.540121666667","24.9719666666667","6500600","新店區"
"231063","641-BX","2019/07/12 21:19:19","新北市新店區吉祥街13巷1號","121.497741666667","24.9460883333333","6500600","新店區"
"241011","013-R5","2019/07/12 21:19:29","新北市三重區龍濱路197號","121.50186","25.0714266666667","6500200","三重區"
"241028","022-UY","2019/07/12 21:19:25","新北市三重區同安街110號","121.494343333333","25.0563133333333","6500200","三重區"
"241008","059-VK","2019/07/12 21:19:13","新北市三重區自強路一段139號","121.49467","25.0665416666667","6500200","三重區"
"241029","060-VK","2019/07/12 21:19:31","新北市三重區重新路三段115巷18號","121.490111666667","25.060765","6500200","三重區"
"241031","061-VK","2019/07/12 21:19:20","新北市三重區重新路五段408巷19號","121.475746666667","25.0455783333333","6500200","三重區"
"241015","062-VK","2019/07/12 21:19:27","新北市三重區龍濱路197號","121.501866666667","25.0714183333333","6500200","三重區"
"241017","063-VK","2019/07/12 21:19:24","新北市三重區大同北路132巷6號","121.492476666667","25.0647233333333","6500200","三重區"
"241024","065-VK","2019/07/12 21:19:13","新北市三重區中正北路145巷14號","121.48414","25.067765","6500200","三重區"
"241023","066-VK","2019/07/12 21:19:20","新北市三重區中正北路176巷27號","121.48263","25.065955","6500200","三重區"
"241002","090-VK","2019/07/12 21:19:11","新北市三重區五華街60號","121.494048333333","25.0813116666667","6500200","三重區"
"241003","091-VK","2019/07/12 21:19:28","新北市三重區仁義街317號","121.495376666667","25.0841983333333","6500200","三重區"
"241030","742-BX","2019/07/12 21:19:26","新北市三重區光復路二段133號","121.472105","25.059675","6500200","三重區"
"241016","266-UM","2019/07/12 21:18:12","新北市三重區自強路一段95號","121.49595","25.066395","6500200","三重區"
"241009","267-UM","2019/07/12 21:19:25","新北市五股區中興路三段2巷10號","121.448358333333","25.0824183333333","6500200","三重區"
"241018","268-UM","2019/07/12 21:19:21","新北市三重區忠孝路三段84巷1號","121.480281666667","25.0645883333333","6500200","三重區"
"241032","269-UM","2019/07/12 21:19:25","新北市三重區光復路二段170號","121.472145","25.0612916666667","6500200","三重區"
"241013","270-UM","2019/07/12 21:19:16","新北市三重區仁愛街83號","121.495903333333","25.073245","6500200","三重區"
"241025","271-UM","2019/07/12 21:19:28","新北市三重區中正北路208巷10弄4號","121.482386666667","25.0669516666667","6500200","三重區"
"241007","398-BY","2019/07/12 21:19:23","新北市三重區忠孝路一段133號","121.488566666667","25.07197","6500200","三重區"
"241004","475-VK","2019/07/12 21:19:26","新北市三重區碧華街317號","121.491015","25.084265","6500200","三重區"
"241026","480-VK","2019/07/12 21:19:12","新北市三重區大同南路210號","121.496706666667","25.0564466666667","6500200","三重區"
"241014","543-UM","2019/07/12 21:19:16","新北市三重區萬全街18號","121.499338333333","25.06975","6500200","三重區"
"241001","547-UM","2019/07/12 21:19:26","新北市三重區仁愛街351號","121.49199","25.079765","6500200","三重區"
"241006","AAD-863","2019/07/12 21:19:16","新北市新莊區化成路1008號","121.465625","25.0657066666667","6500200","三重區"
"241005","887-TS","2019/07/12 21:19:22","新北市三重區三信路186號","121.487925","25.0861516666667","6500200","三重區"
"241033","AAC-255","2019/07/12 21:19:29","新北市三重區光復路二段98號","121.471941666667","25.0581116666667","6500200","三重區"
"235031","255-BX","2019/07/12 21:19:28","新北市中和區員山路36巷13號","121.48407","24.991","6500300","中和區"
"247014","KEA-2869","2019/07/12 21:19:31","新北市蘆洲區中正路185巷29號","121.466511666667","25.0843933333333","6501400","蘆洲區"
"247008","KED-0682","2019/07/12 21:19:22","新北市蘆洲區中山一路97巷30號","121.475888333333","25.0809133333333","6501400","蘆洲區"
"235018","640-BX","2019/07/12 21:08:07","新北市中和區員山路36巷16-2號","121.48529","24.9915816666667","6500300","中和區"
"247004","893-R6","2019/07/12 21:19:26","新北市蘆洲區永康街63號","121.456201666667","25.08526","6501400","蘆洲區"
"247002","500-BY","2019/07/12 21:19:28","新北市蘆洲區永樂街86號","121.456711666667","25.08882","6501400","蘆洲區"
"247024","337-TH","2019/07/12 21:19:15","新北市蘆洲區光明路18號","121.461268333333","25.0869033333333","6501400","蘆洲區"
"247012","056-VK","2019/07/12 21:19:20","新北市蘆洲區中興街113號","121.48215","25.088845","6501400","蘆洲區"
"247006","002-UY","2019/07/12 21:19:19","新北市蘆洲區長安街91號","121.462006666667","25.0802966666667","6501400","蘆洲區"
"251004","009-UM","2019/07/12 21:19:21","新北市淡水區民族路33號","121.46233","25.1358583333333","6501000","淡水區"
"251001","011-UM","2019/07/12 21:19:22","新北市淡水區中山北路三段59號","121.442908333333","25.1915533333333","6501000","淡水區"
"251008","181-VK","2019/07/12 21:19:25","新北市淡水區水源街二段206號","121.458826666667","25.1764433333333","6501000","淡水區"
"251010","413-VK","2019/07/12 21:19:27","新北市淡水區中正路一段156巷51號","121.421873333333","25.18087","6501000","淡水區"
"251012","441-VK","2019/07/12 21:19:15","新北市淡水區淡金路五段35巷46號","121.452498333333","25.2347416666667","6501000","淡水區"
"251007","442-VK","2019/07/12 21:19:24","新北市淡水區淡金路一段69號","121.458056666667","25.1735616666667","6501000","淡水區"
"251005","443-VK","2019/07/12 21:19:14","新北市淡水區仁愛街18巷10號","121.447043333333","25.170345","6501000","淡水區"
"251009","575-R6","2019/07/12 21:19:18","新北市淡水區民族路33巷16-19號","121.462468333333","25.13579","6501000","淡水區"
"251011","650-BX","2019/07/12 21:19:11","新北市淡水區新民街120巷29號","121.438888333333","25.1788333333333","6501000","淡水區"
"251002","672-BX","2019/07/12 21:19:25","新北市淡水區學府路172巷21號","121.448323333333","25.1748816666667","6501000","淡水區"
"251003","766-UM","2019/07/12 21:19:28","新北市淡水區崁頂15-5號","121.43897","25.186055","6501000","淡水區"
"247010","KED-0683","2019/07/12 21:19:24","新北市蘆洲區三民路24號","121.476003333333","25.08268","6501400","蘆洲區"
"220083","286-VK","2019/07/12 21:19:24","新北市樹林區八德街1166號","121.390448333333","24.9683566666667","6500100","板橋區"
