"lineid","car","time","location","longitude","latitude","cityid","cityname"
"232017","290-BY","2019/07/15 08:09:46","新北市坪林區坪雙路二段162號","121.765531666667","24.96281","6502000","坪林區"
"232005","291-BY","2019/07/15 08:09:45","新北市坪林區北宜路八段477號","121.706823333333","24.9216366666667","6502000","坪林區"
"232012","705-BZ","2019/07/15 08:09:41","新北市坪林區九芎根1號","121.673098333333","24.8945533333333","6502000","坪林區"
"232001","758-BX","2019/07/15 08:09:48","新北市坪林區坪雙路一段100號","121.7229","24.9460383333333","6502000","坪林區"
"244006","080-UY","2019/07/15 08:09:42","新北市林口區中湖43-5號","121.381555","25.0925","6501700","林口區"
"244001","248-BX","2019/07/15 08:09:51","新北市林口區頂福里8鄰82號","121.32868","25.103695","6501700","林口區"
"244018","402-UM","2019/07/15 08:09:56","新北市林口區竹林路2號","121.386521666667","25.0769766666667","6501700","林口區"
"244012","KEA-2802","2019/07/15 08:09:55","新北市林口區中正路535號","121.382178333333","25.0772066666667","6501700","林口區"
"244022","483-VK","2019/07/15 08:09:56","新北市林口區仁愛路一段667巷11號","121.38776","25.0757366666667","6501700","林口區"
"244016","485-VK","2019/07/15 08:09:54","新北市林口區粉寮69號","121.405033333333","25.09083","6501700","林口區"
"244008","657-BX","2019/07/15 08:09:46","新北市林口區林口路296號","121.386151666667","25.08542","6501700","林口區"
"244010","701-TV","2019/07/15 08:09:42","新北市林口區仁愛路一段246號","121.395721666667","25.075825","6501700","林口區"
"244024","837-TS","2019/07/15 08:09:51","新北市林口區中山路685號","121.377598333333","25.0839633333333","6501700","林口區"
"244020","838-TS","2019/07/15 08:09:56","新北市林口區粉寮路二段88巷101-1號","121.404966666667","25.0904766666667","6501700","林口區"
"222005","289-BY","2019/07/15 08:09:46","新北市深坑區北深路三段105號","121.605451666667","25.001865","6501800","深坑區"
"231007","189-VK","2019/07/15 08:09:47","新北市新店區新潭路一段78-1號","121.525","24.9398333333333","6500600","新店區"
"231008","718-UY","2019/07/15 08:09:43","新北市新店區新烏路一段105巷2號","121.546036666667","24.9411583333333","6500600","新店區"
"226001","7418-A5","2019/07/15 08:09:48","新北市平溪區十分里姜仔坑6-2號","121.768525","25.0356433333333","6502400","平溪區"
"226003","AGD-0702","2019/07/15 08:09:39","新北市平溪區新寮里頂寮子62-1號","121.774911666667","25.0511083333333","6502400","平溪區"
"223003","205-TH","2019/07/15 08:09:41","新北市石碇區北宜路五段80號","121.646265","24.9517183333333","6501900","石碇區"
"223008","406-TH","2019/07/15 08:09:54","新北市石碇區靜安路一段253號","121.692783333333","25.0066116666667","6501900","石碇區"
"223001","592-UM","2019/07/15 08:09:56","新北市石碇區北宜路五段80號","121.646398333333","24.951685","6501900","石碇區"
"223004","660-BX","2019/07/15 08:09:47","新北市石碇區碇坪路一段18號","121.651671666667","25.005855","6501900","石碇區"
"223007","661-BX","2019/07/15 08:09:45","新北市石碇區靜安路一段253號","121.692716666667","25.00661","6501900","石碇區"
"227003","282-VK","2019/07/15 08:09:49","新北市雙溪區上林里內平林120-10號","121.823118333333","25.0256316666667","6502500","雙溪區"
"252006","073-UM","2019/07/15 08:09:49","新北市三芝區後厝里大片頭74-6號","121.458443333333","25.2451483333333","6502100","三芝區"
"252004","249-BX","2019/07/15 08:09:56","新北市三芝區興華里車埕31-3號","121.503435","25.1946216666667","6502100","三芝區"
"226005","ANY-2373","2019/07/15 08:09:53","新北市平溪區南山里南山坪20號","121.771841666667","25.0369","6502400","平溪區"
"242059","986-R7","2019/07/15 08:09:51","新北市新莊區瓊林南路60號","121.43469","25.01387","6500500","新莊區"
"242001","751-BX","2019/07/15 08:09:55","新北市新莊區新莊路433號","121.45028","25.0336","6500500","新莊區"
"242028","615-BX","2019/07/15 08:09:58","新北市新莊區復興路一段153號","121.45064","25.043365","6500500","新莊區"
"242026","613-BX","2019/07/15 08:09:49","新北市新莊區福壽街114號","121.457996666667","25.0507566666667","6500500","新莊區"
"242057","612-BX","2019/07/15 08:09:48","新北市新莊區中正路582號","121.42738","25.0304833333333","6500500","新莊區"
"242045","566-BX","2019/07/15 08:09:50","新北市新莊區中正路589號","121.434203333333","25.0322866666667","6500500","新莊區"
"242049","497-BY","2019/07/15 08:09:48","新北市新莊區西盛街311巷4號","121.42833","25.0152366666667","6500500","新莊區"
"242055","441-UM","2019/07/15 08:09:48","新北市新莊區瓊林路32號","121.44909","25.0312783333333","6500500","新莊區"
"242003","440-UM","2019/07/15 08:09:48","新北市新莊區自立街192號","121.456411666667","25.0454233333333","6500500","新莊區"
"242040","415-TV","2019/07/15 08:09:48","新北市新莊區中正路514巷105弄3號","121.427885","25.03532","6500500","新莊區"
"242047","400-BY","2019/07/15 08:09:53","新北市新莊區萬安街141號","121.420516666667","25.0218783333333","6500500","新莊區"
"242024","362-BY","2019/07/15 08:09:58","新北市新莊區思源路104號","121.460135","25.04644","6500500","新莊區"
"242022","353-BY","2019/07/15 08:09:38","新北市新莊區民樂街32號","121.457736666667","25.0409833333333","6500500","新莊區"
"242012","132-UY","2019/07/15 08:09:52","新北市新莊區中誠街124號","121.449236666667","25.0476483333333","6500500","新莊區"
"242035","135-UY","2019/07/15 08:09:38","新北市新莊區建福路69巷28號","121.428186666667","25.0272133333333","6500500","新莊區"
"242052","172-VK","2019/07/15 08:09:50","新北市新莊區樹新路120巷30號","121.43022","24.9961933333333","6500500","新莊區"
"242014","173-VK","2019/07/15 08:09:39","新北市新莊區新泰路334號","121.444903333333","25.0420516666667","6500500","新莊區"
"242020","175-VK","2019/07/15 08:09:52","新北市新莊區中華路一段180號","121.452723333333","25.0420733333333","6500500","新莊區"
"242038","176-VK","2019/07/15 08:09:40","新北市新莊區民全街16號","121.429088333333","25.0219266666667","6500500","新莊區"
"242018","KED-0687","2019/07/15 08:09:44","新北市新莊區中港路203號","121.454828333333","25.041915","6500500","新莊區"
"242010","346-TH","2019/07/15 08:09:52","新北市新莊區中港路644號","121.45094","25.0555833333333","6500500","新莊區"
"242033","348-TH","2019/07/15 08:09:48","新北市新莊區新莊路691號","121.444245","25.0328816666667","6500500","新莊區"
"242006","349-TH","2019/07/15 08:09:43","新北市新莊區福樂街122號","121.456976666667","25.0478033333333","6500500","新莊區"
"242030","350-TH","2019/07/15 08:09:51","新北市新莊區新泰路321巷3弄2號","121.44441","25.0413116666667","6500500","新莊區"
"242016","351-TH","2019/07/15 08:09:52","新北市新莊區復興路一段149巷22弄2號","121.450256666667","25.0441183333333","6500500","新莊區"
"233003","KEA-2870","2019/07/15 08:09:44","新北市烏來區啦卡路70-1號","121.565181666667","24.855895","6502900","烏來區"
"242043","281-VK","2019/07/15 08:09:54","新北市新莊區中正路871巷9弄27號","121.419311666667","25.0269833333333","6500500","新莊區"
"242008","280-VK","2019/07/15 08:09:53","新北市新莊區昌明街14巷18號","121.457358333333","25.0534566666667","6500500","新莊區"
