"lineid","car","time","location","longitude","latitude","cityid","cityname"
"234044","148-BY","2019/07/15 12:39:25","新北市永和區永元路68號","121.522518333333","25.001615","6500400","永和區"
"234036","336-UY","2019/07/15 12:39:40","新北市永和區福和路1號","121.526585","25.0102683333333","6500400","永和區"
"234062","337-UY","2019/07/15 12:39:51","新北市永和區福和路1號","121.526546666667","25.0099833333333","6500400","永和區"
"234084","338-UY","2019/07/15 12:39:40","新北市中和區安樂路69-1號","121.512513333333","24.9939016666667","6500400","永和區"
"234068","552-UM","2019/07/15 12:39:55","新北市永和區福和路1號","121.525571666667","25.0093883333333","6500400","永和區"
"234015","745-BX","2019/07/15 12:39:58","新北市永和區環河東路一段64號","121.519143333333","25.016895","6500400","永和區"
"234028","746-BX","2019/07/15 12:39:50","新北市永和區得和路389號","121.525175","24.9992866666667","6500400","永和區"
"234012","KEA-2591","2019/07/15 12:39:42","新北市永和區信義路19號","121.514066666667","25.0119266666667","6500400","永和區"
"234040","862-TW","2019/07/15 12:39:43","新北市永和區永貞路9號","121.521201666667","25.0072966666667","6500400","永和區"
"234048","863-TW","2019/07/15 12:39:41","新北市永和區福和路1號","121.526298333333","25.0099566666667","6500400","永和區"
"234010","9373-KE","2019/07/15 12:39:50","新北市永和區環河東路一段118號","121.520401666667","25.01584","6500400","永和區"
"234022","9380-KE","2019/07/15 12:39:58","新北市永和區福和路1號","121.526345","25.0097083333333","6500400","永和區"
"234076","969-R7","2019/07/15 12:39:41","新北市永和區中正路70號","121.513538333333","24.995025","6500400","永和區"
"234001","AAC-295","2019/07/15 12:39:48","新北市永和區福和路1號","121.526488333333","25.0100116666667","6500400","永和區"
"231014","KEA-2219","2019/07/15 12:39:54","新北市新店區安一路一段1-1號","121.519838333333","24.9612683333333","6500600","新店區"
"231023","260-TV","2019/07/15 12:39:38","新北市新店區安一路一段1-1號","121.519311666667","24.9611733333333","6500600","新店區"
"231003","268-BY","2019/07/15 12:39:42","新北市新店區安華路28-1號","121.5196","24.96096","6500600","新店區"
"231035","278-BY","2019/07/15 12:39:45","新北市新店區安一路一段1-1號","121.51984","24.9612983333333","6500600","新店區"
"231011","KED-0819","2019/07/15 12:39:54","新北市新店區安一路一段1-1號","121.51971","24.96121","6500600","新店區"
"235029","098-UM","2019/07/15 12:39:41","新北市中和區員山路36巷16-3號","121.485001666667","24.99126","6500300","中和區"
"235005","802-TS","2019/07/15 12:39:46","新北市中和區員山路36巷16-8號","121.485468333333","24.9922766666667","6500300","中和區"
"207002","749-BX","2019/07/15 12:39:42","新北市萬里區雙興里太和路8號","121.657943333333","25.1743616666667","6502800","萬里區"
"207001","662-BX","2019/07/15 12:39:42","新北市萬里區萬里里獅頭路15-1號","121.697483333333","25.18012","6502800","萬里區"
"235025","KEA-2875","2019/07/15 12:23:02","新北市中和區員山路36巷16-2號","121.485333333333","24.9916116666667","6500300","中和區"
