"lineid","car","time","location","longitude","latitude","cityid","cityname"
"234044","148-BY","2019/07/15 14:09:25","新北市永和區得和路317號","121.523331666667","24.9997266666667","6500400","永和區"
"234078","298-R6","2019/07/15 14:09:12","新北市永和區國中路99號","121.524341666667","25.0061183333333","6500400","永和區"
"234036","336-UY","2019/07/15 14:09:20","新北市永和區成功路一段130號","121.526836666667","25.002175","6500400","永和區"
"234062","337-UY","2019/07/15 14:09:11","新北市永和區秀朗路一段220巷3號","121.520205","25.0029333333333","6500400","永和區"
"234084","338-UY","2019/07/15 14:09:20","新北市永和區福和路74號","121.52302","25.0080566666667","6500400","永和區"
"234068","552-UM","2019/07/15 14:09:15","新北市永和區福和路183巷1號","121.520016666667","25.0073583333333","6500400","永和區"
"234015","745-BX","2019/07/15 14:09:18","新北市永和區仁愛路54號","121.51373","25.0134133333333","6500400","永和區"
"234028","746-BX","2019/07/15 14:09:25","新北市永和區民生路22巷30號","121.521076666667","24.9970633333333","6500400","永和區"
"234052","KEA-2590","2019/07/15 14:09:17","新北市永和區博愛街47巷2號","121.519536666667","25.0159666666667","6500400","永和區"
"234005","KED-0605","2019/07/15 14:09:18","新北市中和區中和路302-1號","121.50879","24.99992","6500400","永和區"
"234012","KEA-2591","2019/07/15 14:09:22","新北市永和區仁愛路289號","121.505383333333","25.0093583333333","6500400","永和區"
"234060","AAD-866","2019/07/15 14:09:26","新北市永和區安樂路100巷5號","121.514231666667","24.99935","6500400","永和區"
"234040","862-TW","2019/07/15 14:09:24","新北市永和區雙和街64巷10號","121.509408333333","25.00332","6500400","永和區"
"234048","863-TW","2019/07/15 14:09:21","新北市永和區環河西路二段85號","121.506633333333","25.01511","6500400","永和區"
"234025","9371-KE","2019/07/15 14:09:11","新北市永和區安樂路272巷7弄5號","121.514915","25.0045166666667","6500400","永和區"
"234010","9373-KE","2019/07/15 14:09:09","新北市永和區仁愛路352巷122弄6號","121.500581666667","25.008715","6500400","永和區"
"248013","025-BX","2019/07/15 14:09:25","新北市五股區民義路一段107巷32號","121.432453333333","25.08462","6501500","五股區"
"248019","KED-0813","2019/07/15 14:01:01","新北市五股區凌雲路三段57號","121.42529","25.1249933333333","6501500","五股區"
"248011","247-BX","2019/07/15 14:09:21","新北市五股區成泰路二段101號","121.43834","25.0843733333333","6501500","五股區"
"248015","261-SL","2019/07/15 14:09:08","新北市五股區成泰路三段543巷17號","121.45061","25.1024466666667","6501500","五股區"
"248003","677-BX","2019/07/15 14:09:17","新北市五股區工商路148號","121.433863333333","25.08712","6501500","五股區"
"248001","678-BX","2019/07/15 14:09:25","新北市五股區成泰路三段577巷51號","121.450601666667","25.1031983333333","6501500","五股區"
"248009","682-TV","2019/07/15 14:09:14","新北市五股區水碓一路23號","121.43055","25.071285","6501500","五股區"
"234022","9380-KE","2019/07/15 14:09:17","新北市永和區博愛街32巷12號","121.518836666667","25.0153183333333","6500400","永和區"
"234076","969-R7","2019/07/15 14:09:22","新北市永和區民族街178巷5弄7號","121.518188333333","24.9965466666667","6500400","永和區"
"234072","AAC-211","2019/07/15 14:09:23","新北市永和區豫溪街156號","121.523016666667","25.0097916666667","6500400","永和區"
"234066","AAC-212","2019/07/15 14:09:25","新北市永和區保平路214巷11弄1號","121.508781666667","25.006575","6500400","永和區"
"234001","AAC-295","2019/07/15 14:09:07","新北市永和區中正路730號","121.515563333333","25.010135","6500400","永和區"
"243004","AAD-798","2019/07/15 14:09:13","新北市泰山區辭修路8號","121.430311666667","25.0577183333333","6501600","泰山區"
"243002","297-R6","2019/07/15 14:09:10","新北市泰山區明志路一段483巷1弄2號","121.43121","25.05529","6501600","泰山區"
"243006","KEA-2801","2019/07/15 14:09:16","新北市泰山區泰林路二段480號","121.425091666667","25.0641166666667","6501600","泰山區"
"243008","421-VK","2019/07/15 14:09:21","新北市泰山區明志路二段353號","121.425438333333","25.044495","6501600","泰山區"
"243001","KEA-2215","2019/07/15 14:09:25","新北市泰山區楓樹街15巷3號","121.434948333333","25.0629766666667","6501600","泰山區"
"243003","KEA-2216","2019/07/15 14:09:17","新北市泰山區明志路二段318號","121.426251666667","25.046045","6501600","泰山區"
"243005","646-TV","2019/07/15 14:09:14","新北市泰山區明志路三段277號","121.423088333333","25.0368533333333","6501600","泰山區"
"243007","680-BX","2019/07/15 14:09:28","新北市泰山區明志路一段368號","121.430766666667","25.05791","6501600","泰山區"
"231030","002-UM","2019/07/15 14:09:11","新北市新店區安民街65巷15-2號","121.515308333333","24.966725","6500600","新店區"
"231027","0293-UT","2019/07/15 14:09:24","新北市新店區北宜路一段7號","121.538133333333","24.9582233333333","6500600","新店區"
"231005","046-UY","2019/07/15 14:09:15","新北市新店區中興路三段301號","121.542136666667","24.9854033333333","6500600","新店區"
"231029","106-UY","2019/07/15 14:09:28","新北市新店區安康路二段161號","121.510146666667","24.9594466666667","6500600","新店區"
"231018","107-UY","2019/07/15 14:09:11","新北市新店區中央路133巷27弄38號","121.53239","24.9741866666667","6500600","新店區"
"231013","108-UY","2019/07/15 14:09:20","新北市新店區大豐路16巷22號","121.540576666667","24.9808216666667","6500600","新店區"
"231036","110-UY","2019/07/15 14:09:08","新北市新店區安祥路110巷26號","121.474196666667","24.9562766666667","6500600","新店區"
"231014","KEA-2219","2019/07/15 14:09:14","新北市新店區郵政路3巷5號","121.557295","24.9520333333333","6500600","新店區"
"231031","256-BX","2019/07/15 14:09:15","新北市新店區太平路4號","121.534521666667","24.9577083333333","6500600","新店區"
"231023","260-TV","2019/07/15 14:09:18","新北市新店區文中路40號","121.539705","24.9566366666667","6500600","新店區"
"231003","268-BY","2019/07/15 14:09:22","新北市新店區中興路一段100號","121.54031","24.9607316666667","6500600","新店區"
"231035","278-BY","2019/07/15 14:09:06","新北市新店區安和路一段52巷2-1號","121.517675","24.9663933333333","6500600","新店區"
"231006","355-BY","2019/07/15 14:09:09","新北市新店區北宜路二段207號","121.553121666667","24.9533566666667","6500600","新店區"
"231038","3712-VJ","2019/07/15 14:09:24","新北市新店區安康路一段32號","121.531525","24.9617733333333","6500600","新店區"
"231024","4716-K9","2019/07/15 14:09:22","新北市新店區中央一街12號","121.528491666667","24.9725766666667","6500600","新店區"
"231025","4715-K9","2019/07/15 14:09:21","新北市新店區二十張路129巷5弄1號","121.53655","24.9787016666667","6500600","新店區"
"231019","513-UM","2019/07/15 14:09:17","新北市新店區屈尺路83-1號","121.544475","24.9224","6500600","新店區"
"231002","619-UM","2019/07/15 14:09:17","新北市新店區中正路505-1號","121.533573333333","24.9845733333333","6500600","新店區"
"231034","641-BX","2019/07/15 14:09:19","新北市新店區車子路121號","121.505455","24.9512883333333","6500600","新店區"
"231011","KED-0819","2019/07/15 14:09:14","新北市新店區五峰路140號","121.544865","24.9656866666667","6500600","新店區"
"231026","720-UM","2019/07/15 14:09:09","新北市新店區安康路一段85號","121.529448333333","24.96144","6500600","新店區"
"231028","897-TW","2019/07/15 14:09:27","新北市新店區安和路三段83號","121.517858333333","24.98377","6500600","新店區"
"231001","898-TW","2019/07/15 14:09:15","新北市新店區中華路70巷1號","121.53898","24.9693283333333","6500600","新店區"
"231004","899-TW","2019/07/15 14:09:09","新北市新店區北新路二段228巷1號","121.543006666667","24.9777116666667","6500600","新店區"
"231037","AKT-0513","2019/07/15 14:09:21","新北市新店區安康路三段165巷2弄12號","121.48905","24.95137","6500600","新店區"
"235030","003-UY","2019/07/15 14:09:15","新北市中和區廣福路12-5號","121.505411666667","25.0027316666667","6500300","中和區"
"235028","005-UY","2019/07/15 14:09:21","新北市中和區中和路36號","121.499931666667","25.0015766666667","6500300","中和區"
"235027","006-UY","2019/07/15 14:09:21","新北市中和區連城路249巷10弄1號","121.493801666667","24.996455","6500300","中和區"
"235020","096-UM","2019/07/15 14:09:20","新北市中和區中正路1191號","121.480675","25.009775","6500300","中和區"
"235003","097-UM","2019/07/15 14:09:18","新北市中和區秀峰街50號","121.521273333333","24.9903483333333","6500300","中和區"
"235029","098-UM","2019/07/15 14:09:21","新北市中和區中山路二段64巷12弄15號","121.504188333333","25.0056133333333","6500300","中和區"
"235004","150-BY","2019/07/15 14:09:13","新北市中和區宜安路121號","121.510046666667","24.9979616666667","6500300","中和區"
"235022","151-BY","2019/07/15 14:09:22","新北市中和區連城路469巷18號","121.483445","24.9951866666667","6500300","中和區"
"235019","183-VK","2019/07/15 14:09:10","新北市中和區中山路三段209號","121.47204","25.0064333333333","6500300","中和區"
"235002","185-VK","2019/07/15 14:09:12","新北市中和區大仁街10巷27弄3號","121.519151666667","24.9927","6500300","中和區"
"235013","186-VK","2019/07/15 14:09:08","新北市中和區景新街183號","121.507218333333","24.995165","6500300","中和區"
"235008","293-VK","2019/07/15 14:09:22","新北市中和區復興路348號","121.500088333333","24.990445","6500300","中和區"
"235036","301-VK","2019/07/15 14:09:16","新北市中和區中山路二段172號","121.501126666667","25.00281","6500300","中和區"
"235007","352-BY","2019/07/15 14:09:13","新北市中和區景平路102號","121.519961666667","24.99156","6500300","中和區"
"235006","KEA-2878","2019/07/15 14:09:13","新北市中和區自立路16巷11號","121.521365","24.9935433333333","6500300","中和區"
"247013","KEA-2869","2019/07/15 14:09:23","新北市蘆洲區忠孝路45號","121.471186666667","25.086085","6501400","蘆洲區"
"247007","KED-0682","2019/07/15 14:09:20","新北市蘆洲區中山一路276號","121.47162","25.079275","6501400","蘆洲區"
"235014","4979-A6","2019/07/15 14:09:22","新北市中和區復興路280巷18弄2號","121.502518333333","24.9914783333333","6500300","中和區"
"235033","4980-A6","2019/07/15 14:09:11","新北市中和區中和路217巷1弄1號","121.504","25.0002683333333","6500300","中和區"
"235034","558-UM","2019/07/15 14:09:23","新北市中和區連城路10號","121.49898","25.0023083333333","6500300","中和區"
"235009","565-BX","2019/07/15 14:09:13","新北市中和區景新街467巷15弄10號","121.513925","24.9887616666667","6500300","中和區"
"235024","KED-0823","2019/07/15 14:09:07","新北市中和區員山路292號","121.481498333333","25.0024433333333","6500300","中和區"
"235018","640-BX","2019/07/15 14:09:27","新北市中和區國光街112巷11弄3號","121.469576666667","25.0015516666667","6500300","中和區"
"235011","732-UM","2019/07/15 14:09:24","新北市中和區興南路一段88號","121.509965","24.9891466666667","6500300","中和區"
"235010","733-UM","2019/07/15 14:09:14","新北市中和區華新街134號","121.508178333333","24.982615","6500300","中和區"
"235035","783-BX","2019/07/15 14:09:15","新北市中和區中山路二段478號","121.487918333333","25.0048216666667","6500300","中和區"
"235021","801-TS","2019/07/15 14:09:11","新北市中和區員山路425號","121.48086","25.003475","6500300","中和區"
"235005","802-TS","2019/07/15 14:09:06","新北市中和區中安街175號","121.511138333333","24.99966","6500300","中和區"
"235016","805-TS","2019/07/15 14:09:17","新北市中和區興南路二段116號","121.504593333333","24.9839366666667","6500300","中和區"
"235017","900-TW","2019/07/15 14:09:04","新北市中和區華福街71巷3號","121.467163333333","24.9968566666667","6500300","中和區"
"235012","911-UM","2019/07/15 14:09:11","新北市中和區工專路145號","121.508695","24.9791016666667","6500300","中和區"
"235015","157-BY","2019/07/15 14:09:18","新北市中和區興南路一段86號","121.509988333333","24.9892833333333","6500300","中和區"
"235001","AAC-213","2019/07/15 14:09:22","新北市中和區自立路15巷15號","121.523003333333","24.9959783333333","6500300","中和區"
"235023","AAC-215","2019/07/15 14:09:20","新北市中和區圓通路294巷7號","121.488781666667","24.989825","6500300","中和區"
"220016","015-TV","2019/07/15 14:09:08","新北市板橋區翠華街6巷11號","121.480901666667","25.02411","6500100","板橋區"
"220013","072-UY","2019/07/15 14:09:13","新北市板橋區民族路247巷1弄15號","121.469916666667","25.0074166666667","6500100","板橋區"
"220034","073-UY","2019/07/15 14:09:07","新北市板橋區中正路236巷8號","121.456186666667","25.0189466666667","6500100","板橋區"
"220105","075-UY","2019/07/15 14:09:18","新北市板橋區長江路二段280-1號","121.469923333333","25.0329066666667","6500100","板橋區"
"220017","AAD-861","2019/07/15 14:09:24","新北市板橋區四川路一段102號","121.459568333333","25.004685","6500100","板橋區"
"220039","120-SR","2019/07/15 14:09:14","新北市板橋區長江路一段106巷13弄11號","121.460528333333","25.02933","6500100","板橋區"
"247003","893-R6","2019/07/15 14:09:13","新北市蘆洲區長安街179號","121.460668333333","25.0816033333333","6501400","蘆洲區"
"247017","546-UM","2019/07/15 14:09:23","新北市蘆洲區民族路203號","121.478216666667","25.089275","6501400","蘆洲區"
"247023","337-TH","2019/07/15 14:09:20","新北市蘆洲區光榮路112號","121.464463333333","25.089275","6501400","蘆洲區"
"247001","336-TH","2019/07/15 14:09:25","新北市蘆洲區永平街55號","121.457673333333","25.0914","6501400","蘆洲區"
"247021","057-VK","2019/07/15 14:09:24","新北市蘆洲區三民路157-1號","121.470758333333","25.0866116666667","6501400","蘆洲區"
"247011","056-VK","2019/07/15 14:09:12","新北市蘆洲區信義路325號","121.478186666667","25.0865666666667","6501400","蘆洲區"
"247015","053-VK","2019/07/15 14:09:09","新北市蘆洲區光華路46巷46號","121.467576666667","25.084545","6501400","蘆洲區"
"247019","007-UY","2019/07/15 14:09:17","新北市蘆洲區仁愛街62巷22號","121.472113333333","25.0942833333333","6501400","蘆洲區"
"247005","002-UY","2019/07/15 14:09:08","新北市蘆洲區九芎街84號","121.466023333333","25.07964","6501400","蘆洲區"
"253003","6232-TK","2019/07/15 14:09:07","新北市石門區尖子鹿53-1號","121.582605","25.2731416666667","6502200","石門區"
"253004","6251-TK","2019/07/15 14:09:15","新北市石門區小坑50號","121.597646666667","25.2586883333333","6502200","石門區"
"253002","637-UY","2019/07/15 14:08:01","新北市石門區七股61號","121.556183333333","25.25105","6502200","石門區"
"253001","KEC-0718","2019/07/15 14:09:21","新北市石門區八甲40號","121.531971666667","25.2689883333333","6502200","石門區"
"207002","749-BX","2019/07/15 14:09:22","新北市萬里區溪底里富士坪路21號","121.627723333333","25.1489583333333","6502800","萬里區"
"207001","662-BX","2019/07/15 14:09:22","新北市萬里區磺潭里清水18號","121.637815","25.1977233333333","6502800","萬里區"
"252005","AAC-283","2019/07/15 14:09:19","新北市三芝區橫山里橫山23-6號","121.540928333333","25.2627466666667","6502100","三芝區"
"236040","KED-0685","2019/07/15 14:09:07","新北市土城區中華路二段2號","121.439391666667","24.9796133333333","6501300","土城區"
"236074","166-UM","2019/07/15 14:09:09","新北市土城區永寧路29號","121.43042","24.9631983333333","6501300","土城區"
"236029","253-BX","2019/07/15 14:09:16","新北市土城區興城路79號","121.439823333333","24.9707566666667","6501300","土城區"
"236024","269-VK","2019/07/15 14:09:09","新北市土城區忠承路123號","121.43829","24.96492","6501300","土城區"
"236012","270-VK","2019/07/15 14:09:21","新北市土城區青雲路39巷7號","121.460308333333","24.987555","6501300","土城區"
"236032","271-VK","2019/07/15 14:09:21","新北市土城區青雲路451巷7弄1號","121.459035","24.97505","6501300","土城區"
"247009","KED-0683","2019/07/15 14:09:08","新北市蘆洲區民族路34號","121.476483333333","25.0843566666667","6501400","蘆洲區"
"236064","KEA-2877","2019/07/15 14:09:08","新北市土城區明德路一段126號","121.463696666667","24.979155","6501300","土城區"
"236016","401-BY","2019/07/15 14:09:16","新北市土城區金城路二段200號","121.454851666667","24.98175","6501300","土城區"
"236057","912-UM","2019/07/15 14:09:22","新北市土城區中央路四段133-1號","121.416013333333","24.9573833333333","6501300","土城區"
"236045","913-UM","2019/07/15 14:09:11","新北市土城區明德路一段365-1號","121.453545","24.97905","6501300","土城區"
"236060","915-UM","2019/07/15 14:09:13","新北市土城區金城路二段364號","121.462353333333","24.9853666666667","6501300","土城區"
"236054","AAC-216","2019/07/15 14:09:25","新北市土城區中華路二段92號","121.438331666667","24.9747033333333","6501300","土城區"
"220027","145-BY","2019/07/15 14:09:18","新北市板橋區中正路12巷135弄13號","121.456236666667","25.0123866666667","6500100","板橋區"
"220028","200-UY","2019/07/15 14:09:24","新北市板橋區大觀路二段153巷46弄16號","121.449005","24.9998183333333","6500100","板橋區"
"220030","610-BX","2019/07/15 14:09:14","新北市板橋區溪北路16號","121.42668","24.9904666666667","6500100","板橋區"
"220050","245-BX","2019/07/15 14:09:27","新北市板橋區莊敬路6-1號","121.473755","25.027965","6500100","板橋區"
"220004","276-BY","2019/07/15 14:09:13","新北市板橋區信義路74巷2弄2號","121.457188333333","24.9932","6500100","板橋區"
"220020","277-BY","2019/07/15 14:09:15","新北市板橋區金門街369巷54號","121.428285","24.9821366666667","6500100","板橋區"
"220043","283-UM","2019/07/15 14:09:06","新北市板橋區吳鳳路80號","121.46708","25.031185","6500100","板橋區"
"220019","283-VK","2019/07/15 14:09:27","新北市板橋區重慶路245巷26號","121.464443333333","25.00082","6500100","板橋區"
"220001","285-VK","2019/07/15 14:09:06","新北市板橋區懷仁街35巷5號","121.47685","25.019675","6500100","板橋區"
"220031","286-VK","2019/07/15 14:09:12","新北市板橋區龍興街97巷3號","121.444013333333","25.0026783333333","6500100","板橋區"
"220029","287-VK","2019/07/15 14:09:25","新北市板橋區南雅西路二段156巷55號","121.452538333333","25.0126416666667","6500100","板橋區"
"220009","295-UM","2019/07/15 14:09:21","新北市板橋區中山路二段318巷20弄2號","121.480515","25.0187933333333","6500100","板橋區"
"220032","296-UM","2019/07/15 14:09:18","新北市板橋區大觀路三段162號","121.431345","24.9930983333333","6500100","板橋區"
"220023","303-R5","2019/07/15 14:09:23","新北市板橋區大智街71巷3弄1號","121.453501666667","25.0151966666667","6500100","板橋區"
"220010","305-R5","2019/07/15 14:09:23","新北市中和區環中路120號","121.48202","25.0124216666667","6500100","板橋區"
"220041","307-R5","2019/07/15 14:09:11","新北市板橋區松江街70號","121.468665","25.0278","6500100","板橋區"
"220047","317-R6","2019/07/15 14:09:20","新北市板橋區民有街41號","121.46568","25.025705","6500100","板橋區"
"220038","487-VK","2019/07/15 14:09:12","新北市板橋區文化路一段325號","121.46637","25.0206","6500100","板橋區"
"220037","491-VK","2019/07/15 14:09:10","新北市板橋區文化路二段182巷25號","121.472426666667","25.02674","6500100","板橋區"
"220104","560-BX","2019/07/15 14:09:13","新北市板橋區中正路379巷1弄21號","121.452995","25.0217983333333","6500100","板橋區"
"220052","561-BX","2019/07/15 14:09:23","新北市板橋區介壽街3號","121.467276666667","25.02048","6500100","板橋區"
"220011","609-BX","2019/07/15 14:09:16","新北市板橋區三民路二段202-6號","121.479028333333","25.0144266666667","6500100","板橋區"
"220022","630-UY","2019/07/15 14:09:13","新北市板橋區林園街61號","121.453581666667","25.010365","6500100","板橋區"
"220040","637-BX","2019/07/15 14:09:13","新北市板橋區文聖街204號","121.480238333333","25.0258033333333","6500100","板橋區"
"220005","686-BX","2019/07/15 14:09:18","新北市板橋區和平路143巷14號","121.463063333333","24.99599","6500100","板橋區"
"220025","687-BX","2019/07/15 14:09:23","新北市板橋區大觀路二段174巷163弄2號","121.441755","25.0031683333333","6500100","板橋區"
"220042","689-BX","2019/07/15 14:09:18","新北市板橋區新海路129號","121.460876666667","25.02309","6500100","板橋區"
"220002","741-BX","2019/07/15 14:09:12","新北市板橋區實踐路32巷6號","121.46303","25.0073316666667","6500100","板橋區"
"220051","KEA-2699","2019/07/15 14:09:06","新北市板橋區文聖街205巷4號","121.4799","25.0266266666667","6500100","板橋區"
"220003","827-TW","2019/07/15 14:09:13","新北市板橋區中山路一段158巷6號","121.465963333333","25.0115666666667","6500100","板橋區"
"220014","829-TW","2019/07/15 14:09:27","新北市板橋區民享街116巷2號","121.477916666667","25.0157783333333","6500100","板橋區"
"220021","985-R7","2019/07/15 14:09:25","新北市板橋區中正路149號","121.456516666667","25.01572","6500100","板橋區"
"220046","AAC-210","2019/07/15 14:09:16","新北市板橋區幸福路60巷31-2號","121.46052","25.0209733333333","6500100","板橋區"
"220012","AAC-253","2019/07/15 14:09:17","新北市板橋區板新路86號","121.472756666667","25.0146383333333","6500100","板橋區"
"235032","KEA-2873","2019/07/15 14:09:03","新北市中和區連勝街57巷15號","121.498185","24.9969883333333","6500300","中和區"
"235025","KEA-2875","2019/07/15 14:09:20","新北市中和區民利街63號","121.479","24.9984633333333","6500300","中和區"
"235026","KEA-2876","2019/07/15 14:09:23","新北市中和區橋安街19號","121.492646666667","25.004135","6500300","中和區"
