"lineid","car","time","location","longitude","latitude","cityid","cityname"
"234078","298-R6","2019/07/15 14:19:26","新北市永和區福和路19巷14號","121.52442","25.0078533333333","6500400","永和區"
"234036","336-UY","2019/07/15 14:19:20","新北市永和區成功路一段93巷11-1號","121.527675","25.0027616666667","6500400","永和區"
"234062","337-UY","2019/07/15 14:19:11","新北市永和區得和路194號","121.520136666667","25.0000466666667","6500400","永和區"
"234084","338-UY","2019/07/15 14:19:20","新北市永和區中正路555號","121.516736666667","25.0083283333333","6500400","永和區"
"234068","552-UM","2019/07/15 14:19:15","新北市永和區福和路263巷20號","121.517885","25.0065116666667","6500400","永和區"
"234028","746-BX","2019/07/15 14:19:14","新北市永和區民權路49巷21號","121.521108333333","24.9974","6500400","永和區"
"234052","KEA-2590","2019/07/15 14:19:17","新北市永和區光復街2巷16弄1號","121.517108333333","25.0163866666667","6500400","永和區"
"234005","KED-0605","2019/07/15 14:19:18","新北市永和區永貞路372號","121.510015","25.00674","6500400","永和區"
"234012","KEA-2591","2019/07/15 14:19:26","新北市永和區保生路40巷1號","121.505803333333","25.00814","6500400","永和區"
"234060","AAD-866","2019/07/15 14:19:17","新北市永和區安樂路188號","121.5149","25.001315","6500400","永和區"
"234040","862-TW","2019/07/15 14:19:24","新北市中和區中安街188號","121.511361666667","24.999445","6500400","永和區"
"234048","863-TW","2019/07/15 14:19:21","新北市永和區新生路22號","121.508883333333","25.0164366666667","6500400","永和區"
"234025","9371-KE","2019/07/15 14:19:20","新北市永和區安樂路144巷31號","121.5154","24.9997883333333","6500400","永和區"
"248013","025-BX","2019/07/15 14:19:25","新北市五股區工商路189號","121.433686666667","25.0868083333333","6501500","五股區"
"248019","KED-0813","2019/07/15 14:01:01","新北市五股區凌雲路三段57號","121.42529","25.1249933333333","6501500","五股區"
"248011","247-BX","2019/07/15 14:19:18","新北市五股區成泰路二段97號","121.43806","25.0842683333333","6501500","五股區"
"248015","261-SL","2019/07/15 14:19:20","新北市五股區凌雲路一段27號","121.452091666667","25.1006166666667","6501500","五股區"
"248003","677-BX","2019/07/15 14:19:18","新北市五股區五福路109號","121.432156666667","25.0908633333333","6501500","五股區"
"248001","678-BX","2019/07/15 14:19:25","新北市五股區成泰路四段3號","121.452718333333","25.106125","6501500","五股區"
"248009","682-TV","2019/07/15 14:19:14","新北市五股區水碓一路23號","121.430553333333","25.0712583333333","6501500","五股區"
"234076","969-R7","2019/07/15 14:19:21","新北市永和區民權路53號","121.520286666667","24.9966316666667","6500400","永和區"
"234072","AAC-211","2019/07/15 14:19:23","新北市永和區豫溪街191巷7弄34號","121.522886666667","25.0115283333333","6500400","永和區"
"234066","AAC-212","2019/07/15 14:19:25","新北市永和區保平路268巷28號","121.507576666667","25.0064083333333","6500400","永和區"
"234001","AAC-295","2019/07/15 14:19:07","新北市永和區中正路618-1號","121.51692","25.00777","6500400","永和區"
"244001","248-BX","2019/07/15 14:19:14","新北市林口區瑞平里33-1號","121.348431666667","25.1286966666667","6501700","林口區"
"243004","AAD-798","2019/07/15 14:19:13","新北市泰山區仁愛路66號","121.432325","25.054885","6501600","泰山區"
"243002","297-R6","2019/07/15 14:19:11","新北市泰山區明志路二段9號","121.43022","25.053545","6501600","泰山區"
"243006","KEA-2801","2019/07/15 14:19:23","新北市泰山區明志路一段193號","121.432935","25.0617366666667","6501600","泰山區"
"243008","421-VK","2019/07/15 14:19:21","新北市泰山區工專路60號","121.422918333333","25.0403133333333","6501600","泰山區"
"243001","KEA-2215","2019/07/15 14:19:05","新北市泰山區和平街13巷27號","121.434461666667","25.0658383333333","6501600","泰山區"
"243003","KEA-2216","2019/07/15 14:19:17","新北市泰山區貴子路15巷3弄1號","121.426536666667","25.0422383333333","6501600","泰山區"
"243005","646-TV","2019/07/15 14:19:14","新北市泰山區明志路三段145巷2弄1號","121.425445","25.0398333333333","6501600","泰山區"
"243007","680-BX","2019/07/15 14:19:08","新北市泰山區公園路71號","121.426365","25.0553466666667","6501600","泰山區"
"231030","002-UM","2019/07/15 14:19:11","新北市新店區安民街65巷21-2號","121.515201666667","24.9675483333333","6500600","新店區"
"231027","0293-UT","2019/07/15 14:19:24","新北市新店區光明街286巷4號","121.540508333333","24.9637666666667","6500600","新店區"
"231005","046-UY","2019/07/15 14:19:15","新北市新店區中興路三段216號","121.543591666667","24.9825133333333","6500600","新店區"
"231029","106-UY","2019/07/15 14:19:08","新北市新店區安康路二段204號","121.510301666667","24.9597066666667","6500600","新店區"
"231018","107-UY","2019/07/15 14:19:11","新北市新店區中央四街86號","121.526065","24.9758816666667","6500600","新店區"
"231013","108-UY","2019/07/15 14:19:20","新北市新店區北新路三段65巷34弄27號","121.539955","24.9817833333333","6500600","新店區"
"231036","110-UY","2019/07/15 14:19:09","新北市新店區安祥路109巷1弄35號","121.476825","24.9602033333333","6500600","新店區"
"231014","KEA-2219","2019/07/15 14:19:14","新北市新店區郵政路1號","121.557701666667","24.9528033333333","6500600","新店區"
"231031","256-BX","2019/07/15 14:19:15","新北市新店區碧潭路14號","121.534808333333","24.9565783333333","6500600","新店區"
"231023","260-TV","2019/07/15 14:19:18","新北市新店區光明街5號","121.538313333333","24.959195","6500600","新店區"
"231003","268-BY","2019/07/15 14:19:21","新北市新店區中興路一段199號","121.543498333333","24.9653366666667","6500600","新店區"
"231035","278-BY","2019/07/15 14:19:06","新北市新店區光華街8巷12號","121.518115","24.96944","6500600","新店區"
"231006","355-BY","2019/07/15 14:19:22","新北市新店區北宜路二段150-1號","121.557813333333","24.9539816666667","6500600","新店區"
"231038","3712-VJ","2019/07/15 14:19:24","新北市新店區溪洲路61號","121.53354","24.960895","6500600","新店區"
"231019","513-UM","2019/07/15 14:19:17","新北市新店區新烏路二段198巷2弄2號","121.547738333333","24.916995","6500600","新店區"
"231002","619-UM","2019/07/15 14:19:22","新北市新店區中央路17號","121.533211666667","24.9782466666667","6500600","新店區"
"231034","641-BX","2019/07/15 14:19:19","新北市新店區車子路11號","121.50307","24.9520233333333","6500600","新店區"
"231011","KED-0819","2019/07/15 14:19:14","新北市新店區中興路一段304號","121.546588333333","24.96965","6500600","新店區"
"231028","897-TW","2019/07/15 14:19:07","新北市新店區安和路二段227號","121.517276666667","24.976135","6500600","新店區"
"231001","898-TW","2019/07/15 14:18:52","新北市新店區北新路一段319號","121.541586666667","24.9681566666667","6500600","新店區"
"231004","899-TW","2019/07/15 14:19:19","新北市新店區中正路137號","121.541783333333","24.9714683333333","6500600","新店區"
"231037","AKT-0513","2019/07/15 14:19:21","新北市新店區安康路二段341巷13號","121.497048333333","24.9547633333333","6500600","新店區"
"235030","003-UY","2019/07/15 14:19:15","新北市中和區中和路102號","121.502656666667","24.9997016666667","6500300","中和區"
"235028","005-UY","2019/07/15 14:19:21","新北市中和區中和路135號","121.501776666667","24.9999166666667","6500300","中和區"
"235027","006-UY","2019/07/15 14:19:22","新北市中和區連勝街171號","121.494088333333","24.9968333333333","6500300","中和區"
"235020","096-UM","2019/07/15 14:19:17","新北市中和區員山路513號","121.479761666667","25.0066083333333","6500300","中和區"
"235003","097-UM","2019/07/15 14:19:18","新北市中和區秀峰街103巷8弄2號","121.52012","24.9895283333333","6500300","中和區"
"235029","098-UM","2019/07/15 14:19:21","新北市中和區中山路二段2巷13弄20號","121.502853333333","25.0065166666667","6500300","中和區"
"235004","150-BY","2019/07/15 14:19:13","新北市中和區宜安路37號","121.512066666667","24.9962166666667","6500300","中和區"
"235022","151-BY","2019/07/15 14:19:13","新北市中和區連城路469巷2號","121.483496666667","24.995665","6500300","中和區"
"235019","183-VK","2019/07/15 14:19:10","新北市中和區中山路三段181巷20號","121.472953333333","25.0054433333333","6500300","中和區"
"235002","185-VK","2019/07/15 14:19:12","新北市中和區大仁街10巷52號","121.520416666667","24.9926533333333","6500300","中和區"
"235013","186-VK","2019/07/15 14:19:08","新北市中和區景新街230號","121.508255","24.9942083333333","6500300","中和區"
"235008","293-VK","2019/07/15 14:19:22","新北市中和區復興路321號","121.500908333333","24.9902866666667","6500300","中和區"
"235036","301-VK","2019/07/15 14:19:16","新北市中和區福美路304號","121.497023333333","25.0048766666667","6500300","中和區"
"235007","352-BY","2019/07/15 14:19:13","新北市中和區景平路288號","121.513281666667","24.99284","6500300","中和區"
"235006","KEA-2878","2019/07/15 14:19:13","新北市中和區安樂路217巷21弄16號","121.51399","24.9978166666667","6500300","中和區"
"247013","KEA-2869","2019/07/15 14:19:22","新北市蘆洲區中山一路196號","121.473825","25.080915","6501400","蘆洲區"
"247007","KED-0682","2019/07/15 14:19:20","新北市蘆洲區中山一路197巷6弄21號","121.474141666667","25.0802483333333","6501400","蘆洲區"
"235014","4979-A6","2019/07/15 14:19:10","新北市中和區景安路208巷11號","121.503428333333","24.9912433333333","6500300","中和區"
"235033","4980-A6","2019/07/15 14:19:10","新北市中和區永和路8巷3號","121.500183333333","25.0031933333333","6500300","中和區"
"235034","558-UM","2019/07/15 14:19:23","新北市中和區中山路二段228號","121.49898","25.00281","6500300","中和區"
"235009","565-BX","2019/07/15 14:19:12","新北市中和區景新街423巷35弄13號","121.513873333333","24.9901666666667","6500300","中和區"
"235024","KED-0823","2019/07/15 14:19:07","新北市中和區新生街114巷18號","121.482718333333","25.00235","6500300","中和區"
"235018","640-BX","2019/07/15 14:19:08","新北市中和區國光街111號","121.469925","25.0005083333333","6500300","中和區"
"235011","732-UM","2019/07/15 14:19:24","新北市中和區和平街54巷1弄1號","121.508653333333","24.9909833333333","6500300","中和區"
"235010","733-UM","2019/07/15 14:19:14","新北市中和區忠孝街2巷19弄2號","121.510811666667","24.981425","6500300","中和區"
"235035","783-BX","2019/07/15 14:19:15","新北市中和區連城路356號","121.482148333333","24.9954933333333","6500300","中和區"
"235021","801-TS","2019/07/15 14:19:20","新北市中和區員山路465號","121.480471666667","25.0045033333333","6500300","中和區"
"235005","802-TS","2019/07/15 14:19:06","新北市中和區中安街202-1號","121.511876666667","24.9989566666667","6500300","中和區"
"235016","805-TS","2019/07/15 14:19:13","新北市中和區興南路二段142巷19弄58號","121.502253333333","24.9832883333333","6500300","中和區"
"235017","900-TW","2019/07/15 14:19:04","新北市中和區華安街16巷3號","121.466275","24.9981466666667","6500300","中和區"
"235012","911-UM","2019/07/15 14:19:11","新北市中和區忠孝街7號","121.509923333333","24.9828033333333","6500300","中和區"
"235015","157-BY","2019/07/15 14:19:18","新北市中和區和平街38巷24號","121.509628333333","24.991245","6500300","中和區"
"235001","AAC-213","2019/07/15 14:19:22","新北市中和區秀朗路三段10巷12弄2-1號","121.525686666667","24.9966083333333","6500300","中和區"
"235023","AAC-215","2019/07/15 14:19:20","新北市中和區圓通路252巷5弄38號","121.492165","24.991535","6500300","中和區"
"220016","015-TV","2019/07/15 14:19:08","新北市板橋區林森街1巷29號","121.482731666667","25.0244033333333","6500100","板橋區"
"220013","072-UY","2019/07/15 14:19:13","新北市板橋區民族路129巷15號","121.467555","25.0084533333333","6500100","板橋區"
"220034","073-UY","2019/07/15 14:19:27","新北市板橋區中正路216巷97號","121.458866666667","25.019275","6500100","板橋區"
"220105","075-UY","2019/07/15 14:19:18","新北市板橋區文化路二段441巷2弄1號","121.474671666667","25.033405","6500100","板橋區"
"220017","AAD-861","2019/07/15 14:19:18","新北市板橋區華興街33-2號","121.458365","25.0046116666667","6500100","板橋區"
"220039","120-SR","2019/07/15 14:19:14","新北市板橋區長江路一段136巷8號","121.460645","25.02963","6500100","板橋區"
"247003","893-R6","2019/07/15 14:19:13","新北市蘆洲區中原路12巷24號","121.460793333333","25.0839083333333","6501400","蘆洲區"
"247017","546-UM","2019/07/15 14:19:23","新北市蘆洲區民義街53號","121.472823333333","25.0897766666667","6501400","蘆洲區"
"247023","337-TH","2019/07/15 14:19:19","新北市蘆洲區長榮路709號","121.46109","25.0929466666667","6501400","蘆洲區"
"247001","336-TH","2019/07/15 14:19:25","新北市蘆洲區永樂街61號","121.45654","25.0885866666667","6501400","蘆洲區"
"247021","057-VK","2019/07/15 14:19:24","新北市蘆洲區民族路526號","121.468968333333","25.0899383333333","6501400","蘆洲區"
"247011","056-VK","2019/07/15 14:19:12","新北市蘆洲區民權路5號","121.476518333333","25.085785","6501400","蘆洲區"
"247015","053-VK","2019/07/15 14:19:09","新北市蘆洲區光華路110巷10號","121.466991666667","25.0830933333333","6501400","蘆洲區"
"247019","007-UY","2019/07/15 14:19:17","新北市蘆洲區仁愛街37號","121.47209","25.092815","6501400","蘆洲區"
"247005","002-UY","2019/07/15 14:19:18","新北市蘆洲區九芎街126號","121.465203333333","25.0790983333333","6501400","蘆洲區"
"253003","6232-TK","2019/07/15 14:19:27","新北市石門區尖子鹿32號","121.58273","25.2641383333333","6502200","石門區"
"253004","6251-TK","2019/07/15 14:19:15","新北市石門區坪林41號","121.590185","25.2629966666667","6502200","石門區"
"253002","637-UY","2019/07/15 14:19:21","新北市石門區七股30號","121.551766666667","25.2639033333333","6502200","石門區"
"253001","KEC-0718","2019/07/15 14:19:21","新北市石門區八甲15號","121.523826666667","25.2812716666667","6502200","石門區"
"207002","749-BX","2019/07/15 14:19:22","新北市萬里區溪底里瑞泉路9號","121.603891666667","25.144375","6502800","萬里區"
"207001","662-BX","2019/07/15 14:19:23","新北市萬里區磺潭里清水18號","121.637825","25.1976983333333","6502800","萬里區"
"252005","AAC-283","2019/07/15 14:19:19","新北市三芝區橫山里大坑26號","121.52593","25.254815","6502100","三芝區"
"236040","KED-0685","2019/07/15 14:19:07","新北市土城區裕生路21巷1弄2號","121.448645","24.9872083333333","6501300","土城區"
"236074","166-UM","2019/07/15 14:19:09","新北市土城區永平街2巷1號","121.427545","24.9633416666667","6501300","土城區"
"236029","253-BX","2019/07/15 14:19:25","新北市土城區順風路45號","121.440328333333","24.977095","6501300","土城區"
"236024","269-VK","2019/07/15 14:19:09","新北市土城區承天路67號","121.439555","24.9635633333333","6501300","土城區"
"236012","270-VK","2019/07/15 14:19:21","新北市土城區青雲路39巷7號","121.460311666667","24.9875483333333","6501300","土城區"
"236032","271-VK","2019/07/15 14:19:21","新北市土城區青雲路483巷10弄28號","121.45933","24.9725816666667","6501300","土城區"
"247009","KED-0683","2019/07/15 14:19:08","新北市蘆洲區三民路26巷32號","121.477935","25.0831183333333","6501400","蘆洲區"
"236064","KEA-2877","2019/07/15 14:19:08","新北市土城區明德路一段128巷5號","121.463336666667","24.9791033333333","6501300","土城區"
"236016","401-BY","2019/07/15 14:19:16","新北市土城區永豐路202巷14號","121.466358333333","24.98344","6501300","土城區"
"236057","912-UM","2019/07/15 14:19:22","新北市土城區中央路四段426號","121.410941666667","24.9517966666667","6501300","土城區"
"236045","913-UM","2019/07/15 14:19:11","新北市土城區明德路一段361-3號","121.456348333333","24.9776816666667","6501300","土城區"
"236060","915-UM","2019/07/15 14:19:13","新北市土城區金城路三段202-3號","121.469381666667","24.9885266666667","6501300","土城區"
"236054","AAC-216","2019/07/15 14:19:25","新北市土城區中華路二段201號","121.437973333333","24.9739666666667","6501300","土城區"
"220027","145-BY","2019/07/15 14:19:18","新北市板橋區民權路256號","121.45821","25.0149916666667","6500100","板橋區"
"220028","200-UY","2019/07/15 14:19:17","新北市板橋區大觀路二段1巷32號","121.449558333333","25.0037416666667","6500100","板橋區"
"220030","610-BX","2019/07/15 14:19:07","新北市板橋區溪崑二街103巷2號","121.426795","24.9889033333333","6500100","板橋區"
"220050","245-BX","2019/07/15 14:19:21","新北市板橋區縣民大道三段133巷24號","121.477421666667","25.0236816666667","6500100","板橋區"
"220004","276-BY","2019/07/15 14:19:13","新北市板橋區信義路279巷21號","121.464295","24.990215","6500100","板橋區"
"220020","277-BY","2019/07/15 14:19:20","新北市板橋區金門街337巷9弄1號","121.43052","24.9846216666667","6500100","板橋區"
"220043","283-UM","2019/07/15 14:19:19","新北市板橋區吳鳳路50巷73號","121.46975","25.0303733333333","6500100","板橋區"
"220019","283-VK","2019/07/15 14:19:08","新北市板橋區重慶路253-3號","121.46334","25.000275","6500100","板橋區"
"220001","285-VK","2019/07/15 14:19:11","新北市板橋區富山街18巷2號","121.478458333333","25.0219716666667","6500100","板橋區"
"220031","286-VK","2019/07/15 14:19:12","新北市板橋區大觀路二段174巷186弄16號","121.442938333333","25.0034333333333","6500100","板橋區"
"220029","287-VK","2019/07/15 14:19:25","新北市板橋區南雅西路一段63巷2號","121.452578333333","25.0076616666667","6500100","板橋區"
"220009","295-UM","2019/07/15 14:19:21","新北市板橋區成功路6巷21號","121.476078333333","25.0172966666667","6500100","板橋區"
"220032","296-UM","2019/07/15 14:19:18","新北市板橋區溪崑二街66巷22號","121.427426666667","24.9908716666667","6500100","板橋區"
"220023","303-R5","2019/07/15 14:19:23","新北市板橋區林園街56號","121.453881666667","25.0107483333333","6500100","板橋區"
"220010","305-R5","2019/07/15 14:19:23","新北市板橋區三民路二段居仁巷2弄23號","121.479861666667","25.012955","6500100","板橋區"
"220041","307-R5","2019/07/15 14:19:10","新北市板橋區光武街2巷11號","121.468421666667","25.0251333333333","6500100","板橋區"
"220047","317-R6","2019/07/15 14:19:16","新北市板橋區自由路51巷8號","121.4651","25.0235","6500100","板橋區"
"220038","487-VK","2019/07/15 14:19:26","新北市板橋區英士路153號","121.459761666667","25.0240683333333","6500100","板橋區"
"220037","491-VK","2019/07/15 14:19:10","新北市板橋區雙十路二段239號","121.472785","25.0290133333333","6500100","板橋區"
"220104","560-BX","2019/07/15 14:19:08","新北市板橋區瑞安街31巷9號","121.456108333333","25.0226366666667","6500100","板橋區"
"220052","561-BX","2019/07/15 14:19:26","新北市板橋區文化路一段369-1號","121.466866666667","25.02128","6500100","板橋區"
"220011","609-BX","2019/07/15 14:19:16","新北市板橋區三民路二段202-29號","121.478836666667","25.0125216666667","6500100","板橋區"
"220022","630-UY","2019/07/15 14:19:10","新北市板橋區文昌街14號","121.455841666667","25.0104833333333","6500100","板橋區"
"220040","637-BX","2019/07/15 14:19:13","新北市板橋區縣民大道三段239號","121.48121","25.0258666666667","6500100","板橋區"
"220005","686-BX","2019/07/15 14:19:18","新北市板橋區五權街3-4號","121.463898333333","24.99475","6500100","板橋區"
"220025","687-BX","2019/07/15 14:19:18","新北市板橋區龍興街49號","121.443118333333","25.00085","6500100","板橋區"
"220042","689-BX","2019/07/15 14:19:17","新北市板橋區英士路54號","121.461035","25.0247533333333","6500100","板橋區"
"220002","741-BX","2019/07/15 14:19:12","新北市板橋區校前街35號","121.460898333333","25.0032683333333","6500100","板橋區"
"220051","KEA-2699","2019/07/15 14:19:07","新北市板橋區松柏街22巷10號","121.474666666667","25.0294833333333","6500100","板橋區"
"220003","827-TW","2019/07/15 14:19:13","新北市板橋區新民街6巷20號","121.465278333333","25.01009","6500100","板橋區"
"220014","829-TW","2019/07/15 14:19:21","新北市板橋區長安街138巷1弄71號","121.474525","25.0108783333333","6500100","板橋區"
"220021","985-R7","2019/07/15 14:19:05","新北市板橋區中正路213號","121.456056666667","25.01756","6500100","板橋區"
"220046","AAC-210","2019/07/15 14:19:16","新北市板橋區幸福路30號","121.46168","25.02032","6500100","板橋區"
"220012","AAC-253","2019/07/15 14:19:17","新北市板橋區中山路一段137號","121.462551666667","25.0106083333333","6500100","板橋區"
"235032","KEA-2873","2019/07/15 14:19:03","新北市中和區枋寮街19號","121.501958333333","25.0002716666667","6500300","中和區"
"235025","KEA-2875","2019/07/15 14:19:20","新北市中和區民安街1號","121.480963333333","25.0010433333333","6500300","中和區"
"235026","KEA-2876","2019/07/15 14:19:23","新北市中和區中山路二段526巷27號","121.485818333333","25.00578","6500300","中和區"
