"lineid","car","time","location","longitude","latitude","cityid","cityname"
"234078","298-R6","2019/07/15 14:39:11","新北市永和區永貞路84號","121.52011","25.0050216666667","6500400","永和區"
"234062","337-UY","2019/07/15 14:39:11","新北市永和區秀朗路一段139巷25號","121.516856666667","25.0050083333333","6500400","永和區"
"234084","338-UY","2019/07/15 14:39:20","新北市永和區光復街21號","121.516435","25.0173516666667","6500400","永和區"
"234028","746-BX","2019/07/15 14:39:10","新北市板橋區民生路一段62號","121.473968333333","25.0148733333333","6500400","永和區"
"234005","KED-0605","2019/07/15 14:39:18","新北市永和區中正路385號","121.517328333333","25.0039366666667","6500400","永和區"
"234040","862-TW","2019/07/15 14:39:23","新北市永和區永和路一段156-1號","121.514083333333","25.0084083333333","6500400","永和區"
"234025","9371-KE","2019/07/15 14:39:11","新北市永和區中和路503號","121.510656666667","25.0024166666667","6500400","永和區"
"248013","025-BX","2019/07/15 14:39:05","新北市五股區五福路42巷27號","121.434825","25.0900966666667","6501500","五股區"
"248019","KED-0813","2019/07/15 14:39:09","新北市五股區凌雲路三段98-1號","121.428078333333","25.1220833333333","6501500","五股區"
"248011","247-BX","2019/07/15 14:39:18","新北市五股區民義路一段112-10號","121.435335","25.085275","6501500","五股區"
"248015","261-SL","2019/07/15 14:39:08","新北市五股區成泰路三段577巷80弄24號","121.449526666667","25.104385","6501500","五股區"
"248003","677-BX","2019/07/15 14:39:21","新北市五股區成泰路一段177號","121.435018333333","25.0762133333333","6501500","五股區"
"248001","678-BX","2019/07/15 14:39:24","新北市五股區成泰路三段369-1號","121.448891666667","25.09609","6501500","五股區"
"248009","682-TV","2019/07/15 14:39:14","新北市五股區登林路74-3號","121.431065","25.06935","6501500","五股區"
"234072","AAC-211","2019/07/15 14:39:23","新北市永和區環河東路一段162號","121.521368333333","25.0144983333333","6500400","永和區"
"234001","AAC-295","2019/07/15 14:39:07","新北市永和區中正路618-1號","121.517045","25.0077433333333","6500400","永和區"
"244001","248-BX","2019/07/15 14:39:14","新北市林口區瑞平里33-1號","121.348466666667","25.12864","6501700","林口區"
"243004","AAD-798","2019/07/15 14:39:13","新北市泰山區仁愛路100巷29號","121.433648333333","25.0550383333333","6501600","泰山區"
"243002","297-R6","2019/07/15 14:39:11","新北市泰山區明志路二段136巷24號","121.426316666667","25.05195","6501600","泰山區"
"243006","KEA-2801","2019/07/15 14:39:16","新北市泰山區泰林路二段150號","121.434126666667","25.0600433333333","6501600","泰山區"
"243008","421-VK","2019/07/15 14:39:21","新北市泰山區新北大道六段365號","121.422618333333","25.0328183333333","6501600","泰山區"
"243001","KEA-2215","2019/07/15 14:39:14","新北市泰山區楓江路16巷8號","121.433835","25.0620666666667","6501600","泰山區"
"243003","KEA-2216","2019/07/15 14:39:17","新北市泰山區明志路三段204巷10弄20號","121.42296","25.0387683333333","6501600","泰山區"
"231030","002-UM","2019/07/15 14:39:11","新北市新店區安民街65巷8號","121.516103333333","24.96711","6500600","新店區"
"231027","0293-UT","2019/07/15 14:39:26","新北市新店區中正路76巷11弄24號","121.543723333333","24.9719233333333","6500600","新店區"
"231005","046-UY","2019/07/15 14:39:15","新北市新店區北新路三段179號","121.54091","24.9842066666667","6500600","新店區"
"231029","106-UY","2019/07/15 14:39:08","新北市新店區安康路三段228號","121.488151666667","24.9517916666667","6500600","新店區"
"231018","107-UY","2019/07/15 14:39:10","新北市新店區中央三街29號","121.528461666667","24.9740533333333","6500600","新店區"
"231013","108-UY","2019/07/15 14:39:20","新北市新店區民族路9號","121.541715","24.97877","6500600","新店區"
"231036","110-UY","2019/07/15 14:39:08","新北市新店區安祥路109巷93號","121.478021666667","24.960005","6500600","新店區"
"231014","KEA-2219","2019/07/15 14:39:14","新北市新店區北宜路三段311-5號","121.607295","24.95785","6500600","新店區"
"231031","256-BX","2019/07/15 14:39:15","新北市新店區安業街8巷1號","121.515415","24.9774783333333","6500600","新店區"
"231023","260-TV","2019/07/15 14:39:18","新北市新店區檳榔路43巷2號","121.543008333333","24.963015","6500600","新店區"
"231003","268-BY","2019/07/15 14:39:24","新北市新店區中興路二段73號","121.54689","24.970835","6500600","新店區"
"231035","278-BY","2019/07/15 14:39:26","新北市新店區安康路二段118-5號","121.512433333333","24.9633883333333","6500600","新店區"
"231006","355-BY","2019/07/15 14:39:09","新北市新店區北宜路二段353-2號","121.558418333333","24.954275","6500600","新店區"
"231038","3712-VJ","2019/07/15 14:39:24","新北市新店區安康路一段355-3號","121.519838333333","24.9626466666667","6500600","新店區"
"231019","513-UM","2019/07/15 14:39:17","新北市新店區桂山路81巷1號","121.56747","24.8993116666667","6500600","新店區"
"231002","619-UM","2019/07/15 14:39:17","新北市新店區中正路468-1號","121.533965","24.979865","6500600","新店區"
"231034","641-BX","2019/07/15 14:39:19","新北市新店區黎明路56巷2號","121.502376666667","24.9478933333333","6500600","新店區"
"231011","KED-0819","2019/07/15 14:39:14","新北市新店區寶宏路38號","121.549526666667","24.975615","6500600","新店區"
"231028","897-TW","2019/07/15 14:39:07","新北市新店區安成街2巷1號","121.510883333333","24.9602466666667","6500600","新店區"
"231001","898-TW","2019/07/15 14:39:13","新北市新店區中正路51號","121.544635","24.9698233333333","6500600","新店區"
"231004","899-TW","2019/07/15 14:39:11","新北市新店區中正路304號","121.537441666667","24.9745283333333","6500600","新店區"
"231037","AKT-0513","2019/07/15 14:39:21","新北市新店區柴埕路2-1號","121.514725","24.9658983333333","6500600","新店區"
"235030","003-UY","2019/07/15 14:39:15","新北市中和區景新街129號","121.50583","24.997275","6500300","中和區"
"235027","006-UY","2019/07/15 14:39:21","新北市中和區連城路188巷2號","121.492813333333","24.99718","6500300","中和區"
"235020","096-UM","2019/07/15 14:39:23","新北市中和區民富街37號","121.476333333333","25.0081266666667","6500300","中和區"
"235003","097-UM","2019/07/15 14:39:19","新北市中和區安樂路243巷2號","121.513908333333","24.9996566666667","6500300","中和區"
"235029","098-UM","2019/07/15 14:39:21","新北市中和區福祥路87號","121.499043333333","25.0058883333333","6500300","中和區"
"235004","150-BY","2019/07/15 14:39:13","新北市中和區宜安路51號","121.511788333333","24.9967766666667","6500300","中和區"
"235022","151-BY","2019/07/15 14:39:13","新北市中和區員山路150-28號","121.481275","24.9982016666667","6500300","中和區"
"235019","183-VK","2019/07/15 14:39:10","新北市中和區民生街12巷1號","121.470588333333","25.0056016666667","6500300","中和區"
"235002","185-VK","2019/07/15 14:39:12","新北市中和區自立路141巷1號","121.522283333333","24.9934816666667","6500300","中和區"
"235013","186-VK","2019/07/15 14:39:08","新北市中和區南華路1巷3號","121.501965","24.9954733333333","6500300","中和區"
"235008","293-VK","2019/07/15 14:39:22","新北市中和區興南路一段147號","121.508616666667","24.987355","6500300","中和區"
"235036","301-VK","2019/07/15 14:39:16","新北市中和區保平路340巷18號","121.5061","25.0045433333333","6500300","中和區"
"235007","352-BY","2019/07/15 14:39:13","新北市中和區南山路92號","121.502773333333","24.9948033333333","6500300","中和區"
"235006","KEA-2878","2019/07/15 14:39:17","新北市中和區保健路2巷32號","121.506971666667","24.997395","6500300","中和區"
"247013","KEA-2869","2019/07/15 14:39:22","新北市蘆洲區中山二路118號","121.472065","25.08175","6501400","蘆洲區"
"247007","KED-0682","2019/07/15 14:39:21","新北市蘆洲區成功路38巷2號","121.473268333333","25.0793433333333","6501400","蘆洲區"
"235034","558-UM","2019/07/15 14:39:23","新北市中和區連城路127巷48號","121.49725","24.9970416666667","6500300","中和區"
"235009","565-BX","2019/07/15 14:39:12","新北市中和區景新街345-6號","121.511886666667","24.9913333333333","6500300","中和區"
"235024","KED-0823","2019/07/15 14:39:26","新北市中和區民樂路67號","121.483945","25.0013083333333","6500300","中和區"
"235018","640-BX","2019/07/15 14:39:08","新北市中和區莒光路207-8號","121.47039","24.9963483333333","6500300","中和區"
"235011","732-UM","2019/07/15 14:39:24","新北市中和區捷運路59號","121.50903","24.98971","6500300","中和區"
"235010","733-UM","2019/07/15 14:39:14","新北市中和區景新街495號","121.51394","24.9872033333333","6500300","中和區"
"235035","783-BX","2019/07/15 14:39:15","新北市中和區連城路467-6號","121.483578333333","24.995935","6500300","中和區"
"235021","801-TS","2019/07/15 14:39:11","新北市中和區民樂路81號","121.4846","25.0013783333333","6500300","中和區"
"235005","802-TS","2019/07/15 14:39:26","新北市永和區中和路331號","121.507521666667","24.9996716666667","6500300","中和區"
"235016","805-TS","2019/07/15 14:39:13","新北市中和區華新街206巷21弄4號","121.50578","24.98277","6500300","中和區"
"235017","900-TW","2019/07/15 14:39:24","新北市中和區國光街205巷2號","121.466803333333","25.001975","6500300","中和區"
"235012","911-UM","2019/07/15 14:39:11","新北市中和區信義街113號","121.512173333333","24.9869266666667","6500300","中和區"
"235015","157-BY","2019/07/15 14:39:18","新北市中和區中興街180巷52弄1號","121.4986","24.9884616666667","6500300","中和區"
"235001","AAC-213","2019/07/15 14:39:22","新北市中和區自立路66號","121.523848333333","24.99125","6500300","中和區"
"235023","AAC-215","2019/07/15 14:39:20","新北市中和區圓通路335巷3弄21號","121.493426666667","24.990355","6500300","中和區"
"220016","015-TV","2019/07/15 14:39:23","新北市板橋區中山路二段412巷16-1號","121.483358333333","25.0202733333333","6500100","板橋區"
"220013","072-UY","2019/07/15 14:39:13","新北市板橋區國泰街109-1號","121.466198333333","25.0060683333333","6500100","板橋區"
"220034","073-UY","2019/07/15 14:39:22","新北市板橋區中正路250巷91號","121.459433333333","25.0199716666667","6500100","板橋區"
"220105","075-UY","2019/07/15 14:39:18","新北市板橋區民治街61巷25號","121.480416666667","25.0334366666667","6500100","板橋區"
"220017","AAD-861","2019/07/15 14:39:18","新北市板橋區縣民大道一段64巷27號","121.456081666667","25.0032916666667","6500100","板橋區"
"220039","120-SR","2019/07/15 14:39:14","新北市板橋區新海路431巷5號","121.457935","25.02721","6500100","板橋區"
"247003","893-R6","2019/07/15 14:39:13","新北市蘆洲區長安街285巷2號","121.457985","25.084325","6501400","蘆洲區"
"247023","337-TH","2019/07/15 14:39:19","新北市蘆洲區中山二路222巷22號","121.469528333333","25.080645","6501400","蘆洲區"
"247001","336-TH","2019/07/15 14:39:25","新北市蘆洲區永樂街38巷57弄39號","121.457108333333","25.09074","6501400","蘆洲區"
"247021","057-VK","2019/07/15 14:39:24","新北市蘆洲區三民路300巷3號","121.466381666667","25.0910166666667","6501400","蘆洲區"
"247011","056-VK","2019/07/15 14:39:18","新北市蘆洲區中興街128號","121.482298333333","25.089235","6501400","蘆洲區"
"247015","053-VK","2019/07/15 14:39:28","新北市蘆洲區正和街35號","121.469553333333","25.0818333333333","6501400","蘆洲區"
"247019","007-UY","2019/07/15 14:39:17","新北市蘆洲區民權路156號","121.47236","25.0900083333333","6501400","蘆洲區"
"247005","002-UY","2019/07/15 14:39:08","新北市蘆洲區長安街68巷12號","121.463175","25.0805316666667","6501400","蘆洲區"
"253003","6232-TK","2019/07/15 14:39:27","新北市石門區尖子鹿101-1號","121.578835","25.2923716666667","6502200","石門區"
"253004","6251-TK","2019/07/15 14:39:15","新北市石門區內阿里磅31-4號","121.59111","25.2424316666667","6502200","石門區"
"253002","637-UY","2019/07/15 14:39:21","新北市石門區七股12-6號","121.54657","25.2653283333333","6502200","石門區"
"253001","KEC-0718","2019/07/15 14:39:18","新北市石門區八甲172-2號","121.535305","25.2700916666667","6502200","石門區"
"207002","681-TV","2019/07/15 14:39:10","新北市萬里區萬里里成功新村67號","121.689518333333","25.1742416666667","6502800","萬里區"
"207001","662-BX","2019/07/15 14:39:22","新北市萬里區磺潭里員潭路55-4號","121.64386","25.1928433333333","6502800","萬里區"
"252005","AAC-283","2019/07/15 14:39:19","新北市三芝區埔坪里埔頭坑122-1號","121.518918333333","25.244975","6502100","三芝區"
"236040","KED-0685","2019/07/15 14:39:17","新北市土城區學成路108巷3號","121.45003","24.9895233333333","6501300","土城區"
"236074","166-UM","2019/07/15 14:39:09","新北市土城區頂埔街40號","121.417338333333","24.9592466666667","6501300","土城區"
"236029","253-BX","2019/07/15 14:39:16","新北市土城區福仁街58號","121.439543333333","24.9747266666667","6501300","土城區"
"236024","269-VK","2019/07/15 14:39:23","新北市土城區忠義路47號","121.44048","24.9693283333333","6501300","土城區"
"236012","270-VK","2019/07/15 14:39:21","新北市土城區清水路207巷8號","121.460046666667","24.9822366666667","6501300","土城區"
"236032","271-VK","2019/07/15 14:39:21","新北市土城區明德路一段235巷38號","121.463171666667","24.977435","6501300","土城區"
"247009","KED-0683","2019/07/15 14:39:08","新北市蘆洲區信義路222巷29號","121.479883333333","25.0854466666667","6501400","蘆洲區"
"236064","KEA-2877","2019/07/15 14:39:08","新北市土城區永豐路199號","121.472068333333","24.977675","6501300","土城區"
"236016","401-BY","2019/07/15 14:39:16","新北市土城區明德路一段34號","121.465111666667","24.9846116666667","6501300","土城區"
"236057","912-UM","2019/07/15 14:39:22","新北市土城區中央路四段29號","121.424015","24.9622866666667","6501300","土城區"
"236045","913-UM","2019/07/15 14:39:17","新北市土城區明德路一段38號","121.465108333333","24.9845033333333","6501300","土城區"
"236060","915-UM","2019/07/15 14:39:13","新北市土城區延和路177巷28號","121.470451666667","24.9908916666667","6501300","土城區"
"236054","AAC-216","2019/07/15 14:39:25","新北市土城區中華路一段31-2號","121.446161666667","24.98892","6501300","土城區"
"220027","145-BY","2019/07/15 14:39:18","新北市板橋區民權路221號","121.457655","25.0152633333333","6500100","板橋區"
"220028","200-UY","2019/07/15 14:39:24","新北市板橋區大觀路二段37巷194號","121.449543333333","25.0016183333333","6500100","板橋區"
"220030","610-BX","2019/07/15 14:39:07","新北市板橋區金門街264號","121.429906666667","24.98654","6500100","板橋區"
"220050","245-BX","2019/07/15 14:39:07","新北市板橋區莒光路237-9號","121.47423","25.021835","6500100","板橋區"
"220004","276-BY","2019/07/15 14:39:13","新北市板橋區干城路142號","121.459513333333","24.99326","6500100","板橋區"
"220020","277-BY","2019/07/15 14:39:15","新北市板橋區金門街253巷17弄9號","121.433473333333","24.9890283333333","6500100","板橋區"
"220043","283-UM","2019/07/15 14:39:06","新北市板橋區吳鳳路91-1號","121.466763333333","25.0317266666667","6500100","板橋區"
"220019","283-VK","2019/07/15 14:39:07","新北市板橋區四川路一段314號","121.4585","25.0002583333333","6500100","板橋區"
"220001","285-VK","2019/07/15 14:39:06","新北市板橋區懷仁街77巷32號","121.47771","25.0193266666667","6500100","板橋區"
"220031","286-VK","2019/07/15 14:39:12","新北市板橋區龍興街65巷2號","121.443685","25.0015283333333","6500100","板橋區"
"220029","287-VK","2019/07/15 14:39:25","新北市板橋區大觀路一段29巷133弄2號","121.450251666667","25.0054316666667","6500100","板橋區"
"220009","295-UM","2019/07/15 14:39:20","新北市板橋區中山路一段283巷2弄25號","121.470491666667","25.015415","6500100","板橋區"
"220032","296-UM","2019/07/15 14:39:27","新北市板橋區滿平二街34號","121.425161666667","24.9875916666667","6500100","板橋區"
"220023","303-R5","2019/07/15 14:39:23","新北市板橋區中正路275巷93號","121.450868333333","25.01815","6500100","板橋區"
"220010","305-R5","2019/07/15 14:39:23","新北市板橋區三民路二段81巷25號","121.480535","25.0167966666667","6500100","板橋區"
"220041","307-R5","2019/07/15 14:39:10","新北市板橋區四維路259巷62號","121.460595","25.02676","6500100","板橋區"
"220047","317-R6","2019/07/15 14:39:16","新北市板橋區民生路三段299巷6號","121.463131666667","25.030535","6500100","板橋區"
"220038","487-VK","2019/07/15 14:39:26","新北市板橋區龍泉街73巷2號","121.456616666667","25.0254066666667","6500100","板橋區"
"220037","491-VK","2019/07/15 14:39:10","新北市板橋區文化路二段331號","121.472508333333","25.03021","6500100","板橋區"
"220104","560-BX","2019/07/15 14:39:10","新北市板橋區中正路387號","121.45423","25.0217483333333","6500100","板橋區"
"220052","561-BX","2019/07/15 14:39:23","新北市板橋區自由路26巷19號","121.466441666667","25.022585","6500100","板橋區"
"220011","609-BX","2019/07/15 14:39:16","新北市板橋區三民路二段37-2號","121.479408333333","25.0172566666667","6500100","板橋區"
"220022","630-UY","2019/07/15 14:39:19","新北市板橋區館前西路138號","121.456355","25.0081366666667","6500100","板橋區"
"220040","637-BX","2019/07/15 14:39:13","新北市板橋區懷德街181巷26號","121.480475","25.03002","6500100","板橋區"
"220005","686-BX","2019/07/15 14:39:18","新北市板橋區和平路安樂巷36號","121.46163","24.9934433333333","6500100","板橋區"
"220025","687-BX","2019/07/15 14:39:18","新北市板橋區大觀路一段28巷20號","121.449933333333","25.0091733333333","6500100","板橋區"
"220042","689-BX","2019/07/15 14:39:17","新北市板橋區長江路二段59號","121.464688333333","25.0314916666667","6500100","板橋區"
"220002","741-BX","2019/07/15 14:39:17","新北市中和區德光路136號","121.467751666667","25.0035433333333","6500100","板橋區"
"220051","KEA-2699","2019/07/15 14:39:26","新北市板橋區文化路二段410巷1弄1號","121.47435","25.0311916666667","6500100","板橋區"
"220003","827-TW","2019/07/15 14:39:13","新北市板橋區重慶路290巷2號","121.463075","24.9989366666667","6500100","板橋區"
"220014","829-TW","2019/07/15 14:39:19","新北市板橋區長安街138巷1弄18號","121.473211666667","25.009715","6500100","板橋區"
"220021","985-R7","2019/07/15 14:39:26","新北市板橋區金華街77號","121.457671666667","25.02083","6500100","板橋區"
"220046","AAC-210","2019/07/15 14:39:16","新北市板橋區文化路一段55號","121.460695","25.0135283333333","6500100","板橋區"
"220012","AAC-253","2019/07/15 14:39:17","新北市板橋區民族路50號","121.462323333333","25.00966","6500100","板橋區"
"235032","KEA-2873","2019/07/15 14:39:12","新北市中和區福美路301巷16號","121.497541666667","25.004205","6500300","中和區"
