"lineid","car","time","location","longitude","latitude","cityid","cityname"
"248007","KED-0815","2019/07/15 15:19:18","新北市五股區四維路30巷23號","121.46829","25.071535","6501500","五股區"
"231030","002-UM","2019/07/15 15:19:11","新北市新店區安民街339號","121.516901666667","24.9748316666667","6500600","新店區"
"231005","046-UY","2019/07/15 15:19:15","新北市新店區建國路195號","121.537835","24.9797366666667","6500600","新店區"
"231029","106-UY","2019/07/15 15:19:28","新北市新店區安康路三段740號","121.473721666667","24.942065","6500600","新店區"
"231018","107-UY","2019/07/15 15:19:10","新北市新店區中央路196號","121.530758333333","24.9745783333333","6500600","新店區"
"231036","110-UY","2019/07/15 15:19:08","新北市新店區安祥路69巷15號","121.481988333333","24.9614166666667","6500600","新店區"
"231039","187-VK","2019/07/15 15:19:09","新北市新店區寶元路一段65號","121.542251666667","24.98583","6500600","新店區"
"231014","KEA-2219","2019/07/15 15:19:14","新北市新店區玉山路22號","121.568078333333","24.9555383333333","6500600","新店區"
"231031","256-BX","2019/07/15 15:19:15","新北市新店區安泰路42號","121.485161666667","24.94772","6500600","新店區"
"231023","260-TV","2019/07/15 15:19:18","新北市新店區行政街24號","121.54301","24.9655916666667","6500600","新店區"
"231003","268-BY","2019/07/15 15:19:21","新北市新店區寶高路120巷1號","121.55458","24.976075","6500600","新店區"
"231035","278-BY","2019/07/15 15:19:06","新北市新店區永平街23巷8號","121.51672","24.983125","6500600","新店區"
"231006","355-BY","2019/07/15 15:19:09","新北市新店區新坡一街2號","121.548215","24.9605916666667","6500600","新店區"
"231038","3712-VJ","2019/07/15 15:19:24","新北市新店區安華路28-1號","121.51968","24.960915","6500600","新店區"
"231024","4716-K9","2019/07/15 15:19:22","新北市新店區北新路一段347號","121.541645","24.96914","6500600","新店區"
"231025","4715-K9","2019/07/15 15:19:21","新北市新店區環河路64號","121.53682","24.9627066666667","6500600","新店區"
"231019","513-UM","2019/07/15 15:19:17","新北市新店區金興路24-2號","121.551738333333","24.9296883333333","6500600","新店區"
"231002","619-UM","2019/07/15 15:19:17","新北市新店區中正路707號","121.53388","24.991035","6500600","新店區"
"231034","641-BX","2019/07/15 15:19:19","新北市新店區如意街1巷2號","121.495711666667","24.94949","6500600","新店區"
"231011","KED-0819","2019/07/15 15:19:14","新北市新店區復興路17號","121.539563333333","24.9866266666667","6500600","新店區"
"231026","720-UM","2019/07/15 15:19:11","新北市新店區中正路263巷8號","121.538318333333","24.973265","6500600","新店區"
"231028","897-TW","2019/07/15 15:19:07","新北市新店區僑愛三路2號","121.49993","24.9446983333333","6500600","新店區"
"231001","898-TW","2019/07/15 15:19:26","新北市新店區北新路一段90號","121.541835","24.9685533333333","6500600","新店區"
"231004","899-TW","2019/07/15 15:19:09","新北市新店區博愛街13巷24號","121.540211666667","24.9740016666667","6500600","新店區"
"231037","AKT-0513","2019/07/15 15:19:21","新北市新店區安興路81號","121.515435","24.9750816666667","6500600","新店區"
"241017","063-VK","2019/07/15 15:19:13","新北市三重區重新路四段121號","121.485395","25.0522483333333","6500200","三重區"
"241020","478-VK","2019/07/15 15:19:18","新北市三重區重新路四段121號","121.48465","25.0522833333333","6500200","三重區"
"235030","003-UY","2019/07/15 15:19:15","新北市中和區水源路101號","121.507276666667","25.0033983333333","6500300","中和區"
"235004","150-BY","2019/07/15 15:19:13","新北市新店區安德街60巷9-3號","121.50928","24.9622616666667","6500300","中和區"
"235019","183-VK","2019/07/15 15:18:30","新北市五股區中直路17-4號","121.422925","25.1112516666667","6500300","中和區"
"235014","4979-A6","2019/07/15 15:19:10","新北市中和區景平路464巷2弄1-4號","121.505868333333","24.9939566666667","6500300","中和區"
"235033","4980-A6","2019/07/15 15:19:10","新北市中和區圓通路50號","121.500706666667","24.9975233333333","6500300","中和區"
"235012","911-UM","2019/07/15 15:19:11","新北市中和區華新街60號","121.508068333333","24.983855","6500300","中和區"
"235023","AAC-215","2019/07/15 15:19:20","新北市中和區圓通路435巷2-7號","121.487056666667","24.9867716666667","6500300","中和區"
"253004","6251-TK","2019/07/15 15:19:15","新北市石門區小坑29-1號","121.598376666667","25.270545","6502200","石門區"
"207001","662-BX","2019/07/15 15:19:22","新北市萬里區大鵬里萬里加投24-2號","121.648675","25.20692","6502800","萬里區"
"236040","KED-0685","2019/07/15 15:19:07","新北市土城區裕民路259巷10號","121.454865","24.9833866666667","6501300","土城區"
"236074","166-UM","2019/07/15 15:19:09","新北市土城區溪頭路7巷2號","121.41282","24.955425","6501300","土城區"
"236029","253-BX","2019/07/15 15:19:16","新北市土城區中央路一段318巷4弄12號","121.443268333333","24.9823966666667","6501300","土城區"
"236024","269-VK","2019/07/15 15:19:09","新北市土城區學府路二段216號","121.444923333333","24.9780483333333","6501300","土城區"
"236012","270-VK","2019/07/15 15:19:21","新北市土城區廣福街32號","121.457785","24.99016","6501300","土城區"
"236032","271-VK","2019/07/15 15:19:21","新北市土城區國際路158巷19號","121.468653333333","24.9760633333333","6501300","土城區"
"236064","KEA-2877","2019/07/15 15:19:08","新北市土城區裕民路185巷36弄10號","121.454296666667","24.9844733333333","6501300","土城區"
"236016","401-BY","2019/07/15 15:19:16","新北市土城區明峰街83號","121.468951666667","24.9874016666667","6501300","土城區"
"236057","912-UM","2019/07/15 15:19:22","新北市土城區中央路二段229號","121.440293333333","24.9725316666667","6501300","土城區"
"236045","913-UM","2019/07/15 15:19:20","新北市土城區清水路296號","121.462563333333","24.9838816666667","6501300","土城區"
"236060","915-UM","2019/07/15 15:19:17","新北市土城區金城路三段149巷4弄14號","121.468563333333","24.989235","6501300","土城區"
"236054","AAC-216","2019/07/15 15:19:25","新北市土城區學府路一段8號","121.459485","24.988485","6501300","土城區"
"238010","601-UM","2019/07/15 15:19:19","新北市樹林區三福街2號","121.409168333333","25.0169933333333","6500700","樹林區"
"238006","599-UM","2019/07/15 15:19:17","新北市樹林區八德街69號","121.419463333333","24.982185","6500700","樹林區"
"238005","KEA-2217","2019/07/15 15:19:14","新北市樹林區樹新路113號","121.428161666667","24.995885","6500700","樹林區"
"238008","KEA-2539","2019/07/15 15:19:06","新北市樹林區西圳街一段165巷20弄11號","121.395566666667","24.96017","6500700","樹林區"
"238012","303-VK","2019/07/15 15:19:12","新北市樹林區中山路一段135-4號","121.422446666667","24.98988","6500700","樹林區"
"238001","283-BY","2019/07/15 15:19:16","新北市樹林區保安街二段333巷2號","121.412368333333","25.00747","6500700","樹林區"
"238001","282-BY","2019/07/15 15:19:12","新北市樹林區大安路179號","121.42113","24.99629","6500700","樹林區"
"238013","172-UY","2019/07/15 15:19:08","新北市樹林區味王街46巷30號","121.403135","24.97372","6500700","樹林區"
"238003","169-UY","2019/07/15 15:18:03","新北市樹林區中山路一段414號","121.418025","24.9853","6500700","樹林區"
"221032","280-BY","2019/07/15 15:18:21","新北市汐止區汐萬路一段39號","121.655005","25.0690533333333","6501100","汐止區"
"221031","353-TW","2019/07/15 15:19:25","新北市汐止區水源路二段72巷31弄9號","121.655888333333","25.0548166666667","6501100","汐止區"
"220030","610-BX","2019/07/15 15:19:16","新北市板橋區大觀路三段106號","121.432406666667","24.9943416666667","6500100","板橋區"
"220050","245-BX","2019/07/15 15:19:07","新北市板橋區萬板路818巷3弄1-1號","121.483206666667","25.0274516666667","6500100","板橋區"
"220031","286-VK","2019/07/15 15:19:18","新北市板橋區大觀路一段38巷156弄147號","121.44389","25.0090583333333","6500100","板橋區"
"220029","287-VK","2019/07/15 15:19:20","新北市板橋區僑中一街102巷5弄2號","121.446771666667","25.0126833333333","6500100","板橋區"
"220023","303-R5","2019/07/15 15:19:23","新北市板橋區金華街10巷100號","121.458616666667","25.0204633333333","6500100","板橋區"
"220038","487-VK","2019/07/15 15:19:12","新北市板橋區四維路319號","121.462831666667","25.029","6500100","板橋區"
"220037","491-VK","2019/07/15 15:19:10","新北市板橋區民治街92號","121.479255","25.03182","6500100","板橋區"
"220011","609-BX","2019/07/15 15:19:16","新北市板橋區縣民大道三段310號","121.47879","25.0236816666667","6500100","板橋區"
"220022","630-UY","2019/07/15 15:19:10","新北市板橋區館前西路110號","121.456971666667","25.0074366666667","6500100","板橋區"
"220025","687-BX","2019/07/15 15:19:18","新北市板橋區僑中一街124巷62-9號","121.44672","25.0171833333333","6500100","板橋區"
"220051","KEA-2699","2019/07/15 15:19:26","新北市三重區光復路二段87巷63號","121.475735","25.05827","6500100","板橋區"
"220003","827-TW","2019/07/15 15:19:13","新北市板橋區國慶路149巷36號","121.461111666667","24.9980033333333","6500100","板橋區"
"220012","AAC-253","2019/07/15 15:19:24","新北市板橋區長安街48巷1號","121.468185","25.00902","6500100","板橋區"
"235026","KEA-2876","2019/07/15 15:19:23","新北市中和區橋和路90號","121.49018","25.00498","6500300","中和區"
