"lineid","car","time","location","longitude","latitude","cityid","cityname"
"249002","305-UY","2019/07/15 16:29:13","新北市八里區忠孝路197號","121.422288333333","25.160855","6502300","八里區"
"244023","483-VK","2019/07/15 16:29:22","新北市林口區粉寮69號","121.405103333333","25.0908166666667","6501700","林口區"
"231046","719-UM","2019/07/15 16:06:45","新北市新店區永業路94號","121.530711666667","24.9509333333333","6500600","新店區"
"241011","013-R5","2019/07/15 16:29:11","新北市三重區龍濱路172號","121.501395","25.072795","6500200","三重區"
"241028","022-UY","2019/07/15 16:29:21","新北市三重區大同南路161巷68號","121.495043333333","25.055055","6500200","三重區"
"241008","059-VK","2019/07/15 16:29:21","新北市三重區力行路二段136巷45弄12號","121.47908","25.0753333333333","6500200","三重區"
"241029","060-VK","2019/07/15 16:29:16","新北市三重區集美街149號","121.490608333333","25.0531916666667","6500200","三重區"
"241031","061-VK","2019/07/15 16:29:23","新北市三重區三陽路1號","121.486601666667","25.058825","6500200","三重區"
"241015","062-VK","2019/07/15 16:29:13","新北市三重區信義街71號","121.501448333333","25.0651583333333","6500200","三重區"
"241017","063-VK","2019/07/15 16:29:17","新北市三重區大同北路11號","121.495453333333","25.0622616666667","6500200","三重區"
"241024","065-VK","2019/07/15 16:29:22","新北市三重區中正北路303號","121.474405","25.0716933333333","6500200","三重區"
"241023","066-VK","2019/07/15 16:29:22","新北市三重區忠孝路三段50巷45號","121.482933333333","25.06445","6500200","三重區"
"241002","090-VK","2019/07/15 16:29:11","新北市三重區五華街9-2號","121.49526","25.0801516666667","6500200","三重區"
"241003","091-VK","2019/07/15 16:29:06","新北市三重區五華街57巷22號","121.493596666667","25.082965","6500200","三重區"
"241030","742-BX","2019/07/15 16:29:10","新北市三重區成功路86號","121.488086666667","25.05123","6500200","三重區"
"241016","266-UM","2019/07/15 16:29:07","新北市三重區自強路一段160巷2弄42號","121.494576666667","25.0657016666667","6500200","三重區"
"241009","267-UM","2019/07/15 16:29:23","新北市三重區三和路四段181巷114號","121.485","25.0798866666667","6500200","三重區"
"241018","268-UM","2019/07/15 16:29:16","新北市三重區重陽路四段77號","121.492381666667","25.07083","6500200","三重區"
"241032","269-UM","2019/07/15 16:29:19","新北市三重區三陽路100巷3弄13號","121.482956666667","25.058175","6500200","三重區"
"241013","270-UM","2019/07/15 16:29:07","新北市三重區仁愛街50號","121.496068333333","25.0726216666667","6500200","三重區"
"241025","271-UM","2019/07/15 16:29:08","新北市三重區中正北路560巷100弄17號","121.472656666667","25.0687266666667","6500200","三重區"
"241007","398-BY","2019/07/15 16:29:16","新北市三重區三和路四段167巷162號","121.487593333333","25.0802383333333","6500200","三重區"
"241004","475-VK","2019/07/15 16:29:22","新北市三重區仁愛街377巷14號","121.491871666667","25.0805516666667","6500200","三重區"
"241020","478-VK","2019/07/15 16:29:18","新北市三重區車路頭街37巷16號","121.484281666667","25.0718316666667","6500200","三重區"
"241026","480-VK","2019/07/15 16:29:19","新北市三重區文化南路75巷1號","121.500226666667","25.06054","6500200","三重區"
"241014","543-UM","2019/07/15 16:29:10","新北市三重區河邊北街72-6號","121.504276666667","25.0685583333333","6500200","三重區"
"241001","547-UM","2019/07/15 16:29:20","新北市三重區仁政街155巷7號","121.491815","25.0794066666667","6500200","三重區"
"241019","KEA-2593","2019/07/15 16:29:10","新北市三重區重陽路三段97號","121.490286666667","25.0679516666667","6500200","三重區"
"241006","AAD-863","2019/07/15 16:29:07","新北市三重區力行路二段136巷23弄35號","121.481365","25.076405","6500200","三重區"
"241022","KED-0820","2019/07/15 16:29:10","新北市三重區重陽路二段8號","121.486695","25.061835","6500200","三重區"
"241005","887-TS","2019/07/15 16:29:18","新北市三重區溪尾街305號","121.487555","25.0837266666667","6500200","三重區"
"241012","941-UM","2019/07/15 16:29:23","新北市三重區仁興街3巷80號","121.502006666667","25.0745833333333","6500200","三重區"
"241033","AAC-255","2019/07/15 16:29:21","新北市三重區五谷王北街20巷49號","121.474193333333","25.0481566666667","6500200","三重區"
"235054","640-BX","2019/07/15 16:29:07","新北市中和區員山路36巷16-2號","121.485365","24.9915883333333","6500300","中和區"
"224007","285-BY","2019/07/15 16:29:23","新北市瑞芳區大埔路187號","121.76325","25.1020883333333","6501200","瑞芳區"
"224009","275-VK","2019/07/15 16:25:16","新北市瑞芳區民權街3-1號","121.809321666667","25.108355","6501200","瑞芳區"
"224005","271-BY","2019/07/15 16:29:22","新北市瑞芳區阿美家園54號","121.821021666667","25.11747","6501200","瑞芳區"
"227001","642-TC","2019/07/15 16:29:12","新北市雙溪區牡丹里五分11號","121.865151666667","25.0478933333333","6502500","雙溪區"
"227002","400-TW","2019/07/15 16:29:09","新北市雙溪區外柑里外柑腳38號","121.808888333333","25.0181566666667","6502500","雙溪區"
"251015","KEA-2871","2019/07/15 16:29:16","新北市淡水區中正路二段31號","121.41937","25.1816966666667","6501000","淡水區"
"251016","179-VK","2019/07/15 16:29:22","新北市淡水區中正路二段31號","121.419213333333","25.1818383333333","6501000","淡水區"
"251008","181-VK","2019/07/15 16:29:23","新北市淡水區民生路14號","121.461036666667","25.1379233333333","6501000","淡水區"
"251013","182-VK","2019/07/15 16:29:10","新北市淡水區北新路三段171-1號","121.491838333333","25.1914583333333","6501000","淡水區"
"251014","577-R6","2019/07/15 16:29:19","新北市淡水區義山路一段206號","121.438091666667","25.1906683333333","6501000","淡水區"
"252002","178-VK","2019/07/15 16:29:19","新北市三芝區埔坪里埔頭坑41號","121.504525","25.2631583333333","6502100","三芝區"
"252001","KED-0821","2019/07/15 16:29:11","新北市三芝區埔坪里埔頭坑41號","121.504646666667","25.26459","6502100","三芝區"
"238023","601-UM","2019/07/15 16:29:19","新北市樹林區中山路二段125號","121.407576666667","24.9795883333333","6500700","樹林區"
"238012","303-VK","2019/07/15 16:29:12","新北市樹林區中正路22-1號","121.427873333333","24.9993866666667","6500700","樹林區"
"238001","282-BY","2019/07/15 16:29:12","新北市樹林區中正路22-1號","121.42779","24.9996933333333","6500700","樹林區"
"238020","268-VK","2019/07/15 16:29:23","新北市樹林區大慶街99號","121.427116666667","24.999905","6500700","樹林區"
