"lineid","car","time","location","longitude","latitude","cityid","cityname"
"249005","172-UM","2019/07/15 16:49:23","新北市八里區大堀湖2-3號","121.422585","25.1537516666667","6502300","八里區"
"249004","303-UY","2019/07/15 16:49:11","新北市八里區博物館路202巷92號","121.408625","25.1627816666667","6502300","八里區"
"249002","305-UY","2019/07/15 16:49:13","新北市八里區牛寮埔31號","121.429878333333","25.145725","6502300","八里區"
"244007","080-UY","2019/07/15 16:49:20","新北市林口區竹林路320巷6號","121.390865","25.08216","6501700","林口區"
"244023","483-VK","2019/07/15 16:49:22","新北市林口區粉寮69號","121.405081666667","25.09074","6501700","林口區"
"244017","485-VK","2019/07/15 16:49:18","新北市林口區粉寮69號","121.40507","25.0908266666667","6501700","林口區"
"244009","657-BX","2019/07/15 16:49:24","新北市林口區粉寮69號","121.40503","25.0908466666667","6501700","林口區"
"231046","719-UM","2019/07/15 16:49:05","新北市新店區灣潭路76號","121.538358333333","24.94169","6500600","新店區"
"241011","013-R5","2019/07/15 16:49:11","新北市三重區仁愛街43巷95號","121.500316666667","25.072765","6500200","三重區"
"241028","022-UY","2019/07/15 16:49:21","新北市三重區光興街81號","121.497701666667","25.0599666666667","6500200","三重區"
"241008","059-VK","2019/07/15 16:49:21","新北市三重區永福街179巷28號","121.477931666667","25.0748333333333","6500200","三重區"
"241029","060-VK","2019/07/15 16:49:16","新北市三重區重安街93-1號","121.493103333333","25.0555433333333","6500200","三重區"
"241031","061-VK","2019/07/15 16:49:23","新北市三重區新北大道一段15巷2弄2號","121.487918333333","25.060465","6500200","三重區"
"241015","062-VK","2019/07/15 16:49:13","新北市三重區長元街2-2號","121.49891","25.0658383333333","6500200","三重區"
"241017","063-VK","2019/07/15 16:49:13","新北市三重區國隆路8巷33號","121.492655","25.0635283333333","6500200","三重區"
"241024","065-VK","2019/07/15 16:49:22","新北市三重區中正北路317巷36號","121.476243333333","25.0731966666667","6500200","三重區"
"241023","066-VK","2019/07/15 16:49:22","新北市三重區中華路76巷31號","121.482321666667","25.0627016666667","6500200","三重區"
"241002","090-VK","2019/07/15 16:49:07","新北市三重區仁義街161-3號","121.497045","25.08135","6500200","三重區"
"241003","091-VK","2019/07/15 16:49:06","新北市三重區五華街87巷13號","121.492621666667","25.083625","6500200","三重區"
"241030","742-BX","2019/07/15 16:48:51","新北市三重區環河南路222號","121.494981666667","25.0489233333333","6500200","三重區"
"241016","266-UM","2019/07/15 16:49:07","新北市三重區大同北路115巷27號","121.4938","25.0649516666667","6500200","三重區"
"241009","267-UM","2019/07/15 16:49:23","新北市三重區三和路四段203巷205號","121.486495","25.0805433333333","6500200","三重區"
"241018","268-UM","2019/07/15 16:49:16","新北市三重區正義北路304號","121.495095","25.06978","6500200","三重區"
"241032","269-UM","2019/07/15 16:49:19","新北市三重區重陽路一段120巷48號","121.484998333333","25.0601316666667","6500200","三重區"
"241013","270-UM","2019/07/15 16:49:07","新北市三重區仁壽街26號","121.496971666667","25.0735033333333","6500200","三重區"
"241025","271-UM","2019/07/15 16:49:08","新北市三重區中正北路530巷5-1號","121.471976666667","25.07124","6500200","三重區"
"241007","398-BY","2019/07/15 16:49:16","新北市三重區三和路四段181巷86號","121.484475","25.0796416666667","6500200","三重區"
"241004","475-VK","2019/07/15 16:49:22","新北市三重區仁愛街397巷1號","121.491433333333","25.0810266666667","6500200","三重區"
"241020","478-VK","2019/07/15 16:49:18","新北市三重區忠孝路二段34號","121.485813333333","25.0709683333333","6500200","三重區"
"241026","480-VK","2019/07/15 16:49:19","新北市三重區文化南路10巷6號","121.500476666667","25.0621716666667","6500200","三重區"
"241014","543-UM","2019/07/15 16:49:10","新北市三重區長榮路75號","121.50259","25.0690633333333","6500200","三重區"
"241001","547-UM","2019/07/15 16:49:20","新北市三重區仁政街76巷7號","121.492173333333","25.0772633333333","6500200","三重區"
"241019","KEA-2593","2019/07/15 16:48:50","新北市三重區忠孝路二段38巷18號","121.485768333333","25.0700533333333","6500200","三重區"
"241006","AAD-863","2019/07/15 16:49:27","新北市三重區聯華街143號","121.484363333333","25.07518","6500200","三重區"
"241022","KED-0820","2019/07/15 16:49:26","新北市三重區貴陽街47巷17號","121.48482","25.0625633333333","6500200","三重區"
"241005","887-TS","2019/07/15 16:49:18","新北市三重區仁華街80巷13號","121.484635","25.0834766666667","6500200","三重區"
"241012","941-UM","2019/07/15 16:49:23","新北市三重區仁壽街212號","121.501688333333","25.0750766666667","6500200","三重區"
"241033","AAC-255","2019/07/15 16:49:21","新北市三重區新北大道二段65號","121.469116666667","25.06093","6500200","三重區"
"247014","KEA-2869","2019/07/15 16:49:12","新北市蘆洲區三民路91號","121.474145","25.0847683333333","6501400","蘆洲區"
"235054","640-BX","2019/07/15 16:49:27","新北市中和區員山路36巷16-2號","121.48538","24.9916183333333","6500300","中和區"
"247024","337-TH","2019/07/15 16:49:14","新北市蘆洲區長興路202號","121.460588333333","25.0874466666667","6501400","蘆洲區"
"247012","056-VK","2019/07/15 16:49:17","新北市蘆洲區民族路422巷82弄36號","121.473913333333","25.0974966666667","6501400","蘆洲區"
"247016","053-VK","2019/07/15 16:49:14","新北市蘆洲區中正路357號","121.464968333333","25.090145","6501400","蘆洲區"
"247020","007-UY","2019/07/15 16:49:04","新北市蘆洲區民族路422巷8號","121.474148333333","25.0920466666667","6501400","蘆洲區"
"247006","002-UY","2019/07/15 16:49:13","新北市蘆洲區永安南路二段132-1號","121.462568333333","25.0785783333333","6501400","蘆洲區"
"228003","097-TW","2019/07/15 16:49:25","新北市貢寮區貢寮里朝陽街1-2號","121.912383333333","25.021245","6502600","貢寮區"
"228002","663-BX","2019/07/15 16:49:27","新北市貢寮區貢寮里長泰路24-1號","121.902165","25.0240883333333","6502600","貢寮區"
"228001","670-TC","2019/07/15 16:49:24","新北市貢寮區貢寮里朝陽街1-2號","121.912293333333","25.0212366666667","6502600","貢寮區"
"224007","285-BY","2019/07/15 16:49:23","新北市瑞芳區中央路48巷吉祥園8號","121.759536666667","25.103625","6501200","瑞芳區"
"224009","275-VK","2019/07/15 16:49:18","新北市瑞芳區逢甲路17號","121.809473333333","25.1084433333333","6501200","瑞芳區"
"224008","273-VK","2019/07/15 16:49:23","新北市瑞芳區大寮路356-1號","121.784761666667","25.1032166666667","6501200","瑞芳區"
"224005","271-BY","2019/07/15 16:49:21","新北市瑞芳區洞頂路155-8號","121.861366666667","25.12219","6501200","瑞芳區"
"227001","642-TC","2019/07/15 16:49:12","新北市雙溪區三貂里子崙坑1-6號","121.849928333333","25.0574666666667","6502500","雙溪區"
"227002","400-TW","2019/07/15 16:49:09","新北市雙溪區長源里柑腳36號","121.803858333333","25.0135816666667","6502500","雙溪區"
"251004","009-UM","2019/07/15 16:49:21","新北市淡水區中正路二段31號","121.419351666667","25.18169","6501000","淡水區"
"251015","KEA-2871","2019/07/15 16:49:16","新北市淡水區忠愛街6號","121.460733333333","25.1715766666667","6501000","淡水區"
"251016","179-VK","2019/07/15 16:49:22","新北市淡水區水頭41號","121.478143333333","25.1850566666667","6501000","淡水區"
"251007","180-VK","2019/07/15 16:49:23","新北市淡水區中正路32巷9號","121.430248333333","25.1753016666667","6501000","淡水區"
"251008","181-VK","2019/07/15 16:49:23","新北市淡水區樹梅坑9號","121.47278","25.142745","6501000","淡水區"
"251013","182-VK","2019/07/15 16:49:10","新北市淡水區泉洲厝32號","121.48927","25.192615","6501000","淡水區"
"251012","441-VK","2019/07/15 16:49:10","新北市淡水區中正路二段31號","121.419413333333","25.1816633333333","6501000","淡水區"
"251014","577-R6","2019/07/15 16:49:19","新北市淡水區淡金路四段478號","121.452445","25.22392","6501000","淡水區"
"251011","650-BX","2019/07/15 16:49:06","新北市淡水區中山路128號","121.44164","25.1710833333333","6501000","淡水區"
"252002","178-VK","2019/07/15 16:49:19","新北市三芝區忠孝街15號","121.50635","25.255115","6502100","三芝區"
"233002","762-BX","2019/07/15 16:49:12","新北市烏來區啦卡路15巷6-1號","121.557046666667","24.8599883333333","6502900","烏來區"
"247010","KED-0683","2019/07/15 16:49:18","新北市蘆洲區復興路355巷38號","121.476871666667","25.09681","6501400","蘆洲區"
"252001","KED-0821","2019/07/15 16:49:11","新北市三芝區淡金路二段76-1號","121.503938333333","25.26091","6502100","三芝區"
"242060","986-R7","2019/07/15 16:49:19","新北市新莊區新泰路357巷3弄57號","121.442076666667","25.039275","6500500","新莊區"
"242017","351-TH","2019/07/15 16:49:08","新北市新莊區新泰路357巷3弄57號","121.442083333333","25.03954","6500500","新莊區"
"238023","601-UM","2019/07/15 16:49:19","新北市樹林區中正路433-1號","121.414951666667","25.0078883333333","6500700","樹林區"
"238012","303-VK","2019/07/15 16:49:12","新北市樹林區中正路22-1號","121.42782","24.9994666666667","6500700","樹林區"
"238017","283-BY","2019/07/15 16:49:16","新北市樹林區中正路433-1號","121.41487","25.0080683333333","6500700","樹林區"
"238001","282-BY","2019/07/15 16:49:12","新北市樹林區大慶街99-1號","121.427716666667","24.9997516666667","6500700","樹林區"
"238020","268-VK","2019/07/15 16:49:23","新北市樹林區中山路三段210-2號","121.38146","24.9655316666667","6500700","樹林區"
"239007","AAC-297","2019/07/15 16:49:05","新北市鶯歌區二甲路13-16號","121.344965","24.9351716666667","6500800","鶯歌區"
"239008","527-UM","2019/07/15 16:49:12","新北市鶯歌區二甲路13-16號","121.345238333333","24.93534","6500800","鶯歌區"
"239001","417-VK","2019/07/15 16:49:14","新北市鶯歌區環河路177-7號","121.345748333333","24.9354083333333","6500800","鶯歌區"
"233001","KEA-2870","2019/07/15 16:49:24","新北市烏來區啦卡路9巷24號","121.554548333333","24.8629333333333","6502900","烏來區"
"242009","280-VK","2019/07/15 16:49:24","新北市新莊區三和路12-21號","121.442086666667","25.0383466666667","6500500","新莊區"
