"lineid","car","time","location","longitude","latitude","cityid","cityname"
"234046","148-BY","2019/07/15 19:19:06","新北市永和區得和路373巷4號","121.524798333333","24.9997216666667","6500400","永和區"
"234081","298-R6","2019/07/15 19:19:26","新北市永和區福和路36號","121.523741666667","25.0084166666667","6500400","永和區"
"234038","336-UY","2019/07/15 19:19:18","新北市永和區民樂街59巷1-1號","121.527715","24.9982583333333","6500400","永和區"
"234064","337-UY","2019/07/15 19:19:26","新北市永和區永元路17巷9號","121.521205","25.0006516666667","6500400","永和區"
"234086","338-UY","2019/07/15 19:19:07","新北市永和區永利路35號","121.518601666667","25.0056783333333","6500400","永和區"
"234070","552-UM","2019/07/15 19:19:28","新北市永和區豫溪街85號","121.518241666667","25.0100716666667","6500400","永和區"
"234017","745-BX","2019/07/15 19:19:10","新北市永和區文化路144巷27號","121.512495","25.0166383333333","6500400","永和區"
"234030","746-BX","2019/07/15 19:19:22","新北市永和區民生路21號","121.522865","24.9988666666667","6500400","永和區"
"234054","KEA-2590","2019/07/15 19:19:16","新北市永和區中興街20號","121.516078333333","25.0118166666667","6500400","永和區"
"234007","KED-0605","2019/07/15 19:19:08","新北市永和區中山路一段242號","121.507718333333","25.0079016666667","6500400","永和區"
"234013","KEA-2591","2019/07/15 19:19:23","新北市永和區信義路57-1號","121.512785","25.012615","6500400","永和區"
"234061","AAD-866","2019/07/15 19:19:05","新北市永和區秀朗路一段175號","121.517045","25.00361","6500400","永和區"
"234042","862-TW","2019/07/15 19:19:19","新北市永和區保平路151巷6弄1號","121.510306666667","25.00536","6500400","永和區"
"234050","863-TW","2019/07/15 19:19:15","新北市永和區保福路二段90號","121.510496666667","25.0134466666667","6500400","永和區"
"234026","9371-KE","2019/07/15 19:19:26","新北市永和區安樂路144巷24號","121.515165","24.9996716666667","6500400","永和區"
"234011","9373-KE","2019/07/15 19:19:23","新北市永和區保福路二段23巷21號","121.510045","25.0112516666667","6500400","永和區"
"249001","173-UM","2019/07/15 19:19:17","新北市八里區中華路二段31-1號","121.412503333333","25.153665","6502300","八里區"
"249003","593-UM","2019/07/15 19:19:19","新北市八里區中山路二段440號","121.399385","25.1476416666667","6502300","八里區"
"248014","025-BX","2019/07/15 19:19:16","新北市五股區民義路一段163-2號","121.432076666667","25.0877933333333","6501500","五股區"
"248018","KED-0813","2019/07/15 19:19:20","新北市五股區民義路一段220巷17號","121.429076666667","25.0946383333333","6501500","五股區"
"248012","247-BX","2019/07/15 19:19:18","新北市五股區中興路四段48巷16號","121.438585","25.083455","6501500","五股區"
"248004","677-BX","2019/07/15 19:19:19","新北市五股區五福路77號","121.432506666667","25.0902616666667","6501500","五股區"
"248002","678-BX","2019/07/15 19:19:10","新北市五股區凌雲路一段158巷6號","121.447788333333","25.1029616666667","6501500","五股區"
"248010","682-TV","2019/07/15 19:19:22","新北市五股區自強路90巷72號","121.43074","25.07123","6501500","五股區"
"234023","9380-KE","2019/07/15 19:19:13","新北市永和區竹林路109巷5號","121.52013","25.0119283333333","6500400","永和區"
"234077","969-R7","2019/07/15 19:19:09","新北市永和區民族街44號","121.518376666667","24.9987883333333","6500400","永和區"
"234067","AAC-212","2019/07/15 19:19:23","新北市永和區保平路55號","121.511693333333","25.0070866666667","6500400","永和區"
"234003","AAC-295","2019/07/15 19:19:22","新北市永和區中山路一段147號","121.510138333333","25.0096433333333","6500400","永和區"
"244023","483-VK","2019/07/15 19:19:22","新北市林口區仁愛路二段377號","121.370381666667","25.0798283333333","6501700","林口區"
"244025","837-TS","2019/07/15 19:19:15","新北市林口區文化三路一段555巷50號","121.369808333333","25.077015","6501700","林口區"
"243012","AAD-798","2019/07/15 19:19:14","新北市泰山區同義街15號","121.431456666667","25.0567233333333","6501600","泰山區"
"243010","297-R6","2019/07/15 19:19:25","新北市泰山區明志路一段458巷1號","121.430365","25.0554733333333","6501600","泰山區"
"243014","KEA-2801","2019/07/15 19:19:22","新北市泰山區泰林路二段155號","121.433848333333","25.06041","6501600","泰山區"
"243016","421-VK","2019/07/15 19:19:13","新北市泰山區工專路15號","121.423613333333","25.0397133333333","6501600","泰山區"
"243009","KEA-2215","2019/07/15 19:19:07","新北市泰山區和平街2號","121.434075","25.0645866666667","6501600","泰山區"
"243011","KEA-2216","2019/07/15 19:19:18","新北市泰山區中央路11巷2號","121.426311666667","25.0426933333333","6501600","泰山區"
"243013","646-TV","2019/07/15 19:19:19","新北市泰山區明志路三段145巷2弄15號","121.425041666667","25.03934","6501600","泰山區"
"243015","680-BX","2019/07/15 19:19:16","新北市泰山區公園路71號","121.426256666667","25.0555033333333","6501600","泰山區"
"222002","016-RS","2019/07/15 19:19:25","新北市深坑區北深路一段177號","121.632546666667","25.0108883333333","6501800","深坑區"
"222003","436-BY","2019/07/15 19:19:17","新北市深坑區深南路91號","121.626523333333","25.0159766666667","6501800","深坑區"
"231061","002-UM","2019/07/15 19:19:17","新北市新店區安康路一段50號","121.530321666667","24.9611083333333","6500600","新店區"
"231058","0293-UT","2019/07/15 19:19:25","新北市新店區光明街224巷20弄1號","121.540791666667","24.9625083333333","6500600","新店區"
"231044","046-UY","2019/07/15 19:19:17","新北市新店區中興路三段312號","121.5422","24.9856733333333","6500600","新店區"
"231060","106-UY","2019/07/15 19:19:20","新北市新店區安康路二段156號","121.512343333333","24.96089","6500600","新店區"
"231051","107-UY","2019/07/15 19:19:09","新北市新店區中央路192號","121.530923333333","24.9748466666667","6500600","新店區"
"231049","108-UY","2019/07/15 19:19:24","新北市新店區北新路三段1號","121.542313333333","24.97927","6500600","新店區"
"231065","110-UY","2019/07/15 19:19:07","新北市新店區安祥路110巷51-1號","121.47355","24.9567166666667","6500600","新店區"
"231050","KEA-2219","2019/07/15 19:19:26","新北市新店區竹林路30巷1號","121.55228","24.9513216666667","6500600","新店區"
"221035","KEA-2785","2019/07/15 19:19:05","新北市汐止區汐萬路一段265巷2號","121.650683333333","25.074255","6501100","汐止區"
"231062","256-BX","2019/07/15 19:19:27","新北市新店區莒光路38巷3號","121.522198333333","24.9588283333333","6500600","新店區"
"231054","260-TV","2019/07/15 19:19:17","新北市新店區國校路33號","121.538055","24.9560783333333","6500600","新店區"
"231042","268-BY","2019/07/15 19:19:18","新北市新店區北宜路一段3號","121.538496666667","24.958405","6500600","新店區"
"231064","278-BY","2019/07/15 19:19:25","新北市新店區安忠路57巷26弄2號","121.512981666667","24.958765","6500600","新店區"
"231045","355-BY","2019/07/15 19:19:11","新北市新店區北宜路一段248號","121.545215","24.9529016666667","6500600","新店區"
"231055","4716-K9","2019/07/15 19:19:07","新北市新店區安德街60巷9-3號","121.509093333333","24.9621733333333","6500600","新店區"
"231056","4715-K9","2019/07/15 19:19:19","新北市新店區薏仁坑路6-1號","121.499996666667","24.9583133333333","6500600","新店區"
"231052","513-UM","2019/07/15 19:19:08","新北市新店區自強路197號","121.546571666667","24.9203183333333","6500600","新店區"
"231041","619-UM","2019/07/15 19:19:11","新北市新店區溪園路247號","121.52529","24.9832416666667","6500600","新店區"
"231063","641-BX","2019/07/15 19:19:16","新北市新店區達觀路10號","121.503731666667","24.9439016666667","6500600","新店區"
"231047","KED-0819","2019/07/15 19:19:13","新北市新店區德正街25巷7號","121.544571666667","24.9718466666667","6500600","新店區"
"231046","719-UM","2019/07/15 19:19:25","新北市新店區華城路12-1號","121.52926","24.957865","6500600","新店區"
"231057","720-UM","2019/07/15 19:19:15","新北市新店區百齡一路12號","121.553028333333","24.9325283333333","6500600","新店區"
"231059","897-TW","2019/07/15 19:19:13","新北市新店區安和路二段138號","121.519576666667","24.972365","6500600","新店區"
"231040","898-TW","2019/07/15 19:19:24","新北市新店區三民路109號","121.53508","24.9721166666667","6500600","新店區"
"231043","899-TW","2019/07/15 19:19:16","新北市新店區寶橋路15號","121.543813333333","24.97395","6500600","新店區"
"231066","AKT-0513","2019/07/15 19:19:07","新北市新店區安祥路35-2號","121.490583333333","24.95691","6500600","新店區"
"241011","013-R5","2019/07/15 19:19:11","新北市三重區秀江街1號","121.502811666667","25.073275","6500200","三重區"
"241029","060-VK","2019/07/15 19:19:26","新北市三重區集美街257號","121.492373333333","25.05552","6500200","三重區"
"241031","061-VK","2019/07/15 19:19:23","新北市三重區重新路四段242-1號","121.485666666667","25.0536416666667","6500200","三重區"
"241017","063-VK","2019/07/15 19:19:13","新北市三重區大同北路213號","121.491943333333","25.0656666666667","6500200","三重區"
"241030","742-BX","2019/07/15 19:19:10","新北市三重區新興路42號","121.491403333333","25.0533366666667","6500200","三重區"
"241009","267-UM","2019/07/15 19:19:23","新北市三重區溪尾街230巷67號","121.486123333333","25.0812566666667","6500200","三重區"
"241032","269-UM","2019/07/15 19:19:22","新北市三重區新生街89號","121.48393","25.059485","6500200","三重區"
"241007","398-BY","2019/07/15 19:19:16","新北市三重區三和路四段163巷95號","121.48667","25.0795016666667","6500200","三重區"
"241035","462-BY","2019/07/15 19:19:12","新北市三重區信義西街138號","121.49567","25.0644383333333","6500200","三重區"
"241013","475-VK","2019/07/15 19:19:17","新北市三重區三和路三段107巷28號","121.495151666667","25.0732266666667","6500200","三重區"
"241020","478-VK","2019/07/15 19:19:17","新北市三重區忠孝路一段87號","121.489988333333","25.0720766666667","6500200","三重區"
"241026","480-VK","2019/07/15 19:19:18","新北市三重區中正南路171號","121.49362","25.0556933333333","6500200","三重區"
"241022","KED-0820","2019/07/15 19:19:12","新北市三重區重陽路二段65號","121.487436666667","25.0637333333333","6500200","三重區"
"235066","003-UY","2019/07/15 19:19:15","新北市中和區廣福路81號","121.502133333333","25.0010933333333","6500300","中和區"
"235064","005-UY","2019/07/15 19:19:11","新北市中和區南山路81巷60號","121.503998333333","24.9979933333333","6500300","中和區"
"235063","006-UY","2019/07/15 19:19:24","新北市中和區連勝街121巷16號","121.495051666667","24.9944566666667","6500300","中和區"
"235056","096-UM","2019/07/15 19:19:13","新北市中和區中山路三段102號","121.476893333333","25.0060266666667","6500300","中和區"
"235039","097-UM","2019/07/15 19:19:18","新北市中和區秀峰街121號","121.520006666667","24.9906566666667","6500300","中和區"
"235065","098-UM","2019/07/15 19:19:20","新北市中和區中山路二段64巷16弄11號","121.503605","25.0062666666667","6500300","中和區"
"235040","150-BY","2019/07/15 19:19:07","新北市中和區保健路50巷27號","121.51005","24.996105","6500300","中和區"
"235058","151-BY","2019/07/15 19:19:18","新北市中和區員山路36巷16-2號","121.485281666667","24.9914816666667","6500300","中和區"
"235055","183-VK","2019/07/15 19:19:07","新北市中和區莒光路84巷2號","121.47195","25.0025383333333","6500300","中和區"
"235038","185-VK","2019/07/15 19:19:23","新北市中和區大仁街96號","121.520271666667","24.993135","6500300","中和區"
"235049","186-VK","2019/07/15 19:19:21","新北市中和區景新街295巷17號","121.510803333333","24.9935033333333","6500300","中和區"
"235044","293-VK","2019/07/15 19:19:11","新北市中和區復興路300號","121.501505","24.99031","6500300","中和區"
"235072","301-VK","2019/07/15 19:19:12","新北市中和區連城路218號","121.491475","24.9965383333333","6500300","中和區"
"235043","352-BY","2019/07/15 19:19:10","新北市中和區景平路283號","121.507451666667","24.9931616666667","6500300","中和區"
"235042","KEA-2878","2019/07/15 19:19:20","新北市中和區安樂路217巷35弄12號","121.51403","24.9977333333333","6500300","中和區"
"235050","4979-A6","2019/07/15 19:19:14","新北市中和區景安路208巷7號","121.50353","24.9911216666667","6500300","中和區"
"235069","4980-A6","2019/07/15 19:19:26","新北市中和區中山路二段136巷70號","121.500551666667","25.0045966666667","6500300","中和區"
"235070","558-UM","2019/07/15 19:19:12","新北市中和區連城路2號","121.499398333333","25.002505","6500300","中和區"
"235045","565-BX","2019/07/15 19:19:15","新北市中和區景新街423巷37號","121.514101666667","24.9898183333333","6500300","中和區"
"235060","KED-0823","2019/07/15 19:19:11","新北市中和區中山路三段89號","121.47544","25.0058083333333","6500300","中和區"
"235054","640-BX","2019/07/15 19:19:14","新北市中和區國光街112巷22弄17號","121.470301666667","25.0024383333333","6500300","中和區"
"235047","732-UM","2019/07/15 19:19:22","新北市中和區和平街54巷8弄26號","121.509513333333","24.991285","6500300","中和區"
"235046","733-UM","2019/07/15 19:19:09","新北市中和區忠孝街2巷14弄12號","121.510563333333","24.9812933333333","6500300","中和區"
"235071","783-BX","2019/07/15 19:19:13","新北市中和區中正路635號","121.485253333333","24.9954633333333","6500300","中和區"
"235057","801-TS","2019/07/15 19:19:23","新北市中和區中山路二段678號","121.47995","25.006065","6500300","中和區"
"235041","802-TS","2019/07/15 19:19:15","新北市永和區中和路385號","121.50862","24.9999833333333","6500300","中和區"
"235052","805-TS","2019/07/15 19:19:24","新北市中和區興南路二段159巷1-2號","121.505135","24.9833816666667","6500300","中和區"
"235053","900-TW","2019/07/15 19:19:13","新北市中和區民德路260號","121.467838333333","24.996875","6500300","中和區"
"235048","911-UM","2019/07/15 19:19:19","新北市中和區忠孝街122-2號","121.512166666667","24.9859366666667","6500300","中和區"
"235051","157-BY","2019/07/15 19:19:15","新北市中和區興南路一段56巷9號","121.510345","24.991145","6500300","中和區"
"235037","AAC-213","2019/07/15 19:19:20","新北市中和區秀朗路三段10巷14弄29號","121.52441","24.996405","6500300","中和區"
"235059","AAC-215","2019/07/15 19:19:11","新北市中和區錦和路195巷1弄7號","121.49104","24.99099","6500300","中和區"
"220068","015-TV","2019/07/15 19:19:19","新北市板橋區縣民大道三段275-1號","121.482531666667","25.0261766666667","6500100","板橋區"
"220065","072-UY","2019/07/15 19:19:12","新北市板橋區民族路129巷14號","121.467636666667","25.00852","6500100","板橋區"
"220086","073-UY","2019/07/15 19:19:10","新北市板橋區幸福路70巷1號","121.460605","25.0199483333333","6500100","板橋區"
"220106","075-UY","2019/07/15 19:19:20","新北市板橋區江寧路三段101號","121.472755","25.0327433333333","6500100","板橋區"
"220069","AAD-861","2019/07/15 19:19:09","新北市板橋區貴興路51號","121.457608333333","25.0032083333333","6500100","板橋區"
"220090","120-SR","2019/07/15 19:19:24","新北市板橋區裕民街92號","121.460226666667","25.0280616666667","6500100","板橋區"
"226004","312-R5","2019/07/15 19:19:12","新北市平溪區南山里南山坪11-2號","121.764831666667","25.0323816666667","6502400","平溪區"
"228003","097-TW","2019/07/15 19:19:25","新北市貢寮區和美里和美街22-1號","121.912788333333","25.082665","6502600","貢寮區"
"228001","212-TW","2019/07/15 19:19:27","新北市貢寮區真理里新港街26巷6-3號","121.925635","25.0545666666667","6502600","貢寮區"
"228002","663-BX","2019/07/15 19:19:27","新北市貢寮區龍門里復興街8-2號","121.926745","25.0269016666667","6502600","貢寮區"
"224008","273-VK","2019/07/15 19:19:23","新北市瑞芳區明燈路三段151號","121.80291","25.1095566666667","6501200","瑞芳區"
"227001","642-TC","2019/07/15 19:19:09","新北市雙溪區雙溪里中正路1號","121.865403333333","25.0363583333333","6502500","雙溪區"
"227002","400-TW","2019/07/15 19:19:09","新北市雙溪區平林里梅竹蹊66-1號","121.860125","25.0358383333333","6502500","雙溪區"
"253006","032-BX","2019/07/15 19:19:19","新北市石門區崁子腳18-10號","121.534526666667","25.2904016666667","6502200","石門區"
"253005","295-VK","2019/07/15 19:19:14","新北市石門區阿里荖5-2號","121.61034","25.2798166666667","6502200","石門區"
"222001","KEA-2212","2019/07/15 19:19:20","新北市深坑區北深路二段84號","121.617418333333","25.0035533333333","6501800","深坑區"
"208002","KEA-2872","2019/07/15 19:19:18","新北市金山區環金路376巷1號","121.631966666667","25.2221983333333","6502700","金山區"
"208003","665-BX","2019/07/15 19:19:20","新北市金山區中山路187號","121.63822","25.2211","6502700","金山區"
"251005","010-UM","2019/07/15 19:19:09","新北市淡水區水源街一段15巷4號","121.442878333333","25.17265","6501000","淡水區"
"251001","011-UM","2019/07/15 19:19:23","新北市淡水區自強路201巷39號","121.462126666667","25.1268133333333","6501000","淡水區"
"251015","KEA-2871","2019/07/15 19:19:16","新北市淡水區南勢埔1號","121.484411666667","25.1803566666667","6501000","淡水區"
"251016","179-VK","2019/07/15 19:19:22","新北市淡水區淡金路三段350巷18號","121.450775","25.2083566666667","6501000","淡水區"
"251007","180-VK","2019/07/15 19:19:23","新北市淡水區民生路145巷31號","121.466696666667","25.1389616666667","6501000","淡水區"
"251008","181-VK","2019/07/15 19:19:23","新北市淡水區沙崙路21號","121.421325","25.1813983333333","6501000","淡水區"
"251013","182-VK","2019/07/15 19:19:10","新北市淡水區安子內12-1號","121.48149","25.219115","6501000","淡水區"
"251010","413-VK","2019/07/15 19:19:27","新北市淡水區沙崙路27號","121.421403333333","25.181605","6501000","淡水區"
"251009","575-R6","2019/07/15 19:19:22","新北市淡水區清水街87號","121.441056666667","25.17043","6501000","淡水區"
"251014","577-R6","2019/07/15 19:19:19","新北市淡水區小中寮19-7號","121.484721666667","25.22963","6501000","淡水區"
"251002","672-BX","2019/07/15 19:19:12","新北市淡水區文化路18號","121.439708333333","25.1727216666667","6501000","淡水區"
"251003","673-BX","2019/07/15 19:19:28","新北市淡水區中山路151號","121.44047","25.17255","6501000","淡水區"
"207003","550-UM","2019/07/15 19:19:16","新北市萬里區大鵬里萬里加投29號","121.647541666667","25.20649","6502800","萬里區"
"207004","225-TW","2019/07/15 19:19:10","新北市萬里區萬里里瑪鋉路18號","121.689315","25.17525","6502800","萬里區"
"252002","178-VK","2019/07/15 19:19:19","新北市三芝區淡金路二段18-1號","121.50267","25.2595283333333","6502100","三芝區"
"208001","170-UY","2019/07/15 19:19:15","新北市金山區民生路69號","121.64014","25.2197466666667","6502700","金山區"
"237004","KEA-2597","2019/07/15 19:19:27","新北市三峽區有木206號","121.439083333333","24.85159","6500900","三峽區"
"237007","153-BY","2019/07/15 19:19:27","新北市三峽區二鬮路81巷1號","121.359575","24.9070416666667","6500900","三峽區"
"237009","210-TH","2019/07/15 19:19:21","新北市三峽區信義街26號","121.37082","24.9352933333333","6500900","三峽區"
"237013","252-BX","2019/07/15 19:19:15","新北市三峽區大同路39巷7號","121.377046666667","24.9279","6500900","三峽區"
"237012","275-BY","2019/07/15 19:19:06","新北市三峽區三樹路222巷236弄23號","121.391323333333","24.94308","6500900","三峽區"
"237008","302-VK","2019/07/15 19:19:22","新北市三峽區大同路117號","121.37424","24.9267266666667","6500900","三峽區"
"237014","433-BY","2019/07/15 19:19:21","新北市三峽區中山路184巷3號","121.364021666667","24.93699","6500900","三峽區"
"237006","5529-G3","2019/07/15 19:19:23","新北市三峽區介壽路一段361號","121.382355","24.9305616666667","6500900","三峽區"
"237011","KEA-2596","2019/07/15 19:19:22","新北市三峽區介壽路三段107號","121.395493333333","24.9392883333333","6500900","三峽區"
"237015","649-BX","2019/07/15 19:19:23","新北市三峽區安坑50-5號","121.46333","24.9314866666667","6500900","三峽區"
"237010","706-TV","2019/07/15 19:19:23","新北市三峽區國光街36號","121.374851666667","24.9376916666667","6500900","三峽區"
"237005","AKY-6261","2019/07/15 19:19:12","新北市三峽區復興路553號","121.35666","24.940475","6500900","三峽區"
"236078","166-UM","2019/07/15 19:19:19","新北市土城區龍泉路8號","121.409438333333","24.9498866666667","6501300","土城區"
"236026","269-VK","2019/07/15 19:19:21","新北市土城區中央路二段177巷21號","121.443735","24.9762466666667","6501300","土城區"
"236014","270-VK","2019/07/15 19:19:19","新北市土城區學府路一段24巷5號","121.458365","24.98864","6501300","土城區"
"236069","KEA-2877","2019/07/15 19:19:27","新北市土城區學成路158號","121.448201666667","24.9892616666667","6501300","土城區"
"252001","KED-0821","2019/07/15 19:19:11","新北市三芝區長勤街9巷11弄1號","121.501713333333","25.2548666666667","6502100","三芝區"
"236020","401-BY","2019/07/15 19:19:06","新北市土城區明峰街83號","121.468993333333","24.9873916666667","6501300","土城區"
"236059","752-BX","2019/07/15 19:19:24","新北市土城區中央路二段231號","121.44034","24.972435","6501300","土城區"
"236063","915-UM","2019/07/15 19:19:26","新北市土城區金城路三段202-3號","121.4694","24.9885883333333","6501300","土城區"
"238015","755-BX","2019/07/15 19:19:07","新北市樹林區啟智街137巷10弄2號","121.417123333333","24.9883066666667","6500700","樹林區"
"238023","601-UM","2019/07/15 19:19:18","新北市樹林區中正路865號","121.40882","25.0180933333333","6500700","樹林區"
"238019","599-UM","2019/07/15 19:19:16","新北市樹林區鎮前街347巷3弄27號","121.417403333333","24.9838066666667","6500700","樹林區"
"238024","5061-A6","2019/07/15 19:19:19","新北市樹林區福德街33號","121.400508333333","24.9754166666667","6500700","樹林區"
"238018","KEA-2217","2019/07/15 19:19:21","新北市樹林區太元街2巷7號","121.417191666667","24.9808983333333","6500700","樹林區"
"238022","KEA-2213","2019/07/15 19:19:21","新北市樹林區中華路150-10號","121.41599","24.98024","6500700","樹林區"
"238021","KEA-2539","2019/07/15 19:19:24","新北市樹林區柑園街二段203巷16號","121.376766666667","24.9511516666667","6500700","樹林區"
"238025","303-VK","2019/07/15 19:19:11","新北市樹林區中山路二段219號","121.402605","24.97627","6500700","樹林區"
"238017","283-BY","2019/07/15 19:19:16","新北市樹林區光興街8-7號","121.413256666667","25.0029883333333","6500700","樹林區"
"238014","282-BY","2019/07/15 19:19:12","新北市樹林區保安二街29號","121.424836666667","24.9938316666667","6500700","樹林區"
"238020","268-VK","2019/07/15 19:19:23","新北市樹林區俊英街121巷16號","121.423623333333","25.01026","6500700","樹林區"
"238026","172-UY","2019/07/15 19:19:28","新北市樹林區佳園路一段39-1號","121.39322","24.9708766666667","6500700","樹林區"
"238016","169-UY","2019/07/15 19:18:42","新北市樹林區備前街13號","121.417615","24.9855333333333","6500700","樹林區"
"239007","AAC-297","2019/07/15 19:19:25","新北市鶯歌區西湖街53巷30號","121.341925","24.9607983333333","6500800","鶯歌區"
"239006","891-R6","2019/07/15 19:19:15","新北市鶯歌區鶯桃路296巷96號","121.337036666667","24.961975","6500800","鶯歌區"
"239008","527-UM","2019/07/15 19:19:18","新北市鶯歌區國際二路2巷13號","121.339375","24.9732983333333","6500800","鶯歌區"
"239005","526-UM","2019/07/15 19:19:04","新北市鶯歌區大湖路394號","121.344726666667","24.97353","6500800","鶯歌區"
"239001","417-VK","2019/07/15 19:19:13","新北市鶯歌區鶯桃路95巷78號","121.337123333333","24.9528166666667","6500800","鶯歌區"
"239003","360-BY","2019/07/15 19:19:13","新北市鶯歌區中正二路157號","121.3457","24.9499616666667","6500800","鶯歌區"
"239002","359-BY","2019/07/15 19:19:12","新北市鶯歌區中正一路234號","121.354131666667","24.9570266666667","6500800","鶯歌區"
"239004","193-VK","2019/07/15 19:19:15","新北市鶯歌區二甲路2號","121.334816666667","24.9345833333333","6500800","鶯歌區"
"221008","489-VK","2019/07/15 19:19:08","新北市汐止區康寧街307巷1弄9號","121.626791666667","25.0674316666667","6501100","汐止區"
"221002","707-TV","2019/07/15 19:19:18","新北市汐止區大同路一段339-1號","121.638523333333","25.05946","6501100","汐止區"
"220079","145-BY","2019/07/15 19:19:21","新北市板橋區民權路202巷7弄7號","121.459731666667","25.0147966666667","6500100","板橋區"
"220080","200-UY","2019/07/15 19:19:22","新北市板橋區大觀路一段75巷41號","121.448988333333","25.003975","6500100","板橋區"
"220082","610-BX","2019/07/15 19:19:23","新北市板橋區溪崑二街134號","121.42618","24.9876666666667","6500100","板橋區"
"220101","245-BX","2019/07/15 19:19:21","新北市板橋區縣民大道三段67號","121.474911666667","25.0215183333333","6500100","板橋區"
"220056","276-BY","2019/07/15 19:19:23","新北市板橋區信義路188號","121.459665","24.9912516666667","6500100","板橋區"
"220072","277-BY","2019/07/15 19:19:17","新北市板橋區金門街337巷9弄1號","121.430415","24.984645","6500100","板橋區"
"220094","283-UM","2019/07/15 19:19:16","新北市板橋區吳鳳路50巷12號","121.468861666667","25.03018","6500100","板橋區"
"220071","283-VK","2019/07/15 19:19:17","新北市板橋區重慶路327巷19弄2號","121.464796666667","24.9987816666667","6500100","板橋區"
"220053","285-VK","2019/07/15 19:19:06","新北市板橋區富山街27號","121.477801666667","25.021775","6500100","板橋區"
"220083","286-VK","2019/07/15 19:19:26","新北市板橋區大觀路二段174巷196弄8號","121.442733333333","25.003785","6500100","板橋區"
"220081","287-VK","2019/07/15 19:19:22","新北市板橋區南雅西路二段103號","121.452556666667","25.0107216666667","6500100","板橋區"
"220061","295-UM","2019/07/15 19:19:23","新北市板橋區中山路二段309巷12號","121.478558333333","25.0189316666667","6500100","板橋區"
"220084","296-UM","2019/07/15 19:19:21","新北市板橋區溪崑二街66巷25號","121.427275","24.9908466666667","6500100","板橋區"
"220075","303-R5","2019/07/15 19:15:59","新北市板橋區南雅南路一段60-1號","121.455476666667","25.00535","6500100","板橋區"
"220062","305-R5","2019/07/15 19:19:15","新北市板橋區三民路二段153巷36弄2號","121.48119","25.0141416666667","6500100","板橋區"
"220092","307-R5","2019/07/15 19:19:15","新北市板橋區松江街5號","121.46921","25.0262033333333","6500100","板橋區"
"220098","317-R6","2019/07/15 19:19:24","新北市板橋區自由路51巷12號","121.46496","25.0234516666667","6500100","板橋區"
"220089","487-VK","2019/07/15 19:19:13","新北市板橋區陽明街259號","121.462781666667","25.0253416666667","6500100","板橋區"
"220088","491-VK","2019/07/15 19:19:09","新北市板橋區雙十路二段39-1號","121.47669","25.0260833333333","6500100","板橋區"
"220035","560-BX","2019/07/15 19:19:22","新北市板橋區中正路326巷6弄2號","121.454873333333","25.021835","6500100","板橋區"
"220103","561-BX","2019/07/15 19:19:15","新北市板橋區陽明街23巷8弄7號","121.465725","25.0205083333333","6500100","板橋區"
"220063","609-BX","2019/07/15 19:19:20","新北市板橋區三民路一段1巷40號","121.480466666667","25.0243233333333","6500100","板橋區"
"220074","630-UY","2019/07/15 19:19:14","新北市板橋區中正路自強新村91-3號","121.454821666667","25.0135333333333","6500100","板橋區"
"220091","637-BX","2019/07/15 19:19:21","新北市板橋區縣民大道三段245巷3號","121.481286666667","25.0260683333333","6500100","板橋區"
"220057","686-BX","2019/07/15 19:19:12","新北市板橋區和平路155巷4號","121.463516666667","24.9960233333333","6500100","板橋區"
"220077","687-BX","2019/07/15 19:19:24","新北市板橋區大觀路二段127號","121.445831666667","25.0012866666667","6500100","板橋區"
"220093","689-BX","2019/07/15 19:19:16","新北市板橋區英士路51號","121.461038333333","25.0245483333333","6500100","板橋區"
"220054","741-BX","2019/07/15 19:19:24","新北市板橋區重慶路182號","121.462335","25.00354","6500100","板橋區"
"220102","KEA-2699","2019/07/15 19:19:22","新北市板橋區松柏街1巷1號","121.473858333333","25.029405","6500100","板橋區"
"220055","827-TW","2019/07/15 19:19:10","新北市板橋區館前東路156巷10號","121.464311666667","25.00723","6500100","板橋區"
"220067","829-TW","2019/07/15 19:19:23","新北市板橋區長安街138巷1弄108號","121.474056666667","25.010265","6500100","板橋區"
"220073","985-R7","2019/07/15 19:19:22","新北市板橋區新生街89巷2號","121.458186666667","25.022125","6500100","板橋區"
"220097","AAC-210","2019/07/15 19:19:22","新北市板橋區幸福路32巷4弄13號","121.461316666667","25.0216466666667","6500100","板橋區"
"220064","AAC-253","2019/07/15 19:19:13","新北市板橋區中山路一段137號","121.462481666667","25.0107783333333","6500100","板橋區"
"235068","KEA-2873","2019/07/15 19:18:59","新北市中和區連勝街55號","121.497806666667","24.9971083333333","6500300","中和區"
"235061","KEA-2875","2019/07/15 19:19:00","新北市中和區員山路247號","121.481353333333","24.9986716666667","6500300","中和區"
