"lineid","car","time","location","longitude","latitude","cityid","cityname"
"234046","148-BY","2019/07/15 19:59:06","新北市永和區永元路124號","121.522903333333","25.0028066666667","6500400","永和區"
"234081","298-R6","2019/07/15 19:59:27","新北市永和區永利路75巷4號","121.52182","25.003985","6500400","永和區"
"234038","336-UY","2019/07/15 19:59:19","新北市永和區成功路二段171號","121.526623333333","24.99693","6500400","永和區"
"234064","337-UY","2019/07/15 19:59:17","新北市永和區中正路412巷20弄10號","121.518686666667","25.0015866666667","6500400","永和區"
"234086","338-UY","2019/07/15 19:58:58","新北市永和區永利路44號","121.518698333333","25.005345","6500400","永和區"
"234070","552-UM","2019/07/15 19:59:28","新北市永和區國光路29號","121.5195","25.0082716666667","6500400","永和區"
"234042","553-UM","2019/07/15 19:59:23","新北市永和區中和路305巷2弄1號","121.506575","25.0000466666667","6500400","永和區"
"234017","745-BX","2019/07/15 19:59:23","新北市永和區文化路63號","121.514048333333","25.0150766666667","6500400","永和區"
"234030","746-BX","2019/07/15 19:59:22","新北市永和區四維街89巷2弄7號","121.524175","24.99778","6500400","永和區"
"234054","KEA-2590","2019/07/15 19:59:16","新北市永和區博愛街57巷1號","121.519853333333","25.0159766666667","6500400","永和區"
"234007","KED-0605","2019/07/15 19:59:08","新北市永和區保生路22巷21號","121.507136666667","25.0082283333333","6500400","永和區"
"234013","KEA-2591","2019/07/15 19:59:23","新北市永和區保生路55號","121.504726666667","25.0105733333333","6500400","永和區"
"234061","AAD-866","2019/07/15 19:59:25","新北市永和區中正路283巷17號","121.51671","25.0003783333333","6500400","永和區"
"234050","863-TW","2019/07/15 19:59:25","新北市永和區保安路224號","121.507205","25.0134133333333","6500400","永和區"
"234026","9371-KE","2019/07/15 19:59:26","新北市永和區水源街21巷14弄3號","121.511451666667","25.0037133333333","6500400","永和區"
"234011","9373-KE","2019/07/15 19:59:23","新北市永和區仁愛路352巷112弄8號","121.500978333333","25.008525","6500400","永和區"
"249005","172-UM","2019/07/15 19:58:02","新北市八里區楓林路3-1號","121.382458333333","25.1304816666667","6502300","八里區"
"249001","173-UM","2019/07/15 19:59:22","新北市八里區中華路二段312號","121.403703333333","25.1483083333333","6502300","八里區"
"249004","303-UY","2019/07/15 19:59:05","新北市八里區中華路一段333-1號","121.412931666667","25.1542366666667","6502300","八里區"
"249002","305-UY","2019/07/15 19:59:24","新北市八里區頂寮五街26號","121.451131666667","25.1261266666667","6502300","八里區"
"249003","593-UM","2019/07/15 19:59:19","新北市八里區中華路二段558號","121.398553333333","25.1452366666667","6502300","八里區"
"248014","025-BX","2019/07/15 19:59:16","新北市五股區五福路14巷24號","121.435411666667","25.0888133333333","6501500","五股區"
"248008","KED-0815","2019/07/15 19:59:24","新北市五股區四維路30巷29號","121.468558333333","25.07149","6501500","五股區"
"248018","KED-0813","2019/07/15 19:59:20","新北市五股區登林路118號","121.418385","25.0737966666667","6501500","五股區"
"248012","247-BX","2019/07/15 19:59:18","新北市五股區工商路205號","121.433283333333","25.0871033333333","6501500","五股區"
"248016","261-SL","2019/07/15 19:59:09","新北市五股區成泰路三段577巷80弄7號","121.449501666667","25.1042966666667","6501500","五股區"
"248004","677-BX","2019/07/15 19:59:19","新北市五股區成泰路一段32巷60號","121.434913333333","25.06695","6501500","五股區"
"248002","678-BX","2019/07/15 19:59:20","新北市五股區成泰路三段625號","121.45267","25.1041066666667","6501500","五股區"
"248010","682-TV","2019/07/15 19:59:22","新北市五股區登林路51-10號","121.430825","25.0692966666667","6501500","五股區"
"234023","9380-KE","2019/07/15 19:59:13","新北市永和區豫溪街54號","121.516718333333","25.0098266666667","6500400","永和區"
"234077","969-R7","2019/07/15 19:59:09","新北市永和區民有街28號","121.51688","24.9963316666667","6500400","永和區"
"234074","AAC-211","2019/07/15 19:59:26","新北市永和區豫溪街207巷2號","121.523758333333","25.0095733333333","6500400","永和區"
"234067","AAC-212","2019/07/15 19:59:17","新北市永和區中山路一段281巷2弄1號","121.507325","25.006655","6500400","永和區"
"234003","AAC-295","2019/07/15 19:59:22","新北市永和區中正路706號","121.516131666667","25.00992","6500400","永和區"
"243012","AAD-798","2019/07/15 19:59:14","新北市泰山區全興路20號","121.432316666667","25.058905","6501600","泰山區"
"243014","KEA-2801","2019/07/15 19:59:22","新北市泰山區泰林路二段29號","121.43582","25.0566733333333","6501600","泰山區"
"243016","421-VK","2019/07/15 19:59:18","新北市泰山區明志路三段423號","121.421271666667","25.0332633333333","6501600","泰山區"
"243009","KEA-2215","2019/07/15 19:59:07","新北市泰山區楓江路16巷21號","121.433991666667","25.06158","6501600","泰山區"
"243011","KEA-2216","2019/07/15 19:59:18","新北市泰山區工專路65號","121.422086666667","25.0403916666667","6501600","泰山區"
"222002","016-RS","2019/07/15 19:59:25","新北市深坑區北深路二段81巷8弄6號","121.618226666667","25.0031433333333","6501800","深坑區"
"222003","436-BY","2019/07/15 19:59:16","新北市深坑區埔新街14號","121.620711666667","25.0039333333333","6501800","深坑區"
"231061","002-UM","2019/07/15 19:59:19","新北市新店區安民街325號","121.517348333333","24.9745916666667","6500600","新店區"
"231044","046-UY","2019/07/15 19:59:16","新北市新店區復興路43號","121.53704","24.9870316666667","6500600","新店區"
"231060","106-UY","2019/07/15 19:59:20","新北市新店區安康路二段400-1號","121.496945","24.9554416666667","6500600","新店區"
"231051","107-UY","2019/07/15 19:59:09","新北市新店區中央二街17號","121.528883333333","24.9734","6500600","新店區"
"231049","108-UY","2019/07/15 19:59:24","新北市新店區建國路242號","121.53769","24.98199","6500600","新店區"
"231065","110-UY","2019/07/15 19:59:27","新北市新店區安祥路106-13號","121.476843333333","24.96105","6500600","新店區"
"231068","187-VK","2019/07/15 19:59:12","新北市新店區安一路一段1-1號","121.519683333333","24.9613333333333","6500600","新店區"
"231050","KEA-2219","2019/07/15 19:59:26","新北市新店區北宜路二段129號","121.550876666667","24.9530566666667","6500600","新店區"
"221035","KEA-2785","2019/07/15 19:59:25","新北市汐止區長江街11號","121.654715","25.0712016666667","6501100","汐止區"
"231062","256-BX","2019/07/15 19:59:27","新北市新店區華潭街26巷1弄1號","121.529505","24.953695","6500600","新店區"
"231054","260-TV","2019/07/15 19:59:13","新北市新店區光明街171號","121.539763333333","24.962615","6500600","新店區"
"231042","268-BY","2019/07/15 19:59:17","新北市新店區中興路一段292號","121.54593","24.9691233333333","6500600","新店區"
"231064","278-BY","2019/07/15 19:59:25","新北市新店區安光路10-1號","121.513775","24.9640966666667","6500600","新店區"
"231045","355-BY","2019/07/15 19:59:11","新北市新店區北宜路二段483號","121.562136666667","24.9539216666667","6500600","新店區"
"231055","4716-K9","2019/07/15 19:59:07","新北市新店區新生街5巷18號","121.539543333333","24.9656166666667","6500600","新店區"
"231056","4715-K9","2019/07/15 19:59:19","新北市新店區北新路二段70號","121.542925","24.9725816666667","6500600","新店區"
"231067","4772-VM","2019/07/15 19:59:07","新北市新店區秀山路11巷22號","121.531525","24.9587333333333","6500600","新店區"
"231052","513-UM","2019/07/15 19:59:08","新北市新店區新烏路三段寶島巷2弄3號","121.551951666667","24.89859","6500600","新店區"
"231041","619-UM","2019/07/15 19:59:11","新北市新店區中央路7號","121.533341666667","24.9786","6500600","新店區"
"231063","641-BX","2019/07/15 19:59:14","新北市新店區車子路11號","121.503033333333","24.9520166666667","6500600","新店區"
"231047","KED-0819","2019/07/15 19:59:13","新北市新店區寶興路65巷2號","121.55079","24.9715883333333","6500600","新店區"
"231057","720-UM","2019/07/15 19:59:15","新北市新店區花園二路一段11號","121.555498333333","24.9324633333333","6500600","新店區"
"231059","897-TW","2019/07/15 19:59:13","新北市新店區安和路二段105號","121.51866","24.9697933333333","6500600","新店區"
"231040","898-TW","2019/07/15 19:59:24","新北市新店區中正路75巷71號","121.543096666667","24.96881","6500600","新店區"
"231043","899-TW","2019/07/15 19:59:16","新北市新店區中正路263-4號","121.538271666667","24.9738","6500600","新店區"
"231066","AKT-0513","2019/07/15 19:59:07","新北市新店區安康路二段341巷50號","121.496666666667","24.9543183333333","6500600","新店區"
"241011","013-R5","2019/07/15 19:59:11","新北市三重區三和路二段119號","121.498941666667","25.0690783333333","6500200","三重區"
"241028","022-UY","2019/07/15 19:59:21","新北市三重區中正南路47號","121.493906666667","25.0597016666667","6500200","三重區"
"241008","059-VK","2019/07/15 19:59:15","新北市三重區永福街185號","121.479068333333","25.07492","6500200","三重區"
"241029","060-VK","2019/07/15 19:59:06","新北市三重區重安街8號","121.490181666667","25.05826","6500200","三重區"
"241031","061-VK","2019/07/15 19:59:23","新北市三重區重新路四段184巷7弄2號","121.486975","25.054675","6500200","三重區"
"241015","062-VK","2019/07/15 19:59:13","新北市三重區三和路二段2-2號","121.501396666667","25.0665883333333","6500200","三重區"
"241017","063-VK","2019/07/15 19:59:13","新北市三重區自強路一段215號","121.491343333333","25.0685366666667","6500200","三重區"
"241024","065-VK","2019/07/15 19:59:28","新北市三重區力行路一段178巷39號","121.480811666667","25.0713683333333","6500200","三重區"
"241023","066-VK","2019/07/15 19:59:22","新北市三重區頂崁街166號","121.47766","25.065835","6500200","三重區"
"241003","091-VK","2019/07/15 19:59:15","新北市三重區五華街97號","121.491706666667","25.0836466666667","6500200","三重區"
"241030","742-BX","2019/07/15 19:59:10","新北市三重區成功路187號","121.485683333333","25.0527516666667","6500200","三重區"
"241016","266-UM","2019/07/15 19:59:07","新北市三重區正義北路36巷16號","121.496488333333","25.06332","6500200","三重區"
"241009","267-UM","2019/07/15 19:59:22","新北市三重區三和路四段390巷12號","121.481521666667","25.0788866666667","6500200","三重區"
"241018","268-UM","2019/07/15 19:59:15","新北市三重區正義北路244巷50號","121.494461666667","25.067745","6500200","三重區"
"241032","269-UM","2019/07/15 19:59:22","新北市三重區朝陽街23號","121.483575","25.0565233333333","6500200","三重區"
"241013","270-UM","2019/07/15 19:59:06","新北市三重區三和路三段113巷18號","121.493945","25.0734233333333","6500200","三重區"
"241025","271-UM","2019/07/15 19:59:23","新北市三重區頂崁街210巷16號","121.476601666667","25.067615","6500200","三重區"
"241007","398-BY","2019/07/15 19:59:16","新北市三重區慈愛街119號","121.488351666667","25.0797116666667","6500200","三重區"
"241035","462-BY","2019/07/15 19:59:12","新北市三重區重新路二段13巷13號","121.498295","25.062955","6500200","三重區"
"241004","475-VK","2019/07/15 19:59:17","新北市三重區五華街74號","121.493423333333","25.0820016666667","6500200","三重區"
"241020","478-VK","2019/07/15 19:59:17","新北市三重區忠孝路一段101號","121.489463333333","25.0721666666667","6500200","三重區"
"241026","480-VK","2019/07/15 19:59:18","新北市三重區中央南路9號","121.501166666667","25.06285","6500200","三重區"
"241014","543-UM","2019/07/15 19:59:09","新北市三重區三和路二段140號","121.499646666667","25.0682433333333","6500200","三重區"
"241001","547-UM","2019/07/15 19:59:24","新北市三重區仁愛街271號","121.493003333333","25.078765","6500200","三重區"
"241019","KEA-2593","2019/07/15 19:59:10","新北市三重區重陽路四段5號","121.49101","25.06896","6500200","三重區"
"241006","AAD-863","2019/07/15 19:59:17","新北市三重區力行路二段93號","121.482745","25.0758266666667","6500200","三重區"
"241005","887-TS","2019/07/15 19:59:18","新北市三重區溪尾街308號","121.487581666667","25.0840033333333","6500200","三重區"
"241012","941-UM","2019/07/15 19:59:23","新北市三重區仁義街18號","121.4996","25.0762616666667","6500200","三重區"
"241033","AAC-255","2019/07/15 19:59:11","新北市三重區中興北街103號","121.469765","25.0484066666667","6500200","三重區"
"235066","003-UY","2019/07/15 19:59:15","新北市中和區光華街12號","121.504041666667","25.0042083333333","6500300","中和區"
"235039","097-UM","2019/07/15 19:59:18","新北市中和區景平路276-1號","121.513915","24.9926383333333","6500300","中和區"
"235065","098-UM","2019/07/15 19:59:20","新北市中和區福美路269號","121.498231666667","25.0050383333333","6500300","中和區"
"235040","150-BY","2019/07/15 19:59:27","新北市中和區保健路10巷3弄1號","121.507746666667","24.9976366666667","6500300","中和區"
"235058","151-BY","2019/07/15 19:59:18","新北市中和區員山路146巷15號","121.482226666667","24.9968216666667","6500300","中和區"
"235055","183-VK","2019/07/15 19:59:07","新北市中和區中山路三段218號","121.471293333333","25.0065683333333","6500300","中和區"
"235049","186-VK","2019/07/15 19:59:21","新北市中和區南華路26號","121.503065","24.995955","6500300","中和區"
"235044","293-VK","2019/07/15 19:59:11","新北市中和區復興路56號","121.50388","24.99041","6500300","中和區"
"235042","KEA-2878","2019/07/15 19:59:20","新北市新店區安業街2號","121.515195","24.978415","6500300","中和區"
"247014","KEA-2869","2019/07/15 19:59:16","新北市蘆洲區成功路144-1號","121.471831666667","25.0830816666667","6501400","蘆洲區"
"247008","KED-0682","2019/07/15 19:59:23","新北市蘆洲區信義路111號","121.478405","25.080165","6501400","蘆洲區"
"235070","558-UM","2019/07/15 19:59:12","新北市中和區圓通路233號","121.496223333333","24.9941316666667","6500300","中和區"
"235047","732-UM","2019/07/15 19:59:22","新北市中和區和平街74號","121.507773333333","24.9910333333333","6500300","中和區"
"235046","733-UM","2019/07/15 19:59:08","新北市中和區興南路一段105巷20弄16號","121.51036","24.9854533333333","6500300","中和區"
"235041","802-TS","2019/07/15 19:59:15","新北市中和區安平路38號","121.509871666667","24.9950183333333","6500300","中和區"
"235052","805-TS","2019/07/15 19:59:24","新北市中和區華新街30巷20弄1-2號","121.506568333333","24.9840383333333","6500300","中和區"
"235048","911-UM","2019/07/15 19:59:19","新北市中和區景新街385號","121.512425","24.9900616666667","6500300","中和區"
"235051","157-BY","2019/07/15 19:59:15","新北市中和區復興路301巷2弄2號","121.501461666667","24.9901","6500300","中和區"
"235037","AAC-213","2019/07/15 19:59:20","新北市中和區立人街55號","121.520298333333","24.9942216666667","6500300","中和區"
"235059","AAC-215","2019/07/15 19:59:11","新北市中和區圓通路335巷5弄15號","121.493558333333","24.9901016666667","6500300","中和區"
"220068","015-TV","2019/07/15 19:59:19","新北市板橋區光復街234-1號","121.484618333333","25.02153","6500100","板橋區"
"220065","072-UY","2019/07/15 19:59:12","新北市板橋區民族路87號","121.466143333333","25.008265","6500100","板橋區"
"220086","073-UY","2019/07/15 19:59:10","新北市板橋區中正路127號","121.456545","25.01534","6500100","板橋區"
"220106","075-UY","2019/07/15 19:59:08","新北市板橋區懷德街66巷22號","121.476908333333","25.03199","6500100","板橋區"
"220069","AAD-861","2019/07/15 19:59:07","新北市板橋區大明街25巷2弄17號","121.457565","25.0024666666667","6500100","板橋區"
"220090","120-SR","2019/07/15 19:59:23","新北市板橋區新海路72巷17號","121.462448333333","25.022355","6500100","板橋區"
"247004","893-R6","2019/07/15 19:59:27","新北市蘆洲區長安街196號","121.458765","25.0838633333333","6501400","蘆洲區"
"247018","546-UM","2019/07/15 19:59:11","新北市蘆洲區民族路290巷3號","121.47818","25.0898016666667","6501400","蘆洲區"
"247024","337-TH","2019/07/15 19:59:07","新北市蘆洲區光榮路120巷12號","121.465191666667","25.088425","6501400","蘆洲區"
"247002","336-TH","2019/07/15 19:59:20","新北市蘆洲區長安街274巷16號","121.45814","25.0870283333333","6501400","蘆洲區"
"247016","053-VK","2019/07/15 19:59:10","新北市蘆洲區光華路11號","121.469931666667","25.0833433333333","6501400","蘆洲區"
"247020","007-UY","2019/07/15 19:59:28","新北市蘆洲區民義街53號","121.472795","25.0897766666667","6501400","蘆洲區"
"247006","002-UY","2019/07/15 19:59:19","新北市蘆洲區九芎街107號","121.465753333333","25.0798366666667","6501400","蘆洲區"
"226004","312-R5","2019/07/15 19:59:12","新北市平溪區十分里十分街129號","121.776913333333","25.0431516666667","6502400","平溪區"
"228003","097-TW","2019/07/15 19:59:25","新北市貢寮區仁理村仁和路224號","121.923901666667","25.0535416666667","6502600","貢寮區"
"227001","642-TC","2019/07/15 19:59:09","新北市雙溪區新基里新基南街25號","121.866253333333","25.0381516666667","6502500","雙溪區"
"227002","400-TW","2019/07/15 19:59:09","新北市雙溪區雙溪里太平路81號","121.865405","25.0362583333333","6502500","雙溪區"
"222001","KEA-2212","2019/07/15 19:59:20","新北市深坑區北深路三段164號","121.602278333333","25.0033716666667","6501800","深坑區"
"208002","KEA-2872","2019/07/15 19:59:18","新北市金山區龜子山路36號","121.639313333333","25.2172416666667","6502700","金山區"
"208003","665-BX","2019/07/15 19:59:20","新北市金山區香園5號","121.634358333333","25.246705","6502700","金山區"
"251004","009-UM","2019/07/15 19:59:06","新北市淡水區民權路177巷11號","121.460733333333","25.1352283333333","6501000","淡水區"
"251005","010-UM","2019/07/15 19:59:09","新北市淡水區學府路136巷6號","121.450721666667","25.1729733333333","6501000","淡水區"
"251001","011-UM","2019/07/15 19:59:23","新北市淡水區北新路一段69-5號","121.452848333333","25.1809633333333","6501000","淡水區"
"251015","KEA-2871","2019/07/15 19:59:16","新北市淡水區北新路三段171號","121.49139","25.19123","6501000","淡水區"
"251016","179-VK","2019/07/15 19:59:22","新北市淡水區番子田16-13號","121.453771666667","25.231615","6501000","淡水區"
"251008","181-VK","2019/07/15 19:59:23","新北市淡水區淡海路63巷10-1號","121.422548333333","25.1807166666667","6501000","淡水區"
"251013","182-VK","2019/07/15 19:59:10","新北市淡水區下圭柔山63-7號","121.451878333333","25.2061566666667","6501000","淡水區"
"251012","441-VK","2019/07/15 19:59:09","新北市淡水區下圭柔山100-2號","121.441218333333","25.2114016666667","6501000","淡水區"
"251006","561-UM","2019/07/15 19:59:07","新北市淡水區水碓街18號","121.443885","25.177235","6501000","淡水區"
"251009","575-R6","2019/07/15 19:59:21","新北市淡水區英專路21巷13號","121.445003333333","25.1696733333333","6501000","淡水區"
"251014","577-R6","2019/07/15 19:59:19","新北市淡水區石頭厝1-16號","121.457353333333","25.2360983333333","6501000","淡水區"
"251011","650-BX","2019/07/15 19:59:16","新北市淡水區淡金路二段270-1號","121.447056666667","25.1889266666667","6501000","淡水區"
"251002","672-BX","2019/07/15 19:59:12","新北市淡水區新市一路一段6號","121.429058333333","25.1873833333333","6501000","淡水區"
"207003","550-UM","2019/07/15 19:59:16","新北市萬里區大鵬里萬里加投61-1號","121.642315","25.2123816666667","6502800","萬里區"
"207004","225-TW","2019/07/15 19:59:10","新北市萬里區北基里忠一街1號","121.686795","25.1763216666667","6502800","萬里區"
"252002","178-VK","2019/07/15 19:59:19","新北市三芝區三民街39巷5號","121.505448333333","25.257625","6502100","三芝區"
"208001","170-UY","2019/07/15 19:59:15","新北市金山區南勢湖39號","121.611796666667","25.2177916666667","6502700","金山區"
"237004","KEA-2597","2019/07/15 19:59:07","新北市三峽區添福15-32號","121.372578333333","24.904755","6500900","三峽區"
"237009","210-TH","2019/07/15 19:59:21","新北市三峽區民族街78巷8號","121.368621666667","24.9294916666667","6500900","三峽區"
"237012","275-BY","2019/07/15 19:59:05","新北市三峽區愛國路34巷1號","121.374496666667","24.9327233333333","6500900","三峽區"
"237008","302-VK","2019/07/15 19:59:10","新北市三峽區中正路一段174巷4弄15號","121.372551666667","24.9290633333333","6500900","三峽區"
"237014","433-BY","2019/07/15 19:59:21","新北市三峽區添福141-13號","121.37445","24.9009733333333","6500900","三峽區"
"237006","5529-G3","2019/07/15 19:59:23","新北市三峽區中正路二段168號","121.366043333333","24.9157566666667","6500900","三峽區"
"237011","KEA-2596","2019/07/15 19:59:22","新北市三峽區介壽路一段225號","121.378996666667","24.9304233333333","6500900","三峽區"
"237015","649-BX","2019/07/15 19:59:23","新北市三峽區介壽路二段138巷6號","121.394943333333","24.9353083333333","6500900","三峽區"
"237005","AKY-6261","2019/07/15 19:59:12","新北市三峽區民生街1巷5-96號","121.379635","24.93544","6500900","三峽區"
"236042","KED-0685","2019/07/15 19:59:14","新北市土城區學府路一段148號","121.45472","24.9870383333333","6501300","土城區"
"236078","166-UM","2019/07/15 19:59:19","新北市土城區福安街98號","121.417641666667","24.9640433333333","6501300","土城區"
"236030","253-BX","2019/07/15 19:59:12","新北市土城區中央路一段250巷15號","121.443596666667","24.98491","6501300","土城區"
"236026","269-VK","2019/07/15 19:59:21","新北市土城區員林街61巷2弄7號","121.444438333333","24.97771","6501300","土城區"
"236039","271-VK","2019/07/15 19:59:23","新北市土城區國際路70號","121.466528333333","24.9781416666667","6501300","土城區"
"247010","KED-0683","2019/07/15 19:59:08","新北市三重區集賢路188號","121.483948333333","25.0880183333333","6501400","蘆洲區"
"236069","KEA-2877","2019/07/15 19:59:07","新北市土城區忠義路77-1號","121.442668333333","24.9654616666667","6501300","土城區"
"252001","KED-0821","2019/07/15 19:59:11","新北市三芝區公正街66號","121.49978","25.2574366666667","6502100","三芝區"
"236020","401-BY","2019/07/15 19:59:26","新北市土城區延吉街60號","121.471443333333","24.9867683333333","6501300","土城區"
"236059","752-BX","2019/07/15 19:59:12","新北市土城區中央路一段269-6號","121.444821666667","24.9849516666667","6501300","土城區"
"236063","912-UM","2019/07/15 19:59:23","新北市土城區延平街11號","121.468265","24.9908616666667","6501300","土城區"
"236048","913-UM","2019/07/15 19:59:11","新北市土城區金城路三段262號","121.474338333333","24.9907816666667","6501300","土城區"
"236055","AAC-216","2019/07/15 19:59:16","新北市土城區學府路一段25號","121.458441666667","24.988395","6501300","土城區"
"242060","986-R7","2019/07/15 19:59:20","新北市新莊區瓊泰路28號","121.44429","25.0286583333333","6500500","新莊區"
"242002","751-BX","2019/07/15 19:59:23","新北市新莊區中正路225號","121.450645","25.0357","6500500","新莊區"
"242029","615-BX","2019/07/15 19:59:08","新北市新莊區中平路371號","121.444585","25.0522633333333","6500500","新莊區"
"242058","612-BX","2019/07/15 19:59:26","新北市新莊區八德街99號","121.42433","25.0212933333333","6500500","新莊區"
"242050","497-BY","2019/07/15 19:59:20","新北市新莊區西盛街139號","121.428326666667","25.0184616666667","6500500","新莊區"
"242056","441-UM","2019/07/15 19:59:23","新北市新莊區新豐街20巷12號","121.448081666667","25.034555","6500500","新莊區"
"242004","440-UM","2019/07/15 19:59:22","新北市新莊區化成路348號","121.465765","25.0490466666667","6500500","新莊區"
"242048","400-BY","2019/07/15 19:59:22","新北市新莊區民安路201號","121.426313333333","25.02245","6500500","新莊區"
"242025","362-BY","2019/07/15 19:59:16","新北市新莊區五工二路86巷12-1號","121.45995","25.06673","6500500","新莊區"
"242023","353-BY","2019/07/15 19:59:26","新北市新莊區化成路384號","121.465913333333","25.0501816666667","6500500","新莊區"
"242013","132-UY","2019/07/15 19:59:14","新北市新莊區中誠街53巷16號","121.451415","25.0475583333333","6500500","新莊區"
"242036","135-UY","2019/07/15 19:59:17","新北市新莊區建安街26巷2號","121.428865","25.0258916666667","6500500","新莊區"
"242053","172-VK","2019/07/15 19:59:14","新北市新莊區民安西路334號","121.42684","25.01157","6500500","新莊區"
"242015","173-VK","2019/07/15 19:59:09","新北市新莊區復興路一段47巷9號","121.446815","25.0426416666667","6500500","新莊區"
"242021","175-VK","2019/07/15 19:59:07","新北市新莊區建中街32巷22號","121.448636666667","25.0385716666667","6500500","新莊區"
"242039","176-VK","2019/07/15 19:59:25","新北市新莊區民安路287-3號","121.42885","25.0230216666667","6500500","新莊區"
"242019","KED-0687","2019/07/15 19:59:21","新北市新莊區中港路206巷3號","121.455015","25.0425866666667","6500500","新莊區"
"242011","346-TH","2019/07/15 19:59:16","新北市新莊區中港路531巷118號","121.45002","25.0517183333333","6500500","新莊區"
"242034","348-TH","2019/07/15 19:59:20","新北市新莊區建中街83號","121.447225","25.0366783333333","6500500","新莊區"
"242007","349-TH","2019/07/15 19:59:21","新北市新莊區思源路720號","121.459798333333","25.0589833333333","6500500","新莊區"
"242031","350-TH","2019/07/15 19:59:16","新北市新莊區公園一路37號","121.44329","25.035545","6500500","新莊區"
"242017","351-TH","2019/07/15 19:59:08","新北市新莊區中安街1號","121.452791666667","25.0453016666667","6500500","新莊區"
"238021","KEA-2539","2019/07/15 19:59:24","新北市樹林區佳園路三段93號","121.387561666667","24.9524033333333","6500700","樹林區"
"238017","283-BY","2019/07/15 19:59:15","新北市樹林區保安街二段45巷13弄6號","121.415303333333","24.9997816666667","6500700","樹林區"
"239006","891-R6","2019/07/15 19:59:15","新北市鶯歌區文化路124號","121.351806666667","24.95193","6500800","鶯歌區"
"239002","359-BY","2019/07/15 19:59:12","新北市鶯歌區大湖路18號","121.342885","24.96099","6500800","鶯歌區"
"221008","489-VK","2019/07/15 19:59:28","新北市汐止區康寧街141巷5號","121.621346666667","25.0673083333333","6501100","汐止區"
"221015","131-UY","2019/07/15 19:59:14","新北市汐止區橋東街19號","121.666546666667","25.075605","6501100","汐止區"
"221010","269-BY","2019/07/15 19:59:21","新北市汐止區康寧街885巷3號","121.65013","25.0765533333333","6501100","汐止區"
"221012","278-VK","2019/07/15 19:59:13","新北市汐止區保長路273巷1號","121.681105","25.0740266666667","6501100","汐止區"
"221023","279-VK","2019/07/15 19:59:08","新北市汐止區民族三街42號","121.62962","25.0700966666667","6501100","汐止區"
"221027","281-BY","2019/07/15 19:59:07","新北市汐止區中正路81號","121.66135","25.0694533333333","6501100","汐止區"
"221033","297-VK","2019/07/15 19:59:20","新北市汐止區東勢街190巷3號","121.633915","25.0416566666667","6501100","汐止區"
"221029","298-VK","2019/07/15 19:59:25","新北市汐止區樟樹一路137巷24號","121.641098333333","25.0659883333333","6501100","汐止區"
"221021","299-VK","2019/07/15 19:59:14","新北市汐止區水源路一段158號","121.655513333333","25.0622533333333","6501100","汐止區"
"221031","353-TW","2019/07/15 19:59:20","新北市汐止區福德一路176巷7弄7號","121.63477","25.0663833333333","6501100","汐止區"
"221025","623-UM","2019/07/15 19:59:05","新北市汐止區新台五路二段70巷25號","121.661866666667","25.0648","6501100","汐止區"
"221038","646-BX","2019/07/15 19:59:20","新北市汐止區忠孝東路468號","121.666156666667","25.0731766666667","6501100","汐止區"
"220079","145-BY","2019/07/15 19:59:01","新北市板橋區民權路328-4號","121.456683333333","25.0165116666667","6500100","板橋區"
"220080","200-UY","2019/07/15 19:59:09","新北市板橋區大觀路二段79巷2弄16號","121.447456666667","25.0015983333333","6500100","板橋區"
"220082","610-BX","2019/07/15 19:59:23","新北市板橋區存德街3號","121.429925","24.9919566666667","6500100","板橋區"
"220101","245-BX","2019/07/15 19:59:21","新北市板橋區莒光路165巷32-2號","121.474256666667","25.0248116666667","6500100","板橋區"
"224002","257-TC","2019/07/15 19:59:18","新北市瑞芳區三爪子坑路303-2號","121.818078333333","25.1059816666667","6501200","瑞芳區"
"220056","276-BY","2019/07/15 19:59:07","新北市板橋區四川路二段99巷2弄1號","121.45281","24.9942566666667","6500100","板橋區"
"220072","277-BY","2019/07/15 19:59:17","新北市板橋區篤行路二段1巷7-3號","121.432261666667","24.9928733333333","6500100","板橋區"
"220094","283-UM","2019/07/15 19:59:16","新北市板橋區文化路一段379號","121.467016666667","25.0215966666667","6500100","板橋區"
"220071","283-VK","2019/07/15 19:59:17","新北市板橋區廣權路107號","121.464705","24.9929516666667","6500100","板橋區"
"220053","285-VK","2019/07/15 19:59:26","新北市板橋區永豐街90號","121.475581666667","25.0203083333333","6500100","板橋區"
"220083","286-VK","2019/07/15 19:59:16","新北市板橋區僑中二街10巷35號","121.445516666667","25.01107","6500100","板橋區"
"220081","287-VK","2019/07/15 19:59:22","新北市板橋區大觀路一段29巷11號","121.450135","25.0080883333333","6500100","板橋區"
"220061","295-UM","2019/07/15 19:59:22","新北市板橋區觀光街57巷15弄1號","121.470275","25.0161066666667","6500100","板橋區"
"220084","296-UM","2019/07/15 19:59:26","新北市板橋區溪崑二街96巷16號","121.426415","24.98942","6500100","板橋區"
"242044","281-VK","2019/07/15 19:59:10","新北市新莊區中正路746巷29號","121.410616666667","25.0244783333333","6500500","新莊區"
"220075","303-R5","2019/07/15 19:59:19","新北市板橋區金華街10巷14號","121.456085","25.0200533333333","6500100","板橋區"
"220062","305-R5","2019/07/15 19:59:15","新北市板橋區光復街35號","121.481611666667","25.0189166666667","6500100","板橋區"
"220092","307-R5","2019/07/15 19:59:15","新北市板橋區文化路一段45巷1弄1-1號","121.460356666667","25.0137666666667","6500100","板橋區"
"220098","317-R6","2019/07/15 19:59:24","新北市板橋區新海路385巷24號","121.45788","25.0256283333333","6500100","板橋區"
"220089","487-VK","2019/07/15 19:59:13","新北市板橋區四維路319號","121.462891666667","25.0290316666667","6500100","板橋區"
"220088","491-VK","2019/07/15 19:59:21","新北市板橋區民治街65號","121.47964","25.0329816666667","6500100","板橋區"
"220035","560-BX","2019/07/15 19:59:10","新北市板橋區金華街85巷42號","121.459186666667","25.02146","6500100","板橋區"
"220103","561-BX","2019/07/15 19:59:26","新北市板橋區漢生東路33巷25號","121.465888333333","25.017555","6500100","板橋區"
"220063","609-BX","2019/07/15 19:59:18","新北市板橋區中山路二段121號","121.474853333333","25.0162816666667","6500100","板橋區"
"220074","630-UY","2019/07/15 19:59:14","新北市板橋區府中路23號","121.459246666667","25.009295","6500100","板橋區"
"220091","637-BX","2019/07/15 19:59:21","新北市板橋區文聖街101巷12號","121.478265","25.0296216666667","6500100","板橋區"
"220057","686-BX","2019/07/15 19:59:24","新北市板橋區四川路二段120號","121.450356666667","24.9938633333333","6500100","板橋區"
"220077","687-BX","2019/07/15 19:59:24","新北市板橋區大觀路二段20巷6弄8號","121.446331666667","25.0042083333333","6500100","板橋區"
"220093","689-BX","2019/07/15 19:59:18","新北市板橋區長江路一段158號","121.461201666667","25.03036","6500100","板橋區"
"220054","741-BX","2019/07/15 19:59:24","新北市板橋區忠孝路忠義巷15弄63號","121.465416666667","25.0050216666667","6500100","板橋區"
"220102","KEA-2699","2019/07/15 19:59:13","新北市板橋區莒光路15巷18-1號","121.470358333333","25.025625","6500100","板橋區"
"220055","827-TW","2019/07/15 19:59:09","新北市板橋區仁愛路62巷17弄1號","121.460103333333","24.9981783333333","6500100","板橋區"
"220067","829-TW","2019/07/15 19:59:23","新北市板橋區漢生東路193巷69弄2號","121.472371666667","25.01208","6500100","板橋區"
"220073","985-R7","2019/07/15 19:59:22","新北市板橋區南雅西路二段218號","121.452095","25.015295","6500100","板橋區"
"220097","AAC-210","2019/07/15 19:59:22","新北市板橋區光正街9巷2弄2號","121.462811666667","25.0169183333333","6500100","板橋區"
"220064","AAC-253","2019/07/15 19:59:13","新北市板橋區民族路77號","121.465578333333","25.0085366666667","6500100","板橋區"
"235068","KEA-2873","2019/07/15 19:58:59","新北市中和區中山路二段250巷24號","121.497283333333","25.0032466666667","6500300","中和區"
