"lineid","car","time","location","longitude","latitude","cityid","cityname"
"234046","148-BY","2019/07/15 20:19:26","新北市永和區得和路328號","121.523343333333","24.999555","6500400","永和區"
"234081","298-R6","2019/07/15 20:19:06","新北市永和區福和路7巷10弄7號","121.524821666667","25.007525","6500400","永和區"
"234038","336-UY","2019/07/15 20:19:18","新北市永和區成功路一段93巷23弄1號","121.528668333333","25.0028233333333","6500400","永和區"
"234064","337-UY","2019/07/15 20:19:06","新北市永和區得和路124號","121.518813333333","25.000215","6500400","永和區"
"234086","338-UY","2019/07/15 20:19:24","新北市永和區福和路167號","121.520105","25.00768","6500400","永和區"
"234070","552-UM","2019/07/15 20:19:28","新北市永和區永安街7巷5號","121.518526666667","25.00616","6500400","永和區"
"234042","553-UM","2019/07/15 20:19:23","新北市永和區雙和街16巷21號","121.509815","25.0028083333333","6500400","永和區"
"234017","745-BX","2019/07/15 20:19:10","新北市永和區仁愛路13號","121.514691666667","25.01345","6500400","永和區"
"234030","746-BX","2019/07/15 20:19:22","新北市永和區民權路49巷23號","121.521231666667","24.9974183333333","6500400","永和區"
"234054","KEA-2590","2019/07/15 20:18:56","新北市永和區光復街2巷18號","121.517138333333","25.0165483333333","6500400","永和區"
"234013","KEA-2591","2019/07/15 20:19:23","新北市永和區保生路54號","121.505451666667","25.0086166666667","6500400","永和區"
"234061","AAD-866","2019/07/15 20:19:05","新北市永和區安樂路96號","121.514428333333","24.999155","6500400","永和區"
"234050","863-TW","2019/07/15 20:19:15","新北市永和區保安路11號","121.510506666667","25.0168883333333","6500400","永和區"
"249005","172-UM","2019/07/15 20:19:22","新北市八里區下罟子2-1號","121.38848","25.1416966666667","6502300","八里區"
"249001","173-UM","2019/07/15 20:19:22","新北市八里區中華路二段466號","121.400921666667","25.146105","6502300","八里區"
"249004","303-UY","2019/07/15 20:19:05","新北市八里區中山路一段336號","121.412636666667","25.1589883333333","6502300","八里區"
"249002","305-UY","2019/07/15 20:19:13","新北市八里區龍米路一段76號","121.455616666667","25.1214583333333","6502300","八里區"
"249003","593-UM","2019/07/15 20:19:19","新北市八里區訊塘路27號","121.397728333333","25.14545","6502300","八里區"
"248012","247-BX","2019/07/15 20:19:18","新北市五股區民義路一段69號","121.435643333333","25.0850716666667","6501500","五股區"
"248016","261-SL","2019/07/15 20:19:09","新北市五股區凌雲路一段158巷39弄16號","121.44641","25.1041116666667","6501500","五股區"
"248002","678-BX","2019/07/15 20:19:10","新北市五股區成泰路三段173號","121.445311666667","25.091935","6501500","五股區"
"234023","9380-KE","2019/07/15 20:19:13","新北市永和區勵行街46號","121.516795","25.0134716666667","6500400","永和區"
"234077","969-R7","2019/07/15 20:19:09","新北市永和區民享街22號","121.515483333333","24.9950133333333","6500400","永和區"
"234074","AAC-211","2019/07/15 20:19:26","新北市永和區豫溪街160巷4號","121.523256666667","25.0094766666667","6500400","永和區"
"234067","AAC-212","2019/07/15 20:19:17","新北市永和區保平路268巷9號","121.50842","25.0053483333333","6500400","永和區"
"234003","AAC-295","2019/07/15 20:19:25","新北市永和區大新街39號","121.515386666667","25.008435","6500400","永和區"
"243012","AAD-798","2019/07/15 20:19:14","新北市泰山區楓江路144巷2號","121.44067","25.0655283333333","6501600","泰山區"
"243010","297-R6","2019/07/15 20:19:16","新北市泰山區明志路二段246巷4號","121.426463333333","25.0483533333333","6501600","泰山區"
"243014","KEA-2801","2019/07/15 20:19:22","新北市泰山區泰林路二段262號","121.431648333333","25.0623083333333","6501600","泰山區"
"243016","421-VK","2019/07/15 20:19:28","新北市泰山區明志路二段385號","121.424981666667","25.0437116666667","6501600","泰山區"
"243009","KEA-2215","2019/07/15 20:19:27","新北市泰山區福泰街22號","121.433251666667","25.05998","6501600","泰山區"
"243011","KEA-2216","2019/07/15 20:19:18","新北市新莊區壽山路160巷21號","121.417493333333","25.0319016666667","6501600","泰山區"
"243013","646-TV","2019/07/15 20:19:26","新北市泰山區民國街46號","121.425865","25.043555","6501600","泰山區"
"243015","680-BX","2019/07/15 20:19:16","新北市泰山區明志路一段286號","121.431915","25.0599483333333","6501600","泰山區"
"222002","016-RS","2019/07/15 20:19:25","新北市深坑區萬福路75巷34號","121.598721666667","25.0097183333333","6501800","深坑區"
"222003","436-BY","2019/07/15 20:19:16","新北市深坑區文化街43號","121.61761","25.0019066666667","6501800","深坑區"
"231061","002-UM","2019/07/15 20:19:17","新北市新店區安興路33-1號","121.515831666667","24.9704366666667","6500600","新店區"
"231058","0293-UT","2019/07/15 20:19:25","新北市新店區薏仁坑路自強巷6號","121.4965","24.9584233333333","6500600","新店區"
"231044","046-UY","2019/07/15 20:19:16","新北市新店區北新路三段156號","121.54143","24.98263","6500600","新店區"
"231060","106-UY","2019/07/15 20:19:20","新北市新店區安康路三段578-1號","121.481083333333","24.948675","6500600","新店區"
"231051","107-UY","2019/07/15 20:19:09","新北市新店區中央六街72號","121.527258333333","24.9762083333333","6500600","新店區"
"231049","108-UY","2019/07/15 20:19:24","新北市新店區北新路二段29巷1弄2號","121.542415","24.9725866666667","6500600","新店區"
"231065","110-UY","2019/07/15 20:19:27","新北市新店區安祥路104-10號","121.479138333333","24.96202","6500600","新店區"
"231068","187-VK","2019/07/15 20:19:12","新北市新店區寶安街30號","121.54206","24.9823433333333","6500600","新店區"
"231050","KEA-2219","2019/07/15 20:19:26","新北市新店區博愛街8巷2號","121.54121","24.9734433333333","6500600","新店區"
"221035","KEA-2785","2019/07/15 20:19:05","新北市汐止區長江街57巷21弄1號","121.6559","25.0723333333333","6501100","汐止區"
"231062","256-BX","2019/07/15 20:19:27","新北市新店區安泰路7巷16號","121.485698333333","24.9509266666667","6500600","新店區"
"231054","260-TV","2019/07/15 20:19:13","新北市新店區檳榔路123號","121.544695","24.9615216666667","6500600","新店區"
"231042","268-BY","2019/07/15 20:19:17","新北市新店區寶橋路78巷13號","121.547378333333","24.9748716666667","6500600","新店區"
"231064","278-BY","2019/07/15 20:19:25","新北市新店區安業街33號","121.51795","24.9768816666667","6500600","新店區"
"231045","355-BY","2019/07/15 20:19:11","新北市新店區北宜路一段154號","121.540371666667","24.9536483333333","6500600","新店區"
"231055","4716-K9","2019/07/15 20:19:07","新北市新店區北新路一段297巷35號","121.540328333333","24.96839","6500600","新店區"
"231056","4715-K9","2019/07/15 20:19:19","新北市新店區中正路302巷2號","121.537713333333","24.9748233333333","6500600","新店區"
"231067","4772-VM","2019/07/15 20:19:26","新北市新店區安康路一段32號","121.531621666667","24.9610133333333","6500600","新店區"
"231052","513-UM","2019/07/15 20:19:08","新北市新店區新烏路二段331號","121.550211666667","24.91061","6500600","新店區"
"231041","619-UM","2019/07/15 20:19:11","新北市新店區民權路66號","121.538381666667","24.9830116666667","6500600","新店區"
"231063","641-BX","2019/07/15 20:19:14","新北市新店區車子路1-1號","121.504723333333","24.95779","6500600","新店區"
"231047","KED-0819","2019/07/15 20:19:13","新北市新店區永華街12號","121.543678333333","24.976335","6500600","新店區"
"231057","720-UM","2019/07/15 20:19:15","新北市新店區花園五路一段42號","121.552938333333","24.9341383333333","6500600","新店區"
"231059","897-TW","2019/07/15 20:19:13","新北市新店區安德街58-1號","121.510865","24.9622033333333","6500600","新店區"
"231040","898-TW","2019/07/15 20:19:24","新北市新店區中正路110號","121.543028333333","24.9706233333333","6500600","新店區"
"231043","899-TW","2019/07/15 20:19:16","新北市新店區民族路100號","121.539215","24.9781383333333","6500600","新店區"
"231066","AKT-0513","2019/07/15 20:19:27","新北市新店區柴埕路29號","121.51394","24.9657866666667","6500600","新店區"
"241011","013-R5","2019/07/15 20:19:11","新北市三重區龍濱路186號","121.501276666667","25.0730816666667","6500200","三重區"
"241028","022-UY","2019/07/15 20:19:21","新北市三重區同安東街14號","121.497175","25.0570983333333","6500200","三重區"
"241008","059-VK","2019/07/15 20:19:15","新北市三重區永福街211巷2弄2號","121.479898333333","25.074195","6500200","三重區"
"241029","060-VK","2019/07/15 20:19:06","新北市三重區集美街225號","121.492015","25.0551333333333","6500200","三重區"
"241031","061-VK","2019/07/15 20:19:23","新北市三重區三寧街15號","121.489381666667","25.059765","6500200","三重區"
"241015","062-VK","2019/07/15 20:19:13","新北市三重區重新路一段84號","121.501731666667","25.0634783333333","6500200","三重區"
"241017","063-VK","2019/07/15 20:19:13","新北市三重區自強路一段153號","121.493783333333","25.0668883333333","6500200","三重區"
"241024","065-VK","2019/07/15 20:19:08","新北市三重區中正北路274號","121.48084","25.0684833333333","6500200","三重區"
"241023","066-VK","2019/07/15 20:19:22","新北市三重區忠孝路三段84巷5號","121.480241666667","25.0644183333333","6500200","三重區"
"241002","090-VK","2019/07/15 20:19:07","新北市三重區仁義街101巷42號","121.499175","25.08071","6500200","三重區"
"241003","091-VK","2019/07/15 20:19:26","新北市三重區仁愛街476號","121.489626666667","25.0824233333333","6500200","三重區"
"241030","742-BX","2019/07/15 20:19:10","新北市三重區集成路32巷3號","121.488485","25.0528783333333","6500200","三重區"
"241016","266-UM","2019/07/15 20:19:27","新北市三重區大同北路56號","121.4943","25.0637416666667","6500200","三重區"
"241009","267-UM","2019/07/15 20:19:23","新北市三重區三和路四段382巷33號","121.481565","25.07856","6500200","三重區"
"241018","268-UM","2019/07/15 20:19:16","新北市三重區雙園街100-1號","121.4949","25.067545","6500200","三重區"
"241032","269-UM","2019/07/15 20:19:22","新北市三重區捷運路37巷20號","121.484186666667","25.05701","6500200","三重區"
"241013","270-UM","2019/07/15 20:19:26","新北市三重區三和路三段167巷5號","121.492156666667","25.0740766666667","6500200","三重區"
"241025","271-UM","2019/07/15 20:19:24","新北市三重區頂崁街210巷23弄1號","121.47595","25.06805","6500200","三重區"
"241007","398-BY","2019/07/15 20:19:16","新北市三重區三和路四段117巷27號","121.486478333333","25.07774","6500200","三重區"
"241035","462-BY","2019/07/15 20:19:12","新北市三重區正義北路33巷43號","121.498773333333","25.06383","6500200","三重區"
"241004","475-VK","2019/07/15 20:19:17","新北市三重區自強路四段98號","121.49105","25.0797366666667","6500200","三重區"
"241020","478-VK","2019/07/15 20:19:17","新北市三重區三和路三段170巷14號","121.492235","25.07296","6500200","三重區"
"241026","480-VK","2019/07/15 20:19:18","新北市三重區中央南路85號","121.501478333333","25.060825","6500200","三重區"
"241014","543-UM","2019/07/15 20:19:09","新北市三重區長樂街135巷4號","121.503651666667","25.0698866666667","6500200","三重區"
"241001","547-UM","2019/07/15 20:19:24","新北市三重區自強路四段3巷33號","121.490071666667","25.0763133333333","6500200","三重區"
"241019","KEA-2593","2019/07/15 20:19:10","新北市三重區忠孝路一段75號","121.490451666667","25.0720683333333","6500200","三重區"
"241006","AAD-863","2019/07/15 20:19:17","新北市三重區車路頭街135-1號","121.484258333333","25.0761616666667","6500200","三重區"
"241022","KED-0820","2019/07/15 20:19:12","新北市三重區新北大道一段32號","121.488241666667","25.0614533333333","6500200","三重區"
"241005","887-TS","2019/07/15 20:19:18","新北市三重區溪尾街332號","121.488211666667","25.0849666666667","6500200","三重區"
"241012","941-UM","2019/07/15 20:19:23","新北市三重區河邊北街379-1號","121.501716666667","25.0764516666667","6500200","三重區"
"241033","AAC-255","2019/07/15 20:19:17","新北市三重區五谷王北街77號","121.47574","25.050215","6500200","三重區"
"235066","003-UY","2019/07/15 20:19:15","新北市中和區光華街59-1號","121.50637","25.003405","6500300","中和區"
"235039","097-UM","2019/07/15 20:19:18","新北市中和區大勇街27巷8號","121.517111666667","24.9939216666667","6500300","中和區"
"235065","098-UM","2019/07/15 20:19:20","新北市中和區永和路78號","121.497636666667","25.0051233333333","6500300","中和區"
"235055","183-VK","2019/07/15 20:19:27","新北市五股區凌雲路三段17-2號","121.429988333333","25.1084566666667","6500300","中和區"
"247014","KEA-2869","2019/07/15 20:19:16","新北市蘆洲區中山二路141號","121.471756666667","25.0815316666667","6501400","蘆洲區"
"247008","KED-0682","2019/07/15 20:19:23","新北市蘆洲區集賢路300號","121.481605","25.0850083333333","6501400","蘆洲區"
"235050","4979-A6","2019/07/15 20:19:14","新北市中和區景平路398-2號","121.509556666667","24.99309","6500300","中和區"
"235069","4980-A6","2019/07/15 20:19:20","新北市中和區景平路479號","121.500223333333","24.9972683333333","6500300","中和區"
"235041","802-TS","2019/07/15 20:18:35","新北市五股區中直路13-7號","121.42396","25.1107833333333","6500300","中和區"
"235059","AAC-215","2019/07/15 20:19:11","新北市中和區圓通路435-6號","121.485758333333","24.98713","6500300","中和區"
"247004","893-R6","2019/07/15 20:19:27","新北市蘆洲區長安街297號","121.458081666667","25.0848383333333","6501400","蘆洲區"
"247024","337-TH","2019/07/15 20:19:07","新北市蘆洲區光榮路120巷22弄16-1號","121.46487","25.087785","6501400","蘆洲區"
"247002","336-TH","2019/07/15 20:19:20","新北市蘆洲區長安街313巷14號","121.456446666667","25.0865316666667","6501400","蘆洲區"
"247022","057-VK","2019/07/15 20:19:24","新北市蘆洲區三民路241號","121.46906","25.0888283333333","6501400","蘆洲區"
"247012","056-VK","2019/07/15 20:19:20","新北市蘆洲區中興街23號","121.480831666667","25.0869866666667","6501400","蘆洲區"
"247016","053-VK","2019/07/15 20:19:10","新北市蘆洲區光華路132巷39號","121.465846666667","25.0838","6501400","蘆洲區"
"247006","002-UY","2019/07/15 20:19:19","新北市蘆洲區九芎街153巷5號","121.46533","25.078965","6501400","蘆洲區"
"222001","KEA-2212","2019/07/15 20:19:21","新北市深坑區北深路三段263號","121.598836666667","25.0044383333333","6501800","深坑區"
"251001","011-UM","2019/07/15 20:19:23","新北市淡水區淡金路二段15號","121.446443333333","25.1891283333333","6501000","淡水區"
"251015","KEA-2871","2019/07/15 20:19:16","新北市淡水區商工路30號","121.44726","25.1882433333333","6501000","淡水區"
"251016","179-VK","2019/07/15 20:19:22","新北市淡水區淡金路五段14-8號","121.45343","25.2322816666667","6501000","淡水區"
"251008","181-VK","2019/07/15 20:19:23","新北市淡水區沙崙路133號","121.42279","25.1827033333333","6501000","淡水區"
"251013","182-VK","2019/07/15 20:19:10","新北市淡水區奎柔山路189號","121.45714","25.20533","6501000","淡水區"
"251010","413-VK","2019/07/15 20:19:27","新北市淡水區新民街一段134號","121.427528333333","25.188915","6501000","淡水區"
"251012","441-VK","2019/07/15 20:19:09","新北市淡水區下圭柔山431-1號","121.449828333333","25.2101883333333","6501000","淡水區"
"251007","443-VK","2019/07/15 20:19:10","新北市淡水區中正東路一段111巷25號","121.455305","25.1607516666667","6501000","淡水區"
"251006","561-UM","2019/07/15 20:19:28","新北市淡水區北新路169巷69弄28-1號","121.447745","25.1801283333333","6501000","淡水區"
"251014","577-R6","2019/07/15 20:19:19","新北市淡水區石頭厝2-1號","121.458096666667","25.23577","6501000","淡水區"
"251002","672-BX","2019/07/15 20:19:25","新北市淡水區中正路173號","121.438745","25.1710816666667","6501000","淡水區"
"251003","673-BX","2019/07/15 20:19:08","新北市淡水區中山北路一段229號","121.444525","25.1794883333333","6501000","淡水區"
"207003","550-UM","2019/07/15 20:19:16","新北市萬里區大鵬里頂社8-2號","121.65649","25.20948","6502800","萬里區"
"207004","225-TW","2019/07/15 20:19:11","新北市萬里區北基里仁六街1號","121.681496666667","25.1750116666667","6502800","萬里區"
"252002","178-VK","2019/07/15 20:19:19","新北市三芝區中正路一段47號","121.503313333333","25.25814","6502100","三芝區"
"237006","5529-G3","2019/07/15 20:19:23","新北市三峽區中正路二段41號","121.36673","24.918755","6500900","三峽區"
"237005","AKY-6261","2019/07/15 20:19:12","新北市三峽區三樹路98巷74弄1號","121.384356666667","24.939165","6500900","三峽區"
"236078","166-UM","2019/07/15 20:19:19","新北市土城區德安街4巷1號","121.422141666667","24.964775","6501300","土城區"
"236030","253-BX","2019/07/15 20:19:20","新北市土城區中央路一段45巷2弄26號","121.448176666667","24.9896716666667","6501300","土城區"
"236026","269-VK","2019/07/15 20:19:21","新北市土城區裕生路83巷29弄6號","121.44833","24.983865","6501300","土城區"
"236014","270-VK","2019/07/15 20:19:19","新北市板橋區信義路54巷17弄41號","121.456018333333","24.99476","6501300","土城區"
"247010","KED-0683","2019/07/15 20:19:08","新北市蘆洲區信義路188巷18弄1號","121.480486666667","25.084585","6501400","蘆洲區"
"236069","KEA-2877","2019/07/15 20:19:27","新北市土城區中山路99號","121.433013333333","24.9710466666667","6501300","土城區"
"252001","KED-0821","2019/07/15 20:19:11","新北市三芝區中山路一段31號","121.500635","25.258015","6502100","三芝區"
"236059","752-BX","2019/07/15 20:19:12","新北市土城區中央路三段140號","121.433306666667","24.9655516666667","6501300","土城區"
"236063","912-UM","2019/07/15 20:19:23","新北市土城區延和路246-1號","121.469721666667","24.989855","6501300","土城區"
"242060","986-R7","2019/07/15 20:19:20","新北市新莊區新樹路172-13號","121.434598333333","25.02173","6500500","新莊區"
"242002","751-BX","2019/07/15 20:19:09","新北市新莊區中正路38號","121.464828333333","25.041645","6500500","新莊區"
"242029","615-BX","2019/07/15 20:19:08","新北市新莊區中原路251號","121.44897","25.054275","6500500","新莊區"
"242027","613-BX","2019/07/15 20:19:11","新北市新莊區幸福路699號","121.450061666667","25.0491616666667","6500500","新莊區"
"242058","612-BX","2019/07/15 20:19:26","新北市新莊區龍安路278巷22號","121.421723333333","25.0185316666667","6500500","新莊區"
"242046","566-BX","2019/07/15 20:19:18","新北市新莊區裕民街107號","121.41825","25.0229883333333","6500500","新莊區"
"242050","497-BY","2019/07/15 20:19:20","新北市新莊區民安西路212巷2弄1號","121.425508333333","25.0148766666667","6500500","新莊區"
"242056","441-UM","2019/07/15 20:19:23","新北市新莊區豐年街28巷14號","121.445675","25.0323516666667","6500500","新莊區"
"242004","440-UM","2019/07/15 20:19:22","新北市新莊區頭前路2巷6號","121.468451666667","25.0528716666667","6500500","新莊區"
"242042","415-TV","2019/07/15 20:19:23","新北市新莊區壽山路67號","121.4099","25.0326716666667","6500500","新莊區"
"242048","400-BY","2019/07/15 20:19:22","新北市新莊區萬安街165巷34號","121.421158333333","25.0206333333333","6500500","新莊區"
"242025","362-BY","2019/07/15 20:19:25","新北市新莊區五工路68巷2號","121.458931666667","25.0643416666667","6500500","新莊區"
"242023","353-BY","2019/07/15 20:19:26","新北市新莊區化成路750號","121.465518333333","25.0577633333333","6500500","新莊區"
"242013","132-UY","2019/07/15 20:19:13","新北市新莊區幸福路710巷1弄2號","121.449701666667","25.0496766666667","6500500","新莊區"
"242036","135-UY","2019/07/15 20:19:17","新北市新莊區建安街91號","121.427005","25.024465","6500500","新莊區"
"242053","172-VK","2019/07/15 20:19:13","新北市新莊區民安西路261巷10號","121.426695","25.0130266666667","6500500","新莊區"
"242015","173-VK","2019/07/15 20:19:09","新北市新莊區中和街31巷22號","121.44718","25.0438766666667","6500500","新莊區"
"242021","175-VK","2019/07/15 20:19:28","新北市新莊區和興街45號","121.446628333333","25.0405733333333","6500500","新莊區"
"242039","176-VK","2019/07/15 20:19:06","新北市新莊區成功街75號","121.424638333333","25.01984","6500500","新莊區"
"242019","KED-0687","2019/07/15 20:19:07","新北市新莊區博愛路5巷4號","121.456245","25.0432416666667","6500500","新莊區"
"242011","346-TH","2019/07/15 20:19:17","新北市新莊區中信街23巷1號","121.451065","25.05053","6500500","新莊區"
"242034","348-TH","2019/07/15 20:19:19","新北市新莊區建中街79號","121.447356666667","25.036605","6500500","新莊區"
"242007","349-TH","2019/07/15 20:19:21","新北市新莊區福壽街124巷41弄16號","121.45931","25.0517833333333","6500500","新莊區"
"242031","350-TH","2019/07/15 20:19:16","新北市新莊區三和路17-9號","121.439593333333","25.037395","6500500","新莊區"
"242017","351-TH","2019/07/15 20:19:08","新北市新莊區中港一街69號","121.449961666667","25.0453833333333","6500500","新莊區"
"221008","489-VK","2019/07/15 20:19:08","新北市汐止區忠三街9巷34號","121.624261666667","25.0802183333333","6501100","汐止區"
"221036","130-UY","2019/07/15 20:19:20","新北市汐止區福安街59巷5號","121.664268333333","25.0637916666667","6501100","汐止區"
"221015","131-UY","2019/07/15 20:19:14","新北市汐止區建成路142巷19弄13號","121.661928333333","25.0739","6501100","汐止區"
"221010","269-BY","2019/07/15 20:19:21","新北市汐止區八連路一段207號","121.64114","25.080795","6501100","汐止區"
"221012","278-VK","2019/07/15 20:19:13","新北市汐止區汐平路一段51號","121.682223333333","25.070625","6501100","汐止區"
"221023","279-VK","2019/07/15 20:19:08","新北市汐止區明峰街298巷10弄1號","121.624996666667","25.06886","6501100","汐止區"
"221032","280-BY","2019/07/15 20:19:18","新北市汐止區弘道街53巷2號","121.618625","25.0483766666667","6501100","汐止區"
"221033","297-VK","2019/07/15 20:19:20","新北市汐止區東勢街201巷104號","121.63359","25.042945","6501100","汐止區"
"221029","298-VK","2019/07/15 20:19:05","新北市汐止區樟樹一路99巷7弄4號","121.641116666667","25.06357","6501100","汐止區"
"221021","299-VK","2019/07/15 20:19:14","新北市汐止區水源路一段293號","121.654365","25.0583233333333","6501100","汐止區"
"221031","353-TW","2019/07/15 20:19:27","新北市汐止區原興路72號","121.632335","25.0658766666667","6501100","汐止區"
"221025","623-UM","2019/07/15 20:19:25","新北市汐止區水源路二段32號","121.654838333333","25.0572416666667","6501100","汐止區"
"221038","646-BX","2019/07/15 20:19:20","新北市汐止區忠孝東路478號","121.666371666667","25.0736833333333","6501100","汐止區"
"221002","707-TV","2019/07/15 20:19:18","新北市汐止區福德三路61號","121.637198333333","25.06935","6501100","汐止區"
"221018","753-BX","2019/07/15 20:19:23","新北市汐止區茄安路168號","121.675731666667","25.0690416666667","6501100","汐止區"
"220079","145-BY","2019/07/15 20:19:01","新北市板橋區大仁街60巷3弄9號","121.454228333333","25.0167183333333","6500100","板橋區"
"220101","245-BX","2019/07/15 20:19:21","新北市新莊區五權一路13-3號","121.459628333333","25.0687366666667","6500100","板橋區"
"220083","286-VK","2019/07/15 20:19:16","新北市板橋區僑中二街92巷14號","121.445606666667","25.0090766666667","6500100","板橋區"
"220081","287-VK","2019/07/15 20:19:22","新北市板橋區僑中一街124巷18弄13號","121.446666666667","25.01369","6500100","板橋區"
"220061","295-UM","2019/07/15 20:19:22","新北市板橋區四川路一段286巷26-1號","121.457765","25.0012583333333","6500100","板橋區"
"242044","281-VK","2019/07/15 20:19:20","新北市新莊區中正路893巷40號","121.413716666667","25.02082","6500500","新莊區"
"242009","280-VK","2019/07/15 20:19:23","新北市新莊區昌平街1號","121.454938333333","25.0512683333333","6500500","新莊區"
"220035","560-BX","2019/07/15 20:19:11","新北市板橋區新生街53巷1弄1號","121.457281666667","25.02121","6500100","板橋區"
"220074","630-UY","2019/07/15 20:19:14","新北市板橋區府中路21號","121.45923","25.0095033333333","6500100","板橋區"
"220077","687-BX","2019/07/15 20:19:24","新北市板橋區大觀路一段29巷131弄125號","121.451616666667","25.0056816666667","6500100","板橋區"
"220055","827-TW","2019/07/15 20:19:25","新北市板橋區仁愛路62巷3號","121.459871666667","24.9992133333333","6500100","板橋區"
"235068","KEA-2873","2019/07/15 20:18:59","新北市中和區勝利路35巷1弄34號","121.50029","25.00785","6500300","中和區"
