"lineid","car","time","location","longitude","latitude","cityid","cityname"
"234081","298-R6","2019/07/15 20:39:06","新北市永和區永貞路82號","121.520106666667","25.0050816666667","6500400","永和區"
"234086","338-UY","2019/07/15 20:39:27","新北市永和區光復街11號","121.516363333333","25.0170866666667","6500400","永和區"
"234070","552-UM","2019/07/15 20:39:08","台北市中正區汀州路三段230巷77號","121.533463333333","25.00912","6500400","永和區"
"234042","553-UM","2019/07/15 20:39:23","新北市永和區安樂路348號","121.514541666667","25.00641","6500400","永和區"
"234030","746-BX","2019/07/15 20:39:22","新北市中和區大智街6號","121.520133333333","24.9919166666667","6500400","永和區"
"234061","AAD-866","2019/07/15 20:39:11","新北市永和區秀安街17號","121.516108333333","25.0036233333333","6500400","永和區"
"234050","863-TW","2019/07/15 20:39:15","新北市永和區保安路134號","121.508748333333","25.0152616666667","6500400","永和區"
"249001","173-UM","2019/07/15 20:39:22","新北市八里區中山路三段409號","121.368711666667","25.13582","6502300","八里區"
"249004","303-UY","2019/07/15 20:39:05","新北市八里區中山路一段121號","121.413535","25.15943","6502300","八里區"
"234074","AAC-211","2019/07/15 20:39:06","新北市永和區竹林路119巷18弄1號","121.52112","25.0114166666667","6500400","永和區"
"243009","KEA-2215","2019/07/15 20:39:27","新北市泰山區泰林路二段538號","121.423428333333","25.0640116666667","6501600","泰山區"
"222002","016-RS","2019/07/15 20:39:25","新北市深坑區萬福路47號","121.599556666667","25.006775","6501800","深坑區"
"222003","436-BY","2019/07/15 20:39:16","新北市深坑區阿柔洋25-1號","121.613058333333","24.999085","6501800","深坑區"
"231061","002-UM","2019/07/15 20:39:17","新北市新店區新和街34號","121.519115","24.984735","6500600","新店區"
"231058","0293-UT","2019/07/15 20:39:25","新北市新店區自由街42號","121.534685","24.9740416666667","6500600","新店區"
"231044","046-UY","2019/07/15 20:39:17","新北市新店區建國路293巷1號","121.536658333333","24.986165","6500600","新店區"
"231060","106-UY","2019/07/15 20:39:20","新北市新店區錦秀路55號","121.479095","24.943315","6500600","新店區"
"231051","107-UY","2019/07/15 20:39:09","新北市新店區中央八街96號","121.526506666667","24.9776016666667","6500600","新店區"
"231049","108-UY","2019/07/15 20:39:24","新北市新店區永業路81巷12號","121.531398333333","24.9483016666667","6500600","新店區"
"231065","110-UY","2019/07/15 20:39:27","新北市新店區安祥路102巷113號","121.486485","24.9641783333333","6500600","新店區"
"231068","187-VK","2019/07/15 20:39:12","新北市新店區寶元路一段61號","121.542205","24.985875","6500600","新店區"
"231050","KEA-2219","2019/07/15 20:39:26","新北市新店區中正路263-1號","121.538545","24.97358","6500600","新店區"
"221035","KEA-2785","2019/07/15 20:39:25","新北市汐止區長江街101-5號","121.658643333333","25.0731966666667","6501100","汐止區"
"231062","256-BX","2019/07/15 20:39:27","新北市新店區安泰路60巷55弄131號","121.484601666667","24.9469","6500600","新店區"
"231054","260-TV","2019/07/15 20:39:13","新北市新店區中興路一段197巷2號","121.543216666667","24.9654733333333","6500600","新店區"
"231042","268-BY","2019/07/15 20:39:17","新北市新店區寶高路120巷1號","121.554571666667","24.97607","6500600","新店區"
"231064","278-BY","2019/07/15 20:39:25","新北市新店區安和路三段111巷6弄2號","121.5168","24.984805","6500600","新店區"
"231045","355-BY","2019/07/15 20:39:11","新北市新店區長春路45號","121.550505","24.957615","6500600","新店區"
"231055","4716-K9","2019/07/15 20:39:07","新北市新店區安康路二段320巷15弄2號","121.503711666667","24.959535","6500600","新店區"
"231056","4715-K9","2019/07/15 20:39:19","新北市新店區中央三街85號","121.525813333333","24.97568","6500600","新店區"
"231067","4772-VM","2019/07/15 20:39:07","新北市新店區安華路28-1號","121.519683333333","24.9608116666667","6500600","新店區"
"231052","513-UM","2019/07/15 20:39:08","新北市新店區松林路51號","121.544438333333","24.9113566666667","6500600","新店區"
"231041","619-UM","2019/07/15 20:39:11","新北市新店區中正路539-5號","121.533436666667","24.986445","6500600","新店區"
"231063","641-BX","2019/07/15 20:39:14","新北市新店區玫瑰路4-1號","121.49359","24.9513733333333","6500600","新店區"
"231047","KED-0819","2019/07/15 20:39:13","新北市新店區寶慶街2-1號","121.543911666667","24.9867916666667","6500600","新店區"
"231057","720-UM","2019/07/15 20:39:15","新北市新店區花園二路一段9-6號","121.556151666667","24.9328483333333","6500600","新店區"
"231059","897-TW","2019/07/15 20:39:13","新北市新店區安豐路30-1號","121.500795","24.9566716666667","6500600","新店區"
"231040","898-TW","2019/07/15 20:39:24","新北市新店區中正路265巷6號","121.537876666667","24.9735666666667","6500600","新店區"
"231043","899-TW","2019/07/15 20:39:16","新北市新店區建國路12-1號","121.54014","24.973765","6500600","新店區"
"231066","AKT-0513","2019/07/15 20:39:07","新北市新店區安興路87-1號","121.514895","24.975565","6500600","新店區"
"241011","013-R5","2019/07/15 20:39:11","新北市三重區龍門路132號","121.49818","25.0729233333333","6500200","三重區"
"241028","022-UY","2019/07/15 20:39:21","新北市三重區光興街85號","121.497575","25.0599933333333","6500200","三重區"
"241008","059-VK","2019/07/15 20:39:15","新北市三重區下竹圍街91號","121.481111666667","25.0748416666667","6500200","三重區"
"241029","060-VK","2019/07/15 20:39:06","新北市三重區中正南路263號","121.492885","25.0529483333333","6500200","三重區"
"241031","061-VK","2019/07/15 20:39:23","新北市三重區重陽路一段113巷1弄42號","121.488276666667","25.0588133333333","6500200","三重區"
"241015","062-VK","2019/07/15 20:39:13","新北市三重區長壽街1號","121.498156666667","25.0674983333333","6500200","三重區"
"241017","063-VK","2019/07/15 20:39:13","新北市三重區大同北路228號","121.49074","25.06737","6500200","三重區"
"241024","065-VK","2019/07/15 20:39:08","新北市三重區中正北路276巷14號","121.480746666667","25.06781","6500200","三重區"
"241023","066-VK","2019/07/15 20:39:22","新北市三重區自由街41號","121.478895","25.0669166666667","6500200","三重區"
"241002","090-VK","2019/07/15 20:39:27","新北市三重區仁義街167巷55號","121.498895","25.082525","6500200","三重區"
"241003","091-VK","2019/07/15 20:39:26","新北市三重區富華街191號","121.493966666667","25.0855266666667","6500200","三重區"
"241030","742-BX","2019/07/15 20:39:10","新北市三重區成功路73巷11號","121.489463333333","25.05192","6500200","三重區"
"241016","266-UM","2019/07/15 20:39:27","新北市三重區自強路一段141號","121.494738333333","25.066775","6500200","三重區"
"241009","267-UM","2019/07/15 20:39:22","新北市三重區碧華街59號","121.484811666667","25.081345","6500200","三重區"
"241018","268-UM","2019/07/15 20:39:15","新北市三重區重陽路三段115號","121.490748333333","25.0686783333333","6500200","三重區"
"241032","269-UM","2019/07/15 20:39:22","新北市三重區重陽路一段120巷46號","121.48509","25.0601616666667","6500200","三重區"
"241013","270-UM","2019/07/15 20:39:26","新北市三重區自強路四段28號","121.48892","25.07679","6500200","三重區"
"241025","271-UM","2019/07/15 20:39:23","新北市三重區頂崁街210巷27號","121.475805","25.0681333333333","6500200","三重區"
"241007","398-BY","2019/07/15 20:39:16","新北市三重區三和路四段95號","121.48807","25.075905","6500200","三重區"
"241035","462-BY","2019/07/15 20:39:12","新北市三重區正義北路378號","121.49331","25.0715316666667","6500200","三重區"
"241004","475-VK","2019/07/15 20:39:17","新北市三重區仁愛街488號","121.488761666667","25.0821183333333","6500200","三重區"
"241020","478-VK","2019/07/15 20:39:17","新北市三重區忠孝路一段101號","121.489606666667","25.0720933333333","6500200","三重區"
"241026","480-VK","2019/07/15 20:39:18","新北市三重區和平街1號","121.50007","25.062345","6500200","三重區"
"241014","543-UM","2019/07/15 20:39:09","新北市三重區三和路二段156號","121.499333333333","25.0685916666667","6500200","三重區"
"241001","547-UM","2019/07/15 20:39:24","新北市三重區自強路三段114號","121.486866666667","25.0747366666667","6500200","三重區"
"241019","KEA-2593","2019/07/15 20:39:10","新北市三重區三張街4號","121.492318333333","25.07131","6500200","三重區"
"241006","AAD-863","2019/07/15 20:39:17","新北市三重區車路頭街135-1號","121.484255","25.076175","6500200","三重區"
"241022","KED-0820","2019/07/15 20:39:23","新北市三重區貴陽街14號","121.484105","25.0617016666667","6500200","三重區"
"241005","887-TS","2019/07/15 20:39:18","新北市三重區碧華街274號","121.488886666667","25.082885","6500200","三重區"
"241012","941-UM","2019/07/15 20:39:23","新北市三重區秀江街26號","121.502523333333","25.0730666666667","6500200","三重區"
"241033","AAC-255","2019/07/15 20:39:17","新北市三重區神農街461號","121.474345","25.0577316666667","6500200","三重區"
"235055","183-VK","2019/07/15 20:39:27","新北市八里區中山路三段169號","121.384933333333","25.1414066666667","6500300","中和區"
"247014","KEA-2869","2019/07/15 20:39:25","新北市蘆洲區中山一路182號","121.474045","25.0810033333333","6501400","蘆洲區"
"247008","KED-0682","2019/07/15 20:39:23","新北市蘆洲區重陽街14號","121.480668333333","25.0814866666667","6501400","蘆洲區"
"235069","4980-A6","2019/07/15 20:39:20","新北市中和區連城路347巷7號","121.488405","24.99546","6500300","中和區"
"235041","802-TS","2019/07/15 20:39:15","新北市八里區下罟子1-13號","121.38965","25.1421333333333","6500300","中和區"
"247004","893-R6","2019/07/15 20:39:27","新北市蘆洲區長安街295號","121.458093333333","25.084795","6501400","蘆洲區"
"247024","337-TH","2019/07/15 20:39:07","新北市蘆洲區長樂路53號","121.463036666667","25.0860933333333","6501400","蘆洲區"
"247002","336-TH","2019/07/15 20:39:20","新北市蘆洲區長安街375巷28號","121.456296666667","25.0879566666667","6501400","蘆洲區"
"247022","057-VK","2019/07/15 20:39:24","新北市蘆洲區中正路243巷12號","121.467441666667","25.0865566666667","6501400","蘆洲區"
"247012","056-VK","2019/07/15 20:39:19","新北市蘆洲區集賢路224巷72號","121.480563333333","25.0885283333333","6501400","蘆洲區"
"247016","053-VK","2019/07/15 20:39:10","新北市蘆洲區中山一路280號","121.47127","25.07915","6501400","蘆洲區"
"247020","007-UY","2019/07/15 20:39:28","新北市蘆洲區民族路424-1號","121.473851666667","25.0918583333333","6501400","蘆洲區"
"247006","002-UY","2019/07/15 20:37:19","新北市蘆洲區和平路204號","121.465825","25.0819116666667","6501400","蘆洲區"
"222001","KEA-2212","2019/07/15 20:39:20","新北市深坑區北深路三段232號","121.600763333333","25.0040983333333","6501800","深坑區"
"251001","011-UM","2019/07/15 20:39:23","新北市淡水區水源街二段177巷32弄20號","121.455001666667","25.1781983333333","6501000","淡水區"
"251015","KEA-2871","2019/07/15 20:37:56","新北市淡水區淡金路三段446號","121.450733333333","25.2142916666667","6501000","淡水區"
"251016","179-VK","2019/07/15 20:39:22","新北市淡水區後洲子16-1號","121.449506666667","25.224035","6501000","淡水區"
"251008","181-VK","2019/07/15 20:39:23","新北市淡水區淡海路189巷9號","121.419621666667","25.18418","6501000","淡水區"
"251013","182-VK","2019/07/15 20:39:12","新北市淡水區後坑子6號","121.463708333333","25.2065916666667","6501000","淡水區"
"251010","413-VK","2019/07/15 20:39:07","新北市淡水區沙崙路181巷15號","121.423955","25.1843733333333","6501000","淡水區"
"251012","441-VK","2019/07/15 20:39:09","新北市淡水區興仁路108號","121.451695","25.21812","6501000","淡水區"
"251007","443-VK","2019/07/15 20:39:10","新北市淡水區淡金路164號","121.45908","25.1658866666667","6501000","淡水區"
"251006","561-UM","2019/07/15 20:39:11","新北市淡水區商工路198巷1號","121.451111666667","25.1880233333333","6501000","淡水區"
"251014","577-R6","2019/07/15 20:39:19","新北市淡水區公埔子38號","121.464393333333","25.23275","6501000","淡水區"
"251002","672-BX","2019/07/15 20:39:12","新北市淡水區中正路38-1號","121.443751666667","25.1692383333333","6501000","淡水區"
"251003","673-BX","2019/07/15 20:39:08","新北市淡水區新民街108號","121.438091666667","25.1773183333333","6501000","淡水區"
"252002","178-VK","2019/07/15 20:39:19","新北市三芝區淡金路二段47-1號","121.503683333333","25.260455","6502100","三芝區"
"247010","KED-0683","2019/07/15 20:39:08","新北市蘆洲區集賢路226號","121.48231","25.086565","6501400","蘆洲區"
"252001","KED-0821","2019/07/15 20:39:10","新北市三芝區育英街29-1號","121.501321666667","25.257375","6502100","三芝區"
"242060","986-R7","2019/07/15 20:39:20","新北市新莊區新樹路258巷3號","121.432096666667","25.0155666666667","6500500","新莊區"
"242002","751-BX","2019/07/15 20:39:09","新北市新莊區明中街43巷29號","121.457016666667","25.0384916666667","6500500","新莊區"
"242029","615-BX","2019/07/15 20:39:08","新北市新莊區昌隆街12號","121.453486666667","25.0508733333333","6500500","新莊區"
"242027","613-BX","2019/07/15 20:36:31","新北市新莊區幸福路19號","121.45907","25.0493016666667","6500500","新莊區"
"242058","612-BX","2019/07/15 20:39:05","新北市新莊區四維路127號","121.423015","25.0228333333333","6500500","新莊區"
"242046","566-BX","2019/07/15 20:39:18","新北市新莊區富國路22巷35號","121.418245","25.02553","6500500","新莊區"
"242050","497-BY","2019/07/15 20:39:20","新北市新莊區西盛街260號","121.427985","25.0158333333333","6500500","新莊區"
"242056","441-UM","2019/07/15 20:39:23","新北市新莊區瓊泰路102號","121.443225","25.0297083333333","6500500","新莊區"
"242004","440-UM","2019/07/15 20:39:22","新北市新莊區化成路389巷5號","121.464406666667","25.058205","6500500","新莊區"
"242042","415-TV","2019/07/15 20:39:23","新北市新莊區中正路700-38號","121.41759","25.0277466666667","6500500","新莊區"
"242048","400-BY","2019/07/15 20:39:22","新北市新莊區中正路857號","121.41957","25.027975","6500500","新莊區"
"242025","362-BY","2019/07/15 20:39:16","新北市新莊區五工三路62巷11號","121.459976666667","25.0648866666667","6500500","新莊區"
"242023","353-BY","2019/07/15 20:39:16","新北市新莊區化成路632號","121.466101666667","25.0552016666667","6500500","新莊區"
"242013","132-UY","2019/07/15 20:39:26","新北市新莊區中平路292巷1弄2號","121.445581666667","25.0521483333333","6500500","新莊區"
"242036","135-UY","2019/07/15 20:39:17","新北市新莊區後港一路94巷1弄2號","121.427836666667","25.0264283333333","6500500","新莊區"
"242053","172-VK","2019/07/15 20:39:14","新北市新莊區西盛街323巷14號","121.428598333333","25.0143533333333","6500500","新莊區"
"242015","173-VK","2019/07/15 20:39:09","新北市新莊區中和街32號","121.448248333333","25.0437883333333","6500500","新莊區"
"242021","175-VK","2019/07/15 20:39:27","新北市新莊區中華路一段73號","121.452205","25.0400116666667","6500500","新莊區"
"242039","176-VK","2019/07/15 20:39:25","新北市新莊區民安路459號","121.43463","25.0224916666667","6500500","新莊區"
"242019","KED-0687","2019/07/15 20:39:27","新北市新莊區銘德街50號","121.457185","25.0437033333333","6500500","新莊區"
"242011","346-TH","2019/07/15 20:39:16","新北市新莊區中港路中慶巷58號","121.447053333333","25.053855","6500500","新莊區"
"242034","348-TH","2019/07/15 20:39:19","新北市新莊區建中街79號","121.447311666667","25.0366216666667","6500500","新莊區"
"242007","349-TH","2019/07/15 20:39:21","新北市新莊區思源路287巷1弄17號","121.459421666667","25.047645","6500500","新莊區"
"242031","350-TH","2019/07/15 20:39:16","新北市新莊區中正路486-1號","121.436653333333","25.0336133333333","6500500","新莊區"
"242017","351-TH","2019/07/15 20:39:26","新北市新莊區中和街66號","121.447838333333","25.0458033333333","6500500","新莊區"
"221008","489-VK","2019/07/15 20:39:28","新北市汐止區康寧街519-1號","121.633293333333","25.068645","6501100","汐止區"
"221036","130-UY","2019/07/15 20:39:20","新北市汐止區新昌路11號","121.661983333333","25.0672733333333","6501100","汐止區"
"221015","131-UY","2019/07/15 20:39:14","新北市汐止區建成路52號","121.663686666667","25.0728633333333","6501100","汐止區"
"221012","278-VK","2019/07/15 20:39:13","新北市汐止區保新街153號","121.688281666667","25.0695583333333","6501100","汐止區"
"221023","279-VK","2019/07/15 20:39:27","新北市汐止區湖東街5巷45號","121.635303333333","25.0740216666667","6501100","汐止區"
"221032","280-BY","2019/07/15 20:39:18","新北市汐止區弘道街53巷30弄2號","121.618941666667","25.0500516666667","6501100","汐止區"
"221033","297-VK","2019/07/15 20:39:20","新北市汐止區合順街18巷8弄5號","121.62035","25.0418733333333","6501100","汐止區"
"221029","298-VK","2019/07/15 20:39:25","新北市汐止區大同路一段505號","121.64506","25.0624316666667","6501100","汐止區"
"221021","299-VK","2019/07/15 20:39:14","新北市汐止區水源路一段291巷2弄2號","121.654538333333","25.0582416666667","6501100","汐止區"
"221031","353-TW","2019/07/15 20:39:20","新北市汐止區福德一路237號","121.634263333333","25.0646916666667","6501100","汐止區"
"221025","623-UM","2019/07/15 20:39:25","新北市汐止區水源路二段181號","121.65776","25.0536883333333","6501100","汐止區"
"221002","707-TV","2019/07/15 20:38:58","新北市汐止區福德二路156巷16號","121.630123333333","25.0657283333333","6501100","汐止區"
"221018","753-BX","2019/07/15 20:39:23","新北市汐止區茄苳路85號","121.666775","25.07068","6501100","汐止區"
"220101","245-BX","2019/07/15 20:39:21","新北市林口區汕頭32號","121.366345","25.1347016666667","6500100","板橋區"
"220083","286-VK","2019/07/15 20:39:16","新北市板橋區僑中二街104巷13號","121.445446666667","25.00796","6500100","板橋區"
"220081","287-VK","2019/07/15 20:39:22","新北市板橋區大觀路二段42號","121.445441666667","25.0008483333333","6500100","板橋區"
"242044","281-VK","2019/07/15 20:39:10","新北市新莊區中正路新生巷85弄1號","121.41711","25.021725","6500500","新莊區"
"242009","280-VK","2019/07/15 20:39:23","新北市新莊區昌隆街104號","121.456715","25.0508216666667","6500500","新莊區"
