"lineid","car","time","location","longitude","latitude","cityid","cityname"
"232006","291-BY","2019/07/16 06:39:16","新北市坪林區北宜路八段558號","121.7178","24.909385","6502000","坪林區"
"232013","705-BZ","2019/07/16 06:39:21","新北市坪林區北宜路八段558號","121.718016666667","24.9094","6502000","坪林區"
"232002","758-BX","2019/07/16 06:39:25","新北市坪林區北宜路八段558號","121.717783333333","24.90936","6502000","坪林區"
"223006","022-BY","2019/07/16 06:39:12","新北市石碇區靜安路一段102號","121.648045","25.0089166666667","6501900","石碇區"
"223002","KEA-2673","2019/07/16 06:39:11","新北市石碇區碇坪路一段125號","121.665975","24.9866883333333","6501900","石碇區"
"223003","205-TH","2019/07/16 06:39:17","新北市石碇區小粗坑(潭邊里)2號","121.671373333333","24.98285","6501900","石碇區"
"223008","406-TH","2019/07/16 06:39:22","新北市石碇區碇坪路一段242號","121.675563333333","24.9785216666667","6501900","石碇區"
"223007","661-BX","2019/07/16 06:39:08","新北市石碇區碇坪路一段37號","121.657831666667","24.9914866666667","6501900","石碇區"
"227004","282-VK","2019/07/16 06:39:17","新北市雙溪區牡丹里聖南3號","121.86009","25.0509633333333","6502500","雙溪區"
