"lineid","car","time","location","longitude","latitude","cityid","cityname"
"244018","402-UM","2019/07/01 10:09:15","新北市林口區興林路6號","121.389466666667","25.0765883333333","6501700","林口區"
"244022","483-VK","2019/07/01 10:09:10","新北市林口區文林六街20號","121.371043333333","25.0805483333333","6501700","林口區"
"231007","189-VK","2019/07/01 10:09:11","新北市新店區新潭路三段215巷25號","121.508101666667","24.9039583333333","6500600","新店區"
"231008","512-UM","2019/07/01 10:08:52","新北市新店區小坑一路21-1號","121.530626666667","24.9111016666667","6500600","新店區"
"227003","282-VK","2019/07/01 10:09:19","新北市雙溪區泰平里灣潭路36號","121.811215","24.9288483333333","6502500","雙溪區"
"252004","249-BX","2019/07/01 10:09:04","新北市三芝區福德里埔尾4號","121.503396666667","25.2469633333333","6502100","三芝區"
"252006","AAC-283","2019/07/01 10:09:15","新北市三芝區古庄里古庄101-2號","121.493993333333","25.2696216666667","6502100","三芝區"
"237014","760-BX","2019/07/01 10:09:19","新北市三峽區金敏26號","121.393051666667","24.87803","6500900","三峽區"
"242026","613-BX","2019/07/01 10:09:07","新北市新莊區新泰路357巷3弄57號","121.44212","25.0391133333333","6500500","新莊區"
