"lineid","car","time","location","longitude","latitude","cityid","cityname"
"244018","402-UM","2019/07/01 10:19:15","新北市林口區粉寮路一段70號","121.397015","25.0788783333333","6501700","林口區"
"244022","483-VK","2019/07/01 10:19:10","新北市林口區文化三路一段617巷16號","121.371021666667","25.07744","6501700","林口區"
"231007","189-VK","2019/07/01 10:19:11","新北市新店區新潭路三段215巷25號","121.508081666667","24.9039516666667","6500600","新店區"
"231008","512-UM","2019/07/01 10:19:12","新北市新店區小坑一路41號","121.527403333333","24.91032","6500600","新店區"
"227003","282-VK","2019/07/01 10:10:11","新北市雙溪區泰平里灣潭路35-1號","121.81245","24.9290266666667","6502500","雙溪區"
"252006","AAC-283","2019/07/01 10:19:15","新北市三芝區新庄里番社后18-2號","121.495968333333","25.2748183333333","6502100","三芝區"
"237014","760-BX","2019/07/01 10:19:19","新北市三峽區大埔路216號","121.372971666667","24.89321","6500900","三峽區"
