"lineid","car","time","location","longitude","latitude","cityid","cityname"
"244022","483-VK","2019/07/01 10:29:10","新北市林口區民有街30號","121.37226","25.076765","6501700","林口區"
"231007","189-VK","2019/07/01 10:29:11","新北市新店區新潭路三段181-1號","121.509705","24.9068083333333","6500600","新店區"
"231008","512-UM","2019/07/01 10:29:12","新北市新店區小坑一路35巷2號","121.527868333333","24.9092533333333","6500600","新店區"
"227003","282-VK","2019/07/01 10:10:11","新北市雙溪區泰平里灣潭路35-1號","121.81245","24.9290266666667","6502500","雙溪區"
"252006","AAC-283","2019/07/01 10:29:15","新北市三芝區新庄里番社后3號","121.501845","25.2665616666667","6502100","三芝區"
"237014","760-BX","2019/07/01 10:29:19","新北市三峽區仁愛街31號","121.368473333333","24.9332983333333","6500900","三峽區"
