"lineid","car","time","location","longitude","latitude","cityid","cityname"
"244022","483-VK","2019/07/01 10:39:18","新北市林口區文林四街12號","121.37485","25.085455","6501700","林口區"
"231007","189-VK","2019/07/01 10:39:11","新北市新店區新潭路三段115號","121.507438333333","24.91151","6500600","新店區"
"231008","512-UM","2019/07/01 10:39:12","新北市新店區廣興路60巷8弄2號","121.543375","24.9138133333333","6500600","新店區"
"227003","282-VK","2019/07/01 10:10:11","新北市雙溪區泰平里灣潭路35-1號","121.81245","24.9290266666667","6502500","雙溪區"
"237014","760-BX","2019/07/01 10:39:19","新北市三峽區中山路459巷163-1號","121.349208333333","24.9333916666667","6500900","三峽區"
