"lineid","car","time","location","longitude","latitude","cityid","cityname"
"234044","148-BY","2019/07/01 14:09:27","新北市永和區得和路380號","121.5248","24.9992366666667","6500400","永和區"
"234078","298-R6","2019/07/01 14:09:35","新北市永和區國中路90號","121.524495","25.0061883333333","6500400","永和區"
"234036","336-UY","2019/07/01 14:09:20","新北市永和區成功路一段47巷8號","121.527498333333","25.0040733333333","6500400","永和區"
"234062","337-UY","2019/07/01 14:09:24","新北市永和區永利路94巷9號","121.520553333333","25.0033416666667","6500400","永和區"
"234084","338-UY","2019/07/01 14:09:18","新北市永和區福和路213號","121.519226666667","25.0075133333333","6500400","永和區"
"234068","552-UM","2019/07/01 14:09:25","新北市永和區中正路634號","121.517063333333","25.0081416666667","6500400","永和區"
"234028","746-BX","2019/07/01 14:09:18","新北市永和區民權路82號","121.519875","24.99713","6500400","永和區"
"234052","KEA-2590","2019/07/01 14:09:29","新北市永和區環河東路一段122號","121.520656666667","25.0154716666667","6500400","永和區"
"234005","KED-0605","2019/07/01 14:09:23","新北市中和區中和路302號","121.508958333333","24.99985","6500400","永和區"
"234012","KEA-2591","2019/07/01 14:09:20","新北市永和區仁愛路271號","121.506081666667","25.0098366666667","6500400","永和區"
"234060","AAD-866","2019/07/01 14:09:33","新北市中和區安樂路255號","121.51408","24.999935","6500400","永和區"
"234040","862-TW","2019/07/01 14:09:30","新北市永和區雙和街64巷19號","121.509651666667","25.003345","6500400","永和區"
"234048","863-TW","2019/07/01 14:09:13","新北市永和區環河西路二段37號","121.507393333333","25.015655","6500400","永和區"
"234025","9371-KE","2019/07/01 14:09:16","新北市永和區安樂路272巷15號","121.515211666667","25.00422","6500400","永和區"
"234010","9373-KE","2019/07/01 14:09:35","新北市永和區仁愛路352巷110號","121.500658333333","25.0083583333333","6500400","永和區"
"248015","026-BX","2019/07/01 14:09:18","新北市五股區成泰路三段543巷12弄1號","121.451123333333","25.1021183333333","6501500","五股區"
"248007","KED-0815","2019/07/01 14:09:24","新北市五股區中興路一段183號","121.464266666667","25.073905","6501500","五股區"
"248019","KED-0813","2019/07/01 14:01:33","新北市五股區凌雲路三段57號","121.42532","25.1250316666667","6501500","五股區"
"248011","247-BX","2019/07/01 14:09:27","新北市五股區工商路18巷23弄8號","121.440251666667","25.0841816666667","6501500","五股區"
"248003","677-BX","2019/07/01 14:09:33","新北市五股區民義路一段185-4號","121.431805","25.08841","6501500","五股區"
"248001","678-BX","2019/07/01 14:09:29","新北市五股區成泰路三段577巷77號","121.449751666667","25.1037016666667","6501500","五股區"
"234022","9380-KE","2019/07/01 14:09:13","新北市永和區博愛街32巷13號","121.518873333333","25.0153166666667","6500400","永和區"
"234076","969-R7","2019/07/01 14:09:17","新北市永和區民族街81巷68號","121.520251666667","24.9961916666667","6500400","永和區"
"234072","AAC-211","2019/07/01 14:09:25","新北市永和區竹林路201巷22弄23號","121.522903333333","25.009395","6500400","永和區"
"234066","AAC-212","2019/07/01 14:09:22","新北市永和區保平路236巷7弄1號","121.508791666667","25.0059633333333","6500400","永和區"
"234001","AAC-295","2019/07/01 14:09:32","新北市永和區中正路666巷8號","121.517045","25.0089483333333","6500400","永和區"
"243004","AAD-798","2019/07/01 14:09:25","新北市泰山區辭修路10-11號","121.429661666667","25.05801","6501600","泰山區"
"243002","297-R6","2019/07/01 14:09:17","新北市泰山區明志路一段481號","121.431063333333","25.0554133333333","6501600","泰山區"
"243006","KEA-2801","2019/07/01 14:09:21","新北市泰山區泰林路二段480號","121.425095","25.064","6501600","泰山區"
"243008","421-VK","2019/07/01 14:09:31","新北市泰山區明志路三段1號","121.424865","25.043455","6501600","泰山區"
"243001","KEA-2215","2019/07/01 14:09:17","新北市泰山區楓樹街15巷15號","121.43465","25.062995","6501600","泰山區"
"243003","KEA-2216","2019/07/01 14:09:18","新北市泰山區明志路二段323號","121.426378333333","25.0459383333333","6501600","泰山區"
"243005","646-TV","2019/07/01 14:09:17","新北市泰山區台麗街6巷11號","121.42407","25.03772","6501600","泰山區"
"243007","680-BX","2019/07/01 14:09:27","新北市泰山區明志路一段371號","121.430841666667","25.0578883333333","6501600","泰山區"
"231030","002-UM","2019/07/01 14:09:29","新北市新店區安興路7-1號","121.514975","24.9684316666667","6500600","新店區"
"231027","0293-UT","2019/07/01 14:09:26","新北市新店區中興路一段34號","121.538856666667","24.9586466666667","6500600","新店區"
"231005","046-UY","2019/07/01 14:09:21","新北市新店區中興路三段327號","121.541995","24.9864183333333","6500600","新店區"
"231029","106-UY","2019/07/01 14:09:19","新北市新店區安康路二段161號","121.510285","24.9593666666667","6500600","新店區"
"231018","107-UY","2019/07/01 14:09:25","新北市新店區中央五街2號","121.53007","24.9739383333333","6500600","新店區"
"231013","108-UY","2019/07/01 14:09:23","新北市新店區北新路三段65巷34弄21號","121.540003333333","24.9816966666667","6500600","新店區"
"231036","110-UY","2019/07/01 14:09:31","新北市新店區安祥路109巷3弄64號","121.477661666667","24.9611466666667","6500600","新店區"
"231023","260-TV","2019/07/01 14:09:23","新北市新店區文中路45號","121.539473333333","24.956685","6500600","新店區"
"231003","268-BY","2019/07/01 14:09:29","新北市新店區中興路一段121號","121.54167","24.962915","6500600","新店區"
"231035","278-BY","2019/07/01 14:09:17","新北市新店區安和路一段52巷2-1號","121.517676666667","24.966475","6500600","新店區"
"231014","AAD-862","2019/07/01 14:09:30","新北市新店區郵政路1巷6號","121.557376666667","24.9521233333333","6500600","新店區"
"231006","355-BY","2019/07/01 14:09:16","新北市新店區北宜路二段207號","121.5531","24.9532733333333","6500600","新店區"
"231038","3712-VJ","2019/07/01 14:09:24","新北市新店區安康路一段32號","121.531568333333","24.9615516666667","6500600","新店區"
"231024","4716-K9","2019/07/01 14:09:25","新北市新店區安和路三段4巷3號","121.519883333333","24.9809283333333","6500600","新店區"
"231025","4715-K9","2019/07/01 14:09:14","新北市新店區二十張路129巷1弄1號","121.536028333333","24.9791216666667","6500600","新店區"
"231019","513-UM","2019/07/01 14:09:27","新北市新店區屈尺路83-2號","121.544606666667","24.9220883333333","6500600","新店區"
"231002","619-UM","2019/07/01 14:09:23","新北市新店區中正路542-8號","121.53374","24.984815","6500600","新店區"
"231034","641-BX","2019/07/01 14:09:26","新北市新店區車子路115號","121.505465","24.9532633333333","6500600","新店區"
"231011","KED-0819","2019/07/01 14:09:23","新北市新店區中興路一段264號","121.54478","24.96718","6500600","新店區"
"231031","718-UY","2019/07/01 14:09:32","新北市新店區碧潭路60號","121.534526666667","24.95686","6500600","新店區"
"231028","897-TW","2019/07/01 14:09:29","新北市新店區安和路三段101號","121.517786666667","24.9844633333333","6500600","新店區"
"231001","898-TW","2019/07/01 14:09:26","新北市新店區中華路147號","121.538161666667","24.9704583333333","6500600","新店區"
"231004","899-TW","2019/07/01 14:09:14","新北市新店區北新路二段268號","121.54253","24.9787366666667","6500600","新店區"
"231037","AKT-0513","2019/07/01 14:09:23","新北市新店區安康路三段165巷2弄9號","121.489038333333","24.9512816666667","6500600","新店區"
"235030","003-UY","2019/07/01 14:09:36","新北市中和區枋寮街43號","121.50175","25.0007716666667","6500300","中和區"
"235027","006-UY","2019/07/01 14:09:21","新北市中和區連城路249巷5號","121.493698333333","24.9967866666667","6500300","中和區"
"235020","096-UM","2019/07/01 14:09:30","新北市中和區中山路二段598號","121.481958333333","25.0052866666667","6500300","中和區"
"235003","097-UM","2019/07/01 14:09:30","新北市中和區秀峰街119巷4弄1號","121.519765","24.99014","6500300","中和區"
"235029","098-UM","2019/07/01 14:09:30","新北市中和區中山路二段2巷3弄7-1號","121.504561666667","25.0058733333333","6500300","中和區"
"235004","150-BY","2019/07/01 14:09:23","新北市中和區保健路44巷31號","121.508725","24.996265","6500300","中和區"
"235022","151-BY","2019/07/01 14:09:27","新北市中和區連城路523巷11弄1號","121.48167","24.9943416666667","6500300","中和區"
"235019","183-VK","2019/07/01 14:09:26","新北市中和區中山路三段181巷30號","121.473125","25.005055","6500300","中和區"
"235002","185-VK","2019/07/01 14:09:22","新北市中和區大仁街10巷9弄27號","121.51922","24.99293","6500300","中和區"
"235013","186-VK","2019/07/01 14:09:18","新北市中和區景新街212號","121.506951666667","24.9953183333333","6500300","中和區"
"235008","293-VK","2019/07/01 14:09:28","新北市中和區中興街237巷2號","121.500621666667","24.989405","6500300","中和區"
"235036","301-VK","2019/07/01 14:09:22","新北市中和區中山路二段165號","121.501473333333","25.0026566666667","6500300","中和區"
"235007","352-BY","2019/07/01 14:09:17","新北市中和區景平路71號","121.51971","24.9914066666667","6500300","中和區"
"235006","KEA-2878","2019/07/01 14:09:25","新北市中和區自立路16巷8號","121.52138","24.9936333333333","6500300","中和區"
"235014","4979-A6","2019/07/01 14:09:29","新北市中和區復興路249巷11弄3號","121.503578333333","24.989685","6500300","中和區"
"235033","4980-A6","2019/07/01 14:09:17","新北市中和區中和路165巷10號","121.50301","25.0002216666667","6500300","中和區"
"235034","558-UM","2019/07/01 14:09:33","新北市中和區連城路14號","121.498883333333","25.0022133333333","6500300","中和區"
"235009","565-BX","2019/07/01 14:09:31","新北市中和區景新街449號","121.513481666667","24.9886566666667","6500300","中和區"
"235024","KED-0823","2019/07/01 14:09:17","新北市中和區新生街114巷21號","121.482931666667","25.0023383333333","6500300","中和區"
"235011","732-UM","2019/07/01 14:09:33","新北市中和區興南路二段43號","121.507515","24.98566","6500300","中和區"
"235010","733-UM","2019/07/01 14:09:28","新北市中和區華新街122號","121.50825","24.9826583333333","6500300","中和區"
"235035","783-BX","2019/07/01 14:09:32","新北市中和區中正路683號","121.485175","24.9977333333333","6500300","中和區"
"235026","800-TS","2019/07/01 14:09:31","新北市中和區橋和路102號","121.49081","25.005185","6500300","中和區"
"235021","801-TS","2019/07/01 14:09:29","新北市中和區員山路423巷9號","121.480631666667","25.0031","6500300","中和區"
"235005","802-TS","2019/07/01 14:09:24","新北市中和區宜安路118巷16號","121.51074","24.9986133333333","6500300","中和區"
"235016","805-TS","2019/07/01 14:09:28","新北市中和區興南路二段128巷7弄7號","121.503293333333","24.9840816666667","6500300","中和區"
"235012","896-TW","2019/07/01 14:09:29","新北市中和區工專路147號","121.508411666667","24.9787933333333","6500300","中和區"
"235017","900-TW","2019/07/01 14:09:27","新北市中和區華安街30巷14號","121.466905","24.997395","6500300","中和區"
"235018","911-UM","2019/07/01 14:09:03","新北市中和區國光街109巷17號","121.469645","24.999765","6500300","中和區"
"235015","157-BY","2019/07/01 14:09:23","新北市中和區和平街2巷4弄2號","121.510051666667","24.990595","6500300","中和區"
"235001","AAC-213","2019/07/01 14:09:30","新北市中和區秀朗路三段50巷29弄1號","121.524","24.9952466666667","6500300","中和區"
"235023","AAC-215","2019/07/01 14:09:15","新北市中和區圓通路294巷1號","121.488885","24.9895816666667","6500300","中和區"
"220013","072-UY","2019/07/01 14:09:23","新北市板橋區民族路247巷5弄48號","121.470398333333","25.0085683333333","6500100","板橋區"
"220034","073-UY","2019/07/01 14:09:34","新北市板橋區中正路236巷8號","121.456175","25.019005","6500100","板橋區"
"220105","075-UY","2019/07/01 14:09:31","新北市板橋區江寧路三段40號","121.471193333333","25.03161","6500100","板橋區"
"220017","AAD-861","2019/07/01 14:09:28","新北市板橋區大華街172號","121.459285","25.0035433333333","6500100","板橋區"
"247003","893-R6","2019/07/01 14:09:19","新北市蘆洲區長安街187號","121.460423333333","25.0817016666667","6501400","蘆洲區"
"247017","546-UM","2019/07/01 14:09:26","新北市蘆洲區復興路186號","121.477986666667","25.08868","6501400","蘆洲區"
"247013","500-BY","2019/07/01 14:09:25","新北市蘆洲區三民路155號","121.471385","25.0866883333333","6501400","蘆洲區"
"247007","341-TH","2019/07/01 14:09:29","新北市蘆洲區中山一路276號","121.47156","25.079215","6501400","蘆洲區"
"247015","337-TH","2019/07/01 14:09:35","新北市蘆洲區光榮路118號","121.464811666667","25.08883","6501400","蘆洲區"
"247001","336-TH","2019/07/01 14:09:17","新北市蘆洲區永平街43號","121.458046666667","25.091125","6501400","蘆洲區"
"247021","057-VK","2019/07/01 14:09:25","新北市蘆洲區三民路155號","121.47141","25.08679","6501400","蘆洲區"
"247011","056-VK","2019/07/01 14:09:31","新北市蘆洲區信義路254號","121.478298333333","25.0866416666667","6501400","蘆洲區"
"247015","053-VK","2019/07/01 14:09:26","新北市蘆洲區中正路185巷26號","121.467955","25.085185","6501400","蘆洲區"
"247019","007-UY","2019/07/01 14:09:23","新北市蘆洲區仁愛街66號","121.471593333333","25.0939133333333","6501400","蘆洲區"
"247005","002-UY","2019/07/01 14:09:21","新北市蘆洲區九芎街39號","121.468115","25.0785583333333","6501400","蘆洲區"
"253003","6232-TK","2019/07/01 14:09:28","新北市石門區內石門62號","121.578108333333","25.2658783333333","6502200","石門區"
"253004","6251-TK","2019/07/01 14:08:58","新北市石門區小坑47號","121.597291666667","25.259825","6502200","石門區"
"253002","637-UY","2019/07/01 14:09:19","新北市石門區七股56號","121.553591666667","25.2562516666667","6502200","石門區"
"253001","KEC-0718","2019/07/01 14:09:20","新北市石門區八甲33號","121.529571666667","25.2720483333333","6502200","石門區"
"208001","AAC-292","2019/07/01 14:08:31","新北市中和區興南路二段339號","121.501368333333","24.9792233333333","6502700","金山區"
"207002","749-BX","2019/07/01 14:09:18","新北市萬里區溪底里溪底路8號","121.622771666667","25.147945","6502800","萬里區"
"207001","662-BX","2019/07/01 14:09:27","新北市萬里區磺潭里清水18號","121.637856666667","25.1976483333333","6502800","萬里區"
"252005","AAC-283","2019/07/01 14:09:16","新北市三芝區橫山里橫山23-6號","121.541113333333","25.260455","6502100","三芝區"
"236040","KED-0685","2019/07/01 14:09:14","新北市土城區城林路6巷80號","121.438533333333","24.9797533333333","6501300","土城區"
"236074","166-UM","2019/07/01 14:09:17","新北市土城區永寧路32巷5號","121.429028333333","24.9606133333333","6501300","土城區"
"236029","253-BX","2019/07/01 14:09:28","新北市土城區城林路6巷80號","121.438495","24.9797433333333","6501300","土城區"
"236024","269-VK","2019/07/01 14:09:13","新北市土城區承天路18號","121.43953","24.96345","6501300","土城區"
"236012","270-VK","2019/07/01 14:09:19","新北市土城區學府路一段144巷2號","121.455115","24.987235","6501300","土城區"
"236032","271-VK","2019/07/01 14:09:28","新北市土城區青雲路451巷1號","121.459045","24.9746833333333","6501300","土城區"
"247009","KED-0683","2019/07/01 14:09:29","新北市蘆洲區中山一路126號","121.47653","25.0816483333333","6501400","蘆洲區"
"236064","KEA-2877","2019/07/01 14:09:21","新北市土城區明德路一段128巷5號","121.463328333333","24.9790383333333","6501300","土城區"
"236016","401-BY","2019/07/01 14:09:20","新北市土城區中正路75號","121.445205","24.9757283333333","6501300","土城區"
"236057","912-UM","2019/07/01 14:09:15","新北市土城區中央路四段93號","121.416858333333","24.9579783333333","6501300","土城區"
"236045","913-UM","2019/07/01 14:09:17","新北市土城區明德路一段365-1號","121.453558333333","24.9790583333333","6501300","土城區"
"236060","915-UM","2019/07/01 14:09:22","新北市土城區金城路一段112號","121.446771666667","24.975845","6501300","土城區"
"236054","AAC-216","2019/07/01 14:09:34","新北市土城區中華路二段92號","121.438201666667","24.97478","6501300","土城區"
"221029","298-VK","2019/07/01 14:08:18","台北市文山區新光路二段74巷3號","121.592746666667","24.99307","6501100","汐止區"
"220027","145-BY","2019/07/01 14:09:21","新北市板橋區中正路43號","121.456388333333","25.0132833333333","6500100","板橋區"
"220028","200-UY","2019/07/01 14:09:33","新北市板橋區合安一路61號","121.447786666667","24.9989233333333","6500100","板橋區"
"220030","610-BX","2019/07/01 14:09:26","新北市板橋區溪北路18號","121.426708333333","24.990375","6500100","板橋區"
"220050","245-BX","2019/07/01 14:09:32","新北市板橋區雙十路二段6-11號","121.47659","25.0264816666667","6500100","板橋區"
"220004","276-BY","2019/07/01 14:09:20","新北市土城區廣福街106號","121.456655","24.9923833333333","6500100","板橋區"
"220020","277-BY","2019/07/01 14:09:33","新北市板橋區金門街369巷26號","121.428735","24.983265","6500100","板橋區"
"220043","283-UM","2019/07/01 14:09:17","新北市板橋區吳鳳路23號","121.466945","25.0310816666667","6500100","板橋區"
"220019","283-VK","2019/07/01 14:09:23","新北市板橋區忠孝路146號","121.463843333333","25.0024433333333","6500100","板橋區"
"220001","285-VK","2019/07/01 14:09:25","新北市板橋區懷仁街25巷10號","121.476835","25.0198416666667","6500100","板橋區"
"220031","286-VK","2019/07/01 14:09:12","新北市板橋區大觀路二段174巷176弄15號","121.44281","25.003215","6500100","板橋區"
"220029","287-VK","2019/07/01 14:09:25","新北市板橋區南雅西路二段152號","121.452008333333","25.013355","6500100","板橋區"
"220039","288-VK","2019/07/01 14:09:26","新北市板橋區長江路一段106巷13弄20號","121.460811666667","25.0294733333333","6500100","板橋區"
"220009","295-UM","2019/07/01 14:09:25","新北市板橋區中山路二段318巷18號","121.480395","25.0187966666667","6500100","板橋區"
"220032","296-UM","2019/07/01 14:09:32","新北市板橋區大觀路三段227-9號","121.430953333333","24.99199","6500100","板橋區"
"220023","303-R5","2019/07/01 14:09:27","新北市板橋區大智街71巷1號","121.453575","25.0153866666667","6500100","板橋區"
"220010","305-R5","2019/07/01 14:09:35","新北市板橋區三民路二段居仁巷2弄23號","121.47993","25.0130533333333","6500100","板橋區"
"220047","317-R6","2019/07/01 14:09:23","新北市板橋區民有街51-3號","121.46559","25.02606","6500100","板橋區"
"220038","487-VK","2019/07/01 14:09:16","新北市板橋區文化路一段220號","121.46675","25.020695","6500100","板橋區"
"220037","491-VK","2019/07/01 14:09:25","新北市板橋區文化路二段182巷7弄7號","121.472185","25.0272683333333","6500100","板橋區"
"220104","560-BX","2019/07/01 14:09:25","新北市板橋區中正路379巷3弄38-1號","121.453231666667","25.02126","6500100","板橋區"
"220052","561-BX","2019/07/01 14:09:27","新北市板橋區文化路一段270巷3號","121.467596666667","25.0206483333333","6500100","板橋區"
"220011","609-BX","2019/07/01 14:09:15","新北市板橋區三民路二段165號","121.479143333333","25.0146233333333","6500100","板橋區"
"220040","637-BX","2019/07/01 14:09:16","新北市板橋區文聖街204號","121.48019","25.0258066666667","6500100","板橋區"
"220005","686-BX","2019/07/01 14:09:29","新北市板橋區和平路155巷3號","121.463283333333","24.9959266666667","6500100","板橋區"
"220025","687-BX","2019/07/01 14:09:28","新北市板橋區大觀路二段174巷181號","121.442181666667","25.003855","6500100","板橋區"
"220042","689-BX","2019/07/01 14:09:28","新北市板橋區新海路14號","121.462513333333","25.020945","6500100","板橋區"
"220002","741-BX","2019/07/01 14:09:31","新北市板橋區實踐路51號","121.463796666667","25.0067366666667","6500100","板橋區"
"220051","KEA-2699","2019/07/01 14:09:18","新北市板橋區田單街47號","121.482518333333","25.02827","6500100","板橋區"
"220003","827-TW","2019/07/01 14:09:29","新北市板橋區中山路一段158號","121.466076666667","25.011825","6500100","板橋區"
"220014","829-TW","2019/07/01 14:09:25","新北市板橋區三民路二段146號","121.478896666667","25.015435","6500100","板橋區"
"220016","831-TW","2019/07/01 14:09:21","新北市板橋區翠華街6巷42號","121.48153","25.0246666666667","6500100","板橋區"
"220022","895-R6","2019/07/01 14:09:16","新北市板橋區林園街57號","121.453625","25.01027","6500100","板橋區"
"220021","985-R7","2019/07/01 14:09:35","新北市板橋區民權路252號","121.458335","25.0147183333333","6500100","板橋區"
"220046","AAC-210","2019/07/01 14:09:29","新北市板橋區幸福路58號","121.461095","25.02019","6500100","板橋區"
"220012","AAC-253","2019/07/01 14:09:20","新北市板橋區漢生東路83巷2號","121.46698","25.0157583333333","6500100","板橋區"
"235032","KEA-2873","2019/07/01 14:09:27","新北市中和區圓通路158巷9弄25號","121.497455","24.9962933333333","6500300","中和區"
"235025","KEA-2875","2019/07/01 14:09:26","新北市中和區民利街61巷3號","121.479293333333","24.9985633333333","6500300","中和區"
"235028","KEA-2876","2019/07/01 14:09:27","新北市中和區中和路40巷4-3號","121.499786666667","25.001375","6500300","中和區"
