"lineid","car","time","location","longitude","latitude","cityid","cityname"
"234078","298-R6","2019/07/01 14:29:15","新北市永和區永貞路35號","121.521025","25.006585","6500400","永和區"
"234062","337-UY","2019/07/01 14:29:24","新北市永和區中正路486號","121.517408333333","25.0039383333333","6500400","永和區"
"234084","338-UY","2019/07/01 14:29:18","新北市永和區永和路二段216號","121.515645","25.0141466666667","6500400","永和區"
"234068","552-UM","2019/07/01 14:29:25","新北市永和區永亨路9號","121.519448333333","25.0057716666667","6500400","永和區"
"234052","KEA-2590","2019/07/01 14:29:29","新北市永和區光復街42號","121.516666666667","25.0177483333333","6500400","永和區"
"234005","KED-0605","2019/07/01 14:29:22","新北市永和區中正路581-3號","121.516736666667","25.0090183333333","6500400","永和區"
"234060","AAD-866","2019/07/01 14:29:33","新北市永和區秀安街5-2號","121.515431666667","25.0028716666667","6500400","永和區"
"234040","862-TW","2019/07/01 14:29:30","新北市永和區安樂路348號","121.514476666667","25.0064483333333","6500400","永和區"
"234048","863-TW","2019/07/01 14:29:33","新北市永和區環河西路二段97號","121.506431666667","25.01481","6500400","永和區"
"234025","9371-KE","2019/07/01 14:29:16","新北市中和區宜安路2號","121.513746666667","24.9955383333333","6500400","永和區"
"248015","026-BX","2019/07/01 14:29:29","新北市五股區成泰路四段22巷27-1號","121.455326666667","25.1080616666667","6501500","五股區"
"248007","KED-0815","2019/07/01 14:29:24","新北市五股區中興路二段83巷26-6號","121.460025","25.0752166666667","6501500","五股區"
"248019","KED-0813","2019/07/01 14:01:33","新北市五股區凌雲路三段57號","121.42532","25.1250316666667","6501500","五股區"
"248011","247-BX","2019/07/01 14:29:27","新北市五股區蓬萊路6巷41號","121.43573","25.0801416666667","6501500","五股區"
"248013","261-SL","2019/07/01 14:29:32","新北市五股區民義路一段157號","121.432593333333","25.087625","6501500","五股區"
"248003","677-BX","2019/07/01 14:29:33","新北市五股區工商路134號","121.435616666667","25.0861716666667","6501500","五股區"
"248001","678-BX","2019/07/01 14:29:29","新北市五股區成泰路三段476號","121.451845","25.1013566666667","6501500","五股區"
"234072","AAC-211","2019/07/01 14:29:25","新北市永和區竹林路39巷14號","121.518491666667","25.014545","6500400","永和區"
"234001","AAC-295","2019/07/01 14:29:28","新北市永和區自強街4號","121.514263333333","25.008065","6500400","永和區"
"244001","248-BX","2019/07/01 14:29:31","新北市林口區瑞平里33-1號","121.348645","25.1285466666667","6501700","林口區"
"243004","AAD-798","2019/07/01 14:29:24","新北市泰山區明志路一段501巷19號","121.431441666667","25.0545916666667","6501600","泰山區"
"243002","297-R6","2019/07/01 14:29:22","新北市泰山區民生路17巷8號","121.42982","25.0521216666667","6501600","泰山區"
"243006","KEA-2801","2019/07/01 14:29:21","新北市泰山區中港西路446號","121.433768333333","25.053505","6501600","泰山區"
"243008","421-VK","2019/07/01 14:29:31","新北市泰山區新北大道七段20號","121.420268333333","25.0323383333333","6501600","泰山區"
"243001","KEA-2215","2019/07/01 14:29:17","新北市泰山區半山雅36號","121.430843333333","25.0675066666667","6501600","泰山區"
"243003","KEA-2216","2019/07/01 14:29:18","新北市泰山區貴子路41-1號","121.429461666667","25.0401333333333","6501600","泰山區"
"243005","646-TV","2019/07/01 14:29:17","新北市泰山區貴子路9-1號","121.425498333333","25.0420083333333","6501600","泰山區"
"243007","680-BX","2019/07/01 14:29:27","新北市泰山區民權街50號","121.428703333333","25.0506066666667","6501600","泰山區"
"231030","002-UM","2019/07/01 14:29:29","新北市新店區安民街14號","121.515346666667","24.9645133333333","6500600","新店區"
"231027","0293-UT","2019/07/01 14:29:26","新北市新店區北新路二段107號","121.542961666667","24.974525","6500600","新店區"
"231005","046-UY","2019/07/01 14:29:21","新北市新店區寶強路6-1號","121.543396666667","24.97856","6500600","新店區"
"231029","106-UY","2019/07/01 14:29:19","新北市新店區安康路二段382號","121.500498333333","24.957035","6500600","新店區"
"231018","107-UY","2019/07/01 14:29:18","新北市新店區中央二街66號","121.52645","24.974715","6500600","新店區"
"231013","108-UY","2019/07/01 14:29:23","新北市新店區民權路108-2號","121.535963333333","24.983405","6500600","新店區"
"231036","110-UY","2019/07/01 14:29:31","新北市新店區安祥路109巷131號","121.476971666667","24.9581116666667","6500600","新店區"
"231023","260-TV","2019/07/01 14:29:27","新北市新店區光明街138巷14號","121.539931666667","24.9610183333333","6500600","新店區"
"231003","268-BY","2019/07/01 14:29:29","新北市新店區中興路一段267-4號","121.545106666667","24.96795","6500600","新店區"
"231035","278-BY","2019/07/01 14:29:17","新北市新店區吉安街15號","121.516436666667","24.9657833333333","6500600","新店區"
"231014","AAD-862","2019/07/01 14:29:30","新北市新店區北宜路三段66號","121.575043333333","24.9513666666667","6500600","新店區"
"231006","355-BY","2019/07/01 14:29:16","新北市新店區北宜路二段521號","121.563518333333","24.9536433333333","6500600","新店區"
"231038","3712-VJ","2019/07/01 14:29:24","新北市新店區溪洲路85號","121.533156666667","24.961045","6500600","新店區"
"231019","513-UM","2019/07/01 14:29:27","新北市新店區桂山路35號","121.558561666667","24.9029266666667","6500600","新店區"
"231002","619-UM","2019/07/01 14:29:23","新北市新店區中央路196號","121.530721666667","24.9744233333333","6500600","新店區"
"231034","641-BX","2019/07/01 14:29:26","新北市新店區車子路11號","121.502951666667","24.9516766666667","6500600","新店區"
"231011","KED-0819","2019/07/01 14:29:18","新北市新店區寶興路49號","121.549306666667","24.9730733333333","6500600","新店區"
"231031","718-UY","2019/07/01 14:29:32","新北市新店區安業街215巷1-1號","121.52278","24.9722816666667","6500600","新店區"
"231028","897-TW","2019/07/01 14:29:29","新北市新店區安和路二段1號","121.51776","24.9668416666667","6500600","新店區"
"231001","898-TW","2019/07/01 14:29:26","新北市新店區中正路75巷71號","121.543216666667","24.9688516666667","6500600","新店區"
"231004","899-TW","2019/07/01 14:29:14","新北市新店區中正路282號","121.538536666667","24.973825","6500600","新店區"
"231037","AKT-0513","2019/07/01 14:29:23","新北市新店區車子路8-1號","121.50445","24.9526766666667","6500600","新店區"
"235030","003-UY","2019/07/01 14:29:36","新北市中和區景新街32號","121.503346666667","24.999335","6500300","中和區"
"235027","006-UY","2019/07/01 14:29:21","新北市中和區連城路203巷4號","121.494845","24.99763","6500300","中和區"
"235020","096-UM","2019/07/01 14:29:30","新北市中和區員山路514巷3號","121.479296666667","25.0097433333333","6500300","中和區"
"235003","097-UM","2019/07/01 14:29:30","新北市中和區景平路276號","121.514131666667","24.9926066666667","6500300","中和區"
"235029","098-UM","2019/07/01 14:29:19","新北市中和區永和路8巷19號","121.500703333333","25.0035","6500300","中和區"
"235004","150-BY","2019/07/01 14:29:23","新北市中和區安樂路51巷30號","121.511231666667","24.99435","6500300","中和區"
"235022","151-BY","2019/07/01 14:29:19","新北市中和區員山路124巷7號","121.481731666667","24.9960316666667","6500300","中和區"
"235019","183-VK","2019/07/01 14:29:26","新北市中和區民生街12巷2號","121.470663333333","25.005625","6500300","中和區"
"235002","185-VK","2019/07/01 14:29:22","新北市中和區立人街7號","121.521745","24.9940533333333","6500300","中和區"
"235013","186-VK","2019/07/01 14:29:26","新北市中和區安平路29號","121.509286666667","24.99441","6500300","中和區"
"235008","293-VK","2019/07/01 14:29:19","新北市中和區捷運路111號","121.507991666667","24.99036","6500300","中和區"
"235036","301-VK","2019/07/01 14:29:22","新北市中和區中山路二段64巷8號","121.503601666667","25.00502","6500300","中和區"
"235007","352-BY","2019/07/01 14:29:17","新北市中和區景平路398號","121.509715","24.99292","6500300","中和區"
"235006","KEA-2878","2019/07/01 14:29:25","新北市中和區中和路262巷43弄6號","121.509685","24.9995133333333","6500300","中和區"
"235033","4980-A6","2019/07/01 14:29:17","新北市中和區連城路134巷16-1號","121.49535","24.9999166666667","6500300","中和區"
"235034","558-UM","2019/07/01 14:29:33","新北市中和區景平路638號","121.497875","25.00023","6500300","中和區"
"235009","565-BX","2019/07/01 14:29:31","新北市中和區景新街532號","121.51447","24.986395","6500300","中和區"
"235024","KED-0823","2019/07/01 14:29:24","新北市中和區新生街16巷15號","121.482491666667","25.0042733333333","6500300","中和區"
"235011","732-UM","2019/07/01 14:29:33","新北市中和區景平路241巷64弄8號","121.507736666667","24.992545","6500300","中和區"
"235010","733-UM","2019/07/01 14:29:28","新北市中和區忠孝街37巷52號","121.51116","24.9849066666667","6500300","中和區"
"235035","783-BX","2019/07/01 14:29:32","新北市中和區連城路300號","121.483891666667","24.9963233333333","6500300","中和區"
"235026","800-TS","2019/07/01 14:29:30","新北市中和區中山路二段411號","121.485976666667","25.0042933333333","6500300","中和區"
"235021","801-TS","2019/07/01 14:29:29","新北市中和區員山路271-1號","121.481295","24.99955","6500300","中和區"
"235005","802-TS","2019/07/01 14:29:24","新北市中和區景安路57號","121.507223333333","24.9980316666667","6500300","中和區"
"235016","805-TS","2019/07/01 14:29:28","新北市中和區華新街143巷67弄40號","121.507718333333","24.9792616666667","6500300","中和區"
"235012","896-TW","2019/07/01 14:29:29","新北市中和區忠孝街64號","121.5119","24.983955","6500300","中和區"
"235017","900-TW","2019/07/01 14:29:27","新北市中和區民德路197號","121.469328333333","24.9979933333333","6500300","中和區"
"235018","911-UM","2019/07/01 14:29:23","新北市中和區莒光路222-7號","121.469141666667","24.9948966666667","6500300","中和區"
"235015","157-BY","2019/07/01 14:29:23","新北市中和區中興街132號","121.499718333333","24.9922416666667","6500300","中和區"
"235001","AAC-213","2019/07/01 14:29:30","新北市中和區秀朗路三段50巷4弄1號","121.525685","24.9954983333333","6500300","中和區"
"235023","AAC-215","2019/07/01 14:29:34","新北市中和區圓通路319-5號","121.492765","24.9907533333333","6500300","中和區"
"220013","072-UY","2019/07/01 14:29:27","新北市板橋區國泰街75巷29-1號","121.467901666667","25.00545","6500100","板橋區"
"220034","073-UY","2019/07/01 14:29:14","新北市板橋區中正路216巷12號","121.456428333333","25.018445","6500100","板橋區"
"220105","075-UY","2019/07/01 14:29:19","新北市板橋區江寧路三段66號","121.472223333333","25.0322783333333","6500100","板橋區"
"220017","AAD-861","2019/07/01 14:29:28","新北市板橋區稚暉街46巷1號","121.456386666667","25.0043083333333","6500100","板橋區"
"247003","893-R6","2019/07/01 14:29:19","新北市蘆洲區長榮路269巷32號","121.459451666667","25.0858916666667","6501400","蘆洲區"
"247017","546-UM","2019/07/01 14:29:26","新北市蘆洲區民族路312號","121.477441666667","25.0902616666667","6501400","蘆洲區"
"247013","500-BY","2019/07/01 14:29:25","新北市蘆洲區中山二路161號","121.47124","25.081225","6501400","蘆洲區"
"247007","341-TH","2019/07/01 14:29:30","新北市蘆洲區信義路74號","121.476256666667","25.0792816666667","6501400","蘆洲區"
"247015","337-TH","2019/07/01 14:29:35","新北市蘆洲區中正路263巷2號","121.467281666667","25.087555","6501400","蘆洲區"
"247001","336-TH","2019/07/01 14:29:17","新北市蘆洲區永樂街38巷19弄18號","121.457396666667","25.0891616666667","6501400","蘆洲區"
"247021","057-VK","2019/07/01 14:29:25","新北市蘆洲區水湳街97號","121.470223333333","25.090295","6501400","蘆洲區"
"247011","056-VK","2019/07/01 14:29:31","新北市蘆洲區復興路88號","121.475498333333","25.0867983333333","6501400","蘆洲區"
"247015","053-VK","2019/07/01 14:29:26","新北市蘆洲區中正路185巷23弄5號","121.46719","25.0844833333333","6501400","蘆洲區"
"247019","007-UY","2019/07/01 14:29:23","新北市蘆洲區仁愛街88號","121.470641666667","25.0944833333333","6501400","蘆洲區"
"247005","002-UY","2019/07/01 14:29:21","新北市蘆洲區長安街78號","121.462323333333","25.0802216666667","6501400","蘆洲區"
"253003","6232-TK","2019/07/01 14:27:08","新北市石門區內石門70-1號","121.581675","25.257225","6502200","石門區"
"253004","6251-TK","2019/07/01 14:29:18","新北市石門區內阿里磅1號","121.592335","25.254515","6502200","石門區"
"253002","637-UY","2019/07/01 14:29:19","新北市石門區大溪墘2-4號","121.548856666667","25.2892366666667","6502200","石門區"
"253001","KEC-0718","2019/07/01 14:27:00","新北市石門區崁子腳65-1號","121.532058333333","25.2860233333333","6502200","石門區"
"208001","AAC-292","2019/07/01 14:29:31","新北市樹林區中山路三段210-2號","121.380703333333","24.96694","6502700","金山區"
"207002","749-BX","2019/07/01 14:29:18","新北市萬里區溪底里瑞泉路3號","121.609766666667","25.144665","6502800","萬里區"
"207001","662-BX","2019/07/01 14:29:27","新北市萬里區磺潭里清水9號","121.640526666667","25.1999716666667","6502800","萬里區"
"252005","AAC-283","2019/07/01 14:29:30","新北市三芝區埔坪里埔頭坑85號","121.507646666667","25.2544933333333","6502100","三芝區"
"236040","KED-0685","2019/07/01 14:29:34","新北市土城區裕民路67巷4弄2號","121.44977","24.987895","6501300","土城區"
"236074","166-UM","2019/07/01 14:29:17","新北市土城區中央路四段27巷10弄2號","121.424708333333","24.9618333333333","6501300","土城區"
"236029","253-BX","2019/07/01 14:29:28","新北市土城區水源街48號","121.440603333333","24.9758666666667","6501300","土城區"
"236024","269-VK","2019/07/01 14:29:33","新北市土城區承天路65號","121.439648333333","24.96371","6501300","土城區"
"236012","270-VK","2019/07/01 14:29:19","新北市土城區青雲路39巷7號","121.460395","24.987555","6501300","土城區"
"236032","271-VK","2019/07/01 14:29:31","新北市土城區明德路一段287巷12號","121.460948333333","24.9767666666667","6501300","土城區"
"247009","KED-0683","2019/07/01 14:29:29","新北市蘆洲區鷺江街58號","121.47715","25.0833716666667","6501400","蘆洲區"
"236064","KEA-2877","2019/07/01 14:29:21","新北市土城區永豐路340巷8-1號","121.474098333333","24.9769966666667","6501300","土城區"
"236016","401-BY","2019/07/01 14:29:35","新北市土城區永豐路202巷5-2號","121.466346666667","24.9832983333333","6501300","土城區"
"236057","912-UM","2019/07/01 14:29:15","新北市土城區中央路四段277-4號","121.412636666667","24.95406","6501300","土城區"
"236045","913-UM","2019/07/01 14:29:33","新北市土城區明德路一段309號","121.459616666667","24.9771183333333","6501300","土城區"
"236060","915-UM","2019/07/01 14:29:22","新北市土城區延壽路109巷23號","121.468343333333","24.99331","6501300","土城區"
"236054","AAC-216","2019/07/01 14:29:34","新北市土城區中華路一段243-8號","121.441133333333","24.9820716666667","6501300","土城區"
"221032","280-BY","2019/07/01 14:29:29","新北市汐止區連興街120號","121.653735","25.0624266666667","6501100","汐止區"
"221029","298-VK","2019/07/01 14:29:18","新北市新店區薏仁坑路自強巷1號","121.497713333333","24.957625","6501100","汐止區"
"220027","145-BY","2019/07/01 14:29:21","新北市板橋區公館街29號","121.461163333333","25.01539","6500100","板橋區"
"220028","200-UY","2019/07/01 14:29:33","新北市板橋區大觀路二段19巷29號","121.44781","25.0031366666667","6500100","板橋區"
"220030","610-BX","2019/07/01 14:29:23","新北市板橋區金門街369巷58號","121.427986666667","24.981865","6500100","板橋區"
"220050","245-BX","2019/07/01 14:29:12","新北市板橋區莊敬路220巷60號","121.471485","25.0207783333333","6500100","板橋區"
"220004","276-BY","2019/07/01 14:29:20","新北市板橋區信義路68-1號","121.457295","24.99357","6500100","板橋區"
"220020","277-BY","2019/07/01 14:29:19","新北市板橋區篤行路三段1號","121.429453333333","24.9877283333333","6500100","板橋區"
"220043","283-UM","2019/07/01 14:29:17","新北市板橋區吳鳳路50巷53弄1號","121.469155","25.0306483333333","6500100","板橋區"
"220019","283-VK","2019/07/01 14:29:21","新北市板橋區忠孝路48巷64號","121.46112","25.0001083333333","6500100","板橋區"
"220001","285-VK","2019/07/01 14:29:25","新北市板橋區永豐街122號","121.476505","25.0209483333333","6500100","板橋區"
"220031","286-VK","2019/07/01 14:29:32","新北市板橋區龍興街73巷45號","121.442078333333","25.0027916666667","6500100","板橋區"
"220029","287-VK","2019/07/01 14:29:16","新北市板橋區大觀路一段29巷131弄136號","121.45123","25.00395","6500100","板橋區"
"220039","288-VK","2019/07/01 14:29:26","新北市板橋區長江路一段48巷19弄1號","121.459495","25.0280283333333","6500100","板橋區"
"220009","295-UM","2019/07/01 14:29:18","新北市板橋區中山路一段265巷32號","121.468945","25.0149233333333","6500100","板橋區"
"220032","296-UM","2019/07/01 14:29:23","新北市板橋區篤行路三段玉平巷16號","121.428903333333","24.98737","6500100","板橋區"
"220023","303-R5","2019/07/01 14:29:27","新北市板橋區南雅南路一段77號","121.455658333333","25.0055733333333","6500100","板橋區"
"220010","305-R5","2019/07/01 14:29:19","新北市板橋區三民路二段139號","121.479163333333","25.0152116666667","6500100","板橋區"
"220047","317-R6","2019/07/01 14:29:23","新北市板橋區四維路230巷3號","121.464001666667","25.02802","6500100","板橋區"
"220038","487-VK","2019/07/01 14:29:16","新北市板橋區英士路13號","121.46196","25.0252033333333","6500100","板橋區"
"220037","491-VK","2019/07/01 14:29:21","新北市板橋區雙十路一段20號","121.477981666667","25.0242583333333","6500100","板橋區"
"220104","560-BX","2019/07/01 14:29:25","新北市板橋區中正路352號","121.454301666667","25.0237483333333","6500100","板橋區"
"220052","561-BX","2019/07/01 14:29:19","新北市板橋區陽明街29巷37號","121.46359","25.0226633333333","6500100","板橋區"
"220011","609-BX","2019/07/01 14:29:34","新北市板橋區三民路二段228號","121.478731666667","25.0113733333333","6500100","板橋區"
"220040","637-BX","2019/07/01 14:29:16","新北市板橋區文聖街123號","121.477928333333","25.0288383333333","6500100","板橋區"
"220005","686-BX","2019/07/01 14:29:33","新北市板橋區和平路29號","121.459741666667","24.9957433333333","6500100","板橋區"
"220025","687-BX","2019/07/01 14:29:26","新北市板橋區大觀路二段151號","121.445565","25.000845","6500100","板橋區"
"220042","689-BX","2019/07/01 14:29:28","新北市板橋區新海路389號","121.458923333333","25.0262416666667","6500100","板橋區"
"220002","741-BX","2019/07/01 14:28:08","新北市板橋區光明街80號","121.461786666667","25.0026083333333","6500100","板橋區"
"220051","KEA-2699","2019/07/01 14:29:14","新北市板橋區雙十路二段46巷6號","121.476018333333","25.0278666666667","6500100","板橋區"
"220003","827-TW","2019/07/01 14:29:29","新北市板橋區實踐路185號","121.46432","25.0033266666667","6500100","板橋區"
"220014","829-TW","2019/07/01 14:29:33","新北市板橋區長安街138巷7弄4號","121.473346666667","25.008355","6500100","板橋區"
"220016","831-TW","2019/07/01 14:29:21","新北市板橋區萬安街25號","121.484423333333","25.0229683333333","6500100","板橋區"
"220022","895-R6","2019/07/01 14:29:16","新北市板橋區北門街21號","121.456751666667","25.010975","6500100","板橋區"
"220021","985-R7","2019/07/01 14:29:35","新北市板橋區瑞安街2號","121.454253333333","25.0233416666667","6500100","板橋區"
"220046","AAC-210","2019/07/01 14:29:30","新北市板橋區文化路一段285巷2弄23號","121.464183333333","25.0195366666667","6500100","板橋區"
"220012","AAC-253","2019/07/01 14:29:32","新北市板橋區民權路3號","121.462998333333","25.00996","6500100","板橋區"
"235032","KEA-2873","2019/07/01 14:29:27","新北市中和區中山路二段136巷3弄4號","121.50134","25.003525","6500300","中和區"
"235028","KEA-2876","2019/07/01 14:29:26","新北市中和區南山路127巷9號","121.502795","24.9973066666667","6500300","中和區"
