"lineid","car","time","location","longitude","latitude","cityid","cityname"
"248007","KED-0815","2019/07/01 15:29:25","新北市五股區中興路一段1巷23號","121.469718333333","25.0707083333333","6501500","五股區"
"244001","248-BX","2019/07/01 15:29:31","新北市林口區粉寮路一段80號","121.397176666667","25.0792433333333","6501700","林口區"
"243002","297-R6","2019/07/01 15:29:17","新北市泰山區泰林路三段778號","121.401675","25.07241","6501600","泰山區"
"231030","002-UM","2019/07/01 15:29:28","新北市新店區安和路三段50號","121.518096666667","24.9822466666667","6500600","新店區"
"231005","046-UY","2019/07/01 15:29:21","新北市新店區建國路251號","121.537436666667","24.98264","6500600","新店區"
"231029","106-UY","2019/07/01 15:29:19","新北市新店區安康路三段549號","121.476555","24.94446","6500600","新店區"
"231018","107-UY","2019/07/01 15:28:58","新北市新店區溪園路253號","121.523221666667","24.9812333333333","6500600","新店區"
"231013","108-UY","2019/07/01 15:29:33","新北市新店區永業路81巷3弄1號","121.52988","24.9491616666667","6500600","新店區"
"231036","110-UY","2019/07/01 15:29:31","新北市新店區安祥路67巷2號","121.483818333333","24.95964","6500600","新店區"
"231039","187-VK","2019/07/01 15:29:30","新北市新店區寶元路一段87巷3號","121.543236666667","24.9853633333333","6500600","新店區"
"231023","260-TV","2019/07/01 15:29:23","新北市新店區五峰路26號","121.543631666667","24.9689666666667","6500600","新店區"
"231003","268-BY","2019/07/01 15:29:29","新北市新店區寶高路120巷1號","121.554596666667","24.9760533333333","6500600","新店區"
"231035","278-BY","2019/07/01 15:29:17","新北市新店區安興路69號","121.515861666667","24.975125","6500600","新店區"
"231014","AAD-862","2019/07/01 15:29:30","","121.563841666667","24.9559683333333","6500600","新店區"
"231038","3712-VJ","2019/07/01 15:29:33","新北市新店區安華路28-1號","121.519678333333","24.9609766666667","6500600","新店區"
"231024","4716-K9","2019/07/01 15:29:25","新北市新店區安和路三段4巷3號","121.520416666667","24.9808966666667","6500600","新店區"
"231025","4715-K9","2019/07/01 15:29:14","新北市新店區安民街2號","121.51529","24.9637733333333","6500600","新店區"
"231019","513-UM","2019/07/01 15:29:27","新北市新店區永福路61號","121.558035","24.9288083333333","6500600","新店區"
"231002","619-UM","2019/07/01 15:29:23","新北市新店區環河路180-3號","121.534946666667","24.9694583333333","6500600","新店區"
"231034","641-BX","2019/07/01 15:29:31","新北市新店區富貴街8巷1號","121.494248333333","24.9498066666667","6500600","新店區"
"231011","KED-0819","2019/07/01 15:29:18","新北市新店區文化路79號","121.54503","24.9826566666667","6500600","新店區"
"231031","718-UY","2019/07/01 15:29:32","新北市新店區和成街15巷31號","121.488798333333","24.9472383333333","6500600","新店區"
"231026","720-UM","2019/07/01 15:29:24","新北市新店區中正路263巷16號","121.53794","24.9729966666667","6500600","新店區"
"231028","897-TW","2019/07/01 15:29:29","新北市新店區僑信路105號","121.500386666667","24.9466333333333","6500600","新店區"
"231004","899-TW","2019/07/01 15:29:33","新北市新店區建國路99巷1號","121.5403","24.9771333333333","6500600","新店區"
"241011","013-R5","2019/07/01 15:29:28","新北市三重區成功路108巷8號","121.48592","25.050445","6500200","三重區"
"241029","060-VK","2019/07/01 15:29:33","新北市三重區中正南路269號","121.49326","25.0522316666667","6500200","三重區"
"241017","063-VK","2019/07/01 15:29:35","新北市三重區重新路四段121號","121.485078333333","25.0520916666667","6500200","三重區"
"251014","742-BX","2019/07/01 15:29:29","新北市三重區重新路四段121號","121.485521666667","25.052","6501000","淡水區"
"241018","268-UM","2019/07/01 15:29:16","新北市三重區重新路四段121號","121.48523","25.0521666666667","6500200","三重區"
"241013","270-UM","2019/07/01 15:29:30","新北市三重區重新路四段121號","121.484396666667","25.05223","6500200","三重區"
"241007","398-BY","2019/07/01 15:29:31","新北市三重區重新路四段121號","121.484861666667","25.0518683333333","6500200","三重區"
"241020","478-VK","2019/07/01 15:29:23","新北市三重區捷運路73號","121.482843333333","25.0555483333333","6500200","三重區"
"241022","743-BX","2019/07/01 15:29:28","新北市三重區重新路四段121號","121.48505","25.0520683333333","6500200","三重區"
"235030","003-UY","2019/07/01 15:29:36","新北市中和區中山路二段3巷22弄24號","121.505958333333","25.0045666666667","6500300","中和區"
"235019","183-VK","2019/07/01 15:29:26","新北市八里區中山路三段409號","121.368695","25.1345416666667","6500300","中和區"
"235014","4979-A6","2019/07/01 15:29:29","新北市中和區景平路385巷9弄17號","121.502255","24.9940683333333","6500300","中和區"
"235033","4980-A6","2019/07/01 15:29:17","新北市中和區中正路548號","121.487058333333","24.99449","6500300","中和區"
"235023","AAC-215","2019/07/01 15:29:35","新北市中和區員山路22-1號","121.483698333333","24.984865","6500300","中和區"
"247015","337-TH","2019/07/01 15:28:55","新北市八里區荖阡坑路34號","121.401896666667","25.1291766666667","6501400","蘆洲區"
"227001","400-TW","2019/07/01 15:29:25","新北市雙溪區三貂里政光路3-1號","121.850781666667","25.0630566666667","6502500","雙溪區"
"208001","AAC-292","2019/07/01 15:29:31","新北市金山區磺清路108巷2號","121.639846666667","25.2282966666667","6502700","金山區"
"207001","662-BX","2019/07/01 15:29:27","新北市萬里區龜吼里玉田路46-10號","121.683068333333","25.1893833333333","6502800","萬里區"
"236040","KED-0685","2019/07/01 15:29:33","新北市土城區學府路一段98巷15號","121.455758333333","24.9886716666667","6501300","土城區"
"236074","166-UM","2019/07/01 15:29:21","新北市土城區中央路四段480號","121.409466666667","24.9504783333333","6501300","土城區"
"236029","253-BX","2019/07/01 15:29:28","新北市土城區中央路一段242巷2弄2號","121.444313333333","24.9851266666667","6501300","土城區"
"236024","269-VK","2019/07/01 15:29:13","新北市土城區明德路二段102巷2號","121.445406666667","24.9842966666667","6501300","土城區"
"236012","270-VK","2019/07/01 15:29:19","新北市土城區廣興街43號","121.454991666667","24.9912633333333","6501300","土城區"
"236032","271-VK","2019/07/01 15:29:28","新北市土城區延吉街296巷5號","121.464336666667","24.98465","6501300","土城區"
"236064","KEA-2877","2019/07/01 15:29:21","新北市土城區中央路二段191號","121.442043333333","24.9754333333333","6501300","土城區"
"236016","401-BY","2019/07/01 15:29:28","新北市土城區延吉街137巷2弄2號","121.470685","24.986085","6501300","土城區"
"236057","912-UM","2019/07/01 15:29:15","新北市土城區城林路6巷80號","121.438801666667","24.9797233333333","6501300","土城區"
"236045","913-UM","2019/07/01 15:29:17","新北市土城區青雲路222號","121.458923333333","24.9812333333333","6501300","土城區"
"236060","915-UM","2019/07/01 15:29:22","新北市土城區延和路156巷2號","121.468116666667","24.9900966666667","6501300","土城區"
"236054","AAC-216","2019/07/01 15:29:34","新北市土城區延和路223號","121.470088333333","24.9894883333333","6501300","土城區"
"238002","755-BX","2019/07/01 15:29:25","新北市樹林區中興街20-10號","121.420926666667","24.9905233333333","6500700","樹林區"
"238010","601-UM","2019/07/01 15:29:27","新北市樹林區三福街2號","121.409121666667","25.017005","6500700","樹林區"
"238006","599-UM","2019/07/01 15:29:31","新北市樹林區太元街66號","121.418648333333","24.9791066666667","6500700","樹林區"
"238011","5061-A6","2019/07/01 15:29:33","新北市樹林區八德街212巷20號","121.415371666667","24.973325","6500700","樹林區"
"238005","KEA-2217","2019/07/01 15:29:25","新北市樹林區鎮前街281-4號","121.41831","24.985115","6500700","樹林區"
"238009","KEA-2213","2019/07/01 15:29:18","新北市樹林區仁愛街24號","121.422441666667","24.9820933333333","6500700","樹林區"
"238008","KEA-2539","2019/07/01 15:29:18","新北市樹林區柑園街一段64號","121.402515","24.9604866666667","6500700","樹林區"
"238012","303-VK","2019/07/01 15:29:17","新北市樹林區中山路一段205號","121.421146666667","24.9874466666667","6500700","樹林區"
"238004","283-BY","2019/07/01 15:29:31","新北市樹林區保安街二段333巷2號","121.412593333333","25.0076033333333","6500700","樹林區"
"238007","268-VK","2019/07/01 15:29:19","新北市樹林區俊英街116巷25號","121.428293333333","25.0060233333333","6500700","樹林區"
"238013","172-UY","2019/07/01 15:29:32","新北市樹林區新興街19巷34弄6號","121.401985","24.9733433333333","6500700","樹林區"
"238003","169-UY","2019/07/01 15:29:20","新北市樹林區中山路一段2-3號","121.424268333333","24.993275","6500700","樹林區"
"221032","280-BY","2019/07/01 15:29:28","新北市汐止區樟樹二路263號","121.640881666667","25.0687316666667","6501100","汐止區"
"220031","286-VK","2019/07/01 15:29:32","新北市板橋區僑中二街104巷20號","121.44524","25.0080333333333","6500100","板橋區"
"220005","686-BX","2019/07/01 15:29:29","新北市新莊區中平路377巷17弄56號","121.442428333333","25.051975","6500100","板橋區"
"220025","687-BX","2019/07/01 15:29:26","新北市板橋區大觀路二段265巷7-7號","121.44414","24.9945933333333","6500100","板橋區"
"220003","827-TW","2019/07/01 15:29:29","新北市板橋區仁愛路25號","121.458996666667","24.9995233333333","6500100","板橋區"
"220012","AAC-253","2019/07/01 15:29:20","新北市板橋區長安街331巷8號","121.474353333333","25.0123816666667","6500100","板橋區"
