"lineid","car","time","location","longitude","latitude","cityid","cityname"
"231058","0293-UT","2019/07/01 15:50:19","新北市新店區安華路28-1號","121.519551666667","24.9606366666667","6500600","新店區"
"231018","107-UY","2019/07/01 16:09:18","新北市新店區中正路694巷15號","121.535438333333","24.9908166666667","6500600","新店區"
"231003","268-BY","2019/07/01 16:09:29","新北市新店區安和路一段2-3號","121.517183333333","24.9643716666667","6500600","新店區"
"231035","278-BY","2019/07/01 16:09:17","新北市新店區薏仁坑路自強巷1號","121.4977","24.957575","6500600","新店區"
"231034","641-BX","2019/07/01 16:09:25","新北市新店區安康路三段31巷2弄24號","121.49281","24.9520133333333","6500600","新店區"
"231046","719-UM","2019/07/01 16:09:29","新北市新店區華潭街22號","121.529168333333","24.9526533333333","6500600","新店區"
"241011","013-R5","2019/07/01 16:09:28","新北市三重區正義北路337號","121.493575","25.0715416666667","6500200","三重區"
"241028","022-UY","2019/07/01 16:09:21","新北市三重區正義南路111號","121.498281666667","25.058575","6500200","三重區"
"241008","059-VK","2019/07/01 16:09:24","新北市三重區中正北路317巷9號","121.474638333333","25.0728183333333","6500200","三重區"
"241029","060-VK","2019/07/01 16:09:33","新北市三重區同安街72號","121.49538","25.05654","6500200","三重區"
"241031","061-VK","2019/07/01 16:09:31","新北市三重區重新路四段121號","121.485148333333","25.0525883333333","6500200","三重區"
"241015","062-VK","2019/07/01 16:09:18","新北市三重區三和路一段2號","121.503955","25.0642583333333","6500200","三重區"
"241017","063-VK","2019/07/01 16:09:35","新北市三重區民生街80號","121.490475","25.0645983333333","6500200","三重區"
"241024","065-VK","2019/07/01 16:09:30","新北市三重區中正北路145巷9弄9號","121.485306666667","25.067775","6500200","三重區"
"241001","066-VK","2019/07/01 16:09:27","新北市三重區自強路四段80號","121.490645","25.078885","6500200","三重區"
"241002","090-VK","2019/07/01 16:09:22","新北市三重區仁義街91號","121.499821666667","25.07947","6500200","三重區"
"241005","262-UM","2019/07/01 16:09:18","新北市三重區溪尾街327號","121.488293333333","25.0848733333333","6500200","三重區"
"241016","266-UM","2019/07/01 16:09:24","新北市三重區大仁街86號","121.492818333333","25.0654316666667","6500200","三重區"
"241018","268-UM","2019/07/01 16:09:15","新北市三重區大仁街30-1號","121.491536666667","25.0639366666667","6500200","三重區"
"241013","270-UM","2019/07/01 16:09:30","新北市三重區安樂街21號","121.496586666667","25.06974","6500200","三重區"
"241007","398-BY","2019/07/01 16:09:31","新北市三重區三和路四段145巷7號","121.48453","25.07836","6500200","三重區"
"241004","475-VK","2019/07/01 16:09:26","新北市三重區五華街74號","121.493463333333","25.08197","6500200","三重區"
"241020","478-VK","2019/07/01 16:09:23","新北市三重區車路頭街33號","121.483913333333","25.0708616666667","6500200","三重區"
"241026","480-VK","2019/07/01 16:09:33","新北市三重區正義南路17號","121.497725","25.0614733333333","6500200","三重區"
"241014","543-UM","2019/07/01 16:09:34","新北市三重區福德南路65巷2號","121.502826666667","25.06039","6500200","三重區"
"241023","545-UM","2019/07/01 16:09:28","新北市三重區力行路一段58巷3號","121.484301666667","25.068895","6500200","三重區"
"241006","AAD-863","2019/07/01 16:09:26","新北市三重區頂崁街212號","121.477165","25.06765","6500200","三重區"
"241022","743-BX","2019/07/01 16:09:28","新北市三重區新北大道一段9號","121.489141666667","25.061335","6500200","三重區"
"241025","887-TS","2019/07/01 16:09:34","新北市三重區忠孝路三段40巷10號","121.482115","25.066445","6500200","三重區"
"241012","941-UM","2019/07/01 16:09:22","新北市三重區自強路一段64號","121.497293333333","25.066465","6500200","三重區"
"241033","AAC-255","2019/07/01 16:09:32","新北市三重區五谷王南街48-1號","121.474355","25.0447883333333","6500200","三重區"
"235019","183-VK","2019/07/01 16:09:26","新北市中和區中正路831號","121.484708333333","25.0021466666667","6500300","中和區"
"235026","800-TS","2019/07/01 16:09:30","新北市中和區建八路166號","121.490213333333","24.9985733333333","6500300","中和區"
"235054","911-UM","2019/07/01 15:49:39","新北市中和區員山路36巷16-2號","121.485166666667","24.9918133333333","6500300","中和區"
"247008","341-TH","2019/07/01 15:46:56","新北市五股區中興路三段163號","121.449316666667","25.0808083333333","6501400","蘆洲區"
"224007","285-BY","2019/07/01 16:09:31","新北市瑞芳區粗坑口路1巷28號","121.763056666667","25.0944433333333","6501200","瑞芳區"
"227001","642-TC","2019/07/01 16:09:32","新北市雙溪區三港里雙澳路35-1號","121.868526666667","25.0501033333333","6502500","雙溪區"
"227001","400-TW","2019/07/01 16:09:25","新北市雙溪區上林里內平林72號","121.829396666667","25.02924","6502500","雙溪區"
"251008","181-VK","2019/07/01 16:09:25","新北市淡水區中正路二段31號","121.419345","25.1822483333333","6501000","淡水區"
"251013","182-VK","2019/07/01 15:59:33","新北市淡水區中正路二段22巷8號","121.420541666667","25.181565","6501000","淡水區"
"251014","577-R6","2019/07/01 16:09:18","新北市淡水區中正路二段31號","121.419581666667","25.18128","6501000","淡水區"
"247010","KED-0683","2019/07/01 15:48:25","新北市五股區中興路三段163號","121.449341666667","25.0806316666667","6501400","蘆洲區"
"236057","912-UM","2019/07/01 16:09:15","新北市土城區中央路三段30號","121.438575","24.969135","6501300","土城區"
"238002","755-BX","2019/07/01 16:09:25","新北市樹林區文化街116巷1號","121.416183333333","24.9895633333333","6500700","樹林區"
"238010","601-UM","2019/07/01 16:09:26","新北市樹林區忠信街15號","121.407655","25.0150116666667","6500700","樹林區"
"238006","599-UM","2019/07/01 16:09:31","新北市樹林區中華路190-6號","121.41076","24.9807316666667","6500700","樹林區"
"238011","5061-A6","2019/07/01 16:09:33","新北市樹林區八德街1158號","121.390616666667","24.9683616666667","6500700","樹林區"
"238012","303-VK","2019/07/01 16:09:36","新北市樹林區中正路22-1號","121.427838333333","24.9994066666667","6500700","樹林區"
"238001","282-BY","2019/07/01 16:09:37","新北市樹林區千歲街70巷1弄22號","121.426966666667","24.997635","6500700","樹林區"
"238007","268-VK","2019/07/01 16:09:17","新北市樹林區三俊街65巷18弄18號","121.414486666667","25.01704","6500700","樹林區"
"238013","172-UY","2019/07/01 16:09:32","新北市樹林區八德街624號","121.397043333333","24.96973","6500700","樹林區"
"238003","169-UY","2019/07/01 16:09:20","新北市樹林區中山路一段276號","121.420543333333","24.9870833333333","6500700","樹林區"
"221032","280-BY","2019/07/01 16:09:23","新北市汐止區汐萬路一段256巷3號","121.652726666667","25.074545","6501100","汐止區"
