"lineid","car","time","location","longitude","latitude","cityid","cityname"
"249005","172-UM","2019/07/01 16:39:30","新北市八里區忠孝路298號","121.41836","25.161335","6502300","八里區"
"249002","305-UY","2019/07/01 16:39:26","新北市八里區大堀湖8號","121.426883333333","25.1496816666667","6502300","八里區"
"249003","593-UM","2019/07/01 16:39:20","新北市八里區博物館路159號","121.407031666667","25.1579","6502300","八里區"
"244023","483-VK","2019/07/01 16:39:17","新北市林口區粉寮69號","121.405076666667","25.09079","6501700","林口區"
"244009","656-BX","2019/07/01 16:39:31","新北市林口區粉寮69號","121.405046666667","25.0908533333333","6501700","林口區"
"231046","719-UM","2019/07/01 16:39:29","新北市新店區灣潭路3-3號","121.538236666667","24.950815","6500600","新店區"
"241011","013-R5","2019/07/01 16:39:28","新北市三重區仁愛街49號","121.496648333333","25.0717616666667","6500200","三重區"
"241028","022-UY","2019/07/01 16:39:21","新北市三重區重新路三段40號","121.494466666667","25.06139","6500200","三重區"
"241008","059-VK","2019/07/01 16:39:24","新北市三重區永安北路一段27巷27號","121.477286666667","25.0754366666667","6500200","三重區"
"241029","060-VK","2019/07/01 16:39:33","新北市三重區集美街168號","121.490115","25.0530116666667","6500200","三重區"
"241031","061-VK","2019/07/01 16:39:35","新北市三重區重新路四段41巷10號","121.487636666667","25.0578016666667","6500200","三重區"
"241015","062-VK","2019/07/01 16:39:18","新北市三重區文化北路41號","121.498863333333","25.065205","6500200","三重區"
"241017","063-VK","2019/07/01 16:39:15","新北市三重區中正北路25巷9號","121.492656666667","25.0622166666667","6500200","三重區"
"241024","065-VK","2019/07/01 16:39:30","新北市三重區中正北路315巷6弄74號","121.476966666667","25.0724616666667","6500200","三重區"
"241001","066-VK","2019/07/01 16:39:27","新北市三重區仁政街85號","121.492618333333","25.07773","6500200","三重區"
"241002","090-VK","2019/07/01 16:39:29","新北市三重區仁義街241巷9號","121.496655","25.08279","6500200","三重區"
"241003","091-VK","2019/07/01 16:39:23","新北市三重區五華街71巷63號","121.49378","25.0834966666667","6500200","三重區"
"241005","262-UM","2019/07/01 16:39:18","新北市三重區仁華街118巷15號","121.486185","25.0834166666667","6500200","三重區"
"241016","266-UM","2019/07/01 16:39:24","新北市三重區大智街13號","121.494603333333","25.0651833333333","6500200","三重區"
"241009","267-UM","2019/07/01 16:39:24","新北市三重區三和路四段203巷38號","121.482936666667","25.0796733333333","6500200","三重區"
"241018","268-UM","2019/07/01 16:39:15","新北市三重區六張街85-1號","121.492975","25.0701666666667","6500200","三重區"
"241032","269-UM","2019/07/01 16:39:33","新北市三重區新北大道一段31號","121.486183333333","25.061375","6500200","三重區"
"241013","270-UM","2019/07/01 16:39:30","新北市三重區三和路三段101巷46號","121.495595","25.0728966666667","6500200","三重區"
"241007","398-BY","2019/07/01 16:39:31","新北市三重區三和路四段163巷83號","121.486138333333","25.07942","6500200","三重區"
"241004","475-VK","2019/07/01 16:39:26","新北市三重區五福街16號","121.492835","25.0814766666667","6500200","三重區"
"241020","478-VK","2019/07/01 16:39:35","新北市三重區後竹圍街206號","121.486055","25.0717416666667","6500200","三重區"
"241026","480-VK","2019/07/01 16:39:33","新北市三重區和平街30號","121.501591666667","25.062615","6500200","三重區"
"241014","543-UM","2019/07/01 16:39:33","新北市三重區長安街120號","121.502945","25.067965","6500200","三重區"
"241023","545-UM","2019/07/01 16:39:27","新北市三重區忠孝路三段50巷43號","121.482826666667","25.064425","6500200","三重區"
"241019","KEA-2593","2019/07/01 16:39:34","新北市三重區力行路一段153-2號","121.485243333333","25.0688516666667","6500200","三重區"
"241006","AAD-863","2019/07/01 16:39:26","新北市三重區力行路二段136巷23弄26號","121.481241666667","25.0762316666667","6500200","三重區"
"241022","743-BX","2019/07/01 16:38:28","新北市三重區貴陽街14號","121.484233333333","25.0618216666667","6500200","三重區"
"241025","887-TS","2019/07/01 16:39:29","新北市三重區中正北路430-2號","121.474451666667","25.0708283333333","6500200","三重區"
"241012","941-UM","2019/07/01 16:39:22","新北市三重區仁興街5號","121.49996","25.073835","6500200","三重區"
"241033","AAC-255","2019/07/01 16:39:32","新北市三重區光復路二段131號","121.472076666667","25.0588483333333","6500200","三重區"
"235066","003-UY","2019/07/01 16:15:46","新北市中和區員山路36巷16-3號","121.484848333333","24.9912916666667","6500300","中和區"
"235062","800-TS","2019/07/01 16:39:30","新北市中和區員山路36巷16-3號","121.485185","24.9913533333333","6500300","中和區"
"235054","911-UM","2019/07/01 16:39:18","新北市中和區員山路36巷16-2號","121.485223333333","24.9917866666667","6500300","中和區"
"247008","341-TH","2019/07/01 16:39:25","新北市蘆洲區中山一路240號","121.472405","25.0799583333333","6501400","蘆洲區"
"247012","056-VK","2019/07/01 16:39:24","新北市五股區中興路三段163號","121.449253333333","25.08067","6501400","蘆洲區"
"224007","285-BY","2019/07/01 16:39:31","新北市瑞芳區中央路37號","121.761978333333","25.10311","6501200","瑞芳區"
"224009","275-VK","2019/07/01 16:39:31","新北市瑞芳區明燈路三段108號","121.805055","25.108405","6501200","瑞芳區"
"224005","271-BY","2019/07/01 16:39:20","新北市瑞芳區洞頂路210-4號","121.861375","25.12462","6501200","瑞芳區"
"227001","642-TC","2019/07/01 16:39:33","新北市雙溪區牡丹里聖南35號","121.853386666667","25.0559333333333","6502500","雙溪區"
"227002","400-TW","2019/07/01 16:39:25","新北市雙溪區長源里土地公山1-1號","121.799513333333","25.0132183333333","6502500","雙溪區"
"251015","KEA-2871","2019/07/01 16:39:22","新北市淡水區濱海路一段151號","121.438986666667","25.189465","6501000","淡水區"
"251016","179-VK","2019/07/01 16:39:32","新北市淡水區中山北路一段261號","121.444595","25.180885","6501000","淡水區"
"251008","181-VK","2019/07/01 16:39:25","新北市淡水區樹梅坑9號","121.47283","25.1427083333333","6501000","淡水區"
"251013","182-VK","2019/07/01 16:39:33","新北市淡水區楓樹湖2-3號","121.496196666667","25.1865483333333","6501000","淡水區"
"251014","577-R6","2019/07/01 16:39:18","新北市淡水區淡金路四段478號","121.452446666667","25.2239216666667","6501000","淡水區"
"251011","650-BX","2019/07/01 16:39:27","新北市淡水區中正路二段31號","121.419316666667","25.18167","6501000","淡水區"
"252002","178-VK","2019/07/01 16:39:33","新北市三芝區晴光街1號","121.510383333333","25.2579133333333","6502100","三芝區"
"247010","KED-0683","2019/07/01 16:39:30","新北市五股區中興路三段163號","121.449305","25.0807533333333","6501400","蘆洲區"
"252001","KED-0821","2019/07/01 16:39:23","新北市三芝區茂長里陳厝坑3-5號","121.510353333333","25.2641983333333","6502100","三芝區"
"238023","601-UM","2019/07/01 16:39:26","新北市樹林區大安路305號","121.417755","24.9922383333333","6500700","樹林區"
"238025","303-VK","2019/07/01 16:39:16","新北市樹林區中正路22-1號","121.427818333333","24.9994416666667","6500700","樹林區"
"238001","282-BY","2019/07/01 16:39:16","新北市樹林區大慶街99-1號","121.427721666667","24.9997216666667","6500700","樹林區"
"233001","KEA-2870","2019/07/01 16:39:24","","121.56514","24.8560233333333","6502900","烏來區"
