"lineid","car","time","location","longitude","latitude","cityid","cityname"
"249005","172-UM","2019/07/01 17:29:30","新北市八里區荖阡坑路69-2號","121.407486666667","25.126135","6502300","八里區"
"249001","173-UM","2019/07/01 17:29:24","新北市八里區中華路一段1-5號","121.423351666667","25.158635","6502300","八里區"
"249004","303-UY","2019/07/01 17:29:20","新北市八里區民有街78-2號","121.41489","25.1562066666667","6502300","八里區"
"249002","305-UY","2019/07/01 17:29:26","新北市八里區龍米路二段115號","121.447076666667","25.1431483333333","6502300","八里區"
"249003","593-UM","2019/07/01 17:29:20","新北市八里區中山路二段398號","121.400636666667","25.1478616666667","6502300","八里區"
"244007","080-UY","2019/07/01 17:29:38","新北市林口區中華路283號","121.383798333333","25.0908383333333","6501700","林口區"
"244019","402-UM","2019/07/01 17:29:34","新北市林口區公園路170號","121.372476666667","25.072125","6501700","林口區"
"244013","KEA-2802","2019/07/01 17:29:17","新北市林口區中山路255號","121.385491666667","25.0795683333333","6501700","林口區"
"244023","483-VK","2019/07/01 17:29:37","新北市林口區東明一街36號","121.392781666667","25.0725233333333","6501700","林口區"
"244017","485-VK","2019/07/01 17:29:24","新北市林口區文化二路一段170號","121.369191666667","25.0716266666667","6501700","林口區"
"244009","656-BX","2019/07/01 17:29:31","新北市林口區中北三街182號","121.383015","25.0824766666667","6501700","林口區"
"244011","701-TV","2019/07/01 17:29:17","新北市林口區佳林路148號","121.3842","25.077135","6501700","林口區"
"244025","837-TS","2019/07/01 17:29:32","新北市林口區文化三路一段394巷39號","121.367168333333","25.0715433333333","6501700","林口區"
"244021","838-TS","2019/07/01 17:29:35","新北市林口區粉寮路二段30號","121.403151666667","25.0865466666667","6501700","林口區"
"231058","0293-UT","2019/07/01 17:29:10","新北市新店區安華路28-1號","121.519485","24.9605833333333","6500600","新店區"
"231046","719-UM","2019/07/01 17:17:29","新北市新店區直潭六街64號","121.532235","24.9400216666667","6500600","新店區"
"241015","062-VK","2019/07/01 17:29:31","新北市三重區長元街65巷16弄15號","121.503518333333","25.0662733333333","6500200","三重區"
"241017","063-VK","2019/07/01 17:29:35","新北市三重區中正北路25巷25弄11號","121.493745","25.0627566666667","6500200","三重區"
"241003","091-VK","2019/07/01 17:29:23","新北市三重區集賢路18號","121.494178333333","25.087445","6500200","三重區"
"241005","262-UM","2019/07/01 17:29:37","新北市三重區永安北路二段43巷6號","121.482693333333","25.0827","6500200","三重區"
"241016","266-UM","2019/07/01 17:29:24","新北市三重區信義西街144號","121.495418333333","25.0640416666667","6500200","三重區"
"241009","267-UM","2019/07/01 17:29:24","新北市三重區車路頭街135-1號","121.48422","25.0759283333333","6500200","三重區"
"241018","268-UM","2019/07/01 17:29:35","新北市三重區中正北路25巷28號","121.493848333333","25.0632933333333","6500200","三重區"
"241032","269-UM","2019/07/01 17:29:33","新北市三重區名源街44號","121.482503333333","25.0595316666667","6500200","三重區"
"241007","398-BY","2019/07/01 17:29:31","新北市三重區三和路四段145巷98號","121.486781666667","25.0790416666667","6500200","三重區"
"241024","462-BY","2019/07/01 17:29:19","新北市三重區國道路一段58巷15號","121.48133","25.07201","6500200","三重區"
"241020","478-VK","2019/07/01 17:29:23","新北市三重區忠孝路二段7號","121.486906666667","25.071445","6500200","三重區"
"241026","480-VK","2019/07/01 17:29:33","新北市三重區文化南路46號","121.500388333333","25.0599483333333","6500200","三重區"
"241014","543-UM","2019/07/01 17:29:33","新北市三重區安和路17號","121.501385","25.06843","6500200","三重區"
"241019","KEA-2593","2019/07/01 17:29:34","新北市三重區自強路二段17號","121.489853333333","25.069175","6500200","三重區"
"241025","887-TS","2019/07/01 17:29:29","新北市三重區中正北路380號","121.476428333333","25.0698283333333","6500200","三重區"
"241012","941-UM","2019/07/01 17:29:22","新北市三重區仁福街64巷2號","121.497838333333","25.07474","6500200","三重區"
"241033","AAC-255","2019/07/01 17:29:32","新北市三重區興德路129號","121.470365","25.0531783333333","6500200","三重區"
"247004","893-R6","2019/07/01 17:29:32","新北市蘆洲區長安街237號","121.459355","25.0829633333333","6501400","蘆洲區"
"247018","546-UM","2019/07/01 17:29:35","新北市蘆洲區民權路144號","121.472878333333","25.0891683333333","6501400","蘆洲區"
"247014","500-BY","2019/07/01 17:29:25","新北市蘆洲區三民路33號","121.47545","25.082985","6501400","蘆洲區"
"247008","341-TH","2019/07/01 17:29:25","新北市蘆洲區民生街105號","121.473478333333","25.0786266666667","6501400","蘆洲區"
"247015","337-TH","2019/07/01 17:29:25","新北市蘆洲區長興路312號","121.46163","25.0922583333333","6501400","蘆洲區"
"247002","336-TH","2019/07/01 17:29:34","新北市蘆洲區永樂街38巷57弄12號","121.457773333333","25.0904133333333","6501400","蘆洲區"
"247022","057-VK","2019/07/01 17:29:28","新北市蘆洲區三民路277號","121.467798333333","25.089845","6501400","蘆洲區"
"247012","056-VK","2019/07/01 17:29:24","新北市蘆洲區民族路48號","121.476831666667","25.0846233333333","6501400","蘆洲區"
"247016","053-VK","2019/07/01 17:29:36","新北市蘆洲區光華路22巷40號","121.468323333333","25.0847766666667","6501400","蘆洲區"
"247020","007-UY","2019/07/01 17:29:29","新北市蘆洲區水湳街397號","121.47012","25.09386","6501400","蘆洲區"
"247006","002-UY","2019/07/01 17:29:31","新北市蘆洲區長安街22巷31弄25號","121.463821666667","25.080615","6501400","蘆洲區"
"228003","097-TW","2019/07/01 17:29:35","新北市貢寮區仁理村仁和路2-1號","121.923136666667","25.0486633333333","6502600","貢寮區"
"228002","663-BX","2019/07/01 17:29:29","新北市貢寮區福隆里福隆街14號","121.944901666667","25.0162983333333","6502600","貢寮區"
"228001","670-TC","2019/07/01 17:29:24","新北市貢寮區仁理村仁愛路39號","121.924955","25.0533633333333","6502600","貢寮區"
"224010","AGQ-8101","2019/07/01 17:29:29","新北市瑞芳區逢甲路72號","121.810565","25.1083133333333","6501200","瑞芳區"
"224006","676-BX","2019/07/01 17:29:35","新北市瑞芳區傑魚坑路96號","121.79222","25.11042","6501200","瑞芳區"
"224009","275-VK","2019/07/01 17:29:31","新北市瑞芳區汽車路9-13號","121.845846666667","25.1110416666667","6501200","瑞芳區"
"224008","273-VK","2019/07/01 17:29:22","新北市瑞芳區九芎橋路152號","121.833495","25.094825","6501200","瑞芳區"
"224005","271-BY","2019/07/01 17:29:20","新北市瑞芳區鼻頭路247號","121.910573333333","25.1226666666667","6501200","瑞芳區"
"227002","400-TW","2019/07/01 17:29:25","新北市雙溪區共和里東榮街42號","121.866126666667","25.0337166666667","6502500","雙溪區"
"251009","008-UM","2019/07/01 17:29:20","新北市淡水區新生街30巷13號","121.438943333333","25.1733","6501000","淡水區"
"251004","009-UM","2019/07/01 17:18:08","新北市淡水區中正東路二段103號","121.459045","25.1514466666667","6501000","淡水區"
"251005","010-UM","2019/07/01 17:29:24","新北市淡水區鄧公路33巷2號","121.451261666667","25.1710366666667","6501000","淡水區"
"251002","012-UM","2019/07/01 17:29:19","新北市淡水區中正路一段87巷1號","121.421666666667","25.1793616666667","6501000","淡水區"
"251015","KEA-2871","2019/07/01 17:29:22","新北市淡水區三空泉20號","121.46917","25.1656116666667","6501000","淡水區"
"251016","179-VK","2019/07/01 17:29:32","新北市淡水區埤島75-1號","121.453613333333","25.1947016666667","6501000","淡水區"
"251008","181-VK","2019/07/01 17:29:28","新北市淡水區大同路100巷1號","121.46225","25.139605","6501000","淡水區"
"251013","182-VK","2019/07/01 17:29:33","新北市淡水區大竹圍5號","121.466558333333","25.1951833333333","6501000","淡水區"
"251010","413-VK","2019/07/01 17:29:24","新北市淡水區中正路二段211號","121.426226666667","25.1891366666667","6501000","淡水區"
"251012","441-VK","2019/07/01 17:29:23","新北市淡水區北新路124號","121.448045","25.178275","6501000","淡水區"
"251007","442-VK","2019/07/01 17:29:25","新北市淡水區民生路47-4號","121.462043333333","25.1380183333333","6501000","淡水區"
"251006","561-UM","2019/07/01 17:29:21","新北市淡水區大仁街9號","121.442295","25.1749266666667","6501000","淡水區"
"251014","577-R6","2019/07/01 17:29:18","新北市淡水區公埔子18號","121.473586666667","25.2273833333333","6501000","淡水區"
"251011","650-BX","2019/07/01 17:29:27","新北市淡水區三空泉7-1號","121.475961666667","25.161235","6501000","淡水區"
"251003","673-BX","2019/07/01 17:29:21","新北市淡水區中山路159-1號","121.440788333333","25.1729033333333","6501000","淡水區"
"207003","550-UM","2019/07/01 17:29:20","新北市萬里區龜吼里亭路4號","121.683266666667","25.1898766666667","6502800","萬里區"
"207004","225-TW","2019/07/01 17:29:28","新北市萬里區萬里里景美路16號","121.686911666667","25.1734983333333","6502800","萬里區"
"252002","178-VK","2019/07/01 17:29:22","新北市三芝區忠孝街1-14號","121.505521666667","25.2539316666667","6502100","三芝區"
"237010","706-TV","2019/07/01 17:29:29","新北市三峽區中山路365-1號","121.358016666667","24.9367116666667","6500900","三峽區"
"233002","762-BX","2019/07/01 17:29:31","新北市烏來區環山路82巷30-1號","121.547141666667","24.8644816666667","6502900","烏來區"
"247010","KED-0683","2019/07/01 17:29:33","新北市蘆洲區鷺江街1號","121.479405","25.0828066666667","6501400","蘆洲區"
"252001","KED-0821","2019/07/01 17:29:23","新北市三芝區長安街119號","121.498035","25.259625","6502100","三芝區"
"242039","AAC-296","2019/07/01 17:29:31","新北市新莊區民安路292號","121.428013333333","25.0217233333333","6500500","新莊區"
"242060","986-R7","2019/07/01 17:29:23","新北市新莊區瓊林路172-2號","121.440781666667","25.0228083333333","6500500","新莊區"
"242002","751-BX","2019/07/01 17:29:21","新北市新莊區碧江街11號","121.455851666667","25.03492","6500500","新莊區"
"242029","615-BX","2019/07/01 17:29:22","新北市新莊區復興路二段174號","121.458596666667","25.0443766666667","6500500","新莊區"
"242027","613-BX","2019/07/01 17:29:39","新北市新莊區思源路32號","121.460276666667","25.0411633333333","6500500","新莊區"
"242058","612-BX","2019/07/01 17:29:34","新北市新莊區中正路400號","121.441571666667","25.033895","6500500","新莊區"
"242046","566-BX","2019/07/01 17:29:25","新北市新莊區新樹路65-5號","121.439436666667","25.0307933333333","6500500","新莊區"
"242050","497-BY","2019/07/01 17:29:25","新北市新莊區新樹路449巷18號","121.433433333333","25.0138983333333","6500500","新莊區"
"242048","442-UM","2019/07/01 17:29:29","新北市新莊區四維路210號","121.421275","25.0201083333333","6500500","新莊區"
"242004","440-UM","2019/07/01 17:29:19","新北市新莊區中港路276號","121.45296","25.0439783333333","6500500","新莊區"
"242042","415-TV","2019/07/01 17:29:34","新北市新莊區新樹路113巷33號","121.439523333333","25.0264233333333","6500500","新莊區"
"242011","413-TV","2019/07/01 17:29:19","新北市新莊區中港路469號","121.452386666667","25.0490666666667","6500500","新莊區"
"242025","362-BY","2019/07/01 17:29:18","新北市新莊區中港路281號","121.453135","25.0438666666667","6500500","新莊區"
"242023","353-BY","2019/07/01 17:29:21","新北市新莊區公園路150號","121.453153333333","25.0401116666667","6500500","新莊區"
"242013","132-UY","2019/07/01 17:29:34","新北市新莊區中誠街16巷3號","121.451893333333","25.0483783333333","6500500","新莊區"
"242036","135-UY","2019/07/01 17:29:23","新北市新莊區後港一路201號","121.434381666667","25.0283783333333","6500500","新莊區"
"242053","172-VK","2019/07/01 17:29:27","新北市新莊區瓊林南路187巷50-16號","121.436148333333","25.0066733333333","6500500","新莊區"
"242015","173-VK","2019/07/01 17:29:29","新北市新莊區新泰路161號","121.447713333333","25.036995","6500500","新莊區"
"242021","175-VK","2019/07/01 17:29:36","新北市新莊區中正路134號","121.452713333333","25.0362533333333","6500500","新莊區"
"242034","176-VK","2019/07/01 17:29:30","新北市新莊區新莊路453號","121.449651666667","25.0332433333333","6500500","新莊區"
"242019","KED-0687","2019/07/01 17:29:25","新北市新莊區中港路61號","121.455346666667","25.0385183333333","6500500","新莊區"
"242056","346-TH","2019/07/01 17:29:36","新北市新莊區新泰路8號","121.449738333333","25.0328566666667","6500500","新莊區"
"242007","349-TH","2019/07/01 17:29:16","新北市新莊區自強街45號","121.454666666667","25.04682","6500500","新莊區"
"242031","350-TH","2019/07/01 17:29:32","新北市新莊區新泰路413巷3號","121.443316666667","25.0444","6500500","新莊區"
"242017","351-TH","2019/07/01 17:29:20","新北市新莊區中華路一段103號","121.45274","25.043885","6500500","新莊區"
"238015","755-BX","2019/07/01 17:29:25","新北市樹林區保安街一段73號","121.42286","24.9950066666667","6500700","樹林區"
"238023","601-UM","2019/07/01 17:29:26","新北市樹林區三福街114號","121.406461666667","25.0163516666667","6500700","樹林區"
"238019","599-UM","2019/07/01 17:29:31","新北市樹林區八德街108號","121.421098333333","24.9798983333333","6500700","樹林區"
"238024","5061-A6","2019/07/01 17:29:25","新北市樹林區鎮前街160號","121.424408333333","24.9900416666667","6500700","樹林區"
"238018","KEA-2217","2019/07/01 17:29:30","新北市樹林區鎮前街143-2號","121.423913333333","24.9890066666667","6500700","樹林區"
"238022","KEA-2213","2019/07/01 17:29:18","新北市樹林區仁愛街35號","121.421881666667","24.9819166666667","6500700","樹林區"
"238021","KEA-2539","2019/07/01 17:29:24","新北市樹林區西圳街一段203巷38號","121.393643333333","24.9592166666667","6500700","樹林區"
"238025","303-VK","2019/07/01 17:29:36","新北市樹林區保安街二段161號","121.415228333333","25.0027816666667","6500700","樹林區"
"238017","283-BY","2019/07/01 17:29:30","新北市樹林區光武街29號","121.416563333333","25.006465","6500700","樹林區"
"238014","282-BY","2019/07/01 17:29:16","新北市樹林區保安街一段292號","121.419183333333","24.9972833333333","6500700","樹林區"
"238026","172-UY","2019/07/01 17:29:32","新北市樹林區中山路三段27巷3弄2號","121.401701666667","24.9742266666667","6500700","樹林區"
"238016","169-UY","2019/07/01 17:29:20","新北市樹林區中山路一段4號","121.424233333333","24.9930766666667","6500700","樹林區"
"239007","AAC-297","2019/07/01 17:29:21","新北市鶯歌區中山路290號","121.3439","24.9570233333333","6500800","鶯歌區"
"239006","891-R6","2019/07/01 17:29:22","新北市鶯歌區鶯桃路472巷26號","121.333298333333","24.965995","6500800","鶯歌區"
"239008","527-UM","2019/07/01 17:29:26","新北市鶯歌區永和街238號","121.337801666667","24.9721316666667","6500800","鶯歌區"
"239001","417-VK","2019/07/01 17:29:20","新北市鶯歌區高職西街104號","121.335938333333","24.941375","6500800","鶯歌區"
"239003","360-BY","2019/07/01 17:29:31","新北市鶯歌區德昌街11號","121.333526666667","24.9601916666667","6500800","鶯歌區"
"239002","359-BY","2019/07/01 17:29:27","新北市鶯歌區南雅路25號","121.349443333333","24.95425","6500800","鶯歌區"
"239004","193-VK","2019/07/01 17:29:21","新北市鶯歌區三鶯路12號","121.356535","24.9412066666667","6500800","鶯歌區"
"233001","KEA-2870","2019/07/01 17:29:27","","121.525968333333","24.83771","6502900","烏來區"
"242043","281-VK","2019/07/01 17:29:33","新北市新莊區富國路76號","121.419976666667","25.0259316666667","6500500","新莊區"
"242009","280-VK","2019/07/01 17:29:25","新北市新莊區中原路228號","121.453105","25.0545316666667","6500500","新莊區"
"235061","KEA-2875","2019/07/01 17:17:42","新北市中和區員山路36巷16-2號","121.485343333333","24.9916583333333","6500300","中和區"
