"lineid","car","time","location","longitude","latitude","cityid","cityname"
"234046","148-BY","2019/07/01 19:19:24","新北市永和區得和路373巷31弄2號","121.525141666667","25.0004766666667","6500400","永和區"
"234081","298-R6","2019/07/01 19:19:36","新北市永和區福和路46號","121.523645","25.008285","6500400","永和區"
"234038","336-UY","2019/07/01 19:19:33","新北市永和區民樂街59巷16號","121.527991666667","24.9982766666667","6500400","永和區"
"234064","337-UY","2019/07/01 19:19:38","新北市永和區永元路17巷6弄1號","121.521401666667","25.0007833333333","6500400","永和區"
"234086","338-UY","2019/07/01 19:19:21","新北市永和區永利路25號","121.518161666667","25.0059183333333","6500400","永和區"
"234070","552-UM","2019/07/01 19:19:29","新北市永和區豫溪街86號","121.518368333333","25.00998","6500400","永和區"
"234030","746-BX","2019/07/01 19:19:38","新北市永和區厚德街89號","121.523971666667","24.998825","6500400","永和區"
"234054","KEA-2590","2019/07/01 19:19:29","新北市永和區中興街37號","121.516265","25.0118183333333","6500400","永和區"
"234007","KED-0605","2019/07/01 19:19:20","新北市永和區永貞路375號","121.508253333333","25.008145","6500400","永和區"
"234013","KEA-2591","2019/07/01 19:19:25","新北市永和區信義路77號","121.512386666667","25.013255","6500400","永和區"
"234061","AAD-866","2019/07/01 19:19:24","新北市永和區秀朗路一段175號","121.517053333333","25.0037183333333","6500400","永和區"
"234042","862-TW","2019/07/01 19:19:37","新北市永和區保平路151巷10號","121.51048","25.0051516666667","6500400","永和區"
"234050","863-TW","2019/07/01 19:19:26","新北市永和區保福路二段88巷27號","121.511846666667","25.01368","6500400","永和區"
"234026","9371-KE","2019/07/01 19:19:26","","121.515181666667","24.9997066666667","6500400","永和區"
"234011","9373-KE","2019/07/01 19:19:24","新北市永和區保福路二段23巷25號","121.509886666667","25.0112283333333","6500400","永和區"
"249001","173-UM","2019/07/01 19:19:23","新北市八里區中華路一段329-1號","121.4141","25.1543783333333","6502300","八里區"
"249003","593-UM","2019/07/01 19:19:23","新北市八里區中山路二段440號","121.39936","25.1476916666667","6502300","八里區"
"248008","KED-0815","2019/07/01 19:19:21","新北市五股區中興路二段37巷26號","121.460613333333","25.07502","6501500","五股區"
"248018","KED-0813","2019/07/01 19:19:35","","121.430463333333","25.088995","6501500","五股區"
"248012","247-BX","2019/07/01 19:19:31","","121.438636666667","25.0834016666667","6501500","五股區"
"248014","261-SL","2019/07/01 19:19:41","新北市五股區民義路一段163-2號","121.432033333333","25.087775","6501500","五股區"
"248004","677-BX","2019/07/01 19:19:36","","121.431911666667","25.0912516666667","6501500","五股區"
"248002","678-BX","2019/07/01 19:19:38","新北市五股區凌雲路一段158巷13號","121.447723333333","25.10346","6501500","五股區"
"248010","682-TV","2019/07/01 19:19:32","新北市五股區水碓一路23號","121.430603333333","25.0713033333333","6501500","五股區"
"234023","9380-KE","2019/07/01 19:19:35","新北市永和區竹林路109巷8號","121.520305","25.0119416666667","6500400","永和區"
"234077","969-R7","2019/07/01 19:19:22","新北市永和區民族街42號","121.518338333333","24.9988116666667","6500400","永和區"
"234074","AAC-211","2019/07/01 19:19:21","新北市永和區竹林路54號","121.517823333333","25.0139816666667","6500400","永和區"
"234067","AAC-212","2019/07/01 19:19:37","新北市永和區保平路52號","121.511405","25.007025","6500400","永和區"
"234003","AAC-295","2019/07/01 19:19:35","","121.51097","25.01047","6500400","永和區"
"244023","483-VK","2019/07/01 19:19:37","新北市林口區仁愛路二段690號","121.369605","25.0804816666667","6501700","林口區"
"244025","837-TS","2019/07/01 19:19:31","新北市林口區文化三路一段555巷50號","121.369761666667","25.0769883333333","6501700","林口區"
"243011","267-VK","2019/07/01 19:19:29","新北市泰山區貴子路15巷6弄2號","121.426753333333","25.0425333333333","6501600","泰山區"
"243012","AAD-798","2019/07/01 19:19:32","新北市泰山區同義街43號","121.431693333333","25.0561066666667","6501600","泰山區"
"243010","297-R6","2019/07/01 19:19:30","新北市泰山區明志路一段492巷7號","121.429915","25.05479","6501600","泰山區"
"243014","KEA-2801","2019/07/01 19:19:40","新北市泰山區泰林路二段158號","121.433948333333","25.0602883333333","6501600","泰山區"
"243016","421-VK","2019/07/01 19:19:23","新北市泰山區工專路57號","121.422668333333","25.0403766666667","6501600","泰山區"
"243009","KEA-2215","2019/07/01 19:19:34","新北市泰山區明志路一段117巷26號","121.434296666667","25.0635916666667","6501600","泰山區"
"243013","646-TV","2019/07/01 19:19:35","新北市泰山區明志路三段145巷2弄12號","121.425106666667","25.03953","6501600","泰山區"
"243015","680-BX","2019/07/01 19:19:37","新北市泰山區公園路71號","121.426346666667","25.0553916666667","6501600","泰山區"
"222003","436-BY","2019/07/01 19:19:33","新北市深坑區深南路204號","121.626646666667","25.0160033333333","6501800","深坑區"
"222002","659-BX","2019/07/01 19:19:23","新北市深坑區北深路一段210號","121.633031666667","25.0109516666667","6501800","深坑區"
"231061","002-UM","2019/07/01 19:19:34","新北市新店區安康路一段46巷4號","121.530623333333","24.961085","6500600","新店區"
"231058","0293-UT","2019/07/01 19:19:24","新北市新店區光明街224巷14號","121.540686666667","24.9625233333333","6500600","新店區"
"231044","046-UY","2019/07/01 19:19:24","新北市新店區中興路三段293號","121.542331666667","24.98497","6500600","新店區"
"231060","106-UY","2019/07/01 19:19:31","新北市新店區安康路二段156號","121.512313333333","24.9608783333333","6500600","新店區"
"231051","107-UY","2019/07/01 19:19:32","新北市新店區百忍街46號","121.53338","24.97615","6500600","新店區"
"231049","108-UY","2019/07/01 19:19:21","新北市新店區明德路64號","121.541585","24.9794533333333","6500600","新店區"
"231065","110-UY","2019/07/01 19:19:28","新北市新店區安祥路110巷51-1號","121.473578333333","24.9566833333333","6500600","新店區"
"231054","260-TV","2019/07/01 19:19:38","新北市新店區文中路54號","121.540153333333","24.956525","6500600","新店區"
"231042","268-BY","2019/07/01 19:19:29","新北市新店區北宜路一段3號","121.538406666667","24.9585166666667","6500600","新店區"
"231064","278-BY","2019/07/01 19:19:29","新北市新店區安忠路57巷26弄15號","121.512736666667","24.95851","6500600","新店區"
"231050","AAD-862","2019/07/01 19:19:29","新北市新店區竹林路69號","121.553321666667","24.9513283333333","6500600","新店區"
"231045","355-BY","2019/07/01 19:19:31","新北市新店區北宜路一段260號","121.545693333333","24.9527566666667","6500600","新店區"
"231056","4715-K9","2019/07/01 19:19:25","新北市新店區薏仁坑路6-3號","121.499698333333","24.95869","6500600","新店區"
"231067","4772-VM","2019/07/01 19:19:37","新北市新店區安康路一段263巷7號","121.52408","24.96245","6500600","新店區"
"231052","513-UM","2019/07/01 19:19:33","新北市新店區自強路169號","121.546506666667","24.9205366666667","6500600","新店區"
"231041","619-UM","2019/07/01 19:19:28","新北市新店區溪園路249號","121.523728333333","24.9819933333333","6500600","新店區"
"231063","641-BX","2019/07/01 19:19:30","新北市新店區達觀路10號","121.503531666667","24.9435766666667","6500600","新店區"
"231047","KED-0819","2019/07/01 19:19:21","新北市新店區中興路二段57巷15號","121.545778333333","24.970805","6500600","新店區"
"231062","718-UY","2019/07/01 19:19:25","新北市新店區安康路一段156號","121.526266666667","24.962925","6500600","新店區"
"231046","719-UM","2019/07/01 19:19:29","新北市新店區華城路12-1號","121.529265","24.957845","6500600","新店區"
"231057","720-UM","2019/07/01 19:19:36","新北市新店區百齡一路12號","121.553088333333","24.93246","6500600","新店區"
"231059","897-TW","2019/07/01 19:19:33","新北市新店區安和路二段218-1號","121.517993333333","24.97518","6500600","新店區"
"231040","898-TW","2019/07/01 19:19:36","新北市新店區三民路109號","121.535103333333","24.9721283333333","6500600","新店區"
"231043","899-TW","2019/07/01 19:19:28","新北市新店區北新路二段107號","121.542926666667","24.9745966666667","6500600","新店區"
"231066","AKT-0513","2019/07/01 19:19:34","新北市新店區安祥路35-2號","121.490675","24.956715","6500600","新店區"
"241029","060-VK","2019/07/01 19:19:33","新北市三重區重安街32號","121.490611666667","25.0578866666667","6500200","三重區"
"241031","061-VK","2019/07/01 19:19:31","新北市三重區重新路四段230號","121.485933333333","25.053895","6500200","三重區"
"241017","063-VK","2019/07/01 19:19:35","新北市三重區大同北路158號","121.492303333333","25.0655266666667","6500200","三重區"
"241009","267-UM","2019/07/01 19:19:24","新北市三重區溪尾街218巷37-6號","121.486446666667","25.081185","6500200","三重區"
"241032","269-UM","2019/07/01 19:19:30","新北市三重區新生街80號","121.484108333333","25.0593633333333","6500200","三重區"
"241035","KEA-2210","2019/07/01 19:19:38","新北市三重區信義西街138號","121.495398333333","25.0643866666667","6500200","三重區"
"241013","475-VK","2019/07/01 19:19:26","新北市三重區仁愛街99號","121.495843333333","25.0737416666667","6500200","三重區"
"241020","478-VK","2019/07/01 19:19:33","新北市三重區大智街183號","121.489418333333","25.073015","6500200","三重區"
"241026","480-VK","2019/07/01 19:19:33","新北市三重區重安街170巷4號","121.496211666667","25.0546383333333","6500200","三重區"
"241022","743-BX","2019/07/01 19:19:36","新北市三重區重陽路二段50號","121.487238333333","25.06339","6500200","三重區"
"235066","003-UY","2019/07/01 19:19:34","新北市中和區中和路102號","121.502678333333","24.99971","6500300","中和區"
"235063","006-UY","2019/07/01 19:19:26","新北市中和區連勝街157號","121.494328333333","24.9965116666667","6500300","中和區"
"235056","096-UM","2019/07/01 19:19:32","新北市中和區員山路482號","121.479835","25.0068366666667","6500300","中和區"
"235039","097-UM","2019/07/01 19:19:30","新北市中和區秀峰街103巷2弄4號","121.520028333333","24.9905233333333","6500300","中和區"
"235065","098-UM","2019/07/01 19:19:40","新北市中和區中山路二段64巷14弄1號","121.503398333333","25.005565","6500300","中和區"
"235040","150-BY","2019/07/01 19:19:32","新北市中和區安平路82號","121.511116666667","24.996655","6500300","中和區"
"235058","151-BY","2019/07/01 19:19:22","新北市中和區員山路36巷16-2號","121.485411666667","24.99143","6500300","中和區"
"235055","183-VK","2019/07/01 19:19:23","","121.468168333333","25.0031883333333","6500300","中和區"
"235038","185-VK","2019/07/01 19:19:25","新北市中和區大仁街96號","121.520263333333","24.9931583333333","6500300","中和區"
"235049","186-VK","2019/07/01 19:19:38","新北市中和區景新街279號","121.509463333333","24.993505","6500300","中和區"
"235044","293-VK","2019/07/01 19:19:37","新北市中和區復興路309號","121.501266666667","24.99027","6500300","中和區"
"235072","301-VK","2019/07/01 19:19:26","新北市中和區連城路144巷4弄11號","121.49561","24.9987433333333","6500300","中和區"
"235043","352-BY","2019/07/01 19:19:25","新北市中和區景平路404號","121.509135","24.9931133333333","6500300","中和區"
"235042","KEA-2878","2019/07/01 19:19:21","新北市中和區安樂路217巷40弄2號","121.513461666667","24.9980516666667","6500300","中和區"
"235050","4979-A6","2019/07/01 19:19:35","新北市中和區景安路208巷17號","121.503093333333","24.9914033333333","6500300","中和區"
"235069","4980-A6","2019/07/01 19:19:36","新北市中和區中山路二段181巷10號","121.50068","25.0023916666667","6500300","中和區"
"235070","558-UM","2019/07/01 19:19:37","新北市中和區中和路98號","121.501341666667","25.000325","6500300","中和區"
"235045","565-BX","2019/07/01 19:19:40","新北市中和區景新街423巷33弄49號","121.513508333333","24.9904116666667","6500300","中和區"
"235060","KED-0823","2019/07/01 19:19:39","新北市中和區新生街114巷13號","121.483043333333","25.0023566666667","6500300","中和區"
"235047","732-UM","2019/07/01 19:19:35","新北市中和區和平街38巷3號","121.50927","24.990795","6500300","中和區"
"235046","733-UM","2019/07/01 19:19:37","新北市中和區忠孝街2巷18號","121.510801666667","24.9812116666667","6500300","中和區"
"235071","783-BX","2019/07/01 19:19:35","新北市中和區連城路469巷69號","121.483468333333","24.9942183333333","6500300","中和區"
"235057","801-TS","2019/07/01 19:19:29","新北市中和區員山路406號","121.480405","25.004885","6500300","中和區"
"235041","802-TS","2019/07/01 19:19:37","新北市中和區中和路322號","121.509871666667","25.0008266666667","6500300","中和區"
"235052","805-TS","2019/07/01 19:19:24","新北市中和區華新街143巷11弄6號","121.506788333333","24.98113","6500300","中和區"
"235048","896-TW","2019/07/01 19:19:32","新北市中和區忠孝街112號","121.512155","24.9852983333333","6500300","中和區"
"235053","900-TW","2019/07/01 19:19:24","新北市中和區華安街17巷10號","121.467078333333","24.9982466666667","6500300","中和區"
"235054","911-UM","2019/07/01 19:19:27","新北市中和區國光街102巷11弄17號","121.470611666667","25.0016383333333","6500300","中和區"
"235051","157-BY","2019/07/01 19:19:36","新北市中和區捷運路12-3號","121.509123333333","24.9901233333333","6500300","中和區"
"235037","AAC-213","2019/07/01 19:19:35","","121.524486666667","24.9965033333333","6500300","中和區"
"235059","AAC-215","2019/07/01 19:19:27","新北市中和區圓通路369巷2-2號","121.49092","24.9893583333333","6500300","中和區"
"220065","072-UY","2019/07/01 19:19:37","新北市板橋區民族路129巷12弄1號","121.467923333333","25.0083833333333","6500100","板橋區"
"220086","073-UY","2019/07/01 19:19:32","新北市板橋區幸福路70巷1號","121.460608333333","25.02001","6500100","板橋區"
"220106","075-UY","2019/07/01 19:19:27","新北市板橋區江寧路三段125號","121.473553333333","25.0332266666667","6500100","板橋區"
"220069","AAD-861","2019/07/01 19:19:32","新北市板橋區稚暉街46巷1號","121.456423333333","25.0042666666667","6500100","板橋區"
"247015","337-TH","2019/07/01 18:53:26","新北市五股區中興路三段163號","121.449136666667","25.0807616666667","6501400","蘆洲區"
"226004","312-R5","2019/07/01 19:19:37","新北市平溪區靜安路三段152號","121.774791666667","25.03835","6502400","平溪區"
"228003","097-TW","2019/07/01 19:19:35","新北市貢寮區和美里和美街19-2號","121.912795","25.08261","6502600","貢寮區"
"228002","663-BX","2019/07/01 19:19:28","新北市貢寮區龍門里復興街14號","121.926523333333","25.0259933333333","6502600","貢寮區"
"228001","670-TC","2019/07/01 19:19:24","新北市貢寮區真理里新港街10號","121.925543333333","25.054405","6502600","貢寮區"
"224008","273-VK","2019/07/01 19:19:22","新北市瑞芳區明燈路三段189號","121.801588333333","25.1103516666667","6501200","瑞芳區"
"227001","642-TC","2019/07/01 19:19:37","新北市雙溪區新基里新基北街40號","121.868555","25.0380416666667","6502500","雙溪區"
"227002","400-TW","2019/07/01 19:19:25","新北市雙溪區平林里梅竹蹊66-1號","121.860155","25.035805","6502500","雙溪區"
"253006","032-BX","2019/07/01 19:19:21","新北市石門區崁子腳41-5號","121.533208333333","25.28751","6502200","石門區"
"253005","295-VK","2019/07/01 19:19:39","新北市石門區阿里荖4-7號","121.61257","25.2790733333333","6502200","石門區"
"222001","KEA-2212","2019/07/01 19:19:38","新北市深坑區北深路二段103號","121.617543333333","25.003465","6501800","深坑區"
"208002","KEA-2872","2019/07/01 19:19:31","新北市金山區中華路159號","121.63272","25.221855","6502700","金山區"
"208003","665-BX","2019/07/01 19:19:39","新北市金山區中山路165號","121.638736666667","25.2205633333333","6502700","金山區"
"251009","008-UM","2019/07/01 19:19:40","新北市淡水區清水街160號","121.440958333333","25.1705533333333","6501000","淡水區"
"251005","010-UM","2019/07/01 19:19:26","新北市淡水區水源街一段25號","121.44305","25.1723533333333","6501000","淡水區"
"251002","012-UM","2019/07/01 19:19:19","新北市淡水區文化路18號","121.439628333333","25.1726533333333","6501000","淡水區"
"251015","KEA-2871","2019/07/01 19:19:22","新北市淡水區山子邊3號","121.483883333333","25.18423","6501000","淡水區"
"251016","179-VK","2019/07/01 19:19:32","新北市淡水區淡金路三段350巷18號","121.45076","25.20833","6501000","淡水區"
"251008","181-VK","2019/07/01 19:19:25","新北市淡水區中正路二段397號","121.425265","25.1911016666667","6501000","淡水區"
"251013","182-VK","2019/07/01 19:19:33","新北市淡水區安子內12-1號","121.481486666667","25.2191366666667","6501000","淡水區"
"251010","413-VK","2019/07/01 19:19:24","新北市淡水區沙崙路28號","121.421458333333","25.1814183333333","6501000","淡水區"
"251007","442-VK","2019/07/01 19:19:25","新北市淡水區民生路143號","121.46576","25.1385033333333","6501000","淡水區"
"251001","559-UM","2019/07/01 19:19:29","新北市淡水區自強路201巷39號","121.462153333333","25.1268366666667","6501000","淡水區"
"251014","577-R6","2019/07/01 19:19:38","新北市淡水區小中寮19-7號","121.484743333333","25.2296033333333","6501000","淡水區"
"251003","673-BX","2019/07/01 19:19:21","新北市淡水區中山路189號","121.441323333333","25.1743416666667","6501000","淡水區"
"207003","550-UM","2019/07/01 19:19:40","新北市萬里區大鵬里萬里加投79-3號","121.647343333333","25.2123616666667","6502800","萬里區"
"207004","225-TW","2019/07/01 19:19:27","新北市萬里區萬里里成功新村65號","121.688418333333","25.1745716666667","6502800","萬里區"
"252002","178-VK","2019/07/01 19:19:22","新北市三芝區淡金路二段18-1號","121.502643333333","25.2595283333333","6502100","三芝區"
"208001","170-UY","2019/07/01 19:19:25","新北市金山區慈護街23號","121.639565","25.220135","6502700","金山區"
"237004","KEA-2597","2019/07/01 19:19:23","新北市三峽區有木205-1號","121.43901","24.8516166666667","6500900","三峽區"
"237007","153-BY","2019/07/01 19:19:33","新北市三峽區二鬮路178號","121.359091666667","24.9068233333333","6500900","三峽區"
"237009","210-TH","2019/07/01 19:19:38","新北市三峽區民生街227號","121.371248333333","24.9347483333333","6500900","三峽區"
"237013","252-BX","2019/07/01 19:19:35","新北市三峽區光明路75巷19號","121.377325","24.9280916666667","6500900","三峽區"
"237012","275-BY","2019/07/01 19:19:23","新北市三峽區三樹路222巷196-40號","121.390295","24.9428083333333","6500900","三峽區"
"237008","302-VK","2019/07/01 19:19:22","新北市三峽區大同路154號","121.37312","24.9267433333333","6500900","三峽區"
"237014","433-BY","2019/07/01 19:19:36","新北市三峽區中山路257巷39號","121.36211","24.9364816666667","6500900","三峽區"
"237006","5529-G3","2019/07/01 19:19:31","新北市三峽區介壽路二段167號","121.394831666667","24.9360883333333","6500900","三峽區"
"237011","KEA-2596","2019/07/01 19:19:24","新北市三峽區介壽路三段107號","121.395495","24.9392766666667","6500900","三峽區"
"237015","649-BX","2019/07/01 19:19:21","新北市三峽區安坑49號","121.460645","24.9321416666667","6500900","三峽區"
"237010","706-TV","2019/07/01 19:19:28","新北市三峽區國光街83-2號","121.373826666667","24.9385466666667","6500900","三峽區"
"237005","AKY-6261","2019/07/01 19:19:25","新北市三峽區隆恩街551號","121.356953333333","24.94008","6500900","三峽區"
"236042","KED-0685","2019/07/01 19:19:35","新北市土城區學府路一段239號","121.450413333333","24.9833766666667","6501300","土城區"
"236078","166-UM","2019/07/01 19:19:36","新北市土城區中央路四段321巷32-2號","121.412185","24.9510433333333","6501300","土城區"
"236026","269-VK","2019/07/01 19:19:32","新北市土城區中央路二段177巷20號","121.442593333333","24.9759283333333","6501300","土城區"
"236014","270-VK","2019/07/01 19:19:34","新北市土城區廣福街5號","121.45729","24.9888033333333","6501300","土城區"
"236069","KEA-2877","2019/07/01 19:19:19","新北市土城區中央路一段71號","121.44775","24.9896183333333","6501300","土城區"
"252001","KED-0821","2019/07/01 19:19:23","新北市三芝區長勤街9巷9弄1號","121.501761666667","25.255105","6502100","三芝區"
"236020","401-BY","2019/07/01 19:19:31","新北市土城區明峰街83號","121.468885","24.9874","6501300","土城區"
"236059","912-UM","2019/07/01 19:19:32","新北市土城區金城路一段49號","121.441186666667","24.96973","6501300","土城區"
"238015","755-BX","2019/07/01 19:19:19","新北市樹林區啟智街131號","121.417465","24.98875","6500700","樹林區"
"238023","601-UM","2019/07/01 19:19:26","新北市樹林區中正路865號","121.408788333333","25.0181033333333","6500700","樹林區"
"238019","599-UM","2019/07/01 19:19:31","新北市樹林區鎮前街347巷3弄25號","121.417346666667","24.983855","6500700","樹林區"
"238018","KEA-2217","2019/07/01 19:19:38","新北市樹林區中華路120號","121.417726666667","24.9807916666667","6500700","樹林區"
"238022","KEA-2213","2019/07/01 19:17:37","新北市樹林區中山路二段230號","121.40956","24.9806116666667","6500700","樹林區"
"238021","KEA-2539","2019/07/01 19:19:29","新北市樹林區柑園街二段203巷20號","121.376108333333","24.950805","6500700","樹林區"
"238025","303-VK","2019/07/01 19:19:36","新北市樹林區東興街3號","121.409816666667","24.98045","6500700","樹林區"
"238017","283-BY","2019/07/01 19:19:30","新北市樹林區保安街二段49號","121.416125","25.000255","6500700","樹林區"
"238014","282-BY","2019/07/01 19:19:36","新北市樹林區保安二街40巷18號","121.42558","24.99463","6500700","樹林區"
"238020","268-VK","2019/07/01 19:19:37","新北市樹林區俊英街123巷33號","121.423633333333","25.0104383333333","6500700","樹林區"
"238026","172-UY","2019/07/01 19:19:32","新北市樹林區地政街17號","121.394291666667","24.9717933333333","6500700","樹林區"
"238016","169-UY","2019/07/01 19:19:21","新北市樹林區中山路一段306巷51弄19號","121.418033333333","24.98563","6500700","樹林區"
"239007","AAC-297","2019/07/01 19:19:20","新北市鶯歌區大湖路余厝巷11號","121.341973333333","24.96124","6500800","鶯歌區"
"239006","891-R6","2019/07/01 19:19:22","新北市鶯歌區鶯桃路294-1號","121.334985","24.960395","6500800","鶯歌區"
"239008","527-UM","2019/07/01 19:19:26","新北市鶯歌區國際二路6巷6號","121.338601666667","24.9736516666667","6500800","鶯歌區"
"239005","526-UM","2019/07/01 19:19:19","新北市鶯歌區中湖街24號","121.346931666667","24.972695","6500800","鶯歌區"
"239001","417-VK","2019/07/01 19:19:20","新北市鶯歌區鶯桃路95巷9號","121.338651666667","24.9536816666667","6500800","鶯歌區"
"239003","360-BY","2019/07/01 19:19:31","新北市鶯歌區尖山埔路二段41號","121.342551666667","24.9484683333333","6500800","鶯歌區"
"239002","359-BY","2019/07/01 19:19:28","新北市鶯歌區湖山路54巷2號","121.339516666667","24.975215","6500800","鶯歌區"
"239004","193-VK","2019/07/01 19:19:21","新北市鶯歌區中正三路鄭厝巷16-1號","121.334683333333","24.93447","6500800","鶯歌區"
"221008","489-VK","2019/07/01 19:19:22","新北市汐止區康寧街310號","121.626691666667","25.0673183333333","6501100","汐止區"
"221031","353-TW","2019/07/01 19:19:30","新北市汐止區汐萬路一段329號","121.649846666667","25.0756916666667","6501100","汐止區"
"221035","622-UM","2019/07/01 19:19:22","新北市汐止區汐萬路一段261號","121.650761666667","25.0741766666667","6501100","汐止區"
"221002","707-TV","2019/07/01 19:19:29","新北市汐止區中興路13號","121.63712","25.0593533333333","6501100","汐止區"
"220079","145-BY","2019/07/01 19:19:36","新北市板橋區民權路202巷7弄9號","121.459636666667","25.014825","6500100","板橋區"
"220080","200-UY","2019/07/01 19:19:32","新北市板橋區大觀路二段5號","121.44701","25.0038133333333","6500100","板橋區"
"220082","610-BX","2019/07/01 19:19:26","新北市板橋區溪崑二街134號","121.425968333333","24.9877733333333","6500100","板橋區"
"220101","245-BX","2019/07/01 19:19:25","新北市板橋區縣民大道三段133巷11號","121.4774","25.02359","6500100","板橋區"
"220056","276-BY","2019/07/01 19:19:36","新北市板橋區廣權路2號","121.460243333333","24.9906633333333","6500100","板橋區"
"220072","277-BY","2019/07/01 19:19:27","新北市板橋區金門街369巷58號","121.428315","24.98167","6500100","板橋區"
"220094","283-UM","2019/07/01 19:19:37","新北市板橋區吳鳳路50巷18號","121.469091666667","25.0301983333333","6500100","板橋區"
"220071","283-VK","2019/07/01 19:19:30","新北市板橋區重慶路283號","121.463836666667","24.9994266666667","6500100","板橋區"
"220053","285-VK","2019/07/01 19:19:22","新北市板橋區富山街93號","121.476476666667","25.0218583333333","6500100","板橋區"
"220083","286-VK","2019/07/01 19:19:23","新北市板橋區大觀路二段174巷196弄15號","121.443148333333","25.003665","6500100","板橋區"
"220081","287-VK","2019/07/01 19:19:35","新北市板橋區南雅西路二段46號","121.452768333333","25.0101716666667","6500100","板橋區"
"220090","288-VK","2019/07/01 19:19:21","新北市板橋區裕民街91號","121.460331666667","25.0280316666667","6500100","板橋區"
"220061","295-UM","2019/07/01 19:19:35","新北市板橋區中山路二段309巷8號","121.478641666667","25.0189016666667","6500100","板橋區"
"220084","296-UM","2019/07/01 19:19:37","新北市板橋區溪北路73巷5號","121.428366666667","24.98985","6500100","板橋區"
"220075","303-R5","2019/07/01 19:19:30","新北市板橋區南雅西路一段10巷12號","121.454576666667","25.004755","6500100","板橋區"
"220062","305-R5","2019/07/01 19:19:32","新北市板橋區三民路二段153巷36弄2號","121.481186666667","25.0141683333333","6500100","板橋區"
"220092","307-R5","2019/07/01 19:19:19","新北市板橋區光武街2巷18號","121.468548333333","25.02521","6500100","板橋區"
"220098","317-R6","2019/07/01 19:19:27","新北市板橋區自由路51巷16號","121.464811666667","25.02351","6500100","板橋區"
"220089","487-VK","2019/07/01 19:19:41","新北市板橋區英士路17號","121.461763333333","25.02498","6500100","板橋區"
"220088","491-VK","2019/07/01 19:19:35","新北市板橋區雙十路二段61號","121.47648","25.02664","6500100","板橋區"
"220035","560-BX","2019/07/01 19:19:37","新北市板橋區中正路330號","121.454638333333","25.021695","6500100","板橋區"
"220103","561-BX","2019/07/01 19:19:23","新北市板橋區文化路一段288號","121.467411666667","25.0214666666667","6500100","板橋區"
"220063","609-BX","2019/07/01 19:19:25","新北市板橋區三民路一段31巷5號","121.479551666667","25.02318","6500100","板橋區"
"220091","637-BX","2019/07/01 19:19:36","新北市板橋區文聖街200號","121.480143333333","25.0258683333333","6500100","板橋區"
"220057","686-BX","2019/07/01 19:19:32","新北市中和區華福街5號","121.46532","24.99683","6500100","板橋區"
"220077","687-BX","2019/07/01 19:19:32","新北市板橋區大觀路二段48號","121.445421666667","25.0007433333333","6500100","板橋區"
"220093","689-BX","2019/07/01 19:19:35","新北市板橋區英士路51號","121.460935","25.024585","6500100","板橋區"
"220054","741-BX","2019/07/01 19:18:06","新北市板橋區四川路一段179號","121.460501666667","25.0037583333333","6500100","板橋區"
"220102","KEA-2699","2019/07/01 19:19:27","新北市板橋區松柏街22巷9-2號","121.474771666667","25.0295183333333","6500100","板橋區"
"220055","827-TW","2019/07/01 19:19:18","新北市板橋區新民街2號","121.464398333333","25.0089116666667","6500100","板橋區"
"220067","829-TW","2019/07/01 19:19:25","新北市板橋區長安街138巷1弄52號","121.473946666667","25.01018","6500100","板橋區"
"220068","831-TW","2019/07/01 19:19:22","新北市板橋區萬安街85巷2-1號","121.483403333333","25.02542","6500100","板橋區"
"220074","895-R6","2019/07/01 19:19:29","新北市板橋區中正路自強新村91-1號","121.454911666667","25.013215","6500100","板橋區"
"220073","985-R7","2019/07/01 19:19:22","新北市板橋區新生街49號","121.457136666667","25.021035","6500100","板橋區"
"220097","AAC-210","2019/07/01 19:19:40","新北市板橋區幸福路32巷17號","121.461235","25.0211","6500100","板橋區"
"220064","AAC-253","2019/07/01 19:19:29","新北市板橋區公園街16號","121.462898333333","25.0090466666667","6500100","板橋區"
"235068","KEA-2873","2019/07/01 19:19:31","新北市中和區景平路545巷1弄4號","121.498476666667","24.998995","6500300","中和區"
"235061","KEA-2875","2019/07/01 19:19:38","新北市中和區民利街22號","121.480265","24.999105","6500300","中和區"
"235064","KEA-2876","2019/07/01 19:19:19","新北市中和區連城路4號","121.499223333333","25.0023383333333","6500300","中和區"
