"lineid","car","time","location","longitude","latitude","cityid","cityname"
"243010","297-R6","2019/07/01 20:59:30","新北市泰山區泰林路三段745巷145號","121.40532","25.067695","6501600","泰山區"
"231061","002-UM","2019/07/01 20:59:34","新北市新店區永安街64號","121.51946","24.9869033333333","6500600","新店區"
"231058","0293-UT","2019/07/01 20:59:24","新北市新店區平等街29號","121.536633333333","24.9735983333333","6500600","新店區"
"231060","106-UY","2019/07/01 20:59:31","新北市新店區安康路三段535號","121.480086666667","24.9477033333333","6500600","新店區"
"231051","107-UY","2019/07/01 20:59:32","新北市新店區中正路663巷7弄15號","121.532923333333","24.9900533333333","6500600","新店區"
"231049","108-UY","2019/07/01 20:59:41","新北市新店區安康路一段266巷4號","121.519963333333","24.9639633333333","6500600","新店區"
"231065","110-UY","2019/07/01 20:59:28","新北市新店區安祥路67巷26號","121.484413333333","24.9597966666667","6500600","新店區"
"231068","187-VK","2019/07/01 20:59:32","新北市新店區寶元路二段62號","121.547201666667","24.9811383333333","6500600","新店區"
"231054","260-TV","2019/07/01 20:59:25","新北市新店區中興路一段283號","121.545251666667","24.9685633333333","6500600","新店區"
"231042","268-BY","2019/07/01 20:59:29","新北市新店區寶興路60巷3號","121.549883333333","24.9718766666667","6500600","新店區"
"231064","278-BY","2019/07/01 20:59:29","新北市新店區安民街115巷16號","121.515103333333","24.96808","6500600","新店區"
"231050","AAD-862","2019/07/01 20:59:23","新北市新店區三民路75巷2弄1號","121.535648333333","24.97104","6500600","新店區"
"231063","641-BX","2019/07/01 20:59:30","新北市新店區如意街1巷8號","121.496163333333","24.9494733333333","6500600","新店區"
"231062","718-UY","2019/07/01 20:59:35","新北市新店區裕合街82號","121.490326666667","24.9486766666667","6500600","新店區"
"231059","897-TW","2019/07/01 20:59:33","新北市新店區僑信路108巷42號","121.498978333333","24.9465666666667","6500600","新店區"
"231040","898-TW","2019/07/01 20:59:36","新北市新店區中正路152號","121.5416","24.9716883333333","6500600","新店區"
"231043","899-TW","2019/07/01 20:59:28","新北市新店區中正路383號","121.534648333333","24.9769683333333","6500600","新店區"
"231066","AKT-0513","2019/07/01 20:59:34","新北市新店區吉安街14號","121.516696666667","24.9658083333333","6500600","新店區"
"241011","013-R5","2019/07/01 20:59:27","新北市三重區秀江街119號","121.499703333333","25.0721733333333","6500200","三重區"
"241028","022-UY","2019/07/01 20:59:30","新北市三重區重新路二段31號","121.497583333333","25.06214","6500200","三重區"
"241008","059-VK","2019/07/01 20:59:30","新北市三重區車路頭街135-1號","121.484235","25.0759383333333","6500200","三重區"
"241029","060-VK","2019/07/01 20:59:33","新北市三重區正義南路111號","121.498225","25.0585416666667","6500200","三重區"
"241031","061-VK","2019/07/01 20:59:31","新北市三重區重陽路一段113巷3號","121.487601666667","25.0597866666667","6500200","三重區"
"241015","062-VK","2019/07/01 20:59:34","新北市三重區三和路二段29號","121.501083333333","25.0671466666667","6500200","三重區"
"241017","063-VK","2019/07/01 20:59:35","新北市三重區民生街38巷2弄16號","121.492105","25.0671283333333","6500200","三重區"
"241001","066-VK","2019/07/01 20:59:27","新北市三重區三和路四段118巷26號","121.48755","25.0744233333333","6500200","三重區"
"241002","090-VK","2019/07/01 20:59:42","新北市三重區五華街7巷8號","121.495441666667","25.0803133333333","6500200","三重區"
"241003","091-VK","2019/07/01 20:59:27","新北市三重區進安街198號","121.493886666667","25.0859716666667","6500200","三重區"
"241005","262-UM","2019/07/01 20:59:37","新北市三重區五華街141巷32號","121.49223","25.0856666666667","6500200","三重區"
"241016","266-UM","2019/07/01 20:59:23","新北市三重區自強路一段133號","121.494906666667","25.0665283333333","6500200","三重區"
"241009","267-UM","2019/07/01 20:59:24","新北市三重區車路頭街142號","121.484075","25.0757883333333","6500200","三重區"
"241018","268-UM","2019/07/01 20:59:35","新北市三重區雙園街97號","121.493848333333","25.0672983333333","6500200","三重區"
"241032","269-UM","2019/07/01 20:59:41","新北市三重區新生街97號","121.483468333333","25.0593716666667","6500200","三重區"
"241013","270-UM","2019/07/01 20:59:32","新北市三重區仁愛街129巷1號","121.495551666667","25.0749616666667","6500200","三重區"
"241007","398-BY","2019/07/01 20:59:31","新北市三重區三和路四段155巷33號","121.484873333333","25.078615","6500200","三重區"
"241004","475-VK","2019/07/01 20:59:26","新北市三重區仁愛街423-1號","121.490375","25.0814383333333","6500200","三重區"
"241020","478-VK","2019/07/01 20:59:36","新北市三重區忠孝路二段34號","121.485758333333","25.0710233333333","6500200","三重區"
"241026","480-VK","2019/07/01 20:59:33","新北市三重區文化南路45號","121.500278333333","25.06132","6500200","三重區"
"241014","543-UM","2019/07/01 20:59:33","新北市三重區長榮路75號","121.502565","25.0690533333333","6500200","三重區"
"241023","545-UM","2019/07/01 20:59:25","新北市三重區洛陽街45巷11號","121.482356666667","25.0637433333333","6500200","三重區"
"241019","KEA-2593","2019/07/01 20:59:34","新北市三重區自強路二段74巷21號","121.488005","25.069875","6500200","三重區"
"241006","AAD-863","2019/07/01 20:59:26","新北市三重區永福街62-4號","121.480816666667","25.0778066666667","6500200","三重區"
"241022","743-BX","2019/07/01 20:59:36","新北市三重區中正北路20巷12號","121.488008333333","25.0624366666667","6500200","三重區"
"241012","941-UM","2019/07/01 20:59:41","新北市三重區龍門路274巷45號","121.501235","25.07551","6500200","三重區"
"241033","AAC-255","2019/07/01 20:59:31","新北市三重區光復路二段28號","121.472118333333","25.054165","6500200","三重區"
"235055","183-VK","2019/07/01 20:59:23","新北市中和區員山路36巷13號","121.484238333333","24.99066","6500300","中和區"
"235069","4980-A6","2019/07/01 20:59:35","新北市中和區中正路637巷32號","121.484921666667","24.9945266666667","6500300","中和區"
"247004","893-R6","2019/07/01 20:59:42","新北市蘆洲區永安南路二段268號","121.458611666667","25.08071","6501400","蘆洲區"
"247018","546-UM","2019/07/01 20:59:26","新北市蘆洲區民權路87-2號","121.473043333333","25.0887666666667","6501400","蘆洲區"
"247014","500-BY","2019/07/01 20:59:33","新北市蘆洲區中山二路36巷38號","121.474108333333","25.0834616666667","6501400","蘆洲區"
"247008","341-TH","2019/07/01 20:59:37","新北市蘆洲區民生街127號","121.472725","25.0790383333333","6501400","蘆洲區"
"247015","337-TH","2019/07/01 20:59:42","新北市蘆洲區長興路213號","121.461183333333","25.0863133333333","6501400","蘆洲區"
"247002","336-TH","2019/07/01 20:59:22","新北市蘆洲區永樂街38巷24號","121.458288333333","25.0893333333333","6501400","蘆洲區"
"247022","057-VK","2019/07/01 20:59:34","新北市蘆洲區中正路263巷2號","121.467345","25.0873916666667","6501400","蘆洲區"
"247012","056-VK","2019/07/01 20:59:28","新北市蘆洲區民權路6號","121.476968333333","25.0854783333333","6501400","蘆洲區"
"247016","053-VK","2019/07/01 20:59:35","新北市蘆洲區正和街104號","121.468083333333","25.08071","6501400","蘆洲區"
"247020","007-UY","2019/07/01 20:59:29","新北市蘆洲區民族路371號","121.471116666667","25.0912816666667","6501400","蘆洲區"
"247006","002-UY","2019/07/01 20:59:28","新北市蘆洲區永安南路二段16巷5號","121.467763333333","25.0771633333333","6501400","蘆洲區"
"251005","010-UM","2019/07/01 20:59:24","新北市淡水區學府路71號","121.448366666667","25.16981","6501000","淡水區"
"251002","012-UM","2019/07/01 20:59:39","新北市淡水區英專路67號","121.44565","25.1711","6501000","淡水區"
"251015","KEA-2871","2019/07/01 20:59:31","新北市淡水區淡金路四段542巷17號","121.452745","25.2271016666667","6501000","淡水區"
"251016","179-VK","2019/07/01 20:59:32","新北市淡水區牛埔子10-1號","121.450108333333","25.2184566666667","6501000","淡水區"
"251013","182-VK","2019/07/01 20:59:13","新北市淡水區番子厝13號","121.4615","25.20129","6501000","淡水區"
"251010","413-VK","2019/07/01 20:59:43","新北市淡水區中正路一段116-3號","121.423933333333","25.1787583333333","6501000","淡水區"
"251012","441-VK","2019/07/01 20:59:43","新北市淡水區淡金路五段116-1號","121.456541666667","25.236935","6501000","淡水區"
"251007","442-VK","2019/07/01 20:59:25","新北市淡水區仁愛街2巷12號","121.446446666667","25.1709216666667","6501000","淡水區"
"251001","559-UM","2019/07/01 20:59:34","新北市淡水區新市一路三段103號","121.446181666667","25.1831866666667","6501000","淡水區"
"251014","577-R6","2019/07/01 20:59:37","新北市淡水區溪口26號","121.455621666667","25.236565","6501000","淡水區"
"251011","650-BX","2019/07/01 20:59:36","新北市淡水區新民街302-1號","121.435141666667","25.182975","6501000","淡水區"
"251003","673-BX","2019/07/01 20:59:21","新北市淡水區新春街148-1號","121.442511666667","25.1813283333333","6501000","淡水區"
"247010","KED-0683","2019/07/01 20:59:33","新北市蘆洲區鷺江街76號","121.477026666667","25.0837683333333","6501400","蘆洲區"
"242025","362-BY","2019/07/01 20:59:38","新北市八里區荖阡坑路22-7號","121.398611666667","25.1358583333333","6500500","新莊區"
"221035","622-UM","2019/07/01 20:59:25","新北市汐止區汐萬路一段153號","121.65329","25.0709516666667","6501100","汐止區"
"221038","646-BX","2019/07/01 20:59:37","新北市汐止區汐萬路一段256巷1號","121.652023333333","25.07458","6501100","汐止區"
"220101","245-BX","2019/07/01 20:59:25","新北市五股區凌雲路二段66號","121.439248333333","25.10617","6500100","板橋區"
