"lineid","car","time","location","longitude","latitude","cityid","cityname"
"234044","148-BY","2019/11/09 13:29:41","新北市永和區秀朗路二段230號","121.526258333333","24.9995583333333","6500400","永和區"
"234078","298-R6","2019/11/09 13:29:39","新北市永和區福和路7巷15弄19號","121.525948333333","25.0076433333333","6500400","永和區"
"234036","336-UY","2019/11/09 13:29:36","新北市永和區民樂街35巷2號","121.527623333333","25.0008833333333","6500400","永和區"
"234062","337-UY","2019/11/09 13:29:26","新北市永和區中正路368巷1弄75號","121.52043","25.0007866666667","6500400","永和區"
"234084","338-UY","2019/11/09 13:29:28","新北市永和區林森路50號","121.524513333333","25.0045533333333","6500400","永和區"
"234068","552-UM","2019/11/09 13:29:32","新北市永和區竹林路182號","121.520301666667","25.0097066666667","6500400","永和區"
"234015","745-BX","2019/11/09 13:29:39","新北市永和區環河西路一段5-1號","121.515016666667","25.0180683333333","6500400","永和區"
"234028","746-BX","2019/11/09 13:29:39","新北市永和區民生路63號","121.522705","24.9973283333333","6500400","永和區"
"234052","KEA-2590","2019/11/09 13:29:41","新北市永和區永和路二段243號","121.515771666667","25.0147066666667","6500400","永和區"
"234005","KED-0605","2019/11/09 13:29:36","新北市永和區中山路一段193號","121.509206666667","25.0088616666667","6500400","永和區"
"234012","KEA-2591","2019/11/09 13:29:32","新北市永和區永貞路387號","121.50813","25.0086733333333","6500400","永和區"
"234060","AAD-866","2019/11/09 13:29:40","新北市永和區永貞路145號","121.516181666667","25.0040916666667","6500400","永和區"
"234040","862-TW","2019/11/09 13:29:40","新北市永和區中和路519巷8號","121.51104","25.003125","6500400","永和區"
"234048","863-TW","2019/11/09 13:29:44","新北市永和區信義路77號","121.512433333333","25.0132566666667","6500400","永和區"
"234025","9371-KE","2019/11/09 13:29:33","新北市永和區和平街36號","121.513056666667","25.0100866666667","6500400","永和區"
"234010","9373-KE","2019/11/09 13:29:36","新北市永和區仁愛路141巷9號","121.511705","25.0119066666667","6500400","永和區"
"248017","KED-0813","2019/11/09 13:29:40","新北市五股區民義路二段52巷15號","121.411686666667","25.1128033333333","6501500","五股區"
"234022","9380-KE","2019/11/09 13:29:36","新北市永和區竹林路91巷60弄70號","121.522951666667","25.0121316666667","6500400","永和區"
"234076","969-R7","2019/11/09 13:29:32","新北市永和區民治街80號","121.517518333333","24.998395","6500400","永和區"
"234072","AAC-211","2019/11/09 13:29:39","新北市永和區博愛街49巷2號","121.519813333333","25.01642","6500400","永和區"
"234066","AAC-212","2019/11/09 13:29:26","新北市永和區保平路107號","121.511055","25.0067483333333","6500400","永和區"
"234001","AAC-295","2019/11/09 13:29:44","新北市永和區永和路一段115-1號","121.513818333333","25.00814","6500400","永和區"
"244005","248-BX","2019/11/09 13:29:38","新北市林口區南勢街317-1號","121.355758333333","25.0772433333333","6501700","林口區"
"231003","001-UM","2019/11/09 13:29:44","新北市新店區中興路二段203號","121.548075","24.97416","6500600","新店區"
"231030","002-UM","2019/11/09 13:29:37","新北市新店區安華路1-1號","121.519553333333","24.960105","6500600","新店區"
"231027","0293-UT","2019/11/09 13:29:30","新北市新店區環河路25號","121.53735","24.9612983333333","6500600","新店區"
"231005","046-UY","2019/11/09 13:29:45","新北市新店區北新路一段349號","121.541981666667","24.9691016666667","6500600","新店區"
"231029","106-UY","2019/11/09 13:29:33","新北市新店區安華路1-1號","121.519508333333","24.9602483333333","6500600","新店區"
"231018","107-UY","2019/11/09 13:29:28","新北市新店區中央路79號","121.532398333333","24.976635","6500600","新店區"
"231013","108-UY","2019/11/09 13:29:43","新北市新店區中央路210-1號","121.530148333333","24.9736283333333","6500600","新店區"
"231036","110-UY","2019/11/09 13:29:43","新北市新店區安祥路158巷2號","121.47511","24.9542283333333","6500600","新店區"
"231033","256-BX","2019/11/09 13:29:42","新北市新店區安豐路60-1號","121.497993333333","24.953715","6500600","新店區"
"231023","260-TV","2019/11/09 13:29:43","新北市新店區光明街51號","121.53864","24.960175","6500600","新店區"
"231035","278-BY","2019/11/09 13:29:27","新北市新店區安康路一段355號","121.519833333333","24.963345","6500600","新店區"
"231017","AAD-862","2019/11/09 13:29:33","新北市新店區北宜路一段144-2號","121.540098333333","24.95409","6500600","新店區"
"231006","355-BY","2019/11/09 13:29:42","新北市新店區安華路28-1號","121.519376666667","24.960975","6500600","新店區"
"231038","3712-VJ","2019/11/09 13:29:30","新北市新店區安華路28-1號","121.51934","24.9606516666667","6500600","新店區"
"231024","4716-K9","2019/11/09 13:29:40","新北市新店區中正路128巷11號","121.542526666667","24.9720483333333","6500600","新店區"
"231025","4715-K9","2019/11/09 13:29:41","新北市新店區中央七街61巷30號","121.529621666667","24.9756916666667","6500600","新店區"
"231020","513-UM","2019/11/09 13:29:39","新北市新店區安康路一段249-2號","121.52461","24.963325","6500600","新店區"
"231002","618-UM","2019/11/09 13:29:22","新北市新店區安康路一段52巷2號","121.530143333333","24.9611733333333","6500600","新店區"
"231034","641-BX","2019/11/09 13:29:22","新北市新店區安華路28-1號","121.519566666667","24.9606166666667","6500600","新店區"
"231012","KED-0819","2019/11/09 13:29:25","新北市新店區北新路一段130號","121.54236","24.97007","6500600","新店區"
"231010","719-UM","2019/11/09 13:29:26","新北市新店區自由街23號","121.53511","24.97446","6500600","新店區"
"231026","720-UM","2019/11/09 13:10:42","新北市新店區安康路一段263巷36弄1號","121.523571666667","24.9617733333333","6500600","新店區"
"231028","897-TW","2019/11/09 13:29:32","新北市新店區安華路28-1號","121.519683333333","24.9608283333333","6500600","新店區"
"231001","898-TW","2019/11/09 13:29:25","新北市新店區安康路一段226號","121.523573333333","24.9635816666667","6500600","新店區"
"231004","899-TW","2019/11/09 13:29:37","新北市新店區安一路一段1-1號","121.51954","24.9610916666667","6500600","新店區"
"231037","AKT-0513","2019/11/09 13:29:33","新北市新店區薏仁坑路35-1號","121.492843333333","24.9630016666667","6500600","新店區"
"235030","003-UY","2019/11/09 13:29:36","新北市中和區中山路二段120號","121.502826666667","25.0037666666667","6500300","中和區"
"235028","005-UY","2019/11/09 13:29:27","新北市中和區景平路597號","121.497093333333","25.0007366666667","6500300","中和區"
"235027","006-UY","2019/11/09 13:29:36","新北市中和區連城路347巷2弄1號","121.488116666667","24.9958366666667","6500300","中和區"
"235020","096-UM","2019/11/09 13:29:40","新北市中和區員山路466巷18號","121.481021666667","25.0065383333333","6500300","中和區"
"235003","097-UM","2019/11/09 13:29:36","新北市中和區大勇街34號","121.5173","24.993385","6500300","中和區"
"235029","098-UM","2019/11/09 13:29:39","新北市中和區中山路二段64巷20號","121.503118333333","25.0060366666667","6500300","中和區"
"235004","150-BY","2019/11/09 13:29:29","新北市中和區安平路59號","121.509491666667","24.9952833333333","6500300","中和區"
"235022","151-BY","2019/11/09 13:29:28","新北市中和區圓通路369巷165號","121.490161666667","24.9821566666667","6500300","中和區"
"235019","183-VK","2019/11/09 13:29:37","新北市中和區莒光路120巷17弄1號","121.471691666667","25.00101","6500300","中和區"
"235002","185-VK","2019/11/09 13:29:29","新北市中和區大智街18號","121.520581666667","24.991855","6500300","中和區"
"235031","255-BX","2019/11/09 13:29:24","新北市中和區員山路148巷49號","121.48277","24.997155","6500300","中和區"
"235008","293-VK","2019/11/09 13:29:31","新北市中和區復興路335號","121.500198333333","24.9902016666667","6500300","中和區"
"235036","301-VK","2019/11/09 13:29:40","新北市中和區連城路171巷41弄1號","121.496243333333","24.99654","6500300","中和區"
"235007","352-BY","2019/11/09 13:29:30","新北市中和區景平路257號","121.508585","24.992875","6500300","中和區"
"235006","KEA-2878","2019/11/09 13:29:29","新北市中和區自立路56巷7號","121.523123333333","24.991745","6500300","中和區"
"235014","4979-A6","2019/11/09 13:29:24","新北市中和區景新街362巷3號","121.512056666667","24.9901283333333","6500300","中和區"
"235033","4980-A6","2019/11/09 13:29:30","新北市中和區連城路115號","121.496228333333","24.9994683333333","6500300","中和區"
"235034","558-UM","2019/11/09 13:29:43","新北市中和區景新街133號","121.505948333333","24.9972116666667","6500300","中和區"
"235009","565-BX","2019/11/09 13:29:40","新北市中和區南山路236巷36弄5號","121.504125","24.9883516666667","6500300","中和區"
"235024","KED-0823","2019/11/09 13:29:24","新北市中和區中山路二段582號","121.482596666667","25.0050416666667","6500300","中和區"
"235018","640-BX","2019/11/09 13:29:28","新北市中和區民享街50號","121.474045","25.0025833333333","6500300","中和區"
"235035","647-TV","2019/11/09 13:29:31","新北市中和區中山路二段476-1號","121.488368333333","25.0051866666667","6500300","中和區"
"235011","732-UM","2019/11/09 13:29:35","新北市中和區南山路282號","121.507921666667","24.9877016666667","6500300","中和區"
"235010","733-UM","2019/11/09 13:29:30","新北市中和區興南路一段92號","121.509876666667","24.98917","6500300","中和區"
"235073","800-TS","2019/11/09 13:29:33","新北市中和區中山路二段312巷13號","121.495566666667","25.0033166666667","6500300","中和區"
"235021","801-TS","2019/11/09 13:29:27","新北市中和區民安街42巷24號","121.479548333333","25.0008516666667","6500300","中和區"
"235005","802-TS","2019/11/09 13:29:32","新北市中和區中和路318號","121.509643333333","25.0005033333333","6500300","中和區"
"235016","805-TS","2019/11/09 13:29:41","新北市中和區興南路二段116號","121.504688333333","24.9838616666667","6500300","中和區"
"235012","896-TW","2019/11/09 13:29:37","新北市中和區中正路637巷52弄1號","121.485371666667","24.9938016666667","6500300","中和區"
"235017","900-TW","2019/11/09 13:29:31","新北市中和區連城路607號","121.477955","24.9931616666667","6500300","中和區"
"235015","157-BY","2019/11/09 13:29:42","新北市中和區興南路二段114巷21弄6號","121.503451666667","24.98428","6500300","中和區"
"235001","AAC-213","2019/11/09 13:29:29","新北市中和區景德街61號","121.517268333333","24.99139","6500300","中和區"
"220017","AAD-861","2019/11/09 13:29:26","新北市板橋區華東街1-10號","121.448351666667","24.9951083333333","6500100","板橋區"
"247003","500-BY","2019/11/09 13:29:43","新北市五股區中興路三段198號","121.441343333333","25.0820533333333","6501400","蘆洲區"
"247013","056-VK","2019/11/09 13:29:39","新北市五股區中興路三段163號","121.449111666667","25.08095","6501400","蘆洲區"
"247008","002-UY","2019/11/09 13:29:39","新北市五股區中興路三段5號","121.449113333333","25.079925","6501400","蘆洲區"
"235013","251-BX","2019/11/09 13:29:33","新北市中和區景安路80號","121.50569","24.9962483333333","6500300","中和區"
"228005","097-TW","2019/11/09 13:29:36","新北市貢寮區美豐里文秀坑8號","121.902548333333","25.0503883333333","6502600","貢寮區"
"228004","212-TW","2019/11/09 13:29:25","新北市貢寮區龍崗里石壁坑街17號","121.910428333333","24.9894833333333","6502600","貢寮區"
"253003","6232-TK","2019/11/09 13:29:33","新北市石門區內石門50-1號","121.57201","25.2618483333333","6502200","石門區"
"253004","6251-TK","2019/11/09 13:26:44","新北市石門區竹子湖11號","121.617908333333","25.2585866666667","6502200","石門區"
"253002","637-UY","2019/11/09 13:29:32","新北市石門區九芎林5-3號","121.55985","25.2699566666667","6502200","石門區"
"253001","KEC-0718","2019/11/09 13:29:38","新北市石門區下員坑20-8號","121.510383333333","25.27852","6502200","石門區"
"207002","749-BX","2019/11/09 13:29:28","新北市萬里區崁腳里崁腳路166號","121.645061666667","25.1558066666667","6502800","萬里區"
"252005","073-UM","2019/11/09 13:29:33","新北市三芝區圓山里八連溪頭2-3號","121.523725","25.223255","6502100","三芝區"
"207001","662-BX","2019/11/09 13:27:37","新北市萬里區龜吼里石角路19-1號","121.684163333333","25.1918833333333","6502800","萬里區"
"220027","145-BY","2019/11/09 13:29:35","新北市板橋區華東街1-10號","121.448371666667","24.995045","6500100","板橋區"
"220028","200-UY","2019/11/09 13:29:32","新北市板橋區華東街1-9號","121.448183333333","24.9949416666667","6500100","板橋區"
"220030","610-BX","2019/11/09 13:29:36","新北市板橋區華東街1-10號","121.448261666667","24.99494","6500100","板橋區"
"220004","276-BY","2019/11/09 13:29:36","新北市板橋區華東街1-9號","121.448128333333","24.9949416666667","6500100","板橋區"
"220107","286-VK","2019/11/09 13:29:36","新北市板橋區華東街1-10號","121.448416666667","24.9950966666667","6500100","板橋區"
"220032","296-UM","2019/11/09 13:29:27","新北市板橋區華東街1-9號","121.448143333333","24.99496","6500100","板橋區"
"220011","609-BX","2019/11/09 13:29:31","新北市板橋區民生路二段161巷1號","121.470045","25.0200083333333","6500100","板橋區"
"220005","686-BX","2019/11/09 13:29:25","新北市板橋區華東街1-10號","121.448243333333","24.9950133333333","6500100","板橋區"
"220025","687-BX","2019/11/09 13:29:35","新北市板橋區大觀路二段265巷7-7號","121.444108333333","24.9946133333333","6500100","板橋區"
"220003","827-TW","2019/11/09 13:29:36","新北市板橋區華東街1-10號","121.448401666667","24.9949883333333","6500100","板橋區"
"220021","985-R7","2019/11/09 13:29:35","新北市板橋區四川路二段140巷12號","121.449515","24.9932983333333","6500100","板橋區"
"220046","AAC-210","2019/11/09 13:29:29","新北市板橋區民生路二段120號","121.470413333333","25.0199166666667","6500100","板橋區"
"220012","AAC-253","2019/11/09 13:29:36","新北市板橋區南雅南路二段120-24號","121.451656666667","24.9987616666667","6500100","板橋區"
"235032","KEA-2873","2019/11/09 13:29:26","新北市中和區中正路267號","121.495808333333","24.9935883333333","6500300","中和區"
"235025","KEA-2875","2019/11/09 13:29:31","新北市中和區民享街101號","121.474925","24.9997883333333","6500300","中和區"
