"lineid","car","time","location","longitude","latitude","cityid","cityname"
"234026","9371-KE","2019/11/09 17:59:33","新北市永和區永和路一段41號","121.512768333333","25.006205","6500400","永和區"
"249005","172-UM","2019/11/09 17:59:38","新北市八里區荖阡坑路18號","121.398255","25.13841","6502300","八里區"
"249001","173-UM","2019/11/09 17:59:27","新北市八里區龍米路二段30號","121.448598333333","25.14007","6502300","八里區"
"249004","303-UY","2019/11/09 17:59:25","新北市八里區龍米路三段17巷2號","121.428071666667","25.1588416666667","6502300","八里區"
"249002","305-UY","2019/11/09 17:59:34","新北市八里區龍形五街15號","121.450056666667","25.1334583333333","6502300","八里區"
"249003","593-UM","2019/11/09 17:59:36","新北市八里區中華路二段165巷19弄20號","121.410108333333","25.151545","6502300","八里區"
"248014","025-BX","2019/11/09 17:59:29","","121.446373333333","25.08067","6501500","五股區"
"248008","KED-0815","2019/11/09 17:59:39","新北市五股區中興路二段150號","121.458591666667","25.07855","6501500","五股區"
"248020","KED-0813","2019/11/09 17:59:23","","121.460388333333","25.0753016666667","6501500","五股區"
"248004","677-BX","2019/11/09 17:59:33","","121.45684","25.079125","6501500","五股區"
"248010","682-TV","2019/11/09 17:59:24","新北市五股區中興路二段103巷16號","121.458975","25.07579","6501500","五股區"
"232011","375-UM","2019/11/09 17:59:34","新北市坪林區北宜路八段229號","121.709036666667","24.9349866666667","6502000","坪林區"
"244007","080-UY","2019/11/09 17:59:34","新北市林口區林口路124巷10弄5號","121.389156666667","25.0816116666667","6501700","林口區"
"244019","402-UM","2019/11/09 17:59:35","新北市林口區麗園路54號","121.373595","25.0695033333333","6501700","林口區"
"244013","KEA-2802","2019/11/09 17:59:41","新北市林口區中山路152號","121.39108","25.0787833333333","6501700","林口區"
"244023","483-VK","2019/11/09 17:59:27","新北市林口區東湖路41巷20號","121.386286666667","25.0731633333333","6501700","林口區"
"244017","485-VK","2019/11/09 17:59:27","新北市林口區文化一路一段41號","121.370853333333","25.0694366666667","6501700","林口區"
"244009","656-BX","2019/11/09 17:59:43","新北市林口區佳林路56巷39號","121.385263333333","25.0807866666667","6501700","林口區"
"244011","701-TV","2019/11/09 17:59:26","新北市林口區中正路30巷6號","121.395891666667","25.0776966666667","6501700","林口區"
"244025","837-TS","2019/11/09 17:59:38","新北市林口區三民路28號","121.358596666667","25.0676933333333","6501700","林口區"
"244021","838-TS","2019/11/09 17:59:20","新北市林口區仁愛路一段46號","121.396818333333","25.0757416666667","6501700","林口區"
"222003","436-BY","2019/11/09 17:59:30","新北市深坑區炮子崙24-1號","121.606311666667","24.9884566666667","6501800","深坑區"
"222002","659-BX","2019/11/09 17:59:37","新北市深坑區深坑街35號","121.615971666667","25.0018616666667","6501800","深坑區"
"231040","898-TW","2019/11/09 17:59:29","新北市新店區安華路28-1號","121.519398333333","24.9607516666667","6500600","新店區"
"241024","065-VK","2019/11/09 17:59:41","新北市三重區中正北路193巷35弄57號","121.478298333333","25.0713583333333","6500200","三重區"
"241016","266-UM","2019/11/09 17:59:40","新北市五股區成泰路四段2號","121.452918333333","25.1062183333333","6500200","三重區"
"241033","AAC-255","2019/11/09 17:59:26","新北市三重區光復路一段68巷18號","121.471176666667","25.0492733333333","6500200","三重區"
"235064","005-UY","2019/11/09 17:59:37","新北市中和區中正路273號","121.49558","24.9937766666667","6500300","中和區"
"235063","006-UY","2019/11/09 17:59:23","新北市中和區員山路36巷16-3號","121.48508","24.9912683333333","6500300","中和區"
"235056","096-UM","2019/11/09 17:59:31","新北市中和區和城路一段271巷1號","121.485408333333","24.9920533333333","6500300","中和區"
"235065","098-UM","2019/11/09 17:59:36","新北市中和區橋和路60號","121.489478333333","25.005185","6500300","中和區"
"235058","151-BY","2019/11/09 17:59:33","新北市中和區圓通路367巷33弄43號","121.495631666667","24.9856466666667","6500300","中和區"
"235038","185-VK","2019/11/09 17:59:34","新北市中和區中正路244號","121.495863333333","24.99392","6500300","中和區"
"235042","KEA-2878","2019/11/09 17:59:34","新北市中和區景平路299號","121.506713333333","24.9931333333333","6500300","中和區"
"247016","KEA-2869","2019/11/09 17:59:28","新北市蘆洲區中正路185巷78弄17號","121.465788333333","25.0847683333333","6501400","蘆洲區"
"235069","4980-A6","2019/11/09 17:59:37","新北市中和區員山路36巷16-2號","121.485336666667","24.9918","6500300","中和區"
"235045","565-BX","2019/11/09 17:59:29","新北市中和區員山路36巷13號","121.484181666667","24.9912233333333","6500300","中和區"
"235054","640-BX","2019/11/09 17:59:27","新北市中和區莒光路207號","121.469931666667","24.99574","6500300","中和區"
"235062","800-TS","2019/11/09 17:59:26","新北市中和區新生街264號","121.48374","24.9971666666667","6500300","中和區"
"235057","801-TS","2019/11/09 17:59:30","新北市中和區新生街286號","121.483641666667","24.9965833333333","6500300","中和區"
"235052","805-TS","2019/11/09 17:59:28","新北市中和區中正路637巷52弄1號","121.48545","24.9935","6500300","中和區"
"235051","157-BY","2019/11/09 17:59:22","新北市中和區和城路一段271巷1號","121.485396666667","24.9921266666667","6500300","中和區"
"235037","AAC-213","2019/11/09 17:59:39","新北市中和區景平路247號","121.508928333333","24.992935","6500300","中和區"
"247006","893-R6","2019/11/09 17:59:25","新北市蘆洲區中華街83號","121.461903333333","25.080055","6501400","蘆洲區"
"247014","056-VK","2019/11/09 17:59:38","新北市蘆洲區保和街34號","121.470296666667","25.0864216666667","6501400","蘆洲區"
"247018","053-VK","2019/11/09 17:59:35","新北市蘆洲區復興路264號","121.480145","25.0897216666667","6501400","蘆洲區"
"247002","001-UY","2019/11/09 17:59:36","新北市蘆洲區永平街32巷57弄35號","121.458355","25.0933683333333","6501400","蘆洲區"
"226004","312-R5","2019/11/09 17:59:32","新北市平溪區石底里公園街18-3號","121.733355","25.0258316666667","6502400","平溪區"
"228003","097-TW","2019/11/09 17:59:38","新北市貢寮區真理里美艷山街6-2號","121.928885","25.0607216666667","6502600","貢寮區"
"228001","212-TW","2019/11/09 17:59:36","新北市貢寮區真理里新港街26巷53號","121.928601666667","25.0535583333333","6502600","貢寮區"
"228002","663-BX","2019/11/09 17:59:31","新北市貢寮區福隆里桂安街17號","121.966908333333","25.0229616666667","6502600","貢寮區"
"224006","676-BX","2019/11/09 17:59:41","新北市瑞芳區大寮路356-1號","121.785511666667","25.10306","6501200","瑞芳區"
"224009","275-VK","2019/11/09 17:59:28","新北市瑞芳區金光路374號","121.849885","25.1110266666667","6501200","瑞芳區"
"224008","273-VK","2019/11/09 17:59:30","新北市瑞芳區明燈路一段45巷103號","121.822091666667","25.103985","6501200","瑞芳區"
"224005","271-BY","2019/11/09 17:59:29","新北市瑞芳區建基路一段50巷51號","121.817965","25.1281033333333","6501200","瑞芳區"
"253005","032-BX","2019/11/09 17:59:38","新北市石門區中山路62-11號","121.567518333333","25.28969","6502200","石門區"
"253006","295-VK","2019/11/09 17:59:28","新北市石門區大丘田45-1號","121.549818333333","25.2750883333333","6502200","石門區"
"222001","KEA-2212","2019/11/09 17:59:40","新北市深坑區北深路三段8號","121.610696666667","25.0009783333333","6501800","深坑區"
"208002","KEA-2872","2019/11/09 17:59:39","新北市金山區三界壇路32號","121.625323333333","25.2285233333333","6502700","金山區"
"208003","665-BX","2019/11/09 17:59:28","新北市金山區磺港里磺港路202-1號","121.645241666667","25.2275016666667","6502700","金山區"
"251009","008-UM","2019/11/09 17:59:29","新北市淡水區長興街65號","121.444336666667","25.172215","6501000","淡水區"
"251004","009-UM","2019/11/09 17:59:36","新北市淡水區民權路187巷17號","121.460271666667","25.13354","6501000","淡水區"
"251005","010-UM","2019/11/09 17:59:29","新北市淡水區英專路130號","121.446446666667","25.17259","6501000","淡水區"
"251015","KEA-2871","2019/11/09 17:59:28","新北市淡水區興福寮31-1號","121.489205","25.161975","6501000","淡水區"
"251016","180-VK","2019/11/09 17:59:39","新北市淡水區淡金路三段46巷13弄1號","121.448276666667","25.1992333333333","6501000","淡水區"
"251008","181-VK","2019/11/09 17:59:33","新北市淡水區八勢一街32巷1號","121.461785","25.155555","6501000","淡水區"
"251013","182-VK","2019/11/09 17:59:33","新北市淡水區泉洲厝31號","121.479541666667","25.1910083333333","6501000","淡水區"
"251010","413-VK","2019/11/09 17:59:34","新北市淡水區中正路一段87巷1號","121.421676666667","25.1790683333333","6501000","淡水區"
"251012","441-VK","2019/11/09 17:59:35","新北市淡水區北新路三段16-7號","121.483548333333","25.1860416666667","6501000","淡水區"
"251001","559-UM","2019/11/09 17:59:24","新北市淡水區民權路94巷1號","121.463111666667","25.1250233333333","6501000","淡水區"
"251006","561-UM","2019/11/09 17:59:23","新北市淡水區新生街19號","121.438906666667","25.17367","6501000","淡水區"
"251014","577-R6","2019/11/09 17:59:30","新北市淡水區公埔子16-6號","121.481018333333","25.2245383333333","6501000","淡水區"
"251011","650-BX","2019/11/09 17:58:10","新北市淡水區吳(仔)厝36號","121.479515","25.1494483333333","6501000","淡水區"
"251002","672-BX","2019/11/09 17:59:32","新北市淡水區中山路88號","121.44285","25.1705566666667","6501000","淡水區"
"251003","766-UM","2019/11/09 17:59:19","新北市淡水區大忠街47號","121.44476","25.1763283333333","6501000","淡水區"
"207003","681-TV","2019/11/09 17:59:32","新北市萬里區野柳里東澳路66號","121.692745","25.2009216666667","6502800","萬里區"
"207004","291-VK","2019/11/09 17:59:23","新北市萬里區萬里里瑪鋉路5號","121.685951666667","25.1748883333333","6502800","萬里區"
"252002","178-VK","2019/11/09 17:59:32","新北市三芝區中山路二段47巷8號","121.502693333333","25.2550016666667","6502100","三芝區"
"208001","170-UY","2019/11/09 17:59:37","新北市金山區磺港里磺港路248號","121.643835","25.2250266666667","6502700","金山區"
"237004","KEA-2597","2019/11/09 17:59:25","新北市三峽區中園街227號","121.366916666667","24.9197616666667","6500900","三峽區"
"237007","153-BY","2019/11/09 17:59:24","新北市三峽區中正路二段82號","121.366546666667","24.918265","6500900","三峽區"
"237009","210-TH","2019/11/09 17:59:31","新北市三峽區中山路106巷1號","121.366006666667","24.935955","6500900","三峽區"
"237013","252-BX","2019/11/09 17:59:37","新北市三峽區介壽路一段230號","121.378236666667","24.9305566666667","6500900","三峽區"
"237012","275-BY","2019/11/09 17:59:27","新北市三峽區民生街29號","121.375853333333","24.936385","6500900","三峽區"
"237008","302-VK","2019/11/09 17:59:34","新北市三峽區白雞28-1號","121.370493333333","24.9121616666667","6500900","三峽區"
"237014","433-BY","2019/11/09 17:59:40","新北市三峽區和平街36巷12號","121.37072","24.9370966666667","6500900","三峽區"
"237006","5529-G3","2019/11/09 17:59:27","新北市三峽區介壽路二段138巷1弄100號","121.397603333333","24.9313133333333","6500900","三峽區"
"237011","KEA-2596","2019/11/09 17:59:22","新北市三峽區光明路48號","121.374713333333","24.92965","6500900","三峽區"
"237015","649-BX","2019/11/09 17:59:24","新北市三峽區紫微路84號","121.409936666667","24.9144783333333","6500900","三峽區"
"237010","706-TV","2019/11/09 17:59:33","新北市三峽區中山路49號","121.368008333333","24.9345116666667","6500900","三峽區"
"237005","AKY-6261","2019/11/09 17:59:37","新北市三峽區復興路233號","121.3686","24.93885","6500900","三峽區"
"236042","KED-0685","2019/11/09 17:59:37","新北市土城區城林路6巷80號","121.438518333333","24.9795833333333","6501300","土城區"
"233002","762-BX","2019/11/09 17:59:34","","121.549421666667","24.86729","6502900","烏來區"
"236079","166-UM","2019/11/09 17:59:22","新北市土城區永寧路32巷8號","121.429063333333","24.9607566666667","6501300","土城區"
"236030","253-BX","2019/11/09 17:59:39","新北市土城區城林路6巷80號","121.438426666667","24.9797333333333","6501300","土城區"
"236026","269-VK","2019/11/09 17:59:25","新北市土城區城林路6巷80號","121.43845","24.9796266666667","6501300","土城區"
"236014","270-VK","2019/11/09 17:59:36","新北市土城區員福街62號","121.440061666667","24.9792716666667","6501300","土城區"
"236038","271-VK","2019/11/09 17:59:29","新北市土城區城林路6巷80號","121.438308333333","24.9798766666667","6501300","土城區"
"247012","KED-0683","2019/11/09 17:59:34","新北市蘆洲區信義路280巷25號","121.478791666667","25.0879983333333","6501400","蘆洲區"
"236070","KEA-2877","2019/11/09 17:59:34","新北市土城區青雲路669-3號","121.46796","24.9649616666667","6501300","土城區"
"252001","KED-0821","2019/11/09 17:59:40","新北市三芝區中興街二段2號","121.498311666667","25.2566683333333","6502100","三芝區"
"236021","401-BY","2019/11/09 17:59:26","新北市土城區城林路6巷80號","121.438731666667","24.9796183333333","6501300","土城區"
"236059","912-UM","2019/11/09 17:59:29","新北市土城區中央路三段250號","121.427675","24.9641733333333","6501300","土城區"
"236049","913-UM","2019/11/09 17:59:35","新北市土城區城林路6巷80號","121.438336666667","24.9795366666667","6501300","土城區"
"236063","915-UM","2019/11/09 17:59:27","新北市土城區城林路6巷80號","121.438701666667","24.9796416666667","6501300","土城區"
"236055","AAC-216","2019/11/09 17:59:39","新北市土城區城林路6巷80號","121.438505","24.9796","6501300","土城區"
"242042","AAC-296","2019/11/09 17:59:24","新北市新莊區丹鳳街36號","121.421618333333","25.02956","6500500","新莊區"
"242061","986-R7","2019/11/09 17:59:31","新北市新莊區新樹路497巷1號","121.432695","25.0121833333333","6500500","新莊區"
"242004","751-BX","2019/11/09 17:59:39","新北市新莊區思源路177巷31號","121.459193333333","25.04669","6500500","新莊區"
"242029","615-BX","2019/11/09 17:59:31","新北市新莊區中平路110巷13號","121.445705","25.0460066666667","6500500","新莊區"
"242027","613-BX","2019/11/09 17:59:42","新北市新莊區思源路455號","121.459696666667","25.0534783333333","6500500","新莊區"
"242058","612-BX","2019/11/09 17:59:29","新北市新莊區雙鳳路134巷22號","121.412655","25.0281616666667","6500500","新莊區"
"242048","566-BX","2019/11/09 17:59:24","新北市新莊區萬安街146巷2號","121.419783333333","25.0213483333333","6500500","新莊區"
"242053","497-BY","2019/11/09 17:59:34","新北市新莊區光華街50號","121.428608333333","25.0117716666667","6500500","新莊區"
"242039","442-UM","2019/11/09 17:59:25","新北市新莊區民安西路24巷14號","121.426313333333","25.0208883333333","6500500","新莊區"
"242002","441-UM","2019/11/09 17:59:21","新北市新莊區大觀街42巷12號","121.454478333333","25.0360166666667","6500500","新莊區"
"242044","415-TV","2019/11/09 17:59:23","新北市新莊區雙鳳路18號","121.416861666667","25.026935","6500500","新莊區"
"242013","413-TV","2019/11/09 17:59:36","新北市新莊區中和街125巷1號","121.447145","25.0485966666667","6500500","新莊區"
"242025","362-BY","2019/11/09 17:59:31","新北市新莊區五工路38-1號","121.462023333333","25.06256","6500500","新莊區"
"242023","353-BY","2019/11/09 17:59:27","新北市新莊區福壽街39號","121.458205","25.048585","6500500","新莊區"
"242015","132-UY","2019/11/09 17:59:30","新北市新莊區中平路117號","121.444695","25.04664","6500500","新莊區"
"242056","172-VK","2019/11/09 17:59:21","新北市新莊區豐年街124巷6弄1號","121.445943333333","25.0298583333333","6500500","新莊區"
"242031","175-VK","2019/11/09 17:59:27","新北市新莊區新泰路305巷15號","121.444713333333","25.0409116666667","6500500","新莊區"
"242017","176-VK","2019/11/09 17:59:19","新北市新莊區中和街60巷31號","121.449315","25.0449133333333","6500500","新莊區"
"242021","KED-0687","2019/11/09 17:59:39","新北市新莊區中華路一段2號","121.452005","25.03643","6500500","新莊區"
"242007","346-TH","2019/11/09 17:59:22","新北市新莊區自信街81巷17弄2號","121.456135","25.0487933333333","6500500","新莊區"
"242051","347-TH","2019/11/09 17:59:40","新北市新莊區民安西路155巷7弄19號","121.42668","25.0168533333333","6500500","新莊區"
"242036","348-TH","2019/11/09 17:59:39","新北市新莊區建福路54號","121.42666","25.0274183333333","6500500","新莊區"
"242009","349-TH","2019/11/09 17:59:40","新北市新莊區昌平街51巷8號","121.454255","25.0529566666667","6500500","新莊區"
"242034","350-TH","2019/11/09 17:59:23","新北市新莊區福海街22號","121.44526","25.03395","6500500","新莊區"
"242019","351-TH","2019/11/09 17:59:31","新北市新莊區明中街49巷17號","121.456693333333","25.038995","6500500","新莊區"
"238015","755-BX","2019/11/09 17:59:20","新北市樹林區大安路307巷2弄10號","121.417868333333","24.9917233333333","6500700","樹林區"
"238023","601-UM","2019/11/09 17:59:37","新北市樹林區龍興街56號","121.40311","25.0153","6500700","樹林區"
"238019","599-UM","2019/11/09 17:59:23","新北市樹林區太平路148號","121.418551666667","24.978085","6500700","樹林區"
"238018","KEA-2217","2019/11/09 17:59:34","新北市樹林區中正路7-1號","121.43022","24.9976216666667","6500700","樹林區"
"238022","KEA-2213","2019/11/09 17:59:32","新北市樹林區太平路207號","121.418638333333","24.978085","6500700","樹林區"
"238021","KEA-2539","2019/11/09 17:59:39","新北市樹林區柑園街一段315號","121.392106666667","24.9563183333333","6500700","樹林區"
"238025","303-VK","2019/11/09 17:59:36","新北市樹林區三俊街45號","121.412663333333","25.01564","6500700","樹林區"
"238017","283-BY","2019/11/09 17:59:38","新北市樹林區中正路644號","121.4099","25.0161916666667","6500700","樹林區"
"238014","282-BY","2019/11/09 17:59:37","新北市樹林區中正路55巷9號","121.426461666667","24.9992733333333","6500700","樹林區"
"238020","268-VK","2019/11/09 17:59:21","新北市樹林區三俊街199巷20弄1-1號","121.420633333333","25.017835","6500700","樹林區"
"238026","172-UY","2019/11/09 17:59:23","新北市樹林區中洲街30巷6弄6號","121.397288333333","24.971305","6500700","樹林區"
"238016","169-UY","2019/11/09 17:59:33","新北市樹林區復興路295巷17號","121.419305","24.9885733333333","6500700","樹林區"
"239007","AAC-297","2019/11/09 17:59:37","新北市鶯歌區鶯桃路94巷33-1號","121.342021666667","24.9547183333333","6500800","鶯歌區"
"239006","891-R6","2019/11/09 17:59:31","新北市鶯歌區鶯桃路455巷2弄2號","121.331858333333","24.9654283333333","6500800","鶯歌區"
"239008","527-UM","2019/11/09 17:59:37","新北市鶯歌區欣欣街4-3號","121.335553333333","24.977265","6500800","鶯歌區"
"239005","526-UM","2019/11/09 17:59:35","新北市鶯歌區鶯桃路668巷74-4號","121.329966666667","24.97149","6500800","鶯歌區"
"239001","417-VK","2019/11/09 17:59:38","新北市鶯歌區中正三路256-1號","121.329628333333","24.9363533333333","6500800","鶯歌區"
"239003","360-BY","2019/11/09 17:59:34","新北市鶯歌區鶯桃路234巷1號","121.336703333333","24.959235","6500800","鶯歌區"
"239002","359-BY","2019/11/09 17:59:36","新北市鶯歌區育才街49號","121.34828","24.9549833333333","6500800","鶯歌區"
"221008","489-VK","2019/11/09 17:59:30","新北市汐止區康寧街613號","121.636306666667","25.071095","6501100","汐止區"
"221010","269-BY","2019/11/09 17:59:32","新北市汐止區汐萬路二段232號","121.646625","25.0882683333333","6501100","汐止區"
"221023","279-VK","2019/11/09 17:59:42","新北市汐止區明峰街84號","121.631381666667","25.0711766666667","6501100","汐止區"
"221029","298-VK","2019/11/09 17:59:42","新北市汐止區樟樹二路328號","121.641515","25.07021","6501100","汐止區"
"221031","353-TW","2019/11/09 17:59:40","新北市汐止區中興路96巷1-3號","121.635318333333","25.0625283333333","6501100","汐止區"
"221035","622-UM","2019/11/09 17:59:36","新北市汐止區汐萬路一段213號","121.651893333333","25.0720316666667","6501100","汐止區"
"221025","623-UM","2019/11/09 17:59:33","新北市汐止區仁愛路13號","121.65916","25.0639566666667","6501100","汐止區"
"221038","646-BX","2019/11/09 17:59:41","新北市汐止區新台五路一段145號","121.653271666667","25.062185","6501100","汐止區"
"221033","647-BX","2019/11/09 17:59:20","新北市汐止區合順街35號","121.620545","25.0431833333333","6501100","汐止區"
"221002","707-TV","2019/11/09 17:59:42","新北市汐止區中興路60號","121.63559","25.0615866666667","6501100","汐止區"
"221018","753-BX","2019/11/09 17:59:31","新北市汐止區忠孝東路339巷1號","121.665016666667","25.0700283333333","6501100","汐止區"
"233001","KEA-2870","2019/11/09 17:59:35","新北市烏來區西羅岸路22號","121.548971666667","24.8673983333333","6502900","烏來區"
"224002","257-TC","2019/11/09 17:59:28","新北市瑞芳區三爪子坑路143號","121.810475","25.1064366666667","6501200","瑞芳區"
"242046","281-VK","2019/11/09 17:59:38","新北市新莊區福營路187號","121.431296666667","25.030755","6500500","新莊區"
"242011","280-VK","2019/11/09 17:59:31","新北市新莊區中港路629號","121.45059","25.0538916666667","6500500","新莊區"
"235061","KEA-2875","2019/11/09 17:59:41","新北市中和區員山路107號","121.480856666667","24.994605","6500300","中和區"
