"lineid","car","time","location","longitude","latitude","cityid","cityname"
"251004","009-UM","2019/11/09 22:13:26","新北市淡水區民族路33號","121.4623","25.1358366666667","6501000","淡水區"
"251008","181-VK","2019/11/09 22:13:33","新北市淡水區學府路104號","121.449856666667","25.1718283333333","6501000","淡水區"
"251010","413-VK","2019/11/09 22:13:34","新北市淡水區沙崙路200號","121.424676666667","25.1838783333333","6501000","淡水區"
"251007","442-VK","2019/11/09 22:13:22","新北市淡水區北新路180號","121.449448333333","25.1786966666667","6501000","淡水區"
"251011","650-BX","2019/11/09 22:13:30","新北市淡水區水碓街7號","121.443168333333","25.1771583333333","6501000","淡水區"
