"lineid","car","time","location","longitude","latitude","cityid","cityname"
"232017","290-BY","2019/12/09 07:13:18","新北市坪林區九芎坑3-3號","121.726901666667","24.9645616666667","6502000","坪林區"
"232005","291-BY","2019/12/09 07:13:26","新北市坪林區魚堀39-1號","121.699473333333","24.9318866666667","6502000","坪林區"
"232010","375-UM","2019/12/09 07:13:25","新北市坪林區水聳淒坑1-3號","121.726105","24.925365","6502000","坪林區"
"232012","705-BZ","2019/12/09 07:13:23","新北市坪林區黃舉皮寮14-1號","121.688568333333","24.93486","6502000","坪林區"
"232001","758-BX","2019/12/09 07:13:22","新北市坪林區桶盤嶼11-1號","121.704078333333","24.9600683333333","6502000","坪林區"
"244001","248-BX","2019/12/09 07:13:20","新北市林口區文化北路96-3號","121.364618333333","25.07657","6501700","林口區"
"222004","289-BY","2019/12/09 07:13:26","新北市深坑區深坑街75號","121.614675","25.0012266666667","6501800","深坑區"
"223002","KEA-2673","2019/12/09 07:13:26","新北市石碇區碇格路二段31號","121.63885","24.95738","6501900","石碇區"
"223003","205-TH","2019/12/09 07:13:21","新北市石碇區烏塗窟14-1號","121.656138333333","24.9755533333333","6501900","石碇區"
"223008","406-TH","2019/12/09 07:13:13","新北市石碇區十八重溪6號","121.678105","25.0112166666667","6501900","石碇區"
"223001","437-BY","2019/12/09 07:13:18","新北市石碇區烏塗窟4-1號","121.653268333333","24.9779766666667","6501900","石碇區"
"223004","660-BX","2019/12/09 07:13:28","新北市石碇區靜安路一段47號","121.64671","25.0114366666667","6501900","石碇區"
"223007","661-BX","2019/12/09 07:13:21","新北市石碇區十八重溪6號","121.678105","25.011185","6501900","石碇區"
"227003","282-VK","2019/12/09 07:13:22","新北市雙溪區新基里自強路5號","121.866345","25.039035","6502500","雙溪區"
"252006","073-UM","2019/12/09 07:13:18","新北市三芝區古庄里山豬堀2-2號","121.499628333333","25.2495766666667","6502100","三芝區"
"252004","249-BX","2019/12/09 07:13:12","新北市三芝區錫板里小坑子20號","121.500958333333","25.23542","6502100","三芝區"
"237013","760-BX","2019/12/09 07:13:19","新北市三峽區大埔路375-2號","121.371743333333","24.8949316666667","6500900","三峽區"
"242024","362-BY","2019/12/09 07:13:14","新北市新莊區新泰路255巷83號","121.44205","25.038935","6500500","新莊區"
