"lineid","car","time","location","longitude","latitude","cityid","cityname"
"244004","248-BX","2019/10/25 07:59:46","新北市林口區下福里139-3號","121.300543333333","25.1174266666667","6501700","林口區"
"222004","289-BY","2019/10/25 07:59:46","新北市深坑區文化街98號","121.617001666667","25.0017916666667","6501800","深坑區"
"231009","192-VK","2019/10/25 07:59:47","新北市新店區新烏路一段58-2號","121.546078333333","24.9473833333333","6500600","新店區"
"231053","512-UM","2019/10/25 07:59:53","新北市新店區新和街33號","121.518971666667","24.9846466666667","6500600","新店區"
"223001","592-UM","2019/10/25 07:59:44","新北市石碇區橫坪4號","121.668256666667","24.9707233333333","6501900","石碇區"
"223004","660-BX","2019/10/25 07:59:49","新北市深坑區文山路一段1號","121.646193333333","25.0081933333333","6501900","石碇區"
"223007","661-BX","2019/10/25 07:41:36","新北市石碇區靜安路一段337號","121.698886666667","25.01442","6501900","石碇區"
"227003","282-VK","2019/10/25 07:59:56","新北市雙溪區平林里梅竹蹊16號","121.861968333333","25.0359516666667","6502500","雙溪區"
"237013","760-BX","2019/10/25 07:59:56","新北市三峽區紫微南路87號","121.420245","24.9047583333333","6500900","三峽區"
