"lineid","car","time","location","longitude","latitude","cityid","cityname"
"234044","148-BY","2019/10/25 12:59:19","新北市永和區得和路373巷16弄1號","121.525105","25.0003016666667","6500400","永和區"
"234078","298-R6","2019/10/25 12:59:28","新北市永和區永亨路70號","121.521076666667","25.0060333333333","6500400","永和區"
"234036","336-UY","2019/10/25 12:59:13","新北市永和區成功路二段199-2號","121.52658","24.9960416666667","6500400","永和區"
"234062","337-UY","2019/10/25 12:59:19","新北市永和區秀朗路一段156號","121.518326666667","25.00334","6500400","永和區"
"234084","338-UY","2019/10/25 12:59:13","新北市永和區永寧街131巷2號","121.518095","25.0050283333333","6500400","永和區"
"234068","552-UM","2019/10/25 12:59:17","新北市永和區竹林路96巷9號","121.51911","25.0120683333333","6500400","永和區"
"234015","745-BX","2019/10/25 12:59:14","新北市永和區永和路二段310號","121.516203333333","25.016135","6500400","永和區"
"234028","746-BX","2019/10/25 12:59:29","新北市永和區四維街75號","121.525196666667","24.9980533333333","6500400","永和區"
"234052","KEA-2590","2019/10/25 12:59:18","新北市永和區竹林路64號","121.518193333333","25.0135033333333","6500400","永和區"
"234005","KED-0605","2019/10/25 12:59:29","新北市永和區中山路一段24號","121.513873333333","25.010485","6500400","永和區"
"234012","KEA-2591","2019/10/25 12:59:26","新北市永和區信義路14-1號","121.514368333333","25.0121933333333","6500400","永和區"
"234060","AAD-866","2019/10/25 12:59:23","新北市永和區福和路301號","121.51641","25.0071616666667","6500400","永和區"
"234048","863-TW","2019/10/25 12:59:18","新北市永和區文化路190號","121.510885","25.0161983333333","6500400","永和區"
"234025","9371-KE","2019/10/25 12:59:15","新北市永和區水源街2巷3號","121.512453333333","25.0053883333333","6500400","永和區"
"234010","9373-KE","2019/10/25 12:59:26","新北市永和區仁愛路40巷9弄3號","121.513848333333","25.0140366666667","6500400","永和區"
"248019","KED-0813","2019/10/25 12:59:13","新北市五股區中興路二段63巷17號","121.460236666667","25.0754633333333","6501500","五股區"
"234022","9380-KE","2019/10/25 12:59:28","新北市永和區竹林路72巷2號","121.518856666667","25.013125","6500400","永和區"
"234076","969-R7","2019/10/25 12:59:21","新北市永和區民享街21號","121.515628333333","24.9949466666667","6500400","永和區"
"234066","AAC-212","2019/10/25 12:59:21","新北市永和區自由街53號","121.513745","25.00571","6500400","永和區"
"234001","AAC-295","2019/10/25 12:59:23","新北市永和區永和路一段174號","121.51423","25.0087133333333","6500400","永和區"
"231030","002-UM","2019/10/25 12:59:10","新北市新店區安華路28-1號","121.519633333333","24.960785","6500600","新店區"
"231024","0291-UT","2019/10/25 12:59:20","新北市新店區安華路28-1號","121.519718333333","24.9608183333333","6500600","新店區"
"231005","046-UY","2019/10/25 12:59:25","新北市新店區安華路28-1號","121.519353333333","24.9606683333333","6500600","新店區"
"231003","047-UY","2019/10/25 12:59:15","新北市新店區安一路一段1-1號","121.519623333333","24.9612133333333","6500600","新店區"
"231029","106-UY","2019/10/25 12:59:15","新北市新店區安華路28-1號","121.519775","24.9607566666667","6500600","新店區"
"231013","108-UY","2019/10/25 12:59:18","新北市新店區安一路一段1-1號","121.519536666667","24.96112","6500600","新店區"
"231036","110-UY","2019/10/25 12:59:13","新北市新店區安一路一段1-1號","121.519198333333","24.9611633333333","6500600","新店區"
"231032","256-BX","2019/10/25 12:59:29","新北市新店區安華路28-1號","121.519793333333","24.9610033333333","6500600","新店區"
"231023","260-TV","2019/10/25 12:59:09","新北市新店區安一路一段1-1號","121.51913","24.96117","6500600","新店區"
"231035","278-BY","2019/10/25 12:59:15","新北市新店區安一路一段1-1號","121.519806666667","24.9610766666667","6500600","新店區"
"231016","AAD-862","2019/10/25 12:59:13","新北市新店區安華路28-1號","121.519585","24.9608133333333","6500600","新店區"
"231025","4715-K9","2019/10/25 12:59:27","新北市新店區安華路28-1號","121.519351666667","24.960635","6500600","新店區"
"231022","513-UM","2019/10/25 12:59:25","新北市新店區安一路一段1-1號","121.519701666667","24.9612633333333","6500600","新店區"
"231034","616-UM","2019/10/25 12:59:08","新北市新店區安華路1-1號","121.519553333333","24.9605066666667","6500600","新店區"
"231010","719-UM","2019/10/25 12:59:22","新北市新店區安一路一段1-1號","121.519553333333","24.96127","6500600","新店區"
"231028","897-TW","2019/10/25 12:59:30","新北市新店區安華路28-1號","121.519581666667","24.96085","6500600","新店區"
"235027","006-UY","2019/10/25 12:59:30","新北市中和區員山路36巷16-3號","121.484953333333","24.991235","6500300","中和區"
"235029","098-UM","2019/10/25 12:59:25","新北市中和區橋和路270號","121.49578","25.0064766666667","6500300","中和區"
"235022","151-BY","2019/10/25 12:59:23","新北市中和區圓通路367巷33弄4號","121.493896666667","24.985505","6500300","中和區"
"235002","185-VK","2019/10/25 12:59:19","新北市中和區成功路9號","121.526335","24.9940166666667","6500300","中和區"
"235031","255-BX","2019/10/25 12:59:28","新北市中和區中山路二段552號","121.48372","25.0052333333333","6500300","中和區"
"235006","KEA-2878","2019/10/25 12:59:28","新北市中和區員山路36巷16-3號","121.484635","24.9915633333333","6500300","中和區"
"235034","558-UM","2019/10/25 12:59:14","新北市中和區員山路36巷16-2號","121.485133333333","24.9915233333333","6500300","中和區"
"235009","565-BX","2019/10/25 12:59:20","新北市中和區員山路36巷13號","121.484281666667","24.99098","6500300","中和區"
"235016","805-TS","2019/10/25 12:59:24","新北市中和區員山路36巷16-3號","121.484578333333","24.9911766666667","6500300","中和區"
"235028","911-UM","2019/10/25 12:59:28","新北市中和區中正路277-6號","121.49515","24.993845","6500300","中和區"
"235015","157-BY","2019/10/25 12:59:30","新北市中和區員山路36巷16-3號","121.484911666667","24.9914183333333","6500300","中和區"
"235001","AAC-213","2019/10/25 12:59:23","新北市中和區景平路155號","121.5133","24.992365","6500300","中和區"
"220013","072-UY","2019/10/25 12:59:21","新北市板橋區華東街1-9號","121.44814","24.994895","6500100","板橋區"
"207002","749-BX","2019/10/25 12:59:10","新北市萬里區雙興里大坪路39號","121.62598","25.17149","6502800","萬里區"
"207001","662-BX","2019/10/25 12:59:11","新北市萬里區萬里里獅頭路22-1號","121.69304","25.1782583333333","6502800","萬里區"
"237013","760-BX","2019/10/25 12:59:29","新北市三峽區中山路459巷137號","121.349826666667","24.9334866666667","6500900","三峽區"
"220002","741-BX","2019/10/25 12:59:20","新北市板橋區華東街1-9號","121.448141666667","24.994965","6500100","板橋區"
"235025","KEA-2875","2019/10/25 12:59:13","新北市中和區和城路一段271巷1號","121.485361666667","24.991765","6500300","中和區"
"235026","KEA-2876","2019/10/25 12:59:19","新北市中和區錦和路126號","121.48926","24.9983033333333","6500300","中和區"
