"lineid","car","time","location","longitude","latitude","cityid","cityname"
"234044","148-BY","2019/10/25 13:29:19","新北市永和區秀朗路二段228號","121.526271666667","24.9996366666667","6500400","永和區"
"234078","298-R6","2019/10/25 13:29:28","新北市永和區福和路5號","121.525145","25.0087166666667","6500400","永和區"
"234036","336-UY","2019/10/25 13:29:13","新北市永和區民樂街30巷2號","121.52759","25.0012316666667","6500400","永和區"
"234062","337-UY","2019/10/25 13:29:19","新北市永和區得和路243巷16號","121.520585","25.0007416666667","6500400","永和區"
"234084","338-UY","2019/10/25 13:29:13","新北市永和區林森路41巷1號","121.525175","25.004665","6500400","永和區"
"234068","552-UM","2019/10/25 13:29:17","新北市永和區警光街1-1號","121.520085","25.009615","6500400","永和區"
"234015","745-BX","2019/10/25 13:29:14","新北市永和區環河西路一段17號","121.514486666667","25.0181383333333","6500400","永和區"
"234028","746-BX","2019/10/25 13:29:29","新北市永和區民權路29巷19號","121.52106","24.9980666666667","6500400","永和區"
"234052","KEA-2590","2019/10/25 13:29:18","新北市永和區竹林路23號","121.517293333333","25.0146","6500400","永和區"
"234005","KED-0605","2019/10/25 13:29:15","新北市永和區中山路一段322-1號","121.50653","25.006815","6500400","永和區"
"234012","KEA-2591","2019/10/25 13:29:06","新北市永和區永平路201號","121.5094","25.0099683333333","6500400","永和區"
"234060","AAD-866","2019/10/25 13:29:23","新北市永和區永貞路141號","121.516321666667","25.0041583333333","6500400","永和區"
"234040","862-TW","2019/10/25 13:29:22","新北市永和區水源街39巷28號","121.510701666667","25.0031166666667","6500400","永和區"
"234048","863-TW","2019/10/25 13:29:18","新北市永和區文化路146號","121.512505","25.0153166666667","6500400","永和區"
"234025","9371-KE","2019/10/25 13:28:55","新北市永和區和平街19號","121.513566666667","25.0099066666667","6500400","永和區"
"234010","9373-KE","2019/10/25 13:29:26","新北市永和區仁愛路141巷9號","121.511698333333","25.0118633333333","6500400","永和區"
"248019","KED-0813","2019/10/25 13:29:17","新北市五股區孝義路84號","121.448985","25.1154866666667","6501500","五股區"
"234022","9380-KE","2019/10/25 13:29:28","新北市永和區竹林路91巷70號","121.522086666667","25.0136233333333","6500400","永和區"
"234076","969-R7","2019/10/25 13:29:10","新北市永和區智光街32巷1號","121.517835","24.9987933333333","6500400","永和區"
"234072","AAC-211","2019/10/25 13:29:19","新北市永和區光復街60巷4弄10號","121.516916666667","25.0178516666667","6500400","永和區"
"234066","AAC-212","2019/10/25 13:29:10","新北市永和區保平路174巷2號","121.510821666667","25.0067533333333","6500400","永和區"
"234001","AAC-295","2019/10/25 13:29:23","新北市永和區永和路一段118號","121.513938333333","25.0078633333333","6500400","永和區"
"244004","248-BX","2019/10/25 13:29:20","新北市林口區頂福里21-7號","121.350651666667","25.0869083333333","6501700","林口區"
"243001","267-VK","2019/10/25 13:29:24","新北市泰山區大科坑81號","121.3952","25.06275","6501600","泰山區"
"231030","002-UM","2019/10/25 13:29:10","新北市新店區安華路28-1號","121.519746666667","24.9609633333333","6500600","新店區"
"231024","0291-UT","2019/10/25 13:29:20","新北市新店區中正路128巷11號","121.5426","24.9720816666667","6500600","新店區"
"231005","046-UY","2019/10/25 13:29:25","新北市新店區寶中路45號","121.545228333333","24.97915","6500600","新店區"
"231003","047-UY","2019/10/25 13:29:15","新北市新店區中興路二段217號","121.548131666667","24.9743333333333","6500600","新店區"
"231029","106-UY","2019/10/25 13:29:14","新北市新店區安華路28-1號","121.519711666667","24.960885","6500600","新店區"
"231018","107-UY","2019/10/25 13:29:11","新北市新店區環河路119-1號","121.530726666667","24.97075","6500600","新店區"
"231013","108-UY","2019/10/25 13:29:18","新北市新店區環河路114巷4-1號","121.53706","24.9648866666667","6500600","新店區"
"231036","110-UY","2019/10/25 13:29:13","新北市新店區安祥路158巷3號","121.475268333333","24.95478","6500600","新店區"
"231032","256-BX","2019/10/25 13:29:08","新北市新店區安豐路60-1號","121.498335","24.9530933333333","6500600","新店區"
"231023","260-TV","2019/10/25 13:29:09","新北市新店區光明街9號","121.538138333333","24.9593283333333","6500600","新店區"
"231035","278-BY","2019/10/25 13:29:15","新北市新店區安華路8號","121.519866666667","24.9625016666667","6500600","新店區"
"231016","AAD-862","2019/10/25 13:29:13","新北市新店區北新路一段43號","121.538143333333","24.9594116666667","6500600","新店區"
"231006","355-BY","2019/10/25 13:29:28","新北市新店區安華路28-1號","121.519066666667","24.9609133333333","6500600","新店區"
"231038","3712-VJ","2019/10/25 13:29:21","新北市新店區安華路28-1號","121.51922","24.96062","6500600","新店區"
"231027","3713-VJ","2019/10/25 13:29:24","新北市新店區環河路19巷4號","121.537558333333","24.9608566666667","6500600","新店區"
"231025","4715-K9","2019/10/25 13:29:08","新北市新店區中央五街39號","121.528431666667","24.9750716666667","6500600","新店區"
"231022","513-UM","2019/10/25 13:29:05","新北市新店區秀山路20號","121.53252","24.960325","6500600","新店區"
"231034","616-UM","2019/10/25 13:29:28","新北市新店區安華路28-1號","121.519666666667","24.9606316666667","6500600","新店區"
"231002","619-UM","2019/10/25 13:29:17","新北市新店區安康路一段206號","121.524161666667","24.9634683333333","6500600","新店區"
"231012","KED-0819","2019/10/25 13:29:24","新北市新店區環河路29巷1號","121.536778333333","24.9612783333333","6500600","新店區"
"231010","719-UM","2019/10/25 13:29:22","新北市新店區中正路347號","121.535363333333","24.9758483333333","6500600","新店區"
"231026","720-UM","2019/10/25 13:29:09","新北市新店區安一路一段1-1號","121.51919","24.9610666666667","6500600","新店區"
"231028","897-TW","2019/10/25 13:29:10","新北市新店區安華路28-1號","121.519576666667","24.9609466666667","6500600","新店區"
"231001","898-TW","2019/10/25 13:29:25","新北市新店區安華路28-1號","121.519433333333","24.960915","6500600","新店區"
"231004","899-TW","2019/10/25 13:29:17","新北市新店區安華路28-1號","121.518983333333","24.96082","6500600","新店區"
"231037","AKT-0513","2019/10/25 13:29:23","新北市新店區薏仁坑路59號","121.490433333333","24.9650516666667","6500600","新店區"
"235030","003-UY","2019/10/25 13:29:19","新北市中和區中山路二段119號","121.502803333333","25.0036116666667","6500300","中和區"
"235027","006-UY","2019/10/25 13:29:11","新北市中和區連城路347巷2弄1號","121.488208333333","24.9958033333333","6500300","中和區"
"235020","096-UM","2019/10/25 13:29:17","新北市中和區新民街104號","121.480855","25.0083633333333","6500300","中和區"
"235003","097-UM","2019/10/25 13:29:24","新北市中和區大仁街19巷8號","121.517283333333","24.9933516666667","6500300","中和區"
"235029","098-UM","2019/10/25 13:29:25","新北市中和區莊敬路49巷20弄12號","121.5023","25.00589","6500300","中和區"
"235004","150-BY","2019/10/25 13:29:18","新北市中和區保健路50巷66號","121.509208333333","24.9952083333333","6500300","中和區"
"235022","151-BY","2019/10/25 13:29:23","新北市中和區圓通路369巷39-30號","121.489741666667","24.9858933333333","6500300","中和區"
"235019","183-VK","2019/10/25 13:29:21","新北市中和區莒光路167號","121.472818333333","25.0000316666667","6500300","中和區"
"235002","185-VK","2019/10/25 13:29:19","新北市中和區立人街45號","121.5206","24.9943066666667","6500300","中和區"
"235031","255-BX","2019/10/25 13:29:28","新北市中和區員山路148巷49號","121.482758333333","24.9971783333333","6500300","中和區"
"235036","301-VK","2019/10/25 13:29:17","新北市中和區連城路183號","121.495183333333","24.998215","6500300","中和區"
"235007","352-BY","2019/10/25 13:29:25","新北市中和區景平路239號","121.509735","24.9928166666667","6500300","中和區"
"235006","KEA-2878","2019/10/25 13:29:28","新北市中和區秀朗路三段150巷10號","121.523815","24.9909716666667","6500300","中和區"
"235014","4979-A6","2019/10/25 13:29:14","新北市中和區景新街362巷5號","121.511953333333","24.99013","6500300","中和區"
"235033","4980-A6","2019/10/25 13:29:20","新北市中和區連城路125號","121.496128333333","24.9993466666667","6500300","中和區"
"235018","551-UM","2019/10/25 13:29:26","新北市中和區民享街51號","121.474081666667","25.0026633333333","6500300","中和區"
"235034","558-UM","2019/10/25 13:29:14","新北市中和區安和路159號","121.506276666667","24.9973916666667","6500300","中和區"
"235009","565-BX","2019/10/25 13:29:20","新北市中和區南山路236巷36弄8號","121.504156666667","24.9884216666667","6500300","中和區"
"235024","KED-0823","2019/10/25 13:29:13","新北市中和區中山路二段531號","121.481478333333","25.0053816666667","6500300","中和區"
"235035","647-TV","2019/10/25 13:29:27","新北市中和區中板路18巷1弄12號","121.483751666667","25.0124183333333","6500300","中和區"
"235011","732-UM","2019/10/25 13:29:16","新北市中和區南山路405號","121.506956666667","24.9899333333333","6500300","中和區"
"235010","733-UM","2019/10/25 13:29:13","新北市中和區南山路273號","121.50399","24.9924066666667","6500300","中和區"
"235021","801-TS","2019/10/25 13:29:21","新北市中和區民安街42巷36號","121.479041666667","25.0011683333333","6500300","中和區"
"235005","802-TS","2019/10/25 13:29:16","新北市中和區中和路322號","121.509883333333","25.0008416666667","6500300","中和區"
"235016","805-TS","2019/10/25 13:29:26","新北市中和區興南路二段108號","121.504761666667","24.9839833333333","6500300","中和區"
"235012","896-TW","2019/10/25 13:29:23","新北市中和區中正路637巷52弄1號","121.48542","24.993425","6500300","中和區"
"235017","900-TW","2019/10/25 13:29:25","新北市中和區連城路607號","121.478461666667","24.99312","6500300","中和區"
"235028","911-UM","2019/10/25 13:29:28","新北市中和區連城路109巷26號","121.496856666667","24.9984183333333","6500300","中和區"
"235015","157-BY","2019/10/25 13:29:10","新北市中和區興南路二段114巷10弄12號","121.503953333333","24.9848333333333","6500300","中和區"
"235001","AAC-213","2019/10/25 13:29:22","新北市中和區景德街141號","121.514598333333","24.9909466666667","6500300","中和區"
"220013","072-UY","2019/10/25 13:29:21","新北市板橋區南雅南路二段116號","121.453286666667","25.0003066666667","6500100","板橋區"
"220017","AAD-861","2019/10/25 13:29:27","新北市板橋區華東街1-10號","121.448351666667","24.9951216666667","6500100","板橋區"
"247013","056-VK","2019/10/25 13:29:18","新北市五股區中興路三段2巷10號","121.449381666667","25.0809716666667","6501400","蘆洲區"
"235013","251-BX","2019/10/25 13:29:31","新北市中和區景安路142號","121.505128333333","24.9941683333333","6500300","中和區"
"207002","749-BX","2019/10/25 13:29:22","新北市萬里區崁腳里崁腳路166號","121.645101666667","25.1558816666667","6502800","萬里區"
"207001","662-BX","2019/10/25 13:28:11","新北市萬里區龜吼里石角路43號","121.684353333333","25.1922333333333","6502800","萬里區"
"237013","760-BX","2019/10/25 13:29:09","新北市三峽區永安街1號","121.378173333333","24.929845","6500900","三峽區"
"247011","KED-0683","2019/10/25 13:29:09","新北市五股區新五路二段258號","121.440905","25.0822283333333","6501400","蘆洲區"
"220027","145-BY","2019/10/25 13:29:09","新北市板橋區華東街1-10號","121.448338333333","24.995125","6500100","板橋區"
"220028","200-UY","2019/10/25 13:29:14","新北市板橋區華東街1-9號","121.448103333333","24.9949416666667","6500100","板橋區"
"220030","610-BX","2019/10/25 13:29:21","新北市板橋區華東街1-10號","121.448276666667","24.9949433333333","6500100","板橋區"
"220004","276-BY","2019/10/25 13:29:11","新北市板橋區華東街1-9號","121.44809","24.9949433333333","6500100","板橋區"
"220029","287-VK","2019/10/25 13:29:25","新北市板橋區華東街1-10號","121.448245","24.9950266666667","6500100","板橋區"
"220032","296-UM","2019/10/25 13:29:21","新北市板橋區華東街1-9號","121.44814","24.9949883333333","6500100","板橋區"
"220023","303-R5","2019/10/25 13:29:17","新北市板橋區華東街1-9號","121.448221666667","24.9949783333333","6500100","板橋區"
"220107","568-UM","2019/10/25 13:29:24","新北市板橋區華東街1-10號","121.448681666667","24.9950166666667","6500100","板橋區"
"220025","687-BX","2019/10/25 13:29:23","新北市板橋區板城路421號","121.44824","24.9960216666667","6500100","板橋區"
"220002","741-BX","2019/10/25 13:29:20","新北市板橋區華東街1-9號","121.448156666667","24.994955","6500100","板橋區"
"220003","827-TW","2019/10/25 13:29:24","新北市板橋區華東街1-9號","121.448153333333","24.9948966666667","6500100","板橋區"
"220022","895-R6","2019/10/25 13:29:22","新北市板橋區南雅南路二段142巷19號","121.451285","24.996875","6500100","板橋區"
"220021","985-R7","2019/10/25 13:29:25","新北市板橋區四川路二段140巷20號","121.449266666667","24.9933783333333","6500100","板橋區"
"220012","AAC-253","2019/10/25 13:29:16","新北市板橋區華東街11號","121.450708333333","24.9978","6500100","板橋區"
"235032","KEA-2873","2019/10/25 13:29:28","新北市中和區中正路215號","121.496771666667","24.993735","6500300","中和區"
"235025","KEA-2875","2019/10/25 13:29:17","新北市中和區民享街92巷23號","121.473776666667","24.9996166666667","6500300","中和區"
"235026","KEA-2876","2019/10/25 13:29:06","新北市中和區中山路二段312巷12號","121.495431666667","25.003625","6500300","中和區"
