"lineid","car","time","location","longitude","latitude","cityid","cityname"
"249005","172-UM","2019/10/25 16:43:17","新北市八里區大堀湖1-5號","121.42269","25.154185","6502300","八里區"
"249002","305-UY","2019/10/25 16:43:15","新北市八里區牛寮埔33號","121.429906666667","25.14572","6502300","八里區"
"249003","593-UM","2019/10/25 16:43:27","新北市八里區中山路二段283號","121.401573333333","25.1486733333333","6502300","八里區"
"231046","719-UM","2019/10/25 16:43:18","新北市新店區灣潭路3-5號","121.538063333333","24.9508183333333","6500600","新店區"
"241011","013-R5","2019/10/25 16:43:17","新北市三重區仁愛街53巷42號","121.49745","25.0721583333333","6500200","三重區"
"241028","022-UY","2019/10/25 16:43:15","新北市三重區正義南路6號","121.498021666667","25.0616866666667","6500200","三重區"
"241008","059-VK","2019/10/25 16:43:19","新北市三重區永安北路一段27巷19號","121.477063333333","25.0754216666667","6500200","三重區"
"241002","060-VK","2019/10/25 16:43:15","新北市三重區仁義街241巷32號","121.497081666667","25.0830783333333","6500200","三重區"
"241031","061-VK","2019/10/25 16:43:21","新北市三重區三陽路1號","121.48652","25.0588216666667","6500200","三重區"
"241015","062-VK","2019/10/25 16:43:17","新北市三重區文化北路43巷21號","121.499471666667","25.065535","6500200","三重區"
"241017","063-VK","2019/10/25 16:43:18","新北市三重區中正北路25巷2號","121.493218333333","25.0627233333333","6500200","三重區"
"241024","065-VK","2019/10/25 16:43:27","新北市三重區中正北路315巷6弄51號","121.476446666667","25.0722233333333","6500200","三重區"
"241007","066-VK","2019/10/25 16:43:28","新北市三重區三和路四段177-1號","121.482891666667","25.0788616666667","6500200","三重區"
"241003","091-VK","2019/10/25 16:43:18","新北市三重區五華街71巷3號","121.492745","25.0829566666667","6500200","三重區"
"241006","262-UM","2019/10/25 16:43:18","新北市三重區力行路二段184號","121.483226666667","25.07734","6500200","三重區"
"241016","266-UM","2019/10/25 16:43:11","新北市三重區大同北路111號","121.494158333333","25.064235","6500200","三重區"
"241009","267-UM","2019/10/25 16:43:20","新北市三重區三和路四段203巷106號","121.484843333333","25.0802516666667","6500200","三重區"
"241018","268-UM","2019/10/25 16:43:15","新北市三重區正義北路302巷35號","121.494056666667","25.0696516666667","6500200","三重區"
"241032","269-UM","2019/10/25 16:43:11","新北市三重區重陽路一段118號","121.486366666667","25.060115","6500200","三重區"
"241013","270-UM","2019/10/25 16:43:19","新北市三重區仁壽街73號","121.497751666667","25.0736633333333","6500200","三重區"
"241025","271-UM","2019/10/25 16:43:10","新北市三重區中正北路534號","121.471626666667","25.0717583333333","6500200","三重區"
"241030","KED-0822","2019/10/25 16:43:00","新北市三重區環河南路222號","121.492613333333","25.0518516666667","6500200","三重區"
"241023","462-BY","2019/10/25 16:43:19","新北市三重區洛陽街55巷2號","121.481378333333","25.0631216666667","6500200","三重區"
"241004","475-VK","2019/10/25 16:43:24","新北市三重區仁愛街387號","121.491401666667","25.0806666666667","6500200","三重區"
"241020","478-VK","2019/10/25 16:43:28","新北市三重區忠孝路二段34號","121.485763333333","25.0710083333333","6500200","三重區"
"241026","480-VK","2019/10/25 16:43:15","新北市三重區文化南路8-4號","121.500311666667","25.06206","6500200","三重區"
"241014","543-UM","2019/10/25 16:43:12","新北市三重區長壽街120巷23號","121.502391666667","25.0693783333333","6500200","三重區"
"241001","547-UM","2019/10/25 16:43:18","新北市三重區仁政街76巷8號","121.492251666667","25.077245","6500200","三重區"
"241019","KEA-2593","2019/10/25 16:43:21","新北市三重區力行路一段179巷12號","121.484956666667","25.06992","6500200","三重區"
"241005","AAD-863","2019/10/25 16:43:15","新北市三重區仁安街51號","121.48423","25.0839466666667","6500200","三重區"
"241012","743-BX","2019/10/25 16:43:25","新北市三重區仁興街9-1號","121.499943333333","25.0741283333333","6500200","三重區"
"241029","942-UM","2019/10/25 16:43:26","新北市三重區新興路55號","121.491286666667","25.0538433333333","6500200","三重區"
"241033","AAC-255","2019/10/25 16:43:17","新北市三重區光復路二段131號","121.472076666667","25.0590883333333","6500200","三重區"
"247014","056-VK","2019/10/25 16:43:17","新北市蘆洲區三民路378號","121.464256666667","25.0915016666667","6501400","蘆洲區"
"247002","001-UY","2019/10/25 16:43:13","新北市五股區凌雲路一段21號","121.452533333333","25.100525","6501400","蘆洲區"
"228002","663-BX","2019/10/25 16:43:15","新北市貢寮區貢寮里朝陽街54號","121.910375","25.0217366666667","6502600","貢寮區"
"224007","285-BY","2019/10/25 16:43:22","新北市瑞芳區中央路48巷174號","121.759085","25.1033216666667","6501200","瑞芳區"
"224005","271-BY","2019/10/25 16:43:20","新北市瑞芳區洞頂路157號","121.861378333333","25.1225083333333","6501200","瑞芳區"
"227002","642-TC","2019/10/25 16:43:22","新北市雙溪區長源里柑腳8號","121.80468","25.0145366666667","6502500","雙溪區"
"227001","400-TW","2019/10/25 16:43:23","新北市雙溪區牡丹里聖南31-1號","121.85563","25.054335","6502500","雙溪區"
"251004","180-VK","2019/10/25 16:43:26","新北市淡水區中正路二段31號","121.41928","25.18182","6501000","淡水區"
"251008","181-VK","2019/10/25 16:43:28","新北市淡水區樹梅坑9號","121.472806666667","25.1426916666667","6501000","淡水區"
"251011","650-BX","2019/10/25 16:43:19","新北市淡水區中正路一段85號","121.422263333333","25.17899","6501000","淡水區"
"252002","178-VK","2019/10/25 16:43:26","新北市三芝區茂長里陳厝坑61-4號","121.513546666667","25.25502","6502100","三芝區"
"237011","433-BY","2019/10/25 16:43:17","新北市三峽區中山路459巷135號","121.348886666667","24.9331133333333","6500900","三峽區"
"247012","KED-0683","2019/10/25 16:43:09","新北市五股區凌雲路一段21號","121.452558333333","25.1005433333333","6501400","蘆洲區"
"252001","KED-0821","2019/10/25 16:43:27","新北市三芝區茂長里陳厝坑2-1號","121.507961666667","25.266625","6502100","三芝區"
"242025","362-BY","2019/10/25 16:43:18","新北市新莊區新泰路357巷3弄57號","121.442118333333","25.039105","6500500","新莊區"
"239007","AAC-297","2019/10/25 16:43:20","新北市鶯歌區二甲路13-16號","121.345023333333","24.935065","6500800","鶯歌區"
"224002","257-TC","2019/10/25 16:30:23","新北市瑞芳區明燈路二段46號","121.809448333333","25.10819","6501200","瑞芳區"
"242011","280-VK","2019/10/25 16:43:08","新北市新莊區三和路12-21號","121.442006666667","25.038375","6500500","新莊區"
"235062","KEA-2876","2019/10/25 16:42:09","新北市中和區員山路36巷16-3號","121.484978333333","24.99147","6500300","中和區"
