"lineid","car","time","location","longitude","latitude","cityid","cityname"
"234026","9371-KE","2019/10/25 18:13:49","新北市永和區自強街8巷5弄1號","121.514766666667","25.00772","6500400","永和區"
"249005","172-UM","2019/10/25 18:13:57","新北市八里區荖阡坑路15-40號","121.401646666667","25.1399666666667","6502300","八里區"
"249001","173-UM","2019/10/25 18:13:56","新北市八里區龍米路一段245號","121.451083333333","25.1333166666667","6502300","八里區"
"249004","303-UY","2019/10/25 18:13:56","新北市八里區龍米路二段200巷3號","121.43364","25.1587866666667","6502300","八里區"
"249002","305-UY","2019/10/25 18:13:55","新北市八里區龍形一街3號","121.450713333333","25.1306983333333","6502300","八里區"
"249003","593-UM","2019/10/25 18:13:47","新北市八里區中華路一段333-1號","121.412846666667","25.1537","6502300","八里區"
"248016","026-BX","2019/10/25 18:13:44","新北市五股區成泰路三段221巷16號","121.445761666667","25.09345","6501500","五股區"
"248006","077-UY","2019/10/25 18:13:56","新北市五股區中興路一段169號","121.464665","25.073755","6501500","五股區"
"248008","KED-0815","2019/10/25 18:13:50","新北市五股區更洲路32巷26號","121.459196666667","25.080095","6501500","五股區"
"248018","KED-0813","2019/10/25 18:13:43","新北市五股區御史路86號","121.440351666667","25.0949683333333","6501500","五股區"
"248014","261-SL","2019/10/25 18:13:46","新北市五股區成泰路一段142-1號","121.435003333333","25.07612","6501500","五股區"
"248004","677-BX","2019/10/25 18:13:59","新北市五股區中興路四段49號","121.438146666667","25.082885","6501500","五股區"
"248010","682-TV","2019/10/25 18:13:46","新北市五股區成泰路一段212號","121.436411666667","25.07923","6501500","五股區"
"232011","375-UM","2019/10/25 18:13:53","新北市坪林區坪雙路一段41號","121.711745","24.9424633333333","6502000","坪林區"
"244007","080-UY","2019/10/25 18:13:44","新北市林口區湖子36-1號","121.386123333333","25.0943483333333","6501700","林口區"
"244019","402-UM","2019/10/25 18:13:56","新北市林口區忠孝路580巷19號","121.375221666667","25.0670666666667","6501700","林口區"
"244013","KEA-2802","2019/10/25 18:13:41","新北市林口區中山路248號","121.386701666667","25.079355","6501700","林口區"
"244023","483-VK","2019/10/25 18:13:38","新北市林口區東湖路153巷151號","121.382205","25.0737266666667","6501700","林口區"
"244017","485-VK","2019/10/25 18:13:58","新北市林口區公園路43號","121.367376666667","25.06836","6501700","林口區"
"244009","656-BX","2019/10/25 18:13:44","新北市林口區民生路140號","121.379055","25.08802","6501700","林口區"
"244011","701-TV","2019/10/25 18:13:48","新北市林口區仁愛路一段292號","121.392726666667","25.0764383333333","6501700","林口區"
"244025","837-TS","2019/10/25 18:13:53","新北市林口區文化北路一段299巷17-11號","121.359868333333","25.0732133333333","6501700","林口區"
"244021","838-TS","2019/10/25 18:13:36","新北市林口區自強一街28號","121.398706666667","25.0779833333333","6501700","林口區"
"222003","436-BY","2019/10/25 18:13:53","新北市深坑區文山路一段64號","121.623738333333","25.0005966666667","6501800","深坑區"
"222002","659-BX","2019/10/25 18:13:41","新北市深坑區文化街15號","121.62023","25.0013733333333","6501800","深坑區"
"231055","0291-UT","2019/10/25 18:13:47","新北市新店區安華路28-1號","121.519736666667","24.960675","6500600","新店區"
"231044","046-UY","2019/10/25 18:13:48","新北市新店區安華路28-1號","121.519415","24.9608333333333","6500600","新店區"
"231042","047-UY","2019/10/25 18:13:41","新北市新店區安一路一段1-1號","121.519688333333","24.9613583333333","6500600","新店區"
"231062","256-BX","2019/10/25 18:13:51","新北市新店區安一路一段1-1號","121.51976","24.9611716666667","6500600","新店區"
"231054","260-TV","2019/10/25 18:13:46","新北市新店區安一路一段1-1號","121.519215","24.9611","6500600","新店區"
"231064","278-BY","2019/10/25 18:13:52","新北市新店區安一路一段1-1號","121.51984","24.961205","6500600","新店區"
"231050","AAD-862","2019/10/25 18:13:54","新北市新店區安一路一段1-1號","121.519728333333","24.9610933333333","6500600","新店區"
"231045","355-BY","2019/10/25 18:13:57","新北市新店區安華路28-1號","121.519311666667","24.960875","6500600","新店區"
"231058","3713-VJ","2019/10/25 18:13:54","新北市新店區安華路28-1號","121.519241666667","24.96062","6500600","新店區"
"231056","4715-K9","2019/10/25 18:13:43","新北市新店區安康路一段3-1號","121.53546","24.961025","6500600","新店區"
"231053","513-UM","2019/10/25 18:13:45","新北市新店區安一路一段1-1號","121.520071666667","24.9611366666667","6500600","新店區"
"231063","616-UM","2019/10/25 18:13:53","新北市新店區安華路28-1號","121.519288333333","24.9607983333333","6500600","新店區"
"231041","619-UM","2019/10/25 18:13:38","新北市新店區安華路1-1號","121.519341666667","24.96049","6500600","新店區"
"231040","898-TW","2019/10/25 18:13:50","新北市新店區安一路一段1-1號","121.51937","24.9610233333333","6500600","新店區"
"231043","899-TW","2019/10/25 18:13:43","新北市新店區安華路28-1號","121.519373333333","24.9608033333333","6500600","新店區"
"241033","AAC-255","2019/10/25 18:13:57","新北市三重區中興北街42巷17號","121.468865","25.0493216666667","6500200","三重區"
"235066","003-UY","2019/10/25 18:13:48","新北市中和區中山路二段191號","121.500136666667","25.002745","6500300","中和區"
"235063","006-UY","2019/10/25 18:13:57","新北市中和區中正路577號","121.486418333333","24.99447","6500300","中和區"
"235039","097-UM","2019/10/25 18:13:42","新北市中和區中正路213號","121.496923333333","24.9936683333333","6500300","中和區"
"235065","098-UM","2019/10/25 18:13:45","新北市中和區莊敬路49巷18號","121.50163","25.0061766666667","6500300","中和區"
"235040","150-BY","2019/10/25 18:13:40","新北市中和區景安路77號","121.50656","24.9973683333333","6500300","中和區"
"235058","151-BY","2019/10/25 18:13:54","新北市中和區圓通路367巷29號","121.492111666667","24.985505","6500300","中和區"
"235055","183-VK","2019/10/25 18:13:57","新北市中和區新生街237號","121.483831666667","24.998985","6500300","中和區"
"235038","185-VK","2019/10/25 18:13:55","新北市中和區大智街27號","121.520208333333","24.991995","6500300","中和區"
"235072","301-VK","2019/10/25 18:13:52","新北市中和區錦和路176號","121.48993","24.9955883333333","6500300","中和區"
"235043","352-BY","2019/10/25 18:13:40","新北市中和區景平路381號","121.503908333333","24.9933383333333","6500300","中和區"
"235042","KEA-2878","2019/10/25 18:13:44","新北市中和區景平路159巷1號","121.512653333333","24.992095","6500300","中和區"
"235069","4980-A6","2019/10/25 18:13:49","新北市中和區連城路169號","121.495476666667","24.9982733333333","6500300","中和區"
"235070","558-UM","2019/10/25 18:13:39","新北市中和區景平路439號","121.500885","24.9960233333333","6500300","中和區"
"235045","565-BX","2019/10/25 18:13:44","新北市中和區景安路200巷9號","121.503218333333","24.9918283333333","6500300","中和區"
"235060","KED-0823","2019/10/25 18:13:49","新北市中和區員山路163號","121.48114","24.9966883333333","6500300","中和區"
"235047","732-UM","2019/10/25 18:13:47","新北市中和區建八路1號","121.48542","24.9985516666667","6500300","中和區"
"235046","733-UM","2019/10/25 18:13:53","新北市中和區員山路36巷16-2號","121.48527","24.9916283333333","6500300","中和區"
"235057","801-TS","2019/10/25 18:13:50","新北市中和區民享街97巷19號","121.475423333333","24.999595","6500300","中和區"
"235041","802-TS","2019/10/25 18:13:47","新北市中和區中正路305號","121.492258333333","24.99364","6500300","中和區"
"235052","805-TS","2019/10/25 18:13:47","新北市中和區捷運路8-5號","121.509585","24.9895916666667","6500300","中和區"
"235064","911-UM","2019/10/25 18:13:45","新北市中和區圓通路167巷8號","121.498031666667","24.9950083333333","6500300","中和區"
"235051","157-BY","2019/10/25 18:13:43","新北市中和區捷運路8-1號","121.509716666667","24.989505","6500300","中和區"
"235037","AAC-213","2019/10/25 18:13:48","新北市中和區景德街141號","121.514548333333","24.99102","6500300","中和區"
"226004","312-R5","2019/10/25 18:13:38","新北市平溪區薯榔里薯榔寮32-3號","121.711016666667","25.018975","6502400","平溪區"
"228002","663-BX","2019/10/25 18:13:55","新北市貢寮區福連里馬崗街25號","122.003156666667","25.0137733333333","6502600","貢寮區"
"228001","670-TC","2019/10/25 18:13:46","新北市貢寮區真理里新港街26巷55弄2-1號","121.927391666667","25.0528966666667","6502600","貢寮區"
"228003","828-UM","2019/10/25 18:13:58","新北市貢寮區真理里美艷山街28號","121.925796666667","25.06591","6502600","貢寮區"
"224006","676-BX","2019/10/25 18:13:50","新北市瑞芳區三爪子坑路106巷182號","121.809015","25.10351","6501200","瑞芳區"
"224007","285-BY","2019/10/25 18:13:42","新北市瑞芳區大埔路28號","121.764945","25.1020666666667","6501200","瑞芳區"
"224009","275-VK","2019/10/25 18:13:56","新北市瑞芳區祈堂路217號","121.855205","25.109305","6501200","瑞芳區"
"224008","273-VK","2019/10/25 18:14:01","新北市瑞芳區三爪子坑路51號","121.812911666667","25.1074616666667","6501200","瑞芳區"
"224005","271-BY","2019/10/25 18:13:40","新北市瑞芳區建基路二段7號","121.807556666667","25.1328083333333","6501200","瑞芳區"
"227002","642-TC","2019/10/25 18:13:43","新北市雙溪區雙溪里太平路2號","121.863668333333","25.034985","6502500","雙溪區"
"227001","400-TW","2019/10/25 18:13:43","新北市雙溪區牡丹里牡丹5號","121.852281666667","25.06248","6502500","雙溪區"
"253005","032-BX","2019/10/25 18:13:55","新北市石門區中央路37-2號","121.568298333333","25.29506","6502200","石門區"
"253006","295-VK","2019/10/25 18:13:53","新北市石門區老梅路52巷21號","121.546315","25.288565","6502200","石門區"
"222001","KEA-2212","2019/10/25 18:13:44","新北市深坑區北深路二段115號","121.616955","25.0032516666667","6501800","深坑區"
"208002","KEA-2872","2019/10/25 18:13:53","新北市金山區清泉里清水路60巷4號","121.62978","25.2357883333333","6502700","金山區"
"208003","665-BX","2019/10/25 18:13:45","新北市金山區民生路160號","121.64691","25.223015","6502700","金山區"
"251009","008-UM","2019/10/25 18:13:58","新北市淡水區水碓街15號","121.443476666667","25.177085","6501000","淡水區"
"251004","180-VK","2019/10/25 18:13:53","新北市淡水區民族路110巷2號","121.462303333333","25.1354116666667","6501000","淡水區"
"251008","181-VK","2019/10/25 18:13:48","新北市淡水區中正東路二段7號","121.458115","25.158425","6501000","淡水區"
"251010","413-VK","2019/10/25 18:13:49","新北市淡水區中正路二段96號","121.41795","25.1854383333333","6501000","淡水區"
"251012","441-VK","2019/10/25 18:13:57","新北市淡水區北新路三段173號","121.49251","25.1922766666667","6501000","淡水區"
"251005","443-VK","2019/10/25 18:13:47","新北市淡水區水源街一段120號","121.447225","25.1717516666667","6501000","淡水區"
"251001","559-UM","2019/10/25 18:13:58","新北市淡水區自立路1巷29號","121.46227","25.1294066666667","6501000","淡水區"
"251006","561-UM","2019/10/25 18:13:49","新北市淡水區新民街76巷2號","121.43879","25.17645","6501000","淡水區"
"251011","650-BX","2019/10/25 18:13:39","新北市淡水區三空泉9-2號","121.47407","25.1635166666667","6501000","淡水區"
"251002","672-BX","2019/10/25 18:13:47","新北市淡水區中正東路一段105巷3號","121.453216666667","25.160565","6501000","淡水區"
"251003","766-UM","2019/10/25 18:13:56","新北市淡水區北新路182巷28號","121.448858333333","25.1777666666667","6501000","淡水區"
"207003","550-UM","2019/10/25 18:13:39","新北市萬里區野柳里港東路73號","121.688185","25.205025","6502800","萬里區"
"207004","291-VK","2019/10/25 18:13:40","新北市萬里區中幅里中福路136號","121.67454","25.1663283333333","6502800","萬里區"
"252002","178-VK","2019/10/25 18:13:47","新北市三芝區中山路二段39號","121.502956666667","25.2551333333333","6502100","三芝區"
"252003","249-BX","2019/10/25 18:13:55","新北市三芝區埔頭里埔頭18-1號","121.493978333333","25.2603266666667","6502100","三芝區"
"208001","170-UY","2019/10/25 18:13:50","新北市金山區民生路151-2號","121.644766666667","25.2234783333333","6502700","金山區"
"237004","KEA-2597","2019/10/25 18:13:52","新北市三峽區大埔1-3號","121.374766666667","24.8904333333333","6500900","三峽區"
"237007","153-BY","2019/10/25 18:13:54","新北市三峽區中正路二段472號","121.363515","24.9071033333333","6500900","三峽區"
"237009","210-TH","2019/10/25 18:13:46","新北市三峽區大勇路36巷3號","121.366798333333","24.9371983333333","6500900","三峽區"
"237013","252-BX","2019/10/25 18:13:53","新北市三峽區永安街26號","121.377318333333","24.9302933333333","6500900","三峽區"
"237012","275-BY","2019/10/25 18:13:40","新北市三峽區民生街19巷7弄18號","121.377013333333","24.9355966666667","6500900","三峽區"
"237008","302-VK","2019/10/25 18:13:44","新北市三峽區白雞68-303號","121.391578333333","24.9097033333333","6500900","三峽區"
"237011","433-BY","2019/10/25 18:13:37","新北市三峽區橫溪路7號","121.396138333333","24.936065","6500900","三峽區"
"237006","5529-G3","2019/10/25 18:13:47","新北市三峽區溪東路178巷13弄12號","121.406246666667","24.93218","6500900","三峽區"
"237015","649-BX","2019/10/25 18:13:51","新北市三峽區紫新路23巷2號","121.422925","24.9210816666667","6500900","三峽區"
"237010","706-TV","2019/10/25 18:13:45","新北市三峽區民族街17號","121.369386666667","24.9308933333333","6500900","三峽區"
"237014","756-BX","2019/10/25 18:13:40","新北市三峽區復興路110巷4弄2號","121.372988333333","24.93846","6500900","三峽區"
"237005","AKY-6261","2019/10/25 18:13:48","新北市三峽區民生街233號","121.371068333333","24.934755","6500900","三峽區"
"236042","KED-0685","2019/10/25 18:13:42","新北市土城區裕生路94號","121.447168333333","24.9849033333333","6501300","土城區"
"233002","762-BX","2019/10/25 18:13:51","新北市烏來區天仁2號","121.541433333333","24.884735","6502900","烏來區"
"236079","166-UM","2019/10/25 18:13:59","新北市土城區永安街86巷1號","121.431541666667","24.963795","6501300","土城區"
"236030","253-BX","2019/10/25 18:13:44","新北市土城區中央路二段95號","121.442126666667","24.9780016666667","6501300","土城區"
"236026","269-VK","2019/10/25 18:13:45","新北市土城區承天路65號","121.439356666667","24.963765","6501300","土城區"
"236014","270-VK","2019/10/25 18:13:54","新北市土城區青雲路39巷5號","121.460308333333","24.9876","6501300","土城區"
"236039","271-VK","2019/10/25 18:13:55","新北市土城區青雲路449-1號","121.458838333333","24.9747483333333","6501300","土城區"
"236069","KEA-2877","2019/10/25 18:13:47","新北市土城區明德路一段128巷9號","121.463248333333","24.978995","6501300","土城區"
"252001","KED-0821","2019/10/25 18:13:47","新北市三芝區中興街二段2號","121.498301666667","25.2566616666667","6502100","三芝區"
"236020","401-BY","2019/10/25 18:13:55","新北市土城區明德路一段375-1號","121.45483","24.9781933333333","6501300","土城區"
"236063","752-BX","2019/10/25 18:13:46","新北市土城區金城路一段112號","121.446695","24.9758816666667","6501300","土城區"
"236059","912-UM","2019/10/25 18:13:53","新北市土城區信義路2號","121.413003333333","24.9544483333333","6501300","土城區"
"236048","913-UM","2019/10/25 18:13:41","新北市土城區明德路一段365-1號","121.453535","24.97905","6501300","土城區"
"236055","AAC-216","2019/10/25 18:13:59","新北市土城區中華路二段98號","121.438136666667","24.9744616666667","6501300","土城區"
"242041","AAC-296","2019/10/25 18:13:40","新北市新莊區中正路692-8號","121.419943333333","25.02864","6500500","新莊區"
"242060","986-R7","2019/10/25 18:13:46","新北市新莊區新樹路359-1號","121.432921666667","25.01823","6500500","新莊區"
"242005","751-BX","2019/10/25 18:13:50","新北市新莊區中華路二段17號","121.453805","25.0457566666667","6500500","新莊區"
"242027","613-BX","2019/10/25 18:13:47","新北市新莊區幸福路600號","121.45331","25.04933","6500500","新莊區"
"242058","612-BX","2019/10/25 18:13:43","新北市新莊區新北大道七段318號","121.413756666667","25.0304383333333","6500500","新莊區"
"242048","566-BX","2019/10/25 18:13:53","新北市新莊區富國路156號","121.423318333333","25.0249433333333","6500500","新莊區"
"242054","497-BY","2019/10/25 18:13:50","新北市新莊區民安西路327巷4弄1號","121.42811","25.01158","6500500","新莊區"
"242002","441-UM","2019/10/25 18:13:40","新北市新莊區新莊路185號","121.45587","25.0358416666667","6500500","新莊區"
"242007","440-UM","2019/10/25 18:14:00","新北市新莊區自立街79巷20號","121.454425","25.046125","6500500","新莊區"
"242050","400-BY","2019/10/25 18:13:45","新北市新莊區民本街11巷2弄2號","121.42797","25.02002","6500500","新莊區"
"242025","362-BY","2019/10/25 18:13:59","新北市新莊區五權一路7-7號","121.458625","25.0667166666667","6500500","新莊區"
"242015","132-UY","2019/10/25 18:13:55","新北市新莊區中平路152巷45號","121.446681666667","25.047435","6500500","新莊區"
"242056","172-VK","2019/10/25 18:13:49","新北市新莊區豐年街53巷30號","121.447265","25.031765","6500500","新莊區"
"242032","175-VK","2019/10/25 18:13:48","新北市新莊區新泰路255巷2號","121.44585","25.039855","6500500","新莊區"
"242039","176-VK","2019/10/25 18:13:39","新北市新莊區新樹路206巷62號","121.432521666667","25.0218116666667","6500500","新莊區"
"242021","KED-0687","2019/10/25 18:13:53","新北市新莊區中正路170號","121.450778333333","25.03584","6500500","新莊區"
"242044","347-TH","2019/10/25 18:13:37","新北市新莊區中正路887-11號","121.416346666667","25.0244666666667","6500500","新莊區"
"242037","348-TH","2019/10/25 18:13:49","新北市新莊區後港一路49巷3弄11號","121.42511","25.0266933333333","6500500","新莊區"
"242009","349-TH","2019/10/25 18:13:55","新北市新莊區昌盛街35巷3弄16號","121.45331","25.05063","6500500","新莊區"
"242034","350-TH","2019/10/25 18:13:48","新北市新莊區新莊路364號","121.449553333333","25.0335316666667","6500500","新莊區"
"238015","755-BX","2019/10/25 18:13:46","新北市樹林區大安路323巷10弄8號","121.41751","24.99127","6500700","樹林區"
"238023","601-UM","2019/10/25 18:13:52","新北市樹林區忠義街18號","121.409468333333","25.014315","6500700","樹林區"
"238019","599-UM","2019/10/25 18:13:45","新北市樹林區水源街15號","121.425103333333","24.9831333333333","6500700","樹林區"
"238018","KEA-2217","2019/10/25 18:14:00","新北市樹林區博愛街121號","121.426143333333","24.9908066666667","6500700","樹林區"
"238025","303-VK","2019/10/25 18:13:44","新北市樹林區保安街一段364號","121.417601666667","24.9984933333333","6500700","樹林區"
"238017","283-BY","2019/10/25 18:13:50","新北市樹林區中正路791號","121.409661666667","25.01634","6500700","樹林區"
"238014","282-BY","2019/10/25 18:13:54","新北市樹林區大安路111巷11號","121.423096666667","24.9975983333333","6500700","樹林區"
"238020","268-VK","2019/10/25 18:13:54","新北市樹林區三龍街116號","121.415395","25.01829","6500700","樹林區"
"238026","172-UY","2019/10/25 18:13:41","新北市樹林區育德街57號","121.391363333333","24.9701466666667","6500700","樹林區"
"238016","169-UY","2019/10/25 18:13:48","新北市樹林區中山路二段34號","121.417368333333","24.9851716666667","6500700","樹林區"
"239007","AAC-297","2019/10/25 18:13:40","新北市鶯歌區尖山埔路213號","121.345176666667","24.95046","6500800","鶯歌區"
"239006","891-R6","2019/10/25 18:13:46","新北市鶯歌區鶯桃路385號","121.333416666667","24.96362","6500800","鶯歌區"
"239003","661-UM","2019/10/25 18:13:51","新北市鶯歌區福安街20號","121.334295","24.9640466666667","6500800","鶯歌區"
"239008","527-UM","2019/10/25 18:13:40","新北市鶯歌區朝陽街53巷24號","121.338751666667","24.9777166666667","6500800","鶯歌區"
"239005","526-UM","2019/10/25 18:13:42","新北市鶯歌區鶯桃路668巷73號","121.329921666667","24.9717816666667","6500800","鶯歌區"
"239001","417-VK","2019/10/25 18:13:43","新北市鶯歌區中正三路33號","121.339116666667","24.9422283333333","6500800","鶯歌區"
"239002","359-BY","2019/10/25 18:13:38","新北市鶯歌區光明街100號","121.345871666667","24.9558916666667","6500800","鶯歌區"
"239004","193-VK","2019/10/25 18:13:50","新北市鶯歌區中正二路91號","121.34874","24.9495066666667","6500800","鶯歌區"
"221036","130-UY","2019/10/25 18:13:49","新北市汐止區大同路三段116號","121.672045","25.0768","6501100","汐止區"
"221015","131-UY","2019/10/25 18:13:59","新北市汐止區長江街333號","121.66682","25.08179","6501100","汐止區"
"221010","269-BY","2019/10/25 18:13:36","新北市汐止區汐萬路二段275巷1弄2號","121.64546","25.08885","6501100","汐止區"
"221012","278-VK","2019/10/25 18:13:44","新北市汐止區保一街47-2號","121.674565","25.08023","6501100","汐止區"
"221023","279-VK","2019/10/25 18:13:48","新北市汐止區民族五街74-1號","121.62776","25.0702166666667","6501100","汐止區"
"221032","280-BY","2019/10/25 18:13:46","新北市汐止區橫科路10號","121.617788333333","25.0512266666667","6501100","汐止區"
"221027","281-BY","2019/10/25 18:13:38","新北市汐止區和平街6巷8-1號","121.663476666667","25.0715183333333","6501100","汐止區"
"221029","298-VK","2019/10/25 18:13:42","新北市汐止區樟樹二路320號","121.641411666667","25.0699933333333","6501100","汐止區"
"221021","299-VK","2019/10/25 18:13:51","新北市汐止區復興路13號","121.65577","25.0647666666667","6501100","汐止區"
"221031","353-TW","2019/10/25 18:13:55","新北市汐止區中興路181巷14弄10號","121.629915","25.0667583333333","6501100","汐止區"
"221035","622-UM","2019/10/25 18:13:53","新北市汐止區新江北路17號","121.652913333333","25.0704816666667","6501100","汐止區"
"221025","623-UM","2019/10/25 18:13:46","新北市汐止區勤進路16號","121.659573333333","25.0613583333333","6501100","汐止區"
"221038","646-BX","2019/10/25 18:13:40","新北市汐止區秀峰路133號","121.660193333333","25.0625683333333","6501100","汐止區"
"221033","647-BX","2019/10/25 18:13:48","新北市汐止區宜興街40巷8號","121.622275","25.0416933333333","6501100","汐止區"
"221002","707-TV","2019/10/25 18:13:45","新北市汐止區福德一路201巷32號","121.635913333333","25.0648383333333","6501100","汐止區"
"221018","753-BX","2019/10/25 18:13:58","新北市汐止區忠孝東路359號","121.66569","25.07068","6501100","汐止區"
"220080","200-UY","2019/10/25 18:13:54","新北市板橋區華東街1-9號","121.448133333333","24.9949033333333","6500100","板橋區"
"224002","257-TC","2019/10/25 18:13:46","新北市瑞芳區三爪子坑路121號","121.810496666667","25.1070783333333","6501200","瑞芳區"
"242046","281-VK","2019/10/25 18:13:56","新北市新莊區福營路385-1號","121.422568333333","25.0274333333333","6500500","新莊區"
"242011","280-VK","2019/10/25 18:13:47","新北市新莊區中榮街17號","121.450743333333","25.0527983333333","6500500","新莊區"
"235068","KEA-2873","2019/10/25 18:13:34","新北市中和區員山路36巷16-3號","121.485083333333","24.991185","6500300","中和區"
"235061","KEA-2875","2019/10/25 18:13:54","新北市中和區國光街215巷61-2號","121.467655","24.999865","6500300","中和區"
"235062","KEA-2876","2019/10/25 18:13:29","新北市中和區景平路999巷1號","121.49539","25.005905","6500300","中和區"
