"lineid","car","time","location","longitude","latitude","cityid","cityname"
"234046","148-BY","2019/10/25 18:59:40","新北市永和區秀朗路二段126巷30號","121.524538333333","25.0007883333333","6500400","永和區"
"234081","298-R6","2019/10/25 18:59:53","新北市永和區國中路208號","121.522098333333","25.0059333333333","6500400","永和區"
"234038","336-UY","2019/10/25 18:59:54","新北市永和區成功路二段207號","121.52658","24.9958633333333","6500400","永和區"
"234064","337-UY","2019/10/25 18:59:50","新北市永和區秀朗路一段156號","121.518326666667","25.003395","6500400","永和區"
"234086","338-UY","2019/10/25 18:59:53","新北市永和區中正路395號","121.51723","25.0041216666667","6500400","永和區"
"234070","552-UM","2019/10/25 18:59:55","新北市永和區竹林路96巷11號","121.518981666667","25.011965","6500400","永和區"
"234017","745-BX","2019/10/25 18:59:49","新北市永和區永和路二段310號","121.516146666667","25.0160683333333","6500400","永和區"
"234030","746-BX","2019/10/25 18:59:50","新北市永和區四維街50號","121.52495","24.9981883333333","6500400","永和區"
"234054","KEA-2590","2019/10/25 18:59:39","新北市永和區竹林路66巷2號","121.518236666667","25.0133783333333","6500400","永和區"
"234007","KED-0605","2019/10/25 18:59:43","新北市永和區中山路一段50號","121.513216666667","25.0106583333333","6500400","永和區"
"234013","KEA-2591","2019/10/25 18:59:47","新北市永和區中山路一段60巷10號","121.513208333333","25.0110716666667","6500400","永和區"
"234061","AAD-866","2019/10/25 18:59:50","新北市永和區福和路309巷1號","121.516345","25.00704","6500400","永和區"
"234042","862-TW","2019/10/25 18:59:42","新北市永和區永貞路267號","121.511783333333","25.0048416666667","6500400","永和區"
"234050","863-TW","2019/10/25 18:59:51","新北市永和區文化路190號","121.510976666667","25.0161116666667","6500400","永和區"
"234011","9373-KE","2019/10/25 18:59:42","新北市永和區仁愛路141巷3弄11號","121.512008333333","25.0125516666667","6500400","永和區"
"249005","172-UM","2019/10/25 18:59:57","新北市八里區長道坑3-1號","121.393873333333","25.1241516666667","6502300","八里區"
"249001","173-UM","2019/10/25 18:59:56","新北市八里區龍米路二段228-1號","121.432733333333","25.15845","6502300","八里區"
"248016","026-BX","2019/10/25 18:59:44","新北市五股區成泰路三段577巷24號","121.45148","25.1028916666667","6501500","五股區"
"248006","077-UY","2019/10/25 18:59:56","新北市五股區四維路173號","121.46794","25.07506","6501500","五股區"
"248008","KED-0815","2019/10/25 18:59:50","新北市五股區中興路一段118巷6弄36號","121.46639","25.0751883333333","6501500","五股區"
"248018","KED-0813","2019/10/25 18:59:43","新北市五股區民義路一段287巷2-2號","121.423911666667","25.091075","6501500","五股區"
"248012","247-BX","2019/10/25 18:59:51","新北市五股區中興路四段48巷16號","121.438683333333","25.0833816666667","6501500","五股區"
"248004","677-BX","2019/10/25 18:59:39","新北市五股區民義路一段312-7號","121.423108333333","25.09491","6501500","五股區"
"248002","678-BX","2019/10/25 18:59:55","新北市五股區凌雲路一段158巷6號","121.447963333333","25.1028","6501500","五股區"
"248010","682-TV","2019/10/25 18:59:59","新北市五股區水碓五路81號","121.42997","25.071905","6501500","五股區"
"234023","9380-KE","2019/10/25 18:59:46","新北市永和區竹林路75巷25弄4號","121.520431666667","25.0142783333333","6500400","永和區"
"234077","969-R7","2019/10/25 18:59:56","新北市永和區智光街22號","121.517913333333","24.9993133333333","6500400","永和區"
"234067","AAC-212","2019/10/25 18:59:59","新北市永和區永和路一段1號","121.51301","25.00521","6500400","永和區"
"234003","AAC-295","2019/10/25 18:59:42","新北市永和區和平街38號","121.512923333333","25.009965","6500400","永和區"
"232011","375-UM","2019/10/25 18:59:53","新北市坪林區水聳淒坑19-2號","121.712078333333","24.9345133333333","6502000","坪林區"
"244019","402-UM","2019/10/25 18:59:56","新北市林口區文化二路一段384號","121.374781666667","25.0765266666667","6501700","林口區"
"244013","KEA-2802","2019/10/25 18:59:41","新北市林口區麗園一街2巷2號","121.375925","25.0713633333333","6501700","林口區"
"244023","483-VK","2019/10/25 18:59:58","新北市林口區民權路110號","121.373583333333","25.0831883333333","6501700","林口區"
"244017","485-VK","2019/10/25 18:59:43","新北市林口區公園路84號","121.369385","25.0702666666667","6501700","林口區"
"244011","701-TV","2019/10/25 18:59:48","新北市林口區竹林路56號","121.387448333333","25.0781033333333","6501700","林口區"
"244025","837-TS","2019/10/25 18:59:53","新北市林口區南勢五街302-11號","121.357138333333","25.0756333333333","6501700","林口區"
"243012","AAD-798","2019/10/25 18:59:54","新北市泰山區泰林路二段73巷29號","121.434406666667","25.057885","6501600","泰山區"
"243010","297-R6","2019/10/25 18:59:55","新北市泰山區辭修路24號","121.429125","25.0583666666667","6501600","泰山區"
"243014","KEA-2801","2019/10/25 18:59:46","新北市泰山區黎明路3號","121.421071666667","25.0632916666667","6501600","泰山區"
"243016","421-VK","2019/10/25 18:59:40","新北市泰山區明志路二段137號","121.427628333333","25.05066","6501600","泰山區"
"243009","KEA-2215","2019/10/25 18:59:44","新北市泰山區泰林路二段362號","121.428801666667","25.06366","6501600","泰山區"
"243015","680-BX","2019/10/25 18:59:40","新北市泰山區美寧街48號","121.43047","25.0643883333333","6501600","泰山區"
"222003","436-BY","2019/10/25 18:59:53","新北市深坑區深南路88巷1號","121.62141","25.01084","6501800","深坑區"
"222002","659-BX","2019/10/25 18:59:41","新北市深坑區文山路一段33號","121.629458333333","25.0038833333333","6501800","深坑區"
"231061","002-UM","2019/10/25 18:59:54","新北市新店區安華路30巷1號","121.519393333333","24.9596916666667","6500600","新店區"
"231055","0291-UT","2019/10/25 18:59:47","新北市新店區新生街13巷26號","121.53896","24.9665116666667","6500600","新店區"
"231044","046-UY","2019/10/25 18:59:48","新北市新店區寶中路72號","121.547801666667","24.98058","6500600","新店區"
"231042","047-UY","2019/10/25 18:59:41","新北市新店區中正路2號","121.54598","24.96936","6500600","新店區"
"231060","106-UY","2019/10/25 18:59:59","新北市新店區安忠路57巷11弄14號","121.515336666667","24.9579533333333","6500600","新店區"
"231051","107-UY","2019/10/25 18:59:52","新北市新店區百忍街8號","121.535053333333","24.97563","6500600","新店區"
"231049","108-UY","2019/10/25 18:59:57","新北市新店區二十張路137號","121.535613333333","24.97914","6500600","新店區"
"231065","110-UY","2019/10/25 18:59:53","新北市新店區安祥路147巷80號","121.475666666667","24.955495","6500600","新店區"
"231062","256-BX","2019/10/25 18:59:51","新北市新店區車子路10-4號","121.504881666667","24.9545066666667","6500600","新店區"
"231054","260-TV","2019/10/25 18:59:46","新北市新店區北新路一段37號","121.53791","24.9592266666667","6500600","新店區"
"231064","278-BY","2019/10/25 18:59:52","新北市新店區安康路一段266巷4號","121.51982","24.9640133333333","6500600","新店區"
"231050","AAD-862","2019/10/25 18:59:54","新北市新店區新烏路一段11巷1弄2號","121.547313333333","24.9513633333333","6500600","新店區"
"231045","355-BY","2019/10/25 18:59:57","新北市新店區安康路一段65號","121.530318333333","24.961055","6500600","新店區"
"231058","3713-VJ","2019/10/25 18:59:54","新北市新店區中正路1巷2號","121.545651666667","24.9689766666667","6500600","新店區"
"231056","4715-K9","2019/10/25 18:59:43","新北市新店區二十張路46巷37弄21-1號","121.535763333333","24.9815066666667","6500600","新店區"
"231067","4772-VM","2019/10/25 18:59:46","新北市新店區安康路一段76巷34-1號","121.528403333333","24.9635066666667","6500600","新店區"
"231053","513-UM","2019/10/25 18:59:49","新北市新店區湖子內路1-1號","121.541156666667","24.9296183333333","6500600","新店區"
"231063","616-UM","2019/10/25 18:59:53","新北市新店區安華路1-1號","121.519471666667","24.96001","6500600","新店區"
"231041","619-UM","2019/10/25 18:59:59","新北市新店區環河路29巷1號","121.536786666667","24.961315","6500600","新店區"
"231048","KED-0819","2019/10/25 18:59:52","新北市新店區德正街23巷1號","121.54415","24.9719333333333","6500600","新店區"
"231046","719-UM","2019/10/25 18:59:38","新北市新店區直潭一街1號","121.53604","24.9431066666667","6500600","新店區"
"231057","720-UM","2019/10/25 18:59:52","新北市新店區百齡一路12號","121.553036666667","24.9324866666667","6500600","新店區"
"231059","897-TW","2019/10/25 18:59:51","新北市新店區安華路28-1號","121.519735","24.9606433333333","6500600","新店區"
"231040","898-TW","2019/10/25 18:59:50","新北市新店區中央路135號","121.530351666667","24.9737433333333","6500600","新店區"
"231043","899-TW","2019/10/25 18:59:43","新北市新店區北新路一段142號","121.542518333333","24.9705483333333","6500600","新店區"
"231066","AKT-0513","2019/10/25 18:59:57","新北市新店區安豐路39號","121.50042","24.955815","6500600","新店區"
"241035","KEA-2210","2019/10/25 18:59:49","新北市三重區重新路三段115巷18號","121.490001666667","25.0608216666667","6500200","三重區"
"241029","942-UM","2019/10/25 18:59:46","新北市三重區重安街1號","121.490165","25.0580216666667","6500200","三重區"
"235066","003-UY","2019/10/25 18:59:48","新北市中和區光華街19號","121.504733333333","25.0041333333333","6500300","中和區"
"235063","006-UY","2019/10/25 18:59:57","新北市中和區中正路586號","121.486041666667","24.9949683333333","6500300","中和區"
"235056","096-UM","2019/10/25 18:59:56","新北市板橋區三民路二段204-4號","121.478928333333","25.0124383333333","6500300","中和區"
"235039","097-UM","2019/10/25 18:59:42","新北市中和區景平路64巷13弄22號","121.52141","24.9915166666667","6500300","中和區"
"235065","098-UM","2019/10/25 18:59:45","新北市中和區勝利路33號","121.498923333333","25.00782","6500300","中和區"
"235040","150-BY","2019/10/25 18:59:40","新北市中和區宜安路25號","121.512831666667","24.9958383333333","6500300","中和區"
"235058","151-BY","2019/10/25 18:59:54","新北市中和區連城路523巷13弄2號","121.481696666667","24.9937633333333","6500300","中和區"
"235055","183-VK","2019/10/25 18:59:57","新北市中和區莒光路2號","121.471706666667","25.0047233333333","6500300","中和區"
"235038","185-VK","2019/10/25 18:59:55","新北市中和區立人街24-4號","121.51897","24.9941666666667","6500300","中和區"
"235067","255-BX","2019/10/25 18:59:40","新北市中和區中正路751巷3弄3號","121.48442","24.9995866666667","6500300","中和區"
"235044","293-VK","2019/10/25 18:59:44","新北市中和區復興路280巷33弄4號","121.501381666667","24.9914666666667","6500300","中和區"
"235072","301-VK","2019/10/25 18:59:52","新北市中和區福美路304號","121.49698","25.00487","6500300","中和區"
"235043","352-BY","2019/10/25 18:59:56","新北市中和區景平路4號","121.524228333333","24.99063","6500300","中和區"
"235042","KEA-2878","2019/10/25 18:59:44","新北市中和區自立路15巷8號","121.522931666667","24.9959116666667","6500300","中和區"
"235050","4979-A6","2019/10/25 18:59:44","新北市中和區忠孝街3號","121.509473333333","24.9829766666667","6500300","中和區"
"235069","4980-A6","2019/10/25 18:59:49","新北市中和區中和路217巷6號","121.50415","25.000375","6500300","中和區"
"235070","558-UM","2019/10/25 18:59:59","新北市中和區連城路28號","121.498631666667","25.0021733333333","6500300","中和區"
"235045","565-BX","2019/10/25 18:59:44","新北市中和區景新街467巷35弄7號","121.514283333333","24.9889416666667","6500300","中和區"
"235060","KED-0823","2019/10/25 18:59:50","新北市中和區中山路三段120號","121.475226666667","25.00619","6500300","中和區"
"235054","640-BX","2019/10/25 18:59:52","新北市中和區國光街107巷2弄22號","121.469693333333","24.9995116666667","6500300","中和區"
"235047","732-UM","2019/10/25 18:59:48","新北市中和區興南路二段54巷6號","121.505848333333","24.9856383333333","6500300","中和區"
"235046","733-UM","2019/10/25 18:59:53","新北市中和區興南路二段33號","121.5077","24.9857766666667","6500300","中和區"
"235057","801-TS","2019/10/25 18:59:50","新北市中和區民利街75號","121.478276666667","24.9981916666667","6500300","中和區"
"235041","802-TS","2019/10/25 18:59:47","新北市中和區景安路65號","121.507045","24.9978283333333","6500300","中和區"
"235052","805-TS","2019/10/25 18:59:47","新北市中和區興南路二段130號","121.504311666667","24.983385","6500300","中和區"
"235048","896-TW","2019/10/25 18:59:45","新北市中和區華新街109巷16號","121.508728333333","24.9810816666667","6500300","中和區"
"235053","900-TW","2019/10/25 18:59:59","新北市板橋區和平路165號","121.463805","24.9961533333333","6500300","中和區"
"235064","911-UM","2019/10/25 18:59:44","新北市中和區連城路23巷28號","121.499355","25.0011733333333","6500300","中和區"
"235051","157-BY","2019/10/25 18:59:43","新北市中和區忠孝街31巷51號","121.50949","24.9855866666667","6500300","中和區"
"235037","AAC-213","2019/10/25 18:59:45","新北市中和區秀朗路三段60巷49號","121.524761666667","24.9947383333333","6500300","中和區"
"235059","AAC-215","2019/10/25 18:59:51","新北市中和區圓通路393巷14弄6號","121.489571666667","24.9879733333333","6500300","中和區"
"220065","072-UY","2019/10/25 18:59:53","新北市板橋區民族路283號","121.471195","25.0067833333333","6500100","板橋區"
"220086","073-UY","2019/10/25 19:00:00","新北市板橋區大智街22號","121.455696666667","25.0149033333333","6500100","板橋區"
"220106","075-UY","2019/10/25 18:59:54","新北市板橋區文化路二段263巷3號","121.471141666667","25.0292266666667","6500100","板橋區"
"220069","AAD-861","2019/10/25 18:59:57","新北市板橋區四川路一段162號","121.459878333333","25.0032316666667","6500100","板橋區"
"220068","120-SR","2019/10/25 18:59:41","新北市板橋區中山路二段443巷80號","121.4811","25.0224783333333","6500100","板橋區"
"226004","312-R5","2019/10/25 18:59:38","新北市平溪區靜安路二段392號","121.738581666667","25.0245133333333","6502400","平溪區"
"235049","251-BX","2019/10/25 18:59:41","新北市中和區明仁街8號","121.505995","24.995475","6500300","中和區"
"228002","663-BX","2019/10/25 18:59:55","新北市貢寮區福隆里東興街106巷21弄2號","121.946006666667","25.0177866666667","6502600","貢寮區"
"228001","670-TC","2019/10/25 18:59:46","新北市貢寮區仁理村保健街73號","121.923723333333","25.0516916666667","6502600","貢寮區"
"228003","828-UM","2019/10/25 18:59:58","新北市貢寮區和美里龍洞街46號","121.91212","25.1124483333333","6502600","貢寮區"
"224010","AGQ-8101","2019/10/25 18:59:47","新北市瑞芳區崙頂路3-1號","121.847351666667","25.1040616666667","6501200","瑞芳區"
"224006","676-BX","2019/10/25 18:59:46","新北市瑞芳區中山路26號","121.803986666667","25.1062333333333","6501200","瑞芳區"
"224007","285-BY","2019/10/25 18:59:42","新北市瑞芳區瑞竹路46號","121.763456666667","25.103385","6501200","瑞芳區"
"224009","275-VK","2019/10/25 18:59:56","新北市瑞芳區長仁路35-1號","121.866085","25.1179283333333","6501200","瑞芳區"
"224008","273-VK","2019/10/25 18:59:40","新北市瑞芳區逢甲路340-9號","121.798153333333","25.1162666666667","6501200","瑞芳區"
"224005","271-BY","2019/10/25 18:59:39","新北市瑞芳區中正路4號","121.80888","25.107045","6501200","瑞芳區"
"227002","642-TC","2019/10/25 18:59:43","新北市雙溪區平林里康福家園1號","121.858243333333","25.0377683333333","6502500","雙溪區"
"227001","400-TW","2019/10/25 18:59:43","新北市雙溪區牡丹里中正路60號","121.866115","25.042275","6502500","雙溪區"
"253005","032-BX","2019/10/25 18:59:54","新北市石門區崁子腳76-1號","121.571548333333","25.2968466666667","6502200","石門區"
"253006","295-VK","2019/10/25 18:59:53","新北市石門區下員坑30-7號","121.51978","25.2821983333333","6502200","石門區"
"222001","KEA-2212","2019/10/25 18:59:44","新北市深坑區北深路一段300號","121.624178333333","25.0057016666667","6501800","深坑區"
"208002","KEA-2872","2019/10/25 18:59:48","新北市金山區仁愛路67巷4號","121.63452","25.2209066666667","6502700","金山區"
"208003","665-BX","2019/10/25 18:59:45","新北市金山區中正路95號","121.63312","25.221675","6502700","金山區"
"251009","008-UM","2019/10/25 18:59:38","新北市淡水區重建街118號","121.440246666667","25.173015","6501000","淡水區"
"251010","413-VK","2019/10/25 18:59:49","新北市淡水區中正路一段156巷8號","121.421558333333","25.1806666666667","6501000","淡水區"
"251012","441-VK","2019/10/25 18:59:44","新北市淡水區新春街126巷15弄17號","121.440648333333","25.1809483333333","6501000","淡水區"
"251007","442-VK","2019/10/25 18:59:50","新北市淡水區民生路113巷1弄39號","121.462993333333","25.1386483333333","6501000","淡水區"
"251001","559-UM","2019/10/25 18:59:54","新北市淡水區自強路201巷54號","121.462815","25.12758","6501000","淡水區"
"251011","650-BX","2019/10/25 18:59:39","新北市淡水區鄧公路30巷2弄22號","121.453586666667","25.168995","6501000","淡水區"
"251002","672-BX","2019/10/25 18:59:47","新北市淡水區中正東路49號","121.446571666667","25.1679566666667","6501000","淡水區"
"251003","766-UM","2019/10/25 18:59:56","新北市淡水區中山北路一段149巷27號","121.442988333333","25.17787","6501000","淡水區"
"207003","550-UM","2019/10/25 18:59:39","新北市萬里區大鵬里頂社2-1號","121.660353333333","25.2072033333333","6502800","萬里區"
"207004","291-VK","2019/10/25 18:59:39","新北市萬里區萬里里獅頭路23號","121.693183333333","25.178255","6502800","萬里區"
"252002","178-VK","2019/10/25 18:59:46","新北市三芝區中正路一段16-1號","121.502856666667","25.2587883333333","6502100","三芝區"
"252003","249-BX","2019/10/25 18:59:55","新北市三芝區後厝里北勢子20-2號","121.473838333333","25.25407","6502100","三芝區"
"208001","170-UY","2019/10/25 18:59:49","新北市金山區金包里街2號","121.64073","25.2205233333333","6502700","金山區"
"237004","KEA-2597","2019/10/25 18:59:51","新北市三峽區有木205號","121.43899","24.8517466666667","6500900","三峽區"
"237007","153-BY","2019/10/25 18:59:54","新北市三峽區中正路二段205號","121.366025","24.9133883333333","6500900","三峽區"
"237013","252-BX","2019/10/25 18:59:52","新北市三峽區大同路52號","121.376816666667","24.9289516666667","6500900","三峽區"
"237012","275-BY","2019/10/25 19:00:00","新北市三峽區三樹路222巷62號","121.382445","24.9422916666667","6500900","三峽區"
"237008","302-VK","2019/10/25 18:59:44","新北市三峽區大同路100號","121.3746","24.9270516666667","6500900","三峽區"
"237011","433-BY","2019/10/25 18:59:57","新北市三峽區介壽路三段155號","121.400798333333","24.94304","6500900","三峽區"
"237006","5529-G3","2019/10/25 18:59:47","新北市三峽區溪東路233巷47弄2號","121.410536666667","24.9346466666667","6500900","三峽區"
"237015","649-BX","2019/10/25 18:59:51","新北市三峽區建安71號","121.448818333333","24.9261166666667","6500900","三峽區"
"237010","706-TV","2019/10/25 18:59:45","新北市三峽區復興路257號","121.366688333333","24.9389","6500900","三峽區"
"237014","756-BX","2019/10/25 18:59:39","新北市三峽區隆恩街172號","121.362783333333","24.9428016666667","6500900","三峽區"
"237005","AKY-6261","2019/10/25 18:59:47","新北市三峽區中山路459巷135號","121.348636666667","24.9329183333333","6500900","三峽區"
"236042","KED-0685","2019/10/25 18:59:42","新北市土城區學府路一段189巷11弄2號","121.452551666667","24.9843733333333","6501300","土城區"
"236079","166-UM","2019/10/25 18:59:59","新北市土城區中央路四段466號","121.410016666667","24.9505966666667","6501300","土城區"
"236026","269-VK","2019/10/25 18:59:45","新北市土城區中央路二段246號","121.441816666667","24.9748316666667","6501300","土城區"
"236014","270-VK","2019/10/25 18:59:54","新北市土城區立德路17巷6號","121.461726666667","24.9886133333333","6501300","土城區"
"236039","271-VK","2019/10/25 18:59:55","新北市土城區仁愛路8號","121.459961666667","24.9810283333333","6501300","土城區"
"236069","KEA-2877","2019/10/25 18:59:47","新北市土城區清水路99巷7號","121.456646666667","24.9819816666667","6501300","土城區"
"252001","KED-0821","2019/10/25 18:59:47","新北市三芝區中興街二段260號","121.501735","25.2530066666667","6502100","三芝區"
"236020","401-BY","2019/10/25 18:59:55","新北市土城區延吉街217巷9弄2號","121.468856666667","24.9845033333333","6501300","土城區"
"236063","752-BX","2019/10/25 18:57:26","新北市土城區延和路108巷4弄1號","121.467378333333","24.989245","6501300","土城區"
"236059","912-UM","2019/10/25 18:59:53","新北市土城區金城路二段266號","121.457991666667","24.9838883333333","6501300","土城區"
"236048","913-UM","2019/10/25 18:59:41","新北市土城區明德路一段365-1號","121.453666666667","24.9791116666667","6501300","土城區"
"236055","AAC-216","2019/10/25 19:00:00","新北市土城區學成路82號","121.45079","24.9886633333333","6501300","土城區"
"242060","986-R7","2019/10/25 18:59:46","新北市新莊區新莊路682號","121.441216666667","25.0328566666667","6500500","新莊區"
"238023","601-UM","2019/10/25 18:59:52","新北市樹林區大慶街45號","121.396538333333","25.0139566666667","6500700","樹林區"
"238019","599-UM","2019/10/25 18:59:45","新北市樹林區東陽街3號","121.412751666667","24.9821783333333","6500700","樹林區"
"238024","5061-A6","2019/10/25 18:59:56","新北市樹林區育德街78-1號","121.387458333333","24.9681283333333","6500700","樹林區"
"238022","KEA-2213","2019/10/25 18:59:49","新北市樹林區東順街62號","121.411088333333","24.9780116666667","6500700","樹林區"
"238021","KEA-2539","2019/10/25 18:59:45","新北市樹林區柑園街二段326號","121.373106666667","24.9516","6500700","樹林區"
"238017","283-BY","2019/10/25 18:59:50","新北市樹林區光興街50號","121.409805","25.00268","6500700","樹林區"
"238014","282-BY","2019/10/25 18:59:54","新北市樹林區潭興街141巷1號","121.425426666667","24.9993966666667","6500700","樹林區"
"238020","268-VK","2019/10/25 18:59:53","新北市樹林區俊英街219巷47-1號","121.420625","25.0114416666667","6500700","樹林區"
"238026","172-UY","2019/10/25 18:59:41","新北市樹林區吉祥街7號","121.392921666667","24.9730483333333","6500700","樹林區"
"238016","169-UY","2019/10/25 18:59:48","新北市樹林區文化街28號","121.419301666667","24.9876966666667","6500700","樹林區"
"239007","AAC-297","2019/10/25 18:59:40","新北市鶯歌區中正一路411號","121.360126666667","24.957035","6500800","鶯歌區"
"239006","891-R6","2019/10/25 18:59:46","新北市鶯歌區鶯桃路296巷98號","121.336948333333","24.9621916666667","6500800","鶯歌區"
"239003","661-UM","2019/10/25 18:59:51","新北市鶯歌區鶯桃路658巷6號","121.329475","24.9694683333333","6500800","鶯歌區"
"239008","527-UM","2019/10/25 19:00:00","新北市鶯歌區國際二路70巷40號","121.336916666667","24.9756416666667","6500800","鶯歌區"
"239005","526-UM","2019/10/25 18:59:42","新北市鶯歌區鳳吉一街110號","121.32754","24.9746516666667","6500800","鶯歌區"
"239001","417-VK","2019/10/25 18:59:57","新北市鶯歌區鶯桃路39-7號","121.342348333333","24.9514066666667","6500800","鶯歌區"
"239002","359-BY","2019/10/25 18:59:38","新北市鶯歌區中正一路81號","121.352228333333","24.9546483333333","6500800","鶯歌區"
"239004","193-VK","2019/10/25 18:59:50","新北市鶯歌區中正三路247巷67弄8號","121.334206666667","24.9363266666667","6500800","鶯歌區"
"221008","489-VK","2019/10/25 18:59:54","新北市汐止區康寧街582號","121.634978333333","25.069845","6501100","汐止區"
"221036","130-UY","2019/10/25 18:59:49","新北市汐止區水碓街63號","121.665088333333","25.0685333333333","6501100","汐止區"
"221015","131-UY","2019/10/25 18:59:59","新北市汐止區鄉長路一段55巷5號","121.665488333333","25.0761","6501100","汐止區"
"221032","280-BY","2019/10/25 18:59:46","新北市汐止區橫科路407巷81弄5號","121.628686666667","25.048095","6501100","汐止區"
"221029","298-VK","2019/10/25 18:59:49","新北市汐止區樟樹一路242號","121.642345","25.0669616666667","6501100","汐止區"
"221031","353-TW","2019/10/25 18:59:55","新北市汐止區福德一路300巷15號","121.630776666667","25.0638733333333","6501100","汐止區"
"221035","622-UM","2019/10/25 18:59:53","新北市汐止區大同路二段316號","121.65576","25.0668183333333","6501100","汐止區"
"221002","707-TV","2019/10/25 18:59:45","台北市南港區經貿一路57號","121.619798333333","25.0560633333333","6501100","汐止區"
"220079","145-BY","2019/10/25 18:59:57","新北市板橋區中正路183巷46號","121.454995","25.016015","6500100","板橋區"
"220080","200-UY","2019/10/25 18:59:57","新北市板橋區大觀路二段文和巷72號","121.443795","24.9984633333333","6500100","板橋區"
"220082","610-BX","2019/10/25 18:59:58","新北市板橋區滿平街101號","121.428391666667","24.988625","6500100","板橋區"
"220101","245-BX","2019/10/25 18:59:57","新北市板橋區民生路二段188號","121.47011","25.0207166666667","6500100","板橋區"
"220091","267-BY","2019/10/25 18:59:42","新北市板橋區大同街18號","121.4776","25.0268716666667","6500100","板橋區"
"220056","276-BY","2019/10/25 18:59:38","新北市板橋區信義路16-7號","121.456998333333","24.9956733333333","6500100","板橋區"
"220072","277-BY","2019/10/25 18:59:53","新北市板橋區大觀路三段5-4號","121.432806666667","24.9959016666667","6500100","板橋區"
"220094","283-UM","2019/10/25 18:59:44","新北市板橋區光武街169號","121.46514","25.02993","6500100","板橋區"
"220071","283-VK","2019/10/25 18:59:57","新北市板橋區忠孝路176巷3號","121.464685","25.0021133333333","6500100","板橋區"
"220053","285-VK","2019/10/25 18:59:52","新北市板橋區太和街5巷20號","121.473086666667","25.019835","6500100","板橋區"
"220081","287-VK","2019/10/25 18:59:51","新北市板橋區光華街19巷1號","121.45374","25.0120883333333","6500100","板橋區"
"220090","288-VK","2019/10/25 18:59:50","新北市板橋區裕民街23-3號","121.462083333333","25.02896","6500100","板橋區"
"220061","293-UM","2019/10/25 18:59:49","新北市板橋區懷仁街85巷8號","121.477785","25.0186983333333","6500100","板橋區"
"220062","295-UM","2019/10/25 18:59:58","新北市板橋區中山路二段176號","121.477276666667","25.0173633333333","6500100","板橋區"
"220084","296-UM","2019/10/25 18:59:41","新北市板橋區大觀路二段365巷13號","121.440945","24.998215","6500100","板橋區"
"220075","303-R5","2019/10/25 18:59:44","新北市板橋區大觀路一段28巷94號","121.450266666667","25.0110083333333","6500100","板橋區"
"220092","307-R5","2019/10/25 18:59:48","新北市板橋區文化路二段225巷60弄72號","121.469068333333","25.0300516666667","6500100","板橋區"
"220098","317-R6","2019/10/25 18:59:45","新北市板橋區民生路二段226巷36號","121.471275","25.0221483333333","6500100","板橋區"
"220089","487-VK","2019/10/25 18:59:55","新北市板橋區文化路二段159號","121.470278333333","25.0271716666667","6500100","板橋區"
"220088","491-VK","2019/10/25 18:59:52","新北市板橋區文化路二段182巷1弄30號","121.47199","25.0282466666667","6500100","板橋區"
"220035","560-BX","2019/10/25 18:59:47","新北市板橋區中正路258號","121.455376666667","25.01949","6500100","板橋區"
"220083","568-UM","2019/10/25 18:59:50","新北市板橋區大觀路一段38巷170弄1號","121.441958333333","25.0045483333333","6500100","板橋區"
"220063","609-BX","2019/10/25 18:59:45","新北市板橋區中山路二段291-14號","121.478436666667","25.01819","6500100","板橋區"
"220103","630-UY","2019/10/25 18:59:52","新北市板橋區介壽街39號","121.468671666667","25.019855","6500100","板橋區"
"220057","686-BX","2019/10/25 18:59:58","新北市板橋區重慶路308巷20號","121.46353","24.9974816666667","6500100","板橋區"
"220077","687-BX","2019/10/25 18:59:38","新北市板橋區龍興街101巷2號","121.44445","25.0032666666667","6500100","板橋區"
"220093","689-BX","2019/10/25 18:59:53","新北市板橋區民生路三段251號","121.464565","25.029055","6500100","板橋區"
"220054","741-BX","2019/10/25 18:59:52","新北市板橋區重慶路139巷19號","121.463621666667","25.0046566666667","6500100","板橋區"
"220102","KEA-2699","2019/10/25 18:59:54","新北市板橋區萬板路818巷5號","121.482913333333","25.0271316666667","6500100","板橋區"
"220055","827-TW","2019/10/25 18:59:55","新北市板橋區中山路一段152號","121.464626666667","25.011385","6500100","板橋區"
"220067","831-TW","2019/10/25 18:59:50","新北市板橋區民享街116巷2弄16號","121.477455","25.0155666666667","6500100","板橋區"
"220074","895-R6","2019/10/25 18:59:46","新北市板橋區林園街7-1號","121.45407","25.009325","6500100","板橋區"
"220073","985-R7","2019/10/25 18:59:56","新北市板橋區民權路240號","121.458446666667","25.0145083333333","6500100","板橋區"
"220097","AAC-210","2019/10/25 18:59:52","新北市板橋區幸福路70巷18號","121.460473333333","25.020625","6500100","板橋區"
"220064","AAC-253","2019/10/25 18:59:57","新北市板橋區板新路119號","121.471408333333","25.01505","6500100","板橋區"
"235068","KEA-2873","2019/10/25 18:59:34","新北市中和區圓通路232巷14號","121.49518","24.9932683333333","6500300","中和區"
"235061","KEA-2875","2019/10/25 18:59:54","新北市中和區民有街73號","121.476488333333","25.00308","6500300","中和區"
"235062","KEA-2876","2019/10/25 18:59:29","新北市中和區中山路二段403號","121.486195","25.004835","6500300","中和區"
