"lineid","car","time","location","longitude","latitude","cityid","cityname"
"234046","148-BY","2019/10/25 19:29:40","新北市永和區秀朗路二段259號","121.526335","24.9992133333333","6500400","永和區"
"234081","298-R6","2019/10/25 19:29:57","新北市永和區福和路5-9號","121.525615","25.00838","6500400","永和區"
"234038","336-UY","2019/10/25 19:29:54","新北市永和區民樂街38號","121.527461666667","25.0007366666667","6500400","永和區"
"234064","337-UY","2019/10/25 19:29:50","新北市永和區得和路243巷26號","121.52081","25.0011","6500400","永和區"
"234086","338-UY","2019/10/25 19:29:53","新北市永和區林森路74號","121.523568333333","25.00378","6500400","永和區"
"234070","552-UM","2019/10/25 19:29:46","新北市永和區警光街12號","121.519771666667","25.009575","6500400","永和區"
"234017","745-BX","2019/10/25 19:29:49","新北市永和區環河西路一段63號","121.51341","25.01816","6500400","永和區"
"234030","746-BX","2019/10/25 19:29:50","新北市永和區民生路2號","121.52261","24.9980216666667","6500400","永和區"
"234054","KEA-2590","2019/10/25 19:29:59","新北市永和區永和路二段181號","121.515393333333","25.0133766666667","6500400","永和區"
"234007","KED-0605","2019/10/25 19:29:43","新北市永和區永和路184-1號","121.514198333333","25.0090216666667","6500400","永和區"
"234013","KEA-2591","2019/10/25 19:29:47","新北市永和區中山路一段184巷9弄17號","121.50832","25.009145","6500400","永和區"
"234061","AAD-866","2019/10/25 19:29:50","新北市永和區中正路516號","121.517331666667","25.0047683333333","6500400","永和區"
"234042","862-TW","2019/10/25 19:29:42","新北市永和區水源街33巷1號","121.510771666667","25.004395","6500400","永和區"
"234050","863-TW","2019/10/25 19:29:51","新北市永和區信義路81號","121.512341666667","25.0134483333333","6500400","永和區"
"234026","9371-KE","2019/10/25 19:29:50","新北市中和區安平路222號","121.513858333333","25.0001233333333","6500400","永和區"
"234011","9373-KE","2019/10/25 19:29:42","新北市永和區保安路292號","121.505053333333","25.011695","6500400","永和區"
"249003","593-UM","2019/10/25 19:29:55","新北市八里區中山路二段448號","121.399391666667","25.1472966666667","6502300","八里區"
"248016","026-BX","2019/10/25 19:29:44","新北市五股區成洲五路12號","121.452276666667","25.1015566666667","6501500","五股區"
"248008","KED-0815","2019/10/25 19:29:50","新北市五股區中興路一段95巷1號","121.466731666667","25.0727116666667","6501500","五股區"
"248018","KED-0813","2019/10/25 19:29:43","新北市五股區外寮路7號","121.423966666667","25.077855","6501500","五股區"
"248012","247-BX","2019/10/25 19:29:51","新北市五股區成泰路二段91巷9號","121.437541666667","25.0841283333333","6501500","五股區"
"248014","261-SL","2019/10/25 19:29:55","新北市五股區五福路23巷9號","121.433561666667","25.08867","6501500","五股區"
"248004","677-BX","2019/10/25 19:29:59","新北市五股區工商路140號","121.435073333333","25.0865933333333","6501500","五股區"
"248002","678-BX","2019/10/25 19:29:55","新北市五股區凌雲路一段158巷14號","121.447775","25.103375","6501500","五股區"
"248010","682-TV","2019/10/25 19:29:46","新北市五股區水碓一路23號","121.430628333333","25.0712933333333","6501500","五股區"
"234023","9380-KE","2019/10/25 19:29:45","新北市永和區環河東路二段30號","121.522648333333","25.0126566666667","6500400","永和區"
"234077","969-R7","2019/10/25 19:29:44","新北市永和區民權路58巷3號","121.519661666667","24.9982783333333","6500400","永和區"
"234074","AAC-211","2019/10/25 19:29:44","新北市永和區環河東路一段122號","121.52059","25.015635","6500400","永和區"
"234067","AAC-212","2019/10/25 19:29:59","新北市永和區永貞路351號","121.509181666667","25.007525","6500400","永和區"
"234003","AAC-295","2019/10/25 19:29:52","新北市永和區福和路387號","121.514166666667","25.0077133333333","6500400","永和區"
"244023","483-VK","2019/10/25 19:29:41","新北市林口區民富街97號","121.370243333333","25.0751516666667","6501700","林口區"
"244025","837-TS","2019/10/25 19:29:53","新北市林口區民族路82巷20號","121.366373333333","25.0752033333333","6501700","林口區"
"243012","AAD-798","2019/10/25 19:29:54","新北市泰山區仁義路207號","121.433091666667","25.05375","6501600","泰山區"
"243010","297-R6","2019/10/25 19:19:55","新北市泰山區明志路一段519號","121.430356666667","25.05405","6501600","泰山區"
"243014","KEA-2801","2019/10/25 19:29:46","新北市泰山區中港西路450號","121.433555","25.0536183333333","6501600","泰山區"
"243016","421-VK","2019/10/25 19:29:40","新北市泰山區明志路三段222號","121.421421666667","25.0359516666667","6501600","泰山區"
"243009","KEA-2215","2019/10/25 19:29:44","新北市泰山區半山雅3號","121.431401666667","25.0674183333333","6501600","泰山區"
"243011","KEA-2216","2019/10/25 19:29:53","新北市泰山區中山路二段567號","121.429708333333","25.04019","6501600","泰山區"
"243013","646-TV","2019/10/25 19:29:54","新北市泰山區貴子路36巷2號","121.42584","25.0416083333333","6501600","泰山區"
"243015","680-BX","2019/10/25 19:29:40","新北市泰山區民權街50號","121.428706666667","25.05066","6501600","泰山區"
"222003","436-BY","2019/10/25 19:29:53","新北市深坑區深南路51-1號","121.621275","25.0098116666667","6501800","深坑區"
"222002","659-BX","2019/10/25 19:29:41","新北市深坑區北深路一段177號","121.632581666667","25.0108366666667","6501800","深坑區"
"231061","002-UM","2019/10/25 19:29:54","新北市新店區安康路一段302-3號","121.517593333333","24.9640266666667","6500600","新店區"
"231044","046-UY","2019/10/25 19:29:48","新北市新店區中興路三段136號","121.544775","24.9799633333333","6500600","新店區"
"231042","047-UY","2019/10/25 19:29:41","新北市新店區中興路一段144號","121.54241","24.9637683333333","6500600","新店區"
"231060","106-UY","2019/10/25 19:29:39","新北市新店區安康路二段68號","121.51471","24.963625","6500600","新店區"
"231051","107-UY","2019/10/25 19:29:52","新北市新店區中央路103號","121.530988333333","24.9749266666667","6500600","新店區"
"231049","108-UY","2019/10/25 19:29:47","新北市新店區北新路三段65巷34弄1號","121.540025","24.981245","6500600","新店區"
"231065","110-UY","2019/10/25 19:29:55","新北市新店區安祥路109巷5號","121.475735","24.9589083333333","6500600","新店區"
"231062","256-BX","2019/10/25 19:29:51","新北市新店區莒光路23號","121.525243333333","24.9599116666667","6500600","新店區"
"231054","260-TV","2019/10/25 19:29:46","新北市新店區文中路51號","121.539778333333","24.9566083333333","6500600","新店區"
"231064","278-BY","2019/10/25 19:29:52","新北市新店區安和路一段16號","121.517243333333","24.9651566666667","6500600","新店區"
"231050","AAD-862","2019/10/25 19:29:54","新北市新店區竹林路72巷1號","121.553675","24.9510866666667","6500600","新店區"
"231045","355-BY","2019/10/25 19:29:57","新北市新店區北宜路二段209號","121.55316","24.9532766666667","6500600","新店區"
"231058","3713-VJ","2019/10/25 19:29:54","新北市新店區北新路一段96巷25號","121.54266","24.9693116666667","6500600","新店區"
"231056","4715-K9","2019/10/25 19:29:43","新北市新店區柴埕路100-2號","121.503251666667","24.9592983333333","6500600","新店區"
"231067","4772-VM","2019/10/25 19:29:46","新北市新店區薏仁坑路自強巷1號","121.496926666667","24.9581516666667","6500600","新店區"
"231053","513-UM","2019/10/25 19:29:44","新北市新店區廣興路60巷8弄2-1號","121.542586666667","24.9126466666667","6500600","新店區"
"231063","616-UM","2019/10/25 19:29:53","新北市新店區達觀路16號","121.503136666667","24.94091","6500600","新店區"
"231041","619-UM","2019/10/25 19:29:59","新北市新店區中正路556號","121.533663333333","24.9870533333333","6500600","新店區"
"231048","KED-0819","2019/10/25 19:29:52","新北市新店區中興路一段252號","121.544351666667","24.96653","6500600","新店區"
"231046","719-UM","2019/10/25 19:29:38","新北市新店區北新路一段42號","121.541015","24.9661216666667","6500600","新店區"
"231057","720-UM","2019/10/25 19:28:32","新北市新店區花園一路二段27號","121.551321666667","24.9324683333333","6500600","新店區"
"231059","897-TW","2019/10/25 19:29:51","新北市新店區安和路三段7號","121.518161666667","24.9804583333333","6500600","新店區"
"231040","898-TW","2019/10/25 19:29:50","新北市新店區三民路31-3號","121.537936666667","24.9704366666667","6500600","新店區"
"231043","899-TW","2019/10/25 19:29:59","新北市新店區北新路二段182號","121.542976666667","24.9761","6500600","新店區"
"231066","AKT-0513","2019/10/25 19:29:57","新北市新店區安康路三段359巷10弄2號","121.484241666667","24.9503583333333","6500600","新店區"
"241028","022-UY","2019/10/25 19:29:40","新北市三重區中寮街31號","121.492595","25.0589383333333","6500200","三重區"
"241008","059-VK","2019/10/25 19:29:46","新北市三重區永福街135巷30號","121.477546666667","25.0771083333333","6500200","三重區"
"241031","061-VK","2019/10/25 19:29:41","新北市三重區集美街100號","121.488525","25.05413","6500200","三重區"
"241017","063-VK","2019/10/25 19:29:38","新北市三重區中正北路25巷2號","121.493278333333","25.062695","6500200","三重區"
"241007","066-VK","2019/10/25 19:29:57","新北市三重區溪尾街124-1號","121.489401666667","25.0792783333333","6500200","三重區"
"241006","262-UM","2019/10/25 19:29:38","新北市三重區車路頭街91號","121.484465","25.0742266666667","6500200","三重區"
"241009","267-UM","2019/10/25 19:29:40","新北市三重區仁美街128號","121.485428333333","25.0814366666667","6500200","三重區"
"241032","269-UM","2019/10/25 19:29:40","新北市三重區三陽路62號","121.484103333333","25.05874","6500200","三重區"
"241013","270-UM","2019/10/25 19:29:36","新北市三重區仁愛街123-5號","121.495978333333","25.0751583333333","6500200","三重區"
"241025","271-UM","2019/10/25 19:29:38","新北市三重區頂崁街210巷28弄9號","121.475786666667","25.0671266666667","6500200","三重區"
"241035","KEA-2210","2019/10/25 19:29:48","新北市三重區信義西街1號","121.498073333333","25.0648633333333","6500200","三重區"
"241030","KED-0822","2019/10/25 19:29:40","新北市三重區環河南路254巷32號","121.490043333333","25.051065","6500200","三重區"
"241023","462-BY","2019/10/25 19:29:40","新北市三重區頂崁街99號","121.477976666667","25.0638216666667","6500200","三重區"
"241020","478-VK","2019/10/25 19:29:48","新北市三重區三和路四段20巷30號","121.489883333333","25.0735466666667","6500200","三重區"
"241026","480-VK","2019/10/25 19:29:56","新北市三重區文化南路42號","121.500423333333","25.060465","6500200","三重區"
"241029","942-UM","2019/10/25 19:29:46","新北市三重區大同南路161巷68號","121.495216666667","25.0550833333333","6500200","三重區"
"235066","003-UY","2019/10/25 19:29:48","新北市中和區景新街53號","121.50442","24.9990033333333","6500300","中和區"
"235063","006-UY","2019/10/25 19:29:57","新北市中和區連城路203巷7號","121.494953333333","24.99753","6500300","中和區"
"235056","096-UM","2019/10/25 19:29:56","新北市中和區員山路581巷31弄22號","121.476553333333","25.0103983333333","6500300","中和區"
"235039","097-UM","2019/10/25 19:29:42","新北市中和區秀峰街86號","121.519641666667","24.99107","6500300","中和區"
"235065","098-UM","2019/10/25 19:29:45","新北市中和區中山路二段178巷21號","121.500673333333","25.0033883333333","6500300","中和區"
"235040","150-BY","2019/10/25 19:29:40","新北市中和區保健路44巷11號","121.50908","24.9966233333333","6500300","中和區"
"235058","151-BY","2019/10/25 19:29:54","新北市中和區員山路132巷8號","121.481746666667","24.9962383333333","6500300","中和區"
"235055","183-VK","2019/10/25 19:29:57","新北市中和區中山路三段181巷2號","121.472713333333","25.0060983333333","6500300","中和區"
"235038","185-VK","2019/10/25 19:29:55","新北市中和區自立路127號","121.52204","24.9940916666667","6500300","中和區"
"235067","255-BX","2019/10/25 19:29:40","新北市中和區連城路280號","121.48437","24.9962483333333","6500300","中和區"
"235044","293-VK","2019/10/25 19:29:44","新北市中和區捷運路153號","121.50653","24.9910983333333","6500300","中和區"
"235072","301-VK","2019/10/25 19:29:52","新北市中和區連城路265巷8弄1號","121.491616666667","24.9955416666667","6500300","中和區"
"235043","352-BY","2019/10/25 19:29:39","新北市中和區安和路7號","121.511605","24.993515","6500300","中和區"
"235042","KEA-2878","2019/10/25 19:29:49","新北市中和區中和路262巷45號","121.51001","24.999815","6500300","中和區"
"235070","558-UM","2019/10/25 19:29:59","新北市中和區連勝街40號","121.498051666667","24.997615","6500300","中和區"
"235045","565-BX","2019/10/25 19:29:44","新北市中和區景新街378號","121.512261666667","24.9900833333333","6500300","中和區"
"235060","KED-0823","2019/10/25 19:29:49","新北市中和區中山路二段499號","121.482396666667","25.0050533333333","6500300","中和區"
"235054","640-BX","2019/10/25 19:29:52","新北市中和區民享街86巷38號","121.472791666667","25.0005316666667","6500300","中和區"
"235071","647-TV","2019/10/25 19:29:58","新北市中和區連城路469巷21弄12號","121.48402","24.9950716666667","6500300","中和區"
"235047","732-UM","2019/10/25 19:29:46","新北市中和區景平路259巷31號","121.506768333333","24.992715","6500300","中和區"
"235046","733-UM","2019/10/25 19:29:55","新北市中和區忠孝街39-2號","121.511593333333","24.9839016666667","6500300","中和區"
"235057","801-TS","2019/10/25 19:29:50","新北市中和區員山路138號","121.481215","24.9964166666667","6500300","中和區"
"235041","802-TS","2019/10/25 19:29:47","新北市永和區中和路539號","121.511358333333","25.0030733333333","6500300","中和區"
"235052","805-TS","2019/10/25 19:29:47","新北市中和區華新街143巷8號","121.50654","24.98103","6500300","中和區"
"235048","896-TW","2019/10/25 19:29:57","新北市中和區忠孝街2-11號","121.509393333333","24.9829333333333","6500300","中和區"
"235053","900-TW","2019/10/25 19:29:39","新北市中和區國光街142巷46號","121.467541666667","25.0021283333333","6500300","中和區"
"235051","157-BY","2019/10/25 19:29:43","新北市中和區景平路572號","121.501735","24.9953016666667","6500300","中和區"
"235037","AAC-213","2019/10/25 19:29:54","新北市中和區秀朗路三段22巷15號","121.525501666667","24.99603","6500300","中和區"
"235059","AAC-215","2019/10/25 19:29:51","新北市中和區圓通路252號","121.494173333333","24.9914483333333","6500300","中和區"
"220065","072-UY","2019/10/25 19:29:47","新北市板橋區國泰街111巷15號","121.466171666667","25.0060066666667","6500100","板橋區"
"220086","073-UY","2019/10/25 19:29:40","新北市板橋區中正路216巷82號","121.45817","25.0189216666667","6500100","板橋區"
"220106","075-UY","2019/10/25 19:29:54","新北市板橋區雙十路三段20-1號","121.471461666667","25.0304966666667","6500100","板橋區"
"220069","AAD-861","2019/10/25 19:29:37","新北市板橋區南雅南路二段18號","121.454455","25.0035683333333","6500100","板橋區"
"220068","120-SR","2019/10/25 19:29:48","新北市板橋區萬安街98號","121.483815","25.0241066666667","6500100","板橋區"
"247004","500-BY","2019/10/25 19:29:43","新北市蘆洲區長安街229號","121.459485","25.08277","6501400","蘆洲區"
"226004","312-R5","2019/10/25 19:29:38","新北市平溪區十分里十分街182號","121.778645","25.0439166666667","6502400","平溪區"
"235049","251-BX","2019/10/25 19:29:41","新北市中和區安平路13號","121.509181666667","24.9941166666667","6500300","中和區"
"228001","670-TC","2019/10/25 19:29:46","新北市貢寮區真理里大澳街21-1號","121.925056666667","25.0561216666667","6502600","貢寮區"
"228003","828-UM","2019/10/25 19:29:38","新北市貢寮區和美里和美街19-2號","121.912793333333","25.08259","6502600","貢寮區"
"224008","273-VK","2019/10/25 19:30:01","新北市瑞芳區一坑路227號","121.801358333333","25.10878","6501200","瑞芳區"
"227002","642-TC","2019/10/25 19:29:43","新北市雙溪區雙溪里光復街20號","121.865141666667","25.0354716666667","6502500","雙溪區"
"227001","400-TW","2019/10/25 19:29:43","新北市雙溪區新基里新基北街43號","121.868226666667","25.0396766666667","6502500","雙溪區"
"222001","KEA-2212","2019/10/25 19:29:44","新北市深坑區深坑街10號","121.615838333333","25.0028466666667","6501800","深坑區"
"208002","KEA-2872","2019/10/25 19:29:48","新北市金山區中山路313巷14號","121.635261666667","25.22329","6502700","金山區"
"208003","665-BX","2019/10/25 19:29:48","新北市金山區仁愛路37-13號","121.635785","25.2202966666667","6502700","金山區"
"251009","008-UM","2019/10/25 19:29:38","新北市淡水區中正路32號","121.443948333333","25.1692183333333","6501000","淡水區"
"251008","181-VK","2019/10/25 19:29:48","新北市淡水區中正路一段66號","121.425296666667","25.1769633333333","6501000","淡水區"
"251010","413-VK","2019/10/25 19:29:49","新北市淡水區中正路二段393號","121.425915","25.190855","6501000","淡水區"
"251007","442-VK","2019/10/25 19:29:50","新北市淡水區中正東路二段69-12號","121.460755","25.154385","6501000","淡水區"
"251005","443-VK","2019/10/25 19:29:59","新北市淡水區水源街一段47巷33號","121.444011666667","25.1733566666667","6501000","淡水區"
"251001","559-UM","2019/10/25 19:29:58","新北市淡水區民權路137號","121.460061666667","25.1365616666667","6501000","淡水區"
"251006","561-UM","2019/10/25 19:29:42","新北市淡水區大義街29巷18號","121.441463333333","25.1780383333333","6501000","淡水區"
"251002","672-BX","2019/10/25 19:29:46","新北市淡水區中正路一段22巷100號","121.426895","25.1860583333333","6501000","淡水區"
"251003","766-UM","2019/10/25 19:29:56","新北市淡水區中山北路三段102-1號","121.444365","25.191385","6501000","淡水區"
"207003","550-UM","2019/10/25 19:30:00","新北市萬里區大鵬里萬里加投119號","121.645591666667","25.2133366666667","6502800","萬里區"
"207004","291-VK","2019/10/25 19:29:54","新北市萬里區萬里里瑪鋉路87-1號","121.688713333333","25.1772066666667","6502800","萬里區"
"252002","178-VK","2019/10/25 19:29:47","新北市三芝區淡金路二段18-1號","121.502696666667","25.259505","6502100","三芝區"
"208001","170-UY","2019/10/25 19:29:49","新北市金山區南勢湖41-6號","121.62984","25.221035","6502700","金山區"
"237004","KEA-2597","2019/10/25 19:29:51","新北市三峽區有木205-1號","121.43905","24.8516633333333","6500900","三峽區"
"237007","153-BY","2019/10/25 19:29:54","新北市三峽區二鬮路136巷20弄59號","121.357533333333","24.9097866666667","6500900","三峽區"
"237009","210-TH","2019/10/25 19:29:46","新北市三峽區長福街2號","121.369836666667","24.9337783333333","6500900","三峽區"
"237013","252-BX","2019/10/25 19:29:52","新北市三峽區介壽路一段311巷7號","121.381233333333","24.9307566666667","6500900","三峽區"
"237012","275-BY","2019/10/25 19:29:40","新北市三峽區三樹路98巷70號","121.384001666667","24.93868","6500900","三峽區"
"237008","302-VK","2019/10/25 19:29:43","新北市三峽區永安街183號","121.37315","24.9269533333333","6500900","三峽區"
"237011","433-BY","2019/10/25 19:29:57","新北市三峽區介壽路一段361號","121.382513333333","24.9306183333333","6500900","三峽區"
"237006","5529-G3","2019/10/25 19:29:47","新北市三峽區中正路一段336巷15弄2號","121.369948333333","24.9249333333333","6500900","三峽區"
"237015","649-BX","2019/10/25 19:29:51","新北市三峽區成福路300號","121.428778333333","24.92348","6500900","三峽區"
"237010","706-TV","2019/10/25 19:29:45","新北市三峽區復興路144號","121.371683333333","24.938115","6500900","三峽區"
"237014","756-BX","2019/10/25 19:29:59","新北市三峽區中山路114號","121.365736666667","24.935825","6500900","三峽區"
"237005","AKY-6261","2019/10/25 19:29:48","新北市三峽區復興路367巷3號","121.36373","24.9380516666667","6500900","三峽區"
"236079","166-UM","2019/10/25 19:29:39","新北市土城區中州路51號","121.412755","24.9578716666667","6501300","土城區"
"236069","KEA-2877","2019/10/25 19:29:47","新北市土城區學府路一段157號","121.453243333333","24.9858616666667","6501300","土城區"
"252001","KED-0821","2019/10/25 19:29:47","新北市三芝區長勤街63-1號","121.500098333333","25.2560583333333","6502100","三芝區"
"236020","401-BY","2019/10/25 19:29:55","新北市土城區峰廷街3號","121.469115","24.987275","6501300","土城區"
"236048","913-UM","2019/10/25 19:29:47","新北市土城區立仁街50號","121.460686666667","24.9823416666667","6501300","土城區"
"236055","AAC-216","2019/10/25 19:29:59","新北市土城區學府路一段276號","121.45021","24.983285","6501300","土城區"
"242005","751-BX","2019/10/25 19:29:50","新北市新莊區思源路52號","121.460586666667","25.0440283333333","6500500","新莊區"
"238015","755-BX","2019/10/25 19:29:50","新北市樹林區復興路340號","121.416128333333","24.98643","6500700","樹林區"
"238023","601-UM","2019/10/25 19:29:52","新北市樹林區三福街114號","121.406471666667","25.01631","6500700","樹林區"
"238019","599-UM","2019/10/25 19:29:45","新北市樹林區鎮前街347巷18號","121.416821666667","24.98343","6500700","樹林區"
"238024","5061-A6","2019/10/25 19:29:56","新北市樹林區福德街48號","121.399233333333","24.9750033333333","6500700","樹林區"
"238018","KEA-2217","2019/10/25 19:29:44","新北市樹林區中華路219-1號","121.419331666667","24.9812316666667","6500700","樹林區"
"238022","KEA-2213","2019/10/25 19:29:49","新北市樹林區太平路101號","121.419186666667","24.98117","6500700","樹林區"
"238021","KEA-2539","2019/10/25 19:29:45","新北市樹林區佳園路三段213號","121.385106666667","24.94667","6500700","樹林區"
"238025","303-VK","2019/10/25 19:29:44","新北市樹林區中山路一段169號","121.421705","24.9885983333333","6500700","樹林區"
"238017","283-BY","2019/10/25 19:29:50","新北市樹林區光興街221號","121.40819","25.0049333333333","6500700","樹林區"
"238014","282-BY","2019/10/25 19:29:54","新北市樹林區千歲街17號","121.424911666667","24.9956216666667","6500700","樹林區"
"238020","268-VK","2019/10/25 19:29:53","新北市樹林區俊英街83巷1-1號","121.425796666667","25.0080016666667","6500700","樹林區"
"238026","172-UY","2019/10/25 19:29:41","新北市樹林區佳園路三段23號","121.38825","24.954745","6500700","樹林區"
"238016","169-UY","2019/10/25 19:29:48","新北市樹林區復興路446巷2弄2號","121.413455","24.9843","6500700","樹林區"
"239007","AAC-297","2019/10/25 19:29:44","新北市鶯歌區西湖街53巷30-1號","121.34196","24.9610016666667","6500800","鶯歌區"
"239006","891-R6","2019/10/25 19:29:45","新北市鶯歌區永昌街136號","121.339898333333","24.9504416666667","6500800","鶯歌區"
"239003","661-UM","2019/10/25 19:29:51","新北市鶯歌區文化路110號","121.35234","24.952315","6500800","鶯歌區"
"239008","527-UM","2019/10/25 19:29:40","新北市鶯歌區大湖路542號","121.336823333333","24.9729333333333","6500800","鶯歌區"
"239005","526-UM","2019/10/25 19:29:42","新北市鶯歌區東湖路30號","121.35558","24.9719416666667","6500800","鶯歌區"
"239001","417-VK","2019/10/25 19:29:42","新北市鶯歌區鶯桃路95巷63號","121.337483333333","24.9528816666667","6500800","鶯歌區"
"239002","359-BY","2019/10/25 19:29:58","新北市鶯歌區西湖街90號","121.339676666667","24.95965","6500800","鶯歌區"
"239004","193-VK","2019/10/25 19:29:50","新北市鶯歌區中正三路291巷20弄2號","121.32977","24.9355933333333","6500800","鶯歌區"
"221008","489-VK","2019/10/25 19:29:53","新北市汐止區康寧街227號","121.62317","25.066665","6501100","汐止區"
"221027","281-BY","2019/10/25 19:29:58","新北市汐止區忠孝東路9號","121.65829","25.06591","6501100","汐止區"
"221031","353-TW","2019/10/25 19:29:55","新北市汐止區康寧街901號","121.65077","25.075315","6501100","汐止區"
"221025","623-UM","2019/10/25 19:29:46","新北市汐止區新台五路二段10號","121.660275","25.0650266666667","6501100","汐止區"
"221002","707-TV","2019/10/25 19:29:45","新北市汐止區大同路一段219巷27號","121.63328","25.0583466666667","6501100","汐止區"
"220079","145-BY","2019/10/25 19:29:58","新北市板橋區公館街88號","121.461388333333","25.0153533333333","6500100","板橋區"
"220080","200-UY","2019/10/25 19:29:54","新北市板橋區大觀路二段3巷75號","121.449728333333","25.0033716666667","6500100","板橋區"
"220082","610-BX","2019/10/25 19:29:58","新北市板橋區金門街231號","121.432208333333","24.9896516666667","6500100","板橋區"
"220101","245-BX","2019/10/25 19:29:57","新北市板橋區莊敬路240號","121.47349","25.02144","6500100","板橋區"
"220091","267-BY","2019/10/25 19:29:42","新北市板橋區文聖街135巷25號","121.479026666667","25.02895","6500100","板橋區"
"220056","276-BY","2019/10/25 19:29:58","新北市板橋區信義路58號","121.457238333333","24.99384","6500100","板橋區"
"220072","277-BY","2019/10/25 19:29:53","新北市板橋區金門街230號","121.430675","24.987665","6500100","板橋區"
"220094","283-UM","2019/10/25 19:29:44","新北市板橋區銘傳街78號","121.46909","25.0313066666667","6500100","板橋區"
"220071","283-VK","2019/10/25 19:29:57","新北市板橋區忠孝路48巷9弄2號","121.46129","24.99999","6500100","板橋區"
"220053","285-VK","2019/10/25 19:29:52","新北市板橋區懷仁街77巷18號","121.477578333333","25.0188866666667","6500100","板橋區"
"220081","287-VK","2019/10/25 19:29:51","新北市板橋區大觀路一段28巷1弄104號","121.451731666667","25.0059166666667","6500100","板橋區"
"220090","288-VK","2019/10/25 19:29:49","新北市板橋區長江路一段48巷12號","121.459488333333","25.0279616666667","6500100","板橋區"
"220061","293-UM","2019/10/25 19:29:49","新北市板橋區漢生東路151號","121.468475","25.01378","6500100","板橋區"
"220062","295-UM","2019/10/25 19:29:58","新北市板橋區三民路二段167號","121.479168333333","25.014525","6500100","板橋區"
"220084","296-UM","2019/10/25 19:29:41","新北市板橋區篤行路三段玉平巷76弄2號","121.427975","24.9855","6500100","板橋區"
"220075","303-R5","2019/10/25 19:29:44","新北市板橋區南雅西路一段122號","121.452383333333","25.00646","6500100","板橋區"
"220092","307-R5","2019/10/25 19:29:48","新北市板橋區陽明街164巷24號","121.464608333333","25.024595","6500100","板橋區"
"220098","317-R6","2019/10/25 19:29:45","新北市板橋區四維路266巷2弄27號","121.464111666667","25.0280433333333","6500100","板橋區"
"220089","487-VK","2019/10/25 19:29:46","新北市板橋區龍泉街99-3號","121.456981666667","25.0244683333333","6500100","板橋區"
"220088","491-VK","2019/10/25 19:29:52","新北市板橋區文化路二段580號","121.476711666667","25.0346666666667","6500100","板橋區"
"220035","560-BX","2019/10/25 19:29:51","新北市板橋區中正路433巷1號","121.454138333333","25.02328","6500100","板橋區"
"220083","568-UM","2019/10/25 19:29:50","新北市板橋區大觀路二段174巷177號","121.442106666667","25.0037716666667","6500100","板橋區"
"220063","609-BX","2019/10/25 19:29:45","新北市板橋區林森街3巷1弄6號","121.482623333333","25.0236166666667","6500100","板橋區"
"220103","630-UY","2019/10/25 19:29:59","新北市板橋區陽明街27巷7號","121.465625","25.021505","6500100","板橋區"
"220057","686-BX","2019/10/25 19:29:50","新北市板橋區和平路安樂巷54號","121.462263333333","24.9930483333333","6500100","板橋區"
"220077","687-BX","2019/10/25 19:29:52","新北市板橋區大觀路一段28巷62號","121.449798333333","25.0104066666667","6500100","板橋區"
"220093","689-BX","2019/10/25 19:29:53","新北市板橋區長江路一段131號","121.460411666667","25.0300833333333","6500100","板橋區"
"220054","741-BX","2019/10/25 19:29:55","新北市板橋區實踐路116號","121.463985","25.0041866666667","6500100","板橋區"
"220102","KEA-2699","2019/10/25 19:30:00","新北市板橋區雙十路二段76巷2號","121.475166666667","25.0280666666667","6500100","板橋區"
"220055","827-TW","2019/10/25 19:29:55","新北市板橋區重慶路290巷22弄16號","121.462303333333","24.9995366666667","6500100","板橋區"
"220067","831-TW","2019/10/25 19:29:58","新北市板橋區長安街138巷5弄2號","121.473058333333","25.008645","6500100","板橋區"
"220074","895-R6","2019/10/25 19:29:55","新北市板橋區宮口街38號","121.457475","25.0106666666667","6500100","板橋區"
"220073","985-R7","2019/10/25 19:29:56","新北市板橋區中正路316號","121.454766666667","25.020815","6500100","板橋區"
"220097","AAC-210","2019/10/25 19:29:52","新北市板橋區漢生西路58巷1弄1號","121.46337","25.018955","6500100","板橋區"
"220064","AAC-253","2019/10/25 19:29:41","新北市板橋區重慶路17號","121.460876666667","25.0079866666667","6500100","板橋區"
"235068","KEA-2873","2019/10/25 19:29:34","新北市中和區圓通路158巷24號","121.49832","24.996935","6500300","中和區"
"235061","KEA-2875","2019/10/25 19:29:54","新北市中和區民安街2巷33號","121.480041666667","25.0015933333333","6500300","中和區"
