"lineid","car","time","location","longitude","latitude","cityid","cityname"
"234081","298-R6","2019/10/25 20:29:57","新北市永和區永貞路31號","121.521023333333","25.006635","6500400","永和區"
"234038","336-UY","2019/10/25 20:29:54","新北市永和區環河東路四段38號","121.528741666667","24.9989183333333","6500400","永和區"
"234064","337-UY","2019/10/25 20:29:50","新北市永和區中正路419號","121.517126666667","25.004985","6500400","永和區"
"234086","338-UY","2019/10/25 20:29:53","新北市永和區光復街21號","121.516476666667","25.01747","6500400","永和區"
"234070","552-UM","2019/10/25 20:29:46","新北市永和區永亨路7號","121.519411666667","25.0056783333333","6500400","永和區"
"234030","746-BX","2019/10/25 20:29:50","新北市新店區安興路105號","121.515095","24.9782833333333","6500400","永和區"
"234054","KEA-2590","2019/10/25 20:29:39","新北市永和區環河東路一段82號","121.519633333333","25.0164216666667","6500400","永和區"
"234061","AAD-866","2019/10/25 20:29:50","新北市永和區安樂路194巷11號","121.515493333333","25.00111","6500400","永和區"
"234042","862-TW","2019/10/25 20:29:42","新北市永和區安樂路248-1號","121.514661666667","25.0033516666667","6500400","永和區"
"234050","863-TW","2019/10/25 20:29:51","新北市永和區新生路140號","121.50667","25.0143183333333","6500400","永和區"
"249001","173-UM","2019/10/25 20:29:46","新北市八里區中山路三段106號","121.391033333333","25.1421983333333","6502300","八里區"
"249004","303-UY","2019/10/25 20:29:49","新北市八里區中山路一段129巷37號","121.414066666667","25.1584583333333","6502300","八里區"
"249002","305-UY","2019/10/25 20:29:55","新北市八里區龍米路二段87號","121.447731666667","25.1419916666667","6502300","八里區"
"249003","593-UM","2019/10/25 20:29:55","新北市八里區舊城路21號","121.399806666667","25.14707","6502300","八里區"
"248002","678-BX","2019/10/25 20:29:55","新北市五股區新五路二段331號","121.443751666667","25.08732","6501500","五股區"
"234023","9380-KE","2019/10/25 20:29:45","新北市永和區博愛街32巷13號","121.51888","25.0153533333333","6500400","永和區"
"234074","AAC-211","2019/10/25 20:29:44","新北市永和區豫溪街191巷7弄33號","121.523115","25.0110883333333","6500400","永和區"
"234003","AAC-295","2019/10/25 20:29:43","新北市永和區中正路620號","121.517071666667","25.0078566666667","6500400","永和區"
"243012","AAD-798","2019/10/25 20:29:54","新北市泰山區明志路一段110號","121.43342","25.0636983333333","6501600","泰山區"
"243014","KEA-2801","2019/10/25 20:29:46","新北市泰山區泰林路二段521號","121.423855","25.063775","6501600","泰山區"
"243016","421-VK","2019/10/25 20:29:57","新北市泰山區文程路14號","121.428163333333","25.049325","6501600","泰山區"
"243009","KEA-2215","2019/10/25 20:29:44","新北市泰山區忠孝街16巷13號","121.428088333333","25.0650366666667","6501600","泰山區"
"243011","KEA-2216","2019/10/25 20:29:53","新北市泰山區明志路三段46號","121.42454","25.0423983333333","6501600","泰山區"
"243013","646-TV","2019/10/25 20:29:52","新北市泰山區明志路二段359巷22號","121.426081666667","25.043915","6501600","泰山區"
"243015","680-BX","2019/10/25 20:29:43","新北市泰山區仁德路10號","121.434586666667","25.0571466666667","6501600","泰山區"
"222003","436-BY","2019/10/25 20:29:53","新北市深坑區深坑街83號","121.614431666667","25.00158","6501800","深坑區"
"222002","659-BX","2019/10/25 20:29:41","新北市深坑區萬福路45號","121.59948","25.006795","6501800","深坑區"
"231061","002-UM","2019/10/25 20:29:54","新北市新店區安興路32號","121.515711666667","24.9703266666667","6500600","新店區"
"231055","0291-UT","2019/10/25 20:29:47","新北市新店區安康路二段38號","121.515525","24.9637566666667","6500600","新店區"
"231044","046-UY","2019/10/25 20:29:48","新北市新店區建國路134號","121.538995","24.9788733333333","6500600","新店區"
"231042","047-UY","2019/10/25 20:29:41","新北市新店區寶橋路230號","121.551475","24.9788433333333","6500600","新店區"
"231060","106-UY","2019/10/25 20:29:39","新北市新店區錦秀路11巷12號","121.480936666667","24.9441783333333","6500600","新店區"
"231051","107-UY","2019/10/25 20:29:52","新北市新店區中央六街29號","121.529085","24.975165","6500600","新店區"
"231049","108-UY","2019/10/25 20:29:56","新北市新店區永業路81巷7弄1號","121.53054","24.9486983333333","6500600","新店區"
"231065","110-UY","2019/10/25 20:29:53","新北市新店區安祥路102巷46弄11號","121.485146666667","24.964075","6500600","新店區"
"231068","187-VK","2019/10/25 20:29:59","新北市新店區民權路13號","121.542346666667","24.9828683333333","6500600","新店區"
"231062","256-BX","2019/10/25 20:29:50","新北市新店區安泰路60巷53號","121.483911666667","24.9457783333333","6500600","新店區"
"231054","260-TV","2019/10/25 20:29:46","新北市新店區檳榔路123號","121.544641666667","24.9614333333333","6500600","新店區"
"231064","278-BY","2019/10/25 20:29:52","新北市新店區永安街56巷11號","121.518668333333","24.9861366666667","6500600","新店區"
"231050","AAD-862","2019/10/25 20:29:54","新北市新店區建興街7號","121.539911666667","24.97642","6500600","新店區"
"231045","355-BY","2019/10/25 20:29:57","新北市新店區新坡一街2號","121.54866","24.9613816666667","6500600","新店區"
"231058","3713-VJ","2019/10/25 20:26:14","新北市新店區溪園路397號","121.523338333333","24.978255","6500600","新店區"
"231056","4715-K9","2019/10/25 20:29:43","新北市新店區中央六街45號","121.528471666667","24.975525","6500600","新店區"
"231067","4772-VM","2019/10/25 20:29:46","新北市新店區安華路28-1號","121.519715","24.9606983333333","6500600","新店區"
"231053","513-UM","2019/10/25 20:29:44","新北市新店區松林路36號","121.546225","24.91026","6500600","新店區"
"231063","616-UM","2019/10/25 20:29:53","新北市新店區安康路二段317號","121.499446666667","24.9567133333333","6500600","新店區"
"231041","619-UM","2019/10/25 20:29:59","新北市新店區民權路155號","121.534183333333","24.98265","6500600","新店區"
"231048","KED-0819","2019/10/25 20:29:52","新北市新店區中興路三段328號","121.542101666667","24.98639","6500600","新店區"
"231057","720-UM","2019/10/25 20:29:52","新北市新店區花園六路二段9號","121.555825","24.9331916666667","6500600","新店區"
"231059","897-TW","2019/10/25 20:29:51","新北市新店區安康路二段225號","121.508546666667","24.9587216666667","6500600","新店區"
"231040","898-TW","2019/10/25 20:29:50","新北市新店區三民路122號","121.534376666667","24.97447","6500600","新店區"
"231043","899-TW","2019/10/25 20:29:43","新北市新店區明德路65巷20號","121.540538333333","24.9767916666667","6500600","新店區"
"231066","AKT-0513","2019/10/25 20:29:37","新北市新店區安民街189-1號","121.51689","24.9709933333333","6500600","新店區"
"241011","013-R5","2019/10/25 20:29:49","新北市三重區龍門路102號","121.497548333333","25.0727783333333","6500200","三重區"
"241028","022-UY","2019/10/25 20:30:01","新北市三重區光興街93號","121.497341666667","25.0599266666667","6500200","三重區"
"241008","059-VK","2019/10/25 20:29:46","新北市三重區下竹圍街42-1號","121.481065","25.0749083333333","6500200","三重區"
"241002","060-VK","2019/10/25 20:29:52","新北市三重區仁義街211巷9號","121.497243333333","25.0820816666667","6500200","三重區"
"241031","061-VK","2019/10/25 20:29:41","新北市三重區三寧街18號","121.489301666667","25.0598033333333","6500200","三重區"
"241015","062-VK","2019/10/25 20:29:56","新北市三重區文化北路61-4號","121.498565","25.066435","6500200","三重區"
"241017","063-VK","2019/10/25 20:29:58","新北市三重區自強路一段282號","121.491781666667","25.06806","6500200","三重區"
"241024","065-VK","2019/10/25 20:29:47","新北市三重區中正北路276巷19號","121.480285","25.06745","6500200","三重區"
"241007","066-VK","2019/10/25 20:29:57","新北市三重區自強路四段10號","121.488426666667","25.0761683333333","6500200","三重區"
"241003","091-VK","2019/10/25 20:29:56","新北市三重區富華街200號","121.493205","25.08501","6500200","三重區"
"241006","262-UM","2019/10/25 20:29:58","新北市三重區車路頭街139巷12號","121.484253333333","25.0763266666667","6500200","三重區"
"241016","266-UM","2019/10/25 20:29:50","新北市三重區正義北路188號","121.496336666667","25.0667866666667","6500200","三重區"
"241009","267-UM","2019/10/25 20:30:00","新北市三重區永福街119號","121.479148333333","25.07704","6500200","三重區"
"241018","268-UM","2019/10/25 20:29:54","新北市三重區正義北路216巷9號","121.495783333333","25.0675233333333","6500200","三重區"
"241032","269-UM","2019/10/25 20:29:40","新北市三重區重陽路一段111號","121.4868","25.0598166666667","6500200","三重區"
"241013","270-UM","2019/10/25 20:29:56","新北市三重區三和路四段15號","121.491278333333","25.07416","6500200","三重區"
"241025","271-UM","2019/10/25 20:29:58","新北市三重區頂崁街210巷23弄1號","121.475853333333","25.06817","6500200","三重區"
"241035","KEA-2210","2019/10/25 20:29:48","新北市三重區正義北路113號","121.496891666667","25.0656416666667","6500200","三重區"
"241030","KED-0822","2019/10/25 20:30:00","新北市三重區成功路62號","121.488636666667","25.0509716666667","6500200","三重區"
"241023","462-BY","2019/10/25 20:30:00","新北市三重區自由街17巷18號","121.47999","25.066915","6500200","三重區"
"241004","475-VK","2019/10/25 20:29:44","新北市三重區溪尾街208號","121.4881","25.0812583333333","6500200","三重區"
"241020","478-VK","2019/10/25 20:29:49","新北市三重區明德街46號","121.492171666667","25.07206","6500200","三重區"
"241026","480-VK","2019/10/25 20:29:56","新北市三重區環河南路30號","121.503288333333","25.0620766666667","6500200","三重區"
"241014","543-UM","2019/10/25 20:29:51","新北市三重區長興街90號","121.501646666667","25.0691666666667","6500200","三重區"
"241001","547-UM","2019/10/25 20:29:58","新北市三重區三和路四段160巷70號","121.485975","25.074895","6500200","三重區"
"241019","KEA-2593","2019/10/25 20:29:51","新北市三重區大智街137-1號","121.490966666667","25.070685","6500200","三重區"
"241012","743-BX","2019/10/25 20:29:45","新北市三重區龍濱路285號","121.500881666667","25.073465","6500200","三重區"
"241029","942-UM","2019/10/25 20:29:46","新北市三重區集美街122號","121.488805","25.053565","6500200","三重區"
"241033","AAC-255","2019/10/25 20:29:47","新北市三重區五谷王北街80巷13號","121.475678333333","25.053195","6500200","三重區"
"235055","183-VK","2019/10/25 20:29:36","新北市八里區下罟子17號","121.381203333333","25.1438616666667","6500300","中和區"
"247016","KEA-2869","2019/10/25 20:29:48","新北市蘆洲區光華路71號","121.4681","25.0827316666667","6501400","蘆洲區"
"247010","KED-0682","2019/10/25 20:29:56","新北市蘆洲區民族路101號","121.479701666667","25.0865016666667","6501400","蘆洲區"
"235050","4979-A6","2019/10/25 20:29:44","新北市中和區景新街160巷14號","121.504958333333","24.996785","6500300","中和區"
"235069","4980-A6","2019/10/25 20:29:49","新北市中和區連城路347巷18弄34號","121.487241666667","24.9947366666667","6500300","中和區"
"235009","565-BX","2019/10/25 20:19:37","新北市中和區員山路36巷13號","121.484225","24.99094","6500300","中和區"
"235059","AAC-215","2019/10/25 20:29:50","新北市中和區員山路49-7號","121.4807","24.9914283333333","6500300","中和區"
"247006","893-R6","2019/10/25 20:29:50","新北市蘆洲區和平路121巷8弄37號","121.465913333333","25.08055","6501400","蘆洲區"
"247020","546-UM","2019/10/25 20:29:49","新北市蘆洲區仁愛街161巷33-1號","121.46847","25.0942","6501400","蘆洲區"
"247004","500-BY","2019/10/25 20:29:43","新北市蘆洲區長安街297號","121.458046666667","25.084875","6501400","蘆洲區"
"247022","337-TH","2019/10/25 20:29:53","新北市蘆洲區中正路219號","121.468193333333","25.0863433333333","6501400","蘆洲區"
"247024","057-VK","2019/10/25 20:29:48","新北市蘆洲區光復路70巷19號","121.464678333333","25.0851316666667","6501400","蘆洲區"
"247014","056-VK","2019/10/25 20:29:53","新北市蘆洲區中山二路62號","121.473653333333","25.0821316666667","6501400","蘆洲區"
"247018","053-VK","2019/10/25 20:29:54","新北市蘆洲區復興路227巷19-1號","121.479485","25.09084","6501400","蘆洲區"
"247008","002-UY","2019/10/25 20:29:52","新北市蘆洲區重陽街95號","121.482515","25.0854133333333","6501400","蘆洲區"
"247002","001-UY","2019/10/25 20:29:45","新北市蘆洲區長安街361巷11號","121.456533333333","25.08746","6501400","蘆洲區"
"222001","KEA-2212","2019/10/25 20:29:44","新北市深坑區北深路三段272號","121.598176666667","25.0047066666667","6501800","深坑區"
"251009","008-UM","2019/10/25 20:29:38","新北市淡水區公明街89號","121.444408333333","25.1682616666667","6501000","淡水區"
"251008","181-VK","2019/10/25 20:29:48","新北市淡水區淡海路189巷6號","121.419985","25.18448","6501000","淡水區"
"251010","413-VK","2019/10/25 20:29:49","新北市淡水區沙崙路181巷2-1號","121.424275","25.1841466666667","6501000","淡水區"
"251012","441-VK","2019/10/25 20:29:44","新北市淡水區頂田寮路37號","121.45539","25.2163183333333","6501000","淡水區"
"251001","559-UM","2019/10/25 20:29:58","新北市淡水區新市一路三段8號","121.445098333333","25.1828666666667","6501000","淡水區"
"251006","561-UM","2019/10/25 20:29:41","新北市淡水區商工路393號","121.474638333333","25.1848083333333","6501000","淡水區"
"251002","672-BX","2019/10/25 20:29:59","新北市淡水區中正路39號","121.442113333333","25.16954","6501000","淡水區"
"251003","766-UM","2019/10/25 20:29:56","新北市淡水區新民街21號","121.439406666667","25.1751783333333","6501000","淡水區"
"207004","291-VK","2019/10/25 20:29:39","新北市萬里區北基里忠二街11號","121.684755","25.1755966666667","6502800","萬里區"
"252002","178-VK","2019/10/25 20:29:46","新北市三芝區淡金路二段47-2號","121.50372","25.26056","6502100","三芝區"
"247012","KED-0683","2019/10/25 20:29:40","新北市蘆洲區復興路271號","121.481098333333","25.0900566666667","6501400","蘆洲區"
"252001","KED-0821","2019/10/25 20:29:47","新北市三芝區中山路一段36號","121.50088","25.2575283333333","6502100","三芝區"
"242041","AAC-296","2019/10/25 20:29:47","新北市新莊區天祥街52號","121.416588333333","25.0291516666667","6500500","新莊區"
"242060","986-R7","2019/10/25 20:29:42","新北市新莊區民安路396巷20號","121.430966666667","25.02221","6500500","新莊區"
"242005","751-BX","2019/10/25 20:29:50","新北市新莊區頭前路32號","121.46746","25.05249","6500500","新莊區"
"242029","615-BX","2019/10/25 20:29:48","新北市新莊區昌平街19號","121.454298333333","25.051375","6500500","新莊區"
"242027","613-BX","2019/10/25 20:29:49","新北市新莊區幸福路563號","121.45427","25.0492066666667","6500500","新莊區"
"242058","612-BX","2019/10/25 20:29:58","新北市新莊區四維路157號","121.422493333333","25.021875","6500500","新莊區"
"242054","497-BY","2019/10/25 20:29:44","新北市新莊區西盛街321號","121.428058333333","25.0147466666667","6500500","新莊區"
"242002","441-UM","2019/10/25 20:29:40","新北市新莊區中正路82-1號","121.456983333333","25.03735","6500500","新莊區"
"242007","440-UM","2019/10/25 20:29:48","新北市新莊區思源路345號","121.459881666667","25.05007","6500500","新莊區"
"242013","413-TV","2019/10/25 20:29:41","新北市新莊區中平路270巷7弄33號","121.446143333333","25.0509666666667","6500500","新莊區"
"242050","400-BY","2019/10/25 20:29:50","新北市新莊區西盛街280巷18號","121.427386666667","25.0153483333333","6500500","新莊區"
"242025","362-BY","2019/10/25 20:29:52","新北市新莊區化成路585-9號","121.463171666667","25.0666966666667","6500500","新莊區"
"242023","353-BY","2019/10/25 20:29:52","新北市新莊區化成路539號","121.465098333333","25.0644016666667","6500500","新莊區"
"242015","132-UY","2019/10/25 20:29:51","新北市新莊區中平路46巷5號","121.44517","25.0439216666667","6500500","新莊區"
"242056","172-VK","2019/10/25 20:29:56","新北市新莊區新莊路751巷83號","121.442778333333","25.0308166666667","6500500","新莊區"
"242017","173-VK","2019/10/25 20:30:01","新北市新莊區中港二街61號","121.450146666667","25.045825","6500500","新莊區"
"242032","175-VK","2019/10/25 20:29:48","新北市新莊區義豐街25巷10號","121.440596666667","25.035245","6500500","新莊區"
"242039","176-VK","2019/10/25 20:29:53","新北市新莊區民安路236號","121.426365","25.02207","6500500","新莊區"
"242021","KED-0687","2019/10/25 20:29:39","新北市新莊區公園路118號","121.451453333333","25.03989","6500500","新莊區"
"242044","347-TH","2019/10/25 20:29:57","新北市新莊區龍安路66-5號","121.414871666667","25.0212716666667","6500500","新莊區"
"242037","348-TH","2019/10/25 20:29:48","新北市新莊區後港一路56巷12號","121.426506666667","25.0258166666667","6500500","新莊區"
"242009","349-TH","2019/10/25 20:29:55","新北市新莊區昌隆街94號","121.456163333333","25.0507383333333","6500500","新莊區"
"242034","350-TH","2019/10/25 20:29:56","新北市新莊區建中街90巷3弄9號","121.446328333333","25.0371216666667","6500500","新莊區"
"242019","351-TH","2019/10/25 20:29:57","新北市新莊區銘德街49巷13號","121.457363333333","25.042955","6500500","新莊區"
"221008","489-VK","2019/10/25 20:29:53","新北市汐止區明峰街317號","121.625213333333","25.0670116666667","6501100","汐止區"
"221036","130-UY","2019/10/25 20:29:49","新北市汐止區新台五路二段116巷16號","121.663225","25.0656233333333","6501100","汐止區"
"221015","131-UY","2019/10/25 20:29:39","新北市汐止區建成路142巷19弄17號","121.661816666667","25.0739","6501100","汐止區"
"221010","269-BY","2019/10/25 20:29:55","新北市汐止區八連路二段231號","121.632885","25.0958766666667","6501100","汐止區"
"221012","278-VK","2019/10/25 20:29:44","新北市汐止區汐平路二段66號","121.69833","25.0610466666667","6501100","汐止區"
"221023","279-VK","2019/10/25 20:29:53","新北市汐止區湖東街8號","121.633601666667","25.0720216666667","6501100","汐止區"
"221032","280-BY","2019/10/25 20:29:46","新北市汐止區弘道街53巷12號","121.618703333333","25.048895","6501100","汐止區"
"221027","281-BY","2019/10/25 20:29:58","新北市汐止區中正路205號","121.658443333333","25.068955","6501100","汐止區"
"221029","298-VK","2019/10/25 20:29:42","新北市汐止區樟樹一路129巷32號","121.640533333333","25.0651433333333","6501100","汐止區"
"221021","299-VK","2019/10/25 20:29:51","新北市汐止區水源路一段286號","121.654226666667","25.0582266666667","6501100","汐止區"
"221031","353-TW","2019/10/25 20:29:55","新北市汐止區中興路150巷13號","121.63293","25.0649583333333","6501100","汐止區"
"221035","622-UM","2019/10/25 20:29:53","新北市汐止區長江街101-5號","121.658766666667","25.0730066666667","6501100","汐止區"
"221025","623-UM","2019/10/25 20:29:46","新北市汐止區水源路二段88巷1弄1號","121.656318333333","25.0558566666667","6501100","汐止區"
"221038","646-BX","2019/10/25 20:29:50","新北市汐止區水源路一段56-1號","121.657111666667","25.0653833333333","6501100","汐止區"
"221033","647-BX","2019/10/25 20:29:47","新北市汐止區林森街69巷2號","121.623066666667","25.0407333333333","6501100","汐止區"
"221002","707-TV","2019/10/25 20:29:45","新北市汐止區福德二路53號","121.634023333333","25.0671166666667","6501100","汐止區"
"221018","753-BX","2019/10/25 20:24:58","新北市汐止區茄苳路225巷6號","121.671218333333","25.0690216666667","6501100","汐止區"
"242046","281-VK","2019/10/25 20:29:56","新北市新莊區裕民街54巷25號","121.417633333333","25.0246","6500500","新莊區"
"242011","280-VK","2019/10/25 20:29:45","新北市新莊區中榮街84號","121.448046666667","25.05265","6500500","新莊區"
"220083","568-UM","2019/10/25 20:29:50","新北市板橋區僑中二街106巷19號","121.444996666667","25.007705","6500100","板橋區"
