"lineid","car","time","location","longitude","latitude","cityid","cityname"
"251009","008-UM","2019/10/25 21:43:40","新北市淡水區民族路35巷46號","121.46542","25.13727","6501000","淡水區"
"251004","180-VK","2019/10/25 21:43:54","新北市淡水區民權路88-2號","121.459036666667","25.1331983333333","6501000","淡水區"
"251008","181-VK","2019/10/25 21:43:48","新北市淡水區水源街二段88號","121.451675","25.17432","6501000","淡水區"
"251010","413-VK","2019/10/25 21:43:49","新北市淡水區中正路二段212號","121.426958333333","25.189425","6501000","淡水區"
"251012","441-VK","2019/10/25 21:43:44","新北市淡水區淡金路四段9-1號","121.450323333333","25.2154666666667","6501000","淡水區"
"251007","442-VK","2019/10/25 21:43:50","新北市淡水區水源街二段177巷30號","121.453778333333","25.176715","6501000","淡水區"
"251005","443-VK","2019/10/25 21:43:39","新北市淡水區學府路55號","121.44806","25.1693883333333","6501000","淡水區"
"251001","559-UM","2019/10/25 21:43:38","新北市淡水區新市二路三段152號","121.435333333333","25.1942733333333","6501000","淡水區"
"251006","561-UM","2019/10/25 21:43:19","新北市淡水區中正路11巷3號","121.437886666667","25.1707583333333","6501000","淡水區"
"251011","650-BX","2019/10/25 21:43:50","新北市淡水區新民街298-1號","121.435123333333","25.1826466666667","6501000","淡水區"
"251002","672-BX","2019/10/25 21:43:46","新北市淡水區學府路196號","121.446978333333","25.17626","6501000","淡水區"
"251003","766-UM","2019/10/25 21:43:56","新北市淡水區新民街276號","121.435506666667","25.1813516666667","6501000","淡水區"
