"lineid","car","time","location","longitude","latitude","cityid","cityname"
"251009","008-UM","2019/10/25 21:59:40","新北市淡水區民生路42號","121.46165","25.137915","6501000","淡水區"
"251004","180-VK","2019/10/25 21:59:54","新北市淡水區自強路201巷53號","121.462018333333","25.1271233333333","6501000","淡水區"
"251008","181-VK","2019/10/25 21:59:48","新北市淡水區學府路104號","121.449851666667","25.1718016666667","6501000","淡水區"
"251010","413-VK","2019/10/25 21:59:49","新北市淡水區中正路二段206號","121.426216666667","25.1890833333333","6501000","淡水區"
"251007","442-VK","2019/10/25 21:59:49","新北市淡水區北新路184巷19號","121.45034","25.1780533333333","6501000","淡水區"
"251005","443-VK","2019/10/25 21:59:39","新北市淡水區鄧公路30巷32-1號","121.454513333333","25.1696033333333","6501000","淡水區"
"251006","561-UM","2019/10/25 21:43:19","新北市淡水區中正路11巷3號","121.437886666667","25.1707583333333","6501000","淡水區"
"251011","650-BX","2019/10/25 21:59:50","新北市淡水區水碓街7號","121.443168333333","25.1771616666667","6501000","淡水區"
"251003","766-UM","2019/10/25 21:59:56","新北市淡水區新春街81號","121.43873","25.1824366666667","6501000","淡水區"
