"lineid","car","time","location","longitude","latitude","cityid","cityname"
"232018","290-BY","2019/07/11 07:29:18","新北市坪林區坪雙路二段19號","121.732218333333","24.9653983333333","6502000","坪林區"
"232007","291-BY","2019/07/11 07:29:22","新北市坪林區魚堀33-9號","121.697893333333","24.92564","6502000","坪林區"
"232010","375-UM","2019/07/11 07:29:17","新北市坪林區苦苓腳2號","121.714201666667","24.9363233333333","6502000","坪林區"
"232014","705-BZ","2019/07/11 07:29:17","新北市坪林區金瓜寮24號","121.678121666667","24.90984","6502000","坪林區"
"232001","758-BX","2019/07/11 07:29:05","新北市坪林區上坑子口4號","121.696548333333","24.9590233333333","6502000","坪林區"
"244003","248-BX","2019/07/11 07:29:10","新北市林口區頂福里71-69號","121.354331666667","25.0815033333333","6501700","林口區"
"222006","289-BY","2019/07/11 07:06:27","","121.614648333333","25.00103","6501800","深坑區"
"226007","7418-A5","2019/07/11 07:20:46","新北市平溪區望古里灰4-2號","121.763573333333","25.0287966666667","6502400","平溪區"
"226003","AGD-0702","2019/07/11 07:28:46","新北市平溪區嶺腳里嶺腳寮89號","121.746206666667","25.0364983333333","6502400","平溪區"
"223003","205-TH","2019/07/11 07:29:16","新北市石碇區中楒子腳2-5號","121.637521666667","24.97252","6501900","石碇區"
"223008","406-TH","2019/07/11 07:25:53","新北市石碇區靜安路一段337號","121.698783333333","25.014625","6501900","石碇區"
"223001","592-UM","2019/07/11 07:29:16","新北市石碇區中楒子腳2-10號","121.638558333333","24.9717433333333","6501900","石碇區"
"223004","660-BX","2019/07/11 07:29:09","新北市石碇區新興坑22-1號","121.649431666667","25.02258","6501900","石碇區"
"223007","661-BX","2019/07/11 07:29:22","新北市石碇區大溪墘9-1號","121.697983333333","25.00833","6501900","石碇區"
"227005","282-VK","2019/07/11 07:29:20","新北市雙溪區新基里自強路7號","121.866275","25.0390666666667","6502500","雙溪區"
"252004","249-BX","2019/07/11 07:29:13","新北市三芝區興華里楓子林55-1號","121.500586666667","25.21402","6502100","三芝區"
"252007","AAC-283","2019/07/11 07:29:23","新北市三芝區古庄里古庄110-1號","121.496265","25.261795","6502100","三芝區"
"237014","760-BX","2019/07/11 07:29:06","新北市三峽區五寮52-1號","121.368363333333","24.864995","6500900","三峽區"
"226005","ANY-2373","2019/07/11 07:29:07","新北市平溪區靜安路二段200號","121.723623333333","25.022","6502400","平溪區"
"242038","AAC-296","2019/07/11 07:29:20","新北市新莊區新泰路357巷3弄57號","121.442253333333","25.0396216666667","6500500","新莊區"
"242001","751-BX","2019/07/11 07:29:18","新北市新莊區新泰路255巷83號","121.44222","25.0388333333333","6500500","新莊區"
"242028","615-BX","2019/07/11 07:29:08","新北市新莊區新泰路357巷3弄57號","121.44191","25.0391583333333","6500500","新莊區"
"242057","612-BX","2019/07/11 07:29:10","新北市新莊區新泰路255巷83號","121.442148333333","25.0390766666667","6500500","新莊區"
"242049","497-BY","2019/07/11 07:29:16","新北市新莊區新泰路357巷3弄57號","121.442141666667","25.039595","6500500","新莊區"
"242024","362-BY","2019/07/11 07:29:21","新北市新莊區新泰路255巷83號","121.441933333333","25.0389366666667","6500500","新莊區"
"242020","175-VK","2019/07/11 07:29:19","新北市新莊區三和路12-21號","121.441918333333","25.0386066666667","6500500","新莊區"
"242018","KED-0687","2019/07/11 07:29:10","新北市新莊區三和路12-21號","121.442343333333","25.038065","6500500","新莊區"
"242033","348-TH","2019/07/11 07:29:23","新北市新莊區三和路12-21號","121.44205","25.038805","6500500","新莊區"
"242030","350-TH","2019/07/11 07:29:08","新北市新莊區新泰路255巷83號","121.442063333333","25.0389266666667","6500500","新莊區"
"242016","351-TH","2019/07/11 07:29:08","新北市新莊區新泰路357巷3弄57號","121.44199","25.03941","6500500","新莊區"
"242008","280-VK","2019/07/11 07:29:06","新北市新莊區三和路12-21號","121.442086666667","25.03833","6500500","新莊區"
