"lineid","car","time","location","longitude","latitude","cityid","cityname"
"232001","758-BX","2019/08/08 08:19:25","新北市坪林區大粗坑6-1號","121.732253333333","24.9482633333333","6502000","坪林區"
"244006","080-UY","2019/08/08 08:19:34","新北市林口區湖子18-3號","121.385466666667","25.0920116666667","6501700","林口區"
"244003","248-BX","2019/08/08 08:19:36","新北市林口區頂福里10鄰13-1號","121.329735","25.10382","6501700","林口區"
"244012","KEA-2802","2019/08/08 08:19:45","新北市林口區中山路255號","121.385305","25.0793633333333","6501700","林口區"
"244022","483-VK","2019/08/08 08:19:30","新北市林口區仁愛路一段637巷9號","121.388933333333","25.0757983333333","6501700","林口區"
"244016","485-VK","2019/08/08 08:19:26","新北市林口區文化一路二段200號","121.383031666667","25.08082","6501700","林口區"
"244008","656-BX","2019/08/08 08:19:30","新北市林口區寶林路93號","121.384183333333","25.0847033333333","6501700","林口區"
"244010","657-BX","2019/08/08 08:19:35","新北市林口區竹林路35號","121.386523333333","25.077685","6501700","林口區"
"244001","658-BX","2019/08/08 08:19:41","新北市林口區麗園一街1號","121.375793333333","25.0731433333333","6501700","林口區"
"244024","837-TS","2019/08/08 08:19:38","新北市林口區忠孝路308巷20號","121.366861666667","25.07234","6501700","林口區"
"244020","838-TS","2019/08/08 08:19:29","新北市林口區粉寮路67-16號","121.404153333333","25.0908733333333","6501700","林口區"
"222006","289-BY","2019/08/08 08:19:26","新北市深坑區萬福路69-1號","121.601361666667","25.0093466666667","6501800","深坑區"
"231069","189-VK","2019/08/08 08:19:42","新北市新店區新潭路一段42號","121.523748333333","24.9411833333333","6500600","新店區"
"231008","192-VK","2019/08/08 08:19:33","新北市新店區新烏路二段212-1號","121.547461666667","24.9152416666667","6500600","新店區"
"226007","8452-VL","2019/08/08 08:19:37","新北市平溪區靜安路二段561號","121.750743333333","25.024025","6502400","平溪區"
"226003","AGD-0702","2019/08/08 08:19:36","新北市平溪區十分里十分街259號","121.778245","25.0449266666667","6502400","平溪區"
"223003","205-TH","2019/08/08 08:14:42","新北市石碇區北宜路六段塗潭巷18號","121.649561666667","24.93243","6501900","石碇區"
"223008","406-TH","2019/08/08 08:19:37","新北市石碇區靜安路一段186號","121.671358333333","25.0055416666667","6501900","石碇區"
"223001","592-UM","2019/08/08 08:19:45","新北市石碇區北宜路六段塗潭巷21號","121.650933333333","24.93386","6501900","石碇區"
"223004","660-BX","2019/08/08 08:19:34","新北市石碇區石崁1號","121.651751666667","25.0001783333333","6501900","石碇區"
"223007","661-BX","2019/08/08 08:19:36","新北市石碇區靜安路一段139號","121.671208333333","25.0055033333333","6501900","石碇區"
"223005","677-TV","2019/08/08 08:19:33","新北市石碇區外按18-2號","121.651481666667","25.0000883333333","6501900","石碇區"
"224010","AGQ-8101","2019/08/08 08:19:23","新北市瑞芳區明燈路二段46號","121.809456666667","25.108215","6501200","瑞芳區"
"252007","178-VK","2019/08/08 08:19:28","新北市三芝區後厝里番社后38號","121.472586666667","25.2419633333333","6502100","三芝區"
"252004","249-BX","2019/08/08 08:19:34","新北市三芝區興華里車埕59號","121.498685","25.1969483333333","6502100","三芝區"
"237014","760-BX","2019/08/08 08:19:32","新北市三峽區有木254-5號","121.42786","24.8575933333333","6500900","三峽區"
"226005","ANY-2373","2019/08/08 08:19:33","新北市平溪區南山里南山坪125號","121.785731666667","25.0451883333333","6502400","平溪區"
"242038","AAC-296","2019/08/08 08:19:29","新北市新莊區民安路135號","121.425078333333","25.024205","6500500","新莊區"
"242059","986-R7","2019/08/08 08:19:46","新北市新莊區新樹路525-5號","121.43279","25.0097216666667","6500500","新莊區"
"242001","751-BX","2019/08/08 08:19:36","新北市新莊區大觀街39巷19號","121.453011666667","25.0353183333333","6500500","新莊區"
"242028","615-BX","2019/08/08 08:19:32","新北市新莊區中平路87巷1號","121.444696666667","25.045635","6500500","新莊區"
"242026","613-BX","2019/08/08 08:19:33","新北市新莊區福壽街173號","121.457963333333","25.0538483333333","6500500","新莊區"
"242057","612-BX","2019/08/08 08:19:34","新北市新莊區雙鳳路134巷24號","121.412595","25.0282333333333","6500500","新莊區"
"242045","566-BX","2019/08/08 08:19:38","新北市新莊區建國一路59號","121.434596666667","25.0299766666667","6500500","新莊區"
"242049","497-BY","2019/08/08 08:19:36","新北市新莊區龍安路498號","121.426543333333","25.0171583333333","6500500","新莊區"
"242055","441-UM","2019/08/08 08:19:40","新北市新莊區瓊林路38巷39號","121.446513333333","25.0303766666667","6500500","新莊區"
"242003","440-UM","2019/08/08 08:19:38","新北市新莊區自立街238號","121.458285","25.0454983333333","6500500","新莊區"
"242040","415-TV","2019/08/08 08:19:42","新北市新莊區中正路612-1號","121.426185","25.0302416666667","6500500","新莊區"
"242010","413-TV","2019/08/08 08:19:35","新北市新莊區中港路618-6號","121.45108","25.054675","6500500","新莊區"
"242047","400-BY","2019/08/08 08:19:36","新北市新莊區萬安街146巷16號","121.419896666667","25.02175","6500500","新莊區"
"242024","362-BY","2019/08/08 08:19:38","新北市新莊區新北大道二段312號","121.463856666667","25.06101","6500500","新莊區"
"242022","353-BY","2019/08/08 08:19:40","新北市新莊區福樂街35號","121.457681666667","25.0468933333333","6500500","新莊區"
"242012","132-UY","2019/08/08 08:19:38","新北市新莊區中泰街104巷5弄11號","121.448303333333","25.04676","6500500","新莊區"
"242035","135-UY","2019/08/08 08:19:41","新北市新莊區建福路38號","121.426505","25.0282566666667","6500500","新莊區"
"242052","172-VK","2019/08/08 08:19:33","新北市新莊區新樹路709號","121.432046666667","25.0020766666667","6500500","新莊區"
"242014","173-VK","2019/08/08 08:19:35","新北市新莊區中平路119巷10號","121.444253333333","25.0466966666667","6500500","新莊區"
"242020","175-VK","2019/08/08 08:19:39","新北市新莊區永寧街32巷2號","121.452883333333","25.0392583333333","6500500","新莊區"
"242018","KED-0687","2019/08/08 08:19:30","新北市新莊區民樂街46號","121.45802","25.0413566666667","6500500","新莊區"
"242008","346-TH","2019/08/08 08:19:47","新北市新莊區昌平街30號","121.454875","25.052995","6500500","新莊區"
"242033","348-TH","2019/08/08 08:19:43","新北市新莊區瓊泰路176號","121.44325","25.0331433333333","6500500","新莊區"
"242006","349-TH","2019/08/08 08:19:39","新北市新莊區福樂街71巷1號","121.45706","25.0477616666667","6500500","新莊區"
"242030","350-TH","2019/08/08 08:19:26","新北市新莊區新泰路340號","121.444723333333","25.0422833333333","6500500","新莊區"
"242016","351-TH","2019/08/08 08:19:40","新北市新莊區中港路337號","121.452241666667","25.045315","6500500","新莊區"
"244018","KED-0667","2019/08/08 08:19:35","新北市林口區文化一路一段190巷7弄2-1號","121.380308333333","25.0748833333333","6501700","林口區"
"233003","KEA-2870","2019/08/08 08:19:28","新北市烏來區啦卡路62號","121.55899","24.8583266666667","6502900","烏來區"
"242043","281-VK","2019/08/08 08:19:35","新北市新莊區雙鳳路20號","121.416811666667","25.026935","6500500","新莊區"
