"lineid","car","time","location","longitude","latitude","cityid","cityname"
"244006","080-UY","2019/08/08 08:49:34","新北市林口區林口路222號","121.386963333333","25.0836366666667","6501700","林口區"
"244003","248-BX","2019/08/08 08:49:36","新北市林口區下福139-99號","121.299348333333","25.1226533333333","6501700","林口區"
"244012","KEA-2802","2019/08/08 08:49:45","新北市林口區中山路297巷86號","121.383146666667","25.079595","6501700","林口區"
"244022","483-VK","2019/08/08 08:49:30","新北市林口區興林路362巷11號","121.387951666667","25.06943","6501700","林口區"
"244016","485-VK","2019/08/08 08:49:46","新北市林口區文化二路一段226-1號","121.369458333333","25.0725333333333","6501700","林口區"
"244008","656-BX","2019/08/08 08:49:30","新北市林口區竹林路606巷23號","121.385015","25.082965","6501700","林口區"
"244010","657-BX","2019/08/08 08:49:35","新北市林口區仁愛路一段272巷24號","121.393016666667","25.07641","6501700","林口區"
"244001","658-BX","2019/08/08 08:49:41","新北市林口區文化二路一段413號","121.372488333333","25.0748983333333","6501700","林口區"
"244024","837-TS","2019/08/08 08:49:38","新北市林口區南勢四街98號","121.355673333333","25.07129","6501700","林口區"
"244020","838-TS","2019/08/08 08:49:29","新北市林口區自強二街47號","121.398926666667","25.0772983333333","6501700","林口區"
"222006","289-BY","2019/08/08 08:49:46","新北市深坑區風格街31巷9號","121.627633333333","25.01731","6501800","深坑區"
"231069","189-VK","2019/08/08 08:49:40","新北市新店區新潭路三段236號","121.501576666667","24.9028283333333","6500600","新店區"
"231008","192-VK","2019/08/08 08:49:33","新北市新店區廣興路24號","121.545916666667","24.9129216666667","6500600","新店區"
"226007","8452-VL","2019/08/08 08:49:37","新北市平溪區東勢里芊蓁坑29號","121.729981666667","24.9787283333333","6502400","平溪區"
"226003","AGD-0702","2019/08/08 08:49:36","新北市平溪區南山里南山坪94號","121.77699","25.0411916666667","6502400","平溪區"
"223003","205-TH","2019/08/08 08:45:02","新北市石碇區北宜路六段柑腳巷2號","121.659565","24.9380166666667","6501900","石碇區"
"223008","406-TH","2019/08/08 08:49:37","新北市石碇區碇南路二段松柏崎巷53號","121.678858333333","25.0259266666667","6501900","石碇區"
"223001","592-UM","2019/08/08 08:49:45","新北市石碇區北宜路六段柑腳巷2號","121.659588333333","24.93806","6501900","石碇區"
"223004","660-BX","2019/08/08 08:49:34","新北市石碇區崩山47號","121.678575","24.9704433333333","6501900","石碇區"
"223007","661-BX","2019/08/08 08:49:36","新北市石碇區碇南路二段1-1號","121.67052","25.0237116666667","6501900","石碇區"
"223005","677-TV","2019/08/08 08:49:33","新北市石碇區崩山24-2號","121.679548333333","24.9676833333333","6501900","石碇區"
"252007","178-VK","2019/08/08 08:49:45","新北市三芝區錫板里海尾15-12號","121.47714","25.254395","6502100","三芝區"
"252004","249-BX","2019/08/08 08:49:14","新北市三芝區興華里田心子18-3號","121.494456666667","25.2025683333333","6502100","三芝區"
"237014","760-BX","2019/08/08 08:49:32","新北市三峽區金敏16號","121.389448333333","24.8754083333333","6500900","三峽區"
"226005","ANY-2373","2019/08/08 08:49:33","新北市平溪區靜安路三段331號","121.779385","25.044575","6502400","平溪區"
"242038","AAC-296","2019/08/08 08:49:28","新北市新莊區民安路299巷33號","121.4293","25.023215","6500500","新莊區"
"242059","986-R7","2019/08/08 08:49:27","新北市新莊區後港一路73號","121.427001666667","25.0266066666667","6500500","新莊區"
"242001","751-BX","2019/08/08 08:49:36","新北市新莊區新泰路71號","121.449356666667","25.03433","6500500","新莊區"
"242028","615-BX","2019/08/08 08:49:32","新北市新莊區中原路355號","121.444815","25.0543133333333","6500500","新莊區"
"242026","613-BX","2019/08/08 08:49:33","新北市新莊區中平路377巷28號","121.44292","25.05261","6500500","新莊區"
"242057","612-BX","2019/08/08 08:49:37","新北市新莊區中正路895-50號","121.411978333333","25.0218283333333","6500500","新莊區"
"242045","566-BX","2019/08/08 08:49:38","新北市新莊區中正路829巷111號","121.422341666667","25.0276766666667","6500500","新莊區"
"242049","497-BY","2019/08/08 08:49:37","新北市新莊區民安西路196巷25號","121.424976666667","25.0154566666667","6500500","新莊區"
"242055","441-UM","2019/08/08 08:49:40","新北市新莊區瓊林路13-3號","121.448875","25.0309333333333","6500500","新莊區"
"242003","440-UM","2019/08/08 08:49:39","新北市新莊區化成路11巷16號","121.464388333333","25.04346","6500500","新莊區"
"242040","415-TV","2019/08/08 08:49:42","新北市新莊區天祥街81巷28號","121.415093333333","25.02852","6500500","新莊區"
"242010","413-TV","2019/08/08 08:49:35","新北市新莊區中港路531巷90號","121.450026666667","25.05182","6500500","新莊區"
"242047","400-BY","2019/08/08 08:49:36","新北市新莊區建安街76巷1弄18號","121.425846666667","25.024355","6500500","新莊區"
"242024","362-BY","2019/08/08 08:49:44","新北市新莊區五工三路94巷6號","121.458541666667","25.065785","6500500","新莊區"
"242022","353-BY","2019/08/08 08:49:40","新北市新莊區化成路480號","121.466058333333","25.051615","6500500","新莊區"
"242012","132-UY","2019/08/08 08:49:38","新北市新莊區中港路394號","121.45229","25.0495366666667","6500500","新莊區"
"242035","135-UY","2019/08/08 08:49:40","新北市新莊區建安街71巷17號","121.428131666667","25.0245616666667","6500500","新莊區"
"242052","172-VK","2019/08/08 08:49:33","新北市新莊區民安西路327巷3號","121.427893333333","25.0113483333333","6500500","新莊區"
"242014","173-VK","2019/08/08 08:49:35","新北市新莊區復興路一段7號","121.445691666667","25.04154","6500500","新莊區"
"242020","175-VK","2019/08/08 08:49:31","新北市新莊區建中街18號","121.449388333333","25.037585","6500500","新莊區"
"242018","KED-0687","2019/08/08 08:49:30","新北市新莊區民樂街95號","121.457883333333","25.04367","6500500","新莊區"
"242008","346-TH","2019/08/08 08:49:45","新北市新莊區昌盛街65巷2弄1號","121.454908333333","25.0502316666667","6500500","新莊區"
"242033","348-TH","2019/08/08 08:49:44","新北市新莊區新泰路199巷19號","121.4456","25.03773","6500500","新莊區"
"242006","349-TH","2019/08/08 08:49:39","新北市新莊區福壽街202巷24號","121.459276666667","25.0536333333333","6500500","新莊區"
"242030","350-TH","2019/08/08 08:49:46","新北市新莊區新泰路225巷6號","121.445813333333","25.0392216666667","6500500","新莊區"
"242016","351-TH","2019/08/08 08:49:40","新北市新莊區中港一街121號","121.448505","25.0451616666667","6500500","新莊區"
"244018","KED-0667","2019/08/08 08:49:35","新北市林口區文化一路一段83巷14弄41號","121.371703333333","25.0709616666667","6501700","林口區"
"233003","KEA-2870","2019/08/08 08:49:28","新北市烏來區信福路181-1號","121.515731666667","24.81818","6502900","烏來區"
"242043","281-VK","2019/08/08 08:49:35","新北市新莊區中山路三段619號","121.413313333333","25.0251583333333","6500500","新莊區"
