"lineid","car","time","location","longitude","latitude","cityid","cityname"
"244006","080-UY","2019/08/08 09:19:34","新北市林口區後湖11鄰19號","121.387815","25.09868","6501700","林口區"
"244012","KEA-2802","2019/08/08 09:19:45","新北市林口區麗園一街11巷11號","121.378685","25.0705816666667","6501700","林口區"
"244022","483-VK","2019/08/08 09:19:30","新北市林口區東湖路93巷93號","121.385615","25.0705433333333","6501700","林口區"
"244016","485-VK","2019/08/08 09:19:46","新北市林口區文化二路一段86號","121.366335","25.0695933333333","6501700","林口區"
"244008","656-BX","2019/08/08 09:19:30","新北市林口區寶林路40號","121.385463333333","25.0842666666667","6501700","林口區"
"244010","657-BX","2019/08/08 09:19:35","新北市林口區仁愛路一段619號","121.389776666667","25.0766366666667","6501700","林口區"
"244001","658-BX","2019/08/08 09:19:41","新北市林口區八德路60號","121.366065","25.0657683333333","6501700","林口區"
"244024","837-TS","2019/08/08 09:19:37","新北市林口區文化三路一段447巷29號","121.367745","25.0750933333333","6501700","林口區"
"222006","289-BY","2019/08/08 09:19:46","新北市深坑區北深路一段278巷16號","121.62906","25.0105733333333","6501800","深坑區"
"231008","192-VK","2019/08/08 09:19:33","新北市新店區平廣路一段93號","121.529783333333","24.8981833333333","6500600","新店區"
"226003","AGD-0702","2019/08/08 09:19:36","新北市平溪區平溪里三坑路1-2號","121.741493333333","25.0287566666667","6502400","平溪區"
"223003","205-TH","2019/08/08 09:19:42","新北市石碇區北宜路五段坑內巷4號","121.635241666667","24.9527583333333","6501900","石碇區"
"223008","406-TH","2019/08/08 09:19:16","新北市石碇區光明路17-2號","121.685945","25.0320916666667","6501900","石碇區"
"223001","592-UM","2019/08/08 09:19:25","新北市石碇區北宜路五段70-1號","121.638975","24.95263","6501900","石碇區"
"223004","660-BX","2019/08/08 09:19:34","新北市石碇區磨石坑24-3號","121.690621666667","24.9705066666667","6501900","石碇區"
"223007","661-BX","2019/08/08 09:17:56","新北市石碇區光明路17-1號","121.68559","25.0318816666667","6501900","石碇區"
"223005","677-TV","2019/08/08 09:19:24","新北市石碇區磨石坑24號","121.689775","24.974235","6501900","石碇區"
"252007","178-VK","2019/08/08 09:19:28","新北市三芝區淡金路二段76-2號","121.504233333333","25.2614033333333","6502100","三芝區"
"252004","249-BX","2019/08/08 09:19:34","新北市三芝區店子里店子59號","121.502688333333","25.2056266666667","6502100","三芝區"
"237014","760-BX","2019/08/08 09:19:32","新北市三峽區大埔路325號","121.370326666667","24.898555","6500900","三峽區"
"242038","AAC-296","2019/08/08 09:19:29","新北市新莊區成功街41號","121.425273333333","25.0209533333333","6500500","新莊區"
"242059","986-R7","2019/08/08 09:19:27","新北市新莊區瓊泰路3號","121.444906666667","25.0286216666667","6500500","新莊區"
"242001","751-BX","2019/08/08 09:19:36","新北市新莊區中正路56巷1-3號","121.461281666667","25.0410366666667","6500500","新莊區"
"242028","615-BX","2019/08/08 09:19:31","新北市新莊區中華路一段18號","121.451985","25.0372583333333","6500500","新莊區"
"242026","613-BX","2019/08/08 09:19:33","新北市新莊區幸福路1號","121.459501666667","25.04944","6500500","新莊區"
"242057","612-BX","2019/08/08 09:19:34","新北市新莊區龍安路266巷30號","121.421556666667","25.0185533333333","6500500","新莊區"
"242045","566-BX","2019/08/08 09:19:38","新北市新莊區裕民街126號","121.418055","25.022465","6500500","新莊區"
"242049","497-BY","2019/08/08 09:19:36","新北市新莊區新樹路323號","121.433203333333","25.0190283333333","6500500","新莊區"
"242055","441-UM","2019/08/08 09:19:45","新北市新莊區豐年街28巷1弄12號","121.445906666667","25.03183","6500500","新莊區"
"242003","440-UM","2019/08/08 09:19:40","新北市新莊區頭興街1-3號","121.46429","25.0534866666667","6500500","新莊區"
"242040","415-TV","2019/08/08 09:19:42","新北市新莊區天祥街52號","121.416595","25.0291616666667","6500500","新莊區"
"242010","413-TV","2019/08/08 09:19:35","新北市新莊區中榮街104巷11弄1號","121.447181666667","25.0532583333333","6500500","新莊區"
"242047","400-BY","2019/08/08 09:19:36","新北市新莊區龍安路252-5號","121.421133333333","25.0191783333333","6500500","新莊區"
"242024","362-BY","2019/08/08 09:19:38","新北市新莊區五工一路80巷12號","121.46129","25.066925","6500500","新莊區"
"242022","353-BY","2019/08/08 09:19:41","新北市新莊區化成路303號","121.46604","25.0551666666667","6500500","新莊區"
"242012","132-UY","2019/08/08 09:19:37","新北市新莊區中和街173號","121.447605","25.0503783333333","6500500","新莊區"
"242035","135-UY","2019/08/08 09:19:43","新北市新莊區後港一路50號","121.426141666667","25.0263283333333","6500500","新莊區"
"242052","172-VK","2019/08/08 09:19:44","新北市新莊區民安西路229巷8弄9號","121.426721666667","25.01368","6500500","新莊區"
"242020","175-VK","2019/08/08 09:19:31","新北市新莊區公園路78號","121.450071666667","25.0395916666667","6500500","新莊區"
"242033","348-TH","2019/08/08 09:19:44","新北市新莊區新泰路199號","121.447188333333","25.038025","6500500","新莊區"
"242006","349-TH","2019/08/08 09:19:39","新北市新莊區思源路49號","121.459983333333","25.04008","6500500","新莊區"
"242030","350-TH","2019/08/08 09:19:34","新北市新莊區忠孝街29巷9號","121.443563333333","25.035745","6500500","新莊區"
"242016","351-TH","2019/08/08 09:19:40","新北市新莊區新泰路357巷3弄57號","121.44201","25.0395016666667","6500500","新莊區"
"244018","KED-0667","2019/08/08 09:19:35","新北市林口區忠孝路561巷2號","121.37312","25.0686733333333","6501700","林口區"
"233003","KEA-2870","2019/08/08 09:19:28","新北市烏來區李茂岸27號","121.503021666667","24.7782183333333","6502900","烏來區"
"242043","281-VK","2019/08/08 09:19:35","新北市新莊區中正路925號","121.410561666667","25.0211633333333","6500500","新莊區"
