"lineid","car","time","location","longitude","latitude","cityid","cityname"
"244022","402-UM","2019/08/08 10:49:33","新北市林口區文林六街62巷11號","121.371711666667","25.0817866666667","6501700","林口區"
"244001","658-BX","2019/08/08 10:49:41","新北市林口區嘉寶里17鄰29號","121.349993333333","25.1037166666667","6501700","林口區"
"222006","289-BY","2019/08/08 10:49:45","新北市深坑區公館後2-3號","121.603131666667","24.99257","6501800","深坑區"
"231069","189-VK","2019/08/08 10:49:38","新北市新店區新潭路三段81巷10號","121.50605","24.9101966666667","6500600","新店區"
"231008","192-VK","2019/08/08 10:34:12","新北市新店區成功路58-1號","121.538966666667","24.9002833333333","6500600","新店區"
