"lineid","car","time","location","longitude","latitude","cityid","cityname"
"244022","402-UM","2019/08/08 11:09:33","新北市林口區仁愛路二段700號","121.36918","25.0808733333333","6501700","林口區"
"244001","658-BX","2019/08/08 11:09:41","新北市林口區中山路677-3號","121.377751666667","25.083505","6501700","林口區"
"231069","189-VK","2019/08/08 11:09:38","新北市新店區新潭路二段24號","121.526808333333","24.926235","6500600","新店區"
"231008","192-VK","2019/08/08 11:09:33","新北市新店區頂石厝路8號","121.540271666667","24.919585","6500600","新店區"
"244019","KED-0667","2019/08/08 11:09:35","新北市林口區粉寮69號","121.405086666667","25.0907766666667","6501700","林口區"
