"lineid","car","time","location","longitude","latitude","cityid","cityname"
"234078","298-R6","2019/08/08 14:39:37","新北市永和區永貞路74號","121.520385","25.0051033333333","6500400","永和區"
"234062","337-UY","2019/08/08 14:39:51","新北市永和區光復街33巷7號","121.515668333333","25.0181633333333","6500400","永和區"
"234084","338-UY","2019/08/08 14:39:46","新北市永和區光復街21號","121.516525","25.0174133333333","6500400","永和區"
"234052","KEA-2590","2019/08/08 14:39:54","新北市永和區環河東路一段82號","121.519698333333","25.0164316666667","6500400","永和區"
"234060","AAD-866","2019/08/08 14:39:50","新北市永和區秀朗路一段175號","121.516988333333","25.0037233333333","6500400","永和區"
"234040","862-TW","2019/08/08 14:39:39","新北市永和區光復街42號","121.516691666667","25.017795","6500400","永和區"
"234026","9372-KE","2019/08/08 14:27:45","新北市永和區保順路8號","121.503881666667","25.0110466666667","6500400","永和區"
"234025","9371-KE","2019/08/08 14:39:48","新北市永和區中和路499號","121.510555","25.0024116666667","6500400","永和區"
"248013","025-BX","2019/08/08 14:39:33","新北市五股區五福路42巷27號","121.434945","25.09007","6501500","五股區"
"248015","026-BX","2019/08/08 14:39:46","新北市五股區成泰路三段577巷80弄7號","121.44948","25.1042683333333","6501500","五股區"
"248007","KED-0815","2019/08/08 14:39:48","新北市五股區中興路一段169號","121.464706666667","25.0737466666667","6501500","五股區"
"248017","KED-0813","2019/08/08 14:30:20","新北市五股區外寮路13-1號","121.424888333333","25.0812216666667","6501500","五股區"
"248011","247-BX","2019/08/08 14:39:42","新北市五股區民義路一段112-10號","121.435363333333","25.085235","6501500","五股區"
"248009","272-BY","2019/08/08 14:39:34","新北市五股區登林路90號","121.428916666667","25.0694083333333","6501500","五股區"
"248003","677-BX","2019/08/08 14:39:44","新北市五股區成泰路一段239-9號","121.436778333333","25.08064","6501500","五股區"
"248001","678-BX","2019/08/08 14:39:35","新北市五股區成泰路三段369-1號","121.448898333333","25.0960416666667","6501500","五股區"
"234072","AAC-211","2019/08/08 14:39:31","新北市永和區環河東路一段200號","121.521903333333","25.0137633333333","6500400","永和區"
"234001","AAC-295","2019/08/08 14:39:41","新北市永和區中正路618號","121.51693","25.0076566666667","6500400","永和區"
"244003","248-BX","2019/08/08 14:39:51","新北市林口區瑞平里33-1號","121.348473333333","25.1287233333333","6501700","林口區"
"243004","AAD-798","2019/08/08 14:39:39","新北市泰山區仁愛路100巷31號","121.433645","25.0549066666667","6501600","泰山區"
"243002","297-R6","2019/08/08 14:39:44","新北市泰山區明志路二段136巷19號","121.42607","25.051845","6501600","泰山區"
"243006","KEA-2801","2019/08/08 14:39:34","新北市泰山區泰林路二段33-1號","121.435836666667","25.0568766666667","6501600","泰山區"
"243008","421-VK","2019/08/08 14:39:46","新北市泰山區貴陽街30號","121.42291","25.0324033333333","6501600","泰山區"
"243001","KEA-2215","2019/08/08 14:39:38","新北市泰山區泰林路二段164巷37號","121.434165","25.0613266666667","6501600","泰山區"
"243003","KEA-2216","2019/08/08 14:39:42","新北市泰山區明志路三段204巷10弄20號","121.422946666667","25.0387583333333","6501600","泰山區"
"231030","002-UM","2019/08/08 14:39:49","新北市新店區安民街67-3號","121.516103333333","24.9667366666667","6500600","新店區"
"231024","0291-UT","2019/08/08 14:39:46","新北市新店區中華路83巷67號","121.538333333333","24.96743","6500600","新店區"
"231027","0293-UT","2019/08/08 14:39:35","新北市新店區寶橋路80號","121.54612","24.9755583333333","6500600","新店區"
"231005","046-UY","2019/08/08 14:39:36","新北市新店區北新路三段107號","121.541156666667","24.9822183333333","6500600","新店區"
"231029","106-UY","2019/08/08 14:39:38","新北市新店區安康路三段182號","121.48921","24.9518366666667","6500600","新店區"
"231018","107-UY","2019/08/08 14:39:52","新北市新店區中央路137號","121.53026","24.9736916666667","6500600","新店區"
"231013","108-UY","2019/08/08 14:39:41","新北市新店區民族路11號","121.541593333333","24.9788333333333","6500600","新店區"
"231036","110-UY","2019/08/08 14:39:39","新北市新店區安祥路106巷288號","121.472498333333","24.9583133333333","6500600","新店區"
"231017","KEA-2219","2019/08/08 14:39:53","新北市新店區北宜路三段221號","121.59234","24.953205","6500600","新店區"
"231031","256-BX","2019/08/08 14:39:36","新北市新店區安業街215巷1-1號","121.522791666667","24.972625","6500600","新店區"
"231023","260-TV","2019/08/08 14:39:47","新北市新店區檳榔路41巷2號","121.542836666667","24.9632116666667","6500600","新店區"
"231003","268-BY","2019/08/08 14:39:43","新北市新店區中興路二段100巷2號","121.547363333333","24.97133","6500600","新店區"
"231035","278-BY","2019/08/08 14:39:37","新北市新店區安康路二段118-5號","121.512378333333","24.9631916666667","6500600","新店區"
"231006","355-BY","2019/08/08 14:39:38","新北市新店區北宜路二段289號","121.555426666667","24.9536566666667","6500600","新店區"
"231038","3712-VJ","2019/08/08 14:39:38","新北市新店區安華路28-1號","121.519871666667","24.9608733333333","6500600","新店區"
"231021","513-UM","2019/08/08 14:39:47","新北市新店區桂山路61巷2號","121.565891666667","24.90096","6500600","新店區"
"231002","619-UM","2019/08/08 14:39:39","新北市新店區中正路468號","121.533938333333","24.9796566666667","6500600","新店區"
"231034","641-BX","2019/08/08 14:39:41","新北市新店區黎明路53巷1號","121.502361666667","24.9486883333333","6500600","新店區"
"231011","KED-0819","2019/08/08 14:39:24","新北市新店區寶宏路38號","121.549423333333","24.97558","6500600","新店區"
"231028","897-TW","2019/08/08 14:39:34","新北市新店區安成街2巷1號","121.510905","24.9602216666667","6500600","新店區"
"231001","898-TW","2019/08/08 14:39:50","新北市新店區中正路53號","121.544623333333","24.9699683333333","6500600","新店區"
"231004","899-TW","2019/08/08 14:39:33","新北市新店區中正路269號","121.537825","24.9742483333333","6500600","新店區"
"231037","AKT-0513","2019/08/08 14:39:46","新北市新店區安康路二段320巷6號","121.504741666667","24.9592266666667","6500600","新店區"
"235030","003-UY","2019/08/08 14:39:33","新北市中和區景新街137號","121.506126666667","24.9971583333333","6500300","中和區"
"235027","006-UY","2019/08/08 14:39:47","新北市中和區連城路263巷9弄2號","121.492366666667","24.9954983333333","6500300","中和區"
"235020","096-UM","2019/08/08 14:39:36","新北市中和區員山路516號","121.479096666667","25.0094866666667","6500300","中和區"
"235003","097-UM","2019/08/08 14:39:53","新北市中和區安平路186號","121.512958333333","24.9989866666667","6500300","中和區"
"235029","098-UM","2019/08/08 14:39:50","新北市中和區福美路249號","121.498928333333","25.0051566666667","6500300","中和區"
"235004","150-BY","2019/08/08 14:39:43","新北市中和區宜安路23巷18號","121.512318333333","24.9951866666667","6500300","中和區"
"235022","151-BY","2019/08/08 14:39:42","新北市中和區員山路189號","121.481198333333","24.9973","6500300","中和區"
"235019","183-VK","2019/08/08 14:39:39","新北市中和區民生街85巷3弄2號","121.469141666667","25.0042266666667","6500300","中和區"
"235002","185-VK","2019/08/08 14:39:48","新北市中和區自立路20巷5號","121.522015","24.9933983333333","6500300","中和區"
"235013","186-VK","2019/08/08 14:39:38","新北市中和區中正路76號","121.500705","24.993795","6500300","中和區"
"235031","255-BX","2019/08/08 14:39:39","新北市中和區新生街231號","121.483903333333","24.999165","6500300","中和區"
"235008","293-VK","2019/08/08 14:39:36","新北市中和區捷運路59號","121.509086666667","24.9896066666667","6500300","中和區"
"235036","301-VK","2019/08/08 14:39:48","新北市中和區中和路74號","121.500786666667","25.00019","6500300","中和區"
"235007","352-BY","2019/08/08 14:39:42","新北市中和區南華路87號","121.505563333333","24.997375","6500300","中和區"
"235006","KEA-2878","2019/08/08 14:39:49","新北市中和區保健路2巷9號","121.507466666667","24.9978816666667","6500300","中和區"
"247013","KEA-2869","2019/08/08 14:39:33","新北市蘆洲區中正路1號","121.471591666667","25.0816166666667","6501400","蘆洲區"
"247007","KED-0682","2019/08/08 14:39:52","新北市蘆洲區和平路16號","121.472285","25.0795416666667","6501400","蘆洲區"
"235034","558-UM","2019/08/08 14:39:47","新北市中和區連勝街14號","121.498858333333","24.9984216666667","6500300","中和區"
"235009","565-BX","2019/08/08 14:39:37","新北市中和區安樂路1號","121.511663333333","24.991835","6500300","中和區"
"235024","KED-0823","2019/08/08 14:39:45","新北市中和區中山路二段523巷30號","121.481726666667","25.0038183333333","6500300","中和區"
"235018","640-BX","2019/08/08 14:39:36","新北市中和區莒光路258號","121.467893333333","24.993945","6500300","中和區"
"235011","732-UM","2019/08/08 14:39:52","新北市中和區南山路154號","121.504303333333","24.99203","6500300","中和區"
"235010","733-UM","2019/08/08 14:39:43","新北市中和區景新街496巷26弄1號","121.513418333333","24.9860616666667","6500300","中和區"
"235035","783-BX","2019/08/08 14:39:44","新北市中和區連城路270號","121.484771666667","24.9962633333333","6500300","中和區"
"235026","800-TS","2019/08/08 14:39:49","新北市中和區中山路二段389號","121.486776666667","25.0048583333333","6500300","中和區"
"235021","801-TS","2019/08/08 14:39:36","新北市中和區民樂路34號","121.482753333333","25.0012783333333","6500300","中和區"
"235016","805-TS","2019/08/08 14:39:49","新北市中和區華新街206巷20號","121.506258333333","24.9827533333333","6500300","中和區"
"235012","896-TW","2019/08/08 14:39:23","新北市中和區景新街487號","121.51375","24.98739","6500300","中和區"
"235017","900-TW","2019/08/08 14:39:51","新北市中和區民德路146巷10號","121.468035","25.000415","6500300","中和區"
"235015","157-BY","2019/08/08 14:39:47","新北市中和區中興街180巷33號","121.498316666667","24.9890983333333","6500300","中和區"
"235001","AAC-213","2019/08/08 14:39:39","新北市中和區自立路76號","121.523945","24.9912616666667","6500300","中和區"
"235023","AAC-215","2019/08/08 14:39:38","新北市中和區圓通路305巷1-1號","121.493461666667","24.9905716666667","6500300","中和區"
"220013","072-UY","2019/08/08 14:39:44","新北市板橋區實踐路93巷95號","121.467471666667","25.005945","6500100","板橋區"
"220034","073-UY","2019/08/08 14:39:53","新北市板橋區中正路250巷53號","121.457763333333","25.0197966666667","6500100","板橋區"
"220105","075-UY","2019/08/08 14:39:45","新北市板橋區文化路608巷50-1號","121.479493333333","25.0344933333333","6500100","板橋區"
"220017","AAD-861","2019/08/08 14:39:50","新北市板橋區華興街31巷20號","121.458205","25.0037933333333","6500100","板橋區"
"247003","893-R6","2019/08/08 14:39:54","新北市蘆洲區長安街285巷28號","121.456765","25.08396","6501400","蘆洲區"
"247023","337-TH","2019/08/08 14:39:41","新北市蘆洲區中山二路222巷11號","121.469463333333","25.080165","6501400","蘆洲區"
"247001","336-TH","2019/08/08 14:39:53","新北市蘆洲區永樂街38巷45弄6號","121.457885","25.0899183333333","6501400","蘆洲區"
"247021","057-VK","2019/08/08 14:39:38","新北市蘆洲區三民路242號","121.468055","25.0897766666667","6501400","蘆洲區"
"247011","056-VK","2019/08/08 14:39:44","新北市蘆洲區集賢路224巷64弄1號","121.48084","25.0882016666667","6501400","蘆洲區"
"247015","053-VK","2019/08/08 14:39:44","新北市蘆洲區正和街51號","121.469031666667","25.08137","6501400","蘆洲區"
"247019","007-UY","2019/08/08 14:39:43","新北市蘆洲區水湳街115號","121.469758333333","25.0910583333333","6501400","蘆洲區"
"247005","002-UY","2019/08/08 14:39:37","新北市蘆洲區長安街22巷31弄18號","121.464146666667","25.0804933333333","6501400","蘆洲區"
"235005","251-BX","2019/08/08 14:39:39","新北市中和區宜安路152號","121.509313333333","24.9986883333333","6500300","中和區"
"228005","097-TW","2019/08/08 14:39:39","新北市貢寮區美豐里雞母嶺街6-6號","121.902065","25.0642233333333","6502600","貢寮區"
"228004","212-TW","2019/08/08 14:39:32","新北市貢寮區福隆里龜壽谷街30-5號","121.946941666667","25.0140666666667","6502600","貢寮區"
"253003","6232-TK","2019/08/08 14:39:47","新北市石門區尖子鹿89號","121.579055","25.2900533333333","6502200","石門區"
"253004","6251-TK","2019/08/08 14:39:39","新北市石門區內阿里磅22號","121.593736666667","25.2466066666667","6502200","石門區"
"253002","637-UY","2019/08/08 14:36:58","新北市三芝區橫山里橫山39-5號","121.545818333333","25.2529983333333","6502200","石門區"
"253001","KEC-0718","2019/08/08 14:39:36","新北市石門區楓林64-1號","121.542076666667","25.2701533333333","6502200","石門區"
"207002","749-BX","2019/08/08 14:39:39","新北市萬里區溪底里溪底路6-2號","121.61698","25.151425","6502800","萬里區"
"252005","073-UM","2019/08/08 14:39:49","新北市三芝區埔坪里埔頭坑91-3號","121.508205","25.2527033333333","6502100","三芝區"
"207001","662-BX","2019/08/08 14:39:47","新北市萬里區磺潭里員潭路54號","121.643443333333","25.1905583333333","6502800","萬里區"
"236040","KED-0685","2019/08/08 14:39:53","新北市土城區裕民路55巷16號","121.449528333333","24.9886916666667","6501300","土城區"
"236074","166-UM","2019/08/08 14:39:43","新北市土城區中央路四段54巷11號","121.419445","24.9606916666667","6501300","土城區"
"236029","253-BX","2019/08/08 14:39:48","新北市土城區福仁街72號","121.439168333333","24.9742116666667","6501300","土城區"
"236024","269-VK","2019/08/08 14:39:45","新北市土城區忠義路47-1號","121.440795","24.9694966666667","6501300","土城區"
"236012","270-VK","2019/08/08 14:39:43","新北市土城區清水路207巷15號","121.459791666667","24.982325","6501300","土城區"
"236032","271-VK","2019/08/08 14:39:44","新北市土城區明德路一段245號","121.462665","24.9780033333333","6501300","土城區"
"247009","KED-0683","2019/08/08 14:39:37","新北市蘆洲區信義路222巷5號","121.479243333333","25.0854366666667","6501400","蘆洲區"
"236068","KEA-2877","2019/08/08 14:39:49","新北市土城區永豐路330號","121.473018333333","24.9775533333333","6501300","土城區"
"236017","401-BY","2019/08/08 14:39:37","新北市土城區永豐路8號","121.46553","24.9847583333333","6501300","土城區"
"236057","912-UM","2019/08/08 14:39:41","新北市土城區中央路三段282號","121.426345","24.963705","6501300","土城區"
"236045","913-UM","2019/08/08 14:39:49","新北市土城區明德路一段65號","121.46538","24.984365","6501300","土城區"
"236060","915-UM","2019/08/08 14:39:42","新北市土城區延壽路13巷24號","121.470335","24.9910616666667","6501300","土城區"
"236054","AAC-216","2019/08/08 14:39:46","新北市土城區中華路一段65號","121.445388333333","24.98792","6501300","土城區"
"220027","145-BY","2019/08/08 14:39:43","新北市板橋區民權路260巷36號","121.45908","25.0152","6500100","板橋區"
"220028","200-UY","2019/08/08 14:39:46","新北市板橋區大觀路二段37巷166號","121.449331666667","25.0015983333333","6500100","板橋區"
"220030","610-BX","2019/08/08 14:39:53","新北市板橋區金門街297號","121.430175","24.9866333333333","6500100","板橋區"
"220050","245-BX","2019/08/08 14:39:54","新北市板橋區莊敬路249號","121.473315","25.0214833333333","6500100","板橋區"
"220032","256-TC","2019/08/08 14:39:37","新北市板橋區滿平二街10巷2弄13號","121.42541","24.9874466666667","6500100","板橋區"
"220004","276-BY","2019/08/08 14:39:43","新北市板橋區干城路158-1號","121.460501666667","24.9922166666667","6500100","板橋區"
"220020","277-BY","2019/08/08 14:39:48","新北市板橋區金門街253巷10弄5號","121.433028333333","24.9884066666667","6500100","板橋區"
"220019","283-VK","2019/08/08 14:39:35","新北市板橋區四川路一段302號","121.458553333333","25.0004616666667","6500100","板橋區"
"220043","285-UM","2019/08/08 14:39:46","新北市板橋區長江路二段149號","121.465828333333","25.0317483333333","6500100","板橋區"
"220001","285-VK","2019/08/08 14:39:40","新北市板橋區中山路二段253號","121.477396666667","25.0175433333333","6500100","板橋區"
"220031","286-VK","2019/08/08 14:39:53","新北市板橋區龍興街65巷49號","121.442306666667","25.00185","6500100","板橋區"
"220029","287-VK","2019/08/08 14:39:35","新北市板橋區大觀路一段77號","121.44728","25.0044633333333","6500100","板橋區"
"220039","288-VK","2019/08/08 14:39:47","新北市板橋區龍泉街54巷7弄2號","121.456805","25.0266133333333","6500100","板橋區"
"220009","293-UM","2019/08/08 14:39:46","新北市板橋區板新路199號","121.468753333333","25.0158866666667","6500100","板橋區"
"220010","295-UM","2019/08/08 14:39:51","新北市板橋區三民路二段81巷11號","121.480008333333","25.01672","6500100","板橋區"
"220023","303-R5","2019/08/08 14:39:39","新北市板橋區中正路275巷93號","121.450821666667","25.0180766666667","6500100","板橋區"
"220041","307-R5","2019/08/08 14:39:53","新北市板橋區四維路269巷89號","121.459858333333","25.0265516666667","6500100","板橋區"
"220047","317-R6","2019/08/08 14:39:54","新北市板橋區民生路三段281巷2弄10號","121.463465","25.0303366666667","6500100","板橋區"
"220003","461-BY","2019/08/08 14:39:51","新北市板橋區重慶路290巷4號","121.462995","24.9989833333333","6500100","板橋區"
"220038","487-VK","2019/08/08 14:39:39","新北市板橋區綠堤街53號","121.455253333333","25.0257016666667","6500100","板橋區"
"220037","491-VK","2019/08/08 14:39:33","新北市板橋區文化路二段367號","121.473086666667","25.0309933333333","6500100","板橋區"
"220104","560-BX","2019/08/08 14:39:36","新北市板橋區中正路373號","121.454321666667","25.0211883333333","6500100","板橋區"
"220052","561-BX","2019/08/08 14:39:46","新北市板橋區自由路42號","121.465631666667","25.0232533333333","6500100","板橋區"
"220011","609-BX","2019/08/08 14:39:55","新北市板橋區三民路二段136-4號","121.479135","25.016075","6500100","板橋區"
"220040","637-BX","2019/08/08 14:39:43","新北市板橋區懷德街139巷20弄10號","121.480201666667","25.0306866666667","6500100","板橋區"
"220005","686-BX","2019/08/08 14:39:36","新北市板橋區和平路安樂巷29號","121.461705","24.9935033333333","6500100","板橋區"
"220025","687-BX","2019/08/08 14:39:47","新北市板橋區大觀路一段28巷70號","121.449776666667","25.010615","6500100","板橋區"
"220042","689-BX","2019/08/08 14:39:51","新北市板橋區長江路一段357號","121.461408333333","25.03055","6500100","板橋區"
"220002","741-BX","2019/08/08 14:39:54","新北市板橋區忠孝路239巷36號","121.467428333333","25.0035566666667","6500100","板橋區"
"220051","KEA-2699","2019/08/08 14:39:35","新北市板橋區松柏街57-4號","121.475668333333","25.0303716666667","6500100","板橋區"
"220014","829-TW","2019/08/08 14:39:41","新北市板橋區漢生東路279巷8號","121.471865","25.009095","6500100","板橋區"
"220016","831-TW","2019/08/08 14:39:36","新北市板橋區中山路二段412巷12號","121.48331","25.0202816666667","6500100","板橋區"
"220022","895-R6","2019/08/08 14:39:37","新北市板橋區福德街2巷17號","121.45563","25.0090533333333","6500100","板橋區"
"220021","985-R7","2019/08/08 14:39:41","新北市板橋區新生街76號","121.457895","25.0212666666667","6500100","板橋區"
"220046","AAC-210","2019/08/08 14:39:52","新北市板橋區文化路一段145號","121.46248","25.0155633333333","6500100","板橋區"
"220012","AAC-253","2019/08/08 14:39:39","新北市板橋區民權路45號","121.462046666667","25.0113166666667","6500100","板橋區"
"235032","KEA-2873","2019/08/08 14:39:43","新北市中和區福美路301巷23號","121.497601666667","25.0039933333333","6500300","中和區"
"235025","KEA-2875","2019/08/08 14:39:48","新北市中和區新生街166巷18號","121.482686666667","25.0003633333333","6500300","中和區"
