"lineid","car","time","location","longitude","latitude","cityid","cityname"
"234026","9372-KE","2019/08/08 14:27:45","新北市永和區保順路8號","121.503881666667","25.0110466666667","6500400","永和區"
"234025","9371-KE","2019/08/08 14:49:48","新北市永和區雙和街52巷1號","121.508933333333","25.0031983333333","6500400","永和區"
"248013","025-BX","2019/08/08 14:49:33","新北市五股區五福路14巷11號","121.434786666667","25.0888233333333","6501500","五股區"
"248015","026-BX","2019/08/08 14:49:46","新北市五股區成泰路三段577巷80弄72號","121.448888333333","25.1046816666667","6501500","五股區"
"248007","KED-0815","2019/08/08 14:49:48","新北市五股區四維路155巷36弄1號","121.466698333333","25.074245","6501500","五股區"
"248017","KED-0813","2019/08/08 14:49:44","新北市五股區外寮路13-1號","121.42487","25.08124","6501500","五股區"
"248011","247-BX","2019/08/08 14:49:42","新北市五股區民義路一段216號","121.430388333333","25.0895666666667","6501500","五股區"
"248009","272-BY","2019/08/08 14:49:54","新北市五股區登林路46巷2號","121.432096666667","25.0686416666667","6501500","五股區"
"248003","677-BX","2019/08/08 14:49:44","新北市五股區成泰路一段16號","121.434568333333","25.0675333333333","6501500","五股區"
"248001","678-BX","2019/08/08 14:49:35","新北市五股區成泰路三段169號","121.44528","25.0919233333333","6501500","五股區"
"244003","248-BX","2019/08/08 14:49:51","新北市林口區瑞平里33-1號","121.34845","25.128765","6501700","林口區"
"243004","AAD-798","2019/08/08 14:49:38","新北市泰山區楓江路46巷1號","121.435173333333","25.0621566666667","6501600","泰山區"
"243002","297-R6","2019/08/08 14:49:44","新北市泰山區明志路二段273巷3弄2號","121.427341666667","25.0472233333333","6501600","泰山區"
"243006","KEA-2801","2019/08/08 14:49:34","新北市泰山區明志路一段2號","121.433525","25.0662766666667","6501600","泰山區"
"243008","421-VK","2019/08/08 14:49:39","新北市泰山區明志路三段267號","121.4233","25.03704","6501600","泰山區"
"243001","KEA-2215","2019/08/08 14:49:38","新北市泰山區泰林路二段116巷3弄4號","121.435185","25.059655","6501600","泰山區"
"243003","KEA-2216","2019/08/08 14:49:42","新北市泰山區明志路三段429號","121.421081666667","25.0326766666667","6501600","泰山區"
"243007","680-BX","2019/08/08 14:49:48","新北市泰山區明志路二段8號","121.429995","25.0536566666667","6501600","泰山區"
"231030","002-UM","2019/08/08 14:49:49","新北市新店區安民街192號","121.517125","24.971535","6500600","新店區"
"231024","0291-UT","2019/08/08 14:49:46","新北市新店區中華路83巷67號","121.538326666667","24.9674216666667","6500600","新店區"
"231027","0293-UT","2019/08/08 14:49:35","新北市新店區中正路102巷8弄2號","121.543346666667","24.9710566666667","6500600","新店區"
"231005","046-UY","2019/08/08 14:49:38","新北市新店區復興路51-8號","121.536408333333","24.9873183333333","6500600","新店區"
"231029","106-UY","2019/08/08 14:49:38","新北市新店區安康路三段578-1號","121.481031666667","24.9487233333333","6500600","新店區"
"231018","107-UY","2019/08/08 14:49:32","新北市新店區中央一街19號","121.528431666667","24.9731116666667","6500600","新店區"
"231013","108-UY","2019/08/08 14:49:42","新北市新店區北新路二段121巷15弄1號","121.542266666667","24.9746883333333","6500600","新店區"
"231036","110-UY","2019/08/08 14:49:39","新北市新店區安祥路106巷10號","121.478776666667","24.9626166666667","6500600","新店區"
"231039","187-VK","2019/08/08 14:49:40","新北市新店區安康路一段355-3號","121.519793333333","24.9623233333333","6500600","新店區"
"231017","KEA-2219","2019/08/08 14:49:33","新北市新店區北宜路三段221號","121.592311666667","24.9531866666667","6500600","新店區"
"231031","256-BX","2019/08/08 14:49:36","新北市新店區薏仁坑路2-1號","121.500515","24.957995","6500600","新店區"
"231023","260-TV","2019/08/08 14:49:53","新北市新店區檳榔路109號","121.544566666667","24.96161","6500600","新店區"
"231003","268-BY","2019/08/08 14:49:43","新北市新店區中興路一段308號","121.546496666667","24.9700383333333","6500600","新店區"
"231035","278-BY","2019/08/08 14:49:37","新北市新店區安業街67巷22號","121.518991666667","24.976135","6500600","新店區"
"231006","355-BY","2019/08/08 14:49:38","新北市新店區北宜路二段4號","121.547685","24.951905","6500600","新店區"
"231038","3712-VJ","2019/08/08 14:49:39","新北市新店區安一路一段1-1號","121.519663333333","24.9610516666667","6500600","新店區"
"231025","4715-K9","2019/08/08 14:49:40","新北市新店區建國路133號","121.539298333333","24.9782033333333","6500600","新店區"
"231021","513-UM","2019/08/08 14:49:44","新北市新店區桂山路38號","121.558115","24.9029483333333","6500600","新店區"
"231002","619-UM","2019/08/08 14:49:39","新北市新店區民權路88號","121.53692","24.9831366666667","6500600","新店區"
"231034","641-BX","2019/08/08 14:49:41","新北市新店區車子路1-1號","121.504815","24.95801","6500600","新店區"
"231011","KED-0819","2019/08/08 14:49:44","新北市新店區寶橋路69-1號","121.545431666667","24.9751116666667","6500600","新店區"
"231028","897-TW","2019/08/08 14:49:54","新北市新店區安德街60巷35號","121.511246666667","24.9635383333333","6500600","新店區"
"231001","898-TW","2019/08/08 14:49:51","新北市新店區中正路211號","121.53977","24.9726383333333","6500600","新店區"
"231004","899-TW","2019/08/08 14:49:53","新北市新店區民族路66號","121.539435","24.9783033333333","6500600","新店區"
"231037","AKT-0513","2019/08/08 14:49:46","新北市新店區柴埕路52巷16號","121.511025","24.9654416666667","6500600","新店區"
"235030","003-UY","2019/08/08 14:49:33","新北市中和區中和路267號","121.505381666667","24.999965","6500300","中和區"
"235020","096-UM","2019/08/08 14:49:46","新北市中和區中山路三段114巷65號","121.475641666667","25.0078766666667","6500300","中和區"
"235003","097-UM","2019/08/08 14:49:53","新北市中和區宜安路18巷6號","121.513641666667","24.996115","6500300","中和區"
"235029","098-UM","2019/08/08 14:49:50","新北市中和區永和路90巷2弄1號","121.497348333333","25.005835","6500300","中和區"
"235004","150-BY","2019/08/08 14:49:43","新北市中和區安平路38號","121.509708333333","24.9949733333333","6500300","中和區"
"235022","151-BY","2019/08/08 14:49:34","新北市中和區員山路263號","121.481258333333","24.9993","6500300","中和區"
"235019","183-VK","2019/08/08 14:49:38","新北市中和區中山路三段147號","121.473671666667","25.0062016666667","6500300","中和區"
"235002","185-VK","2019/08/08 14:49:51","新北市中和區更生街5號","121.52167","24.9961783333333","6500300","中和區"
"235013","186-VK","2019/08/08 14:49:38","新北市中和區南華路15號","121.502435","24.99571","6500300","中和區"
"235008","293-VK","2019/08/08 14:49:36","新北市中和區南山路417號","121.507138333333","24.9895866666667","6500300","中和區"
"235036","301-VK","2019/08/08 14:49:48","新北市中和區保平路340巷18號","121.506011666667","25.00448","6500300","中和區"
"235007","352-BY","2019/08/08 14:49:42","新北市中和區景平路183號","121.511773333333","24.9923683333333","6500300","中和區"
"235006","KEA-2878","2019/08/08 14:49:49","新北市中和區成功路139號","121.525881666667","24.990175","6500300","中和區"
"247013","KEA-2869","2019/08/08 14:49:53","新北市蘆洲區成功路104號","121.472481666667","25.0821916666667","6501400","蘆洲區"
"247007","KED-0682","2019/08/08 14:49:52","新北市蘆洲區中山一路103巷25號","121.47585","25.0809916666667","6501400","蘆洲區"
"235034","558-UM","2019/08/08 14:49:47","新北市中和區連勝街40號","121.498086666667","24.9976216666667","6500300","中和區"
"235018","640-BX","2019/08/08 14:49:36","新北市中和區莒光路118號","121.472493333333","25.00193","6500300","中和區"
"235011","732-UM","2019/08/08 14:49:52","新北市中和區和平街110號","121.507108333333","24.9914583333333","6500300","中和區"
"235010","733-UM","2019/08/08 14:49:43","新北市中和區興南路一段61-1號","121.510536666667","24.9895416666667","6500300","中和區"
"235035","783-BX","2019/08/08 14:49:44","新北市中和區建一路136號","121.487893333333","24.999525","6500300","中和區"
"235026","800-TS","2019/08/08 14:49:49","新北市中和區板南路386號","121.493343333333","24.9993766666667","6500300","中和區"
"235016","805-TS","2019/08/08 14:49:49","新北市中和區華新街30巷16號","121.506841666667","24.98442","6500300","中和區"
"235012","896-TW","2019/08/08 14:49:43","新北市中和區忠孝街120號","121.512181666667","24.9857566666667","6500300","中和區"
"235017","900-TW","2019/08/08 14:49:39","新北市中和區國光街215巷24弄1號","121.466905","25.000415","6500300","中和區"
"235015","157-BY","2019/08/08 14:49:47","新北市中和區景安路247巷7號","121.504371666667","24.9906633333333","6500300","中和區"
"235001","AAC-213","2019/08/08 14:49:39","新北市中和區自立路129號","121.521961666667","24.9940166666667","6500300","中和區"
"235023","AAC-215","2019/08/08 14:49:38","新北市中和區圓通路305巷5弄40號","121.494706666667","24.9902566666667","6500300","中和區"
"220013","072-UY","2019/08/08 14:49:44","新北市板橋區民族路266號","121.469445","25.006925","6500100","板橋區"
"220034","073-UY","2019/08/08 14:49:53","新北市板橋區中正路216巷150弄1號","121.460675","25.0194833333333","6500100","板橋區"
"220105","075-UY","2019/08/08 14:49:46","新北市板橋區民治街42巷24號","121.478286666667","25.0330616666667","6500100","板橋區"
"220017","AAD-861","2019/08/08 14:49:43","新北市板橋區縣民大道一段64巷25號","121.45607","25.0033666666667","6500100","板橋區"
"247001","336-TH","2019/08/08 14:49:53","新北市蘆洲區長安街276號","121.45734","25.0871483333333","6501400","蘆洲區"
"247021","057-VK","2019/08/08 14:49:38","新北市蘆洲區中正路385號","121.463726666667","25.092305","6501400","蘆洲區"
"247015","053-VK","2019/08/08 14:49:44","新北市蘆洲區和平路184號","121.466216666667","25.0814316666667","6501400","蘆洲區"
"247019","007-UY","2019/08/08 14:49:43","新北市蘆洲區民義街86巷1號","121.473728333333","25.0902233333333","6501400","蘆洲區"
"247005","002-UY","2019/08/08 14:49:37","新北市蘆洲區中華街12號","121.463183333333","25.0815383333333","6501400","蘆洲區"
"228005","097-TW","2019/08/08 14:49:39","新北市貢寮區美豐里丹裡街69號","121.90604","25.057015","6502600","貢寮區"
"228004","212-TW","2019/08/08 14:49:52","新北市貢寮區福隆里裕隆街2號","121.946585","25.0152166666667","6502600","貢寮區"
"253003","6232-TK","2019/08/08 14:49:47","新北市石門區尖子鹿101-1號","121.580085","25.2924316666667","6502200","石門區"
"253004","6251-TK","2019/08/08 14:49:39","新北市石門區內阿里磅55號","121.57922","25.2491233333333","6502200","石門區"
"253002","637-UY","2019/08/08 14:49:38","新北市石門區七股10-5號","121.54486","25.269045","6502200","石門區"
"253001","KEC-0718","2019/08/08 14:49:36","新北市石門區崁子腳47號","121.534633333333","25.2839783333333","6502200","石門區"
"207002","749-BX","2019/08/08 14:49:39","新北市萬里區溪底里富士坪路2-1號","121.629043333333","25.1606533333333","6502800","萬里區"
"252005","073-UM","2019/08/08 14:49:49","新北市三芝區埔坪里埔頭坑107-1號","121.514196666667","25.2471","6502100","三芝區"
"207001","662-BX","2019/08/08 14:49:08","新北市萬里區雙興里豐稟路39號","121.642648333333","25.1819833333333","6502800","萬里區"
"236040","KED-0685","2019/08/08 14:49:40","新北市土城區裕民路138號","121.45155","24.9861816666667","6501300","土城區"
"236074","166-UM","2019/08/08 14:49:42","新北市土城區中央路四段185巷30弄1號","121.415766666667","24.9557966666667","6501300","土城區"
"236029","253-BX","2019/08/08 14:49:40","新北市土城區忠義路26巷10號","121.439836666667","24.96993","6501300","土城區"
"236024","269-VK","2019/08/08 14:49:45","新北市土城區中央路二段227號","121.440545","24.972495","6501300","土城區"
"236012","270-VK","2019/08/08 14:49:43","新北市土城區清水路235巷2號","121.461125","24.9832416666667","6501300","土城區"
"236032","271-VK","2019/08/08 14:49:51","新北市土城區仁愛路38號","121.461708333333","24.9794366666667","6501300","土城區"
"236068","KEA-2877","2019/08/08 14:49:49","新北市土城區明德路一段385-1號","121.45268","24.9799266666667","6501300","土城區"
"236017","401-BY","2019/08/08 14:49:37","新北市土城區延吉街206號","121.467666666667","24.9849816666667","6501300","土城區"
"236057","912-UM","2019/08/08 14:49:41","新北市土城區中央路三段93號","121.437556666667","24.967685","6501300","土城區"
"236045","913-UM","2019/08/08 14:49:49","新北市板橋區信義路170巷10號","121.459903333333","24.99057","6501300","土城區"
"236060","915-UM","2019/08/08 14:49:42","新北市土城區延壽路13巷5號","121.470798333333","24.9903666666667","6501300","土城區"
"236054","AAC-216","2019/08/08 14:49:46","新北市土城區裕民路179號","121.453355","24.9847416666667","6501300","土城區"
"238012","303-VK","2019/08/08 14:49:44","新北市樹林區育德街78號","121.387453333333","24.9684183333333","6500700","樹林區"
"221032","280-BY","2019/08/08 14:49:44","新北市新店區安華路30巷12-1號","121.518291666667","24.957585","6501100","汐止區"
"220027","145-BY","2019/08/08 14:49:43","新北市板橋區民權路202巷17弄2號","121.460613333333","25.0167933333333","6500100","板橋區"
"220028","200-UY","2019/08/08 14:49:47","新北市板橋區大觀路二段37巷324號","121.449713333333","25.0024183333333","6500100","板橋區"
"220030","610-BX","2019/08/08 14:49:53","新北市板橋區篤行路一段39號","121.432083333333","24.9940816666667","6500100","板橋區"
"220050","245-BX","2019/08/08 14:49:34","新北市板橋區萬板路142號","121.475628333333","25.022875","6500100","板橋區"
"220032","256-TC","2019/08/08 14:49:54","新北市板橋區溪崑二街124巷18號","121.42544","24.9883966666667","6500100","板橋區"
"220004","276-BY","2019/08/08 14:49:43","新北市板橋區信義路1巷26弄30號","121.458321666667","24.9965516666667","6500100","板橋區"
"220020","277-BY","2019/08/08 14:49:48","新北市板橋區金門街215巷73號","121.434036666667","24.9893633333333","6500100","板橋區"
"220019","283-VK","2019/08/08 14:49:54","新北市板橋區和平路174巷28號","121.464616666667","24.99447","6500100","板橋區"
"220043","285-UM","2019/08/08 14:49:46","新北市板橋區雨農路6號","121.462363333333","25.0248516666667","6500100","板橋區"
"220001","285-VK","2019/08/08 14:49:40","新北市板橋區中山路二段60巷1弄1號","121.474298333333","25.015525","6500100","板橋區"
"220031","286-VK","2019/08/08 14:49:36","新北市板橋區僑中二街50號","121.446745","25.0104333333333","6500100","板橋區"
"220029","287-VK","2019/08/08 14:49:35","新北市板橋區大觀路一段29巷131弄10號","121.450636666667","25.0051283333333","6500100","板橋區"
"220039","288-VK","2019/08/08 14:49:47","新北市板橋區雨農路27巷6號","121.461445","25.0239116666667","6500100","板橋區"
"220009","293-UM","2019/08/08 14:49:46","新北市板橋區觀光街1巷12號","121.471706666667","25.0153366666667","6500100","板橋區"
"220010","295-UM","2019/08/08 14:49:51","新北市板橋區三民路二段29巷31弄1號","121.481428333333","25.01774","6500100","板橋區"
"220023","303-R5","2019/08/08 14:49:39","新北市板橋區中正路253巷38號","121.454258333333","25.0178","6500100","板橋區"
"220041","307-R5","2019/08/08 14:49:33","新北市板橋區新海路109巷1弄2號","121.46076","25.02246","6500100","板橋區"
"220047","317-R6","2019/08/08 14:49:47","新北市板橋區裕民街75巷2弄15-2號","121.460503333333","25.0276666666667","6500100","板橋區"
"220003","461-BY","2019/08/08 14:49:45","新北市板橋區國慶路149巷7-3號","121.461183333333","24.9969683333333","6500100","板橋區"
"220038","487-VK","2019/08/08 14:49:39","新北市板橋區英士路192-1號","121.458351666667","25.0236316666667","6500100","板橋區"
"220037","491-VK","2019/08/08 14:49:53","新北市板橋區仁化街178號","121.478415","25.0339233333333","6500100","板橋區"
"220104","560-BX","2019/08/08 14:49:53","新北市板橋區新生街88巷1號","121.458091666667","25.02159","6500100","板橋區"
"220052","561-BX","2019/08/08 14:49:48","新北市板橋區英士路58巷2號","121.460911666667","25.0249933333333","6500100","板橋區"
"220011","609-BX","2019/08/08 14:49:35","新北市板橋區三民路一段31巷17弄8-3號","121.480166666667","25.0236483333333","6500100","板橋區"
"220040","637-BX","2019/08/08 14:49:43","新北市板橋區懷德街127巷23弄25號","121.479875","25.0321683333333","6500100","板橋區"
"220005","686-BX","2019/08/08 14:49:36","新北市板橋區廣權路9號","121.460761666667","24.9912733333333","6500100","板橋區"
"220025","687-BX","2019/08/08 14:49:47","新北市板橋區僑中二街106巷1號","121.445895","25.0074383333333","6500100","板橋區"
"220042","689-BX","2019/08/08 14:49:51","新北市板橋區長江路二段245號","121.469136666667","25.0328166666667","6500100","板橋區"
"220002","741-BX","2019/08/08 14:49:34","新北市板橋區實踐路65巷41號","121.465115","25.0064283333333","6500100","板橋區"
"220051","KEA-2699","2019/08/08 14:49:35","新北市板橋區仁化街42巷3號","121.475398333333","25.0313483333333","6500100","板橋區"
"220014","829-TW","2019/08/08 14:49:41","新北市板橋區民生路一段21號","121.47494","25.0113983333333","6500100","板橋區"
"220016","831-TW","2019/08/08 14:49:36","新北市板橋區光復街144號","121.484478333333","25.0193033333333","6500100","板橋區"
"220022","895-R6","2019/08/08 14:49:37","新北市板橋區府中路29-2號","121.458546666667","25.0080733333333","6500100","板橋區"
"220021","985-R7","2019/08/08 14:49:41","新北市板橋區中正路290號","121.455086666667","25.0202916666667","6500100","板橋區"
"220046","AAC-210","2019/08/08 14:49:39","新北市板橋區光正街18巷1-2號","121.462655","25.01728","6500100","板橋區"
"220012","AAC-253","2019/08/08 14:49:39","新北市板橋區館前東路98-1號","121.462548333333","25.0074766666667","6500100","板橋區"
"235032","KEA-2873","2019/08/08 14:49:43","新北市中和區福祥路85巷2弄2號","121.49874","25.00578","6500300","中和區"
