"lineid","car","time","location","longitude","latitude","cityid","cityname"
"231030","002-UM","2019/08/08 15:49:49","新北市新店區永安街79號","121.519798333333","24.9867183333333","6500600","新店區"
"231018","107-UY","2019/08/08 15:49:52","新北市新店區中正路663巷7弄13號","121.532825","24.9899833333333","6500600","新店區"
"231013","108-UY","2019/08/08 15:49:42","新北市新店區永業路81巷1弄1-1號","121.52969","24.9493083333333","6500600","新店區"
"231039","187-VK","2019/08/08 15:49:40","新北市新店區寶興路68巷2號","121.551175","24.97086","6500600","新店區"
"231017","KEA-2219","2019/08/08 15:49:53","新北市新店區中華路52號","121.539605","24.9684866666667","6500600","新店區"
"231031","256-BX","2019/08/08 15:49:56","新北市新店區雙城路65號","121.493151666667","24.9484033333333","6500600","新店區"
"231003","268-BY","2019/08/08 15:49:43","新北市新店區寶興路60巷8號","121.549671666667","24.9716916666667","6500600","新店區"
"231035","278-BY","2019/08/08 15:49:37","新北市新店區安民街365巷10弄6號","121.516065","24.9758616666667","6500600","新店區"
"231021","513-UM","2019/08/08 15:49:44","新北市新店區新烏路一段245號","121.547588333333","24.9304133333333","6500600","新店區"
"231034","641-BX","2019/08/08 15:49:40","新北市新店區吉祥街13巷1號","121.497723333333","24.946095","6500600","新店區"
"231026","720-UM","2019/08/08 15:49:46","新北市新店區中正路420號","121.534303333333","24.9779116666667","6500600","新店區"
"231037","AKT-0513","2019/08/08 15:49:45","新北市新店區安民街365巷1弄8號","121.516481666667","24.9753783333333","6500600","新店區"
"241011","013-R5","2019/08/08 15:49:49","新北市三重區文化北路228號","121.49757","25.069285","6500200","三重區"
"241028","022-UY","2019/08/08 15:49:37","新北市三重區中正南路108號","121.494353333333","25.0584666666667","6500200","三重區"
"241022","060-VK","2019/08/08 15:49:36","新北市三重區名源街61巷17號","121.480986666667","25.058855","6500200","三重區"
"241015","062-VK","2019/08/08 15:49:40","新北市三重區重新路四段121號","121.485108333333","25.0519933333333","6500200","三重區"
"241017","063-VK","2019/08/08 15:49:42","新北市三重區大仁街38號","121.491646666667","25.06423","6500200","三重區"
"241024","065-VK","2019/08/08 15:49:36","新北市三重區中華路58號","121.483488333333","25.0621316666667","6500200","三重區"
"241002","742-BX","2019/08/08 15:49:43","新北市三重區重新路四段121號","121.48492","25.051885","6500200","三重區"
"241006","262-UM","2019/08/08 15:49:34","新北市三重區重新路四段121號","121.484845","25.0520466666667","6500200","三重區"
"241018","268-UM","2019/08/08 15:49:38","新北市三重區重新路四段121號","121.48528","25.0522","6500200","三重區"
"241032","269-UM","2019/08/08 15:49:41","新北市三重區三陽路100巷3弄13號","121.483053333333","25.05813","6500200","三重區"
"241013","270-UM","2019/08/08 15:49:41","新北市三重區六張街2號","121.495916666667","25.07074","6500200","三重區"
"241007","398-BY","2019/08/08 15:49:45","新北市三重區忠孝路三段48號","121.480793333333","25.0659566666667","6500200","三重區"
"241020","478-VK","2019/08/08 15:49:54","新北市三重區忠孝路二段52號","121.48509","25.0703783333333","6500200","三重區"
"241026","480-VK","2019/08/08 15:49:52","新北市三重區重新路四段121號","121.484935","25.0525566666667","6500200","三重區"
"241014","543-UM","2019/08/08 15:49:43","新北市三重區重新路四段121號","121.485131666667","25.0520983333333","6500200","三重區"
"241023","545-UM","2019/08/08 15:49:41","新北市三重區中正北路172-2號","121.48401","25.0665366666667","6500200","三重區"
"241019","KEA-2593","2019/08/08 15:49:53","新北市三重區忠孝路二段56號","121.484901666667","25.070425","6500200","三重區"
"241005","AAD-863","2019/08/08 15:49:56","新北市三重區重新路四段121號","121.484658333333","25.052085","6500200","三重區"
"241016","887-TS","2019/08/08 15:49:41","新北市三重區重新路四段121號","121.485058333333","25.0521366666667","6500200","三重區"
"241012","941-UM","2019/08/08 15:49:53","新北市三重區文化北路61-4號","121.498605","25.066395","6500200","三重區"
"241029","942-UM","2019/08/08 15:49:38","新北市三重區大同南路246號","121.496968333333","25.055775","6500200","三重區"
"241033","AAC-255","2019/08/08 15:49:35","新北市三重區光復路一段38號","121.47192","25.04758","6500200","三重區"
"235019","183-VK","2019/08/08 15:49:38","新北市五股區凌雲路二段66號","121.440146666667","25.1061683333333","6500300","中和區"
"235033","4980-A6","2019/08/08 15:49:53","新北市中和區中正路637巷44弄1號","121.485251666667","24.994335","6500300","中和區"
"235026","800-TS","2019/08/08 15:49:49","新北市中和區立業路83巷26號","121.491156666667","25.0065383333333","6500300","中和區"
"235023","AAC-215","2019/08/08 15:49:38","新北市中和區員山路49-7號","121.480656666667","24.9914283333333","6500300","中和區"
"247006","002-UY","2019/08/08 15:45:24","新北市五股區中興路三段163號","121.449271666667","25.0808816666667","6501400","蘆洲區"
"224007","285-BY","2019/08/08 15:49:51","新北市瑞芳區大寮路356-1號","121.784966666667","25.1033883333333","6501200","瑞芳區"
"224005","271-BY","2019/08/08 15:43:46","新北市瑞芳區明燈路二段66號","121.809315","25.10752","6501200","瑞芳區"
"227002","642-TC","2019/08/08 15:49:52","新北市雙溪區平林里外平林46-1號","121.85043","25.03552","6502500","雙溪區"
"227001","400-TW","2019/08/08 15:49:43","新北市雙溪區三港里雙澳路38-2號","121.872406666667","25.0513716666667","6502500","雙溪區"
"236074","166-UM","2019/08/08 15:49:43","新北市土城區福安街55巷5號","121.418661666667","24.96419","6501300","土城區"
"236029","253-BX","2019/08/08 15:49:40","新北市土城區學成路128巷11號","121.449506666667","24.99002","6501300","土城區"
"236024","269-VK","2019/08/08 15:49:49","新北市土城區裕生路67巷8弄1號","121.448143333333","24.984355","6501300","土城區"
"236012","270-VK","2019/08/08 15:49:43","新北市土城區廣明街94號","121.45475","24.99433","6501300","土城區"
"236068","KEA-2877","2019/08/08 15:49:49","新北市土城區金安街63號","121.420535","24.9650716666667","6501300","土城區"
"236017","401-BY","2019/08/08 15:49:37","新北市土城區延吉街55號","121.472356666667","24.987455","6501300","土城區"
"236057","912-UM","2019/08/08 15:49:41","新北市土城區中央路一段180號","121.445613333333","24.9864916666667","6501300","土城區"
"236045","913-UM","2019/08/08 15:49:49","新北市土城區金城路三段21號","121.46509","24.9864966666667","6501300","土城區"
"236054","AAC-216","2019/08/08 15:49:46","新北市土城區中華路一段160號","121.442168333333","24.98435","6501300","土城區"
"238002","755-BX","2019/08/08 15:49:25","新北市樹林區樹德街114號","121.419648333333","24.9927383333333","6500700","樹林區"
"238010","601-UM","2019/08/08 15:49:42","新北市樹林區三福街127巷2號","121.404541666667","25.0160033333333","6500700","樹林區"
"238006","599-UM","2019/08/08 15:49:53","新北市樹林區水源街80號","121.425826666667","24.9805883333333","6500700","樹林區"
"238011","5061-A6","2019/08/08 15:49:40","新北市樹林區山佳街57-1號","121.39289","24.9724633333333","6500700","樹林區"
"238005","KEA-2217","2019/08/08 15:49:51","新北市樹林區博愛街215號","121.42396","24.9867316666667","6500700","樹林區"
"238009","KEA-2213","2019/08/08 15:49:49","新北市樹林區太順街62巷1弄2號","121.417725","24.97956","6500700","樹林區"
"238008","KEA-2539","2019/08/08 15:49:44","新北市樹林區柑園街二段172號","121.38189","24.9542266666667","6500700","樹林區"
"238012","303-VK","2019/08/08 15:49:44","新北市樹林區中山路一段169號","121.421645","24.9885183333333","6500700","樹林區"
"238004","283-BY","2019/08/08 15:49:42","新北市樹林區光興街8-8號","121.413393333333","25.0029983333333","6500700","樹林區"
"238001","282-BY","2019/08/08 15:49:50","新北市樹林區保安二街40巷33號","121.425778333333","24.9948416666667","6500700","樹林區"
"238007","268-VK","2019/08/08 15:49:45","新北市樹林區三俊街250號","121.421375","25.0149016666667","6500700","樹林區"
"238013","172-UY","2019/08/08 15:49:51","新北市樹林區中山路三段92號","121.393166666667","24.97226","6500700","樹林區"
"238003","169-UY","2019/08/08 15:49:46","新北市樹林區啟智街187巷21號","121.415875","24.9871066666667","6500700","樹林區"
