"lineid","car","time","location","longitude","latitude","cityid","cityname"
"249005","172-UM","2019/08/08 16:39:50","新北市八里區大堀湖1-5號","121.422691666667","25.154155","6502300","八里區"
"249002","305-UY","2019/08/08 16:39:48","新北市八里區大堀湖8-1號","121.426426666667","25.1490016666667","6502300","八里區"
"249003","593-UM","2019/08/08 16:39:38","新北市八里區中山路二段356巷16號","121.401071666667","25.1493316666667","6502300","八里區"
"244007","080-UY","2019/08/08 16:39:56","新北市林口區粉寮69號","121.404926666667","25.0909","6501700","林口區"
"244009","656-BX","2019/08/08 16:39:43","新北市林口區粉寮69號","121.405026666667","25.0908416666667","6501700","林口區"
"231046","719-UM","2019/08/08 16:26:29","新北市新店區灣潭路3-3號","121.538213333333","24.950785","6500600","新店區"
"241011","013-R5","2019/08/08 16:39:43","新北市三重區仁愛街43巷16號","121.497343333333","25.0718666666667","6500200","三重區"
"241028","022-UY","2019/08/08 16:39:37","新北市三重區重新路三段40號","121.494536666667","25.0614283333333","6500200","三重區"
"241008","059-VK","2019/08/08 16:39:55","新北市三重區永安北路一段27巷41號","121.477625","25.0755483333333","6500200","三重區"
"241022","060-VK","2019/08/08 16:39:37","新北市三重區新北大道一段100巷20號","121.485423333333","25.0622266666667","6500200","三重區"
"241031","061-VK","2019/08/08 16:39:48","新北市三重區重新路四段41巷12號","121.487781666667","25.0578266666667","6500200","三重區"
"241015","062-VK","2019/08/08 16:39:40","新北市三重區文化北路37-2號","121.499113333333","25.065175","6500200","三重區"
"241017","063-VK","2019/08/08 16:39:41","新北市三重區中正北路25巷6號","121.493328333333","25.062805","6500200","三重區"
"241024","065-VK","2019/08/08 16:39:36","新北市三重區中正北路315巷6弄64號","121.476181666667","25.0724683333333","6500200","三重區"
"241003","091-VK","2019/08/08 16:39:43","新北市三重區五華街71巷118號","121.49504","25.0845283333333","6500200","三重區"
"241002","742-BX","2019/08/08 16:39:43","新北市三重區仁義街218號","121.495516666667","25.0829333333333","6500200","三重區"
"241006","262-UM","2019/08/08 16:39:54","新北市三重區車路頭街140號","121.483925","25.075555","6500200","三重區"
"241009","267-UM","2019/08/08 16:39:49","新北市三重區三和路四段203巷81號","121.483936666667","25.0799516666667","6500200","三重區"
"241018","268-UM","2019/08/08 16:39:38","新北市三重區正義北路338巷50號","121.493066666667","25.0703133333333","6500200","三重區"
"241032","269-UM","2019/08/08 16:39:47","新北市三重區新北大道一段101號","121.484295","25.0613483333333","6500200","三重區"
"241013","270-UM","2019/08/08 16:39:41","新北市三重區仁愛街60號","121.49573","25.0729383333333","6500200","三重區"
"241025","271-UM","2019/08/08 16:39:45","新北市三重區中正北路311號","121.473956666667","25.0714466666667","6500200","三重區"
"241007","398-BY","2019/08/08 16:39:45","新北市三重區三和路四段167巷51號","121.485423333333","25.0794283333333","6500200","三重區"
"241030","KED-0822","2019/08/08 16:39:42","新北市三重區環河南路286號","121.489013333333","25.04892","6500200","三重區"
"241004","475-VK","2019/08/08 16:39:43","新北市三重區五福街6號","121.493146666667","25.081635","6500200","三重區"
"241020","478-VK","2019/08/08 16:39:54","新北市三重區後竹圍街181號","121.485753333333","25.071665","6500200","三重區"
"241026","480-VK","2019/08/08 16:39:52","新北市三重區和平街38號","121.501968333333","25.0626816666667","6500200","三重區"
"241014","543-UM","2019/08/08 16:39:43","新北市三重區龍濱路16號","121.503033333333","25.06755","6500200","三重區"
"241023","545-UM","2019/08/08 16:39:41","新北市三重區洛陽街45巷26號","121.48262","25.0641266666667","6500200","三重區"
"241001","547-UM","2019/08/08 16:39:39","新北市三重區仁愛街262號","121.492936666667","25.0781916666667","6500200","三重區"
"241019","KEA-2593","2019/08/08 16:39:34","新北市三重區力行路一段131號","121.485905","25.0683883333333","6500200","三重區"
"241005","AAD-863","2019/08/08 16:39:56","新北市三重區仁華街122號","121.48612","25.0831833333333","6500200","三重區"
"241016","887-TS","2019/08/08 16:39:41","新北市三重區大智街17號","121.494526666667","25.0652333333333","6500200","三重區"
"241012","941-UM","2019/08/08 16:39:53","新北市三重區三和路三段101巷164號","121.499358333333","25.07392","6500200","三重區"
"241029","942-UM","2019/08/08 16:39:38","新北市三重區集美街142-1號","121.489556666667","25.0530883333333","6500200","三重區"
"241033","AAC-255","2019/08/08 16:39:55","新北市三重區光復路二段112號","121.472016666667","25.0587983333333","6500200","三重區"
"235064","005-UY","2019/08/08 16:39:40","新北市中和區員山路36巷16-3號","121.48502","24.99143","6500300","中和區"
"235054","640-BX","2019/08/08 16:39:35","新北市中和區員山路36巷16-2號","121.485246666667","24.9914733333333","6500300","中和區"
"235062","800-TS","2019/08/08 16:27:41","新北市中和區員山路36巷16-3號","121.485","24.9913916666667","6500300","中和區"
"247018","546-UM","2019/08/08 16:39:38","新北市五股區中興路三段163號","121.449236666667","25.0806966666667","6501400","蘆洲區"
"247024","337-TH","2019/08/08 16:39:43","新北市五股區成泰路三段544-1號","121.454656666667","25.1013166666667","6501400","蘆洲區"
"247012","056-VK","2019/08/08 16:39:45","新北市五股區中興路三段163號","121.449135","25.0807333333333","6501400","蘆洲區"
"247006","002-UY","2019/08/08 16:39:42","新北市五股區中興路二段163號","121.457473333333","25.07725","6501400","蘆洲區"
"224007","285-BY","2019/08/08 16:39:51","新北市瑞芳區瑞竹路147號","121.760756666667","25.1041216666667","6501200","瑞芳區"
"224009","275-VK","2019/08/08 16:39:51","新北市瑞芳區民權街3-1號","121.809303333333","25.1083433333333","6501200","瑞芳區"
"224005","271-BY","2019/08/08 16:39:44","新北市瑞芳區洞頂路132-1號","121.862178333333","25.123445","6501200","瑞芳區"
"227002","642-TC","2019/08/08 16:39:52","新北市雙溪區長源里土地公山46號","121.799443333333","25.0129733333333","6502500","雙溪區"
"227001","400-TW","2019/08/08 16:39:43","新北市雙溪區牡丹里聖南3號","121.860111666667","25.050875","6502500","雙溪區"
"251015","KEA-2871","2019/08/08 16:39:47","新北市淡水區重建街87號","121.439786666667","25.1725266666667","6501000","淡水區"
"251016","179-VK","2019/08/08 16:39:41","新北市淡水區新市一路三段119號","121.446951666667","25.182925","6501000","淡水區"
"251008","181-VK","2019/08/08 16:39:47","新北市淡水區樹梅坑9號","121.472836666667","25.1426966666667","6501000","淡水區"
"251013","182-VK","2019/08/08 16:39:57","新北市淡水區大溪9號","121.496058333333","25.19014","6501000","淡水區"
"251014","577-R6","2019/08/08 16:39:52","新北市淡水區淡金路四段478號","121.452418333333","25.2239283333333","6501000","淡水區"
"251011","650-BX","2019/08/08 16:39:52","新北市淡水區中正路二段31號","121.41928","25.1817033333333","6501000","淡水區"
"252002","178-VK","2019/08/08 16:39:52","新北市三芝區晴光街4號","121.510703333333","25.2576316666667","6502100","三芝區"
"233002","762-BX","2019/08/08 16:39:55","新北市烏來區啦卡路70-1號","121.56482","24.8559233333333","6502900","烏來區"
"247010","KED-0683","2019/08/08 16:39:43","新北市五股區中興路三段163號","121.449215","25.080525","6501400","蘆洲區"
"252001","KED-0821","2019/08/08 16:39:37","新北市三芝區茂長里陳厝坑3-1號","121.510141666667","25.26407","6502100","三芝區"
"238023","601-UM","2019/08/08 16:39:41","新北市樹林區大安路626號","121.411251666667","24.9826166666667","6500700","樹林區"
"238012","303-VK","2019/08/08 16:39:44","新北市樹林區中正路22-1號","121.427833333333","24.9993833333333","6500700","樹林區"
"238001","282-BY","2019/08/08 16:39:50","新北市樹林區中正路22-1號","121.42775","24.9993966666667","6500700","樹林區"
"239007","AAC-297","2019/08/08 16:39:39","新北市鶯歌區二甲路13-16號","121.345195","24.9349833333333","6500800","鶯歌區"
"244019","KED-0667","2019/08/08 16:39:51","新北市林口區粉寮69號","121.405105","25.0908566666667","6501700","林口區"
"233001","KEA-2870","2019/08/08 16:39:40","新北市烏來區啦卡路70-1號","121.565065","24.8560533333333","6502900","烏來區"
