"lineid","car","time","location","longitude","latitude","cityid","cityname"
"234081","298-R6","2019/08/08 18:29:58","新北市永和區豫溪街193號","121.52277","25.0103233333333","6500400","永和區"
"234064","337-UY","2019/08/08 18:29:55","新北市永和區福和路1號","121.526253333333","25.00958","6500400","永和區"
"234086","338-UY","2019/08/08 18:29:44","新北市永和區永利路69號","121.51991","25.0047933333333","6500400","永和區"
"234030","746-BX","2019/08/08 18:29:52","新北市永和區永貞路29號","121.521045","25.0066833333333","6500400","永和區"
"234007","KED-0605","2019/08/08 18:29:42","新北市永和區環河西路二段7-6號","121.508898333333","25.0167833333333","6500400","永和區"
"234013","KEA-2591","2019/08/08 18:29:40","新北市永和區環河東路二段8號","121.52224","25.0134916666667","6500400","永和區"
"234061","AAD-866","2019/08/08 18:29:43","新北市永和區福和路1號","121.526066666667","25.0094783333333","6500400","永和區"
"234026","9371-KE","2019/08/08 18:29:48","新北市永和區中山路一段207號","121.508818333333","25.0086066666667","6500400","永和區"
"234011","9373-KE","2019/08/08 18:29:47","新北市永和區保福路二段156號","121.509233333333","25.015025","6500400","永和區"
"249005","172-UM","2019/08/08 18:29:50","新北市八里區中華路三段134號","121.391188333333","25.134145","6502300","八里區"
"249001","173-UM","2019/08/08 18:29:39","新北市八里區龍米路一段446號","121.45056","25.1343783333333","6502300","八里區"
"249004","303-UY","2019/08/08 18:29:46","新北市八里區忠四街9號","121.424968333333","25.1607183333333","6502300","八里區"
"249002","305-UY","2019/08/08 18:29:48","新北市八里區龍形三街2號","121.450303333333","25.1318033333333","6502300","八里區"
"248014","025-BX","2019/08/08 18:29:53","新北市五股區明德路7巷45號","121.434481666667","25.0708016666667","6501500","五股區"
"248016","026-BX","2019/08/08 18:29:47","新北市五股區凌雲路一段83巷22弄7號","121.45008","25.1009116666667","6501500","五股區"
"248008","KED-0815","2019/08/08 18:29:41","新北市蘆洲區永安南路二段132-1號","121.462315","25.0783083333333","6501500","五股區"
"248020","KED-0813","2019/08/08 18:29:37","新北市五股區孝義路19-1號","121.45201","25.1092466666667","6501500","五股區"
"248012","247-BX","2019/08/08 18:29:49","新北市五股區御成路145號","121.440811666667","25.094415","6501500","五股區"
"248010","272-BY","2019/08/08 18:29:50","新北市五股區水碓路9號","121.433663333333","25.0723633333333","6501500","五股區"
"248004","677-BX","2019/08/08 18:29:49","新北市五股區工商路140-2號","121.43401","25.08709","6501500","五股區"
"248002","678-BX","2019/08/08 18:29:52","新北市五股區西雲路118號","121.444783333333","25.0937733333333","6501500","五股區"
"234023","9380-KE","2019/08/08 18:29:54","新北市永和區環河東路二段92號","121.524435","25.010635","6500400","永和區"
"234003","AAC-295","2019/08/08 18:29:39","新北市永和區光復街42號","121.516868333333","25.01792","6500400","永和區"
"232011","375-UM","2019/08/08 18:29:39","新北市坪林區坪雙路一段41號","121.711671666667","24.94245","6502000","坪林區"
"244007","080-UY","2019/08/08 18:29:55","新北市林口區中湖62號","121.384746666667","25.1008133333333","6501700","林口區"
"244023","402-UM","2019/08/08 18:29:40","新北市林口區仁愛路二段88號","121.38403","25.0751916666667","6501700","林口區"
"244013","KEA-2802","2019/08/08 18:29:43","新北市林口區文化一路二段92號","121.381583333333","25.0787616666667","6501700","林口區"
"244017","485-VK","2019/08/08 18:29:43","新北市林口區文化二路一段102號","121.367045","25.0704216666667","6501700","林口區"
"244009","656-BX","2019/08/08 18:29:43","新北市林口區寶林路99號","121.383903333333","25.0850616666667","6501700","林口區"
"244011","657-BX","2019/08/08 18:29:45","新北市林口區興林路17巷5弄2號","121.390605","25.0770083333333","6501700","林口區"
"244025","837-TS","2019/08/08 18:29:55","新北市林口區南勢六街55號","121.355818333333","25.0716933333333","6501700","林口區"
"244021","838-TS","2019/08/08 18:29:54","新北市林口區自強二街45號","121.398896666667","25.0773966666667","6501700","林口區"
"243015","680-BX","2019/08/08 18:29:50","新北市泰山區美寧街50號","121.430486666667","25.06442","6501600","泰山區"
"222003","436-BY","2019/08/08 18:29:58","新北市深坑區烏月路56-1號","121.6312","25.00574","6501800","深坑區"
"222002","659-BX","2019/08/08 18:29:59","新北市深坑區雲鄉路176號","121.622428333333","24.9981866666667","6501800","深坑區"
"231061","002-UM","2019/08/08 18:29:39","新北市新店區安華路28-1號","121.519785","24.9608716666667","6500600","新店區"
"231055","0291-UT","2019/08/08 18:29:48","新北市新店區北新路一段150號","121.54256","24.9705883333333","6500600","新店區"
"231058","0293-UT","2019/08/08 18:29:52","新北市新店區環河路19巷15號","121.537676666667","24.9601816666667","6500600","新店區"
"231044","046-UY","2019/08/08 18:29:55","新北市新店區安華路28-1號","121.519353333333","24.9605733333333","6500600","新店區"
"231060","106-UY","2019/08/08 18:29:54","新北市新店區安華路28-1號","121.51968","24.960775","6500600","新店區"
"231051","107-UY","2019/08/08 18:29:46","新北市新店區安華路28-1號","121.519591666667","24.960945","6500600","新店區"
"231062","256-BX","2019/08/08 18:29:46","新北市新店區安一路一段1-1號","121.519763333333","24.96111","6500600","新店區"
"231054","260-TV","2019/08/08 18:29:58","新北市新店區安一路一段1-1號","121.519163333333","24.9611666666667","6500600","新店區"
"231042","268-BY","2019/08/08 18:29:46","新北市新店區北新路一段72號","121.541556666667","24.9670616666667","6500600","新店區"
"231050","AAD-862","2019/08/08 18:16:57","新北市新店區安華路1-1號","121.52001","24.9602933333333","6500600","新店區"
"231045","355-BY","2019/08/08 18:29:47","新北市新店區安華路28-1號","121.51911","24.9609433333333","6500600","新店區"
"231056","4715-K9","2019/08/08 18:29:56","新北市新店區二十張路129巷5弄3號","121.536535","24.978755","6500600","新店區"
"231052","513-UM","2019/08/08 18:29:48","新北市新店區北宜路一段248號","121.545245","24.9528883333333","6500600","新店區"
"231041","619-UM","2019/08/08 18:29:37","新北市新店區安一路一段1-1號","121.519083333333","24.96103","6500600","新店區"
"231063","641-BX","2019/08/08 18:29:52","新北市新店區安華路28-1號","121.519628333333","24.9605283333333","6500600","新店區"
"231047","KED-0819","2019/08/08 18:29:58","新北市新店區安一路一段1-1號","121.519575","24.9613566666667","6500600","新店區"
"231057","720-UM","2019/08/08 18:29:45","新北市新店區安一路一段1-1號","121.519215","24.9611316666667","6500600","新店區"
"231040","898-TW","2019/08/08 18:29:44","新北市新店區安華路28-1號","121.519358333333","24.960835","6500600","新店區"
"231043","899-TW","2019/08/08 18:29:54","新北市新店區安華路28-1號","121.519305","24.960835","6500600","新店區"
"231066","AKT-0513","2019/08/08 18:29:43","新北市新店區安華路1-1號","121.519635","24.9602833333333","6500600","新店區"
"235066","003-UY","2019/08/08 18:29:55","新北市中和區中山路二段120號","121.502653333333","25.0038133333333","6500300","中和區"
"235064","005-UY","2019/08/08 18:29:52","新北市中和區連城路103號","121.496271666667","24.99953","6500300","中和區"
"235063","006-UY","2019/08/08 18:29:43","新北市中和區連城路401號","121.486176666667","24.9959383333333","6500300","中和區"
"235056","096-UM","2019/08/08 18:29:57","新北市中和區中正路1226號","121.47945","25.0108683333333","6500300","中和區"
"235039","097-UM","2019/08/08 18:30:00","新北市中和區安平路192-1號","121.513286666667","24.999275","6500300","中和區"
"235065","098-UM","2019/08/08 18:29:35","新北市中和區莊敬路49巷20弄24號","121.502791666667","25.0058666666667","6500300","中和區"
"235040","150-BY","2019/08/08 18:29:50","新北市中和區安平路59號","121.509603333333","24.995075","6500300","中和區"
"235058","151-BY","2019/08/08 18:29:38","新北市中和區圓通路369巷30弄100號","121.488393333333","24.984475","6500300","中和區"
"235055","183-VK","2019/08/08 18:29:39","新北市中和區民生街41號","121.470065","25.0053566666667","6500300","中和區"
"235038","185-VK","2019/08/08 18:29:55","新北市中和區秀朗路三段128巷17弄41號","121.522905","24.9932483333333","6500300","中和區"
"235049","186-VK","2019/08/08 18:29:45","新北市中和區景安路139號","121.505551666667","24.9955416666667","6500300","中和區"
"235067","255-BX","2019/08/08 18:29:39","新北市中和區中正路899號","121.48413","25.0048716666667","6500300","中和區"
"235044","293-VK","2019/08/08 18:29:43","新北市中和區復興路301巷2弄1號","121.501496666667","24.989895","6500300","中和區"
"235072","301-VK","2019/08/08 18:29:51","新北市中和區連城路4號","121.49921","25.0023716666667","6500300","中和區"
"235043","352-BY","2019/08/08 18:29:41","新北市中和區景平路245號","121.509158333333","24.99285","6500300","中和區"
"235042","KEA-2878","2019/08/08 18:29:51","新北市中和區自立路56巷11號","121.523016666667","24.9917133333333","6500300","中和區"
"235050","4979-A6","2019/08/08 18:29:59","新北市中和區景新街347號","121.512026666667","24.9910533333333","6500300","中和區"
"235069","4980-A6","2019/08/08 18:29:52","新北市中和區連城路127巷6弄1號","121.496538333333","24.9985233333333","6500300","中和區"
"235070","558-UM","2019/08/08 18:29:38","新北市中和區安和路159號","121.505953333333","24.9972966666667","6500300","中和區"
"235045","565-BX","2019/08/08 18:29:48","新北市中和區南山路236號","121.50645","24.9896466666667","6500300","中和區"
"235060","KED-0823","2019/08/08 18:29:40","新北市中和區中山路二段570號","121.482963333333","25.0050383333333","6500300","中和區"
"235054","640-BX","2019/08/08 18:29:57","新北市中和區民享街88巷2號","121.474556666667","25.000755","6500300","中和區"
"235047","732-UM","2019/08/08 18:29:56","新北市中和區南山路493號","121.50794","24.9878466666667","6500300","中和區"
"235046","733-UM","2019/08/08 18:29:52","新北市中和區興南路一段83號","121.509948333333","24.9888516666667","6500300","中和區"
"235062","800-TS","2019/08/08 18:29:54","新北市中和區中山路二段284號","121.496236666667","25.0024366666667","6500300","中和區"
"235057","801-TS","2019/08/08 18:29:49","新北市中和區員山路327巷11號","121.480685","25.0015183333333","6500300","中和區"
"235052","805-TS","2019/08/08 18:29:47","新北市中和區興南路二段132號","121.504273333333","24.98338","6500300","中和區"
"235048","896-TW","2019/08/08 18:29:44","新北市中和區中正路17巷2號","121.50275","24.993145","6500300","中和區"
"235053","900-TW","2019/08/08 18:29:40","新北市中和區連城路599號","121.478668333333","24.99322","6500300","中和區"
"235051","157-BY","2019/08/08 18:29:52","新北市中和區興南路二段128巷7弄6號","121.503118333333","24.983895","6500300","中和區"
"235037","AAC-213","2019/08/08 18:29:53","新北市中和區景德街61號","121.517261666667","24.99145","6500300","中和區"
"235059","AAC-215","2019/08/08 18:29:51","新北市中和區員山路36巷16-3號","121.484586666667","24.9910666666667","6500300","中和區"
"220065","072-UY","2019/08/08 18:29:43","新北市板橋區南雅南路二段76號","121.453728333333","25.001725","6500100","板橋區"
"220086","073-UY","2019/08/08 18:29:43","新北市板橋區華東街1-10號","121.448258333333","24.9950516666667","6500100","板橋區"
"220069","AAD-861","2019/08/08 18:29:58","新北市板橋區華東街1-10號","121.448618333333","24.9948166666667","6500100","板橋區"
"226004","312-R5","2019/08/08 18:29:47","新北市平溪區靜安路二段292號","121.73025","25.0223433333333","6502400","平溪區"
"235041","251-BX","2019/08/08 18:29:51","新北市中和區景安路36號","121.507188333333","24.9982533333333","6500300","中和區"
"228003","097-TW","2019/08/08 18:29:53","新北市貢寮區和美里和美街40-1號","121.912833333333","25.0903566666667","6502600","貢寮區"
"228001","212-TW","2019/08/08 18:29:53","新北市貢寮區仁理村仁和路104號","121.922896666667","25.0508083333333","6502600","貢寮區"
"228002","663-BX","2019/08/08 18:30:01","新北市貢寮區福連里福連街1號","121.988315","25.017365","6502600","貢寮區"
"224006","676-BX","2019/08/08 18:29:40","新北市瑞芳區逢甲路72號","121.810481666667","25.1082833333333","6501200","瑞芳區"
"224002","639-TC","2019/08/08 18:29:48","新北市瑞芳區三爪子坑路69巷34號","121.81243","25.10629","6501200","瑞芳區"
"224007","285-BY","2019/08/08 18:29:50","新北市瑞芳區大埔路吉慶公園城18號","121.764928333333","25.1000533333333","6501200","瑞芳區"
"224009","275-VK","2019/08/08 18:29:50","新北市瑞芳區五號路221號","121.856478333333","25.1107866666667","6501200","瑞芳區"
"224008","273-VK","2019/08/08 18:29:42","新北市瑞芳區逢甲路204號","121.80684","25.1102083333333","6501200","瑞芳區"
"224005","271-BY","2019/08/08 18:29:44","新北市瑞芳區建基路一段48號","121.817868333333","25.1270383333333","6501200","瑞芳區"
"227002","642-TC","2019/08/08 18:29:49","新北市雙溪區魚行里坤溪21號","121.870325","25.0287316666667","6502500","雙溪區"
"227001","400-TW","2019/08/08 18:29:43","新北市雙溪區牡丹里牡丹39號","121.852516666667","25.0584066666667","6502500","雙溪區"
"253006","032-BX","2019/08/08 18:29:51","新北市石門區公地52-1號","121.54515","25.2895333333333","6502200","石門區"
"253005","295-VK","2019/08/08 18:29:50","新北市石門區老崩山6-2號","121.552451666667","25.2911333333333","6502200","石門區"
"222001","KEA-2212","2019/08/08 18:29:48","新北市深坑區北深路一段185號","121.631926666667","25.0104666666667","6501800","深坑區"
"208002","KEA-2872","2019/08/08 18:29:51","新北市金山區磺清路135號","121.639486666667","25.227825","6502700","金山區"
"251004","009-UM","2019/08/08 18:29:41","新北市淡水區民族路31巷25號","121.462241666667","25.1364066666667","6501000","淡水區"
"251005","010-UM","2019/08/08 18:30:00","新北市淡水區中正東路35巷23號","121.446578333333","25.1690183333333","6501000","淡水區"
"251010","012-UM","2019/08/08 18:29:47","新北市淡水區沙崙路181巷15號","121.423885","25.1843933333333","6501000","淡水區"
"251015","KEA-2871","2019/08/08 18:29:47","新北市淡水區興福寮88巷216號","121.485935","25.1666333333333","6501000","淡水區"
"251016","179-VK","2019/08/08 18:29:40","新北市淡水區下圭柔山106號","121.443645","25.2093233333333","6501000","淡水區"
"251008","181-VK","2019/08/08 18:29:47","新北市淡水區水源街二段346巷1弄1號","121.464356666667","25.175505","6501000","淡水區"
"251013","182-VK","2019/08/08 18:29:42","新北市淡水區椿子林20-1號","121.4816","25.203895","6501000","淡水區"
"251012","441-VK","2019/08/08 18:29:48","新北市淡水區北新路一段130號","121.458528333333","25.1823083333333","6501000","淡水區"
"251001","559-UM","2019/08/08 18:29:56","新北市淡水區自強路120-2號","121.464236666667","25.1329366666667","6501000","淡水區"
"251006","561-UM","2019/08/08 18:29:53","新北市淡水區新生街51巷10號","121.440566666667","25.175115","6501000","淡水區"
"251014","577-R6","2019/08/08 18:29:52","新北市淡水區南平20號","121.49437","25.216435","6501000","淡水區"
"251011","650-BX","2019/08/08 18:29:51","新北市淡水區坪頂路51巷2號","121.458145","25.16253","6501000","淡水區"
"251002","672-BX","2019/08/08 18:29:43","新北市淡水區竿蓁二街60號","121.455151666667","25.1633966666667","6501000","淡水區"
"251003","766-UM","2019/08/08 18:29:52","新北市淡水區北新路199號","121.45008","25.1802633333333","6501000","淡水區"
"207003","550-UM","2019/08/08 18:29:50","新北市萬里區野柳里港東路23號","121.68738","25.2036583333333","6502800","萬里區"
"207004","225-TW","2019/08/08 18:29:30","新北市萬里區萬里里瑪鋉路21號","121.687445","25.1754333333333","6502800","萬里區"
"252002","178-VK","2019/08/08 18:29:52","新北市三芝區中山路二段41號","121.502958333333","25.2550883333333","6502100","三芝區"
"252003","249-BX","2019/08/08 18:29:43","新北市三芝區後厝里北勢子45-25號","121.468776666667","25.250585","6502100","三芝區"
"208001","170-UY","2019/08/08 18:29:43","新北市金山區文化二路4號","121.636838333333","25.2245966666667","6502700","金山區"
"237004","KEA-2597","2019/08/08 18:29:50","新北市三峽區五寮104號","121.363378333333","24.8611216666667","6500900","三峽區"
"237007","153-BY","2019/08/08 18:29:50","新北市三峽區中正路三段112號","121.355255","24.9034816666667","6500900","三峽區"
"237009","210-TH","2019/08/08 18:29:37","新北市三峽區民權街231號","121.367948333333","24.92789","6500900","三峽區"
"237013","252-BX","2019/08/08 18:29:55","新北市三峽區光明路69巷25號","121.376601666667","24.92913","6500900","三峽區"
"237012","275-BY","2019/08/08 18:29:43","新北市三峽區三樹路100號","121.378325","24.93894","6500900","三峽區"
"237008","302-VK","2019/08/08 18:29:53","新北市三峽區白雞68-153號","121.390428333333","24.90859","6500900","三峽區"
"237014","433-BY","2019/08/08 18:29:44","新北市三峽區文化路68號","121.37227","24.936135","6500900","三峽區"
"237006","5529-G3","2019/08/08 18:29:49","新北市三峽區溪東路473巷74號","121.415425","24.9293583333333","6500900","三峽區"
"237011","KEA-2596","2019/08/08 18:29:42","新北市三峽區溪東路218巷1號","121.40737","24.93146","6500900","三峽區"
"237015","649-BX","2019/08/08 18:29:41","新北市三峽區竹崙路109號","121.433431666667","24.913335","6500900","三峽區"
"237010","706-TV","2019/08/08 18:29:39","新北市三峽區民權街147號","121.368841666667","24.93166","6500900","三峽區"
"237005","AKY-6261","2019/08/08 18:29:58","新北市三峽區民族街5巷26號","121.369763333333","24.9320333333333","6500900","三峽區"
"236042","KED-0685","2019/08/08 18:29:55","新北市土城區學成路91巷3號","121.450528333333","24.98774","6501300","土城區"
"236078","166-UM","2019/08/08 18:29:53","新北市土城區中央路四段1號","121.4257","24.9629766666667","6501300","土城區"
"236030","253-BX","2019/08/08 18:29:39","新北市土城區福仁街50巷21號","121.439243333333","24.9754433333333","6501300","土城區"
"236026","269-VK","2019/08/08 18:29:51","新北市土城區南天母路111巷2號","121.447783333333","24.9547916666667","6501300","土城區"
"236014","270-VK","2019/08/08 18:29:39","新北市土城區青雲路39巷7號","121.460296666667","24.9874033333333","6501300","土城區"
"236038","271-VK","2019/08/08 18:29:54","新北市土城區青雲路449號","121.458893333333","24.97512","6501300","土城區"
"236070","KEA-2877","2019/08/08 18:29:49","新北市土城區永豐路255巷27弄24號","121.476648333333","24.9735283333333","6501300","土城區"
"252001","KED-0821","2019/08/08 18:29:57","新北市三芝區中興街二段14號","121.498611666667","25.2562466666667","6502100","三芝區"
"236021","401-BY","2019/08/08 18:29:54","新北市土城區永豐路202巷14號","121.466335","24.9834516666667","6501300","土城區"
"236059","912-UM","2019/08/08 18:29:40","新北市土城區中央路四段129號","121.416151666667","24.9575066666667","6501300","土城區"
"236049","913-UM","2019/08/08 18:29:44","新北市土城區青雲路418號","121.458805","24.9723933333333","6501300","土城區"
"236063","915-UM","2019/08/08 18:29:38","新北市土城區延壽路77巷6弄4號","121.468541666667","24.992695","6501300","土城區"
"236055","AAC-216","2019/08/08 18:29:50","新北市土城區中華路二段87-1號","121.439333333333","24.9775866666667","6501300","土城區"
"242061","986-R7","2019/08/08 18:29:53","新北市新莊區新樹路132號","121.435736666667","25.0237233333333","6500500","新莊區"
"242002","751-BX","2019/08/08 18:29:46","新北市新莊區碧江街92號","121.450896666667","25.032485","6500500","新莊區"
"242027","613-BX","2019/08/08 18:29:49","新北市新莊區幸福路904號","121.443046666667","25.0489883333333","6500500","新莊區"
"242058","612-BX","2019/08/08 18:29:55","新北市新莊區新北大道七段850號","121.413835","25.023515","6500500","新莊區"
"242046","566-BX","2019/08/08 18:29:44","新北市新莊區中正路803巷40號","121.42168","25.0278483333333","6500500","新莊區"
"242056","441-UM","2019/08/08 18:29:51","新北市新莊區瓊林路51-3號","121.44517","25.027565","6500500","新莊區"
"242042","415-TV","2019/08/08 18:29:39","新北市新莊區天祥街71巷16號","121.415426666667","25.0284533333333","6500500","新莊區"
"242011","413-TV","2019/08/08 18:29:44","新北市新莊區中信街74號","121.448455","25.0526983333333","6500500","新莊區"
"242025","362-BY","2019/08/08 18:29:53","新北市新莊區五工路99-2號","121.457136666667","25.0639333333333","6500500","新莊區"
"242053","172-VK","2019/08/08 18:29:43","新北市新莊區樹新路120巷15號","121.43061","24.9965683333333","6500500","新莊區"
"242007","349-TH","2019/08/08 18:29:42","新北市新莊區中華路二段39號","121.453371666667","25.0465783333333","6500500","新莊區"
"238015","755-BX","2019/08/08 18:29:55","新北市樹林區備內街5號","121.413018333333","24.9868866666667","6500700","樹林區"
"238023","601-UM","2019/08/08 18:29:41","新北市樹林區三福街114號","121.406351666667","25.0163916666667","6500700","樹林區"
"238019","599-UM","2019/08/08 18:29:53","新北市樹林區國凱街112號","121.422068333333","24.9796816666667","6500700","樹林區"
"238024","5061-A6","2019/08/08 18:30:00","新北市樹林區育英街1-1號","121.422648333333","24.9889916666667","6500700","樹林區"
"238018","KEA-2217","2019/08/08 18:29:54","新北市樹林區樹新路50巷5弄7號","121.429603333333","24.997085","6500700","樹林區"
"238025","303-VK","2019/08/08 18:29:44","新北市樹林區保安街一段72號","121.424855","24.99438","6500700","樹林區"
"238017","283-BY","2019/08/08 18:29:41","新北市樹林區保安街二段337巷31號","121.411008333333","25.0082366666667","6500700","樹林區"
"238020","268-VK","2019/08/08 18:29:45","新北市樹林區三龍街28-3號","121.41151","25.0179383333333","6500700","樹林區"
"238026","172-UY","2019/08/08 18:29:53","新北市樹林區佳園路一段75巷208號","121.397246666667","24.9705133333333","6500700","樹林區"
"238016","169-UY","2019/08/08 18:29:46","新北市樹林區中山路二段80-1號","121.414878333333","24.9839633333333","6500700","樹林區"
"239007","AAC-297","2019/08/08 18:29:39","新北市鶯歌區重慶街86號","121.348506666667","24.9521083333333","6500800","鶯歌區"
"239006","891-R6","2019/08/08 18:29:52","新北市鶯歌區德昌街140巷83號","121.332566666667","24.9624116666667","6500800","鶯歌區"
"239008","527-UM","2019/08/08 18:29:40","新北市鶯歌區朝陽街2號","121.336233333333","24.9766033333333","6500800","鶯歌區"
"239001","417-VK","2019/08/08 18:29:47","新北市鶯歌區國中街110號","121.340018333333","24.940325","6500800","鶯歌區"
"239003","360-BY","2019/08/08 18:29:41","新北市鶯歌區福安街58號","121.335555","24.9652066666667","6500800","鶯歌區"
"239002","359-BY","2019/08/08 18:29:48","新北市鶯歌區文昌街2號","121.350553333333","24.9541666666667","6500800","鶯歌區"
"239004","193-VK","2019/08/08 18:29:49","新北市鶯歌區尖山路190號","121.3441","24.9474116666667","6500800","鶯歌區"
"221036","130-UY","2019/08/08 18:29:49","新北市汐止區大同路三段139巷1弄5號","121.669163333333","25.0777","6501100","汐止區"
"221015","131-UY","2019/08/08 18:29:56","新北市汐止區鄉長路二段63號","121.666766666667","25.0843266666667","6501100","汐止區"
"244019","KED-0667","2019/08/08 18:29:51","新北市林口區忠孝路622巷1弄2號","121.377798333333","25.0676483333333","6501700","林口區"
"221010","269-BY","2019/08/08 18:29:50","新北市汐止區汐萬路35號","121.644161666667","25.0915916666667","6501100","汐止區"
"221012","278-VK","2019/08/08 18:29:59","新北市汐止區保長路35巷15弄2號","121.673281666667","25.0800916666667","6501100","汐止區"
"221023","279-VK","2019/08/08 18:29:44","新北市汐止區康寧街474巷7-2號","121.632315","25.0678933333333","6501100","汐止區"
"221032","280-BY","2019/08/08 18:29:53","新北市汐止區民權街二段109巷32號","121.620051666667","25.0464383333333","6501100","汐止區"
"221027","281-BY","2019/08/08 18:29:56","新北市汐止區和平街57號","121.661795","25.07069","6501100","汐止區"
"221029","298-VK","2019/08/08 18:29:39","新北市汐止區樟樹二路330巷72號","121.642995","25.069995","6501100","汐止區"
"221021","299-VK","2019/08/08 18:29:47","新北市汐止區大同路二段184巷6號","121.653083333333","25.0637916666667","6501100","汐止區"
"221031","353-TW","2019/08/08 18:29:49","新北市汐止區光復街8巷23-1號","121.637896666667","25.057095","6501100","汐止區"
"221035","622-UM","2019/08/08 18:29:47","新北市汐止區汐萬路一段16號","121.656121666667","25.067495","6501100","汐止區"
"221025","623-UM","2019/08/08 18:29:44","新北市汐止區仁愛路119巷2號","121.662733333333","25.0637366666667","6501100","汐止區"
"221038","646-BX","2019/08/08 18:29:51","新北市汐止區忠孝東路304號","121.664256666667","25.06874","6501100","汐止區"
"221033","647-BX","2019/08/08 18:29:19","新北市汐止區宜興街75號","121.622986666667","25.0432516666667","6501100","汐止區"
"221002","707-TV","2019/08/08 18:29:48","新北市汐止區福德一路148號","121.636663333333","25.06687","6501100","汐止區"
"221018","753-BX","2019/08/08 18:29:41","新北市汐止區茄苳路120巷4號","121.667636666667","25.069945","6501100","汐止區"
"220082","610-BX","2019/08/08 18:29:53","新北市板橋區華東街1-9號","121.448265","24.994895","6500100","板橋區"
"220084","256-TC","2019/08/08 18:29:47","新北市板橋區華東街1-9號","121.44814","24.9949783333333","6500100","板橋區"
"220056","276-BY","2019/08/08 18:29:56","新北市板橋區華東街1-9號","121.44808","24.9949416666667","6500100","板橋區"
"220071","283-VK","2019/08/08 18:29:38","新北市板橋區華東街1-9號","121.448038333333","24.99492","6500100","板橋區"
"220094","285-UM","2019/08/08 18:29:44","新北市板橋區民生路二段120號","121.47035","25.0196683333333","6500100","板橋區"
"220090","288-VK","2019/08/08 18:29:41","新北市板橋區民生路二段120號","121.47035","25.0198083333333","6500100","板橋區"
"242044","281-VK","2019/08/08 18:29:37","新北市新莊區鳳山街56巷35號","121.413758333333","25.0268116666667","6500500","新莊區"
"220080","568-UM","2019/08/08 18:29:51","新北市板橋區華東街1-9號","121.448115","24.994905","6500100","板橋區"
"220057","686-BX","2019/08/08 18:29:51","新北市板橋區南雅南路二段144巷6號","121.451253333333","24.9960433333333","6500100","板橋區"
"220077","687-BX","2019/08/08 18:29:54","新北市板橋區華東街1-10號","121.448261666667","24.9950633333333","6500100","板橋區"
"220054","741-BX","2019/08/08 18:29:44","新北市板橋區華東街1-9號","121.44811","24.9949716666667","6500100","板橋區"
"220073","985-R7","2019/08/08 18:29:44","新北市板橋區四川路二段140巷2號","121.449831666667","24.993095","6500100","板橋區"
"220097","AAC-210","2019/08/08 18:29:47","新北市板橋區民生路二段161巷9號","121.470256666667","25.0196666666667","6500100","板橋區"
"220064","AAC-253","2019/08/08 18:29:54","新北市板橋區大觀路二段37巷282-17號","121.451441666667","25.0004366666667","6500100","板橋區"
"235068","KEA-2873","2019/08/08 18:29:53","新北市中和區中正路271-4號","121.495853333333","24.99336","6500300","中和區"
"235061","KEA-2875","2019/08/08 18:29:36","新北市中和區民享街93巷14號","121.47539","25.0010333333333","6500300","中和區"
