"lineid","car","time","location","longitude","latitude","cityid","cityname"
"234046","148-BY","2019/08/08 19:19:41","新北市永和區得和路359號","121.524451666667","24.9993866666667","6500400","永和區"
"234081","298-R6","2019/08/08 19:19:38","新北市永和區福和路38號","121.523726666667","25.0083183333333","6500400","永和區"
"234038","336-UY","2019/08/08 19:19:57","新北市永和區民樂街55巷2號","121.52745","24.9984183333333","6500400","永和區"
"234064","337-UY","2019/08/08 19:19:55","新北市永和區永元路17巷6弄2號","121.521395","25.0006783333333","6500400","永和區"
"234086","338-UY","2019/08/08 19:19:44","新北市永和區永利路85-1號","121.52138","25.003325","6500400","永和區"
"234070","552-UM","2019/08/08 19:19:58","新北市永和區中正路696-1號","121.51649","25.0098166666667","6500400","永和區"
"234017","745-BX","2019/08/08 19:19:42","新北市永和區文化路144巷27號","121.512443333333","25.0167516666667","6500400","永和區"
"234030","746-BX","2019/08/08 19:19:52","新北市永和區厚德街69號","121.524963333333","24.9986266666667","6500400","永和區"
"234054","KEA-2590","2019/08/08 19:19:43","新北市永和區中興街33號","121.516181666667","25.0118416666667","6500400","永和區"
"234007","KED-0605","2019/08/08 19:19:42","新北市永和區中山路一段224號","121.50812","25.0082383333333","6500400","永和區"
"234013","KEA-2591","2019/08/08 19:19:40","新北市永和區信義路56號","121.51306","25.01259","6500400","永和區"
"234061","AAD-866","2019/08/08 19:19:43","新北市永和區中正路381號","121.517223333333","25.0036616666667","6500400","永和區"
"234042","862-TW","2019/08/08 19:19:52","新北市永和區保平路151巷3號","121.51018","25.0055933333333","6500400","永和區"
"234050","863-TW","2019/08/08 19:19:43","新北市永和區仁愛路104巷8號","121.512093333333","25.0135916666667","6500400","永和區"
"234026","9371-KE","2019/08/08 19:19:48","新北市永和區得和路42巷23號","121.51534","24.9997","6500400","永和區"
"234011","9373-KE","2019/08/08 19:19:47","新北市永和區保福路二段23巷7號","121.51052","25.0111433333333","6500400","永和區"
"249001","173-UM","2019/08/08 19:19:59","新北市八里區龍米路一段125號","121.452326666667","25.1264866666667","6502300","八里區"
"249003","593-UM","2019/08/08 19:19:41","新北市八里區中山路二段460號","121.399081666667","25.1472433333333","6502300","八里區"
"248014","025-BX","2019/08/08 19:19:55","新北市五股區民義路一段185-19號","121.431276666667","25.0874516666667","6501500","五股區"
"248008","KED-0815","2019/08/08 19:19:41","新北市五股區中興路二段83巷26-6號","121.459948333333","25.075265","6501500","五股區"
"248020","KED-0813","2019/08/08 19:19:57","新北市五股區凌雲路三段57號","121.425286666667","25.1249716666667","6501500","五股區"
"248012","247-BX","2019/08/08 19:19:49","新北市五股區中興路四段48巷16號","121.438626666667","25.083415","6501500","五股區"
"248010","272-BY","2019/08/08 19:19:47","新北市五股區自強路90巷72號","121.430688333333","25.0712716666667","6501500","五股區"
"248004","677-BX","2019/08/08 19:19:49","新北市五股區五福路149號","121.432021666667","25.091385","6501500","五股區"
"248002","678-BX","2019/08/08 19:19:52","新北市五股區凌雲路一段158巷6號","121.447811666667","25.1029533333333","6501500","五股區"
"234023","9380-KE","2019/08/08 19:19:53","新北市永和區竹林路124巷31號","121.5184","25.01119","6500400","永和區"
"234077","969-R7","2019/08/08 19:19:52","新北市永和區民族街44號","121.518431666667","24.9987583333333","6500400","永和區"
"234074","AAC-211","2019/08/08 19:19:54","新北市永和區竹林路104號","121.519698333333","25.0119466666667","6500400","永和區"
"234067","AAC-212","2019/08/08 19:19:56","新北市永和區保平路44號","121.511408333333","25.0070516666667","6500400","永和區"
"234003","AAC-295","2019/08/08 19:19:59","新北市永和區中山路一段105號","121.511043333333","25.0103583333333","6500400","永和區"
"244023","402-UM","2019/08/08 19:19:40","新北市林口區仁愛路二段377號","121.370316666667","25.07996","6501700","林口區"
"244009","656-BX","2019/08/08 19:19:43","新北市林口區嘉寶里3-1號","121.365585","25.0952383333333","6501700","林口區"
"244025","837-TS","2019/08/08 19:19:55","新北市林口區民族路220號","121.369151666667","25.0779033333333","6501700","林口區"
"243012","AAD-798","2019/08/08 19:19:55","新北市泰山區同義街22號","121.431616666667","25.0563283333333","6501600","泰山區"
"243010","297-R6","2019/08/08 19:19:55","新北市泰山區明志路一段492巷7號","121.429995","25.0547716666667","6501600","泰山區"
"243014","KEA-2801","2019/08/08 19:19:42","新北市泰山區泰林路二段143號","121.433988333333","25.0601616666667","6501600","泰山區"
"243016","421-VK","2019/08/08 19:19:49","新北市泰山區工專路38號","121.42326","25.0400016666667","6501600","泰山區"
"243009","KEA-2215","2019/08/08 19:19:53","新北市泰山區明志路一段63號","121.433705","25.06478","6501600","泰山區"
"243011","KEA-2216","2019/08/08 19:19:43","新北市泰山區中央路36巷1號","121.426275","25.042695","6501600","泰山區"
"243013","646-TV","2019/08/08 19:19:51","新北市泰山區明志路三段145巷7號","121.425443333333","25.0399733333333","6501600","泰山區"
"243015","680-BX","2019/08/08 19:19:50","新北市泰山區公園路40號","121.428886666667","25.0543916666667","6501600","泰山區"
"222003","436-BY","2019/08/08 19:19:58","新北市深坑區深南路91號","121.626558333333","25.01597","6501800","深坑區"
"222002","659-BX","2019/08/08 19:19:47","新北市深坑區北深路一段177號","121.632503333333","25.0109283333333","6501800","深坑區"
"231061","002-UM","2019/08/08 19:19:59","新北市新店區安康路一段61號","121.53049","24.9610216666667","6500600","新店區"
"231058","0293-UT","2019/08/08 19:19:52","新北市新店區光明街286巷21號","121.541106666667","24.963425","6500600","新店區"
"231044","046-UY","2019/08/08 19:19:55","新北市新店區中興路三段328號","121.542048333333","24.9863766666667","6500600","新店區"
"231060","106-UY","2019/08/08 19:19:54","新北市新店區安康路二段111號","121.512595","24.96184","6500600","新店區"
"231051","107-UY","2019/08/08 19:19:46","新北市新店區中央路63號","121.53249","24.97714","6500600","新店區"
"231049","108-UY","2019/08/08 19:19:41","新北市新店區北新路三段14號","121.542445","24.97927","6500600","新店區"
"231065","110-UY","2019/08/08 19:19:43","新北市新店區安祥路108巷27號","121.47524","24.9575983333333","6500600","新店區"
"231062","256-BX","2019/08/08 19:19:46","新北市新店區安康路一段100號","121.52741","24.962345","6500600","新店區"
"231054","260-TV","2019/08/08 19:19:38","新北市新店區文中路58號","121.540361666667","24.9565316666667","6500600","新店區"
"231042","268-BY","2019/08/08 19:19:45","新北市新店區北宜路一段3號","121.538358333333","24.9584016666667","6500600","新店區"
"231064","278-BY","2019/08/08 19:19:42","新北市新店區安忠路57巷1-5號","121.5135","24.9595216666667","6500600","新店區"
"231050","AAD-862","2019/08/08 19:19:38","新北市新店區竹林路65號","121.553008333333","24.9512716666667","6500600","新店區"
"231045","355-BY","2019/08/08 19:19:47","新北市新店區北宜路一段260號","121.545705","24.9527566666667","6500600","新店區"
"231056","4715-K9","2019/08/08 19:19:56","新北市新店區薏仁坑路自強巷6號","121.49716","24.9587716666667","6500600","新店區"
"231052","513-UM","2019/08/08 19:19:48","新北市新店區自強路211號","121.546818333333","24.9195916666667","6500600","新店區"
"231041","619-UM","2019/08/08 19:19:57","新北市新店區溪園路255巷25號","121.523991666667","24.9807916666667","6500600","新店區"
"231063","641-BX","2019/08/08 19:19:52","新北市新店區達觀路14巷1號","121.504385","24.9417516666667","6500600","新店區"
"231047","KED-0819","2019/08/08 19:19:58","新北市新店區中興路二段57巷22號","121.545706666667","24.9710516666667","6500600","新店區"
"231046","719-UM","2019/08/08 19:19:49","新北市新店區秀山路20號","121.532423333333","24.9604333333333","6500600","新店區"
"231057","720-UM","2019/08/08 19:19:45","新北市新店區百齡一路12號","121.553051666667","24.9324566666667","6500600","新店區"
"231059","897-TW","2019/08/08 19:19:55","新北市新店區安和路二段232-1號","121.516778333333","24.9770116666667","6500600","新店區"
"231040","898-TW","2019/08/08 19:19:44","新北市新店區三民路64號","121.535073333333","24.972205","6500600","新店區"
"231043","899-TW","2019/08/08 19:19:54","新北市新店區北新路二段107號","121.54289","24.9745533333333","6500600","新店區"
"231066","AKT-0513","2019/08/08 19:19:43","新北市新店區安康路三段466-2號","121.484073333333","24.9509333333333","6500600","新店區"
"241011","013-R5","2019/08/08 19:19:39","新北市三重區河邊北街128巷2號","121.503425","25.071695","6500200","三重區"
"241022","060-VK","2019/08/08 19:19:55","新北市三重區重陽路二段56號","121.487218333333","25.0634566666667","6500200","三重區"
"241031","061-VK","2019/08/08 19:19:48","新北市三重區重新路四段101號","121.485665","25.05454","6500200","三重區"
"241017","063-VK","2019/08/08 19:19:41","新北市三重區大同北路182號","121.4915","25.0658416666667","6500200","三重區"
"241006","262-UM","2019/08/08 19:19:54","新北市三重區車路頭街149-2號","121.483756666667","25.0769066666667","6500200","三重區"
"241009","267-UM","2019/08/08 19:19:49","新北市三重區溪尾街218巷37-5號","121.486466666667","25.0812283333333","6500200","三重區"
"241007","398-BY","2019/08/08 19:19:45","新北市三重區慈愛街66號","121.487176666667","25.0795433333333","6500200","三重區"
"241030","KED-0822","2019/08/08 19:19:52","新北市三重區成功路41巷72號","121.491318333333","25.053115","6500200","三重區"
"241035","462-BY","2019/08/08 19:19:46","新北市三重區信義西街138號","121.495438333333","25.0643666666667","6500200","三重區"
"241020","478-VK","2019/08/08 19:19:47","新北市三重區大智街242號","121.489356666667","25.073045","6500200","三重區"
"241026","480-VK","2019/08/08 19:19:52","新北市三重區重安街148巷37號","121.496571666667","25.05483","6500200","三重區"
"241029","942-UM","2019/08/08 19:19:38","新北市三重區重安街27號","121.491121666667","25.0570416666667","6500200","三重區"
"235066","003-UY","2019/08/08 19:19:55","新北市中和區中和路155號","121.502683333333","24.99983","6500300","中和區"
"235064","005-UY","2019/08/08 19:19:52","新北市中和區南山路81巷19號","121.50256","24.9980666666667","6500300","中和區"
"235063","006-UY","2019/08/08 19:19:43","新北市中和區圓通路198巷11號","121.495478333333","24.9943516666667","6500300","中和區"
"235056","096-UM","2019/08/08 19:19:57","新北市中和區員山路466號","121.479971666667","25.0064366666667","6500300","中和區"
"235039","097-UM","2019/08/08 19:19:59","新北市中和區秀峰街103巷2弄4號","121.51994","24.99052","6500300","中和區"
"235065","098-UM","2019/08/08 19:19:55","新北市中和區中山路二段2巷3弄11號","121.504516666667","25.0056983333333","6500300","中和區"
"235040","150-BY","2019/08/08 19:19:50","新北市中和區保健路50巷1-2號","121.51042","24.996755","6500300","中和區"
"235058","151-BY","2019/08/08 19:19:58","新北市中和區員山路36巷16-2號","121.48535","24.9913583333333","6500300","中和區"
"235055","183-VK","2019/08/08 19:19:38","新北市中和區莒光路120巷12號","121.471561666667","25.0018533333333","6500300","中和區"
"235038","185-VK","2019/08/08 19:19:55","新北市中和區大仁街106號","121.520453333333","24.99307","6500300","中和區"
"235049","186-VK","2019/08/08 19:19:45","新北市中和區景新街258號","121.509595","24.9933083333333","6500300","中和區"
"235067","255-BX","2019/08/08 19:19:39","新北市中和區中正路679號","121.484883333333","24.9974333333333","6500300","中和區"
"235044","293-VK","2019/08/08 19:19:43","新北市中和區復興路305號","121.501395","24.9902233333333","6500300","中和區"
"235072","301-VK","2019/08/08 19:19:51","新北市中和區連城路215號","121.494386666667","24.9978283333333","6500300","中和區"
"235043","352-BY","2019/08/08 19:19:41","新北市中和區景平路474號","121.505388333333","24.9935716666667","6500300","中和區"
"235042","KEA-2878","2019/08/08 19:19:51","新北市中和區安樂路217巷45號","121.51333","24.9978216666667","6500300","中和區"
"235050","4979-A6","2019/08/08 19:19:59","新北市中和區景安路208巷21號","121.502471666667","24.991805","6500300","中和區"
"235069","4980-A6","2019/08/08 19:19:52","新北市中和區莊敬路31巷32-1號","121.500001666667","25.0056883333333","6500300","中和區"
"235070","558-UM","2019/08/08 19:19:58","新北市中和區中和路10號","121.499541666667","25.002155","6500300","中和區"
"235045","565-BX","2019/08/08 19:19:54","新北市中和區景新街383巷36號","121.513728333333","24.9907116666667","6500300","中和區"
"235060","KED-0823","2019/08/08 19:19:40","新北市中和區民有街17號","121.475693333333","25.0054033333333","6500300","中和區"
"235054","640-BX","2019/08/08 19:19:55","新北市中和區國光街112巷22弄20號","121.470625","25.002215","6500300","中和區"
"235047","732-UM","2019/08/08 19:19:56","新北市中和區景平路239巷34號","121.50844","24.992185","6500300","中和區"
"235046","733-UM","2019/08/08 19:19:52","新北市中和區忠孝街2巷9弄18號","121.51063","24.9823816666667","6500300","中和區"
"235071","783-BX","2019/08/08 19:19:43","新北市中和區中正路637巷52弄1號","121.485466666667","24.99367","6500300","中和區"
"235057","801-TS","2019/08/08 19:19:29","新北市中和區員山路457號","121.480508333333","25.0043783333333","6500300","中和區"
"235052","805-TS","2019/08/08 19:19:47","新北市中和區華新街133號","121.506735","24.9818466666667","6500300","中和區"
"235048","896-TW","2019/08/08 19:19:44","新北市中和區忠孝街122-2號","121.512121666667","24.985945","6500300","中和區"
"235053","900-TW","2019/08/08 19:19:59","新北市中和區華安街17巷1號","121.466593333333","24.9982233333333","6500300","中和區"
"235051","157-BY","2019/08/08 19:19:53","新北市中和區和平街2巷4弄12號","121.510265","24.9908633333333","6500300","中和區"
"235037","AAC-213","2019/08/08 19:19:53","新北市中和區秀朗路三段10巷14弄13號","121.524766666667","24.9964833333333","6500300","中和區"
"235059","AAC-215","2019/08/08 19:19:51","新北市中和區圓通路286巷10號","121.491578333333","24.9911966666667","6500300","中和區"
"220065","072-UY","2019/08/08 19:19:43","新北市板橋區民族路129巷10號","121.467671666667","25.0084283333333","6500100","板橋區"
"220086","073-UY","2019/08/08 19:19:43","新北市板橋區國光路173巷3弄2號","121.460298333333","25.0190366666667","6500100","板橋區"
"220106","075-UY","2019/08/08 19:19:54","新北市板橋區文化路二段441巷2弄1號","121.474638333333","25.0334016666667","6500100","板橋區"
"220069","AAD-861","2019/08/08 19:19:38","新北市板橋區貴興路39號","121.457511666667","25.0037383333333","6500100","板橋區"
"226004","312-R5","2019/08/08 19:19:58","新北市平溪區靜安路三段258號","121.776145","25.0403183333333","6502400","平溪區"
"235041","251-BX","2019/08/08 19:19:51","新北市中和區中和路324巷5號","121.510145","25.000825","6500300","中和區"
"228003","097-TW","2019/08/08 19:19:53","新北市貢寮區和美里和美街23-1號","121.913063333333","25.0826433333333","6502600","貢寮區"
"228001","212-TW","2019/08/08 19:19:53","新北市貢寮區真理里新港街10號","121.92554","25.054365","6502600","貢寮區"
"228002","663-BX","2019/08/08 19:19:41","新北市貢寮區龍門里復興街2-3號","121.927245","25.02772","6502600","貢寮區"
"224008","273-VK","2019/08/08 19:19:42","新北市瑞芳區逢甲路402號","121.796488333333","25.1127883333333","6501200","瑞芳區"
"227002","642-TC","2019/08/08 19:19:49","新北市雙溪區平林里梅竹蹊66-1號","121.86017","25.0358233333333","6502500","雙溪區"
"227001","400-TW","2019/08/08 19:19:43","新北市雙溪區新基里中華路28-1號","121.867038333333","25.0368933333333","6502500","雙溪區"
"253006","032-BX","2019/08/08 19:19:51","新北市石門區楓林17-6號","121.5364","25.2920316666667","6502200","石門區"
"253005","295-VK","2019/08/08 19:19:50","新北市石門區阿里荖6-2號","121.609863333333","25.2799533333333","6502200","石門區"
"222001","KEA-2212","2019/08/08 19:19:48","新北市深坑區北深路二段97號","121.617676666667","25.0032433333333","6501800","深坑區"
"208002","KEA-2872","2019/08/08 19:19:51","新北市金山區中正路136號","121.631671666667","25.2217416666667","6502700","金山區"
"208003","665-BX","2019/08/08 19:19:46","新北市金山區忠孝一路42號","121.63788","25.22012","6502700","金山區"
"251009","008-UM","2019/08/08 19:19:51","新北市淡水區清水街99-1號","121.440755","25.1707183333333","6501000","淡水區"
"251005","010-UM","2019/08/08 19:19:39","新北市淡水區水源街一段34巷2號","121.44323","25.1722066666667","6501000","淡水區"
"251010","012-UM","2019/08/08 19:19:47","新北市淡水區中正路二段22巷43號","121.421371666667","25.18249","6501000","淡水區"
"251015","KEA-2871","2019/08/08 19:19:47","新北市淡水區南勢埔47號","121.484571666667","25.180915","6501000","淡水區"
"251016","179-VK","2019/08/08 19:19:40","新北市淡水區淡金路三段350巷18號","121.450765","25.2083316666667","6501000","淡水區"
"251008","181-VK","2019/08/08 19:19:47","新北市淡水區新民街一段127號","121.427858333333","25.18836","6501000","淡水區"
"251013","182-VK","2019/08/08 19:19:42","新北市淡水區安子內12-1號","121.481518333333","25.2191","6501000","淡水區"
"251007","442-VK","2019/08/08 19:19:56","新北市淡水區民生路119號","121.465153333333","25.1387283333333","6501000","淡水區"
"251001","559-UM","2019/08/08 19:19:56","新北市淡水區自強路201巷39號","121.462073333333","25.1268233333333","6501000","淡水區"
"251014","577-R6","2019/08/08 19:19:51","新北市淡水區小中寮19-7號","121.48478","25.2296316666667","6501000","淡水區"
"251002","672-BX","2019/08/08 19:19:43","新北市淡水區文化路15號","121.439573333333","25.1725683333333","6501000","淡水區"
"251003","766-UM","2019/08/08 19:19:52","新北市淡水區中山北路一段33號","121.441628333333","25.1753283333333","6501000","淡水區"
"207003","550-UM","2019/08/08 19:19:50","新北市萬里區大鵬里萬里加投19-10號","121.649788333333","25.2099116666667","6502800","萬里區"
"207004","225-TW","2019/08/08 19:19:50","新北市萬里區萬里里成功新村65號","121.68831","25.174585","6502800","萬里區"
"252002","178-VK","2019/08/08 19:19:52","新北市三芝區淡金路二段18-1號","121.502653333333","25.2594883333333","6502100","三芝區"
"208001","170-UY","2019/08/08 19:19:43","新北市金山區民生路69號","121.640145","25.219675","6502700","金山區"
"237004","KEA-2597","2019/08/08 19:19:50","新北市三峽區有木206號","121.439083333333","24.8514516666667","6500900","三峽區"
"237007","153-BY","2019/08/08 19:19:50","新北市三峽區二鬮路136巷16弄41號","121.359141666667","24.9092533333333","6500900","三峽區"
"237009","210-TH","2019/08/08 19:19:57","新北市三峽區民生街207號","121.371681666667","24.9347516666667","6500900","三峽區"
"237013","252-BX","2019/08/08 19:19:55","新北市三峽區光明路75巷19號","121.377293333333","24.928115","6500900","三峽區"
"237012","275-BY","2019/08/08 19:19:43","新北市三峽區三樹路222巷236弄8-3號","121.391383333333","24.9430083333333","6500900","三峽區"
"237008","302-VK","2019/08/08 19:19:53","新北市三峽區光明路106巷19號","121.376018333333","24.92718","6500900","三峽區"
"237014","433-BY","2019/08/08 19:19:58","新北市三峽區中山路239號","121.362668333333","24.93721","6500900","三峽區"
"237006","5529-G3","2019/08/08 19:19:49","新北市三峽區介壽路一段383-1號","121.387768333333","24.9338833333333","6500900","三峽區"
"237011","KEA-2596","2019/08/08 19:19:42","新北市三峽區介壽路三段71號","121.395486666667","24.9381833333333","6500900","三峽區"
"237015","649-BX","2019/08/08 19:19:41","新北市三峽區安坑64-4號","121.469018333333","24.9296783333333","6500900","三峽區"
"237010","706-TV","2019/08/08 19:19:39","新北市三峽區國光街153號","121.37197","24.9393683333333","6500900","三峽區"
"237005","AKY-6261","2019/08/08 19:19:58","新北市三峽區中山路459巷50-1號","121.356328333333","24.9372883333333","6500900","三峽區"
"236078","166-UM","2019/08/08 19:19:53","新北市土城區中央路四段321巷32-2號","121.41181","24.95127","6501300","土城區"
"236026","269-VK","2019/08/08 19:19:51","新北市土城區中央路二段177巷20號","121.442813333333","24.9758","6501300","土城區"
"236014","270-VK","2019/08/08 19:19:59","新北市土城區學府路一段23巷21-2號","121.458225","24.9874183333333","6501300","土城區"
"236070","KEA-2877","2019/08/08 19:19:49","新北市土城區學成路120號","121.449445","24.9894633333333","6501300","土城區"
"252001","KED-0821","2019/08/08 19:19:57","新北市三芝區長勤街9巷11弄1號","121.50175","25.2548","6502100","三芝區"
"236021","401-BY","2019/08/08 19:19:54","新北市土城區峰廷街3號","121.469125","24.9873033333333","6501300","土城區"
"236059","912-UM","2019/08/08 19:19:40","新北市土城區中央路二段258號","121.441565","24.974655","6501300","土城區"
"236055","AAC-216","2019/08/08 19:19:50","新北市土城區學府路一段276號","121.450255","24.98331","6501300","土城區"
"242007","349-TH","2019/08/08 19:16:02","新北市樹林區中山路三段214號","121.37999","24.9677766666667","6500500","新莊區"
"238015","755-BX","2019/08/08 19:19:38","新北市樹林區備內街1巷39-12號","121.411741666667","24.985695","6500700","樹林區"
"238023","601-UM","2019/08/08 19:19:41","新北市樹林區中正路865號","121.408833333333","25.0181416666667","6500700","樹林區"
"238019","599-UM","2019/08/08 19:19:53","新北市樹林區東榮街125號","121.414905","24.981955","6500700","樹林區"
"238024","5061-A6","2019/08/08 19:19:59","新北市樹林區中山路二段249巷35號","121.403608333333","24.97545","6500700","樹林區"
"238018","KEA-2217","2019/08/08 19:19:56","新北市樹林區中華路118巷2號","121.417835","24.980825","6500700","樹林區"
"238022","KEA-2213","2019/08/08 19:17:18","新北市樹林區中山路二段151巷8弄21號","121.406266666667","24.9776516666667","6500700","樹林區"
"238021","KEA-2539","2019/08/08 19:19:55","新北市樹林區學府路212號","121.377718333333","24.95002","6500700","樹林區"
"238025","303-VK","2019/08/08 19:19:44","新北市樹林區中山路三段186號","121.38754","24.9691166666667","6500700","樹林區"
"238014","282-BY","2019/08/08 19:16:42","新北市樹林區千歲街63-12號","121.426956666667","24.9985533333333","6500700","樹林區"
"238020","268-VK","2019/08/08 19:19:45","新北市樹林區俊英街125巷1號","121.424438333333","25.010915","6500700","樹林區"
"238026","172-UY","2019/08/08 19:19:51","新北市樹林區地政街8巷10弄2號","121.393675","24.971515","6500700","樹林區"
"238016","169-UY","2019/08/08 19:03:06","","121.417728333333","24.9851816666667","6500700","樹林區"
"239007","AAC-297","2019/08/08 19:19:59","新北市鶯歌區中山路138巷5號","121.35013","24.9586316666667","6500800","鶯歌區"
"239006","891-R6","2019/08/08 19:19:52","新北市鶯歌區鶯桃路296巷102號","121.337138333333","24.96225","6500800","鶯歌區"
"239008","527-UM","2019/08/08 19:20:00","新北市鶯歌區國際二路16巷19號","121.337991666667","24.97519","6500800","鶯歌區"
"239005","526-UM","2019/08/08 19:19:55","新北市鶯歌區鳳吉一街94號","121.32714","24.974485","6500800","鶯歌區"
"239001","417-VK","2019/08/08 19:19:50","新北市鶯歌區鶯桃路161號","121.337331666667","24.9551066666667","6500800","鶯歌區"
"239003","360-BY","2019/08/08 19:19:43","新北市鶯歌區鶯桃路658巷4號","121.329426666667","24.969405","6500800","鶯歌區"
"239002","359-BY","2019/08/08 19:19:48","新北市鶯歌區中山路96號","121.350875","24.9570066666667","6500800","鶯歌區"
"239004","193-VK","2019/08/08 19:19:48","新北市鶯歌區中正三路318巷32號","121.326195","24.93785","6500800","鶯歌區"
"221008","489-VK","2019/08/08 19:19:44","新北市汐止區康寧街307巷1弄9號","121.626735","25.0673633333333","6501100","汐止區"
"221023","279-VK","2019/08/08 19:19:44","新北市汐止區康寧街901號","121.65099","25.0752333333333","6501100","汐止區"
"221031","353-TW","2019/08/08 19:19:54","新北市汐止區福德三路127號","121.633683333333","25.0676433333333","6501100","汐止區"
"221035","622-UM","2019/08/08 19:19:46","新北市汐止區禮門街3號","121.65666","25.0672733333333","6501100","汐止區"
"221002","707-TV","2019/08/08 19:19:48","新北市汐止區大同路一段312號","121.637338333333","25.0587666666667","6501100","汐止區"
"220079","145-BY","2019/08/08 19:19:45","新北市板橋區民權路202巷7弄18號","121.459463333333","25.0149816666667","6500100","板橋區"
"220082","610-BX","2019/08/08 19:19:53","新北市板橋區滿平街84巷108號","121.426818333333","24.98666","6500100","板橋區"
"220101","245-BX","2019/08/08 19:19:48","新北市板橋區縣民大道三段133巷1號","121.477573333333","25.023315","6500100","板橋區"
"220084","256-TC","2019/08/08 19:19:46","新北市板橋區溪北路73巷5號","121.428338333333","24.9898766666667","6500100","板橋區"
"220056","276-BY","2019/08/08 19:19:55","新北市板橋區信義路182號","121.459373333333","24.9914633333333","6500100","板橋區"
"220072","277-BY","2019/08/08 19:19:48","新北市板橋區金門街317巷24號","121.43042","24.98541","6500100","板橋區"
"220071","283-VK","2019/08/08 19:19:58","新北市板橋區重慶路265號","121.463306666667","25.00004","6500100","板橋區"
"220094","285-UM","2019/08/08 19:19:44","新北市板橋區松江街124巷7號","121.469541666667","25.030285","6500100","板橋區"
"220053","285-VK","2019/08/08 19:19:55","新北市板橋區富山街91號","121.476541666667","25.0218783333333","6500100","板橋區"
"220083","286-VK","2019/08/08 19:19:58","新北市板橋區大觀路二段174巷186弄16號","121.44291","25.003415","6500100","板橋區"
"220081","287-VK","2019/08/08 19:19:53","新北市板橋區南雅西路二段156巷2號","121.451845","25.0133683333333","6500100","板橋區"
"220090","288-VK","2019/08/08 19:19:41","新北市板橋區長江路一段136巷9號","121.460771666667","25.02966","6500100","板橋區"
"220061","293-UM","2019/08/08 19:19:45","新北市板橋區中山路二段255巷7號","121.476968333333","25.01791","6500100","板橋區"
"220062","295-UM","2019/08/08 19:19:46","新北市板橋區三民路二段153巷28號","121.480883333333","25.0150566666667","6500100","板橋區"
"220075","303-R5","2019/08/08 19:19:41","新北市板橋區南雅東路1-22號","121.45448","25.0051883333333","6500100","板橋區"
"220092","307-R5","2019/08/08 19:19:57","新北市板橋區文化路二段39號","121.469025","25.0249333333333","6500100","板橋區"
"220098","317-R6","2019/08/08 19:19:55","新北市板橋區自由路51巷14弄3號","121.464646666667","25.0235916666667","6500100","板橋區"
"220089","487-VK","2019/08/08 19:19:59","新北市板橋區文化路一段90號","121.464383333333","25.0178666666667","6500100","板橋區"
"220088","491-VK","2019/08/08 19:19:47","新北市板橋區雙十路二段52號","121.475365","25.0277883333333","6500100","板橋區"
"220035","560-BX","2019/08/08 19:19:48","新北市板橋區瑞安街31巷9號","121.456088333333","25.0227","6500100","板橋區"
"220103","561-BX","2019/08/08 19:19:42","新北市板橋區文化路一段286巷13號","121.468088333333","25.0214116666667","6500100","板橋區"
"220080","568-UM","2019/08/08 19:19:51","新北市板橋區大觀路二段1巷16號","121.449013333333","25.0036866666667","6500100","板橋區"
"220063","609-BX","2019/08/08 19:19:54","新北市板橋區三民路二段202-6號","121.479068333333","25.0144333333333","6500100","板橋區"
"220055","630-UY","2019/08/08 19:19:56","新北市板橋區新民街4巷9號","121.464685","25.0100583333333","6500100","板橋區"
"220091","637-BX","2019/08/08 19:20:00","新北市板橋區文聖街72號","121.477106666667","25.030365","6500100","板橋區"
"220057","686-BX","2019/08/08 19:19:51","新北市板橋區五權街30巷1號","121.46475","24.993365","6500100","板橋區"
"220077","687-BX","2019/08/08 19:19:54","新北市板橋區大觀路二段123號","121.445926666667","25.0013483333333","6500100","板橋區"
"220093","689-BX","2019/08/08 19:19:23","新北市板橋區漢生西路56號","121.463","25.0187633333333","6500100","板橋區"
"220054","741-BX","2019/08/08 19:19:44","新北市板橋區四川路一段164號","121.459956666667","25.0032183333333","6500100","板橋區"
"220102","KEA-2699","2019/08/08 19:19:49","新北市板橋區松柏街1巷35號","121.47324","25.0299833333333","6500100","板橋區"
"220067","829-TW","2019/08/08 19:19:50","新北市板橋區長安街138巷1弄35號","121.47381","25.0100883333333","6500100","板橋區"
"220068","831-TW","2019/08/08 19:19:48","新北市板橋區萬安街146號","121.483341666667","25.026225","6500100","板橋區"
"220074","895-R6","2019/08/08 19:19:56","新北市板橋區中正路自強新村44號","121.454915","25.01383","6500100","板橋區"
"220073","985-R7","2019/08/08 19:19:44","新北市板橋區新生街96號","121.458308333333","25.0220216666667","6500100","板橋區"
"220097","AAC-210","2019/08/08 19:19:46","新北市板橋區幸福路32巷3號","121.461501666667","25.0205916666667","6500100","板橋區"
"220064","AAC-253","2019/08/08 19:19:54","新北市板橋區中山路一段137號","121.462531666667","25.0108333333333","6500100","板橋區"
"235068","KEA-2873","2019/08/08 19:19:53","新北市中和區連勝街38巷16號","121.497816666667","24.9978633333333","6500300","中和區"
"235061","KEA-2875","2019/08/08 19:19:36","新北市中和區員山路394巷12弄1號","121.48128","25.0043066666667","6500300","中和區"
