"lineid","car","time","location","longitude","latitude","cityid","cityname"
"234046","148-BY","2019/08/08 19:29:41","新北市永和區秀朗路二段150號","121.52566","25.0015166666667","6500400","永和區"
"234081","298-R6","2019/08/08 19:29:58","新北市永和區環河東路三段58號","121.526936666667","25.0061233333333","6500400","永和區"
"234038","336-UY","2019/08/08 19:29:57","新北市永和區成功路二段47巷11號","121.527471666667","25.0003766666667","6500400","永和區"
"234064","337-UY","2019/08/08 19:29:55","新北市永和區得和路243巷27號","121.52071","25.0011683333333","6500400","永和區"
"234086","338-UY","2019/08/08 19:29:44","新北市永和區林森路29巷2號","121.526058333333","25.0051916666667","6500400","永和區"
"234070","552-UM","2019/08/08 19:29:58","新北市永和區竹林路169號","121.520551666667","25.0100333333333","6500400","永和區"
"234017","745-BX","2019/08/08 19:29:42","新北市永和區環河西路一段87號","121.512325","25.0179666666667","6500400","永和區"
"234030","746-BX","2019/08/08 19:29:51","新北市永和區民生路36號","121.522526666667","24.9969016666667","6500400","永和區"
"234054","KEA-2590","2019/08/08 19:29:43","新北市永和區永和路二段244號","121.515858333333","25.0147083333333","6500400","永和區"
"234007","KED-0605","2019/08/08 19:29:42","新北市永和區永和路一段86號","121.513066666667","25.0067283333333","6500400","永和區"
"234013","KEA-2591","2019/08/08 19:29:40","新北市永和區中山路一段203號","121.50904","25.0085366666667","6500400","永和區"
"234061","AAD-866","2019/08/08 19:29:58","新北市永和區中正路514號","121.517246666667","25.004725","6500400","永和區"
"234042","862-TW","2019/08/08 19:29:52","新北市永和區水源街39巷30號","121.510706666667","25.0030883333333","6500400","永和區"
"234050","863-TW","2019/08/08 19:29:43","新北市永和區信義路79號","121.512435","25.0133466666667","6500400","永和區"
"234026","9371-KE","2019/08/08 19:29:48","新北市中和區安樂路241號","121.51415","24.9993666666667","6500400","永和區"
"234011","9373-KE","2019/08/08 19:29:47","新北市永和區保安路153號","121.506911666667","25.0129266666667","6500400","永和區"
"249001","173-UM","2019/08/08 19:29:58","新北市八里區龍米路一段160號","121.452835","25.1260333333333","6502300","八里區"
"249003","593-UM","2019/08/08 19:29:41","新北市八里區中山路二段500巷26號","121.397418333333","25.1475116666667","6502300","八里區"
"248014","025-BX","2019/08/08 19:29:55","新北市五股區民義路一段172巷11號","121.433576666667","25.0881166666667","6501500","五股區"
"248008","KED-0815","2019/08/08 19:29:41","新北市五股區中興路一段95巷20號","121.466536666667","25.0723033333333","6501500","五股區"
"248020","KED-0813","2019/08/08 19:29:57","新北市五股區凌雲路三段88號","121.428025","25.1190783333333","6501500","五股區"
"248012","247-BX","2019/08/08 19:29:49","新北市五股區成泰路二段91巷9號","121.437575","25.0841566666667","6501500","五股區"
"248010","272-BY","2019/08/08 19:29:47","新北市五股區水碓一路23號","121.430626666667","25.0713166666667","6501500","五股區"
"248004","677-BX","2019/08/08 19:29:49","新北市五股區五福路2號","121.433918333333","25.087255","6501500","五股區"
"248002","678-BX","2019/08/08 19:29:52","新北市五股區凌雲路一段158巷6號","121.447815","25.1029666666667","6501500","五股區"
"234023","9380-KE","2019/08/08 19:29:53","新北市永和區竹林路91巷43弄2號","121.521295","25.0128033333333","6500400","永和區"
"234077","969-R7","2019/08/08 19:29:52","新北市永和區民權路58巷2弄1號","121.519531666667","24.998345","6500400","永和區"
"234074","AAC-211","2019/08/08 19:29:54","新北市永和區永和路二段254號","121.516135","25.014875","6500400","永和區"
"234067","AAC-212","2019/08/08 19:29:52","新北市永和區保平路184號","121.51061","25.0065166666667","6500400","永和區"
"234003","AAC-295","2019/08/08 19:29:39","新北市永和區福和路378號","121.514256666667","25.0078666666667","6500400","永和區"
"244023","402-UM","2019/08/08 19:29:42","新北市林口區民富街198號","121.370783333333","25.0754466666667","6501700","林口區"
"243012","AAD-798","2019/08/08 19:29:55","新北市泰山區仁義路220巷10號","121.43286","25.0536916666667","6501600","泰山區"
"243010","297-R6","2019/08/08 19:29:55","新北市泰山區民生路17巷63號","121.429236666667","25.0509783333333","6501600","泰山區"
"243014","KEA-2801","2019/08/08 19:29:42","新北市泰山區仁義路220巷53號","121.432055","25.0526883333333","6501600","泰山區"
"243016","421-VK","2019/08/08 19:29:49","新北市泰山區明志路三段308號","121.42103","25.035365","6501600","泰山區"
"243009","KEA-2215","2019/08/08 19:29:53","新北市泰山區半山雅4號","121.431663333333","25.0673566666667","6501600","泰山區"
"243011","KEA-2216","2019/08/08 19:29:43","新北市泰山區貴子路140號","121.42877","25.040415","6501600","泰山區"
"243013","646-TV","2019/08/08 19:29:51","新北市泰山區貴子路36巷18號","121.425903333333","25.0409616666667","6501600","泰山區"
"243015","680-BX","2019/08/08 19:29:50","新北市泰山區明志路二段134號","121.427401666667","25.0512066666667","6501600","泰山區"
"222003","436-BY","2019/08/08 19:29:58","新北市深坑區深南路51-1號","121.621251666667","25.0097783333333","6501800","深坑區"
"222002","659-BX","2019/08/08 19:29:47","新北市深坑區北深路一段177號","121.632493333333","25.0108416666667","6501800","深坑區"
"231061","002-UM","2019/08/08 19:29:59","新北市新店區安康路一段230-3號","121.522365","24.9637616666667","6500600","新店區"
"231058","0293-UT","2019/08/08 19:29:52","新北市新店區北新路二段222號","121.543106666667","24.9771766666667","6500600","新店區"
"231044","046-UY","2019/08/08 19:29:55","新北市新店區中興路三段188號","121.543941666667","24.9815633333333","6500600","新店區"
"231060","106-UY","2019/08/08 19:29:54","新北市新店區安康路二段62號","121.514921666667","24.9636533333333","6500600","新店區"
"231051","107-UY","2019/08/08 19:29:46","新北市新店區中央五街34號","121.528648333333","24.9747683333333","6500600","新店區"
"231049","108-UY","2019/08/08 19:29:41","新北市新店區北新路三段95巷12號","121.540786666667","24.9817616666667","6500600","新店區"
"231065","110-UY","2019/08/08 19:28:42","新北市新店區安祥路109巷1弄112號","121.478146666667","24.960505","6500600","新店區"
"231062","256-BX","2019/08/08 19:29:47","新北市新店區莒光路97-3號","121.522375","24.9536833333333","6500600","新店區"
"231054","260-TV","2019/08/08 19:29:58","新北市新店區文中路40號","121.539721666667","24.9565933333333","6500600","新店區"
"231042","268-BY","2019/08/08 19:29:46","新北市新店區中興路一段148號","121.542415","24.9638216666667","6500600","新店區"
"231064","278-BY","2019/08/08 19:29:42","新北市新店區安忠路38號","121.513155","24.9597183333333","6500600","新店區"
"231050","AAD-862","2019/08/08 19:29:50","新北市新店區北宜路二段235號","121.553746666667","24.9534433333333","6500600","新店區"
"231045","355-BY","2019/08/08 19:29:47","新北市新店區北宜路二段207號","121.553111666667","24.9532766666667","6500600","新店區"
"231056","4715-K9","2019/08/08 19:29:56","新北市新店區薏仁坑路11號","121.498575","24.9590766666667","6500600","新店區"
"231052","513-UM","2019/08/08 19:29:48","新北市新店區新烏路二段200巷11號","121.547706666667","24.9167383333333","6500600","新店區"
"231041","619-UM","2019/08/08 19:29:57","新北市新店區中正路696號","121.534048333333","24.9905316666667","6500600","新店區"
"231063","641-BX","2019/08/08 19:29:52","新北市新店區達觀路14巷1號","121.503583333333","24.9409283333333","6500600","新店區"
"231047","KED-0819","2019/08/08 19:29:38","新北市新店區五峰路117號","121.545113333333","24.9665783333333","6500600","新店區"
"231046","719-UM","2019/08/08 19:29:49","新北市新店區北新路一段14號","121.540845","24.96564","6500600","新店區"
"231057","720-UM","2019/08/08 19:29:45","新北市新店區花園一路三段28號","121.550901666667","24.9328866666667","6500600","新店區"
"231059","897-TW","2019/08/08 19:29:56","新北市新店區安和路三段7號","121.518095","24.980485","6500600","新店區"
"231040","898-TW","2019/08/08 19:29:44","新北市新店區中華路66號","121.539171666667","24.969035","6500600","新店區"
"231043","899-TW","2019/08/08 19:29:54","新北市新店區北新路二段190號","121.543005","24.9764016666667","6500600","新店區"
"231066","AKT-0513","2019/08/08 19:29:43","新北市新店區安康路三段355巷17號","121.48485","24.95038","6500600","新店區"
"241011","013-R5","2019/08/08 19:29:59","新北市三重區河邊北街122-1號","121.503603333333","25.0714083333333","6500200","三重區"
"241028","022-UY","2019/08/08 19:29:57","新北市三重區中寮街9號","121.492256666667","25.05938","6500200","三重區"
"241022","060-VK","2019/08/08 19:29:55","新北市三重區三民街175巷1號","121.483626666667","25.0652783333333","6500200","三重區"
"241031","061-VK","2019/08/08 19:29:48","新北市三重區集美街100號","121.488733333333","25.054215","6500200","三重區"
"241017","063-VK","2019/08/08 19:29:41","新北市三重區中正北路25巷28號","121.49377","25.063475","6500200","三重區"
"241006","262-UM","2019/08/08 19:29:54","新北市三重區三和路四段97-2號","121.487708333333","25.0763716666667","6500200","三重區"
"241009","267-UM","2019/08/08 19:29:49","新北市三重區仁美街123號","121.485543333333","25.0813283333333","6500200","三重區"
"241013","270-UM","2019/08/08 19:29:41","新北市三重區仁賢街12-1號","121.495655","25.0748466666667","6500200","三重區"
"241025","271-UM","2019/08/08 19:29:58","新北市三重區頂崁街210巷12弄10號","121.475848333333","25.0672466666667","6500200","三重區"
"241007","398-BY","2019/08/08 19:29:45","新北市三重區溪尾街130號","121.489153333333","25.0794383333333","6500200","三重區"
"241030","KED-0822","2019/08/08 19:29:42","新北市三重區成功路41巷6號","121.49023","25.0515066666667","6500200","三重區"
"241035","462-BY","2019/08/08 19:29:46","新北市三重區長元西街37號","121.498046666667","25.0653283333333","6500200","三重區"
"241020","478-VK","2019/08/08 19:29:47","新北市三重區三和路四段20巷18號","121.490385","25.0737366666667","6500200","三重區"
"241026","480-VK","2019/08/08 19:29:52","新北市三重區文化南路47巷3號","121.499913333333","25.0613416666667","6500200","三重區"
"241023","545-UM","2019/08/08 19:29:41","新北市三重區頂崁街99號","121.47797","25.063845","6500200","三重區"
"241012","941-UM","2019/08/08 19:29:53","新北市三重區河邊北街379-1號","121.501711666667","25.076465","6500200","三重區"
"241029","942-UM","2019/08/08 19:29:58","新北市三重區泉州街84巷20號","121.495911666667","25.05437","6500200","三重區"
"235066","003-UY","2019/08/08 19:29:55","新北市中和區景新街32號","121.503296666667","24.9993283333333","6500300","中和區"
"235064","005-UY","2019/08/08 19:29:52","新北市中和區南山路127巷11號","121.502895","24.9973233333333","6500300","中和區"
"235063","006-UY","2019/08/08 19:29:43","新北市中和區連城路219巷17號","121.494913333333","24.99621","6500300","中和區"
"235056","096-UM","2019/08/08 19:29:57","新北市中和區員山路581巷31弄1號","121.47726","25.0102983333333","6500300","中和區"
"235039","097-UM","2019/08/08 19:29:39","新北市中和區秀峰街103巷3弄1號","121.520568333333","24.9901033333333","6500300","中和區"
"235065","098-UM","2019/08/08 19:29:55","新北市中和區中山路二段2巷13弄21號","121.503213333333","25.0064316666667","6500300","中和區"
"235040","150-BY","2019/08/08 19:29:50","新北市中和區景安路79巷50號","121.507661666667","24.99579","6500300","中和區"
"235058","151-BY","2019/08/08 19:29:38","新北市中和區連城路328號","121.483258333333","24.995965","6500300","中和區"
"235055","183-VK","2019/08/08 19:29:58","新北市中和區中山路三段179巷15號","121.473276666667","25.00588","6500300","中和區"
"235038","185-VK","2019/08/08 19:29:55","新北市中和區立人街1號","121.521878333333","24.9939883333333","6500300","中和區"
"235049","186-VK","2019/08/08 19:29:45","新北市中和區安平路17號","121.509151666667","24.9941383333333","6500300","中和區"
"235067","255-BX","2019/08/08 19:29:59","新北市中和區新生街186巷5弄25號","121.482923333333","24.9988383333333","6500300","中和區"
"235044","293-VK","2019/08/08 19:29:42","新北市中和區捷運路185號","121.505443333333","24.991445","6500300","中和區"
"235072","301-VK","2019/08/08 19:29:51","新北市中和區連城路263巷4弄2號","121.491548333333","24.9958983333333","6500300","中和區"
"235043","352-BY","2019/08/08 19:29:41","新北市中和區景新街273巷32號","121.510708333333","24.994135","6500300","中和區"
"235042","KEA-2878","2019/08/08 19:29:51","新北市中和區中和路262巷33號","121.509635","24.99947","6500300","中和區"
"235070","558-UM","2019/08/08 19:29:58","新北市中和區景平路634-8號","121.499056666667","24.99921","6500300","中和區"
"235045","565-BX","2019/08/08 19:29:48","新北市中和區景新街383巷37號","121.513205","24.990575","6500300","中和區"
"235060","KED-0823","2019/08/08 19:30:00","新北市中和區新生街113號","121.483523333333","25.0019433333333","6500300","中和區"
"235054","640-BX","2019/08/08 19:29:55","新北市中和區德光路16號","121.471163333333","25.00449","6500300","中和區"
"235047","732-UM","2019/08/08 19:29:56","新北市中和區景平路259巷23號","121.507133333333","24.9927233333333","6500300","中和區"
"235046","733-UM","2019/08/08 19:29:52","新北市中和區忠孝街37巷49號","121.510758333333","24.984445","6500300","中和區"
"235071","783-BX","2019/08/08 19:29:59","新北市中和區中正路637巷18弄2號","121.484575","24.99511","6500300","中和區"
"235057","801-TS","2019/08/08 19:29:52","新北市中和區員山路202號","121.481278333333","25.000615","6500300","中和區"
"235052","805-TS","2019/08/08 19:29:47","新北市中和區華新街143巷67弄35號","121.507566666667","24.97933","6500300","中和區"
"235048","896-TW","2019/08/08 19:29:44","新北市中和區忠孝街99號","121.512101666667","24.9858533333333","6500300","中和區"
"235053","900-TW","2019/08/08 19:29:59","新北市中和區國光街144號","121.468263333333","25.001495","6500300","中和區"
"235051","157-BY","2019/08/08 19:29:52","新北市中和區景新街140-2號","121.505455","24.9977833333333","6500300","中和區"
"235037","AAC-213","2019/08/08 19:29:53","新北市中和區秀朗路三段50巷4弄7號","121.525668333333","24.9956716666667","6500300","中和區"
"235059","AAC-215","2019/08/08 19:29:51","新北市中和區圓通路252巷6號","121.49306","24.9917133333333","6500300","中和區"
"220065","072-UY","2019/08/08 19:29:43","新北市板橋區國泰街75巷45號","121.468275","25.00491","6500100","板橋區"
"220086","073-UY","2019/08/08 19:29:43","新北市板橋區中正路216巷22號","121.456721666667","25.01868","6500100","板橋區"
"220106","075-UY","2019/08/08 19:29:53","新北市板橋區文化路二段522號","121.47596","25.033755","6500100","板橋區"
"220069","AAD-861","2019/08/08 19:29:38","新北市板橋區大明街18-9號","121.458738333333","25.0026816666667","6500100","板橋區"
"247004","893-R6","2019/08/08 19:29:43","新北市蘆洲區長安街239號","121.459275","25.0830333333333","6501400","蘆洲區"
"226004","312-R5","2019/08/08 19:29:47","新北市平溪區十分里十分街158號","121.778141666667","25.043395","6502400","平溪區"
"235041","251-BX","2019/08/08 19:29:51","新北市永和區中和路539號","121.511401666667","25.0030383333333","6500300","中和區"
"228003","097-TW","2019/08/08 19:29:53","新北市貢寮區和美里和美街28-2號","121.913121666667","25.082645","6502600","貢寮區"
"228001","212-TW","2019/08/08 19:29:57","新北市貢寮區真理里大澳街31號","121.9251","25.0563","6502600","貢寮區"
"228002","663-BX","2019/08/08 19:29:55","新北市貢寮區龍門里龍門街78號","121.931101666667","25.0268466666667","6502600","貢寮區"
"224010","AGQ-8101","2019/08/08 19:29:54","新北市瑞芳區基山街188號","121.842898333333","25.1075483333333","6501200","瑞芳區"
"224008","273-VK","2019/08/08 19:29:42","新北市瑞芳區一坑路317-2號","121.801481666667","25.1089633333333","6501200","瑞芳區"
"227002","642-TC","2019/08/08 19:29:49","新北市雙溪區雙溪里光復街3號","121.86517","25.0356516666667","6502500","雙溪區"
"227001","400-TW","2019/08/08 19:29:43","新北市雙溪區新基里新基北街72-1號","121.868811666667","25.039715","6502500","雙溪區"
"222001","KEA-2212","2019/08/08 19:29:48","新北市深坑區北深路二段123巷13號","121.6168","25.0028583333333","6501800","深坑區"
"208002","KEA-2872","2019/08/08 19:29:50","新北市金山區仁愛路87巷1號","121.634641666667","25.2214883333333","6502700","金山區"
"208003","665-BX","2019/08/08 19:29:51","新北市金山區仁愛路66號","121.63527","25.2212433333333","6502700","金山區"
"251009","008-UM","2019/08/08 19:29:51","新北市淡水區中正路32號","121.444035","25.1691766666667","6501000","淡水區"
"251005","010-UM","2019/08/08 19:29:39","新北市淡水區水源街一段53巷32號","121.444403333333","25.1735516666667","6501000","淡水區"
"251010","012-UM","2019/08/08 19:29:56","新北市淡水區中正路二段206號","121.426251666667","25.1888833333333","6501000","淡水區"
"251015","KEA-2871","2019/08/08 19:29:47","新北市淡水區山子頂22號","121.491735","25.18779","6501000","淡水區"
"251016","179-VK","2019/08/08 19:29:40","新北市淡水區淡金路三段350巷18號","121.450788333333","25.2083216666667","6501000","淡水區"
"251008","181-VK","2019/08/08 19:29:47","新北市淡水區中正路一段21號","121.426273333333","25.1762966666667","6501000","淡水區"
"251013","182-VK","2019/08/08 19:29:42","新北市淡水區安子內18號","121.471455","25.2188833333333","6501000","淡水區"
"251007","442-VK","2019/08/08 19:29:47","新北市淡水區八勢路50巷6-3號","121.46355","25.1524183333333","6501000","淡水區"
"251001","559-UM","2019/08/08 19:29:56","新北市淡水區民權路139號","121.460118333333","25.1365183333333","6501000","淡水區"
"251006","561-UM","2019/08/08 19:29:53","新北市淡水區大義街51號","121.441466666667","25.178125","6501000","淡水區"
"251014","577-R6","2019/08/08 19:29:51","新北市淡水區小中寮15-2號","121.484875","25.2299133333333","6501000","淡水區"
"251002","672-BX","2019/08/08 19:29:43","新北市淡水區新民街一段117號","121.42866","25.1874233333333","6501000","淡水區"
"251003","766-UM","2019/08/08 19:29:52","新北市淡水區中山北路二段186號","121.444278333333","25.18504","6501000","淡水區"
"207003","550-UM","2019/08/08 19:29:50","新北市萬里區大鵬里萬里加投148-1號","121.644393333333","25.2145233333333","6502800","萬里區"
"207004","225-TW","2019/08/08 19:29:50","新北市萬里區萬里里瑪鋉路89號","121.688688333333","25.1773216666667","6502800","萬里區"
"252002","178-VK","2019/08/08 19:29:52","新北市三芝區淡金路二段18-1號","121.502715","25.2595083333333","6502100","三芝區"
"208001","170-UY","2019/08/08 19:29:43","新北市金山區南勢40號","121.6293","25.2209283333333","6502700","金山區"
"237004","KEA-2597","2019/08/08 19:29:50","新北市三峽區有木206號","121.439131666667","24.8514683333333","6500900","三峽區"
"237007","153-BY","2019/08/08 19:29:50","新北市三峽區二鬮路136巷20弄83號","121.358151666667","24.9091366666667","6500900","三峽區"
"237009","210-TH","2019/08/08 19:29:57","新北市三峽區中山路23號","121.368856666667","24.9343466666667","6500900","三峽區"
"237013","252-BX","2019/08/08 19:29:59","新北市三峽區大同路1號","121.379491666667","24.9300533333333","6500900","三峽區"
"237012","275-BY","2019/08/08 19:29:43","新北市三峽區三樹路98巷169號","121.384473333333","24.93936","6500900","三峽區"
"237008","302-VK","2019/08/08 19:29:53","新北市三峽區永安街183號","121.373141666667","24.9268116666667","6500900","三峽區"
"237014","433-BY","2019/08/08 19:29:44","新北市三峽區中山路277巷15號","121.361713333333","24.936855","6500900","三峽區"
"237006","5529-G3","2019/08/08 19:29:49","新北市三峽區中正路一段330-10號","121.369958333333","24.9245316666667","6500900","三峽區"
"237011","KEA-2596","2019/08/08 19:29:42","新北市三峽區介壽路一段345號","121.38215","24.93056","6500900","三峽區"
"237015","649-BX","2019/08/08 19:29:41","新北市三峽區安坑13-1號","121.442258333333","24.9262783333333","6500900","三峽區"
"237010","706-TV","2019/08/08 19:29:59","新北市三峽區國光街35號","121.375125","24.9373","6500900","三峽區"
"237005","AKY-6261","2019/08/08 19:29:48","新北市三峽區復興路367巷7號","121.36374","24.93784","6500900","三峽區"
"236042","KED-0685","2019/08/08 19:29:50","新北市土城區學府路一段239號","121.450438333333","24.9833683333333","6501300","土城區"
"236078","166-UM","2019/08/08 19:29:53","新北市土城區中州路10號","121.41481","24.957275","6501300","土城區"
"236026","269-VK","2019/08/08 19:29:51","新北市土城區員林街76號","121.444326666667","24.9766916666667","6501300","土城區"
"236070","KEA-2877","2019/08/08 19:29:49","新北市土城區學府路一段161號","121.453131666667","24.9858783333333","6501300","土城區"
"252001","KED-0821","2019/08/08 19:29:57","新北市三芝區長勤街62號","121.50014","25.2558666666667","6502100","三芝區"
"236021","401-BY","2019/08/08 19:29:54","新北市土城區峰廷街3號","121.469145","24.9872966666667","6501300","土城區"
"236049","913-UM","2019/08/08 19:29:44","新北市土城區清水路154號","121.459383333333","24.981435","6501300","土城區"
"236055","AAC-216","2019/08/08 19:29:50","新北市土城區學府路一段276號","121.450238333333","24.9832616666667","6501300","土城區"
"242007","349-TH","2019/08/08 19:29:42","新北市樹林區太平路269號","121.419645","24.9730883333333","6500500","新莊區"
"242031","350-TH","2019/08/08 19:29:41","新北市新莊區新泰路282號","121.445813333333","25.0404733333333","6500500","新莊區"
"238015","755-BX","2019/08/08 19:29:37","新北市樹林區復興路231-1號","121.419731666667","24.9906233333333","6500700","樹林區"
"238023","601-UM","2019/08/08 19:29:41","新北市樹林區三福街33號","121.408455","25.0165916666667","6500700","樹林區"
"238019","599-UM","2019/08/08 19:29:53","新北市樹林區鎮前街347巷1弄2號","121.416756666667","24.9836783333333","6500700","樹林區"
"238024","5061-A6","2019/08/08 19:29:59","新北市樹林區福德街48-2號","121.39911","24.974955","6500700","樹林區"
"238018","KEA-2217","2019/08/08 19:29:56","新北市樹林區中華路70號","121.41961","24.9814533333333","6500700","樹林區"
"238022","KEA-2213","2019/08/08 19:29:49","新北市樹林區國凱街43號","121.420473333333","24.979065","6500700","樹林區"
"238021","KEA-2539","2019/08/08 19:29:56","新北市樹林區佳園路三段213號","121.385153333333","24.9465883333333","6500700","樹林區"
"238025","303-VK","2019/08/08 19:29:44","新北市樹林區中山路三段51-1號","121.400923333333","24.9751533333333","6500700","樹林區"
"238017","283-BY","2019/08/08 19:29:41","新北市樹林區光興街78-1號","121.408343333333","25.0024333333333","6500700","樹林區"
"238014","282-BY","2019/08/08 19:29:49","新北市樹林區保安二街40巷26號","121.425776666667","24.994905","6500700","樹林區"
"238020","268-VK","2019/08/08 19:29:45","新北市樹林區俊英街107-2號","121.424543333333","25.00951","6500700","樹林區"
"238026","172-UY","2019/08/08 19:29:51","新北市樹林區柑園街一段296號","121.38882","24.9560383333333","6500700","樹林區"
"238016","169-UY","2019/08/08 19:03:06","","121.417728333333","24.9851816666667","6500700","樹林區"
"239007","AAC-297","2019/08/08 19:29:39","新北市鶯歌區西湖街45巷17號","121.339935","24.9591283333333","6500800","鶯歌區"
"239006","891-R6","2019/08/08 19:29:52","新北市鶯歌區鶯桃路137號","121.337858333333","24.95479","6500800","鶯歌區"
"239008","527-UM","2019/08/08 19:29:40","新北市鶯歌區國際二路6巷18號","121.339136666667","24.9738483333333","6500800","鶯歌區"
"239005","526-UM","2019/08/08 19:29:55","新北市鶯歌區大湖路361巷24弄4號","121.3303","24.9780116666667","6500800","鶯歌區"
"239001","417-VK","2019/08/08 19:29:47","新北市鶯歌區鶯桃路95巷69號","121.337306666667","24.9528383333333","6500800","鶯歌區"
"239003","360-BY","2019/08/08 19:29:41","新北市鶯歌區鶯桃路515號","121.33129","24.9668833333333","6500800","鶯歌區"
"239002","359-BY","2019/08/08 19:29:48","新北市鶯歌區中正一路304號","121.355973333333","24.9569566666667","6500800","鶯歌區"
"239004","193-VK","2019/08/08 19:29:48","新北市鶯歌區鶯華新村42號","121.330525","24.9340933333333","6500800","鶯歌區"
"221008","489-VK","2019/08/08 19:29:44","新北市汐止區康寧街237號","121.624175","25.0666166666667","6501100","汐止區"
"221023","279-VK","2019/08/08 19:29:44","新北市汐止區康寧街901號","121.650965","25.07527","6501100","汐止區"
"221027","281-BY","2019/08/08 19:29:56","新北市汐止區忠孝東路9號","121.658291666667","25.065925","6501100","汐止區"
"221031","353-TW","2019/08/08 19:29:49","新北市汐止區汐萬路一段256巷3號","121.653365","25.07464","6501100","汐止區"
"221035","622-UM","2019/08/08 19:29:46","新北市汐止區汐萬路一段284號","121.650758333333","25.074265","6501100","汐止區"
"221025","623-UM","2019/08/08 19:29:44","新北市汐止區新台五路二段10號","121.660291666667","25.065045","6501100","汐止區"
"221038","646-BX","2019/08/08 19:29:44","新北市汐止區忠孝東路201號","121.65954","25.0654016666667","6501100","汐止區"
"221002","707-TV","2019/08/08 19:29:48","新北市汐止區中興路9號","121.637158333333","25.0592516666667","6501100","汐止區"
"220079","145-BY","2019/08/08 19:29:45","新北市板橋區民權路202巷14弄1號","121.46068","25.0159133333333","6500100","板橋區"
"220082","610-BX","2019/08/08 19:29:53","新北市板橋區金門街222號","121.431096666667","24.9878516666667","6500100","板橋區"
"220101","245-BX","2019/08/08 19:29:51","新北市板橋區萬板路48號","121.471983333333","25.0227633333333","6500100","板橋區"
"220084","256-TC","2019/08/08 19:29:46","新北市板橋區滿平街138號","121.42884","24.98817","6500100","板橋區"
"220056","276-BY","2019/08/08 19:29:56","新北市板橋區信義路160號","121.459163333333","24.991445","6500100","板橋區"
"220072","277-BY","2019/08/08 19:29:48","新北市板橋區篤行路二段151巷2號","121.429766666667","24.987885","6500100","板橋區"
"220071","283-VK","2019/08/08 19:29:38","新北市板橋區忠孝路48巷9弄19號","121.462125","25.0002283333333","6500100","板橋區"
"220094","285-UM","2019/08/08 19:29:44","新北市板橋區銘傳街78號","121.469101666667","25.0313183333333","6500100","板橋區"
"220053","285-VK","2019/08/08 19:29:55","新北市板橋區懷仁街77巷32號","121.477831666667","25.0193383333333","6500100","板橋區"
"220083","286-VK","2019/08/08 19:29:58","新北市板橋區龍興街73巷29號","121.442606666667","25.0025833333333","6500100","板橋區"
"220081","287-VK","2019/08/08 19:29:53","新北市板橋區南雅西路一段59號","121.453635","25.00511","6500100","板橋區"
"220090","288-VK","2019/08/08 19:29:41","新北市板橋區裕民街112號","121.45954","25.027675","6500100","板橋區"
"220061","293-UM","2019/08/08 19:29:45","新北市板橋區中山路一段275號","121.4691","25.0135516666667","6500100","板橋區"
"220062","295-UM","2019/08/08 19:29:46","新北市板橋區三民路二段165號","121.479131666667","25.0146216666667","6500100","板橋區"
"220075","303-R5","2019/08/08 19:29:41","新北市板橋區中正路275巷93號","121.450848333333","25.0180933333333","6500100","板橋區"
"220092","307-R5","2019/08/08 19:29:57","新北市板橋區文化路一段383號","121.467063333333","25.0217383333333","6500100","板橋區"
"220098","317-R6","2019/08/08 19:29:55","新北市板橋區民有街89巷9號","121.464355","25.0274","6500100","板橋區"
"220089","487-VK","2019/08/08 19:29:39","新北市板橋區英士路59號","121.460521666667","25.0244316666667","6500100","板橋區"
"220088","491-VK","2019/08/08 19:29:44","新北市板橋區民治街32號","121.478105","25.0341966666667","6500100","板橋區"
"220035","560-BX","2019/08/08 19:29:48","新北市板橋區中正路433巷9號","121.453756666667","25.0233216666667","6500100","板橋區"
"220103","561-BX","2019/08/08 19:29:42","新北市板橋區陽明街27巷12號","121.465478333333","25.021235","6500100","板橋區"
"220080","568-UM","2019/08/08 19:29:50","新北市板橋區大觀路二段3巷1號","121.447291666667","25.00386","6500100","板橋區"
"220063","609-BX","2019/08/08 19:29:54","新北市板橋區三民路一段31巷15號","121.48001","25.0233083333333","6500100","板橋區"
"220055","630-UY","2019/08/08 19:29:56","新北市板橋區實踐路79號","121.463935","25.0061266666667","6500100","板橋區"
"220091","637-BX","2019/08/08 19:29:40","新北市板橋區懷德街201巷1號","121.480678333333","25.0293633333333","6500100","板橋區"
"220057","686-BX","2019/08/08 19:29:51","新北市板橋區和平路69號","121.46121","24.9946716666667","6500100","板橋區"
"220077","687-BX","2019/08/08 19:29:54","新北市板橋區大觀路一段28巷30號","121.449906666667","25.0095216666667","6500100","板橋區"
"220093","689-BX","2019/08/08 19:29:46","新北市板橋區新海路389號","121.458836666667","25.02634","6500100","板橋區"
"220054","741-BX","2019/08/08 19:29:44","新北市板橋區重慶路182號","121.462483333333","25.0034716666667","6500100","板橋區"
"220102","KEA-2699","2019/08/08 19:29:49","新北市板橋區文化路二段410巷2弄18號","121.474145","25.0305466666667","6500100","板橋區"
"220067","829-TW","2019/08/08 19:29:50","新北市板橋區漢生東路336號","121.471728333333","25.007615","6500100","板橋區"
"220068","831-TW","2019/08/08 19:29:57","新北市板橋區萬安街105號","121.483456666667","25.0247183333333","6500100","板橋區"
"220074","895-R6","2019/08/08 19:29:56","新北市板橋區中正路1巷14號","121.455201666667","25.011645","6500100","板橋區"
"220073","985-R7","2019/08/08 19:29:44","新北市板橋區中正路332-11號","121.454323333333","25.0230716666667","6500100","板橋區"
"220097","AAC-210","2019/08/08 19:29:55","新北市板橋區文化路一段285巷2弄1號","121.464616666667","25.0191866666667","6500100","板橋區"
"220064","AAC-253","2019/08/08 19:29:54","新北市板橋區中山路一段24號","121.460396666667","25.0081116666667","6500100","板橋區"
"235068","KEA-2873","2019/08/08 19:29:53","新北市中和區圓通路158巷3-1號","121.497666666667","24.99615","6500300","中和區"
"235061","KEA-2875","2019/08/08 19:29:36","新北市中和區員山路189號","121.481246666667","24.9972383333333","6500300","中和區"
