"lineid","car","time","location","longitude","latitude","cityid","cityname"
"234081","298-R6","2019/08/08 20:19:58","新北市永和區國中路86巷1號","121.52461","25.00612","6500400","永和區"
"234038","336-UY","2019/08/08 20:19:58","新北市永和區成功路一段47巷36號","121.528318333333","25.0039466666667","6500400","永和區"
"234064","337-UY","2019/08/08 20:19:55","新北市永和區得和路168號","121.519521666667","25.00002","6500400","永和區"
"234086","338-UY","2019/08/08 20:19:44","新北市永和區永和路二段97號","121.51489","25.0115816666667","6500400","永和區"
"234070","552-UM","2019/08/08 20:19:58","新北市永和區福和路263巷7弄1號","121.517898333333","25.0070116666667","6500400","永和區"
"234017","745-BX","2019/08/08 20:19:42","新北市永和區文化路20號","121.515321666667","25.01506","6500400","永和區"
"234030","746-BX","2019/08/08 20:19:51","新北市永和區民有街75巷10弄9號","121.51869","24.99614","6500400","永和區"
"234054","KEA-2590","2019/08/08 20:19:48","新北市永和區光復街2巷29號","121.517381666667","25.0167383333333","6500400","永和區"
"234013","KEA-2591","2019/08/08 20:20:00","新北市永和區保生路5巷1號","121.50623","25.007195","6500400","永和區"
"234061","AAD-866","2019/08/08 20:19:58","新北市永和區安樂路146-1號","121.514183333333","25.0004","6500400","永和區"
"234042","862-TW","2019/08/08 20:19:52","新北市中和區中安街166號","121.510845","25.000105","6500400","永和區"
"234050","863-TW","2019/08/08 20:19:43","新北市永和區文化路230號","121.509831666667","25.0169733333333","6500400","永和區"
"249005","172-UM","2019/08/08 20:19:50","新北市八里區下罟子2-18號","121.388305","25.140935","6502300","八里區"
"249001","173-UM","2019/08/08 20:19:58","新北市八里區中華路二段462號","121.400985","25.1462116666667","6502300","八里區"
"249004","303-UY","2019/08/08 20:20:00","新北市八里區中山路一段330號","121.412716666667","25.15908","6502300","八里區"
"249002","305-UY","2019/08/08 20:19:48","新北市八里區龍米路一段100巷3號","121.453596666667","25.125075","6502300","八里區"
"249003","593-UM","2019/08/08 20:19:41","新北市八里區訊埔路12號","121.397591666667","25.1455016666667","6502300","八里區"
"248016","026-BX","2019/08/08 20:19:42","新北市五股區凌雲路一段158巷39弄16號","121.446465","25.1041116666667","6501500","五股區"
"248012","247-BX","2019/08/08 20:19:49","新北市五股區六合街21號","121.431058333333","25.08866","6501500","五股區"
"248010","272-BY","2019/08/08 20:19:47","新北市五股區成泰路一段8巷24號","121.437635","25.0665183333333","6501500","五股區"
"248004","677-BX","2019/08/08 20:19:52","新北市五股區中興路四段19號","121.43929","25.082475","6501500","五股區"
"248002","678-BX","2019/08/08 20:19:52","新北市五股區成泰路三段173號","121.445365","25.0920533333333","6501500","五股區"
"234023","9380-KE","2019/08/08 20:19:53","新北市永和區復興街35號","121.516376666667","25.0132483333333","6500400","永和區"
"234077","969-R7","2019/08/08 20:19:52","新北市永和區智光街128號","121.514988333333","24.9955966666667","6500400","永和區"
"234074","AAC-211","2019/08/08 20:19:54","新北市永和區豫溪街189巷5號","121.522535","25.0103416666667","6500400","永和區"
"234067","AAC-212","2019/08/08 20:19:59","新北市永和區保平路238號","121.509345","25.00547","6500400","永和區"
"234003","AAC-295","2019/08/08 20:20:00","新北市永和區自強街19巷2號","121.514948333333","25.008025","6500400","永和區"
"243012","AAD-798","2019/08/08 20:19:54","新北市泰山區楓江路158號","121.440633333333","25.0661466666667","6501600","泰山區"
"243010","297-R6","2019/08/08 20:19:55","新北市泰山區明志路二段273巷2號","121.427031666667","25.0472016666667","6501600","泰山區"
"243014","KEA-2801","2019/08/08 20:19:53","新北市泰山區泰林路二段280巷2號","121.431636666667","25.0624416666667","6501600","泰山區"
"243016","421-VK","2019/08/08 20:19:50","新北市泰山區明志路二段355號","121.425343333333","25.0443466666667","6501600","泰山區"
"243009","KEA-2215","2019/08/08 20:19:53","新北市泰山區福泰街38號","121.433805","25.0596266666667","6501600","泰山區"
"243011","KEA-2216","2019/08/08 20:19:43","新北市新莊區壽山路160巷21號","121.417498333333","25.031925","6501600","泰山區"
"243013","646-TV","2019/08/08 20:19:58","新北市泰山區新民路14巷11弄2號","121.426128333333","25.0441366666667","6501600","泰山區"
"243015","680-BX","2019/08/08 20:19:50","新北市泰山區明志路一段260號","121.432196666667","25.0606","6501600","泰山區"
"222003","436-BY","2019/08/08 20:19:58","新北市深坑區文化街43號","121.61757","25.0017666666667","6501800","深坑區"
"222002","659-BX","2019/08/08 20:19:46","新北市深坑區萬福路18號","121.602301666667","25.008665","6501800","深坑區"
"231061","002-UM","2019/08/08 20:19:59","新北市新店區光華街38巷11號","121.515791666667","24.97021","6500600","新店區"
"231055","0291-UT","2019/08/08 20:19:28","新北市新店區中華路42巷20號","121.540675","24.9687983333333","6500600","新店區"
"231058","0293-UT","2019/08/08 20:19:52","新北市新店區薏仁坑路自強巷1號","121.49762","24.95778","6500600","新店區"
"231044","046-UY","2019/08/08 20:19:55","新北市新店區北新路三段97號","121.54151","24.9818666666667","6500600","新店區"
"231060","106-UY","2019/08/08 20:19:54","新北市新店區安康路三段578-1號","121.481083333333","24.9486883333333","6500600","新店區"
"231051","107-UY","2019/08/08 20:19:47","新北市新店區中央六街111號","121.525355","24.9773566666667","6500600","新店區"
"231049","108-UY","2019/08/08 20:20:01","新北市新店區中正路128巷15號","121.542755","24.972285","6500600","新店區"
"231065","110-UY","2019/08/08 20:19:42","新北市新店區安祥路102巷22號","121.483716666667","24.9640233333333","6500600","新店區"
"231068","187-VK","2019/08/08 20:19:43","新北市新店區寶安街30號","121.542046666667","24.9824216666667","6500600","新店區"
"231062","256-BX","2019/08/08 20:19:58","新北市新店區安康路二段149-1號","121.51095","24.95968","6500600","新店區"
"231054","260-TV","2019/08/08 20:19:58","新北市新店區檳榔路109號","121.544341666667","24.961785","6500600","新店區"
"231042","268-BY","2019/08/08 20:19:45","新北市新店區中興路二段228號","121.548078333333","24.97528","6500600","新店區"
"231064","278-BY","2019/08/08 20:19:42","新北市新店區安業街67巷22號","121.518943333333","24.9759783333333","6500600","新店區"
"231050","AAD-862","2019/08/08 20:19:58","新北市新店區博愛街23號","121.54135","24.9736966666667","6500600","新店區"
"231045","355-BY","2019/08/08 20:19:47","新北市新店區北宜路一段8號","121.53818","24.9576566666667","6500600","新店區"
"231056","4715-K9","2019/08/08 20:19:56","新北市新店區中正路336號","121.536768333333","24.9749466666667","6500600","新店區"
"231067","4772-VM","2019/08/08 20:19:50","新北市新店區安康路一段355號","121.519651666667","24.9634866666667","6500600","新店區"
"231052","513-UM","2019/08/08 20:19:48","新北市新店區新烏路二段317號","121.549866666667","24.9109916666667","6500600","新店區"
"231041","619-UM","2019/08/08 20:19:57","新北市新店區民權路59號","121.539495","24.9828783333333","6500600","新店區"
"231063","641-BX","2019/08/08 20:19:51","新北市新店區車子路1-1號","121.504743333333","24.957835","6500600","新店區"
"231047","KED-0819","2019/08/08 20:19:58","新北市新店區寶橋路85巷5弄3號","121.545961666667","24.975725","6500600","新店區"
"231057","720-UM","2019/08/08 20:19:45","新北市新店區花園五路二段27號","121.554635","24.9346366666667","6500600","新店區"
"231059","897-TW","2019/08/08 20:19:55","新北市新店區安德街60巷35號","121.511183333333","24.9635533333333","6500600","新店區"
"231040","898-TW","2019/08/08 20:19:44","新北市新店區中正路106號","121.543095","24.9706116666667","6500600","新店區"
"231043","899-TW","2019/08/08 20:19:54","新北市新店區建國路133號","121.539375","24.9782316666667","6500600","新店區"
"231066","AKT-0513","2019/08/08 20:19:43","新北市新店區柴埕路22巷2號","121.513898333333","24.9658383333333","6500600","新店區"
"241011","013-R5","2019/08/08 20:19:59","新北市三重區龍濱路186號","121.501258333333","25.0730816666667","6500200","三重區"
"241028","022-UY","2019/08/08 20:19:56","新北市三重區大同南路58號","121.496035","25.0598416666667","6500200","三重區"
"241008","059-VK","2019/08/08 20:19:42","新北市三重區永福街219號","121.480203333333","25.0744883333333","6500200","三重區"
"241022","060-VK","2019/08/08 20:19:55","新北市三重區新北大道一段50號","121.487701666667","25.0614483333333","6500200","三重區"
"241031","061-VK","2019/08/08 20:19:48","新北市三重區三寧街15號","121.489443333333","25.05962","6500200","三重區"
"241015","062-VK","2019/08/08 20:19:50","新北市三重區文化北路2號","121.499643333333","25.06334","6500200","三重區"
"241017","063-VK","2019/08/08 20:20:01","新北市三重區自強路一段147-1號","121.493983333333","25.0667583333333","6500200","三重區"
"241024","065-VK","2019/08/08 20:19:56","新北市三重區中正北路252號","121.481491666667","25.068145","6500200","三重區"
"241003","091-VK","2019/08/08 20:19:45","新北市三重區富華街44號","121.490135","25.08281","6500200","三重區"
"241002","742-BX","2019/08/08 20:19:49","新北市三重區仁義街101巷28號","121.49876","25.0805666666667","6500200","三重區"
"241006","262-UM","2019/08/08 20:19:54","新北市三重區車路頭街139巷12號","121.484243333333","25.0763266666667","6500200","三重區"
"241009","267-UM","2019/08/08 20:19:49","新北市三重區三和路四段366號","121.482858333333","25.07872","6500200","三重區"
"241018","268-UM","2019/08/08 20:19:58","新北市三重區雙園街101號","121.49378","25.06729","6500200","三重區"
"241032","269-UM","2019/08/08 20:19:45","新北市三重區捷運路19巷8弄15號","121.484318333333","25.0573033333333","6500200","三重區"
"241013","270-UM","2019/08/08 20:20:01","新北市三重區三和路三段167巷2號","121.491956666667","25.0741866666667","6500200","三重區"
"241025","271-UM","2019/08/08 20:19:57","新北市三重區自由街16號","121.479776666667","25.0664033333333","6500200","三重區"
"241007","398-BY","2019/08/08 20:19:45","新北市三重區三和路四段117巷25號","121.486418333333","25.077865","6500200","三重區"
"241030","KED-0822","2019/08/08 20:19:42","新北市三重區集成路32巷3號","121.488405","25.0527866666667","6500200","三重區"
"241035","462-BY","2019/08/08 20:19:51","新北市三重區重新路二段1號","121.4996","25.062905","6500200","三重區"
"241004","475-VK","2019/08/08 20:19:42","新北市三重區仁政街205號","121.490653333333","25.080495","6500200","三重區"
"241020","478-VK","2019/08/08 20:19:47","新北市三重區三和路三段170巷24號","121.491935","25.072725","6500200","三重區"
"241026","480-VK","2019/08/08 20:19:52","新北市三重區重新路一段50號","121.502691666667","25.0639366666667","6500200","三重區"
"241014","543-UM","2019/08/08 20:19:43","新北市三重區長樂街133-4號","121.503111666667","25.069795","6500200","三重區"
"241023","545-UM","2019/08/08 20:19:40","新北市三重區忠孝路三段84巷5號","121.480233333333","25.0644033333333","6500200","三重區"
"241001","547-UM","2019/08/08 20:19:50","新北市三重區自強路四段31巷3號","121.489538333333","25.0765533333333","6500200","三重區"
"241019","KEA-2593","2019/08/08 20:19:53","新北市三重區大智街218號","121.490311666667","25.0715183333333","6500200","三重區"
"241005","AAD-863","2019/08/08 20:19:56","新北市三重區碧華街374號","121.490798333333","25.0843316666667","6500200","三重區"
"241016","887-TS","2019/08/08 20:20:01","新北市三重區大同北路97-3號","121.494368333333","25.0634883333333","6500200","三重區"
"241012","941-UM","2019/08/08 20:19:53","新北市三重區河邊北街377號","121.501771666667","25.0764233333333","6500200","三重區"
"241029","942-UM","2019/08/08 20:19:58","新北市三重區重安街98號","121.492671666667","25.056015","6500200","三重區"
"241033","AAC-255","2019/08/08 20:19:55","新北市三重區五谷王北街58巷38號","121.474456666667","25.0516866666667","6500200","三重區"
"235066","003-UY","2019/08/08 20:19:55","新北市中和區南工路94巷1號","121.50721","25.0030883333333","6500300","中和區"
"235039","097-UM","2019/08/08 20:20:00","新北市中和區大勇街29巷21號","121.515568333333","24.9947033333333","6500300","中和區"
"235065","098-UM","2019/08/08 20:19:55","新北市中和區永和路128巷45號","121.497726666667","25.0067816666667","6500300","中和區"
"235055","183-VK","2019/08/08 20:19:58","新北市五股區凌雲路三段24巷21-6號","121.434335","25.1074883333333","6500300","中和區"
"247014","KEA-2869","2019/08/08 20:20:01","新北市蘆洲區中山二路144號","121.471251666667","25.081405","6501400","蘆洲區"
"247008","KED-0682","2019/08/08 20:19:51","新北市蘆洲區集賢路300號","121.481613333333","25.0852466666667","6501400","蘆洲區"
"235050","4979-A6","2019/08/08 20:20:00","新北市中和區景新街317號","121.511171666667","24.9922766666667","6500300","中和區"
"235069","4980-A6","2019/08/08 20:19:52","新北市中和區南山路127巷27弄14號","121.503368333333","24.99796","6500300","中和區"
"235026","800-TS","2019/08/08 20:00:23","新北市中和區員山路36巷16-3號","121.484948333333","24.9913116666667","6500300","中和區"
"235059","AAC-215","2019/08/08 20:19:51","新北市中和區圓通路403號","121.489408333333","24.9891883333333","6500300","中和區"
"220065","072-UY","2019/08/08 20:19:43","新北市板橋區館前東路154號","121.464581666667","25.0079333333333","6500100","板橋區"
"247004","893-R6","2019/08/08 20:19:43","新北市蘆洲區永康街1巷10號","121.459615","25.0856283333333","6501400","蘆洲區"
"247018","546-UM","2019/08/08 20:19:43","新北市蘆洲區民族路293號","121.475308333333","25.0910383333333","6501400","蘆洲區"
"247024","337-TH","2019/08/08 20:19:42","新北市蘆洲區光榮路120巷8弄39號","121.46464","25.0877933333333","6501400","蘆洲區"
"247002","336-TH","2019/08/08 20:19:56","新北市蘆洲區長安街313巷20號","121.456356666667","25.0862916666667","6501400","蘆洲區"
"247022","057-VK","2019/08/08 20:19:41","新北市蘆洲區三民路241號","121.469058333333","25.088805","6501400","蘆洲區"
"247012","056-VK","2019/08/08 20:19:50","新北市蘆洲區中興街24號","121.480683333333","25.0868733333333","6501400","蘆洲區"
"247016","053-VK","2019/08/08 20:19:45","新北市蘆洲區中正路185巷45弄2號","121.465888333333","25.083725","6501400","蘆洲區"
"247006","002-UY","2019/08/08 20:19:40","新北市蘆洲區九芎街136號","121.464966666667","25.0791","6501400","蘆洲區"
"228003","097-TW","2019/08/08 20:19:53","新北市貢寮區仁理村研海街22號","121.928243333333","25.03839","6502600","貢寮區"
"224002","639-TC","2019/08/08 20:19:48","新北市瑞芳區員山子路員山巷13-1號","121.817016666667","25.1042316666667","6501200","瑞芳區"
"222001","KEA-2212","2019/08/08 20:19:48","新北市深坑區北深路三段257號","121.598983333333","25.004395","6501800","深坑區"
"251009","008-UM","2019/08/08 20:19:50","新北市淡水區清水街54-1號","121.444226666667","25.17026","6501000","淡水區"
"251010","012-UM","2019/08/08 20:19:47","新北市淡水區新民街一段155號","121.427463333333","25.1888783333333","6501000","淡水區"
"251015","KEA-2871","2019/08/08 20:19:47","新北市淡水區埤島80-1號","121.449455","25.189635","6501000","淡水區"
"251016","179-VK","2019/08/08 20:20:00","新北市淡水區淡金路四段660號","121.452443333333","25.2320016666667","6501000","淡水區"
"251008","181-VK","2019/08/08 20:19:46","新北市淡水區淡海路150巷2號","121.421925","25.1837883333333","6501000","淡水區"
"251013","182-VK","2019/08/08 20:19:42","新北市淡水區相公山1-5號","121.47432","25.206675","6501000","淡水區"
"251012","441-VK","2019/08/08 20:19:48","新北市淡水區淡金路三段374號","121.449755","25.210105","6501000","淡水區"
"251001","559-UM","2019/08/08 20:19:56","新北市淡水區淡金路二段15號","121.446333333333","25.1891983333333","6501000","淡水區"
"251006","561-UM","2019/08/08 20:19:53","新北市淡水區北新路141巷80弄34號","121.448196666667","25.18036","6501000","淡水區"
"251014","577-R6","2019/08/08 20:19:51","新北市淡水區石頭厝2號","121.4583","25.2356366666667","6501000","淡水區"
"251002","672-BX","2019/08/08 20:19:43","新北市淡水區中正路139號","121.43906","25.170535","6501000","淡水區"
"251003","766-UM","2019/08/08 20:19:52","新北市淡水區中山北路一段192號","121.444501666667","25.1792516666667","6501000","淡水區"
"207003","550-UM","2019/08/08 20:19:50","新北市萬里區大鵬里頂社15-2號","121.655801666667","25.209335","6502800","萬里區"
"207004","225-TW","2019/08/08 20:19:50","新北市萬里區北基里大仁路5號","121.682085","25.1753166666667","6502800","萬里區"
"252002","178-VK","2019/08/08 20:19:52","新北市三芝區中正路一段49號","121.503331666667","25.2581033333333","6502100","三芝區"
"237014","433-BY","2019/08/08 20:19:44","新北市三峽區正義街140-1號","121.36842","24.916295","6500900","三峽區"
"237006","5529-G3","2019/08/08 20:19:48","新北市三峽區中園街86巷22號","121.367228333333","24.925055","6500900","三峽區"
"236030","253-BX","2019/08/08 20:19:59","新北市土城區學成路128巷11號","121.449511666667","24.99002","6501300","土城區"
"236026","269-VK","2019/08/08 20:19:56","新北市土城區中央路一段249巷12號","121.445811666667","24.985575","6501300","土城區"
"236014","270-VK","2019/08/08 20:19:39","新北市土城區廣明街90巷29號","121.455688333333","24.9947616666667","6501300","土城區"
"236038","271-VK","2019/08/08 20:19:55","新北市土城區延吉街280號","121.465208333333","24.984325","6501300","土城區"
"247010","KED-0683","2019/08/08 20:19:54","新北市蘆洲區信義路222巷32弄16號","121.48048","25.08467","6501400","蘆洲區"
"236070","KEA-2877","2019/08/08 20:19:48","新北市土城區中山路34號","121.425061666667","24.96402","6501300","土城區"
"252001","KED-0821","2019/08/08 20:19:57","新北市三芝區中山路一段14號","121.500685","25.2580966666667","6502100","三芝區"
"236059","912-UM","2019/08/08 20:19:40","新北市土城區大安路101-5號","121.433323333333","24.9688033333333","6501300","土城區"
"242061","986-R7","2019/08/08 20:19:53","新北市新莊區瓊林路206-6號","121.435356666667","25.022245","6500500","新莊區"
"242002","751-BX","2019/08/08 20:19:46","新北市新莊區中正路170號","121.450763333333","25.0361066666667","6500500","新莊區"
"242029","615-BX","2019/08/08 20:19:53","新北市新莊區中原路249號","121.448986666667","25.05429","6500500","新莊區"
"242027","613-BX","2019/08/08 20:19:45","新北市新莊區幸福路745號","121.448596666667","25.0491983333333","6500500","新莊區"
"242058","612-BX","2019/08/08 20:19:50","新北市新莊區八德街163號","121.423396666667","25.019215","6500500","新莊區"
"242046","566-BX","2019/08/08 20:19:58","新北市新莊區中正路新生巷54號","121.417486666667","25.02326","6500500","新莊區"
"242051","497-BY","2019/08/08 20:19:45","新北市新莊區民安西路221號","121.426","25.0144266666667","6500500","新莊區"
"242056","441-UM","2019/08/08 20:19:51","新北市新莊區新莊路649巷20號","121.445021666667","25.0323416666667","6500500","新莊區"
"242004","440-UM","2019/08/08 20:19:56","新北市新莊區頭前路2巷8號","121.46848","25.05292","6500500","新莊區"
"242042","415-TV","2019/08/08 20:20:00","新北市新莊區壽山路69號","121.410088333333","25.0327016666667","6500500","新莊區"
"242011","413-TV","2019/08/08 20:19:44","新北市新莊區中信街37巷1弄1號","121.450333333333","25.0505333333333","6500500","新莊區"
"242048","400-BY","2019/08/08 20:19:56","新北市新莊區民安路214號","121.425918333333","25.0228216666667","6500500","新莊區"
"242025","362-BY","2019/08/08 20:19:53","新北市新莊區五工二路70巷1號","121.460303333333","25.0659416666667","6500500","新莊區"
"242023","353-BY","2019/08/08 20:19:52","新北市新莊區化成路728號","121.465653333333","25.0572483333333","6500500","新莊區"
"242013","132-UY","2019/08/08 20:19:49","新北市新莊區幸福路710巷1弄12號","121.449128333333","25.0497016666667","6500500","新莊區"
"242036","135-UY","2019/08/08 20:19:44","新北市新莊區建安街60號","121.427148333333","25.0246266666667","6500500","新莊區"
"242053","172-VK","2019/08/08 20:19:43","新北市新莊區民安西路267號","121.42649","25.01288","6500500","新莊區"
"242015","173-VK","2019/08/08 20:20:00","新北市新莊區中和街31巷22號","121.447116666667","25.0439383333333","6500500","新莊區"
"242021","175-VK","2019/08/08 20:19:50","新北市新莊區和興街53號","121.446481666667","25.0408283333333","6500500","新莊區"
"242019","KED-0687","2019/08/08 20:19:54","新北市新莊區博愛路10巷3號","121.456198333333","25.04401","6500500","新莊區"
"242039","346-TH","2019/08/08 20:19:48","新北市新莊區龍安路457號","121.424535","25.0185383333333","6500500","新莊區"
"242034","348-TH","2019/08/08 20:19:51","新北市新莊區華興街38號","121.446006666667","25.0359766666667","6500500","新莊區"
"242007","349-TH","2019/08/08 20:19:42","新北市新莊區福壽街124巷41弄18號","121.459315","25.0518533333333","6500500","新莊區"
"242031","350-TH","2019/08/08 20:20:00","新北市新莊區三泰路1號","121.440616666667","25.0339783333333","6500500","新莊區"
"242017","351-TH","2019/08/08 20:19:47","新北市新莊區中港一街49號","121.450551666667","25.0454733333333","6500500","新莊區"
"221008","489-VK","2019/08/08 20:19:44","台北市內湖區康樂街210號","121.62375","25.0795616666667","6501100","汐止區"
"221036","130-UY","2019/08/08 20:20:01","新北市汐止區福安街59巷5號","121.664258333333","25.0637583333333","6501100","汐止區"
"221015","131-UY","2019/08/08 20:19:56","新北市汐止區建成路142巷19弄17號","121.661841666667","25.0738966666667","6501100","汐止區"
"221010","269-BY","2019/08/08 20:19:49","新北市汐止區八連路一段197巷25號","121.641566666667","25.079155","6501100","汐止區"
"221012","278-VK","2019/08/08 20:19:58","新北市汐止區大同路三段262號","121.676411666667","25.0718816666667","6501100","汐止區"
"221023","279-VK","2019/08/08 20:19:58","新北市汐止區明峰街298巷10弄2號","121.625081666667","25.068835","6501100","汐止區"
"221032","280-BY","2019/08/08 20:19:53","新北市汐止區弘道街24號","121.61743","25.048645","6501100","汐止區"
"221029","298-VK","2019/08/08 20:19:59","新北市汐止區樟樹一路99巷7弄6號","121.641063333333","25.06351","6501100","汐止區"
"221021","299-VK","2019/08/08 20:19:47","新北市汐止區水源路一段280號","121.654238333333","25.058365","6501100","汐止區"
"221031","353-TW","2019/08/08 20:19:49","新北市汐止區福德二路106號","121.632085","25.0660633333333","6501100","汐止區"
"221035","622-UM","2019/08/08 20:19:46","新北市汐止區長江街57巷26號","121.656261666667","25.072375","6501100","汐止區"
"221025","623-UM","2019/08/08 20:19:44","新北市汐止區水源路二段30號","121.654801666667","25.0573916666667","6501100","汐止區"
"221038","646-BX","2019/08/08 20:19:44","新北市汐止區忠孝東路424號","121.665968333333","25.071585","6501100","汐止區"
"221033","647-BX","2019/08/08 20:19:39","新北市汐止區東勢街203號","121.633776666667","25.0419116666667","6501100","汐止區"
"221018","753-BX","2019/08/08 20:20:01","新北市汐止區茄苳路266號","121.671971666667","25.0680866666667","6501100","汐止區"
"220079","145-BY","2019/08/08 20:20:00","新北市板橋區南雅西路二段301巷41弄2號","121.4517","25.0165616666667","6500100","板橋區"
"220083","286-VK","2019/08/08 20:19:58","新北市板橋區僑中二街92巷20號","121.44529","25.0091333333333","6500100","板橋區"
"220081","287-VK","2019/08/08 20:19:53","新北市板橋區僑中一街80巷12弄1號","121.448135","25.0132466666667","6500100","板橋區"
"242044","281-VK","2019/08/08 20:19:57","新北市新莊區中正路895-1號","121.412278333333","25.022065","6500500","新莊區"
"220075","303-R5","2019/08/08 20:19:41","新北市板橋區金華街10巷55號","121.457471666667","25.0202816666667","6500100","板橋區"
"242009","280-VK","2019/08/08 20:19:42","新北市新莊區昌平街33號","121.454831666667","25.051965","6500500","新莊區"
"220103","561-BX","2019/08/08 20:20:01","新北市板橋區漢生東路31號","121.465438333333","25.0170266666667","6500100","板橋區"
"220080","568-UM","2019/08/08 20:19:50","新北市板橋區大觀路二段153巷44弄53號","121.445983333333","24.9989783333333","6500100","板橋區"
"220055","630-UY","2019/08/08 20:19:56","新北市板橋區忠孝路48巷11弄16號","121.462195","24.9998233333333","6500100","板橋區"
"220054","741-BX","2019/08/08 20:19:43","新北市板橋區實踐路93巷26號","121.465073333333","25.0052133333333","6500100","板橋區"
"220074","895-R6","2019/08/08 20:19:56","新北市板橋區館前西路66號","121.457725","25.0069733333333","6500100","板橋區"
"220064","AAC-253","2019/08/08 20:19:54","新北市板橋區板新路5巷2號","121.475301666667","25.0123883333333","6500100","板橋區"
"235068","KEA-2873","2019/08/08 20:19:53","新北市中和區福美路256巷16弄18號","121.498595","25.0060666666667","6500300","中和區"
