"lineid","car","time","location","longitude","latitude","cityid","cityname"
"234081","298-R6","2019/08/08 20:29:58","新北市永和區福和路19巷1弄5號","121.524301666667","25.007865","6500400","永和區"
"234038","336-UY","2019/08/08 20:29:57","新北市永和區成功路一段62號","121.526935","25.0038116666667","6500400","永和區"
"234064","337-UY","2019/08/08 20:29:55","新北市永和區中正路395號","121.51725","25.0041","6500400","永和區"
"234086","338-UY","2019/08/08 20:29:44","新北市永和區光復街21號","121.516523333333","25.01737","6500400","永和區"
"234070","552-UM","2019/08/08 20:29:58","新北市永和區永亨路7號","121.519473333333","25.0056833333333","6500400","永和區"
"234017","745-BX","2019/08/08 20:29:42","新北市永和區仁愛路91號","121.513013333333","25.013125","6500400","永和區"
"234054","KEA-2590","2019/08/08 20:30:00","新北市永和區博愛街45巷25弄3號","121.518925","25.0167466666667","6500400","永和區"
"234013","KEA-2591","2019/08/08 20:30:00","新北市永和區仁愛路296號","121.50375","25.0081733333333","6500400","永和區"
"234061","AAD-866","2019/08/08 20:29:51","新北市永和區安樂路174號","121.514893333333","25.0011733333333","6500400","永和區"
"234042","862-TW","2019/08/08 20:29:52","新北市永和區安樂路431號","121.514335","25.0044333333333","6500400","永和區"
"234050","863-TW","2019/08/08 20:29:43","新北市永和區新生路90號","121.507363333333","25.014935","6500400","永和區"
"249001","173-UM","2019/08/08 20:29:58","新北市八里區商港路38號","121.39648","25.1449833333333","6502300","八里區"
"249004","303-UY","2019/08/08 20:30:00","新北市八里區中山路一段129巷27號","121.41405","25.1586416666667","6502300","八里區"
"249002","305-UY","2019/08/08 20:29:48","新北市八里區龍米路二段68號","121.44777","25.14188","6502300","八里區"
"249003","593-UM","2019/08/08 20:29:51","新北市八里區舊城路19號","121.399685","25.1467783333333","6502300","八里區"
"248002","678-BX","2019/08/08 20:29:51","新北市五股區成泰路二段195巷1號","121.440555","25.0874716666667","6501500","五股區"
"234023","9380-KE","2019/08/08 20:29:57","新北市永和區博愛街31巷11號","121.518331666667","25.0161","6500400","永和區"
"234074","AAC-211","2019/08/08 20:29:54","新北市永和區竹林路201巷22弄1號","121.522041666667","25.0093966666667","6500400","永和區"
"234067","AAC-212","2019/08/08 20:29:59","新北市永和區保平路268巷51弄22號","121.506743333333","25.0060866666667","6500400","永和區"
"234003","AAC-295","2019/08/08 20:29:39","新北市永和區中正路555號","121.516776666667","25.00832","6500400","永和區"
"243012","AAD-798","2019/08/08 20:29:54","新北市泰山區楓江路43號","121.435188333333","25.0626116666667","6501600","泰山區"
"243010","297-R6","2019/08/08 20:29:55","新北市泰山區明志路二段273巷16弄21號","121.427816666667","25.0466633333333","6501600","泰山區"
"243014","KEA-2801","2019/08/08 20:29:53","新北市泰山區泰林路二段461號","121.425563333333","25.0639733333333","6501600","泰山區"
"243016","421-VK","2019/08/08 20:29:56","新北市泰山區文程路58號","121.4301","25.04836","6501600","泰山區"
"243009","KEA-2215","2019/08/08 20:29:52","新北市泰山區泰林路二段328號","121.430118333333","25.06305","6501600","泰山區"
"243011","KEA-2216","2019/08/08 20:29:43","新北市泰山區新北大道六段235號","121.425541666667","25.0353283333333","6501600","泰山區"
"243013","646-TV","2019/08/08 20:29:58","新北市泰山區中央路14巷5號","121.426433333333","25.0437166666667","6501600","泰山區"
"243015","680-BX","2019/08/08 20:29:50","新北市泰山區仁德路88號","121.433288333333","25.0564033333333","6501600","泰山區"
"222003","436-BY","2019/08/08 20:29:58","新北市深坑區深坑街54號","121.61487","25.00167","6501800","深坑區"
"222002","659-BX","2019/08/08 20:29:47","新北市深坑區萬福路16巷36-1號","121.610673333333","25.008095","6501800","深坑區"
"231061","002-UM","2019/08/08 20:29:59","新北市新店區光華街38巷11號","121.515823333333","24.9702366666667","6500600","新店區"
"231055","0291-UT","2019/08/08 20:29:48","新北市新店區新明街12巷1號","121.541053333333","24.9683983333333","6500600","新店區"
"231058","0293-UT","2019/08/08 20:29:52","新北市新店區安德街60巷35號","121.511036666667","24.9638166666667","6500600","新店區"
"231044","046-UY","2019/08/08 20:29:55","新北市新店區建國路134號","121.538963333333","24.97889","6500600","新店區"
"231060","106-UY","2019/08/08 20:29:54","新北市新店區錦秀路11巷38號","121.480833333333","24.9438483333333","6500600","新店區"
"231051","107-UY","2019/08/08 20:29:46","新北市新店區中央七街20號","121.529841666667","24.9749766666667","6500600","新店區"
"231049","108-UY","2019/08/08 20:30:01","新北市新店區永業路94號","121.530768333333","24.9510216666667","6500600","新店區"
"231065","110-UY","2019/08/08 20:29:42","新北市新店區安祥路102巷70號","121.485571666667","24.9639816666667","6500600","新店區"
"231068","187-VK","2019/08/08 20:29:43","新北市新店區民權路13號","121.54233","24.9828616666667","6500600","新店區"
"231062","256-BX","2019/08/08 20:29:58","新北市新店區安泰路60巷78號","121.483853333333","24.9458116666667","6500600","新店區"
"231054","260-TV","2019/08/08 20:29:58","新北市新店區檳榔路111號","121.544611666667","24.9615016666667","6500600","新店區"
"231042","268-BY","2019/08/08 20:29:45","新北市新店區寶橋路182號","121.549416666667","24.9775833333333","6500600","新店區"
"231064","278-BY","2019/08/08 20:29:42","新北市新店區永安街74巷16號","121.519381666667","24.9861433333333","6500600","新店區"
"231050","AAD-862","2019/08/08 20:29:58","新北市新店區建興街7號","121.539978333333","24.9764433333333","6500600","新店區"
"231045","355-BY","2019/08/08 20:29:47","新北市新店區新坡一街56-2號","121.549963333333","24.9636533333333","6500600","新店區"
"231056","4715-K9","2019/08/08 20:29:56","新北市新店區中央六街57號","121.52797","24.975915","6500600","新店區"
"231067","4772-VM","2019/08/08 20:29:50","新北市新店區安華路28-1號","121.51957","24.9608516666667","6500600","新店區"
"231052","513-UM","2019/08/08 20:29:48","新北市新店區松林路38號","121.546246666667","24.91027","6500600","新店區"
"231041","619-UM","2019/08/08 20:30:00","新北市新店區民權路131號","121.53511","24.9825483333333","6500600","新店區"
"231063","641-BX","2019/08/08 20:29:51","新北市新店區玫瑰路4-1號","121.493596666667","24.9513866666667","6500600","新店區"
"231047","KED-0819","2019/08/08 20:29:58","新北市新店區寶慶街58巷21-1號","121.54205","24.9873","6500600","新店區"
"231057","720-UM","2019/08/08 20:29:45","新北市新店區花園六路二段7號","121.555373333333","24.9334483333333","6500600","新店區"
"231059","897-TW","2019/08/08 20:29:55","新北市新店區安德街151號","121.508306666667","24.9597983333333","6500600","新店區"
"231040","898-TW","2019/08/08 20:29:51","新北市新店區三民路56號","121.535293333333","24.97205","6500600","新店區"
"231043","899-TW","2019/08/08 20:29:54","新北市新店區建國路82號","121.540553333333","24.97673","6500600","新店區"
"231066","AKT-0513","2019/08/08 20:29:43","新北市新店區安德街60巷35號","121.510716666667","24.9635183333333","6500600","新店區"
"241011","013-R5","2019/08/08 20:29:59","新北市三重區龍門路51號","121.496276666667","25.07228","6500200","三重區"
"241028","022-UY","2019/08/08 20:29:56","新北市三重區光興街93號","121.49734","25.059945","6500200","三重區"
"241008","059-VK","2019/08/08 20:29:42","新北市三重區下竹圍街42-1號","121.481066666667","25.0747983333333","6500200","三重區"
"241022","060-VK","2019/08/08 20:29:55","新北市三重區民生街61巷8號","121.48866","25.0627","6500200","三重區"
"241031","061-VK","2019/08/08 20:29:48","新北市三重區三寧街18號","121.4894","25.0598266666667","6500200","三重區"
"241015","062-VK","2019/08/08 20:29:50","新北市三重區長元街2-2號","121.498721666667","25.0659116666667","6500200","三重區"
"241017","063-VK","2019/08/08 20:29:41","新北市三重區自強路一段284號","121.491653333333","25.06807","6500200","三重區"
"241024","065-VK","2019/08/08 20:29:56","新北市三重區忠孝路三段15巷28號","121.4804","25.0678766666667","6500200","三重區"
"241003","091-VK","2019/08/08 20:29:45","新北市三重區富華街140號","121.492163333333","25.08425","6500200","三重區"
"241002","742-BX","2019/08/08 20:29:49","新北市三重區仁義街211巷9號","121.497276666667","25.0820066666667","6500200","三重區"
"241006","262-UM","2019/08/08 20:29:54","新北市三重區車路頭街139巷14號","121.484411666667","25.07642","6500200","三重區"
"241009","267-UM","2019/08/08 20:29:49","新北市三重區三和路四段382巷133號","121.479536666667","25.078155","6500200","三重區"
"241018","268-UM","2019/08/08 20:29:58","新北市三重區正義北路216巷14號","121.495725","25.0674483333333","6500200","三重區"
"241032","269-UM","2019/08/08 20:29:46","新北市三重區重陽路一段120巷35號","121.485085","25.0601783333333","6500200","三重區"
"241013","270-UM","2019/08/08 20:30:01","新北市三重區溪尾街5巷45號","121.49332","25.0749266666667","6500200","三重區"
"241025","271-UM","2019/08/08 20:29:57","新北市三重區頂崁街210巷27號","121.475805","25.068225","6500200","三重區"
"241007","398-BY","2019/08/08 20:29:45","新北市三重區溪尾街108巷4號","121.489185","25.0787716666667","6500200","三重區"
"241030","KED-0822","2019/08/08 20:30:02","新北市三重區成功路62號","121.488583333333","25.0507983333333","6500200","三重區"
"241035","462-BY","2019/08/08 20:29:46","新北市三重區正義北路196號","121.496371666667","25.0670566666667","6500200","三重區"
"241004","475-VK","2019/08/08 20:29:42","新北市三重區溪尾街217號","121.488416666667","25.081035","6500200","三重區"
"241020","478-VK","2019/08/08 20:29:47","新北市三重區忠孝路一段23號","121.491978333333","25.07202","6500200","三重區"
"241026","480-VK","2019/08/08 20:29:52","新北市三重區環河南路11-2號","121.503346666667","25.0630366666667","6500200","三重區"
"241014","543-UM","2019/08/08 20:29:43","新北市三重區長壽街120巷23號","121.502366666667","25.069305","6500200","三重區"
"241023","545-UM","2019/08/08 20:30:00","新北市三重區自由街17巷11號","121.480178333333","25.0668933333333","6500200","三重區"
"241001","547-UM","2019/08/08 20:29:50","新北市三重區自強路四段31巷14號","121.489666666667","25.0769566666667","6500200","三重區"
"241019","KEA-2593","2019/08/08 20:29:53","新北市三重區重陽路四段75號","121.492381666667","25.070765","6500200","三重區"
"241005","AAD-863","2019/08/08 20:29:56","新北市三重區碧華街456號","121.49339","25.0860483333333","6500200","三重區"
"241016","887-TS","2019/08/08 20:29:41","新北市三重區正義北路190巷11號","121.495916666667","25.066875","6500200","三重區"
"241012","941-UM","2019/08/08 20:29:53","新北市三重區龍濱路251號","121.501543333333","25.072685","6500200","三重區"
"241029","942-UM","2019/08/08 20:29:58","新北市三重區集美街126巷8號","121.489285","25.0536716666667","6500200","三重區"
"241033","AAC-255","2019/08/08 20:29:54","新北市三重區五谷王北街80巷1號","121.475985","25.0532483333333","6500200","三重區"
"235066","003-UY","2019/08/08 20:29:55","新北市中和區保平路340巷18號","121.50614","25.0045983333333","6500300","中和區"
"235055","183-VK","2019/08/08 20:29:58","新北市八里區中山路三段390號","121.368308333333","25.1350716666667","6500300","中和區"
"247014","KEA-2869","2019/08/08 20:29:42","新北市蘆洲區和平路52號","121.470353333333","25.0791216666667","6501400","蘆洲區"
"247008","KED-0682","2019/08/08 20:29:51","新北市蘆洲區永安北路二段76巷6號","121.48329","25.0849033333333","6501400","蘆洲區"
"235050","4979-A6","2019/08/08 20:29:38","新北市中和區景平路470號","121.505501666667","24.9935133333333","6500300","中和區"
"235069","4980-A6","2019/08/08 20:29:52","新北市中和區中正路440號","121.491051666667","24.9943733333333","6500300","中和區"
"235026","800-TS","2019/08/08 20:00:23","新北市中和區員山路36巷16-3號","121.484948333333","24.9913116666667","6500300","中和區"
"235059","AAC-215","2019/08/08 20:29:51","新北市中和區員山路32號","121.481146666667","24.9876883333333","6500300","中和區"
"247004","893-R6","2019/08/08 20:29:43","新北市蘆洲區長安街303號","121.458005","25.08498","6501400","蘆洲區"
"247018","546-UM","2019/08/08 20:29:41","新北市蘆洲區民族路255巷20號","121.476016666667","25.0893966666667","6501400","蘆洲區"
"247024","337-TH","2019/08/08 20:29:42","新北市蘆洲區光復路70巷16號","121.464491666667","25.0849783333333","6501400","蘆洲區"
"247002","336-TH","2019/08/08 20:29:56","新北市蘆洲區長安街361巷28號","121.45596","25.0876883333333","6501400","蘆洲區"
"247022","057-VK","2019/08/08 20:29:41","新北市蘆洲區中正路202號","121.466495","25.0884483333333","6501400","蘆洲區"
"247012","056-VK","2019/08/08 20:29:55","新北市蘆洲區民族路177號","121.479006666667","25.0886566666667","6501400","蘆洲區"
"247016","053-VK","2019/08/08 20:29:45","新北市蘆洲區光華路80-1號","121.467773333333","25.0827283333333","6501400","蘆洲區"
"247020","007-UY","2019/08/08 20:29:45","新北市蘆洲區水湳街395號","121.469313333333","25.0945083333333","6501400","蘆洲區"
"247006","002-UY","2019/08/08 20:30:00","新北市蘆洲區和平路121巷8弄43號","121.465731666667","25.0807933333333","6501400","蘆洲區"
"228003","097-TW","2019/08/08 20:29:53","新北市貢寮區貢寮里朝陽街1號","121.910248333333","25.0212833333333","6502600","貢寮區"
"224002","639-TC","2019/08/08 20:29:48","新北市瑞芳區蛇子形路7號","121.825991666667","25.1049816666667","6501200","瑞芳區"
"222001","KEA-2212","2019/08/08 20:29:48","新北市深坑區北深路三段327號","121.597403333333","25.005235","6501800","深坑區"
"251010","012-UM","2019/08/08 20:29:47","新北市淡水區沙崙路181巷2-1號","121.424303333333","25.18411","6501000","淡水區"
"251015","KEA-2871","2019/08/08 20:29:47","新北市淡水區埤島3-20號","121.447001666667","25.19155","6501000","淡水區"
"251016","179-VK","2019/08/08 20:29:40","新北市淡水區新埔子11-11號","121.447038333333","25.2286883333333","6501000","淡水區"
"251008","181-VK","2019/08/08 20:29:47","新北市淡水區淡海路208巷25號","121.42163","25.1859416666667","6501000","淡水區"
"251013","182-VK","2019/08/08 20:29:42","新北市淡水區後坑子6號","121.463598333333","25.20662","6501000","淡水區"
"251012","441-VK","2019/08/08 20:29:48","新北市淡水區頂田寮路37號","121.455436666667","25.2163133333333","6501000","淡水區"
"251001","559-UM","2019/08/08 20:29:56","新北市淡水區新市一路三段3號","121.44498","25.1830283333333","6501000","淡水區"
"251006","561-UM","2019/08/08 20:29:53","新北市淡水區商工路366號","121.468816666667","25.1853716666667","6501000","淡水區"
"251014","577-R6","2019/08/08 20:29:51","新北市淡水區石頭厝14-16號","121.464315","25.236765","6501000","淡水區"
"251002","672-BX","2019/08/08 20:29:43","新北市淡水區中正路27號","121.44245","25.16962","6501000","淡水區"
"251003","766-UM","2019/08/08 20:29:52","新北市淡水區新生街29號","121.439428333333","25.1751733333333","6501000","淡水區"
"207004","225-TW","2019/08/08 20:29:50","新北市萬里區北基里忠二街13號","121.684895","25.1754316666667","6502800","萬里區"
"252002","178-VK","2019/08/08 20:29:52","新北市三芝區淡金路二段47-2號","121.503691666667","25.2605266666667","6502100","三芝區"
"237014","433-BY","2019/08/08 20:29:44","新北市三峽區愛國路1-1號","121.375035","24.93407","6500900","三峽區"
"247010","KED-0683","2019/08/08 20:29:54","新北市蘆洲區信義路222巷57號","121.481078333333","25.0854416666667","6501400","蘆洲區"
"252001","KED-0821","2019/08/08 20:29:57","新北市三芝區中山路一段36號","121.500805","25.257535","6502100","三芝區"
"242061","986-R7","2019/08/08 20:29:53","新北市新莊區民安路343號","121.430808333333","25.0229366666667","6500500","新莊區"
"242002","751-BX","2019/08/08 20:29:46","新北市新莊區中正路55-4號","121.461866666667","25.039715","6500500","新莊區"
"242029","615-BX","2019/08/08 20:29:53","新北市新莊區中華路二段151號","121.452816666667","25.0514516666667","6500500","新莊區"
"242027","613-BX","2019/08/08 20:29:45","新北市新莊區幸福路558號","121.454671666667","25.0493016666667","6500500","新莊區"
"242058","612-BX","2019/08/08 20:29:50","新北市新莊區龍安路278巷5號","121.4222","25.0189633333333","6500500","新莊區"
"242046","566-BX","2019/08/08 20:29:58","新北市新莊區裕民街72巷3號","121.418348333333","25.0241716666667","6500500","新莊區"
"242051","497-BY","2019/08/08 20:29:45","新北市新莊區民安西路189巷22號","121.426993333333","25.0151783333333","6500500","新莊區"
"242056","441-UM","2019/08/08 20:29:51","新北市新莊區瓊泰路136號","121.443218333333","25.0319633333333","6500500","新莊區"
"242004","440-UM","2019/08/08 20:29:56","新北市新莊區頭前路36號","121.467418333333","25.0524933333333","6500500","新莊區"
"242042","415-TV","2019/08/08 20:30:00","新北市新莊區中正路694巷104號","121.416986666667","25.0297083333333","6500500","新莊區"
"242011","413-TV","2019/08/08 20:29:44","新北市新莊區中義街6號","121.451428333333","25.0512016666667","6500500","新莊區"
"242048","400-BY","2019/08/08 20:29:56","新北市新莊區四維路152巷14號","121.42217","25.0230016666667","6500500","新莊區"
"242025","362-BY","2019/08/08 20:29:55","新北市新莊區五工二路62巷16號","121.461116666667","25.0660783333333","6500500","新莊區"
"242023","353-BY","2019/08/08 20:29:52","新北市新莊區化成路896號","121.464605","25.0616366666667","6500500","新莊區"
"242013","132-UY","2019/08/08 20:29:49","新北市新莊區中和街155巷24弄14號","121.446608333333","25.050215","6500500","新莊區"
"242036","135-UY","2019/08/08 20:29:44","新北市新莊區後港一路76巷14弄1號","121.427365","25.0253983333333","6500500","新莊區"
"242053","172-VK","2019/08/08 20:29:43","新北市新莊區民安西路245巷8號","121.426566666667","25.0136333333333","6500500","新莊區"
"242015","173-VK","2019/08/08 20:29:40","新北市新莊區中平路36巷22號","121.44566","25.0435566666667","6500500","新莊區"
"242021","175-VK","2019/08/08 20:29:58","新北市新莊區公園路46號","121.44905","25.0392383333333","6500500","新莊區"
"242019","KED-0687","2019/08/08 20:29:53","新北市新莊區民樂街72號","121.45796","25.0434733333333","6500500","新莊區"
"242039","346-TH","2019/08/08 20:29:48","新北市新莊區成功街21號","121.425651666667","25.021435","6500500","新莊區"
"242034","348-TH","2019/08/08 20:29:51","新北市新莊區建中街90巷12號","121.446831666667","25.037545","6500500","新莊區"
"242007","349-TH","2019/08/08 20:29:42","新北市新莊區福壽街94巷3號","121.458546666667","25.0501466666667","6500500","新莊區"
"242031","350-TH","2019/08/08 20:30:00","新北市新莊區三和路17-16號","121.43899","25.0376416666667","6500500","新莊區"
"242017","351-TH","2019/08/08 20:29:47","新北市新莊區中港二街46號","121.45045","25.04601","6500500","新莊區"
"221008","489-VK","2019/08/08 20:29:44","新北市汐止區康寧街67號","121.619175","25.066575","6501100","汐止區"
"221036","130-UY","2019/08/08 20:29:41","新北市汐止區仁愛路151巷26號","121.66334","25.06525","6501100","汐止區"
"221015","131-UY","2019/08/08 20:29:56","新北市汐止區建成路142巷19弄17號","121.661815","25.0738733333333","6501100","汐止區"
"221010","269-BY","2019/08/08 20:29:49","新北市汐止區八連路二段36巷12號","121.637718333333","25.0940866666667","6501100","汐止區"
"221012","278-VK","2019/08/08 20:29:58","新北市汐止區汐平路二段66號","121.698338333333","25.0610883333333","6501100","汐止區"
"221023","279-VK","2019/08/08 20:29:44","新北市汐止區明峰街312號","121.624926666667","25.0675","6501100","汐止區"
"221032","280-BY","2019/08/08 20:29:53","新北市汐止區弘道街53巷11號","121.618705","25.049035","6501100","汐止區"
"221027","281-BY","2019/08/08 20:29:56","新北市汐止區中正路214號","121.658356666667","25.068935","6501100","汐止區"
"221029","298-VK","2019/08/08 20:29:59","新北市汐止區樟樹一路129巷32號","121.640541666667","25.065115","6501100","汐止區"
"221021","299-VK","2019/08/08 20:29:47","新北市汐止區水源路一段284號","121.654238333333","25.0582483333333","6501100","汐止區"
"221031","353-TW","2019/08/08 20:29:49","新北市汐止區中興路150巷13號","121.633","25.065055","6501100","汐止區"
"221035","622-UM","2019/08/08 20:29:46","新北市汐止區長江街79巷16號","121.657871666667","25.0728683333333","6501100","汐止區"
"221025","623-UM","2019/08/08 20:29:44","新北市汐止區水源路二段86號","121.656495","25.056145","6501100","汐止區"
"221038","646-BX","2019/08/08 20:29:44","新北市汐止區水源路一段72號","121.656635","25.06514","6501100","汐止區"
"221033","647-BX","2019/08/08 20:29:59","新北市汐止區林森街73巷3號","121.623533333333","25.0408983333333","6501100","汐止區"
"221002","707-TV","2019/08/08 20:29:48","新北市汐止區福德二路47號","121.634371666667","25.06726","6501100","汐止區"
"221018","753-BX","2019/08/08 20:29:01","新北市汐止區茄苳路225巷11弄18號","121.671","25.0697183333333","6501100","汐止區"
"220079","145-BY","2019/08/08 20:29:40","新北市五股區新五路三段2號","121.444648333333","25.0880283333333","6500100","板橋區"
"220083","286-VK","2019/08/08 20:29:58","新北市板橋區僑中二街102巷1-4號","121.445956666667","25.0081916666667","6500100","板橋區"
"220081","287-VK","2019/08/08 20:29:53","新北市板橋區僑中一街98號","121.44681","25.0116633333333","6500100","板橋區"
"242044","281-VK","2019/08/08 20:29:57","新北市新莊區龍安路66-5號","121.414856666667","25.0212583333333","6500500","新莊區"
"242009","280-VK","2019/08/08 20:29:42","新北市新莊區昌盛街83號","121.455473333333","25.0500883333333","6500500","新莊區"
"220064","AAC-253","2019/08/08 20:29:54","新北市板橋區長江路二段311巷18-1號","121.468436666667","25.0354216666667","6500100","板橋區"
"235068","KEA-2873","2019/08/08 20:29:53","新北市中和區福祥路125號","121.498691666667","25.0067866666667","6500300","中和區"
