"lineid","car","time","location","longitude","latitude","cityid","cityname"
"251004","009-UM","2019/08/08 22:10:01","新北市淡水區民族路110巷12弄3號","121.462116666667","25.135735","6501000","淡水區"
"251005","010-UM","2019/08/08 22:09:59","新北市淡水區鄧公路19號","121.451353333333","25.169985","6501000","淡水區"
"251010","012-UM","2019/08/08 22:09:47","新北市淡水區沙崙路200號","121.424703333333","25.1838933333333","6501000","淡水區"
"251008","181-VK","2019/08/08 22:09:46","新北市淡水區學府路104號","121.449928333333","25.1718466666667","6501000","淡水區"
"251007","442-VK","2019/08/08 22:09:47","新北市淡水區北新路180號","121.449471666667","25.1786983333333","6501000","淡水區"
"251006","561-UM","2019/08/08 22:09:50","新北市淡水區新民街19巷12號","121.438446666667","25.1747316666667","6501000","淡水區"
"251011","650-BX","2019/08/08 22:09:44","新北市淡水區水碓街7號","121.443171666667","25.177145","6501000","淡水區"
"221035","622-UM","2019/08/08 22:09:46","新北市汐止區大同路二段273號","121.652525","25.0680466666667","6501100","汐止區"
"241031","281-UM","2019/08/08 21:49:31","新北市板橋區板城路407號","121.447046666667","24.99488","6500200","三重區"
