"lineid","car","time","location","longitude","latitude","cityid","cityname"
"222005","289-BY","2019/07/05 09:39:37","新北市深坑區北深路一段278巷32號","121.628215","25.0131383333333","6501800","深坑區"
"231007","189-VK","2019/07/05 09:39:38","新北市新店區新潭路三段215巷25號","121.508101666667","24.90396","6500600","新店區"
"231009","515-UM","2019/07/05 09:39:28","新北市新店區平廣路一段185號","121.516846666667","24.888775","6500600","新店區"
"235016","805-TS","2019/07/05 09:39:34","新北市中和區員山路36巷16-3號","121.484571666667","24.9912016666667","6500300","中和區"
"223003","205-TH","2019/07/05 09:39:22","新北市石碇區北宜路四段18-1號","121.618815","24.95924","6501900","石碇區"
"223001","592-UM","2019/07/05 09:39:04","新北市石碇區北宜路四段18-1號","121.619388333333","24.9591433333333","6501900","石碇區"
"227003","282-VK","2019/07/05 09:37:03","新北市雙溪區泰平里溪尾寮6號","121.819875","24.962295","6502500","雙溪區"
"237014","760-BX","2019/07/05 09:39:23","新北市三峽區介壽路三段160-1號","121.402046666667","24.94376","6500900","三峽區"
"221010","645-BX","2019/07/05 09:39:45","新北市汐止區東勢街76巷89號","121.635803333333","25.03892","6501100","汐止區"
