"lineid","car","time","location","longitude","latitude","cityid","cityname"
"231007","189-VK","2019/07/05 09:49:58","新北市新店區新潭路三段215巷25號","121.508076666667","24.9039483333333","6500600","新店區"
"231009","515-UM","2019/07/05 09:50:08","新北市新店區小坑一路22號","121.532453333333","24.9140233333333","6500600","新店區"
"223003","205-TH","2019/07/05 09:50:01","新北市石碇區北宜路五段1號","121.625958333333","24.9543933333333","6501900","石碇區"
"227003","282-VK","2019/07/05 09:37:03","新北市雙溪區泰平里溪尾寮6號","121.819875","24.962295","6502500","雙溪區"
"237014","760-BX","2019/07/05 09:50:02","新北市三峽區介壽路三段101號","121.394178333333","24.9393616666667","6500900","三峽區"
"221010","645-BX","2019/07/05 09:50:05","新北市汐止區東勢街109號","121.632808333333","25.0402983333333","6501100","汐止區"
