"lineid","car","time","location","longitude","latitude","cityid","cityname"
"234044","148-BY","2019/07/05 13:59:32","新北市永和區成功路一段79號","121.526913333333","25.00309","6500400","永和區"
"234078","298-R6","2019/07/05 13:59:27","新北市永和區永利路81巷23號","121.522345","25.0038583333333","6500400","永和區"
"234036","336-UY","2019/07/05 13:59:34","新北市永和區成功路二段115號","121.526636666667","24.9986616666667","6500400","永和區"
"234062","337-UY","2019/07/05 13:59:23","新北市永和區中正路368巷1弄47號","121.519178333333","25.0012166666667","6500400","永和區"
"234084","338-UY","2019/07/05 13:59:37","新北市永和區福和路74號","121.523033333333","25.0080683333333","6500400","永和區"
"234068","552-UM","2019/07/05 13:59:43","新北市永和區國光路51號","121.519016666667","25.0082133333333","6500400","永和區"
"234015","745-BX","2019/07/05 13:59:24","新北市永和區文化路11號","121.515185","25.01503","6500400","永和區"
"234028","746-BX","2019/07/05 13:59:32","新北市永和區民生路47巷36號","121.52469","24.9976983333333","6500400","永和區"
"234052","KEA-2590","2019/07/05 13:59:32","新北市永和區環河東路一段122號","121.520435","25.0154116666667","6500400","永和區"
"234005","KED-0605","2019/07/05 13:59:25","新北市中和區中和路234號","121.506851666667","24.9994516666667","6500400","永和區"
"234012","KEA-2591","2019/07/05 13:59:36","新北市永和區保生路55號","121.504686666667","25.010615","6500400","永和區"
"234060","AAD-866","2019/07/05 13:59:40","新北市永和區中正路151巷8弄2號","121.516016666667","24.998605","6500400","永和區"
"234040","862-TW","2019/07/05 13:59:28","新北市永和區中和路335巷18弄3號","121.507558333333","25.000365","6500400","永和區"
"234048","863-TW","2019/07/05 13:59:43","新北市永和區新生路210巷2號","121.505576666667","25.0132","6500400","永和區"
"234025","9371-KE","2019/07/05 13:59:25","新北市永和區自由街58號","121.513843333333","25.0059733333333","6500400","永和區"
"234010","9373-KE","2019/07/05 13:59:26","新北市永和區仁愛路352巷112弄8號","121.501061666667","25.0084866666667","6500400","永和區"
"248019","KED-0813","2019/07/05 13:59:38","新北市五股區凌雲路三段85-1號","121.423103333333","25.1245483333333","6501500","五股區"
"234022","9380-KE","2019/07/05 13:59:35","新北市永和區復興街39號","121.516478333333","25.0132133333333","6500400","永和區"
"234076","969-R7","2019/07/05 13:59:36","新北市永和區民族街43巷8號","121.518916666667","24.9983916666667","6500400","永和區"
"234072","AAC-211","2019/07/05 13:59:25","新北市永和區豫溪街136巷1號","121.521256666667","25.010315","6500400","永和區"
"234066","AAC-212","2019/07/05 13:59:41","新北市永和區中山路一段269號","121.507258333333","25.007215","6500400","永和區"
"234001","AAC-295","2019/07/05 13:59:31","新北市永和區福和路316-2號","121.515965","25.007295","6500400","永和區"
"244004","248-BX","2019/07/05 13:59:36","新北市林口區南勢四街324號","121.357243333333","25.0759716666667","6501700","林口區"
"231030","002-UM","2019/07/05 13:59:30","新北市新店區安康路一段300-2號","121.518656666667","24.96409","6500600","新店區"
"231027","0293-UT","2019/07/05 13:59:25","新北市新店區北宜路一段3號","121.53856","24.9584266666667","6500600","新店區"
"231005","046-UY","2019/07/05 13:59:34","新北市新店區中興路三段168號","121.54428","24.9807966666667","6500600","新店區"
"231029","106-UY","2019/07/05 13:59:38","新北市新店區安康路二段86號","121.513948333333","24.9632216666667","6500600","新店區"
"231018","107-UY","2019/07/05 13:59:32","新北市新店區中央路196號","121.530798333333","24.9745416666667","6500600","新店區"
"231013","108-UY","2019/07/05 13:59:37","新北市新店區明德路66號","121.541536666667","24.97951","6500600","新店區"
"231036","110-UY","2019/07/05 13:59:35","新北市新店區安祥路109巷3弄6號","121.475368333333","24.9596933333333","6500600","新店區"
"231023","260-TV","2019/07/05 13:59:40","新北市新店區文中路45號","121.539535","24.9566716666667","6500600","新店區"
"231003","268-BY","2019/07/05 13:59:27","新北市新店區北宜路一段3號","121.538491666667","24.95837","6500600","新店區"
"231035","278-BY","2019/07/05 13:59:32","新北市新店區安和路一段52巷2-1號","121.517671666667","24.9662816666667","6500600","新店區"
"231016","AAD-862","2019/07/05 13:59:26","新北市新店區北宜路二段116巷3號","121.55672","24.95352","6500600","新店區"
"231006","355-BY","2019/07/05 13:59:27","新北市新店區北宜路二段103號","121.550298333333","24.9523483333333","6500600","新店區"
"231038","3712-VJ","2019/07/05 13:59:25","新北市新店區安華路30巷1號","121.519545","24.95927","6500600","新店區"
"231024","4716-K9","2019/07/05 13:59:33","新北市新店區新生街13巷13號","121.539476666667","24.9659033333333","6500600","新店區"
"231025","4715-K9","2019/07/05 13:59:34","新北市新店區中正路302巷16號","121.538131666667","24.9752233333333","6500600","新店區"
"231022","513-UM","2019/07/05 13:59:27","新北市新店區自強路36號","121.546088333333","24.92629","6500600","新店區"
"231001","617-UM","2019/07/05 13:59:25","新北市新店區三民路47號","121.53705","24.9708816666667","6500600","新店區"
"231002","619-UM","2019/07/05 13:59:32","新北市新店區中正路656號","121.53402","24.9894316666667","6500600","新店區"
"231034","641-BX","2019/07/05 13:59:31","新北市新店區達觀路43號","121.502978333333","24.9379516666667","6500600","新店區"
"231012","KED-0819","2019/07/05 13:59:31","新北市新店區中興路二段59-1號","121.546606666667","24.9704933333333","6500600","新店區"
"231032","718-UY","2019/07/05 13:59:35","新北市新店區華城路66-47號","121.521736666667","24.9525716666667","6500600","新店區"
"231010","719-UM","2019/07/05 13:59:43","新北市新店區安康路一段24巷2號","121.53269","24.9604366666667","6500600","新店區"
"231026","720-UM","2019/07/05 13:59:30","新北市新店區三民路159巷19弄46號","121.532185","24.9732066666667","6500600","新店區"
"231028","897-TW","2019/07/05 13:59:29","新北市新店區安和路三段37號","121.517835","24.9818266666667","6500600","新店區"
"231004","899-TW","2019/07/05 13:59:37","新北市新店區北新路二段137號","121.542911666667","24.9755816666667","6500600","新店區"
"231037","AKT-0513","2019/07/05 13:59:41","新北市新店區安康路三段355巷13號","121.484885","24.9505316666667","6500600","新店區"
"235030","003-UY","2019/07/05 13:59:41","新北市中和區廣福路24號","121.505008333333","25.0023833333333","6500300","中和區"
"235028","005-UY","2019/07/05 13:59:37","新北市中和區中和路26巷16號","121.499171666667","25.0015016666667","6500300","中和區"
"235027","006-UY","2019/07/05 13:59:32","新北市中和區建一路198號","121.487738333333","24.9962733333333","6500300","中和區"
"235020","096-UM","2019/07/05 13:59:31","新北市中和區員山路514巷16號","121.479673333333","25.0094266666667","6500300","中和區"
"235003","097-UM","2019/07/05 13:59:25","新北市中和區景平路3號","121.523646666667","24.9902483333333","6500300","中和區"
"235029","098-UM","2019/07/05 13:59:36","新北市中和區中山路二段136巷40號","121.501265","25.00448","6500300","中和區"
"235004","150-BY","2019/07/05 13:59:42","新北市中和區保健路63號","121.509598333333","24.99727","6500300","中和區"
"235022","151-BY","2019/07/05 13:59:44","新北市中和區連城路569巷9弄12-2號","121.479765","24.993965","6500300","中和區"
"235019","183-VK","2019/07/05 13:59:38","新北市中和區德光路102號","121.468466666667","25.0034033333333","6500300","中和區"
"235002","185-VK","2019/07/05 13:59:23","新北市中和區立人街22號","121.518985","24.9942233333333","6500300","中和區"
"235031","255-BX","2019/07/05 13:59:29","新北市中和區中正路746號","121.485446666667","24.99825","6500300","中和區"
"235008","293-VK","2019/07/05 13:59:36","新北市中和區中興街202巷35號","121.498915","24.9897","6500300","中和區"
"235036","301-VK","2019/07/05 13:59:41","新北市中和區中山路二段28號","121.504566666667","25.0052416666667","6500300","中和區"
"235007","352-BY","2019/07/05 13:59:30","新北市中和區成功路103號","121.525996666667","24.9914566666667","6500300","中和區"
"235006","KEA-2878","2019/07/05 13:59:34","新北市中和區秀朗路三段128巷1弄11號","121.524023333333","24.991665","6500300","中和區"
"247013","KEA-2869","2019/07/05 13:59:35","新北市蘆洲區保和街87號","121.468888333333","25.08602","6501400","蘆洲區"
"247007","KED-0682","2019/07/05 13:59:36","新北市蘆洲區集賢路269巷3號","121.481506666667","25.0837633333333","6501400","蘆洲區"
"235014","4979-A6","2019/07/05 13:59:39","新北市中和區華新街26-1號","121.507631666667","24.9848166666667","6500300","中和區"
"235033","4980-A6","2019/07/05 13:59:41","新北市中和區圓通路61號","121.500458333333","24.9972366666667","6500300","中和區"
"235034","558-UM","2019/07/05 13:59:32","新北市中和區中和路114號","121.50303","24.9995766666667","6500300","中和區"
"235009","565-BX","2019/07/05 13:59:36","新北市中和區景新街467巷38弄2號","121.51454","24.9885933333333","6500300","中和區"
"235024","KED-0823","2019/07/05 13:59:25","新北市中和區民治街120號","121.475226666667","25.0034233333333","6500300","中和區"
"235018","640-BX","2019/07/05 13:59:32","新北市中和區國光街107巷2弄2-1號","121.470075","25.0000316666667","6500300","中和區"
"235011","732-UM","2019/07/05 13:59:36","新北市中和區興南路二段74巷10號","121.505165","24.9848983333333","6500300","中和區"
"235010","733-UM","2019/07/05 13:59:39","新北市中和區興南路二段33號","121.507888333333","24.9855933333333","6500300","中和區"
"235035","783-BX","2019/07/05 13:59:32","新北市中和區立德街98巷117號","121.488848333333","25.0079833333333","6500300","中和區"
"235026","800-TS","2019/07/05 13:59:34","新北市中和區中山路二段366巷36號","121.491656666667","25.00506","6500300","中和區"
"235021","801-TS","2019/07/05 13:59:36","新北市中和區民利街46號","121.479423333333","24.9988166666667","6500300","中和區"
"235005","802-TS","2019/07/05 13:59:35","新北市中和區中安街85號","121.512801666667","25.00201","6500300","中和區"
"235016","805-TS","2019/07/05 13:59:33","新北市中和區興南路二段131號","121.503683333333","24.9818733333333","6500300","中和區"
"235012","896-TW","2019/07/05 13:59:22","新北市中和區華新街34號","121.507891666667","24.9843683333333","6500300","中和區"
"235017","900-TW","2019/07/05 13:59:45","新北市板橋區和平路182號","121.463651666667","24.9958366666667","6500300","中和區"
"235015","157-BY","2019/07/05 13:59:38","新北市中和區忠孝街19巷50號","121.509516666667","24.9852216666667","6500300","中和區"
"235001","AAC-213","2019/07/05 13:59:33","新北市中和區秀朗路三段50巷5-1號","121.526016666667","24.9954216666667","6500300","中和區"
"235023","AAC-215","2019/07/05 13:59:33","新北市中和區圓通路367巷20弄29號","121.491306666667","24.9882133333333","6500300","中和區"
"220013","072-UY","2019/07/05 13:59:12","新北市板橋區漢生東路330-1號","121.471798333333","25.0078683333333","6500100","板橋區"
"220034","073-UY","2019/07/05 13:59:41","新北市板橋區大智街62號","121.454196666667","25.01542","6500100","板橋區"
"220105","075-UY","2019/07/05 13:59:39","新北市板橋區雙十路三段8號","121.471813333333","25.0304266666667","6500100","板橋區"
"220017","AAD-861","2019/07/05 13:59:31","新北市板橋區華興街49號","121.457788333333","25.0046683333333","6500100","板橋區"
"220047","120-SR","2019/07/05 13:59:36","新北市板橋區民生路二段234巷77號","121.470281666667","25.02267","6500100","板橋區"
"247003","893-R6","2019/07/05 13:59:38","新北市蘆洲區長安街98巷4號","121.462331666667","25.081285","6501400","蘆洲區"
"247017","546-UM","2019/07/05 13:59:24","新北市蘆洲區民族路327巷77號","121.475351666667","25.0896033333333","6501400","蘆洲區"
"247023","337-TH","2019/07/05 13:59:38","新北市蘆洲區光榮路120巷9號","121.465158333333","25.0887916666667","6501400","蘆洲區"
"247001","336-TH","2019/07/05 13:59:25","新北市蘆洲區永平街32巷64弄2號","121.460186666667","25.0930466666667","6501400","蘆洲區"
"247021","057-VK","2019/07/05 13:59:34","新北市蘆洲區中正路263巷2號","121.46732","25.0874316666667","6501400","蘆洲區"
"247011","056-VK","2019/07/05 13:59:31","新北市蘆洲區中興街30號","121.480831666667","25.086875","6501400","蘆洲區"
"247015","053-VK","2019/07/05 13:59:42","新北市蘆洲區光華路47號","121.468735","25.08301","6501400","蘆洲區"
"247019","007-UY","2019/07/05 13:59:27","新北市蘆洲區民族路422巷19號","121.47373","25.0929833333333","6501400","蘆洲區"
"247005","002-UY","2019/07/05 13:59:44","新北市蘆洲區中山二路309號","121.469131666667","25.0770733333333","6501400","蘆洲區"
"207002","749-BX","2019/07/05 13:58:56","新北市萬里區溪底里烏塗炭3-1號","121.6361","25.1518216666667","6502800","萬里區"
"207001","662-BX","2019/07/05 13:59:28","新北市萬里區磺潭里公館崙58號","121.628815","25.2050733333333","6502800","萬里區"
"236040","KED-0685","2019/07/05 13:59:41","新北市土城區城林路6巷80號","121.438521666667","24.9797083333333","6501300","土城區"
"220038","KED-0812","2019/07/05 13:59:28","新北市板橋區文化路二段181號","121.470695","25.027925","6500100","板橋區"
"236029","253-BX","2019/07/05 13:59:37","新北市土城區城林路6巷80號","121.438493333333","24.9798083333333","6501300","土城區"
"236024","269-VK","2019/07/05 13:59:25","新北市土城區承天路43巷4號","121.4393","24.9638083333333","6501300","土城區"
"236013","270-VK","2019/07/05 13:59:39","新北市土城區員福街10號","121.4417","24.9784816666667","6501300","土城區"
"236032","271-VK","2019/07/05 13:59:27","新北市土城區城林路6巷80號","121.438498333333","24.97974","6501300","土城區"
"247009","KED-0683","2019/07/05 13:59:35","新北市蘆洲區集賢路177-1號","121.486283333333","25.0891583333333","6501400","蘆洲區"
"236067","KEA-2877","2019/07/05 13:59:40","新北市土城區和平路54號","121.44521","24.96895","6501300","土城區"
"236016","401-BY","2019/07/05 13:59:33","新北市土城區城林路6巷80號","121.438536666667","24.9797616666667","6501300","土城區"
"236057","912-UM","2019/07/05 13:59:39","新北市土城區中央路三段260號","121.427228333333","24.96403","6501300","土城區"
"236045","913-UM","2019/07/05 13:59:44","新北市土城區中華路二段62號","121.438965","24.97689","6501300","土城區"
"236060","915-UM","2019/07/05 13:59:42","新北市土城區城林路6巷80號","121.438593333333","24.97974","6501300","土城區"
"236054","AAC-216","2019/07/05 13:59:37","新北市土城區城林路6巷80號","121.43839","24.9795433333333","6501300","土城區"
"221021","277-VK","2019/07/05 13:59:39","新北市汐止區新台五路二段56號","121.661291666667","25.06561","6501100","汐止區"
"221029","298-VK","2019/07/05 13:59:37","新北市汐止區大同路一段154-6號","121.63385","25.0539816666667","6501100","汐止區"
"220027","145-BY","2019/07/05 13:59:40","新北市板橋區中正路135巷12弄11號","121.455603333333","25.0159116666667","6500100","板橋區"
"220028","200-UY","2019/07/05 13:59:40","新北市板橋區大觀路二段力行1巷97號","121.444876666667","24.9980416666667","6500100","板橋區"
"220030","610-BX","2019/07/05 13:59:33","新北市板橋區溪崑一街112號","121.429263333333","24.988725","6500100","板橋區"
"220050","245-BX","2019/07/05 13:59:36","新北市板橋區莊敬路220巷15號","121.472641666667","25.0207983333333","6500100","板橋區"
"220040","267-BY","2019/07/05 13:59:11","新北市板橋區大同街25號","121.477568333333","25.027205","6500100","板橋區"
"220004","276-BY","2019/07/05 13:59:36","新北市板橋區信義路165號","121.45875","24.9921566666667","6500100","板橋區"
"220020","277-BY","2019/07/05 13:59:42","新北市板橋區大觀路三段18號","121.434701666667","24.9958983333333","6500100","板橋區"
"220043","283-UM","2019/07/05 13:59:27","新北市板橋區光武街138號","121.465388333333","25.0300683333333","6500100","板橋區"
"220019","283-VK","2019/07/05 13:59:31","新北市板橋區忠孝路176巷3號","121.464723333333","25.0020466666667","6500100","板橋區"
"220001","285-VK","2019/07/05 13:59:38","新北市板橋區太和街6巷1號","121.473673333333","25.02014","6500100","板橋區"
"220031","286-VK","2019/07/05 13:59:38","新北市板橋區大觀路一段38巷172號","121.441788333333","25.0045416666667","6500100","板橋區"
"220029","287-VK","2019/07/05 13:59:41","新北市板橋區光華街19巷66號","121.453171666667","25.0119833333333","6500100","板橋區"
"220039","288-VK","2019/07/05 13:59:37","新北市板橋區裕民街9號","121.462346666667","25.02899","6500100","板橋區"
"220009","295-UM","2019/07/05 13:59:24","新北市板橋區懷仁街85巷6號","121.47772","25.0185683333333","6500100","板橋區"
"220032","296-UM","2019/07/05 13:59:37","新北市板橋區大觀路三段52號","121.432283333333","24.99596","6500100","板橋區"
"220023","303-R5","2019/07/05 13:59:24","新北市板橋區館前西路213巷13號","121.454411666667","25.0081866666667","6500100","板橋區"
"220010","305-R5","2019/07/05 13:59:29","新北市板橋區三民路二段245巷39號","121.48049","25.012585","6500100","板橋區"
"220041","307-R5","2019/07/05 13:59:35","新北市板橋區文化路二段225巷60弄44號","121.469266666667","25.0294633333333","6500100","板橋區"
"220037","491-VK","2019/07/05 13:59:21","新北市板橋區莊敬路56號","121.472801666667","25.0269183333333","6500100","板橋區"
"220104","560-BX","2019/07/05 13:59:26","新北市板橋區中正路277號","121.455601666667","25.0189233333333","6500100","板橋區"
"220052","561-BX","2019/07/05 13:59:29","新北市板橋區介壽街61號","121.469281666667","25.01954","6500100","板橋區"
"220011","609-BX","2019/07/05 13:59:31","新北市板橋區三民路二段87號","121.479303333333","25.016535","6500100","板橋區"
"220005","686-BX","2019/07/05 13:59:39","新北市板橋區重慶路306號","121.463705","24.9982116666667","6500100","板橋區"
"220025","687-BX","2019/07/05 13:59:38","新北市板橋區大觀路二段343號","121.44104","24.998455","6500100","板橋區"
"220042","689-BX","2019/07/05 13:59:26","新北市板橋區民生路三段203號","121.465103333333","25.027795","6500100","板橋區"
"220002","741-BX","2019/07/05 13:59:34","新北市板橋區重慶路139巷19號","121.463686666667","25.004695","6500100","板橋區"
"220051","KEA-2699","2019/07/05 13:59:28","新北市板橋區田單街2巷39-3號","121.482301666667","25.027745","6500100","板橋區"
"220003","827-TW","2019/07/05 13:59:36","新北市板橋區中山路一段140號","121.463501666667","25.0108666666667","6500100","板橋區"
"220014","829-TW","2019/07/05 13:59:37","新北市板橋區三民路二段正隆巷12弄2號","121.477945","25.0127966666667","6500100","板橋區"
"220016","831-TW","2019/07/05 13:59:30","新北市板橋區中山路二段465巷22號","121.481576666667","25.02111","6500100","板橋區"
"220022","895-R6","2019/07/05 13:59:42","新北市板橋區林園街2號","121.45439","25.0092716666667","6500100","板橋區"
"220021","985-R7","2019/07/05 13:59:40","新北市板橋區西門街2號","121.455876666667","25.0115516666667","6500100","板橋區"
"220046","AAC-210","2019/07/05 13:59:35","新北市板橋區新海路135巷2號","121.459963333333","25.0228966666667","6500100","板橋區"
"220012","AAC-253","2019/07/05 13:59:40","新北市板橋區板新路87號","121.473211666667","25.0138016666667","6500100","板橋區"
"235032","KEA-2873","2019/07/05 13:59:15","新北市中和區圓通路158巷3-1號","121.497698333333","24.996165","6500300","中和區"
"235025","KEA-2875","2019/07/05 13:59:43","新北市中和區員山路262號","121.481515","25.0017416666667","6500300","中和區"
"235013","KEA-2876","2019/07/05 13:59:26","新北市中和區明仁街16號","121.506206666667","24.9953716666667","6500300","中和區"
