"lineid","car","time","location","longitude","latitude","cityid","cityname"
"234044","148-BY","2019/07/05 14:09:32","新北市永和區得和路324號","121.523166666667","24.9995316666667","6500400","永和區"
"234078","298-R6","2019/07/05 14:09:36","新北市永和區國中路45號","121.524636666667","25.0057366666667","6500400","永和區"
"234036","336-UY","2019/07/05 14:09:34","新北市永和區環河東路三段96號","121.528231666667","25.004095","6500400","永和區"
"234062","337-UY","2019/07/05 14:09:43","新北市永和區永利路152號","121.52249","25.00276","6500400","永和區"
"234084","338-UY","2019/07/05 14:09:37","新北市永和區中正路652號","121.516898333333","25.0085283333333","6500400","永和區"
"234068","552-UM","2019/07/05 14:09:43","新北市永和區永貞路10巷10號","121.520431666667","25.00736","6500400","永和區"
"234015","745-BX","2019/07/05 14:09:23","新北市永和區仁愛路71號","121.513305","25.01324","6500400","永和區"
"234028","746-BX","2019/07/05 14:09:39","新北市永和區民權路49巷5弄8號","121.520783333333","24.9975683333333","6500400","永和區"
"234052","KEA-2590","2019/07/05 14:09:31","新北市永和區博愛街21巷1號","121.517721666667","25.0158266666667","6500400","永和區"
"234005","KED-0605","2019/07/05 14:09:25","新北市永和區永貞路365號","121.508768333333","25.0078966666667","6500400","永和區"
"234012","KEA-2591","2019/07/05 14:09:42","新北市永和區永貞路427號","121.5071","25.0096633333333","6500400","永和區"
"234060","AAD-866","2019/07/05 14:09:40","新北市永和區安樂路166號","121.514466666667","25.0007383333333","6500400","永和區"
"234040","862-TW","2019/07/05 14:09:43","新北市永和區雙和街43號","121.50886","25.0028383333333","6500400","永和區"
"234048","863-TW","2019/07/05 14:09:23","新北市永和區保安路18-1號","121.510361666667","25.0174416666667","6500400","永和區"
"234025","9371-KE","2019/07/05 14:09:25","新北市永和區安樂路272巷11號","121.514931666667","25.0043216666667","6500400","永和區"
"234010","9373-KE","2019/07/05 14:09:26","新北市永和區仁愛路352巷122弄11號","121.500676666667","25.0088033333333","6500400","永和區"
"248019","KED-0813","2019/07/05 14:04:12","新北市五股區凌雲路三段57號","121.425325","25.125035","6501500","五股區"
"234022","9380-KE","2019/07/05 14:09:35","新北市永和區博愛街31巷2號","121.518443333333","25.0158616666667","6500400","永和區"
"234076","969-R7","2019/07/05 14:09:36","新北市永和區民有街75巷10弄33號","121.519275","24.996045","6500400","永和區"
"234072","AAC-211","2019/07/05 14:09:25","新北市永和區竹林路201巷21號","121.521728333333","25.009315","6500400","永和區"
"234066","AAC-212","2019/07/05 14:09:41","新北市永和區保平路236巷15弄1號","121.508583333333","25.0062383333333","6500400","永和區"
"234001","AAC-295","2019/07/05 14:09:31","新北市永和區中正路575號","121.516551666667","25.008805","6500400","永和區"
"244004","248-BX","2019/07/05 14:09:36","新北市林口區南勢里34-8號","121.352361666667","25.0703","6501700","林口區"
"231030","002-UM","2019/07/05 14:09:30","新北市新店區安民街115巷28號","121.515153333333","24.967595","6500600","新店區"
"231027","0293-UT","2019/07/05 14:09:25","新北市新店區中興路一段24號","121.538666666667","24.9585","6500600","新店區"
"231005","046-UY","2019/07/05 14:09:34","新北市新店區寶慶街71號","121.541946666667","24.9864983333333","6500600","新店區"
"231029","106-UY","2019/07/05 14:09:33","新北市新店區安康路二段161號","121.51019","24.959395","6500600","新店區"
"231018","107-UY","2019/07/05 14:09:32","新北市新店區中央路95巷8號","121.531586666667","24.97479","6500600","新店區"
"231013","108-UY","2019/07/05 14:09:37","新北市新店區北新路三段65巷34弄21號","121.540026666667","24.981665","6500600","新店區"
"231036","110-UY","2019/07/05 14:09:35","新北市新店區安祥路109巷8號","121.475528333333","24.9586666666667","6500600","新店區"
"231023","260-TV","2019/07/05 14:09:40","新北市新店區文中路45號","121.539555","24.956665","6500600","新店區"
"231003","268-BY","2019/07/05 14:09:27","新北市新店區中興路一段110號","121.541108333333","24.962065","6500600","新店區"
"231035","278-BY","2019/07/05 14:09:32","新北市新店區安和路一段52巷2-1號","121.517703333333","24.966305","6500600","新店區"
"231016","AAD-862","2019/07/05 14:09:26","新北市新店區北宜路二段148號","121.557623333333","24.95389","6500600","新店區"
"231006","355-BY","2019/07/05 14:09:27","新北市新店區北宜路二段207號","121.55311","24.9532816666667","6500600","新店區"
"231038","3712-VJ","2019/07/05 14:09:38","新北市新店區安康路一段50號","121.530195","24.9611133333333","6500600","新店區"
"231024","4716-K9","2019/07/05 14:09:33","新北市新店區中央一街12號","121.528448333333","24.9725983333333","6500600","新店區"
"231025","4715-K9","2019/07/05 14:09:34","新北市新店區自立街33號","121.53745","24.9795833333333","6500600","新店區"
"231022","513-UM","2019/07/05 14:09:27","新北市新店區屈尺路75號","121.545758333333","24.9226483333333","6500600","新店區"
"231001","617-UM","2019/07/05 14:09:25","新北市新店區中華路66號","121.539193333333","24.96906","6500600","新店區"
"231002","619-UM","2019/07/05 14:09:32","新北市新店區中正路485號","121.534025","24.9819766666667","6500600","新店區"
"231034","641-BX","2019/07/05 14:09:25","新北市新店區車子路19號","121.504461666667","24.9533583333333","6500600","新店區"
"231012","KED-0819","2019/07/05 14:09:31","新北市新店區五峰路63巷8弄1號","121.54691","24.969025","6500600","新店區"
"231032","718-UY","2019/07/05 14:09:35","新北市新店區碧潭路40號","121.534406666667","24.9564983333333","6500600","新店區"
"231026","720-UM","2019/07/05 14:09:30","新北市新店區安康路一段156號","121.526271666667","24.9629766666667","6500600","新店區"
"231028","897-TW","2019/07/05 14:09:29","新北市新店區安和路三段89號","121.517823333333","24.98399","6500600","新店區"
"231004","899-TW","2019/07/05 14:09:37","新北市新店區北新路二段156號","121.543056666667","24.9754833333333","6500600","新店區"
"231037","AKT-0513","2019/07/05 14:09:41","新北市新店區安康路三段73號","121.492226666667","24.9520583333333","6500600","新店區"
"235030","003-UY","2019/07/05 14:09:41","新北市中和區中和路163號","121.50285","24.9998183333333","6500300","中和區"
"235028","005-UY","2019/07/05 14:09:37","新北市中和區中和路137號","121.501895","24.9998483333333","6500300","中和區"
"235027","006-UY","2019/07/05 14:09:32","新北市中和區連勝街121巷16號","121.494995","24.99442","6500300","中和區"
"235020","096-UM","2019/07/05 14:09:31","新北市中和區員山路529號","121.479686666667","25.0069433333333","6500300","中和區"
"235003","097-UM","2019/07/05 14:09:25","新北市中和區秀峰街119巷2弄1號","121.51989","24.9904783333333","6500300","中和區"
"235029","098-UM","2019/07/05 14:09:36","新北市中和區中山路二段2巷3弄15號","121.504331666667","25.0056116666667","6500300","中和區"
"235004","150-BY","2019/07/05 14:09:21","新北市中和區保健路63-1號","121.509648333333","24.99719","6500300","中和區"
"235022","151-BY","2019/07/05 14:09:24","新北市中和區員山路36巷16-2號","121.485143333333","24.9915533333333","6500300","中和區"
"235019","183-VK","2019/07/05 14:09:23","新北市中和區中山路三段185-1號","121.47252","25.0060366666667","6500300","中和區"
"235002","185-VK","2019/07/05 14:09:44","新北市中和區大仁街10巷27弄3號","121.519148333333","24.9927533333333","6500300","中和區"
"235031","255-BX","2019/07/05 14:09:29","新北市中和區連城路280號","121.484356666667","24.99624","6500300","中和區"
"235008","293-VK","2019/07/05 14:09:36","新北市中和區中興街235巷1號","121.500768333333","24.9897183333333","6500300","中和區"
"235036","301-VK","2019/07/05 14:09:41","新北市中和區中山路二段187號","121.500321666667","25.0027466666667","6500300","中和區"
"235007","352-BY","2019/07/05 14:09:30","新北市中和區景平路123號","121.515378333333","24.992245","6500300","中和區"
"235006","KEA-2878","2019/07/05 14:09:34","新北市中和區自強路17號","121.52047","24.993395","6500300","中和區"
"247013","KEA-2869","2019/07/05 14:09:35","新北市蘆洲區忠孝路70號","121.471575","25.0853833333333","6501400","蘆洲區"
"247007","KED-0682","2019/07/05 14:09:36","新北市蘆洲區中山一路417號","121.468771666667","25.0766933333333","6501400","蘆洲區"
"235014","4979-A6","2019/07/05 14:09:39","新北市中和區復興路280巷18弄20號","121.50174","24.9922383333333","6500300","中和區"
"235033","4980-A6","2019/07/05 14:09:41","新北市中和區中和路217巷1弄1號","121.504056666667","25.0003383333333","6500300","中和區"
"235034","558-UM","2019/07/05 14:09:32","新北市中和區連城路72號","121.497481666667","25.00137","6500300","中和區"
"235009","565-BX","2019/07/05 14:09:36","新北市中和區景新街422號","121.51298","24.988925","6500300","中和區"
"235024","KED-0823","2019/07/05 14:09:45","新北市中和區新生街114巷2號","121.483305","25.0024533333333","6500300","中和區"
"235018","640-BX","2019/07/05 14:09:32","新北市中和區國光街112巷22弄2-4號","121.469765","25.0023016666667","6500300","中和區"
"235011","732-UM","2019/07/05 14:09:44","新北市中和區興南路一段58號","121.510945","24.9904583333333","6500300","中和區"
"235010","733-UM","2019/07/05 14:09:39","新北市中和區華新街170號","121.507288333333","24.9822","6500300","中和區"
"235035","783-BX","2019/07/05 14:09:32","新北市中和區建一路16號","121.487918333333","25.0039783333333","6500300","中和區"
"235026","800-TS","2019/07/05 14:09:34","新北市中和區橋安街23號","121.492591666667","25.0044316666667","6500300","中和區"
"235021","801-TS","2019/07/05 14:09:36","新北市中和區員山路423巷9號","121.480538333333","25.0030833333333","6500300","中和區"
"235005","802-TS","2019/07/05 14:09:35","新北市中和區中安街178巷13弄12號","121.51038","24.99847","6500300","中和區"
"235016","805-TS","2019/07/05 14:09:13","新北市中和區興南路二段114巷2號","121.504325","24.9841866666667","6500300","中和區"
"235012","896-TW","2019/07/05 14:09:22","新北市中和區工專路165-3號","121.508756666667","24.9791233333333","6500300","中和區"
"235017","900-TW","2019/07/05 14:09:28","新北市中和區華安街19巷4號","121.467135","24.9979383333333","6500300","中和區"
"235015","157-BY","2019/07/05 14:09:38","新北市中和區和平街2巷2弄1號","121.510138333333","24.990315","6500300","中和區"
"235001","AAC-213","2019/07/05 14:09:33","新北市中和區自立路15巷25號","121.52306","24.995935","6500300","中和區"
"235023","AAC-215","2019/07/05 14:09:33","","121.488605","24.9904816666667","6500300","中和區"
"220013","072-UY","2019/07/05 14:09:32","新北市板橋區民族路219巷22號","121.469316666667","25.0082866666667","6500100","板橋區"
"220034","073-UY","2019/07/05 14:09:41","新北市板橋區中正路236巷9號","121.456353333333","25.0191233333333","6500100","板橋區"
"220105","075-UY","2019/07/05 14:09:39","新北市板橋區雙十路三段70巷2號","121.47033","25.03242","6500100","板橋區"
"220017","AAD-861","2019/07/05 14:09:31","新北市板橋區華興街31巷15號","121.4584","25.0039583333333","6500100","板橋區"
"220047","120-SR","2019/07/05 14:09:36","新北市板橋區民有街18號","121.466198333333","25.0249616666667","6500100","板橋區"
"247003","893-R6","2019/07/05 14:09:38","新北市蘆洲區長安街209號","121.459835","25.082145","6501400","蘆洲區"
"247017","546-UM","2019/07/05 14:09:42","新北市蘆洲區復興路206號","121.478416666667","25.089055","6501400","蘆洲區"
"247023","337-TH","2019/07/05 14:09:38","新北市蘆洲區光明路116號","121.46369","25.088175","6501400","蘆洲區"
"247001","336-TH","2019/07/05 14:09:25","新北市蘆洲區永平街42-1號","121.458015","25.091285","6501400","蘆洲區"
"247021","057-VK","2019/07/05 14:09:34","新北市蘆洲區三民路165號","121.471283333333","25.08703","6501400","蘆洲區"
"247011","056-VK","2019/07/05 14:09:31","新北市蘆洲區信義路317號","121.478346666667","25.086395","6501400","蘆洲區"
"247015","053-VK","2019/07/05 14:09:22","新北市蘆洲區光華路46巷33號","121.467861666667","25.0841333333333","6501400","蘆洲區"
"247019","007-UY","2019/07/05 14:09:27","新北市蘆洲區民族路426巷22號","121.47298","25.0928166666667","6501400","蘆洲區"
"247005","002-UY","2019/07/05 14:09:44","新北市蘆洲區九芎街63號","121.466925","25.0788983333333","6501400","蘆洲區"
"207002","749-BX","2019/07/05 14:09:41","新北市萬里區溪底里溪底路9號","121.620976666667","25.148835","6502800","萬里區"
"207001","662-BX","2019/07/05 14:09:40","新北市萬里區磺潭里清水18號","121.637921666667","25.1975766666667","6502800","萬里區"
"236040","KED-0685","2019/07/05 14:09:40","新北市土城區中華路一段247號","121.440803333333","24.981485","6501300","土城區"
"220038","KED-0812","2019/07/05 14:09:28","新北市板橋區文化路一段106號","121.46466","25.0181783333333","6500100","板橋區"
"236029","253-BX","2019/07/05 14:09:37","新北市土城區城林路6巷80號","121.438446666667","24.97954","6501300","土城區"
"236024","269-VK","2019/07/05 14:09:25","新北市土城區承天路65號","121.439468333333","24.96384","6501300","土城區"
"236013","270-VK","2019/07/05 14:09:39","新北市土城區青雲路33號","121.460431666667","24.9880733333333","6501300","土城區"
"236032","271-VK","2019/07/05 14:09:27","新北市土城區青雲路449號","121.45894","24.9748833333333","6501300","土城區"
"247009","KED-0683","2019/07/05 14:09:37","新北市蘆洲區三民路50號","121.475446666667","25.0832033333333","6501400","蘆洲區"
"236067","KEA-2877","2019/07/05 14:09:40","新北市土城區明德路一段128巷7號","121.463251666667","24.9790266666667","6501300","土城區"
"236016","401-BY","2019/07/05 14:09:33","新北市土城區明德路二段114號","121.44493","24.984235","6501300","土城區"
"236057","912-UM","2019/07/05 14:09:39","新北市土城區中央路四段123號","121.416395","24.9577333333333","6501300","土城區"
"236045","913-UM","2019/07/05 14:09:25","新北市土城區金城路一段112號","121.44652","24.9758583333333","6501300","土城區"
"236060","915-UM","2019/07/05 14:09:41","新北市土城區金城路二段386號","121.463481666667","24.9856816666667","6501300","土城區"
"236054","AAC-216","2019/07/05 14:09:37","新北市土城區中華路二段90號","121.438278333333","24.974805","6501300","土城區"
"221021","277-VK","2019/07/05 14:09:39","新北市汐止區大同路二段184巷7號","121.65382","25.064325","6501100","汐止區"
"221029","298-VK","2019/07/05 14:09:37","新北市新店區寶高路102巷20號","121.552923333333","24.9728016666667","6501100","汐止區"
"220027","145-BY","2019/07/05 14:09:38","新北市板橋區中正路43號","121.456338333333","25.0133216666667","6500100","板橋區"
"220028","200-UY","2019/07/05 14:09:46","新北市板橋區合安一路77-6號","121.448321666667","24.998725","6500100","板橋區"
"220030","610-BX","2019/07/05 14:09:44","新北市板橋區溪崑二街35號","121.428508333333","24.9910616666667","6500100","板橋區"
"220050","245-BX","2019/07/05 14:09:28","新北市板橋區雙十路二段151號","121.474573333333","25.02828","6500100","板橋區"
"220040","267-BY","2019/07/05 14:09:26","新北市板橋區文聖街221號","121.480453333333","25.0257816666667","6500100","板橋區"
"220004","276-BY","2019/07/05 14:09:36","新北市板橋區信義路74巷1弄1號","121.457298333333","24.993125","6500100","板橋區"
"220020","277-BY","2019/07/05 14:09:42","新北市樹林區樹新路120巷13號","121.430493333333","24.9970266666667","6500100","板橋區"
"220043","283-UM","2019/07/05 14:09:27","新北市板橋區吳鳳路21巷4號","121.466815","25.0311316666667","6500100","板橋區"
"220019","283-VK","2019/07/05 14:09:31","新北市板橋區忠孝路146號","121.463843333333","25.0024366666667","6500100","板橋區"
"220001","285-VK","2019/07/05 14:09:42","新北市板橋區懷仁街35巷7號","121.476951666667","25.0197416666667","6500100","板橋區"
"220031","286-VK","2019/07/05 14:09:26","新北市板橋區大觀路二段174巷173弄1號","121.441735","25.0036516666667","6500100","板橋區"
"220029","287-VK","2019/07/05 14:09:34","新北市板橋區南雅西路二段156巷5號","121.452143333333","25.01337","6500100","板橋區"
"220039","288-VK","2019/07/05 14:09:39","新北市板橋區長江路一段106巷12弄9號","121.459845","25.028775","6500100","板橋區"
"220009","295-UM","2019/07/05 14:09:24","新北市板橋區中山路二段318巷20弄37號","121.481151666667","25.0188716666667","6500100","板橋區"
"220032","296-UM","2019/07/05 14:09:37","新北市板橋區大觀路三段263號","121.429066666667","24.9921316666667","6500100","板橋區"
"220023","303-R5","2019/07/05 14:09:23","新北市板橋區中正路101號","121.456416666667","25.0147616666667","6500100","板橋區"
"220010","305-R5","2019/07/05 14:09:41","新北市板橋區三民路二段居仁巷2弄17號","121.479753333333","25.0129416666667","6500100","板橋區"
"220041","307-R5","2019/07/05 14:09:29","新北市板橋區松江街62號","121.46863","25.0275583333333","6500100","板橋區"
"220037","491-VK","2019/07/05 14:09:42","新北市板橋區文化路二段182巷1弄16號","121.47157","25.02787","6500100","板橋區"
"220104","560-BX","2019/07/05 14:09:45","新北市板橋區中正路399巷6號","121.453791666667","25.0222983333333","6500100","板橋區"
"220052","561-BX","2019/07/05 14:09:29","新北市板橋區文化路一段216號","121.466451666667","25.0203016666667","6500100","板橋區"
"220011","609-BX","2019/07/05 14:09:31","新北市板橋區三民路二段203-7號","121.47908","25.01345","6500100","板橋區"
"220005","686-BX","2019/07/05 14:09:30","新北市板橋區五權街67號","121.464923333333","24.99334","6500100","板橋區"
"220025","687-BX","2019/07/05 14:09:38","新北市板橋區僑中二街152號","121.444878333333","25.0042783333333","6500100","板橋區"
"220042","689-BX","2019/07/05 14:09:42","新北市板橋區國光路237號","121.462936666667","25.01854","6500100","板橋區"
"220002","741-BX","2019/07/05 14:09:10","新北市板橋區實踐路34號","121.463495","25.0071566666667","6500100","板橋區"
"220051","KEA-2699","2019/07/05 14:09:40","新北市板橋區田單街32號","121.482438333333","25.0282966666667","6500100","板橋區"
"220003","827-TW","2019/07/05 14:09:36","新北市板橋區中山路一段160-5號","121.466123333333","25.0119116666667","6500100","板橋區"
"220014","829-TW","2019/07/05 14:09:37","新北市板橋區民享街116巷2號","121.477911666667","25.0157816666667","6500100","板橋區"
"220016","831-TW","2019/07/05 14:09:29","新北市板橋區翠華街6巷41號","121.480998333333","25.0245783333333","6500100","板橋區"
"220022","895-R6","2019/07/05 14:09:42","新北市板橋區林園街41號","121.45372","25.00998","6500100","板橋區"
"220021","985-R7","2019/07/05 14:09:40","新北市板橋區民權路216號","121.458813333333","25.014105","6500100","板橋區"
"220046","AAC-210","2019/07/05 14:09:35","新北市板橋區幸福路60巷31-2號","121.46058","25.0209966666667","6500100","板橋區"
"220012","AAC-253","2019/07/05 14:09:41","新北市板橋區板新路238號","121.467985","25.0161133333333","6500100","板橋區"
"235032","KEA-2873","2019/07/05 14:09:15","新北市中和區圓通路25號","121.501286666667","24.9979016666667","6500300","中和區"
"235025","KEA-2875","2019/07/05 14:09:29","新北市中和區民利街85巷2號","121.478278333333","24.9979483333333","6500300","中和區"
"235013","KEA-2876","2019/07/05 14:09:26","新北市中和區景新街220號","121.507238333333","24.9951333333333","6500300","中和區"
