"lineid","car","time","location","longitude","latitude","cityid","cityname"
"234078","298-R6","2019/07/05 14:19:27","新北市永和區福和路7巷10弄7號","121.524898333333","25.0075216666667","6500400","永和區"
"234036","336-UY","2019/07/05 14:19:39","新北市永和區成功路一段95號","121.526955","25.0027283333333","6500400","永和區"
"234062","337-UY","2019/07/05 14:19:31","新北市永和區得和路211號","121.519176666667","25.0001633333333","6500400","永和區"
"234084","338-UY","2019/07/05 14:19:37","新北市永和區永和路二段207號","121.515408333333","25.01357","6500400","永和區"
"234068","552-UM","2019/07/05 14:19:43","新北市永和區福和路263巷6號","121.517838333333","25.007005","6500400","永和區"
"234028","746-BX","2019/07/05 14:19:32","新北市永和區民權路84號","121.519821666667","24.9969633333333","6500400","永和區"
"234052","KEA-2590","2019/07/05 14:19:31","新北市永和區光復街2巷13號","121.517046666667","25.01652","6500400","永和區"
"234005","KED-0605","2019/07/05 14:19:25","新北市永和區中正路518號","121.517236666667","25.0047916666667","6500400","永和區"
"234012","KEA-2591","2019/07/05 14:19:36","新北市永和區保生路40巷1號","121.505785","25.0082233333333","6500400","永和區"
"234060","AAD-866","2019/07/05 14:19:40","新北市永和區安樂路194巷5號","121.51539","25.0012616666667","6500400","永和區"
"234040","862-TW","2019/07/05 14:19:27","新北市中和區中安街172號","121.51092","24.9997766666667","6500400","永和區"
"234048","863-TW","2019/07/05 14:19:43","新北市永和區新生路119號","121.507738333333","25.015215","6500400","永和區"
"234025","9371-KE","2019/07/05 14:19:45","新北市永和區得和路42巷23號","121.515338333333","24.9996133333333","6500400","永和區"
"248019","KED-0813","2019/07/05 14:04:12","新北市五股區凌雲路三段57號","121.425325","25.125035","6501500","五股區"
"234022","9380-KE","2019/07/05 14:19:35","新北市永和區竹林路30號","121.517116666667","25.0147083333333","6500400","永和區"
"234076","969-R7","2019/07/05 14:19:36","新北市永和區民權路55號","121.520108333333","24.9966116666667","6500400","永和區"
"234072","AAC-211","2019/07/05 14:19:25","新北市永和區竹林路119巷30弄2號","121.522021666667","25.0115716666667","6500400","永和區"
"234066","AAC-212","2019/07/05 14:19:41","新北市永和區保平路292巷13弄12號","121.506801666667","25.0054933333333","6500400","永和區"
"234001","AAC-295","2019/07/05 14:19:31","新北市永和區中正路618號","121.517005","25.007675","6500400","永和區"
"244004","248-BX","2019/07/05 14:19:36","新北市林口區南勢里34-8號","121.352388333333","25.07028","6501700","林口區"
"231030","002-UM","2019/07/05 14:19:30","新北市新店區安民街65巷21-2號","121.515325","24.9675783333333","6500600","新店區"
"231027","0293-UT","2019/07/05 14:19:25","新北市新店區光明街286巷2號","121.540545","24.96384","6500600","新店區"
"231005","046-UY","2019/07/05 14:19:34","新北市新店區中興路三段207號","121.543716666667","24.9817533333333","6500600","新店區"
"231029","106-UY","2019/07/05 14:19:33","新北市新店區安康路二段161號","121.510308333333","24.9593916666667","6500600","新店區"
"231018","107-UY","2019/07/05 14:19:32","新北市新店區中央四街65號","121.527143333333","24.9753883333333","6500600","新店區"
"231013","108-UY","2019/07/05 14:19:37","新北市新店區大豐路73號","121.539108333333","24.9794033333333","6500600","新店區"
"231036","110-UY","2019/07/05 14:19:35","新北市新店區安祥路109巷90弄36號","121.476931666667","24.959105","6500600","新店區"
"231023","260-TV","2019/07/05 14:19:40","新北市新店區光明街80號","121.538816666667","24.9599916666667","6500600","新店區"
"231003","268-BY","2019/07/05 14:19:27","新北市新店區中興路一段202號","121.543625","24.9653266666667","6500600","新店區"
"231035","278-BY","2019/07/05 14:19:32","新北市新店區光華街5巷2號","121.517728333333","24.9688983333333","6500600","新店區"
"231016","AAD-862","2019/07/05 14:19:26","新北市新店區北宜路二段384號","121.564988333333","24.953315","6500600","新店區"
"231006","355-BY","2019/07/05 14:19:27","新北市新店區北宜路二段423-1號","121.560436666667","24.95441","6500600","新店區"
"231038","3712-VJ","2019/07/05 14:19:38","新北市新店區溪洲路6巷80號","121.533573333333","24.9630366666667","6500600","新店區"
"231022","513-UM","2019/07/05 14:19:40","新北市新店區新烏路二段196號","121.547846666667","24.9172683333333","6500600","新店區"
"231001","617-UM","2019/07/05 14:19:25","新北市新店區北新路一段38號","121.540886666667","24.966015","6500600","新店區"
"231002","619-UM","2019/07/05 14:19:36","新北市新店區中央路19號","121.533146666667","24.9782366666667","6500600","新店區"
"231034","641-BX","2019/07/05 14:19:25","新北市新店區車子路11號","121.502888333333","24.9516933333333","6500600","新店區"
"231012","KED-0819","2019/07/05 14:19:31","新北市新店區五峰路57-1號","121.547296666667","24.970715","6500600","新店區"
"231032","718-UY","2019/07/05 14:19:35","新北市新店區溪洲路163號","121.530958333333","24.96428","6500600","新店區"
"231028","897-TW","2019/07/05 14:19:29","新北市新店區安業街1號","121.515831666667","24.978865","6500600","新店區"
"231004","899-TW","2019/07/05 14:19:38","新北市新店區中正路251號","121.538996666667","24.9734733333333","6500600","新店區"
"231037","AKT-0513","2019/07/05 14:19:22","新北市新店區安康路二段341巷5號","121.496955","24.954995","6500600","新店區"
"235030","003-UY","2019/07/05 14:19:41","新北市中和區景新街2號","121.502603333333","24.9996783333333","6500300","中和區"
"235028","005-UY","2019/07/05 14:19:37","新北市中和區南山路127巷32弄1號","121.504158333333","24.9976833333333","6500300","中和區"
"235027","006-UY","2019/07/05 14:19:32","新北市中和區連城路219巷9號","121.494781666667","24.996805","6500300","中和區"
"235020","096-UM","2019/07/05 14:19:31","新北市中和區民富街66號","121.476523333333","25.0075283333333","6500300","中和區"
"235003","097-UM","2019/07/05 14:19:25","新北市中和區秀峰街119巷6弄24號","121.518426666667","24.9901566666667","6500300","中和區"
"235029","098-UM","2019/07/05 14:19:36","新北市中和區莊敬路2號","121.499491666667","25.0042733333333","6500300","中和區"
"235004","150-BY","2019/07/05 14:19:42","新北市中和區安平路62號","121.510668333333","24.996025","6500300","中和區"
"235022","151-BY","2019/07/05 14:19:45","新北市中和區員山路124巷2號","121.481565","24.9958916666667","6500300","中和區"
"235019","183-VK","2019/07/05 14:19:38","新北市中和區莒光路37巷1號","121.472365","25.005125","6500300","中和區"
"235002","185-VK","2019/07/05 14:19:44","新北市中和區景平路126巷2弄13號","121.519663333333","24.992355","6500300","中和區"
"235031","255-BX","2019/07/05 14:19:29","新北市中和區新生街196號","121.483738333333","24.99938","6500300","中和區"
"235008","293-VK","2019/07/05 14:19:36","新北市中和區復興路295號","121.50168","24.9902566666667","6500300","中和區"
"235036","301-VK","2019/07/05 14:19:41","新北市中和區福美路249號","121.498925","25.0052216666667","6500300","中和區"
"235007","352-BY","2019/07/05 14:19:30","新北市中和區景平路398號","121.509623333333","24.993085","6500300","中和區"
"235006","KEA-2878","2019/07/05 14:19:34","新北市中和區安樂路217巷35弄10號","121.513968333333","24.9977416666667","6500300","中和區"
"247013","KEA-2869","2019/07/05 14:19:35","新北市蘆洲區中山一路231號","121.473636666667","25.0806633333333","6501400","蘆洲區"
"247007","KED-0682","2019/07/05 14:19:36","新北市蘆洲區中山一路197巷4弄21號","121.474031666667","25.0805533333333","6501400","蘆洲區"
"235033","4980-A6","2019/07/05 14:19:41","新北市中和區福美路269號","121.498128333333","25.0050633333333","6500300","中和區"
"235034","558-UM","2019/07/05 14:19:32","新北市中和區圓通路57號","121.50061","24.99741","6500300","中和區"
"235009","565-BX","2019/07/05 14:19:36","新北市中和區景新街423巷31號","121.513901666667","24.9896066666667","6500300","中和區"
"235024","KED-0823","2019/07/05 14:19:25","新北市中和區中山路二段523巷41號","121.482255","25.0031966666667","6500300","中和區"
"235018","640-BX","2019/07/05 14:19:31","新北市中和區莒光路42號","121.472126666667","25.0037333333333","6500300","中和區"
"235011","732-UM","2019/07/05 14:19:35","新北市中和區和平街105號","121.504838333333","24.99219","6500300","中和區"
"235010","733-UM","2019/07/05 14:19:39","新北市中和區忠孝街2巷16號","121.510678333333","24.981305","6500300","中和區"
"235035","783-BX","2019/07/05 14:19:32","新北市中和區連城路469-1號","121.483538333333","24.995925","6500300","中和區"
"235026","800-TS","2019/07/05 14:19:34","新北市中和區中山路二段440號","121.489181666667","25.00415","6500300","中和區"
"235021","801-TS","2019/07/05 14:19:36","新北市中和區中山路三段37巷31號","121.479488333333","25.0047933333333","6500300","中和區"
"235005","802-TS","2019/07/05 14:19:35","新北市中和區安平路138號","121.512175","24.997975","6500300","中和區"
"235016","805-TS","2019/07/05 14:19:32","新北市中和區興南路二段128巷1弄8號","121.50366","24.9834833333333","6500300","中和區"
"235012","896-TW","2019/07/05 14:19:42","新北市中和區華新街109巷1號","121.50877","24.982455","6500300","中和區"
"235017","900-TW","2019/07/05 14:19:24","新北市中和區華順街30巷1號","121.466925","24.9989333333333","6500300","中和區"
"235015","157-BY","2019/07/05 14:19:38","新北市中和區景平路221巷28號","121.509443333333","24.9921433333333","6500300","中和區"
"235001","AAC-213","2019/07/05 14:19:33","新北市中和區秀朗路三段10巷14弄1號","121.525181666667","24.9964833333333","6500300","中和區"
"235023","AAC-215","2019/07/05 14:19:42","新北市中和區圓通路252巷5弄48號","121.492333333333","24.991755","6500300","中和區"
"220013","072-UY","2019/07/05 14:19:32","新北市板橋區國泰街72號","121.467505","25.0066316666667","6500100","板橋區"
"220034","073-UY","2019/07/05 14:19:41","新北市板橋區中正路236巷73號","121.458951666667","25.0196133333333","6500100","板橋區"
"220105","075-UY","2019/07/05 14:19:39","新北市板橋區文化路二段441巷2弄1號","121.474678333333","25.0333833333333","6500100","板橋區"
"220017","AAD-861","2019/07/05 14:19:31","新北市板橋區貴興路22號","121.457421666667","25.0039433333333","6500100","板橋區"
"220047","120-SR","2019/07/05 14:19:37","新北市板橋區自由路51巷12號","121.464948333333","25.02349","6500100","板橋區"
"247003","893-R6","2019/07/05 14:19:39","新北市蘆洲區長安街194巷29號","121.460001666667","25.084655","6501400","蘆洲區"
"247017","546-UM","2019/07/05 14:19:42","新北市蘆洲區民族路319號","121.474341666667","25.0913316666667","6501400","蘆洲區"
"247023","337-TH","2019/07/05 14:19:38","新北市蘆洲區三民路501號","121.463553333333","25.0914583333333","6501400","蘆洲區"
"247001","336-TH","2019/07/05 14:19:45","新北市蘆洲區永樂街73號","121.456163333333","25.088515","6501400","蘆洲區"
"247021","057-VK","2019/07/05 14:19:34","新北市蘆洲區仁愛街212巷228-1號","121.464365","25.0941016666667","6501400","蘆洲區"
"247011","056-VK","2019/07/05 14:19:31","新北市蘆洲區民權路38巷10號","121.476418333333","25.0866833333333","6501400","蘆洲區"
"247015","053-VK","2019/07/05 14:19:42","新北市蘆洲區中正路185巷27號","121.466588333333","25.0844683333333","6501400","蘆洲區"
"247019","007-UY","2019/07/05 14:19:27","新北市蘆洲區仁愛街34號","121.472025","25.0931966666667","6501400","蘆洲區"
"247005","002-UY","2019/07/05 14:19:44","新北市蘆洲區長安街22巷32號","121.464935","25.07995","6501400","蘆洲區"
"207002","749-BX","2019/07/05 14:19:36","新北市萬里區溪底里瑞泉路21號","121.604785","25.14832","6502800","萬里區"
"207001","662-BX","2019/07/05 14:19:40","新北市萬里區磺潭里清水18號","121.637911666667","25.1976833333333","6502800","萬里區"
"236040","KED-0685","2019/07/05 14:19:40","新北市土城區樂利街3巷32號","121.448536666667","24.9864783333333","6501300","土城區"
"220038","KED-0812","2019/07/05 14:19:28","新北市板橋區英士路49-1號","121.461046666667","25.02459","6500100","板橋區"
"236029","253-BX","2019/07/05 14:19:37","新北市土城區順風路59號","121.440243333333","24.97734","6501300","土城區"
"236024","269-VK","2019/07/05 14:19:25","新北市土城區忠承路97號","121.439008333333","24.964825","6501300","土城區"
"236013","270-VK","2019/07/05 14:19:39","新北市土城區青雲路39巷7號","121.460296666667","24.9875766666667","6501300","土城區"
"236032","271-VK","2019/07/05 14:19:27","新北市土城區青雲路521巷11號","121.459291666667","24.9732683333333","6501300","土城區"
"247009","KED-0683","2019/07/05 14:19:35","新北市蘆洲區三民路26巷24號","121.477518333333","25.0829616666667","6501400","蘆洲區"
"236067","KEA-2877","2019/07/05 14:19:40","新北市土城區明德路一段128巷2號","121.463141666667","24.9790283333333","6501300","土城區"
"236016","401-BY","2019/07/05 14:19:33","新北市土城區永豐路202巷5-1號","121.466376666667","24.9833033333333","6501300","土城區"
"236057","912-UM","2019/07/05 14:19:39","新北市土城區中央路四段448號","121.410528333333","24.95129","6501300","土城區"
"236045","913-UM","2019/07/05 14:19:25","新北市土城區明德路一段375-1號","121.454838333333","24.9781583333333","6501300","土城區"
"236060","915-UM","2019/07/05 14:19:41","新北市土城區金城路三段202-3號","121.469453333333","24.9886116666667","6501300","土城區"
"236054","AAC-216","2019/07/05 14:19:40","新北市土城區中華路二段92號","121.43817","24.9745366666667","6501300","土城區"
"221021","277-VK","2019/07/05 14:19:39","新北市汐止區茄苳路301號","121.673323333333","25.067025","6501100","汐止區"
"221029","298-VK","2019/07/05 14:19:37","新北市新店區安豐路25號","121.501198333333","24.9572116666667","6501100","汐止區"
"220027","145-BY","2019/07/05 14:19:38","新北市板橋區民權路256號","121.458238333333","25.0149983333333","6500100","板橋區"
"220028","200-UY","2019/07/05 14:19:39","新北市板橋區大觀路二段1巷6號","121.448593333333","25.003745","6500100","板橋區"
"220030","610-BX","2019/07/05 14:19:33","新北市板橋區篤行路三段77號","121.427081666667","24.985145","6500100","板橋區"
"220050","245-BX","2019/07/05 14:19:28","新北市板橋區莊敬路220巷66號","121.471716666667","25.0210066666667","6500100","板橋區"
"220040","267-BY","2019/07/05 14:19:31","新北市板橋區縣民大道三段245巷2號","121.481466666667","25.0260766666667","6500100","板橋區"
"220004","276-BY","2019/07/05 14:19:36","新北市板橋區信義路279巷21號","121.464281666667","24.9902133333333","6500100","板橋區"
"220020","277-BY","2019/07/05 14:19:22","新北市板橋區金門街379巷15號","121.428701666667","24.9844633333333","6500100","板橋區"
"220043","283-UM","2019/07/05 14:19:40","新北市板橋區吳鳳路50巷73號","121.469756666667","25.03037","6500100","板橋區"
"220019","283-VK","2019/07/05 14:19:31","新北市板橋區重慶路283號","121.463765","24.9994366666667","6500100","板橋區"
"220001","285-VK","2019/07/05 14:19:42","新北市板橋區富山街10號","121.478631666667","25.021905","6500100","板橋區"
"220031","286-VK","2019/07/05 14:19:38","新北市板橋區龍興街95巷7號","121.443653333333","25.00245","6500100","板橋區"
"220029","287-VK","2019/07/05 14:19:34","新北市板橋區南雅西路一段61號","121.45346","25.0054533333333","6500100","板橋區"
"220039","288-VK","2019/07/05 14:19:38","新北市板橋區溪頭街78號","121.458666666667","25.0296333333333","6500100","板橋區"
"220009","295-UM","2019/07/05 14:19:24","新北市板橋區中山路二段157號","121.47565","25.0166533333333","6500100","板橋區"
"220032","296-UM","2019/07/05 14:19:37","新北市板橋區溪北路112號","121.428983333333","24.9891333333333","6500100","板橋區"
"220023","303-R5","2019/07/05 14:19:23","新北市板橋區南雅南路一段3巷25號","121.45688","25.0061566666667","6500100","板橋區"
"220010","305-R5","2019/07/05 14:19:36","新北市板橋區三民路二段153巷3弄17號","121.479791666667","25.0149733333333","6500100","板橋區"
"220041","307-R5","2019/07/05 14:19:29","新北市板橋區文化路二段107號","121.469586666667","25.026035","6500100","板橋區"
"220037","491-VK","2019/07/05 14:19:21","新北市板橋區雙十路二段6-11號","121.476623333333","25.026515","6500100","板橋區"
"220104","560-BX","2019/07/05 14:19:39","新北市板橋區中正路360巷42號","121.455793333333","25.0229416666667","6500100","板橋區"
"220052","561-BX","2019/07/05 14:19:29","新北市板橋區陽明街27巷12號","121.465445","25.0211966666667","6500100","板橋區"
"220011","609-BX","2019/07/05 14:19:31","新北市板橋區三民路二段203-4號","121.479076666667","25.01364","6500100","板橋區"
"220005","686-BX","2019/07/05 14:19:27","新北市板橋區和平路87號","121.461775","24.99484","6500100","板橋區"
"220025","687-BX","2019/07/05 14:19:41","新北市板橋區大觀路二段293號","121.442268333333","24.99881","6500100","板橋區"
"220042","689-BX","2019/07/05 14:19:26","新北市板橋區新海路150號","121.460688333333","25.023855","6500100","板橋區"
"220002","741-BX","2019/07/05 14:19:31","新北市板橋區重慶路182號","121.462441666667","25.003525","6500100","板橋區"
"220051","KEA-2699","2019/07/05 14:19:36","新北市板橋區松柏街22巷2號","121.47458","25.0296266666667","6500100","板橋區"
"220003","827-TW","2019/07/05 14:19:36","新北市板橋區新民街7巷29號","121.46379","25.0105766666667","6500100","板橋區"
"220014","829-TW","2019/07/05 14:19:42","新北市板橋區長安街226號","121.47517","25.012295","6500100","板橋區"
"220016","831-TW","2019/07/05 14:19:30","新北市板橋區萬安街103巷10號","121.48315","25.02468","6500100","板橋區"
"220022","895-R6","2019/07/05 14:19:34","新北市板橋區公館街18號","121.457058333333","25.0124566666667","6500100","板橋區"
"220021","985-R7","2019/07/05 14:19:40","新北市板橋區中正路307號","121.455213333333","25.0196716666667","6500100","板橋區"
"220046","AAC-210","2019/07/05 14:19:35","新北市板橋區幸福路31-2號","121.461615","25.020155","6500100","板橋區"
"220012","AAC-253","2019/07/05 14:19:41","新北市板橋區中山路一段85號","121.461535","25.010005","6500100","板橋區"
"235032","KEA-2873","2019/07/05 14:19:15","新北市中和區永和路8巷21號","121.501143333333","25.003525","6500300","中和區"
"235025","KEA-2875","2019/07/05 14:19:43","新北市中和區民安街22巷19號","121.479681666667","25.0013033333333","6500300","中和區"
"235013","KEA-2876","2019/07/05 14:19:26","新北市中和區景新街238號","121.508796666667","24.993975","6500300","中和區"
