"lineid","car","time","location","longitude","latitude","cityid","cityname"
"234078","298-R6","2019/07/05 14:29:27","新北市永和區永貞路8號","121.520815","25.0072583333333","6500400","永和區"
"234036","336-UY","2019/07/05 14:29:34","新北市永和區環河東路四段22號","121.52879","24.9996116666667","6500400","永和區"
"234062","337-UY","2019/07/05 14:29:43","新北市永和區中正路526號","121.517316666667","25.00505","6500400","永和區"
"234068","552-UM","2019/07/05 14:29:23","新北市永和區福和路263巷7弄1號","121.517883333333","25.0069516666667","6500400","永和區"
"234028","746-BX","2019/07/05 14:29:32","新北市中和區安樂路49號","121.512116666667","24.9934416666667","6500400","永和區"
"234052","KEA-2590","2019/07/05 14:29:31","新北市永和區環河東路一段80號","121.519538333333","25.0164016666667","6500400","永和區"
"234060","AAD-866","2019/07/05 14:29:40","新北市永和區秀朗路一段175號","121.517011666667","25.0036216666667","6500400","永和區"
"234040","862-TW","2019/07/05 14:29:28","新北市永和區自由街33號","121.514403333333","25.0064083333333","6500400","永和區"
"234048","863-TW","2019/07/05 14:29:43","新北市永和區保安路134號","121.508618333333","25.0154316666667","6500400","永和區"
"234025","9371-KE","2019/07/05 14:29:43","新北市中和區安平路220號","121.514018333333","24.9999233333333","6500400","永和區"
"248019","KED-0813","2019/07/05 14:04:12","新北市五股區凌雲路三段57號","121.425325","25.125035","6501500","五股區"
"234022","9380-KE","2019/07/05 14:29:35","新北市永和區保生路55-1號","121.504485","25.0109083333333","6500400","永和區"
"234072","AAC-211","2019/07/05 14:29:25","新北市永和區環河東路一段126號","121.520693333333","25.0153733333333","6500400","永和區"
"234001","AAC-295","2019/07/05 14:29:31","新北市永和區大新街40號","121.515651666667","25.0083666666667","6500400","永和區"
"244004","248-BX","2019/07/05 14:29:36","新北市林口區南勢里34-8號","121.352448333333","25.0702833333333","6501700","林口區"
"231030","002-UM","2019/07/05 14:29:30","新北市新店區安民街33號","121.515813333333","24.9652266666667","6500600","新店區"
"231027","0293-UT","2019/07/05 14:29:25","新北市新店區永華街9號","121.543391666667","24.97705","6500600","新店區"
"231005","046-UY","2019/07/05 14:29:34","新北市新店區北新路三段117號","121.541315","24.9824233333333","6500600","新店區"
"231029","106-UY","2019/07/05 14:29:33","新北市新店區安康路二段382號","121.500505","24.9570283333333","6500600","新店區"
"231018","107-UY","2019/07/05 14:29:36","新北市新店區中央三街78號","121.526206666667","24.975315","6500600","新店區"
"231013","108-UY","2019/07/05 14:29:37","新北市新店區民權路108-3號","121.535845","24.9833683333333","6500600","新店區"
"231036","110-UY","2019/07/05 14:29:35","新北市新店區安祥路106-1號","121.478588333333","24.961975","6500600","新店區"
"231023","260-TV","2019/07/05 14:29:41","新北市新店區光明街298號","121.54052","24.9647916666667","6500600","新店區"
"231003","268-BY","2019/07/05 14:29:27","新北市新店區中興路一段268-3號","121.54523","24.96797","6500600","新店區"
"231035","278-BY","2019/07/05 14:29:32","新北市新店區安光路10-1號","121.513881666667","24.9640783333333","6500600","新店區"
"231016","AAD-862","2019/07/05 14:29:26","新北市新店區北宜路三段66號","121.575448333333","24.9506316666667","6500600","新店區"
"231006","355-BY","2019/07/05 14:29:28","新北市新店區北宜路二段491號","121.562598333333","24.9538","6500600","新店區"
"231038","3712-VJ","2019/07/05 14:29:38","新北市新店區溪洲路200號","121.528681666667","24.96637","6500600","新店區"
"231022","513-UM","2019/07/05 14:29:34","新北市新店區新烏路三段1號","121.551718333333","24.9067266666667","6500600","新店區"
"231001","617-UM","2019/07/05 14:29:25","新北市新店區中正路75巷71號","121.543241666667","24.9688716666667","6500600","新店區"
"231002","619-UM","2019/07/05 14:29:32","新北市新店區中央路91號","121.531696666667","24.975755","6500600","新店區"
"231034","641-BX","2019/07/05 14:29:25","新北市新店區車子路11號","121.502861666667","24.9516583333333","6500600","新店區"
"231012","KED-0819","2019/07/05 14:29:31","新北市新店區寶橋路162號","121.549073333333","24.9771433333333","6500600","新店區"
"231032","718-UY","2019/07/05 14:29:35","新北市新店區安業街215巷9號","121.523035","24.972905","6500600","新店區"
"231028","897-TW","2019/07/05 14:29:29","新北市新店區安和路二段71號","121.51826","24.9685933333333","6500600","新店區"
"231004","899-TW","2019/07/05 14:29:37","新北市新店區中正路282-1號","121.538336666667","24.9739883333333","6500600","新店區"
"231037","AKT-0513","2019/07/05 14:29:41","新北市新店區車子路14號","121.504788333333","24.9540483333333","6500600","新店區"
"235030","003-UY","2019/07/05 14:29:41","新北市中和區景新街53號","121.504415","24.99895","6500300","中和區"
"235028","005-UY","2019/07/05 14:29:38","新北市中和區南華路29號","121.50305","24.9960316666667","6500300","中和區"
"235027","006-UY","2019/07/05 14:29:32","新北市中和區連城路249號","121.493403333333","24.997095","6500300","中和區"
"235020","096-UM","2019/07/05 14:29:31","新北市中和區員山路581巷2弄7-2號","121.477853333333","25.0096716666667","6500300","中和區"
"235003","097-UM","2019/07/05 14:29:25","新北市中和區景德街3號","121.519131666667","24.991295","6500300","中和區"
"235029","098-UM","2019/07/05 14:29:36","新北市中和區中山路二段187號","121.50035","25.0027","6500300","中和區"
"235004","150-BY","2019/07/05 14:29:42","新北市中和區宜安路25號","121.512865","24.995915","6500300","中和區"
"235022","151-BY","2019/07/05 14:29:44","新北市中和區員山路146-1號","121.481428333333","24.9968066666667","6500300","中和區"
"235019","183-VK","2019/07/05 14:29:38","新北市中和區民生街12巷1號","121.470468333333","25.0055333333333","6500300","中和區"
"235002","185-VK","2019/07/05 14:29:23","新北市中和區自立路107號","121.521995","24.9947016666667","6500300","中和區"
"235031","255-BX","2019/07/05 14:29:29","新北市中和區新生街186巷1弄18號","121.48335","24.9989916666667","6500300","中和區"
"235008","293-VK","2019/07/05 14:29:36","新北市中和區捷運路155號","121.506466666667","24.9911033333333","6500300","中和區"
"235036","301-VK","2019/07/05 14:29:41","新北市中和區中和路4號","121.49949","25.002285","6500300","中和區"
"235007","352-BY","2019/07/05 14:29:31","新北市中和區景平路404號","121.508978333333","24.9930433333333","6500300","中和區"
"235006","KEA-2878","2019/07/05 14:29:34","新北市中和區中和路262巷43弄2號","121.509918333333","24.9998083333333","6500300","中和區"
"247013","KEA-2869","2019/07/05 14:29:35","新北市蘆洲區中山二路253號","121.470091666667","25.0798666666667","6501400","蘆洲區"
"247007","KED-0682","2019/07/05 14:29:41","新北市蘆洲區信義路74號","121.4764","25.0794116666667","6501400","蘆洲區"
"235033","4980-A6","2019/07/05 14:29:21","新北市中和區連城路134巷11號","121.495188333333","24.9999966666667","6500300","中和區"
"235034","558-UM","2019/07/05 14:29:31","新北市中和區景平路531號","121.498911666667","24.9991516666667","6500300","中和區"
"235009","565-BX","2019/07/05 14:29:36","新北市中和區景新街416號","121.512818333333","24.988995","6500300","中和區"
"235024","KED-0823","2019/07/05 14:29:36","新北市中和區新生街30巷28號","121.482265","25.0038116666667","6500300","中和區"
"235018","640-BX","2019/07/05 14:29:31","新北市中和區莒光路260-1號","121.467543333333","24.9937683333333","6500300","中和區"
"235011","732-UM","2019/07/05 14:29:24","新北市中和區景平路241巷64弄8號","121.507746666667","24.9925466666667","6500300","中和區"
"235010","733-UM","2019/07/05 14:29:39","新北市中和區忠孝街37巷52號","121.511093333333","24.9848866666667","6500300","中和區"
"235035","783-BX","2019/07/05 14:29:33","新北市中和區連城路467-5號","121.483638333333","24.9960433333333","6500300","中和區"
"235026","800-TS","2019/07/05 14:29:34","新北市中和區中山路二段411號","121.485936666667","25.0042383333333","6500300","中和區"
"235021","801-TS","2019/07/05 14:29:36","新北市中和區員山路152-3號","121.481338333333","24.9984766666667","6500300","中和區"
"235005","802-TS","2019/07/05 14:29:35","新北市中和區景安路50號","121.506536666667","24.9982033333333","6500300","中和區"
"235016","805-TS","2019/07/05 14:29:32","新北市中和區華新街143巷67弄35號","121.50755","24.9792816666667","6500300","中和區"
"235012","896-TW","2019/07/05 14:29:42","新北市中和區忠孝街39-13號","121.512091666667","24.9843983333333","6500300","中和區"
"235017","900-TW","2019/07/05 14:29:36","新北市中和區國光街215巷44號","121.467443333333","24.9999716666667","6500300","中和區"
"235015","157-BY","2019/07/05 14:29:38","新北市中和區中興街132巷11號","121.498831666667","24.99159","6500300","中和區"
"235001","AAC-213","2019/07/05 14:29:33","新北市中和區秀朗路三段107號","121.526383333333","24.9947083333333","6500300","中和區"
"235023","AAC-215","2019/07/05 14:29:38","新北市中和區圓通路331號","121.492121666667","24.9906766666667","6500300","中和區"
"220013","072-UY","2019/07/05 14:29:32","新北市板橋區實踐路93巷101號","121.467245","25.0059666666667","6500100","板橋區"
"220034","073-UY","2019/07/05 14:29:41","新北市板橋區中正路216巷8號","121.456348333333","25.018425","6500100","板橋區"
"220105","075-UY","2019/07/05 14:29:39","新北市板橋區文化路二段548巷21-1號","121.47661","25.033835","6500100","板橋區"
"220017","AAD-861","2019/07/05 14:29:38","新北市板橋區貴興路106巷12號","121.45509","25.0031083333333","6500100","板橋區"
"220047","120-SR","2019/07/05 14:29:44","新北市板橋區四維路266巷2弄20號","121.463903333333","25.02815","6500100","板橋區"
"247003","893-R6","2019/07/05 14:29:38","新北市蘆洲區長安街200號","121.458616666667","25.0841283333333","6501400","蘆洲區"
"247017","546-UM","2019/07/05 14:29:42","新北市蘆洲區民族路257巷2號","121.476485","25.0905883333333","6501400","蘆洲區"
"247023","337-TH","2019/07/05 14:29:38","新北市蘆洲區中正路263巷2號","121.46722","25.0875066666667","6501400","蘆洲區"
"247001","336-TH","2019/07/05 14:29:45","新北市蘆洲區永樂街38巷33弄46號","121.456863333333","25.0898783333333","6501400","蘆洲區"
"247021","057-VK","2019/07/05 14:29:34","新北市蘆洲區中正路486-1號","121.462148333333","25.0958466666667","6501400","蘆洲區"
"247011","056-VK","2019/07/05 14:29:31","新北市蘆洲區復興路158號","121.477396666667","25.08814","6501400","蘆洲區"
"247015","053-VK","2019/07/05 14:29:42","新北市蘆洲區中正路185巷68弄1號","121.466555","25.0844666666667","6501400","蘆洲區"
"247019","007-UY","2019/07/05 14:29:27","新北市蘆洲區水湳街257號","121.469415","25.09243","6501400","蘆洲區"
"247005","002-UY","2019/07/05 14:29:37","新北市蘆洲區長安街48號","121.463306666667","25.07965","6501400","蘆洲區"
"207002","749-BX","2019/07/05 14:29:36","新北市萬里區溪底里瑞泉路4號","121.609291666667","25.1461466666667","6502800","萬里區"
"207001","662-BX","2019/07/05 14:29:40","新北市萬里區磺潭里清水18-2號","121.638673333333","25.1984866666667","6502800","萬里區"
"236040","KED-0685","2019/07/05 14:29:41","新北市土城區學成路91巷2號","121.450883333333","24.98834","6501300","土城區"
"220038","KED-0812","2019/07/05 14:29:28","新北市板橋區龍泉街139號","121.457775","25.0240283333333","6500100","板橋區"
"236029","253-BX","2019/07/05 14:29:37","新北市土城區水源街30號","121.440908333333","24.9755316666667","6501300","土城區"
"236024","269-VK","2019/07/05 14:29:26","新北市土城區承天路81-8號","121.440575","24.9626566666667","6501300","土城區"
"236013","270-VK","2019/07/05 14:29:39","新北市土城區青雲路39巷7號","121.460311666667","24.9875833333333","6501300","土城區"
"236032","271-VK","2019/07/05 14:29:27","新北市土城區明德路一段287巷12號","121.460993333333","24.9768783333333","6501300","土城區"
"247009","KED-0683","2019/07/05 14:29:35","新北市蘆洲區信義路136號","121.479581666667","25.0830183333333","6501400","蘆洲區"
"236067","KEA-2877","2019/07/05 14:29:40","新北市土城區永豐路255巷27弄43號","121.476985","24.9737016666667","6501300","土城區"
"236016","401-BY","2019/07/05 14:29:33","新北市土城區明德路一段93巷6號","121.46617","24.9833516666667","6501300","土城區"
"236057","912-UM","2019/07/05 14:29:39","新北市土城區中央路四段71號","121.417343333333","24.958335","6501300","土城區"
"236045","913-UM","2019/07/05 14:29:37","新北市土城區青雲路581-1號","121.459408333333","24.9715783333333","6501300","土城區"
"236060","915-UM","2019/07/05 14:29:21","新北市土城區延壽路1-9號","121.469218333333","24.993875","6501300","土城區"
"236054","AAC-216","2019/07/05 14:29:37","新北市土城區中華路二段1號","121.439616666667","24.9790783333333","6501300","土城區"
"221021","277-VK","2019/07/05 14:29:39","新北市汐止區大同路二段184巷5號","121.653598333333","25.0642933333333","6501100","汐止區"
"221029","298-VK","2019/07/05 14:29:37","新北市新店區薏仁坑路自強巷1號","121.497068333333","24.9581216666667","6501100","汐止區"
"220027","145-BY","2019/07/05 14:29:38","新北市板橋區公館街84號","121.461138333333","25.0152683333333","6500100","板橋區"
"220028","200-UY","2019/07/05 14:29:33","新北市板橋區大觀路二段3巷42號","121.448553333333","25.0035533333333","6500100","板橋區"
"220030","610-BX","2019/07/05 14:29:33","新北市板橋區金門街377號","121.428111666667","24.9845366666667","6500100","板橋區"
"220050","245-BX","2019/07/05 14:29:28","新北市板橋區莒光路196巷27號","121.473058333333","25.0224133333333","6500100","板橋區"
"220040","267-BY","2019/07/05 14:29:26","新北市板橋區文聖街149巷20號","121.47941","25.0284066666667","6500100","板橋區"
"220004","276-BY","2019/07/05 14:29:36","新北市板橋區廣權路1號","121.460476666667","24.9910983333333","6500100","板橋區"
"220020","277-BY","2019/07/05 14:29:42","新北市板橋區金門街317巷1-1號","121.42982","24.986","6500100","板橋區"
"220043","283-UM","2019/07/05 14:29:27","新北市板橋區松江街109巷1號","121.46905","25.0306466666667","6500100","板橋區"
"220019","283-VK","2019/07/05 14:29:31","新北市板橋區仁愛路73巷8號","121.461058333333","25.00021","6500100","板橋區"
"220001","285-VK","2019/07/05 14:29:42","新北市板橋區富山街62巷1號","121.477133333333","25.02219","6500100","板橋區"
"220031","286-VK","2019/07/05 14:29:46","新北市板橋區龍興街65巷80號","121.44192","25.0022916666667","6500100","板橋區"
"220029","287-VK","2019/07/05 14:29:34","新北市板橋區大觀路一段29巷131弄33號","121.450821666667","25.0039733333333","6500100","板橋區"
"220039","288-VK","2019/07/05 14:29:37","新北市板橋區新海路431巷20號","121.457651666667","25.0268833333333","6500100","板橋區"
"220009","295-UM","2019/07/05 14:29:36","新北市板橋區漢生東路113巷6弄2號","121.46763","25.0152983333333","6500100","板橋區"
"220032","296-UM","2019/07/05 14:29:42","新北市板橋區滿平街84巷120弄8號","121.426663333333","24.9860233333333","6500100","板橋區"
"220023","303-R5","2019/07/05 14:29:43","新北市板橋區僑中一街124巷72-3號","121.449396666667","25.017535","6500100","板橋區"
"220010","305-R5","2019/07/05 14:29:30","新北市板橋區三民路二段95巷22號","121.48053","25.0162083333333","6500100","板橋區"
"220041","307-R5","2019/07/05 14:29:42","新北市板橋區四維路137巷1弄14號","121.464833333333","25.02466","6500100","板橋區"
"220037","491-VK","2019/07/05 14:29:41","新北市板橋區雙十路二段37-1號","121.476871666667","25.0258783333333","6500100","板橋區"
"220104","560-BX","2019/07/05 14:29:26","新北市板橋區中正路413巷2弄18號","121.453366666667","25.0231883333333","6500100","板橋區"
"220052","561-BX","2019/07/05 14:29:29","新北市板橋區陽明街46-5號","121.465543333333","25.0220183333333","6500100","板橋區"
"220011","609-BX","2019/07/05 14:29:33","新北市板橋區三民路一段3巷30號","121.48008","25.023765","6500100","板橋區"
"220005","686-BX","2019/07/05 14:29:27","新北市板橋區廣和街66號","121.462131666667","24.99395","6500100","板橋區"
"220025","687-BX","2019/07/05 14:29:39","新北市板橋區大觀路二段29號","121.446753333333","25.00314","6500100","板橋區"
"220042","689-BX","2019/07/05 14:29:28","新北市板橋區新海路364號","121.45952","25.0252066666667","6500100","板橋區"
"220002","741-BX","2019/07/05 14:29:30","新北市板橋區光明街1號","121.460141666667","25.0025233333333","6500100","板橋區"
"220051","KEA-2699","2019/07/05 14:29:28","新北市板橋區雙十路二段46巷17號","121.476165","25.0281916666667","6500100","板橋區"
"220003","827-TW","2019/07/05 14:29:36","新北市板橋區實踐路60號","121.46381","25.0061433333333","6500100","板橋區"
"220014","829-TW","2019/07/05 14:29:37","新北市板橋區漢生東路313巷2弄68號","121.472885","25.0081066666667","6500100","板橋區"
"220016","831-TW","2019/07/05 14:29:29","新北市板橋區中山路二段553巷17號","121.483316666667","25.0224233333333","6500100","板橋區"
"220022","895-R6","2019/07/05 14:29:42","新北市板橋區北門街21號","121.456785","25.0110116666667","6500100","板橋區"
"220021","985-R7","2019/07/05 14:29:40","新北市板橋區新生街89巷16號","121.457631666667","25.0225233333333","6500100","板橋區"
"220046","AAC-210","2019/07/05 14:29:35","新北市板橋區文化路一段285巷1弄4號","121.464176666667","25.01871","6500100","板橋區"
"220012","AAC-253","2019/07/05 14:29:41","新北市板橋區重慶路8號","121.460561666667","25.0081266666667","6500100","板橋區"
"235032","KEA-2873","2019/07/05 14:29:15","新北市中和區景平路736巷5弄11號","121.497763333333","25.00354","6500300","中和區"
"235025","KEA-2875","2019/07/05 14:29:13","新北市中和區新生街148巷19弄6-2號","121.482518333333","25.0003733333333","6500300","中和區"
"235013","KEA-2876","2019/07/05 14:29:26","新北市中和區景新街273巷27號","121.510425","24.9939916666667","6500300","中和區"
