"lineid","car","time","location","longitude","latitude","cityid","cityname"
"244004","248-BX","2019/07/05 14:59:36","新北市林口區南勢里34-8號","121.352508333333","25.070225","6501700","林口區"
"231030","002-UM","2019/07/05 14:59:30","新北市新店區安興路84號","121.515026666667","24.97606","6500600","新店區"
"231005","046-UY","2019/07/05 14:59:34","新北市新店區復興路51-8號","121.536553333333","24.9871466666667","6500600","新店區"
"231029","106-UY","2019/07/05 14:59:33","新北市新店區錦秀路1-2號","121.479","24.9455416666667","6500600","新店區"
"231018","107-UY","2019/07/05 14:59:32","新北市新店區中央六街8號","121.530076666667","24.9744083333333","6500600","新店區"
"231013","108-UY","2019/07/05 14:59:37","新北市新店區安康路一段24巷2號","121.532903333333","24.9604683333333","6500600","新店區"
"231036","110-UY","2019/07/05 14:59:35","新北市新店區安祥路102巷46弄69號","121.486801666667","24.9633866666667","6500600","新店區"
"231039","187-VK","2019/07/05 14:59:28","新北市新店區寶興路42巷37號","121.547603333333","24.9719166666667","6500600","新店區"
"231023","260-TV","2019/07/05 14:59:40","新北市新店區檳榔路111號","121.544465","24.96149","6500600","新店區"
"231003","268-BY","2019/07/05 14:59:27","新北市新店區中興路二段87號","121.547233333333","24.9711366666667","6500600","新店區"
"231035","278-BY","2019/07/05 14:59:32","新北市新店區安和路二段240號","121.516586666667","24.9782233333333","6500600","新店區"
"231016","AAD-862","2019/07/05 14:59:26","新北市新店區北宜路三段221號","121.59241","24.9531733333333","6500600","新店區"
"231006","355-BY","2019/07/05 14:59:27","新北市新店區北宜路一段32號","121.53819","24.9567516666667","6500600","新店區"
"231038","3712-VJ","2019/07/05 14:35:47","新北市新店區安華路28-1號","121.519608333333","24.9608583333333","6500600","新店區"
"231024","4716-K9","2019/07/05 14:59:33","新北市新店區力行路32號","121.539001666667","24.9648583333333","6500600","新店區"
"231025","4715-K9","2019/07/05 14:59:34","新北市新店區二十張路33巷20號","121.539111666667","24.980815","6500600","新店區"
"231022","513-UM","2019/07/05 14:59:34","新北市新店區桂山路51巷6-1號","121.562185","24.901475","6500600","新店區"
"231001","617-UM","2019/07/05 14:59:45","新北市新店區中正路268號","121.539118333333","24.9737016666667","6500600","新店區"
"231002","619-UM","2019/07/05 14:59:42","新北市新店區民權路85號","121.538048333333","24.9828883333333","6500600","新店區"
"231034","641-BX","2019/07/05 14:59:25","新北市新店區玫瑰路4-1號","121.493576666667","24.951425","6500600","新店區"
"231012","KED-0819","2019/07/05 14:59:31","新北市新店區寶橋路132號","121.547318333333","24.975965","6500600","新店區"
"231032","718-UY","2019/07/05 14:59:35","新北市新店區安泰路42號","121.485145","24.9477783333333","6500600","新店區"
"231026","720-UM","2019/07/05 14:59:44","新北市新店區北新路一段150號","121.54258","24.9707916666667","6500600","新店區"
"231028","897-TW","2019/07/05 14:59:33","新北市新店區安德街167號","121.508495","24.9592483333333","6500600","新店區"
"231004","899-TW","2019/07/05 14:59:37","新北市新店區民族路26號","121.540801666667","24.9787833333333","6500600","新店區"
"231037","AKT-0513","2019/07/05 14:59:41","新北市新店區安民街141號","121.51648","24.9694733333333","6500600","新店區"
"235030","003-UY","2019/07/05 14:59:40","新北市永和區保平路290號","121.508025","25.0044433333333","6500300","中和區"
"235020","096-UM","2019/07/05 14:59:31","新北市中和區中山路三段159號","121.47341","25.00626","6500300","中和區"
"235003","097-UM","2019/07/05 14:59:25","新北市中和區安樂路217巷54號","121.512806666667","24.9975816666667","6500300","中和區"
"235029","098-UM","2019/07/05 14:59:36","新北市中和區橋和路302號","121.496976666667","25.0068833333333","6500300","中和區"
"235004","150-BY","2019/07/05 14:59:41","新北市中和區景安路77號","121.50655","24.997355","6500300","中和區"
"235031","255-BX","2019/07/05 14:58:29","新北市五股區中直路17-4號","121.42231","25.1115183333333","6500300","中和區"
"235008","293-VK","2019/07/05 14:59:42","新北市中和區中正路65巷1弄2號","121.501296666667","24.9931433333333","6500300","中和區"
"235036","301-VK","2019/07/05 14:59:41","新北市中和區中山路二段3巷30號","121.507083333333","25.0050766666667","6500300","中和區"
"235007","352-BY","2019/07/05 14:59:30","新北市中和區華新街228號","121.50612","24.98177","6500300","中和區"
"235014","4979-A6","2019/07/05 14:59:39","新北市中和區景平路155巷2弄1號","121.513323333333","24.9919216666667","6500300","中和區"
"235034","558-UM","2019/07/05 14:59:31","新北市中和區中正路276號","121.494883333333","24.9939516666667","6500300","中和區"
"235010","733-UM","2019/07/05 14:59:39","新北市中和區興南路一段105巷20弄4號","121.510235","24.985815","6500300","中和區"
"235035","783-BX","2019/07/05 14:59:32","新北市中和區中正路828號","121.484825","25.0034916666667","6500300","中和區"
"235012","896-TW","2019/07/05 14:59:42","新北市中和區忠孝街1巷2-1號","121.509175","24.9830833333333","6500300","中和區"
"235015","157-BY","2019/07/05 14:59:38","新北市中和區南山路399巷2號","121.506898333333","24.990175","6500300","中和區"
"235001","AAC-213","2019/07/05 14:59:32","新北市中和區自立路193號","121.52425","24.991345","6500300","中和區"
"235023","AAC-215","2019/07/05 14:59:33","新北市中和區圓通路335巷3弄2號","121.492596666667","24.9901433333333","6500300","中和區"
"220013","072-UY","2019/07/05 14:59:32","新北市板橋區民族路229號","121.469743333333","25.0071","6500100","板橋區"
"220034","073-UY","2019/07/05 14:59:41","新北市板橋區中正路11號","121.456111666667","25.0121616666667","6500100","板橋區"
"220105","075-UY","2019/07/05 14:59:39","新北市板橋區懷德街78巷20號","121.477765","25.03136","6500100","板橋區"
"220017","AAD-861","2019/07/05 14:59:31","新北市板橋區貴興路107號","121.455981666667","25.0024816666667","6500100","板橋區"
"220047","120-SR","2019/07/05 14:59:37","新北市板橋區龍泉街55巷2號","121.457168333333","25.0258116666667","6500100","板橋區"
"207002","749-BX","2019/07/05 14:59:36","新北市萬里區崁腳里崁腳路64號","121.648531666667","25.1598766666667","6502800","萬里區"
"207001","662-BX","2019/07/05 14:59:40","新北市萬里區雙興里二坪路9號","121.64593","25.1749783333333","6502800","萬里區"
"236040","KED-0685","2019/07/05 14:59:40","新北市土城區學士路2號","121.454125","24.9833916666667","6501300","土城區"
"220038","KED-0812","2019/07/05 14:59:28","新北市板橋區四維路253號","121.463383333333","25.0277733333333","6500100","板橋區"
"236029","253-BX","2019/07/05 14:59:37","新北市土城區福仁街64號","121.439418333333","24.9744483333333","6501300","土城區"
"236024","269-VK","2019/07/05 14:59:36","新北市土城區中正路76號","121.44462","24.975395","6501300","土城區"
"236013","270-VK","2019/07/05 14:59:39","新北市土城區立德路13巷22號","121.461616666667","24.9887716666667","6501300","土城區"
"236032","271-VK","2019/07/05 14:59:27","新北市土城區清水路145號","121.458416666667","24.9818016666667","6501300","土城區"
"236067","KEA-2877","2019/07/05 14:59:40","新北市土城區明德路二段209號","121.446408333333","24.9836483333333","6501300","土城區"
"236016","401-BY","2019/07/05 14:59:41","新北市土城區延吉街217巷9弄2號","121.468865","24.9845166666667","6501300","土城區"
"236057","912-UM","2019/07/05 14:59:39","新北市土城區金城路二段250號","121.457108333333","24.9832533333333","6501300","土城區"
"236045","913-UM","2019/07/05 14:59:40","新北市土城區青雲路322巷2弄4號","121.458073333333","24.9773433333333","6501300","土城區"
"236060","915-UM","2019/07/05 14:59:42","新北市土城區金城路三段93巷25號","121.46663","24.9886083333333","6501300","土城區"
"236054","AAC-216","2019/07/05 14:59:37","新北市土城區學成路72號","121.451616666667","24.9880383333333","6501300","土城區"
"221021","277-VK","2019/07/05 14:59:39","新北市汐止區明峰街185號","121.628281666667","25.0698333333333","6501100","汐止區"
"221029","298-VK","2019/07/05 14:59:37","新北市新店區安豐路30-1號","121.500726666667","24.9567166666667","6501100","汐止區"
"220027","145-BY","2019/07/05 14:59:38","新北市板橋區復興街89號","121.459466666667","25.01783","6500100","板橋區"
"220028","200-UY","2019/07/05 14:59:26","新北市板橋區大觀路二段163巷23號","121.446688333333","25.0000966666667","6500100","板橋區"
"220030","610-BX","2019/07/05 14:59:33","新北市板橋區溪崑二街8號","121.42898","24.9919616666667","6500100","板橋區"
"220050","245-BX","2019/07/05 14:59:28","新北市板橋區雙十路二段47巷4弄24號","121.474913333333","25.0264983333333","6500100","板橋區"
"220040","267-BY","2019/07/05 14:59:26","新北市板橋區文聖街149巷35號","121.47988","25.0288816666667","6500100","板橋區"
"220004","276-BY","2019/07/05 14:59:36","新北市板橋區德興街37巷16號","121.453976666667","24.9938416666667","6500100","板橋區"
"220020","277-BY","2019/07/05 14:59:22","新北市板橋區金門街127巷8號","121.433235","24.9911966666667","6500100","板橋區"
"220043","283-UM","2019/07/05 14:59:27","新北市板橋區文化路一段379號","121.46702","25.0216016666667","6500100","板橋區"
"220019","283-VK","2019/07/05 14:59:34","新北市板橋區五權街30巷24弄27號","121.463626666667","24.993735","6500100","板橋區"
"220001","285-VK","2019/07/05 14:59:30","新北市板橋區永豐街53號","121.474013333333","25.0180533333333","6500100","板橋區"
"220031","286-VK","2019/07/05 14:59:43","新北市板橋區僑中二街48巷26號","121.44532","25.0104733333333","6500100","板橋區"
"220029","287-VK","2019/07/05 14:59:34","新北市板橋區大觀路一段28巷88號","121.449925","25.0110333333333","6500100","板橋區"
"220009","295-UM","2019/07/05 14:59:24","新北市板橋區中山路一段1號","121.459383333333","25.0075533333333","6500100","板橋區"
"220023","303-R5","2019/07/05 14:59:36","新北市板橋區金華街1號","121.455461666667","25.0200366666667","6500100","板橋區"
"220010","305-R5","2019/07/05 14:59:28","新北市板橋區中山路二段328號","121.481165","25.0198433333333","6500100","板橋區"
"220041","307-R5","2019/07/05 14:59:29","新北市板橋區光正街9巷24弄12號","121.461985","25.0163833333333","6500100","板橋區"
"220037","491-VK","2019/07/05 14:59:41","新北市板橋區文聖街136號","121.478445","25.0280816666667","6500100","板橋區"
"220104","560-BX","2019/07/05 14:59:26","新北市板橋區新生街25號","121.456228333333","25.021175","6500100","板橋區"
"220052","561-BX","2019/07/05 14:59:29","新北市板橋區漢生東路53巷28號","121.466755","25.0173233333333","6500100","板橋區"
"220011","609-BX","2019/07/05 14:59:36","新北市板橋區三民路一段50-1號","121.479375","25.0226116666667","6500100","板橋區"
"220005","686-BX","2019/07/05 14:59:27","新北市板橋區四川路二段245巷71號","121.452771666667","24.9919283333333","6500100","板橋區"
"220025","687-BX","2019/07/05 14:59:38","新北市板橋區僑中二街8巷1號","121.447123333333","25.01109","6500100","板橋區"
"220042","689-BX","2019/07/05 14:59:44","新北市板橋區長江路二段264號","121.469401666667","25.0328183333333","6500100","板橋區"
"220002","741-BX","2019/07/05 14:59:30","新北市板橋區忠孝路201巷53號","121.464796666667","25.0039716666667","6500100","板橋區"
"220051","KEA-2699","2019/07/05 14:59:28","新北市板橋區莒光路40巷17弄7號","121.470535","25.0236883333333","6500100","板橋區"
"220003","827-TW","2019/07/05 14:59:36","新北市板橋區仁愛路62巷14弄1-3號","121.459945","24.9984633333333","6500100","板橋區"
"220014","829-TW","2019/07/05 14:59:37","新北市板橋區漢生東路195號","121.470165","25.0115733333333","6500100","板橋區"
"220016","831-TW","2019/07/05 14:59:29","新北市板橋區中山路二段326號","121.480986666667","25.019675","6500100","板橋區"
"220022","895-R6","2019/07/05 14:59:23","新北市板橋區文化路一段46巷23號","121.460381666667","25.01156","6500100","板橋區"
"220021","985-R7","2019/07/05 14:59:20","新北市板橋區南雅西路二段121號","121.452451666667","25.0109266666667","6500100","板橋區"
"220046","AAC-210","2019/07/05 14:59:35","新北市板橋區光正街45巷6弄12號","121.461281666667","25.01704","6500100","板橋區"
"220012","AAC-253","2019/07/05 14:59:41","新北市板橋區館前東路128號","121.46396","25.0077016666667","6500100","板橋區"
"235013","KEA-2876","2019/07/05 14:59:26","新北市中和區景新街479號","121.513543333333","24.9876133333333","6500300","中和區"
