"lineid","car","time","location","longitude","latitude","cityid","cityname"
"249005","172-UM","2019/07/05 17:19:38","新北市八里區荖阡坑路46號","121.41087","25.1241683333333","6502300","八里區"
"249001","173-UM","2019/07/05 17:19:40","新北市八里區中華路二段165巷3號","121.407645","25.1508516666667","6502300","八里區"
"249004","303-UY","2019/07/05 17:19:29","新北市八里區賢三街96號","121.41728","25.1579033333333","6502300","八里區"
"249002","305-UY","2019/07/05 17:19:36","新北市八里區龍米路二段117巷29-1號","121.446416666667","25.14286","6502300","八里區"
"249003","593-UM","2019/07/05 17:19:39","新北市八里區中山路二段439號","121.396786666667","25.1457983333333","6502300","八里區"
"244007","080-UY","2019/07/05 17:19:37","新北市林口區湖子10-2號","121.387983333333","25.090055","6501700","林口區"
"244019","402-UM","2019/07/05 17:19:26","新北市林口區公園路229-3號","121.375178333333","25.0751883333333","6501700","林口區"
"244013","KEA-2802","2019/07/05 17:19:36","新北市林口區粉寮69號","121.404793333333","25.0908283333333","6501700","林口區"
"244023","483-VK","2019/07/05 17:19:29","新北市林口區隆林街48-1號","121.387321666667","25.075435","6501700","林口區"
"244017","485-VK","2019/07/05 17:19:36","新北市林口區中山路260號","121.384981666667","25.0797466666667","6501700","林口區"
"244009","656-BX","2019/07/05 17:19:41","新北市林口區中北一街47-1號","121.38589","25.0876133333333","6501700","林口區"
"244011","701-TV","2019/07/05 17:19:33","新北市林口區仁愛路一段285巷116號","121.395265","25.0758816666667","6501700","林口區"
"244025","837-TS","2019/07/05 17:19:41","新北市林口區仁愛二路63號","121.368536666667","25.0754333333333","6501700","林口區"
"244021","838-TS","2019/07/05 17:19:27","新北市林口區粉寮路67-16號","121.404141666667","25.0912066666667","6501700","林口區"
"231046","719-UM","2019/07/05 17:12:21","新北市新店區直潭路75號","121.532198333333","24.9421433333333","6500600","新店區"
"241011","013-R5","2019/07/05 17:19:33","新北市三重區河邊北街110巷2號","121.503606666667","25.07069","6500200","三重區"
"241028","022-UY","2019/07/05 17:19:43","新北市三重區中正南路77號","121.494128333333","25.0587133333333","6500200","三重區"
"241008","059-VK","2019/07/05 17:19:31","新北市三重區永福街72巷31號","121.480106666667","25.0762833333333","6500200","三重區"
"241015","062-VK","2019/07/05 17:19:28","新北市三重區福德北路82-1號","121.50177","25.0661833333333","6500200","三重區"
"241017","063-VK","2019/07/05 17:19:36","新北市三重區大同北路61號","121.495148333333","25.0633116666667","6500200","三重區"
"241001","066-VK","2019/07/05 17:19:24","新北市三重區仁愛街399號","121.491141666667","25.0809066666667","6500200","三重區"
"241003","091-VK","2019/07/05 17:19:21","新北市三重區富福街34號","121.490806666667","25.0837266666667","6500200","三重區"
"241030","742-BX","2019/07/05 17:19:38","新北市三重區集美街178號","121.490563333333","25.0533433333333","6500200","三重區"
"241005","262-UM","2019/07/05 17:19:32","新北市三重區永安北路二段25巷18號","121.482568333333","25.08184","6500200","三重區"
"241016","266-UM","2019/07/05 17:19:33","新北市三重區大同北路54巷1號","121.494178333333","25.06365","6500200","三重區"
"241009","267-UM","2019/07/05 17:19:31","新北市三重區三和路四段147號","121.48418","25.07829","6500200","三重區"
"241018","268-UM","2019/07/05 17:19:38","新北市三重區安慶街151號","121.494393333333","25.068815","6500200","三重區"
"241032","269-UM","2019/07/05 17:19:29","新北市三重區中華路2巷9號","121.482825","25.060555","6500200","三重區"
"241013","270-UM","2019/07/05 17:19:42","新北市三重區三和路三段107巷12號","121.494743333333","25.073065","6500200","三重區"
"241023","271-UM","2019/07/05 17:19:37","新北市三重區忠孝路三段50巷56號","121.482403333333","25.0650983333333","6500200","三重區"
"241007","398-BY","2019/07/05 17:19:32","新北市三重區慈愛街10號","121.484548333333","25.0785366666667","6500200","三重區"
"241004","475-VK","2019/07/05 17:19:32","新北市三重區五華街141巷57號","121.493596666667","25.08644","6500200","三重區"
"241020","478-VK","2019/07/05 17:19:28","新北市三重區忠孝路一段127號","121.48869","25.0720466666667","6500200","三重區"
"241026","480-VK","2019/07/05 17:19:29","新北市三重區文化南路42號","121.500375","25.0601983333333","6500200","三重區"
"241014","543-UM","2019/07/05 17:19:23","新北市三重區長榮路9號","121.500356666667","25.0685233333333","6500200","三重區"
"241019","KEA-2593","2019/07/05 17:19:31","新北市三重區忠孝路二段4號","121.486758333333","25.0713716666667","6500200","三重區"
"241022","KED-0820","2019/07/05 17:19:39","新北市三重區中正北路64巷19號","121.486093333333","25.0638216666667","6500200","三重區"
"241025","887-TS","2019/07/05 17:19:31","新北市三重區中正北路339號","121.473248333333","25.0715666666667","6500200","三重區"
"241012","941-UM","2019/07/05 17:19:27","新北市三重區仁興街39巷4號","121.499263333333","25.075865","6500200","三重區"
"241033","AAC-255","2019/07/05 17:19:40","新北市三重區中興北街148號","121.469003333333","25.0564983333333","6500200","三重區"
"247014","KEA-2869","2019/07/05 17:19:43","新北市蘆洲區中正路79-2號","121.470163333333","25.0834683333333","6501400","蘆洲區"
"247008","KED-0682","2019/07/05 17:19:31","新北市三重區永安北路一段37巷2弄16號","121.476711666667","25.0765583333333","6501400","蘆洲區"
"235062","800-TS","2019/07/05 17:19:30","新北市中和區員山路36巷16-3號","121.48505","24.9912966666667","6500300","中和區"
"247004","893-R6","2019/07/05 17:19:22","新北市蘆洲區永安南路二段276號","121.458241666667","25.080985","6501400","蘆洲區"
"247018","546-UM","2019/07/05 17:19:33","新北市蘆洲區民權路82巷1弄12號","121.47439","25.088235","6501400","蘆洲區"
"247024","337-TH","2019/07/05 17:19:33","新北市蘆洲區光榮路2號","121.460328333333","25.0861166666667","6501400","蘆洲區"
"247002","336-TH","2019/07/05 17:19:41","新北市蘆洲區永樂街38巷33弄4號","121.457973333333","25.0894666666667","6501400","蘆洲區"
"247022","057-VK","2019/07/05 17:19:39","新北市蘆洲區三民路128巷94號","121.469618333333","25.090335","6501400","蘆洲區"
"247012","056-VK","2019/07/05 17:19:34","新北市蘆洲區信義路319巷10弄3號","121.477508333333","25.0864616666667","6501400","蘆洲區"
"247016","053-VK","2019/07/05 17:19:41","新北市蘆洲區光華路119巷3-1號","121.467141666667","25.082","6501400","蘆洲區"
"247020","007-UY","2019/07/05 17:19:38","新北市蘆洲區仁愛街35巷12號","121.471471666667","25.092675","6501400","蘆洲區"
"247006","002-UY","2019/07/05 17:19:40","新北市蘆洲區長安街73巷13號","121.46223","25.07958","6501400","蘆洲區"
"228002","663-BX","2019/07/05 17:19:41","新北市貢寮區雙玉里田寮洋街42號","121.925618333333","25.01235","6502600","貢寮區"
"228001","670-TC","2019/07/05 17:19:39","新北市貢寮區仁理村尖山腳街18-3號","121.92548","25.0483366666667","6502600","貢寮區"
"228003","828-UM","2019/07/05 17:19:31","新北市貢寮區福隆里興隆街24-1號","121.944386666667","25.0166566666667","6502600","貢寮區"
"224010","AGQ-8101","2019/07/05 17:19:31","新北市瑞芳區逢甲路20-2號","121.809393333333","25.1087366666667","6501200","瑞芳區"
"224006","676-BX","2019/07/05 17:19:34","新北市瑞芳區傑魚坑路301號","121.786435","25.10474","6501200","瑞芳區"
"224009","275-VK","2019/07/05 17:19:42","新北市瑞芳區汽車路147號","121.838523333333","25.109885","6501200","瑞芳區"
"224008","273-VK","2019/07/05 17:19:28","新北市瑞芳區侯硐路48號","121.825756666667","25.082945","6501200","瑞芳區"
"224005","271-BY","2019/07/05 17:19:30","新北市瑞芳區鼻頭路247號","121.912626666667","25.12401","6501200","瑞芳區"
"227001","642-TC","2019/07/05 17:19:40","新北市雙溪區三貂里定福路1-2號","121.850708333333","25.0634066666667","6502500","雙溪區"
"227002","400-TW","2019/07/05 17:19:42","新北市雙溪區平林里梅竹蹊62號","121.860646666667","25.0358883333333","6502500","雙溪區"
"251004","009-UM","2019/07/05 17:16:23","新北市淡水區中正東路二段88巷15號","121.459055","25.1504916666667","6501000","淡水區"
"251008","181-VK","2019/07/05 17:19:36","新北市淡水區大同路276號","121.467571666667","25.1414616666667","6501000","淡水區"
"251010","413-VK","2019/07/05 17:19:37","新北市淡水區中正路一段22巷100號","121.426901666667","25.1860383333333","6501000","淡水區"
"251012","441-VK","2019/07/05 17:19:45","新北市淡水區北新路19號","121.444536666667","25.1776783333333","6501000","淡水區"
"251007","442-VK","2019/07/05 17:19:43","新北市淡水區民生路60號","121.462095","25.1379566666667","6501000","淡水區"
"251005","443-VK","2019/07/05 17:19:27","新北市淡水區鄧公路29巷2號","121.451705","25.1698916666667","6501000","淡水區"
"251006","561-UM","2019/07/05 17:19:40","新北市淡水區中山路190號","121.441576666667","25.17455","6501000","淡水區"
"251009","575-R6","2019/07/05 17:19:33","新北市淡水區三民街21號","121.439035","25.171875","6501000","淡水區"
"251011","650-BX","2019/07/05 17:19:38","新北市淡水區坪頂路86號","121.462245","25.1634733333333","6501000","淡水區"
"251002","672-BX","2019/07/05 17:19:26","新北市淡水區中正路二段31號","121.419331666667","25.1815933333333","6501000","淡水區"
"251003","766-UM","2019/07/05 17:19:39","新北市淡水區中正路二段31號","121.419501666667","25.18152","6501000","淡水區"
"207003","550-UM","2019/07/05 17:19:34","新北市萬里區萬里里獅頭路23號","121.693443333333","25.178265","6502800","萬里區"
"252002","178-VK","2019/07/05 17:19:43","新北市三芝區忠孝街1-15號","121.50553","25.2539133333333","6502100","三芝區"
"252001","292-VK","2019/07/05 17:19:40","新北市三芝區淡金路一段3號","121.498101666667","25.2596666666667","6502100","三芝區"
"233002","762-BX","2019/07/05 17:19:41","新北市烏來區環山路82巷25號","121.5482","24.8632633333333","6502900","烏來區"
"247010","KED-0683","2019/07/05 17:19:37","新北市蘆洲區中山一路120巷7弄24號","121.477243333333","25.0820966666667","6501400","蘆洲區"
"242039","AAC-296","2019/07/05 17:19:25","新北市新莊區中正路481號","121.441358333333","25.0338083333333","6500500","新莊區"
"242060","986-R7","2019/07/05 17:19:34","新北市新莊區三和路12-20號","121.442266666667","25.0378533333333","6500500","新莊區"
"242002","751-BX","2019/07/05 17:19:29","新北市新莊區瓊林路118號","121.442408333333","25.02573","6500500","新莊區"
"242029","615-BX","2019/07/05 17:19:32","新北市新莊區幸福路604號","121.452013333333","25.0494483333333","6500500","新莊區"
"242027","613-BX","2019/07/05 17:19:31","新北市新莊區中港路281號","121.453286666667","25.0437983333333","6500500","新莊區"
"242058","612-BX","2019/07/05 17:19:37","新北市新莊區三和路12-21號","121.442036666667","25.0385483333333","6500500","新莊區"
"242046","566-BX","2019/07/05 17:19:35","新北市新莊區三和路12-21號","121.442438333333","25.03841","6500500","新莊區"
"242050","497-BY","2019/07/05 17:19:23","新北市新莊區瓊林南路42巷1-1號","121.436011666667","25.0179433333333","6500500","新莊區"
"242056","441-UM","2019/07/05 17:19:42","新北市新莊區新莊路664-2號","121.442391666667","25.0328866666667","6500500","新莊區"
"242005","440-UM","2019/07/05 17:19:23","新北市新莊區新泰路486號","121.442493333333","25.045745","6500500","新莊區"
"242041","415-TV","2019/07/05 17:19:40","新北市新莊區新樹路52-25號","121.437123333333","25.0269683333333","6500500","新莊區"
"242011","413-TV","2019/07/05 17:19:29","新北市新莊區中環路二段392-1號","121.442395","25.045645","6500500","新莊區"
"242048","400-BY","2019/07/05 17:19:26","新北市新莊區中正路481號","121.441458333333","25.033815","6500500","新莊區"
"242025","362-BY","2019/07/05 17:19:34","新北市新莊區中平路82巷29號","121.446271666667","25.0449916666667","6500500","新莊區"
"242023","353-BY","2019/07/05 17:19:35","新北市新莊區新泰路500號","121.44241","25.046095","6500500","新莊區"
"242013","132-UY","2019/07/05 17:19:28","新北市新莊區中環路二段392-1號","121.442498333333","25.0454966666667","6500500","新莊區"
"242037","135-UY","2019/07/05 17:19:37","新北市新莊區新樹路209號","121.43568","25.0235566666667","6500500","新莊區"
"242054","172-VK","2019/07/05 17:19:37","新北市新莊區瓊林路59-70號","121.442158333333","25.0238566666667","6500500","新莊區"
"242015","173-VK","2019/07/05 17:19:28","新北市新莊區三和路12-21號","121.441798333333","25.0387133333333","6500500","新莊區"
"242021","175-VK","2019/07/05 17:19:32","新北市新莊區新泰路496號","121.442585","25.0462783333333","6500500","新莊區"
"242044","176-VK","2019/07/05 17:19:28","新北市新莊區中正路606號","121.42657","25.030245","6500500","新莊區"
"242019","KED-0687","2019/07/05 17:19:23","新北市新莊區和興街1號","121.44758","25.0387733333333","6500500","新莊區"
"242032","346-TH","2019/07/05 17:19:32","新北市新莊區中環路二段392-1號","121.442403333333","25.0455733333333","6500500","新莊區"
"242034","348-TH","2019/07/05 17:19:38","新北市新莊區中正路473-1號","121.441986666667","25.033035","6500500","新莊區"
"242007","349-TH","2019/07/05 17:19:28","新北市新莊區新泰路480號","121.442638333333","25.0454033333333","6500500","新莊區"
"242009","350-TH","2019/07/05 17:19:43","新北市新莊區新泰路502巷2號","121.442471666667","25.0466116666667","6500500","新莊區"
"242017","351-TH","2019/07/05 17:19:39","新北市新莊區新泰路500號","121.442346666667","25.04603","6500500","新莊區"
"238015","755-BX","2019/07/05 17:19:30","新北市樹林區大安路267號","121.419028333333","24.9937566666667","6500700","樹林區"
"238023","601-UM","2019/07/05 17:19:35","新北市樹林區中正路815號","121.409546666667","25.0168466666667","6500700","樹林區"
"238019","599-UM","2019/07/05 17:19:40","新北市樹林區太平路247巷28號","121.420641666667","24.9753716666667","6500700","樹林區"
"238012","571-TV","2019/07/05 17:18:41","新北市樹林區保安街一段100號","121.424015","24.9948316666667","6500700","樹林區"
"238024","5061-A6","2019/07/05 17:19:30","新北市樹林區樹新路79巷19號","121.427191666667","24.995535","6500700","樹林區"
"238018","KEA-2217","2019/07/05 17:19:31","新北市樹林區太平路1-5號","121.418636666667","24.9846866666667","6500700","樹林區"
"238022","KEA-2213","2019/07/05 17:19:39","新北市樹林區忠孝街27號","121.423618333333","24.9822466666667","6500700","樹林區"
"238021","KEA-2539","2019/07/05 17:19:33","新北市樹林區西圳街一段116巷1號","121.399541666667","24.964565","6500700","樹林區"
"238017","283-BY","2019/07/05 17:19:34","新北市樹林區光武街42-1號","121.416693333333","25.006595","6500700","樹林區"
"238014","282-BY","2019/07/05 17:19:31","新北市樹林區長壽街70巷19-1號","121.4219","24.99473","6500700","樹林區"
"238020","268-VK","2019/07/05 17:19:31","新北市樹林區千歲街101號","121.428533333333","25.00087","6500700","樹林區"
"238026","172-UY","2019/07/05 17:19:43","新北市樹林區東順街87號","121.409325","24.9763116666667","6500700","樹林區"
"238016","169-UY","2019/07/05 17:18:46","新北市樹林區中山路一段326號","121.419903333333","24.98615","6500700","樹林區"
"239007","AAC-297","2019/07/05 17:19:35","新北市鶯歌區國慶街115巷17號","121.351081666667","24.9543933333333","6500800","鶯歌區"
"239006","891-R6","2019/07/05 17:19:23","新北市鶯歌區德昌街15號","121.33348","24.9600933333333","6500800","鶯歌區"
"239008","527-UM","2019/07/05 17:19:42","新北市鶯歌區西湖街曾厝巷27號","121.339393333333","24.96146","6500800","鶯歌區"
"239001","417-VK","2019/07/05 17:19:30","新北市鶯歌區黃厝街4號","121.342756666667","24.94616","6500800","鶯歌區"
"239003","360-BY","2019/07/05 17:19:44","新北市鶯歌區德昌街88號","121.33259","24.9601416666667","6500800","鶯歌區"
"239002","359-BY","2019/07/05 17:19:32","新北市鶯歌區國慶街98號","121.350268333333","24.9545033333333","6500800","鶯歌區"
"239004","193-VK","2019/07/05 17:19:35","新北市鶯歌區文化路256巷15弄19號","121.352198333333","24.9471516666667","6500800","鶯歌區"
"233001","KEA-2870","2019/07/05 17:19:28","新北市烏來區溫泉街101號","121.551495","24.853335","6502900","烏來區"
"235061","KEA-2875","2019/07/05 17:19:14","新北市中和區員山路36巷16-2號","121.485353333333","24.99164","6500300","中和區"
