"lineid","car","time","location","longitude","latitude","cityid","cityname"
"234046","148-BY","2019/07/05 18:39:36","新北市永和區永元路66號","121.522585","25.00137","6500400","永和區"
"234081","298-R6","2019/07/05 18:39:34","新北市永和區林森路81號","121.523875","25.0038533333333","6500400","永和區"
"234064","337-UY","2019/07/05 18:39:30","新北市永和區福和路1號","121.526573333333","25.0100316666667","6500400","永和區"
"234070","552-UM","2019/07/05 18:39:39","新北市永和區福和路1號","121.52561","25.009375","6500400","永和區"
"234017","745-BX","2019/07/05 18:39:34","新北市永和區福和路1號","121.526483333333","25.0097316666667","6500400","永和區"
"234030","746-BX","2019/07/05 18:39:28","新北市永和區成功路一段82號","121.526763333333","25.0030083333333","6500400","永和區"
"234054","KEA-2590","2019/07/05 18:39:35","新北市永和區福和路1號","121.525973333333","25.0094616666667","6500400","永和區"
"234007","KED-0605","2019/07/05 18:39:35","新北市永和區文化路164號","121.512143333333","25.0153683333333","6500400","永和區"
"234013","KEA-2591","2019/07/05 18:39:37","新北市永和區保安路13號","121.510398333333","25.0168816666667","6500400","永和區"
"234061","AAD-866","2019/07/05 18:39:41","新北市永和區福和路1號","121.526135","25.00969","6500400","永和區"
"234042","862-TW","2019/07/05 18:39:28","新北市永和區福和路175號","121.519936666667","25.007625","6500400","永和區"
"234026","9371-KE","2019/07/05 18:39:29","新北市永和區永貞路345號","121.509363333333","25.00733","6500400","永和區"
"234011","9373-KE","2019/07/05 18:39:41","新北市永和區文化路9巷22弄6號","121.51504","25.014595","6500400","永和區"
"249005","172-UM","2019/07/05 18:39:38","新北市八里區中華路三段34-2號","121.38868","25.1255033333333","6502300","八里區"
"249001","173-UM","2019/07/05 18:39:40","新北市八里區龍米路一段382號","121.451563333333","25.1317966666667","6502300","八里區"
"249004","303-UY","2019/07/05 18:39:29","新北市八里區中山路一段98號","121.421081666667","25.1593933333333","6502300","八里區"
"249002","759-BX","2019/07/05 18:39:40","新北市八里區龍形二街17號","121.450663333333","25.1315216666667","6502300","八里區"
"248016","026-BX","2019/07/05 18:39:22","新北市五股區凌雲路一段149巷7號","121.44887","25.1016416666667","6501500","五股區"
"248008","KED-0815","2019/07/05 18:39:26","新北市五股區中興路一段140巷8號","121.465101666667","25.0741933333333","6501500","五股區"
"248018","KED-0813","2019/07/05 18:39:29","新北市五股區民義路二段75號","121.409196666667","25.10546","6501500","五股區"
"248012","247-BX","2019/07/05 18:39:26","新北市五股區成泰路三段2巷1-20號","121.441201666667","25.0866566666667","6501500","五股區"
"248014","261-SL","2019/07/05 18:39:26","新北市五股區成泰路一段130-1號","121.435123333333","25.075135","6501500","五股區"
"248010","272-BY","2019/07/05 18:39:39","新北市五股區明德路12巷1號","121.433328333333","25.0717583333333","6501500","五股區"
"248004","677-BX","2019/07/05 18:39:45","新北市五股區民義路一段245-2號","121.429041666667","25.0905033333333","6501500","五股區"
"248002","678-BX","2019/07/05 18:39:42","新北市五股區西雲路207號","121.44861","25.096635","6501500","五股區"
"234023","9380-KE","2019/07/05 18:39:33","新北市永和區福和路76巷5弄6號","121.522643333333","25.0084083333333","6500400","永和區"
"234077","969-R7","2019/07/05 18:39:34","新北市永和區中正路163號","121.516563333333","24.998425","6500400","永和區"
"234067","AAC-212","2019/07/05 18:39:42","新北市永和區福和路18號","121.524215","25.0084683333333","6500400","永和區"
"234003","AAC-295","2019/07/05 18:39:37","新北市永和區福和路1號","121.525913333333","25.0093","6500400","永和區"
"232011","375-UM","2019/07/05 18:39:35","新北市坪林區坪雙路一段41號","121.711693333333","24.9424683333333","6502000","坪林區"
"244007","080-UY","2019/07/05 18:39:37","新北市林口區後湖14鄰49號","121.386118333333","25.0999066666667","6501700","林口區"
"244019","402-UM","2019/07/05 18:39:26","新北市林口區麗園二街39巷18號","121.381286666667","25.06988","6501700","林口區"
"244013","KEA-2802","2019/07/05 18:39:36","新北市林口區麗園一街6巷7-2號","121.375311666667","25.070755","6501700","林口區"
"244023","483-VK","2019/07/05 18:39:29","新北市林口區四維路245巷49號","121.382666666667","25.0754533333333","6501700","林口區"
"244017","485-VK","2019/07/05 18:39:37","新北市林口區文化二路一段68巷18-2號","121.366116666667","25.0677516666667","6501700","林口區"
"244009","656-BX","2019/07/05 18:39:41","新北市林口區竹林路326巷11號","121.391863333333","25.0824183333333","6501700","林口區"
"244011","701-TV","2019/07/05 18:39:32","新北市林口區新寮1-84號","121.392773333333","25.076815","6501700","林口區"
"244025","837-TS","2019/07/05 18:39:41","新北市林口區南勢六街238號","121.355746666667","25.0742983333333","6501700","林口區"
"244021","838-TS","2019/07/05 18:39:27","新北市林口區粉寮路一段66號","121.397138333333","25.0786416666667","6501700","林口區"
"243010","297-R6","2019/07/05 18:39:32","新北市泰山區黎明路25號","121.421941666667","25.06091","6501600","泰山區"
"243014","KEA-2801","2019/07/05 18:39:41","新北市泰山區犁頭窠3-1號","121.421995","25.0604983333333","6501600","泰山區"
"243016","421-VK","2019/07/05 18:39:32","新北市泰山區黎明路3號","121.421016666667","25.0634183333333","6501600","泰山區"
"243011","KEA-2216","2019/07/05 18:39:30","新北市泰山區黎明路26號","121.42154","25.0606066666667","6501600","泰山區"
"222002","016-RS","2019/07/05 18:39:27","新北市深坑區文山路一段62巷3號","121.622858333333","25.000895","6501800","深坑區"
"222003","436-BY","2019/07/05 18:39:32","新北市深坑區翠谷街27號","121.626823333333","25.0088783333333","6501800","深坑區"
"231061","002-UM","2019/07/05 18:39:44","新北市新店區安華路28-1號","121.519735","24.9608616666667","6500600","新店區"
"231058","0293-UT","2019/07/05 18:39:31","新北市新店區新店後街65號","121.537475","24.9550016666667","6500600","新店區"
"231044","046-UY","2019/07/05 18:39:38","新北市新店區安華路28-1號","121.519665","24.9607933333333","6500600","新店區"
"231060","106-UY","2019/07/05 18:39:29","新北市新店區安華路28-1號","121.519773333333","24.9607566666667","6500600","新店區"
"231051","107-UY","2019/07/05 18:39:27","新北市新店區安一路一段1-1號","121.519615","24.9611716666667","6500600","新店區"
"231049","108-UY","2019/07/05 18:39:39","新北市新店區安一路一段1-1號","121.519828333333","24.9611666666667","6500600","新店區"
"221035","KEA-2785","2019/07/05 18:39:35","新北市汐止區大同路二段185號","121.652186666667","25.06439","6501100","汐止區"
"231054","260-TV","2019/07/05 18:39:35","新北市新店區安一路一段1-1號","121.519231666667","24.961215","6500600","新店區"
"231042","268-BY","2019/07/05 18:39:24","新北市新店區中正路71號","121.543443333333","24.9697266666667","6500600","新店區"
"231064","278-BY","2019/07/05 18:39:43","新北市新店區安一路一段1-1號","121.519463333333","24.9610783333333","6500600","新店區"
"231050","AAD-862","2019/07/05 18:39:28","新北市新店區安華路28-1號","121.520005","24.9610316666667","6500600","新店區"
"231045","355-BY","2019/07/05 18:39:27","新北市新店區安一路一段1-1號","121.51917","24.96098","6500600","新店區"
"231055","4716-K9","2019/07/05 18:39:30","新北市新店區華興街40號","121.536976666667","24.969175","6500600","新店區"
"231056","4715-K9","2019/07/05 18:39:42","新北市新店區大豐路68巷7號","121.538801666667","24.9800116666667","6500600","新店區"
"231053","513-UM","2019/07/05 18:39:29","新北市新店區新烏路一段73號","121.546345","24.9426366666667","6500600","新店區"
"231040","617-UM","2019/07/05 18:39:27","新北市新店區安華路28-1號","121.519436666667","24.9609783333333","6500600","新店區"
"231041","619-UM","2019/07/05 18:39:27","新北市新店區安華路28-1號","121.519721666667","24.96083","6500600","新店區"
"231063","641-BX","2019/07/05 18:39:32","新北市新店區安華路28-1號","121.519628333333","24.960555","6500600","新店區"
"231048","KED-0819","2019/07/05 18:39:36","新北市新店區安一路一段1-1號","121.519768333333","24.9611583333333","6500600","新店區"
"231062","718-UY","2019/07/05 18:39:35","新北市新店區安一路一段1-1號","121.519588333333","24.9612","6500600","新店區"
"231046","719-UM","2019/07/05 18:39:41","新北市新店區直潭二街1號","121.535423333333","24.9431483333333","6500600","新店區"
"231057","720-UM","2019/07/05 18:39:44","新北市新店區北新路一段43號","121.538023333333","24.959465","6500600","新店區"
"231059","897-TW","2019/07/05 18:39:41","新北市新店區安華路28-1號","121.519778333333","24.96075","6500600","新店區"
"231043","899-TW","2019/07/05 18:39:31","新北市新店區安華路28-1號","121.519236666667","24.9608183333333","6500600","新店區"
"231066","AKT-0513","2019/07/05 18:39:28","新北市新店區安華路28-1號","121.5196","24.960575","6500600","新店區"
"235066","003-UY","2019/07/05 18:39:41","新北市中和區水源路36巷1弄3號","121.50539","25.0035233333333","6500300","中和區"
"235064","005-UY","2019/07/05 18:39:37","新北市中和區連城路75巷3弄2號","121.497948333333","24.999295","6500300","中和區"
"235063","006-UY","2019/07/05 18:39:40","新北市中和區連城路389巷10弄4號","121.486255","24.9956733333333","6500300","中和區"
"235056","096-UM","2019/07/05 18:39:38","新北市中和區員山路611巷5弄1號","121.477915","25.011105","6500300","中和區"
"235039","097-UM","2019/07/05 18:39:38","新北市中和區宜安路2號","121.513676666667","24.9955316666667","6500300","中和區"
"235065","098-UM","2019/07/05 18:39:36","新北市中和區中山路二段2巷83號","121.500946666667","25.007455","6500300","中和區"
"235040","150-BY","2019/07/05 18:39:26","新北市中和區安平路59號","121.509581666667","24.9951333333333","6500300","中和區"
"235058","151-BY","2019/07/05 18:39:34","新北市中和區員山路141號","121.480988333333","24.99613","6500300","中和區"
"235055","183-VK","2019/07/05 18:39:30","新北市板橋區民族路276巷1弄23號","121.470475","25.0063733333333","6500300","中和區"
"235038","185-VK","2019/07/05 18:39:39","新北市中和區立人街14巷33號","121.519466666667","24.9954066666667","6500300","中和區"
"235031","255-BX","2019/07/05 18:39:26","新北市中和區新生街34號","121.483193333333","25.00375","6500300","中和區"
"235044","293-VK","2019/07/05 18:39:27","新北市中和區復興路265號","121.502806666667","24.9903166666667","6500300","中和區"
"235072","301-VK","2019/07/05 18:39:44","新北市中和區中山路二段92號","121.50344","25.0042233333333","6500300","中和區"
"235043","352-BY","2019/07/05 18:39:39","新北市中和區景平路71-6號","121.518348333333","24.9916516666667","6500300","中和區"
"235042","KEA-2878","2019/07/05 18:39:29","新北市中和區秀朗路三段150巷10號","121.523801666667","24.9910566666667","6500300","中和區"
"235050","4979-A6","2019/07/05 18:39:39","新北市中和區景新街496巷28弄12號","121.51302","24.9858916666667","6500300","中和區"
"235069","4980-A6","2019/07/05 18:39:32","新北市中和區連城路96號","121.49657","25.0000466666667","6500300","中和區"
"235070","558-UM","2019/07/05 18:39:29","新北市中和區南山路24號","121.502036666667","24.998185","6500300","中和區"
"235045","565-BX","2019/07/05 18:39:22","新北市中和區南山路214號","121.506153333333","24.9902833333333","6500300","中和區"
"235060","KED-0823","2019/07/05 18:39:32","新北市中和區中山路二段562號","121.483156666667","25.0051633333333","6500300","中和區"
"235054","640-BX","2019/07/05 18:39:27","新北市中和區莒光路129巷1弄10號","121.473055","25.0023183333333","6500300","中和區"
"235047","732-UM","2019/07/05 18:39:44","新北市中和區南山路320巷10弄21號","121.506825","24.9867316666667","6500300","中和區"
"235046","733-UM","2019/07/05 18:39:44","新北市中和區忠孝街126-1號","121.512133333333","24.9861883333333","6500300","中和區"
"235062","800-TS","2019/07/05 18:39:33","新北市中和區中山路二段312巷12號","121.49534","25.00368","6500300","中和區"
"235057","801-TS","2019/07/05 18:39:29","新北市中和區民安街23號","121.480378333333","25.0004916666667","6500300","中和區"
"235041","802-TS","2019/07/05 18:39:35","新北市中和區中安街178巷13弄5號","121.510398333333","24.998615","6500300","中和區"
"235052","805-TS","2019/07/05 18:39:32","新北市中和區興南路三段70號","121.492378333333","24.97452","6500300","中和區"
"235048","896-TW","2019/07/05 18:39:35","新北市中和區南山路309號","121.504906666667","24.9915583333333","6500300","中和區"
"235053","900-TW","2019/07/05 18:39:36","新北市中和區華福街71巷32號","121.467718333333","24.99705","6500300","中和區"
"235051","157-BY","2019/07/05 18:39:40","新北市中和區工專路165-1號","121.508808333333","24.97905","6500300","中和區"
"235037","AAC-213","2019/07/05 18:39:36","新北市中和區秀朗路三段128巷7弄2號","121.52454","24.993025","6500300","中和區"
"235059","AAC-215","2019/07/05 18:39:33","新北市中和區建八路130巷6號","121.488193333333","24.9975666666667","6500300","中和區"
"220065","072-UY","2019/07/05 18:39:33","新北市板橋區實踐路60號","121.463905","25.00603","6500100","板橋區"
"220086","073-UY","2019/07/05 18:39:40","新北市板橋區華東街1-10號","121.448258333333","24.9950583333333","6500100","板橋區"
"220098","120-SR","2019/07/05 18:39:37","新北市板橋區民生路二段120號","121.470518333333","25.0195066666667","6500100","板橋區"
"226004","312-R5","2019/07/05 18:39:32","新北市平溪區石底里公園街18-3號","121.733273333333","25.0258","6502400","平溪區"
"228002","663-BX","2019/07/05 18:39:41","新北市貢寮區福隆里東興街6-11號","121.95079","25.021085","6502600","貢寮區"
"228001","670-TC","2019/07/05 18:39:39","新北市貢寮區仁理村保健街73號","121.923726666667","25.0517016666667","6502600","貢寮區"
"228003","828-UM","2019/07/05 18:39:36","新北市貢寮區和美里龍洞街40號","121.915013333333","25.111755","6502600","貢寮區"
"224010","AGQ-8101","2019/07/05 18:39:30","新北市瑞芳區基山街4-1號","121.845156666667","25.10971","6501200","瑞芳區"
"224006","676-BX","2019/07/05 18:39:42","新北市瑞芳區一坑路48號","121.803668333333","25.10899","6501200","瑞芳區"
"224007","285-BY","2019/07/05 18:39:24","新北市瑞芳區大埔路117號","121.763648333333","25.1010433333333","6501200","瑞芳區"
"224009","275-VK","2019/07/05 18:39:41","新北市瑞芳區祈堂路53-1號","121.859645","25.1105033333333","6501200","瑞芳區"
"224008","273-VK","2019/07/05 18:39:28","新北市瑞芳區岳王路37號","121.80795","25.1113366666667","6501200","瑞芳區"
"224005","271-BY","2019/07/05 18:39:29","新北市瑞芳區建基路一段44-6號","121.818901666667","25.121765","6501200","瑞芳區"
"227001","642-TC","2019/07/05 18:39:29","新北市雙溪區牡丹里牡丹136號","121.850588333333","25.0592866666667","6502500","雙溪區"
"227002","400-TW","2019/07/05 18:39:22","新北市雙溪區魚行里坤溪3-4號","121.876336666667","25.0207833333333","6502500","雙溪區"
"253006","032-BX","2019/07/05 18:39:43","新北市石門區崁子腳1-1號","121.531873333333","25.2880216666667","6502200","石門區"
"253005","741-TV","2019/07/05 18:39:34","新北市石門區中山路60號","121.566785","25.290485","6502200","石門區"
"222001","KEA-2212","2019/07/05 18:39:31","新北市深坑區北深路一段82號","121.636376666667","25.0108416666667","6501800","深坑區"
"208002","KEA-2872","2019/07/05 18:39:40","新北市金山區忠孝一路21-1號","121.638656666667","25.219205","6502700","金山區"
"208003","665-BX","2019/07/05 18:39:33","新北市金山區中山路397號","121.633218333333","25.2253383333333","6502700","金山區"
"251004","009-UM","2019/07/05 18:39:31","新北市淡水區大同路4號","121.4618","25.1407833333333","6501000","淡水區"
"251008","181-VK","2019/07/05 18:39:36","新北市淡水區北投子62號","121.456466666667","25.17996","6501000","淡水區"
"251010","413-VK","2019/07/05 18:39:37","新北市淡水區沙崙路126號","121.423395","25.1828683333333","6501000","淡水區"
"251012","441-VK","2019/07/05 18:39:39","新北市淡水區北新路121號","121.449011666667","25.1786016666667","6501000","淡水區"
"251001","559-UM","2019/07/05 18:39:37","新北市淡水區自強路166號","121.46555","25.1341616666667","6501000","淡水區"
"251006","561-UM","2019/07/05 18:39:39","新北市淡水區崁頂36-2號","121.439425","25.1938283333333","6501000","淡水區"
"251009","575-R6","2019/07/05 18:39:33","新北市淡水區崁頂59-2號","121.441475","25.1986233333333","6501000","淡水區"
"251011","650-BX","2019/07/05 18:39:38","新北市淡水區中正東路71-4號","121.447338333333","25.167505","6501000","淡水區"
"251002","672-BX","2019/07/05 18:39:26","新北市淡水區中正東路一段3巷14弄1號","121.450915","25.16419","6501000","淡水區"
"251003","766-UM","2019/07/05 18:39:39","新北市淡水區北新路69巷26號","121.44658","25.1800883333333","6501000","淡水區"
"207003","550-UM","2019/07/05 18:39:34","新北市萬里區大鵬里頂社2-1號","121.660318333333","25.207185","6502800","萬里區"
"207004","225-TW","2019/07/05 18:39:31","新北市萬里區萬里里獅頭路10-1號","121.692035","25.1785733333333","6502800","萬里區"
"252002","178-VK","2019/07/05 18:39:42","新北市三芝區民生街40號","121.503696666667","25.2560033333333","6502100","三芝區"
"252003","249-BX","2019/07/05 18:39:24","新北市三芝區後厝里大片頭76號","121.459128333333","25.2460483333333","6502100","三芝區"
"252001","292-VK","2019/07/05 18:39:40","新北市三芝區中正路三段29號","121.502158333333","25.252725","6502100","三芝區"
"208001","170-UY","2019/07/05 18:39:42","新北市金山區文化三路46號","121.635031666667","25.2249666666667","6502700","金山區"
"237004","KEA-2597","2019/07/05 18:39:27","新北市三峽區插角24號","121.402381666667","24.8729833333333","6500900","三峽區"
"237009","210-TH","2019/07/05 18:39:38","新北市三峽區弘園街83號","121.365796666667","24.92657","6500900","三峽區"
"237013","252-BX","2019/07/05 18:39:39","新北市三峽區光明路69巷24號","121.376673333333","24.9291133333333","6500900","三峽區"
"237012","275-BY","2019/07/05 18:39:23","新北市三峽區三樹路340號","121.383931666667","24.9433183333333","6500900","三峽區"
"237008","302-VK","2019/07/05 18:39:43","新北市三峽區白雞33-61號","121.370998333333","24.9131183333333","6500900","三峽區"
"237014","433-BY","2019/07/05 18:39:24","新北市三峽區復興路480巷52-1號","121.361865","24.941075","6500900","三峽區"
"237008","280-TH","2019/07/05 18:39:28","新北市三峽區柑樹路6巷21號","121.36189","24.9042983333333","6500900","三峽區"
"237006","5529-G3","2019/07/05 18:39:29","新北市三峽區溪東路211巷45號","121.405853333333","24.9342016666667","6500900","三峽區"
"237011","KEA-2596","2019/07/05 18:39:39","新北市三峽區溪東路436號","121.415601666667","24.92763","6500900","三峽區"
"237015","649-BX","2019/07/05 18:39:27","新北市三峽區成福路319-1號","121.430111666667","24.92376","6500900","三峽區"
"237010","706-TV","2019/07/05 18:39:37","新北市三峽區復興路485號","121.36133","24.938405","6500900","三峽區"
"237005","AKY-6261","2019/07/05 18:39:27","新北市三峽區新興街13號","121.372701666667","24.9356833333333","6500900","三峽區"
"236042","KED-0685","2019/07/05 18:39:27","新北市土城區學成路124號","121.44935","24.9894216666667","6501300","土城區"
"236030","253-BX","2019/07/05 18:39:33","新北市土城區慶利街35號","121.438886666667","24.9744383333333","6501300","土城區"
"236026","269-VK","2019/07/05 18:39:26","新北市土城區千歲路3巷6弄26號","121.442111666667","24.970295","6501300","土城區"
"236014","270-VK","2019/07/05 18:39:05","新北市土城區清水路207巷25號","121.459716666667","24.9826433333333","6501300","土城區"
"236039","271-VK","2019/07/05 18:39:23","新北市土城區明德路一段247巷21號","121.463128333333","24.9774066666667","6501300","土城區"
"236069","KEA-2877","2019/07/05 18:39:35","新北市土城區永豐路157巷4號","121.468251666667","24.9814983333333","6501300","土城區"
"236020","401-BY","2019/07/05 18:39:39","新北市土城區延吉街253巷1號","121.467581666667","24.9847416666667","6501300","土城區"
"236059","912-UM","2019/07/05 18:39:33","新北市土城區中央路三段197號","121.430143333333","24.9646116666667","6501300","土城區"
"236048","913-UM","2019/07/05 18:39:42","新北市土城區金城路二段348號","121.460475","24.9848833333333","6501300","土城區"
"236063","915-UM","2019/07/05 18:39:45","新北市土城區延壽路21號","121.471206666667","24.99075","6501300","土城區"
"236055","AAC-216","2019/07/05 18:39:23","新北市土城區裕民路36號","121.448033333333","24.9884066666667","6501300","土城區"
"242060","986-R7","2019/07/05 18:39:37","新北市新莊區民安路188巷6號","121.425066666667","25.0234433333333","6500500","新莊區"
"242058","612-BX","2019/07/05 18:39:37","新北市新莊區壽山路700-17號","121.418266666667","25.0274283333333","6500500","新莊區"
"242025","362-BY","2019/07/05 18:39:34","新北市新莊區新北大道四段209號","121.444751666667","25.056455","6500500","新莊區"
"242054","172-VK","2019/07/05 18:39:37","新北市樹林區樹新路120巷13號","121.430525","24.99695","6500500","新莊區"
"242044","176-VK","2019/07/05 18:39:27","新北市新莊區龍安路97號","121.416403333333","25.0222466666667","6500500","新莊區"
"242007","349-TH","2019/07/05 18:39:27","新北市新莊區瓊林路21-7號","121.446745","25.0281633333333","6500500","新莊區"
"238023","601-UM","2019/07/05 18:39:34","新北市樹林區三福街114號","121.406478333333","25.01643","6500700","樹林區"
"238019","599-UM","2019/07/05 18:39:40","新北市樹林區中華路190-16號","121.411743333333","24.9805733333333","6500700","樹林區"
"238024","5061-A6","2019/07/05 18:39:30","新北市樹林區中華路190-6號","121.410781666667","24.98053","6500700","樹林區"
"238018","KEA-2217","2019/07/05 18:39:31","新北市樹林區鎮前街111號","121.424416666667","24.989865","6500700","樹林區"
"238017","283-BY","2019/07/05 18:39:34","新北市樹林區光興街50號","121.409843333333","25.0027383333333","6500700","樹林區"
"238014","282-BY","2019/07/05 18:39:31","新北市樹林區大安路111巷25號","121.423195","24.99752","6500700","樹林區"
"238020","268-VK","2019/07/05 18:39:38","新北市樹林區三俊街125號","121.417821666667","25.015725","6500700","樹林區"
"238026","172-UY","2019/07/05 18:39:43","新北市樹林區育德街78-1號","121.388058333333","24.9680816666667","6500700","樹林區"
"238016","169-UY","2019/07/05 18:39:26","新北市樹林區八德街1號","121.417641666667","24.98487","6500700","樹林區"
"239007","AAC-297","2019/07/05 18:39:35","新北市鶯歌區中正一路建德巷2號","121.364651666667","24.9567083333333","6500800","鶯歌區"
"239006","891-R6","2019/07/05 18:39:43","新北市鶯歌區鶯桃路296巷57號","121.335956666667","24.9612916666667","6500800","鶯歌區"
"239008","527-UM","2019/07/05 18:39:41","新北市鶯歌區朝陽街2號","121.33624","24.9765716666667","6500800","鶯歌區"
"239005","526-UM","2019/07/05 18:39:38","新北市鶯歌區鳳吉二街9號","121.325538333333","24.97299","6500800","鶯歌區"
"239001","417-VK","2019/07/05 18:39:30","新北市鶯歌區中正三路191號","121.3358","24.9393266666667","6500800","鶯歌區"
"239003","360-BY","2019/07/05 18:39:24","新北市鶯歌區永和街161號","121.335085","24.96966","6500800","鶯歌區"
"239002","359-BY","2019/07/05 18:39:32","新北市鶯歌區中正一路153號","121.352526666667","24.9563333333333","6500800","鶯歌區"
"239004","193-VK","2019/07/05 18:39:35","新北市鶯歌區中正三路269號","121.332828333333","24.9381183333333","6500800","鶯歌區"
"221036","130-UY","2019/07/05 18:39:37","新北市汐止區長興街一段19號","121.669565","25.0788666666667","6501100","汐止區"
"221015","131-UY","2019/07/05 18:39:26","新北市汐止區鄉友街52號","121.669253333333","25.0818216666667","6501100","汐止區"
"221010","269-BY","2019/07/05 18:39:43","新北市汐止區瑞松街49巷6號","121.645303333333","25.1069033333333","6501100","汐止區"
"221021","277-VK","2019/07/05 18:39:26","新北市汐止區大同路一段98-1號","121.62946","25.0541516666667","6501100","汐止區"
"221012","278-VK","2019/07/05 18:39:29","新北市汐止區保長路51巷14號","121.67381","25.0788583333333","6501100","汐止區"
"221023","279-VK","2019/07/05 18:39:36","新北市汐止區民族二街95號","121.633016666667","25.0697133333333","6501100","汐止區"
"221032","280-BY","2019/07/05 18:39:25","新北市汐止區民權街二段79號","121.61915","25.047995","6501100","汐止區"
"221029","298-VK","2019/07/05 18:39:27","新北市汐止區樟樹一路131號","121.642206666667","25.06503","6501100","汐止區"
"221021","299-VK","2019/07/05 18:39:25","新北市汐止區復興路53巷2號","121.656906666667","25.0626116666667","6501100","汐止區"
"221031","353-TW","2019/07/05 18:39:34","新北市汐止區大同路一段276-2號","121.634871666667","25.05657","6501100","汐止區"
"221025","623-UM","2019/07/05 18:39:24","新北市汐止區仁愛路121巷9號","121.662616666667","25.0641766666667","6501100","汐止區"
"221002","707-TV","2019/07/05 18:39:35","新北市汐止區中興路6號","121.637368333333","25.05911","6501100","汐止區"
"221018","753-BX","2019/07/05 18:39:28","新北市汐止區茄苳路224巷3弄23號","121.671255","25.0680616666667","6501100","汐止區"
"220080","200-UY","2019/07/05 18:39:36","新北市板橋區華東街1-8號","121.447773333333","24.9948","6500100","板橋區"
"220082","610-BX","2019/07/05 18:39:32","新北市板橋區大觀路二段265巷7-7號","121.444121666667","24.9945466666667","6500100","板橋區"
"224002","257-TC","2019/07/05 18:39:36","新北市瑞芳區東和路9號","121.80466","25.1061333333333","6501200","瑞芳區"
"220056","276-BY","2019/07/05 18:39:32","新北市板橋區南雅南路二段18號","121.454555","25.0033683333333","6500100","板橋區"
"220094","283-UM","2019/07/05 18:39:25","新北市板橋區民生路二段161巷1號","121.469775","25.0198733333333","6500100","板橋區"
"220071","283-VK","2019/07/05 18:39:26","新北市板橋區四川路二段99-11號","121.452055","24.99458","6500100","板橋區"
"220083","286-VK","2019/07/05 18:39:24","新北市板橋區華東街1-10號","121.448366666667","24.995115","6500100","板橋區"
"220081","287-VK","2019/07/05 18:39:24","新北市板橋區板城路421號","121.44797","24.99639","6500100","板橋區"
"220090","288-VK","2019/07/05 18:39:39","新北市板橋區民生路二段161巷3號","121.470256666667","25.019825","6500100","板橋區"
"220084","296-UM","2019/07/05 18:39:24","新北市板橋區大觀路二段179巷34號","121.44629","24.9994716666667","6500100","板橋區"
"220092","307-R5","2019/07/05 18:39:26","新北市板橋區介壽街119號","121.470558333333","25.0187516666667","6500100","板橋區"
"220035","560-BX","2019/07/05 18:39:26","新北市板橋區南雅西路二段145巷10號","121.45156","25.0119166666667","6500100","板橋區"
"220103","561-BX","2019/07/05 18:39:33","新北市板橋區民生路二段89-4號","121.470991666667","25.0182333333333","6500100","板橋區"
"220057","686-BX","2019/07/05 18:39:29","新北市板橋區館前西路4-1號","121.459103333333","25.0071016666667","6500100","板橋區"
"220093","689-BX","2019/07/05 18:39:36","新北市板橋區民生路二段161巷1號","121.470123333333","25.019885","6500100","板橋區"
"220054","741-BX","2019/07/05 18:39:31","新北市板橋區華東街1-9號","121.448118333333","24.9949016666667","6500100","板橋區"
"220102","KEA-2699","2019/07/05 18:39:37","新北市板橋區縣民大道三段260號","121.477968333333","25.02316","6500100","板橋區"
"220055","827-TW","2019/07/05 18:39:35","新北市板橋區四川路一段262號","121.459046666667","25.001215","6500100","板橋區"
"220067","829-TW","2019/07/05 18:39:41","新北市板橋區民生路二段121號","121.470768333333","25.0185166666667","6500100","板橋區"
"220074","895-R6","2019/07/05 18:39:22","新北市板橋區南雅南路二段138號","121.452035","24.9963866666667","6500100","板橋區"
"220073","985-R7","2019/07/05 18:39:45","新北市板橋區四川路二段23-3號","121.454543333333","24.9957316666667","6500100","板橋區"
"220064","AAC-253","2019/07/05 18:39:39","新北市板橋區縣民大道二段82號","121.465116666667","25.014165","6500100","板橋區"
"235068","KEA-2873","2019/07/05 18:39:26","新北市中和區中正路211巷13弄5號","121.49708","24.9931283333333","6500300","中和區"
"235061","KEA-2875","2019/07/05 18:39:31","新北市中和區民享街56號","121.473878333333","25.0024333333333","6500300","中和區"
"235049","KEA-2876","2019/07/05 18:39:34","新北市中和區景安路76號","121.505721666667","24.9965266666667","6500300","中和區"
