"lineid","car","time","location","longitude","latitude","cityid","cityname"
"234046","148-BY","2019/07/05 19:39:27","新北市永和區秀朗路二段68號","121.522653333333","25.0016416666667","6500400","永和區"
"234081","298-R6","2019/07/05 19:39:36","新北市永和區國中路104巷8弄6號","121.52487","25.0067283333333","6500400","永和區"
"234038","336-UY","2019/07/05 19:39:28","新北市永和區民樂街20號","121.527586666667","25.0019933333333","6500400","永和區"
"234064","337-UY","2019/07/05 19:39:30","新北市永和區秀朗路一段192巷6弄14號","121.519073333333","25.00229","6500400","永和區"
"234086","338-UY","2019/07/05 19:39:34","新北市永和區成功路一段48巷12號","121.526318333333","25.0042466666667","6500400","永和區"
"234070","552-UM","2019/07/05 19:39:39","新北市永和區永和路二段237-2號","121.515663333333","25.0145","6500400","永和區"
"234017","745-BX","2019/07/05 19:39:34","新北市永和區永和路二段425巷70號","121.513563333333","25.0171783333333","6500400","永和區"
"234030","746-BX","2019/07/05 19:39:28","新北市永和區民生路37巷14號","121.52348","24.9980116666667","6500400","永和區"
"234054","KEA-2590","2019/07/05 19:39:35","新北市永和區竹林路39巷3號","121.518101666667","25.014365","6500400","永和區"
"234007","KED-0605","2019/07/05 19:39:35","新北市永和區中和路473號","121.510236666667","25.0018416666667","6500400","永和區"
"234013","KEA-2591","2019/07/05 19:39:37","新北市永和區永平路246號","121.508693333333","25.011065","6500400","永和區"
"234061","AAD-866","2019/07/05 19:39:41","新北市永和區中正路383號","121.517365","25.0038816666667","6500400","永和區"
"234042","862-TW","2019/07/05 19:39:28","新北市中和區中和路260-1號","121.508005","24.9996116666667","6500400","永和區"
"234050","863-TW","2019/07/05 19:39:26","新北市永和區保安路2號","121.510925","25.0175133333333","6500400","永和區"
"234026","9371-KE","2019/07/05 19:39:29","新北市永和區中和路501巷2號","121.51051","25.0025716666667","6500400","永和區"
"234011","9373-KE","2019/07/05 19:39:29","新北市永和區仁愛路310號","121.503066666667","25.0075633333333","6500400","永和區"
"249003","593-UM","2019/07/05 19:39:37","新北市八里區華峰三街33巷4號","121.399423333333","25.14575","6502300","八里區"
"249002","759-BX","2019/07/05 19:39:20","新北市八里區頂寮二街83號","121.450066666667","25.1255483333333","6502300","八里區"
"248016","026-BX","2019/07/05 19:39:42","新北市五股區凌雲路一段41號","121.451828333333","25.1007133333333","6501500","五股區"
"248008","KED-0815","2019/07/05 19:39:26","新北市五股區中興路一段84號","121.466638333333","25.0731533333333","6501500","五股區"
"248018","KED-0813","2019/07/05 19:39:29","新北市五股區外寮路1-1號","121.425875","25.0768516666667","6501500","五股區"
"248012","247-BX","2019/07/05 19:39:26","新北市五股區蓬萊路6巷43號","121.435846666667","25.0803616666667","6501500","五股區"
"248014","261-SL","2019/07/05 19:39:26","新北市五股區五福路42巷27號","121.43493","25.0900533333333","6501500","五股區"
"248010","272-BY","2019/07/05 19:39:39","新北市五股區自強路166號","121.431853333333","25.06991","6501500","五股區"
"248004","677-BX","2019/07/05 19:39:45","新北市五股區成泰路二段9號","121.437051666667","25.08138","6501500","五股區"
"248002","678-BX","2019/07/05 19:39:37","新北市五股區成泰路三段577巷81號","121.44966","25.103725","6501500","五股區"
"234023","9380-KE","2019/07/05 19:39:33","新北市永和區保生路55-1號","121.504778333333","25.0110433333333","6500400","永和區"
"234077","969-R7","2019/07/05 19:39:34","新北市永和區民族街67巷18號","121.519503333333","24.9970783333333","6500400","永和區"
"234074","AAC-211","2019/07/05 19:39:42","新北市永和區福和路76巷1號","121.522981666667","25.0083716666667","6500400","永和區"
"234067","AAC-212","2019/07/05 19:39:42","新北市永和區中山路一段192號","121.508866666667","25.0088216666667","6500400","永和區"
"234003","AAC-295","2019/07/05 19:39:37","新北市永和區自由街53號","121.513735","25.0056583333333","6500400","永和區"
"244023","483-VK","2019/07/05 19:39:29","新北市林口區民有街30號","121.372055","25.0766516666667","6501700","林口區"
"243012","AAD-798","2019/07/05 19:39:39","新北市泰山區全興路199-1號","121.434808333333","25.055025","6501600","泰山區"
"243010","297-R6","2019/07/05 19:39:32","新北市泰山區民生路30號","121.431061666667","25.0520016666667","6501600","泰山區"
"243016","421-VK","2019/07/05 19:39:43","新北市新莊區新北大道七段36號","121.419645","25.0322666666667","6501600","泰山區"
"243009","KEA-2215","2019/07/05 19:39:31","新北市泰山區美寧街60號","121.430916666667","25.0646483333333","6501600","泰山區"
"243011","KEA-2216","2019/07/05 19:39:30","新北市泰山區中山路二段661號","121.4298","25.0398333333333","6501600","泰山區"
"243015","680-BX","2019/07/05 19:39:32","新北市泰山區民權街70號","121.428478333333","25.0497433333333","6501600","泰山區"
"222002","016-RS","2019/07/05 19:39:27","新北市深坑區北深路一段210號","121.632585","25.0109916666667","6501800","深坑區"
"222003","436-BY","2019/07/05 19:30:20","新北市深坑區深南路51-1號","121.621225","25.0098166666667","6501800","深坑區"
"231061","002-UM","2019/07/05 19:39:23","新北市新店區碧安街9巷13號","121.516463333333","24.9682183333333","6500600","新店區"
"231058","0293-UT","2019/07/05 19:39:40","新北市新店區德正街26號","121.543813333333","24.971915","6500600","新店區"
"231044","046-UY","2019/07/05 19:39:38","新北市新店區北新路三段109號","121.541356666667","24.982205","6500600","新店區"
"231060","106-UY","2019/07/05 19:39:29","新北市新店區安康路二段163號","121.510071666667","24.959265","6500600","新店區"
"231051","107-UY","2019/07/05 19:39:27","新北市新店區中央四街11號","121.529553333333","24.973895","6500600","新店區"
"231049","108-UY","2019/07/05 19:39:39","新北市新店區大豐路67號","121.539415","24.9795366666667","6500600","新店區"
"231065","110-UY","2019/07/05 19:39:34","新北市新店區安祥路109巷85弄3號","121.477918333333","24.960385","6500600","新店區"
"231054","260-TV","2019/07/05 19:39:36","新北市新店區文中路40號","121.539673333333","24.956615","6500600","新店區"
"231042","268-BY","2019/07/05 19:39:44","新北市新店區中興路一段202號","121.543716666667","24.9653733333333","6500600","新店區"
"231064","278-BY","2019/07/05 19:39:22","新北市新店區安和路一段52巷2-1號","121.5177","24.966265","6500600","新店區"
"231050","AAD-862","2019/07/05 19:39:28","新北市新店區秀水路2號","121.555038333333","24.9538966666667","6500600","新店區"
"231045","355-BY","2019/07/05 19:39:27","新北市新店區北宜路二段207號","121.553111666667","24.953285","6500600","新店區"
"231056","4715-K9","2019/07/05 19:39:22","新北市新店區中正路487號","121.533835","24.9820583333333","6500600","新店區"
"231067","4772-VM","2019/07/05 19:39:36","新北市新店區安康路一段351-1號","121.519785","24.9639133333333","6500600","新店區"
"231053","513-UM","2019/07/05 19:39:29","新北市新店區新烏路二段356號","121.550815","24.909975","6500600","新店區"
"231040","617-UM","2019/07/05 19:39:36","新北市新店區北新路一段96巷23號","121.542695","24.9686533333333","6500600","新店區"
"231041","619-UM","2019/07/05 19:39:27","新北市新店區中正路500號","121.533985","24.9822116666667","6500600","新店區"
"231063","641-BX","2019/07/05 19:39:32","新北市新店區達觀路38號","121.502565","24.93971","6500600","新店區"
"231048","KED-0819","2019/07/05 19:39:40","新北市新店區五峰路63巷8弄42號","121.547791666667","24.9686833333333","6500600","新店區"
"231062","718-UY","2019/07/05 19:39:38","新北市新店區碧潭路60號","121.534513333333","24.9569116666667","6500600","新店區"
"231046","719-UM","2019/07/05 19:39:01","新北市新店區中正路314號","121.537183333333","24.9746816666667","6500600","新店區"
"231057","720-UM","2019/07/05 19:39:44","新北市新店區橘園一路11號","121.547986666667","24.9340116666667","6500600","新店區"
"231059","897-TW","2019/07/05 19:39:41","新北市新店區安和路三段47-1號","121.518048333333","24.9823583333333","6500600","新店區"
"231043","899-TW","2019/07/05 19:39:31","新北市新店區中正路135號","121.541793333333","24.9714183333333","6500600","新店區"
"231066","AKT-0513","2019/07/05 19:39:28","新北市新店區安康路三段355巷27號","121.484916666667","24.9500183333333","6500600","新店區"
"241011","013-R5","2019/07/05 19:39:41","新北市三重區秀江街184號","121.497851666667","25.0716633333333","6500200","三重區"
"241028","022-UY","2019/07/05 19:39:43","新北市三重區中正南路200號","121.49394","25.0559583333333","6500200","三重區"
"241008","059-VK","2019/07/05 19:39:29","新北市三重區永福街137號","121.478803333333","25.076725","6500200","三重區"
"241029","060-VK","2019/07/05 19:39:40","新北市三重區光明路122號","121.492855","25.055945","6500200","三重區"
"241031","061-VK","2019/07/05 19:39:34","新北市三重區重新路四段216號","121.485896666667","25.0543616666667","6500200","三重區"
"241015","062-VK","2019/07/05 19:39:42","新北市三重區福德北路50號","121.501975","25.06566","6500200","三重區"
"241017","063-VK","2019/07/05 19:39:44","新北市三重區國隆路16號","121.492943333333","25.0640233333333","6500200","三重區"
"241001","066-VK","2019/07/05 19:39:25","新北市三重區仁愛街315巷2號","121.492723333333","25.079355","6500200","三重區"
"241030","742-BX","2019/07/05 19:39:38","新北市三重區新興路7號","121.492608333333","25.0530916666667","6500200","三重區"
"241032","269-UM","2019/07/05 19:39:30","新北市三重區重陽路一段60巷64號","121.484558333333","25.0582","6500200","三重區"
"241013","270-UM","2019/07/05 19:39:34","新北市三重區仁賢街3號","121.495723333333","25.0745816666667","6500200","三重區"
"241023","271-UM","2019/07/05 19:39:41","新北市三重區忠孝路三段99巷4號","121.480006666667","25.0638916666667","6500200","三重區"
"241007","398-BY","2019/07/05 19:39:32","新北市三重區三和路四段125巷59號","121.486915","25.0784083333333","6500200","三重區"
"241035","KEA-2210","2019/07/05 19:39:33","新北市三重區正義北路61-1號","121.49728","25.064405","6500200","三重區"
"241020","478-VK","2019/07/05 19:39:27","新北市三重區自強路三段103號","121.487761666667","25.0756716666667","6500200","三重區"
"241026","480-VK","2019/07/05 19:39:30","新北市三重區文化南路65巷27號","121.499138333333","25.0607516666667","6500200","三重區"
"241014","543-UM","2019/07/05 19:39:43","新北市三重區長壽街196號","121.504245","25.069135","6500200","三重區"
"241019","KEA-2593","2019/07/05 19:39:43","新北市三重區六張街194巷2弄1號","121.488555","25.068275","6500200","三重區"
"241006","AAD-863","2019/07/05 19:39:28","新北市三重區聯華街131號","121.48475","25.0750583333333","6500200","三重區"
"241022","KED-0820","2019/07/05 19:39:42","新北市三重區中正北路110號","121.486081666667","25.0649466666667","6500200","三重區"
"241025","887-TS","2019/07/05 19:39:30","新北市三重區忠孝路三段84巷5號","121.480213333333","25.0643466666667","6500200","三重區"
"241012","941-UM","2019/07/05 19:39:43","新北市三重區仁興街28巷9號","121.498836666667","25.0753366666667","6500200","三重區"
"235066","003-UY","2019/07/05 19:39:40","新北市中和區中和路196巷11號","121.50522","24.9991233333333","6500300","中和區"
"235063","006-UY","2019/07/05 19:39:40","新北市中和區連城路263巷9弄2號","121.492376666667","24.9955666666667","6500300","中和區"
"235056","096-UM","2019/07/05 19:39:38","新北市中和區中山路三段114巷26弄1號","121.475853333333","25.0070466666667","6500300","中和區"
"235039","097-UM","2019/07/05 19:39:38","新北市中和區景平路148號","121.518295","24.9919616666667","6500300","中和區"
"235065","098-UM","2019/07/05 19:39:36","新北市中和區中山路二段178巷17-1號","121.500525","25.0034066666667","6500300","中和區"
"235040","150-BY","2019/07/05 19:39:26","新北市中和區宜安路80號","121.510913333333","24.99759","6500300","中和區"
"235058","151-BY","2019/07/05 19:39:34","新北市中和區員山路142巷13號","121.482061666667","24.99658","6500300","中和區"
"235055","183-VK","2019/07/05 19:39:30","新北市中和區中山路三段181巷18弄11號","121.472718333333","25.0049116666667","6500300","中和區"
"235038","185-VK","2019/07/05 19:39:39","新北市中和區自立路141巷3號","121.5224","24.9935666666667","6500300","中和區"
"235031","255-BX","2019/07/05 19:39:26","新北市中和區新生街232號","121.483875","24.9981683333333","6500300","中和區"
"235044","293-VK","2019/07/05 19:39:27","新北市中和區南山路417號","121.507321666667","24.9896283333333","6500300","中和區"
"235072","301-VK","2019/07/05 19:39:24","新北市中和區錦和路91-1號","121.490125","24.995735","6500300","中和區"
"235043","352-BY","2019/07/05 19:39:45","新北市中和區興南路二段159巷20號","121.505318333333","24.9829866666667","6500300","中和區"
"235042","KEA-2878","2019/07/05 19:39:29","新北市中和區保健路46巷22弄2號","121.508801666667","24.995925","6500300","中和區"
"235070","558-UM","2019/07/05 19:39:29","新北市中和區景平路521號","121.49907","24.9988733333333","6500300","中和區"
"235045","565-BX","2019/07/05 19:39:42","新北市中和區景新街329號","121.511843333333","24.99135","6500300","中和區"
"235060","KED-0823","2019/07/05 19:39:31","新北市中和區中山路二段523巷13號","121.48182","25.00405","6500300","中和區"
"235054","640-BX","2019/07/05 19:39:27","新北市中和區莒光路11號","121.471953333333","25.0057883333333","6500300","中和區"
"235047","732-UM","2019/07/05 19:39:39","新北市中和區景平路381號","121.50382","24.993425","6500300","中和區"
"235046","733-UM","2019/07/05 19:39:44","新北市中和區景新街496巷27弄1號","121.513371666667","24.9863483333333","6500300","中和區"
"235071","783-BX","2019/07/05 19:39:33","新北市中和區橋和路88-12號","121.490045","25.0053133333333","6500300","中和區"
"235057","801-TS","2019/07/05 19:39:29","新北市中和區新生街122號","121.48333","25.0013016666667","6500300","中和區"
"235041","802-TS","2019/07/05 19:39:28","新北市中和區永貞路244號","121.514451666667","25.0037366666667","6500300","中和區"
"235052","805-TS","2019/07/05 19:39:32","新北市中和區華新街204號","121.506603333333","24.9819966666667","6500300","中和區"
"235048","896-TW","2019/07/05 19:39:35","新北市中和區忠孝街1巷2-1號","121.509143333333","24.9830716666667","6500300","中和區"
"235053","900-TW","2019/07/05 19:39:35","新北市中和區民德路146巷7弄1號","121.467671666667","25.00051","6500300","中和區"
"235051","157-BY","2019/07/05 19:39:27","新北市中和區中興街132巷24號","121.498793333333","24.9917933333333","6500300","中和區"
"235037","AAC-213","2019/07/05 19:39:36","新北市中和區秀朗路三段175巷6號","121.524651666667","24.9911333333333","6500300","中和區"
"235059","AAC-215","2019/07/05 19:39:33","新北市中和區錦和路368號","121.490655","24.99101","6500300","中和區"
"220065","072-UY","2019/07/05 19:39:33","新北市板橋區國泰街111巷15號","121.466125","25.0059816666667","6500100","板橋區"
"220086","073-UY","2019/07/05 19:39:40","新北市板橋區中正路216巷9號","121.456335","25.0184683333333","6500100","板橋區"
"220106","075-UY","2019/07/05 19:39:37","新北市板橋區民治街57巷32-1號","121.480156666667","25.03406","6500100","板橋區"
"220069","AAD-861","2019/07/05 19:39:29","新北市板橋區南雅南路二段3號","121.454418333333","25.00308","6500100","板橋區"
"220098","120-SR","2019/07/05 19:39:37","新北市板橋區民生路三段281巷2弄2號","121.463675","25.0299266666667","6500100","板橋區"
"247004","893-R6","2019/07/05 19:39:43","新北市蘆洲區中華街6巷52號","121.462346666667","25.08264","6501400","蘆洲區"
"226004","312-R5","2019/07/05 19:39:36","新北市平溪區靜安路三段392巷3號","121.784593333333","25.0495916666667","6502400","平溪區"
"228001","670-TC","2019/07/05 19:39:39","新北市貢寮區真理里延平街49號","121.924591666667","25.0556016666667","6502600","貢寮區"
"228003","828-UM","2019/07/05 19:39:31","新北市貢寮區真理里美艷山街49號","121.923181666667","25.0694183333333","6502600","貢寮區"
"224010","AGQ-8101","2019/07/05 19:39:43","新北市瑞芳區輕便路149號","121.841481666667","25.10721","6501200","瑞芳區"
"227001","642-TC","2019/07/05 19:39:29","新北市雙溪區新基里新基北街22號","121.86721","25.0389083333333","6502500","雙溪區"
"227002","400-TW","2019/07/05 19:39:42","新北市雙溪區雙溪里和平街3號","121.865435","25.0358066666667","6502500","雙溪區"
"222001","KEA-2212","2019/07/05 19:39:31","新北市深坑區深坑街163-1號","121.612696666667","25.00102","6501800","深坑區"
"208002","KEA-2872","2019/07/05 19:39:40","新北市金山區三民街34號","121.634921666667","25.2236016666667","6502700","金山區"
"208003","665-BX","2019/07/05 19:39:33","新北市金山區中山路151號","121.638653333333","25.2202866666667","6502700","金山區"
"251008","181-VK","2019/07/05 19:39:36","新北市淡水區中正路一段8巷1弄11號","121.428318333333","25.1765416666667","6501000","淡水區"
"251010","413-VK","2019/07/05 19:39:37","新北市淡水區崁頂三路113號","121.432366666667","25.2005583333333","6501000","淡水區"
"251007","442-VK","2019/07/05 19:39:43","新北市淡水區中正東路一段111巷27-1號","121.455491666667","25.1607516666667","6501000","淡水區"
"251005","443-VK","2019/07/05 19:39:27","新北市淡水區原德路108巷2號","121.443385","25.1735783333333","6501000","淡水區"
"251001","559-UM","2019/07/05 19:39:37","新北市淡水區民權路51號","121.459708333333","25.1390933333333","6501000","淡水區"
"251006","561-UM","2019/07/05 19:39:39","新北市淡水區中山北路一段207巷54號","121.442321666667","25.1791066666667","6501000","淡水區"
"251009","575-R6","2019/07/05 19:39:33","新北市淡水區中山北路一段184巷7號","121.445313333333","25.1786983333333","6501000","淡水區"
"251011","650-BX","2019/07/05 19:39:28","新北市淡水區中正東路二段143巷2弄7號","121.460678333333","25.14684","6501000","淡水區"
"251002","672-BX","2019/07/05 19:39:26","新北市淡水區崁頂104號","121.434035","25.20385","6501000","淡水區"
"207003","550-UM","2019/07/05 19:39:34","新北市萬里區大鵬里下社41-1號","121.649088333333","25.21641","6502800","萬里區"
"207004","225-TW","2019/07/05 19:39:31","新北市萬里區萬里里瑪鋉路33-1號","121.687543333333","25.1756966666667","6502800","萬里區"
"252002","178-VK","2019/07/05 19:39:42","新北市三芝區中正路一段18巷52號","121.504153333333","25.25884","6502100","三芝區"
"252001","292-VK","2019/07/05 19:39:40","新北市三芝區公正街9號","121.499716666667","25.25755","6502100","三芝區"
"208001","170-UY","2019/07/05 19:39:42","新北市金山區重和里六股林口21-6號","121.60404","25.219935","6502700","金山區"
"237004","KEA-2597","2019/07/05 19:39:27","新北市三峽區有木3號","121.42065","24.8663916666667","6500900","三峽區"
"237009","210-TH","2019/07/05 19:39:38","新北市三峽區中園街29號","121.368265","24.9265916666667","6500900","三峽區"
"237013","252-BX","2019/07/05 19:39:39","新北市三峽區介壽路二段163號","121.393838333333","24.9358666666667","6500900","三峽區"
"237012","275-BY","2019/07/05 19:39:42","新北市三峽區民生街85號","121.374705","24.9354166666667","6500900","三峽區"
"237008","302-VK","2019/07/05 19:39:43","新北市三峽區中正路一段231號","121.372095","24.9269666666667","6500900","三峽區"
"237014","433-BY","2019/07/05 19:39:44","新北市三峽區嘉添37號","121.368705","24.9110516666667","6500900","三峽區"
"237008","280-TH","2019/07/05 19:39:28","新北市三峽區二鬮路136巷24弄21號","121.356291666667","24.9104066666667","6500900","三峽區"
"237006","5529-G3","2019/07/05 19:39:29","新北市三峽區中正路一段336巷15弄2號","121.369941666667","24.9249583333333","6500900","三峽區"
"237011","KEA-2596","2019/07/05 19:39:38","新北市三峽區中正路一段224號","121.372138333333","24.9275583333333","6500900","三峽區"
"237015","649-BX","2019/07/05 19:39:27","新北市三峽區成福路197號","121.421641666667","24.9300833333333","6500900","三峽區"
"237010","706-TV","2019/07/05 19:39:37","新北市三峽區復興路27號","121.373863333333","24.9364816666667","6500900","三峽區"
"237005","AKY-6261","2019/07/05 19:39:27","新北市三峽區中山路167-1號","121.364421666667","24.93652","6500900","三峽區"
"236042","KED-0685","2019/07/05 19:39:27","新北市土城區學士路33巷27號","121.453963333333","24.9823816666667","6501300","土城區"
"220089","KED-0812","2019/07/05 19:39:34","新北市板橋區文化路一段309號","121.465831666667","25.0201983333333","6500100","板橋區"
"236030","253-BX","2019/07/05 19:39:33","新北市土城區中央路一段318巷21號","121.442421666667","24.98195","6501300","土城區"
"236026","269-VK","2019/07/05 19:39:46","新北市土城區中央路二段61巷28號","121.443411666667","24.9786616666667","6501300","土城區"
"236039","271-VK","2019/07/05 19:39:38","新北市土城區青雲路269巷9號","121.459793333333","24.98051","6501300","土城區"
"236069","KEA-2877","2019/07/05 19:39:35","新北市土城區明德路二段69號","121.451661666667","24.9811283333333","6501300","土城區"
"236020","401-BY","2019/07/05 19:39:39","新北市土城區峰廷街8號","121.468618333333","24.9877533333333","6501300","土城區"
"236059","912-UM","2019/07/05 19:39:33","新北市土城區中央路二段7號","121.442945","24.9806133333333","6501300","土城區"
"236048","913-UM","2019/07/05 19:39:42","新北市土城區明德路一段95號","121.465563333333","24.9830133333333","6501300","土城區"
"236063","915-UM","2019/07/05 19:39:41","新北市土城區延平街69巷3號","121.467436666667","24.992785","6501300","土城區"
"236055","AAC-216","2019/07/05 19:39:43","新北市土城區學府路一段48號","121.457763333333","24.9884883333333","6501300","土城區"
"242002","751-BX","2019/07/05 19:39:39","新北市新莊區瓊泰路7-1號","121.444771666667","25.028355","6500500","新莊區"
"242005","440-UM","2019/07/05 19:39:45","新北市新莊區化成路29巷46號","121.46334","25.0440216666667","6500500","新莊區"
"242013","132-UY","2019/07/05 19:39:27","新北市新莊區中泰街109號","121.448536666667","25.0464966666667","6500500","新莊區"
"242037","135-UY","2019/07/05 19:39:37","新北市新莊區民安路207巷3號","121.426695","25.022875","6500500","新莊區"
"242032","346-TH","2019/07/05 19:39:32","新北市新莊區新泰路213巷66號","121.44442","25.0383933333333","6500500","新莊區"
"242034","348-TH","2019/07/05 19:39:38","新北市新莊區仁愛街4號","121.444276666667","25.0348383333333","6500500","新莊區"
"238015","755-BX","2019/07/05 19:39:35","新北市樹林區中山路一段215號","121.420878333333","24.987085","6500700","樹林區"
"238023","601-UM","2019/07/05 19:39:34","新北市樹林區三福街114號","121.406578333333","25.01636","6500700","樹林區"
"238019","599-UM","2019/07/05 19:39:40","新北市樹林區大同街14號","121.418373333333","24.98275","6500700","樹林區"
"238012","571-TV","2019/07/05 19:39:41","新北市樹林區保安二街29號","121.42471","24.9938316666667","6500700","樹林區"
"238024","5061-A6","2019/07/05 19:39:30","新北市樹林區中山路三段80號","121.393486666667","24.9723433333333","6500700","樹林區"
"238022","KEA-2213","2019/07/05 19:39:38","新北市樹林區名園街53號","121.419876666667","24.97831","6500700","樹林區"
"238021","KEA-2539","2019/07/05 19:39:33","新北市樹林區佳園路三段117號","121.386491666667","24.9506716666667","6500700","樹林區"
"238017","283-BY","2019/07/05 19:39:34","新北市樹林區保安街二段167巷32號","121.413916666667","25.002995","6500700","樹林區"
"238014","282-BY","2019/07/05 19:39:30","新北市樹林區千歲街28巷17號","121.426243333333","24.9956366666667","6500700","樹林區"
"238020","268-VK","2019/07/05 19:39:31","新北市樹林區樹新路120巷12號","121.430226666667","24.9971833333333","6500700","樹林區"
"238026","172-UY","2019/07/05 19:39:23","新北市樹林區佳園路二段141號","121.390141666667","24.9577833333333","6500700","樹林區"
"239006","891-R6","2019/07/05 19:39:23","新北市鶯歌區文化路66號","121.356046666667","24.9545633333333","6500800","鶯歌區"
"239002","359-BY","2019/07/05 19:39:36","新北市鶯歌區大湖路26號","121.342863333333","24.9611883333333","6500800","鶯歌區"
"221008","489-VK","2019/07/05 19:39:31","新北市汐止區康寧街145號","121.621873333333","25.06673","6501100","汐止區"
"221010","269-BY","2019/07/05 19:39:43","新北市汐止區連峰街7號","121.646393333333","25.0773383333333","6501100","汐止區"
"221021","277-VK","2019/07/05 19:39:26","新北市汐止區長江街一段100巷1號","121.656468333333","25.0699166666667","6501100","汐止區"
"221027","281-BY","2019/07/05 19:39:38","新北市汐止區忠孝東路9號","121.658266666667","25.0659483333333","6501100","汐止區"
"221033","297-VK","2019/07/05 19:39:43","新北市汐止區南勢街1巷1號","121.62702","25.0374666666667","6501100","汐止區"
"221021","299-VK","2019/07/05 19:39:25","新北市汐止區連興街138號","121.65397","25.06159","6501100","汐止區"
"221031","353-TW","2019/07/05 19:39:34","新北市汐止區康寧街901號","121.65079","25.0752966666667","6501100","汐止區"
"221025","623-UM","2019/07/05 19:39:44","新北市汐止區新台五路二段72號","121.661703333333","25.0656433333333","6501100","汐止區"
"221038","646-BX","2019/07/05 19:39:35","新北市汐止區忠孝東路243號","121.66277","25.0674533333333","6501100","汐止區"
"220027","145-BY","2019/07/05 19:39:45","新北市板橋區民權路302巷4號","121.457396666667","25.0163816666667","6500100","板橋區"
"220080","200-UY","2019/07/05 19:39:36","新北市板橋區大觀路二段37巷128號","121.449398333333","25.0021283333333","6500100","板橋區"
"220082","610-BX","2019/07/05 19:39:32","新北市板橋區大觀路三段162號","121.431348333333","24.9931083333333","6500100","板橋區"
"220101","245-BX","2019/07/05 19:39:34","新北市板橋區縣民大道三段91號","121.475835","25.0220133333333","6500100","板橋區"
"224002","257-TC","2019/07/05 19:39:36","新北市瑞芳區三爪子坑路13巷69號","121.814363333333","25.1064516666667","6501200","瑞芳區"
"220091","267-BY","2019/07/05 19:39:25","新北市板橋區懷德街139巷20弄10號","121.480228333333","25.0305716666667","6500100","板橋區"
"220056","276-BY","2019/07/05 19:39:39","新北市板橋區國慶路39號","121.459076666667","24.9956866666667","6500100","板橋區"
"220089","280-UM","2019/07/05 19:39:30","新北市板橋區光正街68號","121.461686666667","25.0181966666667","6500100","板橋區"
"220094","283-UM","2019/07/05 19:39:25","新北市板橋區吳鳳路91-1號","121.466626666667","25.0318033333333","6500100","板橋區"
"220071","283-VK","2019/07/05 19:39:26","新北市板橋區四川路一段322號","121.458376666667","25.0000433333333","6500100","板橋區"
"220053","285-VK","2019/07/05 19:39:30","新北市板橋區民享街89號","121.476995","25.01583","6500100","板橋區"
"220083","286-VK","2019/07/05 19:39:24","新北市板橋區大觀路一段38巷156弄2號","121.442323333333","25.0043933333333","6500100","板橋區"
"220081","287-VK","2019/07/05 19:39:24","新北市板橋區大觀路一段75巷7號","121.447605","25.004435","6500100","板橋區"
"220090","288-VK","2019/07/05 19:39:38","新北市板橋區龍泉街54巷5號","121.456856666667","25.0265666666667","6500100","板橋區"
"220061","295-UM","2019/07/05 19:39:37","新北市板橋區板新路147號","121.470005","25.0155866666667","6500100","板橋區"
"220084","296-UM","2019/07/05 19:39:30","新北市板橋區滿平二街32-3號","121.425161666667","24.9874283333333","6500100","板橋區"
"220075","303-R5","2019/07/05 19:39:46","新北市板橋區中正路253巷7號","121.455323333333","25.0181483333333","6500100","板橋區"
"220062","305-R5","2019/07/05 19:39:22","新北市板橋區三民路二段29巷3號","121.481475","25.0180983333333","6500100","板橋區"
"220092","307-R5","2019/07/05 19:39:26","新北市板橋區四維路259巷62號","121.460621666667","25.026775","6500100","板橋區"
"220088","491-VK","2019/07/05 19:39:42","新北市板橋區仁化街99號","121.476518333333","25.0321766666667","6500100","板橋區"
"220035","560-BX","2019/07/05 19:39:26","新北市板橋區中正路375巷16號","121.454118333333","25.0208916666667","6500100","板橋區"
"220103","561-BX","2019/07/05 19:39:32","新北市板橋區陽明街29巷32號","121.463748333333","25.0226666666667","6500100","板橋區"
"220063","609-BX","2019/07/05 19:39:26","新北市板橋區中山路二段497號","121.482685","25.02098","6500100","板橋區"
"220057","686-BX","2019/07/05 19:39:29","新北市板橋區廣權路9號","121.460658333333","24.99128","6500100","板橋區"
"220077","687-BX","2019/07/05 19:39:43","新北市板橋區僑中二街92巷1號","121.44626","25.008805","6500100","板橋區"
"220093","689-BX","2019/07/05 19:39:36","新北市板橋區長江路二段293號","121.470453333333","25.0332166666667","6500100","板橋區"
"220054","741-BX","2019/07/05 19:38:51","新北市中和區德光路96巷31號","121.46798","25.0041533333333","6500100","板橋區"
"220102","KEA-2699","2019/07/05 19:39:23","新北市板橋區文化路二段410巷1弄2號","121.474356666667","25.0311716666667","6500100","板橋區"
"220055","827-TW","2019/07/05 19:39:35","新北市板橋區國慶路149巷11-3號","121.461156666667","24.99716","6500100","板橋區"
"220067","829-TW","2019/07/05 19:39:41","新北市板橋區長安街251巷38號","121.471958333333","25.01134","6500100","板橋區"
"220068","831-TW","2019/07/05 19:39:26","新北市板橋區中山路二段412巷29弄8-2號","121.484316666667","25.0197566666667","6500100","板橋區"
"220074","895-R6","2019/07/05 19:39:41","新北市板橋區館前西路148號","121.455808333333","25.0082616666667","6500100","板橋區"
"220073","985-R7","2019/07/05 19:39:25","新北市板橋區國光路49巷15號","121.458858333333","25.0187433333333","6500100","板橋區"
"220097","AAC-210","2019/07/05 19:39:32","新北市板橋區文化路一段47號","121.460536666667","25.0133133333333","6500100","板橋區"
"220064","AAC-253","2019/07/05 19:39:39","新北市板橋區館前東路108-1號","121.463215","25.00775","6500100","板橋區"
"235068","KEA-2873","2019/07/05 19:39:26","新北市中和區永和路6號","121.5","25.0028633333333","6500300","中和區"
"235061","KEA-2875","2019/07/05 19:39:41","新北市中和區員山路214號","121.481311666667","25.0008716666667","6500300","中和區"
"235049","KEA-2876","2019/07/05 19:39:34","新北市中和區中正路2-1號","121.503055","24.9936316666667","6500300","中和區"
