"lineid","car","time","location","longitude","latitude","cityid","cityname"
"234081","298-R6","2019/07/05 20:19:33","新北市永和區國中路86巷3號","121.524683333333","25.006045","6500400","永和區"
"234038","336-UY","2019/07/05 20:19:28","新北市永和區成功路一段93巷11號","121.527583333333","25.0027566666667","6500400","永和區"
"234064","337-UY","2019/07/05 20:19:30","新北市永和區得和路124號","121.518693333333","25.0001216666667","6500400","永和區"
"234086","338-UY","2019/07/05 20:19:37","新北市永和區中正路637號","121.515365","25.009995","6500400","永和區"
"234070","552-UM","2019/07/05 20:19:39","新北市永和區福和路263巷22號","121.517963333333","25.0064983333333","6500400","永和區"
"234017","745-BX","2019/07/05 20:19:34","新北市永和區仁愛路46號","121.514068333333","25.0135266666667","6500400","永和區"
"234030","746-BX","2019/07/05 20:19:29","新北市永和區民有街75巷10弄15號","121.51881","24.9961633333333","6500400","永和區"
"234054","KEA-2590","2019/07/05 20:19:35","新北市永和區永和路二段336號","121.516428333333","25.0166633333333","6500400","永和區"
"234013","KEA-2591","2019/07/05 20:19:37","新北市永和區保生路55-1號","121.504823333333","25.0116766666667","6500400","永和區"
"234061","AAD-866","2019/07/05 20:19:45","新北市永和區安樂路134號","121.514085","25.000255","6500400","永和區"
"234042","862-TW","2019/07/05 20:19:28","新北市中和區中安街168號","121.510856666667","24.99985","6500400","永和區"
"234050","863-TW","2019/07/05 20:19:27","新北市永和區新生路16號","121.508948333333","25.0165066666667","6500400","永和區"
"249005","172-UM","2019/07/05 20:19:38","新北市八里區下罟子1-16號","121.389791666667","25.142015","6502300","八里區"
"249001","173-UM","2019/07/05 20:19:39","新北市八里區中華路二段341-10號","121.399133333333","25.14499","6502300","八里區"
"249004","303-UY","2019/07/05 20:19:21","新北市八里區中山路一段129巷1號","121.413661666667","25.1591916666667","6502300","八里區"
"249003","593-UM","2019/07/05 20:19:37","新北市八里區訊塘路42號","121.397891666667","25.14541","6502300","八里區"
"249002","759-BX","2019/07/05 20:19:40","新北市八里區龍米路一段100巷22號","121.45418","25.12498","6502300","八里區"
"248016","026-BX","2019/07/05 20:19:42","新北市五股區凌雲路一段158巷39弄2號","121.446895","25.10377","6501500","五股區"
"248012","247-BX","2019/07/05 20:19:26","新北市五股區民義路一段65號","121.43585","25.0850316666667","6501500","五股區"
"248002","678-BX","2019/07/05 20:19:37","新北市五股區成泰路三段173號","121.445261666667","25.091975","6501500","五股區"
"234023","9380-KE","2019/07/05 20:19:33","新北市永和區復興街54巷1號","121.516645","25.0131666666667","6500400","永和區"
"234077","969-R7","2019/07/05 20:19:34","新北市永和區中正路132號","121.514586666667","24.9959133333333","6500400","永和區"
"234074","AAC-211","2019/07/05 20:19:42","新北市永和區竹林路201巷24弄9號","121.52265","25.00971","6500400","永和區"
"234067","AAC-212","2019/07/05 20:19:42","新北市永和區保平路268巷9號","121.508476666667","25.0053816666667","6500400","永和區"
"234003","AAC-295","2019/07/05 20:19:37","新北市永和區大新街12號","121.514958333333","25.00849","6500400","永和區"
"243012","AAD-798","2019/07/05 20:19:43","新北市泰山區楓江路169號","121.440328333333","25.0664916666667","6501600","泰山區"
"243010","297-R6","2019/07/05 20:19:12","新北市泰山區明志路二段254巷7號","121.426246666667","25.0476716666667","6501600","泰山區"
"243014","KEA-2801","2019/07/05 20:19:41","新北市泰山區泰林路二段262號","121.431641666667","25.0623666666667","6501600","泰山區"
"243016","421-VK","2019/07/05 20:19:32","新北市泰山區明志路二段385號","121.424936666667","25.0436866666667","6501600","泰山區"
"243009","KEA-2215","2019/07/05 20:19:33","新北市泰山區泰林路二段109-1號","121.434336666667","25.059105","6501600","泰山區"
"243011","KEA-2216","2019/07/05 20:19:30","新北市新莊區壽山路160巷21號","121.417453333333","25.0318983333333","6501600","泰山區"
"243013","646-TV","2019/07/05 20:19:36","新北市泰山區民國街56號","121.426006666667","25.0438233333333","6501600","泰山區"
"243015","680-BX","2019/07/05 20:19:32","新北市泰山區明志路一段265號","121.432146666667","25.060265","6501600","泰山區"
"222002","016-RS","2019/07/05 20:19:27","新北市深坑區萬福路75巷53號","121.598156666667","25.0099183333333","6501800","深坑區"
"222003","436-BY","2019/07/05 20:19:26","新北市深坑區文化街43號","121.617423333333","25.00175","6501800","深坑區"
"231061","002-UM","2019/07/05 20:19:44","新北市新店區安興路32號","121.515735","24.97028","6500600","新店區"
"231044","046-UY","2019/07/05 20:19:38","新北市新店區北新路三段146號","121.541575","24.9823666666667","6500600","新店區"
"231060","106-UY","2019/07/05 20:19:29","新北市新店區安康路三段578-1號","121.481036666667","24.9487416666667","6500600","新店區"
"231051","107-UY","2019/07/05 20:19:27","新北市新店區中央六街84號","121.526718333333","24.9765416666667","6500600","新店區"
"231049","108-UY","2019/07/05 20:19:39","新北市新店區北新路一段100號","121.542035","24.969325","6500600","新店區"
"231065","110-UY","2019/07/05 20:19:34","新北市新店區安祥路102巷32號","121.484161666667","24.9638866666667","6500600","新店區"
"231068","187-VK","2019/07/05 20:19:37","新北市新店區寶安街30號","121.542108333333","24.9823433333333","6500600","新店區"
"221035","KEA-2785","2019/07/05 20:19:35","新北市汐止區長江街57巷26號","121.656331666667","25.0724833333333","6501100","汐止區"
"231054","260-TV","2019/07/05 20:19:35","新北市新店區檳榔路109號","121.544498333333","24.9615966666667","6500600","新店區"
"231042","268-BY","2019/07/05 20:19:24","新北市新店區寶橋路78巷19號","121.547505","24.9748316666667","6500600","新店區"
"231064","278-BY","2019/07/05 20:19:43","新北市新店區安業街8巷1號","121.515875","24.9772516666667","6500600","新店區"
"231050","AAD-862","2019/07/05 20:19:28","新北市新店區博愛街21號","121.541301666667","24.97361","6500600","新店區"
"231045","355-BY","2019/07/05 20:19:27","新北市新店區中興路一段112-1號","121.540663333333","24.961245","6500600","新店區"
"231055","4716-K9","2019/07/05 20:19:32","新北市新店區中華路48巷38號","121.541136666667","24.9694433333333","6500600","新店區"
"231056","4715-K9","2019/07/05 20:19:42","新北市新店區中正路309號","121.536593333333","24.9750066666667","6500600","新店區"
"231067","4772-VM","2019/07/05 20:19:36","新北市新店區安康路一段32號","121.531681666667","24.9610533333333","6500600","新店區"
"231053","513-UM","2019/07/05 20:19:29","新北市新店區松林路1號","121.546861666667","24.9120733333333","6500600","新店區"
"231040","617-UM","2019/07/05 20:19:27","新北市新店區中正路108號","121.543068333333","24.9707066666667","6500600","新店區"
"231041","619-UM","2019/07/05 20:19:36","新北市新店區民權路44-1號","121.540281666667","24.983005","6500600","新店區"
"231063","641-BX","2019/07/05 20:19:32","新北市新店區車子路1-1號","121.504705","24.9576983333333","6500600","新店區"
"231048","KED-0819","2019/07/05 20:19:36","新北市新店區寶橋路132號","121.54737","24.9760616666667","6500600","新店區"
"231062","718-UY","2019/07/05 20:19:21","新北市新店區安康路二段454號","121.49453","24.954425","6500600","新店區"
"231057","720-UM","2019/07/05 20:19:44","新北市新店區花園十二路1號","121.554806666667","24.93472","6500600","新店區"
"231059","897-TW","2019/07/05 20:19:22","新北市新店區安德街106號","121.50928","24.9608133333333","6500600","新店區"
"231043","899-TW","2019/07/05 20:19:31","新北市新店區建國路135號","121.539333333333","24.9784","6500600","新店區"
"231066","AKT-0513","2019/07/05 20:19:28","新北市新店區柴埕路31號","121.513926666667","24.965765","6500600","新店區"
"241011","013-R5","2019/07/05 20:19:33","新北市三重區龍門路195號","121.499653333333","25.07331","6500200","三重區"
"241028","022-UY","2019/07/05 20:19:23","新北市三重區大同南路70號","121.496066666667","25.0595083333333","6500200","三重區"
"241008","059-VK","2019/07/05 20:19:29","新北市三重區永福街146號","121.480186666667","25.0746166666667","6500200","三重區"
"241029","060-VK","2019/07/05 20:19:40","新北市三重區重安街98號","121.492678333333","25.05606","6500200","三重區"
"241031","061-VK","2019/07/05 20:19:34","新北市三重區三寧街15號","121.489476666667","25.0597433333333","6500200","三重區"
"241015","062-VK","2019/07/05 20:19:22","新北市三重區文化南路2巷1號","121.500401666667","25.0626666666667","6500200","三重區"
"241017","063-VK","2019/07/05 20:19:44","新北市三重區自強路一段236號","121.493398333333","25.0670583333333","6500200","三重區"
"241024","065-VK","2019/07/05 20:19:28","新北市三重區忠孝路三段1號","121.481965","25.0678616666667","6500200","三重區"
"241001","066-VK","2019/07/05 20:19:45","新北市三重區自強路四段3巷36號","121.490001666667","25.0766033333333","6500200","三重區"
"241002","090-VK","2019/07/05 20:19:39","新北市三重區五華街19-3號","121.494745","25.080535","6500200","三重區"
"241003","091-VK","2019/07/05 20:19:26","新北市三重區富華街90號","121.491085","25.0835883333333","6500200","三重區"
"241030","742-BX","2019/07/05 20:14:18","新北市三重區集美街60號","121.489098333333","25.05468","6500200","三重區"
"241005","262-UM","2019/07/05 20:19:32","新北市三重區溪尾街267號","121.487691666667","25.0821216666667","6500200","三重區"
"241016","266-UM","2019/07/05 20:19:33","新北市三重區大同北路97-3號","121.494408333333","25.0635283333333","6500200","三重區"
"241018","268-UM","2019/07/05 20:19:29","新北市三重區自強路一段236號","121.493303333333","25.0670633333333","6500200","三重區"
"241032","269-UM","2019/07/05 20:19:30","新北市三重區捷運路19巷8弄3號","121.48468","25.057345","6500200","三重區"
"241013","270-UM","2019/07/05 20:19:33","新北市三重區三和路三段163號","121.491955","25.0740716666667","6500200","三重區"
"241023","271-UM","2019/07/05 20:19:41","新北市三重區忠孝路三段84巷1號","121.480428333333","25.0648","6500200","三重區"
"241007","398-BY","2019/07/05 20:19:32","新北市三重區仁美街55號","121.486978333333","25.0781016666667","6500200","三重區"
"241035","KEA-2210","2019/07/05 20:19:33","新北市三重區正義北路33巷28號","121.498398333333","25.0639016666667","6500200","三重區"
"241004","475-VK","2019/07/05 20:19:32","新北市三重區仁政街198號","121.490596666667","25.0803783333333","6500200","三重區"
"241020","478-VK","2019/07/05 20:19:27","新北市三重區三和路三段170巷15號","121.492078333333","25.0728983333333","6500200","三重區"
"241026","480-VK","2019/07/05 20:19:39","新北市三重區重新路一段52號","121.502726666667","25.0637183333333","6500200","三重區"
"241014","543-UM","2019/07/05 20:19:43","新北市三重區長榮路75號","121.502605","25.0691133333333","6500200","三重區"
"241019","KEA-2593","2019/07/05 20:19:23","新北市三重區忠孝路一段25號","121.491846666667","25.0719083333333","6500200","三重區"
"241006","AAD-863","2019/07/05 20:19:28","新北市三重區車路頭街139巷14號","121.48431","25.0762016666667","6500200","三重區"
"241022","KED-0820","2019/07/05 20:19:22","新北市三重區新北大道一段50號","121.487703333333","25.0614433333333","6500200","三重區"
"241025","887-TS","2019/07/05 20:19:30","新北市三重區三民街260號","121.479208333333","25.0680133333333","6500200","三重區"
"241012","941-UM","2019/07/05 20:19:23","新北市三重區仁愛街125巷95號","121.49829","25.0763383333333","6500200","三重區"
"241033","AAC-255","2019/07/05 20:19:42","新北市三重區五谷王北街50巷38號","121.475175","25.0513883333333","6500200","三重區"
"235066","003-UY","2019/07/05 20:19:40","新北市中和區光華街31巷43號","121.505625","25.0050733333333","6500300","中和區"
"235039","097-UM","2019/07/05 20:19:38","新北市中和區大勇街29巷10號","121.515981666667","24.9945066666667","6500300","中和區"
"235065","098-UM","2019/07/05 20:19:36","新北市中和區永和路128巷9號","121.497636666667","25.0069666666667","6500300","中和區"
"235055","183-VK","2019/07/05 20:19:30","新北市八里區荖阡坑路15-66號","121.39867","25.1395983333333","6500300","中和區"
"235031","255-BX","2019/07/05 20:19:26","新北市五股區成泰路三段542號","121.454505","25.1039366666667","6500300","中和區"
"247008","KED-0682","2019/07/05 20:19:32","新北市蘆洲區集賢路231號","121.48211","25.085855","6501400","蘆洲區"
"235050","4979-A6","2019/07/05 20:19:39","新北市中和區景平路402號","121.509186666667","24.9931116666667","6500300","中和區"
"235069","4980-A6","2019/07/05 20:19:32","新北市中和區圓通路98號","121.499695","24.996855","6500300","中和區"
"235026","800-TS","2019/07/05 20:10:28","新北市中和區員山路36巷16-3號","121.485073333333","24.9913233333333","6500300","中和區"
"235059","AAC-215","2019/07/05 20:19:33","新北市中和區圓通路447號","121.484921666667","24.9865116666667","6500300","中和區"
"247004","893-R6","2019/07/05 20:19:43","新北市蘆洲區長安街297號","121.457963333333","25.0847533333333","6501400","蘆洲區"
"247014","500-BY","2019/07/05 20:19:35","新北市蘆洲區中正路1號","121.471651666667","25.0816666666667","6501400","蘆洲區"
"247024","337-TH","2019/07/05 20:19:30","新北市蘆洲區光榮路120巷22弄18-1號","121.464735","25.0876833333333","6501400","蘆洲區"
"247002","336-TH","2019/07/05 20:19:29","新北市蘆洲區長安街331巷30號","121.45614","25.08661","6501400","蘆洲區"
"247022","057-VK","2019/07/05 20:19:31","新北市蘆洲區三民路241號","121.469075","25.0888383333333","6501400","蘆洲區"
"247012","056-VK","2019/07/05 20:19:42","新北市蘆洲區中興街53號","121.481378333333","25.0872266666667","6501400","蘆洲區"
"247006","002-UY","2019/07/05 20:19:29","新北市蘆洲區九芎街140號","121.464936666667","25.07893","6501400","蘆洲區"
"222001","KEA-2212","2019/07/05 20:19:31","新北市深坑區北深路三段253號","121.599215","25.0042833333333","6501800","深坑區"
"251008","181-VK","2019/07/05 20:19:36","新北市淡水區淡海路150巷6號","121.422101666667","25.1839733333333","6501000","淡水區"
"251010","413-VK","2019/07/05 20:19:37","新北市淡水區新民街一段134號","121.427518333333","25.1888583333333","6501000","淡水區"
"251012","441-VK","2019/07/05 20:19:39","新北市淡水區下圭柔山431-1號","121.449833333333","25.210205","6501000","淡水區"
"251001","559-UM","2019/07/05 20:19:36","新北市淡水區淡金路二段15號","121.44613","25.189205","6501000","淡水區"
"251006","561-UM","2019/07/05 20:19:39","新北市淡水區北新路169巷69弄38號","121.447906666667","25.1801466666667","6501000","淡水區"
"251009","575-R6","2019/07/05 20:19:33","新北市淡水區中山路143-2號","121.440618333333","25.171985","6501000","淡水區"
"251002","672-BX","2019/07/05 20:19:26","新北市淡水區中正路177號","121.438656666667","25.171235","6501000","淡水區"
"251003","766-UM","2019/07/05 20:19:39","新北市淡水區中山北路一段225號","121.444458333333","25.1794066666667","6501000","淡水區"
"207003","550-UM","2019/07/05 20:19:34","新北市萬里區野柳里八斗60號","121.66938","25.2027666666667","6502800","萬里區"
"207004","225-TW","2019/07/05 20:19:36","新北市萬里區北基里大仁路4號","121.68202","25.175305","6502800","萬里區"
"252002","178-VK","2019/07/05 20:19:42","新北市三芝區中正路一段49號","121.503331666667","25.2580833333333","6502100","三芝區"
"252001","292-VK","2019/07/05 20:19:40","新北市三芝區中山路一段14號","121.500761666667","25.2579516666667","6502100","三芝區"
"237006","5529-G3","2019/07/05 20:19:29","新北市三峽區中正路二段41號","121.366713333333","24.9186466666667","6500900","三峽區"
"220089","KED-0812","2019/07/05 20:19:34","新北市板橋區文化路一段309-1號","121.46591","25.02003","6500100","板橋區"
"236030","253-BX","2019/07/05 20:19:32","新北市土城區學成路128巷11號","121.44949","24.9900133333333","6501300","土城區"
"236026","269-VK","2019/07/05 20:19:17","新北市土城區裕生路88號","121.447123333333","24.98511","6501300","土城區"
"236014","270-VK","2019/07/05 20:19:45","新北市板橋區四川路二段14號","121.456171666667","24.9961133333333","6501300","土城區"
"247010","KED-0683","2019/07/05 20:19:33","新北市蘆洲區信義路218號","121.478993333333","25.0852016666667","6501400","蘆洲區"
"236069","KEA-2877","2019/07/05 20:19:35","新北市土城區三民路43號","121.420033333333","24.9638416666667","6501300","土城區"
"236059","912-UM","2019/07/05 20:19:33","新北市土城區大安路101-5號","121.433445","24.9685716666667","6501300","土城區"
"242039","AAC-296","2019/07/05 20:19:26","新北市新莊區成功街78-1號","121.42415","25.0189233333333","6500500","新莊區"
"242060","986-R7","2019/07/05 20:19:33","新北市新莊區新樹路172-13號","121.434635","25.0216466666667","6500500","新莊區"
"242002","751-BX","2019/07/05 20:19:39","新北市新莊區化成路33號","121.465183333333","25.0440266666667","6500500","新莊區"
"242029","615-BX","2019/07/05 20:19:25","新北市新莊區中華路二段159號","121.452901666667","25.0516733333333","6500500","新莊區"
"242027","613-BX","2019/07/05 20:19:41","新北市新莊區幸福路815號","121.445583333333","25.0489966666667","6500500","新莊區"
"242058","612-BX","2019/07/05 20:19:37","新北市新莊區龍安路278巷14號","121.421905","25.01872","6500500","新莊區"
"242046","566-BX","2019/07/05 20:19:35","新北市新莊區裕民街119號","121.418128333333","25.02251","6500500","新莊區"
"242050","497-BY","2019/07/05 20:19:24","新北市新莊區民安西路212巷3弄18號","121.4252","25.01408","6500500","新莊區"
"242056","441-UM","2019/07/05 20:19:44","新北市新莊區新莊路649巷13弄2號","121.444945","25.0318616666667","6500500","新莊區"
"242005","440-UM","2019/07/05 20:19:36","新北市新莊區頭前路10號","121.468523333333","25.0525466666667","6500500","新莊區"
"242041","415-TV","2019/07/05 20:19:39","新北市新莊區天祥街54巷3弄1號","121.416803333333","25.0293883333333","6500500","新莊區"
"242011","413-TV","2019/07/05 20:19:39","新北市新莊區幸福路670巷14弄1號","121.450996666667","25.0504083333333","6500500","新莊區"
"242048","400-BY","2019/07/05 20:19:26","新北市新莊區四維路212巷4弄10號","121.421245","25.0206316666667","6500500","新莊區"
"242025","362-BY","2019/07/05 20:19:31","新北市新莊區五工二路70巷23號","121.460845","25.066615","6500500","新莊區"
"242023","353-BY","2019/07/05 20:19:32","新北市新莊區化成路766號","121.465265","25.05875","6500500","新莊區"
"242013","132-UY","2019/07/05 20:19:41","新北市新莊區幸福路670巷2弄5號","121.451316666667","25.0495883333333","6500500","新莊區"
"242037","135-UY","2019/07/05 20:19:37","新北市新莊區後港一路56巷22號","121.426741666667","25.0253366666667","6500500","新莊區"
"242054","172-VK","2019/07/05 20:19:37","新北市新莊區民安西路261巷11號","121.426716666667","25.0131283333333","6500500","新莊區"
"242015","173-VK","2019/07/05 20:19:38","新北市新莊區中和街31巷22號","121.447156666667","25.04381","6500500","新莊區"
"242021","175-VK","2019/07/05 20:19:32","新北市新莊區和興街43號","121.44672","25.0403833333333","6500500","新莊區"
"242044","176-VK","2019/07/05 20:19:27","新北市新莊區中正路895-25號","121.412376666667","25.0217933333333","6500500","新莊區"
"242019","KED-0687","2019/07/05 20:19:38","新北市新莊區銘德街80號","121.456253333333","25.0436033333333","6500500","新莊區"
"242032","346-TH","2019/07/05 20:19:32","新北市新莊區中正路436號","121.440563333333","25.0336716666667","6500500","新莊區"
"242034","348-TH","2019/07/05 20:19:40","新北市新莊區華興街44號","121.446028333333","25.036155","6500500","新莊區"
"242007","349-TH","2019/07/05 20:19:27","新北市新莊區福壽街142巷38號","121.459256666667","25.0518116666667","6500500","新莊區"
"242009","350-TH","2019/07/05 20:19:32","新北市新莊區昌平街37號","121.454855","25.0522483333333","6500500","新莊區"
"242017","351-TH","2019/07/05 20:19:39","新北市新莊區中港一街71號","121.449913333333","25.04527","6500500","新莊區"
"221008","489-VK","2019/07/05 20:19:31","新北市汐止區忠三街9巷8-1號","121.625013333333","25.0791633333333","6501100","汐止區"
"221036","130-UY","2019/07/05 20:19:37","新北市汐止區福安街59巷7號","121.664311666667","25.0638483333333","6501100","汐止區"
"221015","131-UY","2019/07/05 20:19:26","新北市汐止區建成路160巷16號","121.66184","25.073975","6501100","汐止區"
"221010","269-BY","2019/07/05 20:19:43","新北市汐止區八連路一段203號","121.64093","25.0810733333333","6501100","汐止區"
"221021","277-VK","2019/07/05 20:19:26","新北市汐止區長江街一段100巷1號","121.65643","25.0697983333333","6501100","汐止區"
"221012","278-VK","2019/07/05 20:19:29","新北市汐止區汐平路一段59號","121.682533333333","25.0705283333333","6501100","汐止區"
"221023","279-VK","2019/07/05 20:19:45","新北市汐止區明峰街298巷10弄1號","121.624991666667","25.068855","6501100","汐止區"
"221033","297-VK","2019/07/05 20:19:43","新北市汐止區東勢街215巷2號","121.634411666667","25.0430733333333","6501100","汐止區"
"221029","298-VK","2019/07/05 20:19:27","新北市汐止區樟樹一路99巷7弄2號","121.641123333333","25.063635","6501100","汐止區"
"221021","299-VK","2019/07/05 20:19:25","新北市汐止區水源路一段284號","121.654131666667","25.05824","6501100","汐止區"
"221031","353-TW","2019/07/05 20:19:34","新北市汐止區福德二路106號","121.632178333333","25.0660583333333","6501100","汐止區"
"221025","623-UM","2019/07/05 20:19:44","新北市汐止區水源路二段34號","121.655031666667","25.0571533333333","6501100","汐止區"
"221038","646-BX","2019/07/05 20:19:35","新北市汐止區忠孝東路432號","121.666215","25.0722316666667","6501100","汐止區"
"221002","707-TV","2019/07/05 20:19:35","新北市汐止區福德一路86巷9號","121.637653333333","25.0687383333333","6501100","汐止區"
"221018","753-BX","2019/07/05 20:19:28","新北市汐止區茄苳路277號","121.672271666667","25.0679816666667","6501100","汐止區"
"220101","245-BX","2019/07/05 20:19:34","新北市五股區中興路三段1-7號","121.452206666667","25.075435","6500100","板橋區"
"220089","280-UM","2019/07/05 20:19:30","新北市板橋區四維路293號","121.463303333333","25.0283183333333","6500100","板橋區"
"220083","286-VK","2019/07/05 20:16:24","新北市板橋區僑中二街92巷12號","121.44576","25.0091","6500100","板橋區"
"220081","287-VK","2019/07/05 20:19:24","新北市板橋區僑中一街102巷7弄1號","121.446856666667","25.0128","6500100","板橋區"
"220103","561-BX","2019/07/05 20:19:32","新北市板橋區漢生東路73巷26號","121.467268333333","25.0169366666667","6500100","板橋區"
"220077","687-BX","2019/07/05 20:19:43","新北市板橋區大觀路二段7巷109-3號","121.452053333333","25.0029","6500100","板橋區"
"220055","827-TW","2019/07/05 20:19:35","新北市板橋區仁愛路23號","121.458886666667","24.9994483333333","6500100","板橋區"
"220074","895-R6","2019/07/05 20:19:41","新北市板橋區南雅南路一段7巷22弄7號","121.455915","25.0047033333333","6500100","板橋區"
