"lineid","car","time","location","longitude","latitude","cityid","cityname"
"234081","298-R6","2019/07/05 20:29:33","新北市永和區福和路19巷1弄3號","121.52427","25.007875","6500400","永和區"
"234038","336-UY","2019/07/05 20:29:29","新北市永和區民樂街31巷10弄12號","121.528916666667","25.0008783333333","6500400","永和區"
"234064","337-UY","2019/07/05 20:29:30","新北市永和區中正路417號","121.517056666667","25.0048533333333","6500400","永和區"
"234086","338-UY","2019/07/05 20:29:38","新北市永和區永和路二段332號","121.516313333333","25.016555","6500400","永和區"
"234070","552-UM","2019/07/05 20:29:39","新北市永和區永亨路7號","121.519411666667","25.0056866666667","6500400","永和區"
"234030","746-BX","2019/07/05 20:29:28","新北市中和區大智街3號","121.519471666667","24.99184","6500400","永和區"
"234054","KEA-2590","2019/07/05 20:29:35","新北市永和區環河東路一段80號","121.519516666667","25.0164716666667","6500400","永和區"
"234061","AAD-866","2019/07/05 20:29:41","新北市永和區安樂路194巷17弄1號","121.515713333333","25.0010383333333","6500400","永和區"
"234042","862-TW","2019/07/05 20:29:28","新北市永和區安樂路250號","121.514668333333","25.0035433333333","6500400","永和區"
"234050","863-TW","2019/07/05 20:29:26","新北市永和區保安路134號","121.508618333333","25.0154583333333","6500400","永和區"
"249001","173-UM","2019/07/05 20:29:39","新北市八里區中山路三段106號","121.391005","25.1422116666667","6502300","八里區"
"249004","303-UY","2019/07/05 20:29:41","新北市八里區中山路一段129巷37號","121.414","25.1584916666667","6502300","八里區"
"249003","593-UM","2019/07/05 20:29:37","新北市八里區華峰一街27-1號","121.399281666667","25.1466316666667","6502300","八里區"
"249002","759-BX","2019/07/05 20:29:40","新北市八里區龍米路二段32巷23號","121.448791666667","25.1411366666667","6502300","八里區"
"248002","678-BX","2019/07/05 20:29:37","新北市五股區成泰路三段43-7號","121.442503333333","25.0890683333333","6501500","五股區"
"234023","9380-KE","2019/07/05 20:29:33","新北市永和區博愛街32巷17-1號","121.518881666667","25.0153","6500400","永和區"
"234074","AAC-211","2019/07/05 20:29:22","新北市永和區豫溪街191巷7弄17號","121.523355","25.0108683333333","6500400","永和區"
"234067","AAC-212","2019/07/05 20:29:22","新北市永和區保平路292巷46弄2號","121.507458333333","25.0053533333333","6500400","永和區"
"234003","AAC-295","2019/07/05 20:29:37","新北市永和區中正路620號","121.517098333333","25.007795","6500400","永和區"
"243012","AAD-798","2019/07/05 20:29:39","新北市泰山區楓江路14號","121.433745","25.062395","6501600","泰山區"
"243010","297-R6","2019/07/05 20:29:32","新北市泰山區明志路二段237巷21號","121.428058333333","25.0481966666667","6501600","泰山區"
"243014","KEA-2801","2019/07/05 20:29:41","新北市泰山區泰林路二段517號","121.424013333333","25.0636833333333","6501600","泰山區"
"243016","421-VK","2019/07/05 20:29:32","新北市泰山區明志路二段218號","121.42727","25.0487233333333","6501600","泰山區"
"243009","KEA-2215","2019/07/05 20:29:31","新北市泰山區忠孝街42巷2號","121.4287","25.06545","6501600","泰山區"
"243011","KEA-2216","2019/07/05 20:29:30","新北市泰山區貴陽街18號","121.422575","25.0326816666667","6501600","泰山區"
"243013","646-TV","2019/07/05 20:29:41","新北市泰山區中央路5巷4號","121.42671","25.0436133333333","6501600","泰山區"
"243015","680-BX","2019/07/05 20:29:12","新北市泰山區仁德路80號","121.432996666667","25.0563733333333","6501600","泰山區"
"222002","016-RS","2019/07/05 20:29:27","新北市深坑區萬福路16巷3號","121.604006666667","25.0076283333333","6501800","深坑區"
"222003","436-BY","2019/07/05 20:29:26","新北市深坑區深坑街54號","121.614866666667","25.0016766666667","6501800","深坑區"
"231061","002-UM","2019/07/05 20:29:44","新北市新店區安興路32號","121.515745","24.9702866666667","6500600","新店區"
"231044","046-UY","2019/07/05 20:29:38","新北市新店區建國路122號","121.539176666667","24.97869","6500600","新店區"
"231060","106-UY","2019/07/05 20:29:29","新北市新店區錦秀路5號","121.47937","24.9448283333333","6500600","新店區"
"231051","107-UY","2019/07/05 20:29:27","新北市新店區中央七街21號","121.529831666667","24.97515","6500600","新店區"
"231049","108-UY","2019/07/05 20:29:39","新北市新店區華潭街1巷1號","121.529745","24.95009","6500600","新店區"
"231065","110-UY","2019/07/05 20:29:34","新北市新店區安祥路102巷46弄57號","121.486458333333","24.9635083333333","6500600","新店區"
"231068","187-VK","2019/07/05 20:29:37","新北市新店區中興路三段230號","121.543358333333","24.9833216666667","6500600","新店區"
"221035","KEA-2785","2019/07/05 20:29:35","新北市汐止區長江街97號","121.658043333333","25.0727183333333","6501100","汐止區"
"231054","260-TV","2019/07/05 20:29:35","新北市新店區檳榔路111號","121.544556666667","24.96153","6500600","新店區"
"231042","268-BY","2019/07/05 20:29:40","新北市新店區寶橋路230號","121.551401666667","24.978805","6500600","新店區"
"231064","278-BY","2019/07/05 20:29:43","新北市新店區永安街74巷20號","121.519241666667","24.9860233333333","6500600","新店區"
"231050","AAD-862","2019/07/05 20:29:28","新北市新店區建興街7號","121.53996","24.976385","6500600","新店區"
"231045","355-BY","2019/07/05 20:29:26","新北市新店區新坡一街72號","121.5489","24.9645483333333","6500600","新店區"
"231055","4716-K9","2019/07/05 20:29:30","新北市新店區中央一街22號","121.527745","24.97307","6500600","新店區"
"231056","4715-K9","2019/07/05 20:29:42","新北市新店區中央六街35號","121.528915","24.9752833333333","6500600","新店區"
"231067","4772-VM","2019/07/05 20:29:36","新北市新店區安華路28-1號","121.519731666667","24.9607483333333","6500600","新店區"
"231053","513-UM","2019/07/05 20:29:29","新北市新店區松林路38號","121.54624","24.91026","6500600","新店區"
"231040","617-UM","2019/07/05 20:29:41","新北市新店區三民路73號","121.536071666667","24.9715233333333","6500600","新店區"
"231041","619-UM","2019/07/05 20:29:27","新北市新店區民權路131號","121.535068333333","24.9824983333333","6500600","新店區"
"231063","641-BX","2019/07/05 20:29:32","新北市新店區玫瑰路4-1號","121.493505","24.95141","6500600","新店區"
"231048","KED-0819","2019/07/05 20:29:36","新北市新店區寶慶街58巷21-1號","121.542036666667","24.9873066666667","6500600","新店區"
"231062","718-UY","2019/07/05 20:29:41","新北市新店區安泰路60巷4號","121.484011666667","24.9467983333333","6500600","新店區"
"231057","720-UM","2019/07/05 20:29:24","新北市新店區花園十二路8號","121.555246666667","24.9337233333333","6500600","新店區"
"231059","897-TW","2019/07/05 20:29:41","新北市新店區安康路二段217號","121.508798333333","24.9588033333333","6500600","新店區"
"231043","899-TW","2019/07/05 20:29:31","新北市新店區建國路88號","121.540451666667","24.9771266666667","6500600","新店區"
"231066","AKT-0513","2019/07/05 20:29:28","新北市新店區安德街60巷21號","121.510368333333","24.9633416666667","6500600","新店區"
"241011","013-R5","2019/07/05 20:29:33","新北市三重區龍門路66號","121.496733333333","25.0726333333333","6500200","三重區"
"241028","022-UY","2019/07/05 20:29:43","新北市三重區光興街95號","121.49726","25.0599916666667","6500200","三重區"
"241008","059-VK","2019/07/05 20:29:29","新北市三重區下竹圍街42-1號","121.480918333333","25.07489","6500200","三重區"
"241029","060-VK","2019/07/05 20:29:40","新北市三重區集美街212號","121.490761666667","25.05443","6500200","三重區"
"241031","061-VK","2019/07/05 20:29:34","新北市三重區三寧街15號","121.48948","25.059755","6500200","三重區"
"241015","062-VK","2019/07/05 20:29:42","新北市三重區文化北路41號","121.49883","25.0652083333333","6500200","三重區"
"241017","063-VK","2019/07/05 20:29:23","新北市三重區自強路一段288號","121.491596666667","25.0682783333333","6500200","三重區"
"241024","065-VK","2019/07/05 20:29:28","新北市三重區三民街224號","121.479941666667","25.0673633333333","6500200","三重區"
"241001","066-VK","2019/07/05 20:29:25","新北市三重區福隆路8號","121.489996666667","25.0774566666667","6500200","三重區"
"241002","090-VK","2019/07/05 20:29:34","新北市三重區仁義街211巷51號","121.4982","25.0826883333333","6500200","三重區"
"241003","091-VK","2019/07/05 20:29:26","新北市三重區富華街222號","121.493601666667","25.0852983333333","6500200","三重區"
"241030","742-BX","2019/07/05 20:29:38","新北市三重區成功路47號","121.489696666667","25.0509866666667","6500200","三重區"
"241005","262-UM","2019/07/05 20:29:32","新北市三重區碧華街390號","121.491453333333","25.0847566666667","6500200","三重區"
"241016","266-UM","2019/07/05 20:29:33","新北市三重區正義北路190巷4號","121.496175","25.06664","6500200","三重區"
"241018","268-UM","2019/07/05 20:29:29","新北市三重區正義北路222號","121.49607","25.0677466666667","6500200","三重區"
"241032","269-UM","2019/07/05 20:29:30","新北市三重區重陽路一段120巷46號","121.485086666667","25.0601583333333","6500200","三重區"
"241013","270-UM","2019/07/05 20:29:33","新北市三重區溪尾街5巷7號","121.492103333333","25.0744433333333","6500200","三重區"
"241023","271-UM","2019/07/05 20:29:41","新北市三重區自由街17巷1號","121.479948333333","25.066735","6500200","三重區"
"241007","398-BY","2019/07/05 20:29:32","新北市三重區自強路四段32-2號","121.489035","25.0770016666667","6500200","三重區"
"241035","KEA-2210","2019/07/05 20:29:33","新北市三重區重新路二段60號","121.497963333333","25.06208","6500200","三重區"
"241004","475-VK","2019/07/05 20:29:32","新北市三重區溪尾街207號","121.488528333333","25.0807933333333","6500200","三重區"
"241020","478-VK","2019/07/05 20:29:27","新北市三重區忠孝路一段3號","121.492336666667","25.0717683333333","6500200","三重區"
"241026","480-VK","2019/07/05 20:29:29","新北市三重區福德南路24巷2-3號","121.503205","25.0632583333333","6500200","三重區"
"241014","543-UM","2019/07/05 20:29:37","新北市三重區長興街107號","121.50198","25.0691216666667","6500200","三重區"
"241019","KEA-2593","2019/07/05 20:29:23","新北市三重區大智街137-1號","121.490973333333","25.070685","6500200","三重區"
"241006","AAD-863","2019/07/05 20:29:28","新北市三重區車路頭街139巷14號","121.484281666667","25.0761883333333","6500200","三重區"
"241022","KED-0820","2019/07/05 20:29:43","新北市三重區中正北路20巷12號","121.48802","25.0626166666667","6500200","三重區"
"241025","887-TS","2019/07/05 20:29:30","新北市三重區頂崁街210巷27號","121.475733333333","25.06816","6500200","三重區"
"241012","941-UM","2019/07/05 20:29:43","新北市三重區龍門路258號","121.501143333333","25.0738416666667","6500200","三重區"
"241033","AAC-255","2019/07/05 20:29:42","新北市三重區五谷王北街80巷37號","121.475211666667","25.0531616666667","6500200","三重區"
"235055","183-VK","2019/07/05 20:29:30","新北市林口區太平里180號","121.368455","25.133995","6500300","中和區"
"235031","255-BX","2019/07/05 20:29:26","新北市八里區下罟子17號","121.382125","25.144195","6500300","中和區"
"247008","KED-0682","2019/07/05 20:29:32","新北市蘆洲區永安北路二段70-7號","121.483405","25.0842633333333","6501400","蘆洲區"
"235050","4979-A6","2019/07/05 20:29:39","新北市中和區景安路82巷8弄3號","121.50489","24.996555","6500300","中和區"
"235069","4980-A6","2019/07/05 20:29:32","新北市中和區中正路432巷36號","121.490825","24.99578","6500300","中和區"
"235026","800-TS","2019/07/05 20:10:28","新北市中和區員山路36巷16-3號","121.485073333333","24.9913233333333","6500300","中和區"
"235059","AAC-215","2019/07/05 20:29:33","新北市中和區員山路36巷13號","121.484345","24.9914433333333","6500300","中和區"
"247004","893-R6","2019/07/05 20:29:42","新北市蘆洲區長安街222號","121.458125","25.084925","6501400","蘆洲區"
"247018","546-UM","2019/07/05 20:29:32","新北市蘆洲區民族路314巷3弄13號","121.476991666667","25.0907066666667","6501400","蘆洲區"
"247014","500-BY","2019/07/05 20:29:35","新北市蘆洲區和平路70號","121.469955","25.0790933333333","6501400","蘆洲區"
"247024","337-TH","2019/07/05 20:29:30","新北市蘆洲區光復路70巷16號","121.464631666667","25.0851216666667","6501400","蘆洲區"
"247002","336-TH","2019/07/05 20:29:29","新北市蘆洲區長安街361巷26號","121.45603","25.0875433333333","6501400","蘆洲區"
"247022","057-VK","2019/07/05 20:29:31","新北市蘆洲區中正路221號","121.468175","25.0863766666667","6501400","蘆洲區"
"247012","056-VK","2019/07/05 20:29:42","新北市蘆洲區復興路267號","121.481035","25.09003","6501400","蘆洲區"
"247016","053-VK","2019/07/05 20:29:37","新北市蘆洲區光華路42號","121.468911666667","25.083115","6501400","蘆洲區"
"247006","002-UY","2019/07/05 20:29:29","新北市蘆洲區光華路175巷56號","121.46559","25.080905","6501400","蘆洲區"
"222001","KEA-2212","2019/07/05 20:29:31","新北市深坑區北深路三段329號","121.597228333333","25.00498","6501800","深坑區"
"251008","181-VK","2019/07/05 20:29:36","新北市淡水區淡海路210巷13號","121.421755","25.186155","6501000","淡水區"
"251010","413-VK","2019/07/05 20:29:37","新北市淡水區沙崙路181巷2號","121.424335","25.1840633333333","6501000","淡水區"
"251012","441-VK","2019/07/05 20:29:39","新北市淡水區頂田寮路109號","121.45817","25.216145","6501000","淡水區"
"251001","559-UM","2019/07/05 20:29:37","新北市淡水區新市一路三段8號","121.445065","25.1828666666667","6501000","淡水區"
"251006","561-UM","2019/07/05 20:29:39","新北市淡水區商工路393號","121.474323333333","25.18511","6501000","淡水區"
"251002","672-BX","2019/07/05 20:29:26","新北市淡水區中正路51號","121.441846666667","25.16952","6501000","淡水區"
"251003","766-UM","2019/07/05 20:29:39","新北市淡水區新生街92號","121.439635","25.1747316666667","6501000","淡水區"
"207004","225-TW","2019/07/05 20:28:34","新北市萬里區北基里忠四街20號","121.684518333333","25.17588","6502800","萬里區"
"252002","178-VK","2019/07/05 20:29:42","新北市三芝區淡金路二段47-2號","121.50369","25.26051","6502100","三芝區"
"252001","292-VK","2019/07/05 20:29:40","新北市三芝區中山路一段14號","121.500755","25.2579366666667","6502100","三芝區"
"220089","KED-0812","2019/07/05 20:29:34","新北市板橋區民生路二段161巷1號","121.469916666667","25.01989","6500100","板橋區"
"247010","KED-0683","2019/07/05 20:29:33","新北市蘆洲區民族路69號","121.479101666667","25.0858633333333","6501400","蘆洲區"
"242039","AAC-296","2019/07/05 20:29:40","新北市新莊區民安路234號","121.42622","25.0222366666667","6500500","新莊區"
"242060","986-R7","2019/07/05 20:29:33","新北市新莊區民安東路37號","121.42896","25.02101","6500500","新莊區"
"242002","751-BX","2019/07/05 20:29:39","新北市新莊區中正路育農巷1號","121.456938333333","25.0380466666667","6500500","新莊區"
"242029","615-BX","2019/07/05 20:29:25","新北市新莊區昌平街31巷9號","121.454256666667","25.0513883333333","6500500","新莊區"
"242027","613-BX","2019/07/05 20:29:41","新北市新莊區幸福路568號","121.454353333333","25.0493483333333","6500500","新莊區"
"242058","612-BX","2019/07/05 20:29:37","新北市新莊區四維路177號","121.422263333333","25.0213183333333","6500500","新莊區"
"242046","566-BX","2019/07/05 20:29:35","新北市新莊區裕民街90巷22號","121.417816666667","25.0238966666667","6500500","新莊區"
"242050","497-BY","2019/07/05 20:29:23","新北市新莊區西盛街280巷3-1號","121.427538333333","25.015215","6500500","新莊區"
"242056","441-UM","2019/07/05 20:29:44","新北市新莊區新莊路751巷91號","121.44278","25.0306416666667","6500500","新莊區"
"242005","440-UM","2019/07/05 20:29:36","新北市新莊區頭前路30號","121.467721666667","25.05244","6500500","新莊區"
"242041","415-TV","2019/07/05 20:29:39","新北市新莊區天祥街26-1號","121.417436666667","25.0277266666667","6500500","新莊區"
"242011","413-TV","2019/07/05 20:29:39","新北市新莊區中信街72號","121.448166666667","25.05226","6500500","新莊區"
"242048","400-BY","2019/07/05 20:29:26","新北市新莊區龍安路252-5號","121.4211","25.0191366666667","6500500","新莊區"
"242025","362-BY","2019/07/05 20:29:36","新北市新莊區五工三路62巷5號","121.459763333333","25.06468","6500500","新莊區"
"242023","353-BY","2019/07/05 20:29:32","新北市新莊區化成路537號","121.465098333333","25.0643716666667","6500500","新莊區"
"242013","132-UY","2019/07/05 20:29:27","新北市新莊區幸福路710巷5弄24號","121.449103333333","25.0501916666667","6500500","新莊區"
"242037","135-UY","2019/07/05 20:29:37","新北市新莊區後港一路46巷2號","121.426056666667","25.02607","6500500","新莊區"
"242054","172-VK","2019/07/05 20:29:37","新北市新莊區西盛街362巷14號","121.427268333333","25.0137016666667","6500500","新莊區"
"242015","173-VK","2019/07/05 20:29:38","新北市新莊區中平路46巷32號","121.446068333333","25.043825","6500500","新莊區"
"242021","175-VK","2019/07/05 20:29:38","新北市新莊區公園路72號","121.449836666667","25.0395183333333","6500500","新莊區"
"242044","176-VK","2019/07/05 20:29:27","新北市新莊區龍安路66-5號","121.414775","25.02135","6500500","新莊區"
"242019","KED-0687","2019/07/05 20:29:23","新北市新莊區民樂街76號","121.45794","25.043605","6500500","新莊區"
"242032","346-TH","2019/07/05 20:29:32","新北市新莊區三和路17-9號","121.439548333333","25.037395","6500500","新莊區"
"242034","348-TH","2019/07/05 20:29:37","新北市新莊區公園一路148號","121.446676666667","25.03831","6500500","新莊區"
"242007","349-TH","2019/07/05 20:29:27","新北市新莊區福壽街94巷3號","121.458523333333","25.0501083333333","6500500","新莊區"
"242009","350-TH","2019/07/05 20:29:34","新北市新莊區昌盛街81巷2弄2號","121.455531666667","25.050205","6500500","新莊區"
"242017","351-TH","2019/07/05 20:29:39","新北市新莊區中港二街46號","121.450483333333","25.045995","6500500","新莊區"
"221008","489-VK","2019/07/05 20:29:31","新北市汐止區康寧街261號","121.625296666667","25.0669883333333","6501100","汐止區"
"221036","130-UY","2019/07/05 20:29:37","新北市汐止區仁愛路151巷28號","121.663295","25.0654616666667","6501100","汐止區"
"221015","131-UY","2019/07/05 20:29:26","新北市汐止區建成路160巷16號","121.66185","25.07396","6501100","汐止區"
"221010","269-BY","2019/07/05 20:29:23","新北市汐止區八連路二段228巷1-1號","121.632638333333","25.097125","6501100","汐止區"
"221021","277-VK","2019/07/05 20:29:26","新北市汐止區長江街一段100巷1號","121.656423333333","25.0697966666667","6501100","汐止區"
"221012","278-VK","2019/07/05 20:29:29","新北市汐止區汐平路二段72號","121.699365","25.06067","6501100","汐止區"
"221023","279-VK","2019/07/05 20:29:45","新北市汐止區湖前街110巷2弄6號","121.631595","25.0716316666667","6501100","汐止區"
"221027","281-BY","2019/07/05 20:29:38","新北市汐止區中正路214號","121.658355","25.0689866666667","6501100","汐止區"
"221033","297-VK","2019/07/05 20:29:43","新北市汐止區林森街73巷9號","121.623606666667","25.0410966666667","6501100","汐止區"
"221029","298-VK","2019/07/05 20:29:27","新北市汐止區樟樹一路119巷10弄20號","121.640453333333","25.0648883333333","6501100","汐止區"
"221021","299-VK","2019/07/05 20:29:25","新北市汐止區水源路一段284號","121.654093333333","25.0582633333333","6501100","汐止區"
"221031","353-TW","2019/07/05 20:29:34","新北市汐止區中興路150巷13號","121.633035","25.065025","6501100","汐止區"
"221025","623-UM","2019/07/05 20:29:24","新北市汐止區水源路二段88巷1弄1號","121.656293333333","25.0558933333333","6501100","汐止區"
"221038","646-BX","2019/07/05 20:29:35","新北市汐止區水源路一段56號","121.65766","25.0657683333333","6501100","汐止區"
"221002","707-TV","2019/07/05 20:29:35","新北市汐止區原興路71號","121.632105","25.06568","6501100","汐止區"
"221018","753-BX","2019/07/05 20:29:28","新北市汐止區茄苳路225巷11弄28號","121.670761666667","25.0699133333333","6501100","汐止區"
"220101","245-BX","2019/07/05 20:29:34","新北市八里區中山路三段112號","121.386978333333","25.1460866666667","6500100","板橋區"
"220083","286-VK","2019/07/05 20:29:24","新北市板橋區大觀路一段38巷156弄150號","121.44412","25.0087583333333","6500100","板橋區"
"220081","287-VK","2019/07/05 20:29:24","新北市板橋區僑中二街124巷2號","121.445461666667","25.0056166666667","6500100","板橋區"
"220077","687-BX","2019/07/05 20:29:23","新北市樹林區太平路269號","121.419473333333","24.973055","6500100","板橋區"
