"lineid","car","time","location","longitude","latitude","cityid","cityname"
"231061","002-UM","2019/07/05 21:09:44","新北市新店區永平街26號","121.516476666667","24.9837766666667","6500600","新店區"
"231060","106-UY","2019/07/05 21:09:29","新北市新店區安康路三段131號","121.489913333333","24.95176","6500600","新店區"
"231051","107-UY","2019/07/05 21:09:27","新北市新店區中正路680巷51弄11號","121.535493333333","24.9895233333333","6500600","新店區"
"231065","110-UY","2019/07/05 21:09:34","新北市新店區安祥路69巷89弄5號","121.483261666667","24.9593166666667","6500600","新店區"
"231068","187-VK","2019/07/05 21:09:37","新北市新店區吉安街2-1號","121.517078333333","24.965645","6500600","新店區"
"221035","KEA-2785","2019/07/05 21:09:35","新北市汐止區汐萬路一段256巷1號","121.651786666667","25.0748566666667","6501100","汐止區"
"231054","260-TV","2019/07/05 21:09:35","新北市新店區環河路8號","121.53805","24.961665","6500600","新店區"
"231042","268-BY","2019/07/05 21:09:43","新北市新店區柴埕路47號","121.514138333333","24.96519","6500600","新店區"
"231064","278-BY","2019/07/05 21:09:22","新北市新店區薏仁坑路自強巷1號","121.496985","24.9579966666667","6500600","新店區"
"231050","AAD-862","2019/07/05 21:09:28","新北市新店區中華路83巷2弄2號","121.539063333333","24.9686483333333","6500600","新店區"
"231053","513-UM","2019/07/05 21:09:29","新北市新店區安光路30號","121.513716666667","24.9646616666667","6500600","新店區"
"231040","617-UM","2019/07/05 21:09:27","新北市新店區光明街306號","121.540553333333","24.9650083333333","6500600","新店區"
"231063","641-BX","2019/07/05 21:09:32","新北市新店區玫瑰路62巷2號","121.495716666667","24.9460416666667","6500600","新店區"
"231062","718-UY","2019/07/05 21:09:41","新北市新店區安康路二段382號","121.500465","24.9571333333333","6500600","新店區"
"231059","897-TW","2019/07/05 21:09:41","新北市新店區僑信路101號","121.500276666667","24.9468133333333","6500600","新店區"
"241011","013-R5","2019/07/05 21:09:33","新北市三重區龍濱路191號","121.501886666667","25.0713033333333","6500200","三重區"
"241028","022-UY","2019/07/05 21:09:43","新北市三重區正義南路87-1號","121.4985","25.0596966666667","6500200","三重區"
"241008","059-VK","2019/07/05 21:09:29","新北市三重區自強路一段64號","121.497196666667","25.0666183333333","6500200","三重區"
"241029","060-VK","2019/07/05 21:09:40","新北市三重區正義南路111號","121.498226666667","25.05855","6500200","三重區"
"241031","061-VK","2019/07/05 21:09:34","新北市三重區重新路五段426號","121.47526","25.0475016666667","6500200","三重區"
"241015","062-VK","2019/07/05 21:09:42","新北市三重區長元街75-2號","121.503155","25.06664","6500200","三重區"
"241017","063-VK","2019/07/05 21:09:23","新北市三重區大仁街27號","121.492345","25.0649216666667","6500200","三重區"
"241024","065-VK","2019/07/05 21:09:28","新北市三重區國道路一段58巷15號","121.481328333333","25.07206","6500200","三重區"
"241001","066-VK","2019/07/05 21:09:25","新北市三重區溪尾街56號","121.490448333333","25.077535","6500200","三重區"
"241002","090-VK","2019/07/05 21:09:34","新北市三重區五華街19-1號","121.494941666667","25.0805266666667","6500200","三重區"
"241003","091-VK","2019/07/05 21:09:32","新北市三重區仁義街230巷2號","121.494761666667","25.08502","6500200","三重區"
"241030","742-BX","2019/07/05 21:09:38","新北市三重區五谷王北街42巷10號","121.475378333333","25.0486166666667","6500200","三重區"
"241005","262-UM","2019/07/05 21:09:32","新北市三重區五華街180巷23號","121.488056666667","25.0858366666667","6500200","三重區"
"241016","266-UM","2019/07/05 21:09:33","新北市三重區信義西街138號","121.495558333333","25.064255","6500200","三重區"
"241018","268-UM","2019/07/05 21:09:29","新北市三重區正義北路332-1號","121.494406666667","25.0705366666667","6500200","三重區"
"241032","269-UM","2019/07/05 21:09:30","新北市三重區中興北街177號","121.469025","25.0559666666667","6500200","三重區"
"241013","270-UM","2019/07/05 21:09:34","新北市三重區仁愛街124號","121.495003333333","25.0747333333333","6500200","三重區"
"241023","271-UM","2019/07/05 21:09:41","新北市三重區洛陽街45巷20號","121.48237","25.0637883333333","6500200","三重區"
"241007","398-BY","2019/07/05 21:09:32","新北市三重區三和路四段145巷85號","121.486455","25.0786833333333","6500200","三重區"
"241004","475-VK","2019/07/05 21:09:32","新北市三重區仁愛街423-1號","121.490376666667","25.0814533333333","6500200","三重區"
"241026","480-VK","2019/07/05 21:09:29","新北市三重區中央南路141巷31弄12號","121.500481666667","25.0590333333333","6500200","三重區"
"241014","543-UM","2019/07/05 21:09:23","新北市三重區長安街82號","121.501385","25.0676133333333","6500200","三重區"
"241019","KEA-2593","2019/07/05 21:09:43","新北市三重區自強路二段74巷19號","121.488006666667","25.0698783333333","6500200","三重區"
"241006","AAD-863","2019/07/05 21:09:28","新北市三重區中正北路2號","121.489228333333","25.0632183333333","6500200","三重區"
"241022","KED-0820","2019/07/05 21:09:42","新北市三重區中正北路64巷24號","121.486011666667","25.0636216666667","6500200","三重區"
"241025","887-TS","2019/07/05 21:09:30","新北市三重區中正北路208巷10弄4號","121.48239","25.0669133333333","6500200","三重區"
"241012","941-UM","2019/07/05 21:09:43","新北市三重區龍門路229號","121.501686666667","25.073965","6500200","三重區"
"241033","AAC-255","2019/07/05 21:09:42","新北市三重區中興北街281-1號","121.46908","25.0622133333333","6500200","三重區"
"235055","183-VK","2019/07/05 21:09:30","新北市中和區員山路36巷13號","121.484256666667","24.9906633333333","6500300","中和區"
"235031","255-BX","2019/07/05 21:09:46","新北市中和區中正路831號","121.484723333333","25.0020783333333","6500300","中和區"
"247008","KED-0682","2019/07/05 21:09:39","新北市蘆洲區民生街74號","121.47298","25.0789716666667","6501400","蘆洲區"
"247004","893-R6","2019/07/05 21:09:42","新北市蘆洲區永安南路二段322號","121.45697","25.0826566666667","6501400","蘆洲區"
"247018","546-UM","2019/07/05 21:09:32","新北市蘆洲區民族路408巷13號","121.474933333333","25.09217","6501400","蘆洲區"
"247014","500-BY","2019/07/05 21:09:35","新北市蘆洲區中央路155號","121.47264","25.0846833333333","6501400","蘆洲區"
"247024","337-TH","2019/07/05 21:09:30","新北市蘆洲區長興路50巷1號","121.463735","25.0838283333333","6501400","蘆洲區"
"247002","336-TH","2019/07/05 21:09:29","新北市蘆洲區永樂街38巷40號","121.458586666667","25.0900816666667","6501400","蘆洲區"
"247022","057-VK","2019/07/05 21:09:31","新北市蘆洲區三民路229號","121.469436666667","25.0885766666667","6501400","蘆洲區"
"247012","056-VK","2019/07/05 21:09:42","新北市蘆洲區民族路10號","121.47572","25.083905","6501400","蘆洲區"
"247020","007-UY","2019/07/05 21:09:30","新北市蘆洲區民族路484號","121.471066666667","25.0913366666667","6501400","蘆洲區"
"247006","002-UY","2019/07/05 21:09:29","新北市蘆洲區九芎街15巷2號","121.468058333333","25.078265","6501400","蘆洲區"
"251004","009-UM","2019/07/05 21:09:25","新北市淡水區民族路33號","121.462225","25.1358433333333","6501000","淡水區"
"251008","181-VK","2019/07/05 21:09:36","新北市淡水區淡金路二段509號","121.446896666667","25.189795","6501000","淡水區"
"251010","413-VK","2019/07/05 21:09:37","新北市淡水區中正路一段63巷7弄2號","121.423091666667","25.177325","6501000","淡水區"
"251012","441-VK","2019/07/05 21:09:39","新北市淡水區淡金路五段172號","121.457096666667","25.2400366666667","6501000","淡水區"
"251005","443-VK","2019/07/05 21:09:26","新北市淡水區博愛街45號","121.446518333333","25.1693","6501000","淡水區"
"251001","559-UM","2019/07/05 21:09:36","新北市淡水區新市一路三段2號","121.444865","25.1827316666667","6501000","淡水區"
"251009","575-R6","2019/07/05 21:09:41","新北市淡水區民族路112巷57號","121.462118333333","25.134325","6501000","淡水區"
"251011","650-BX","2019/07/05 21:09:36","新北市淡水區新民街180巷33號","121.438008333333","25.179665","6501000","淡水區"
"251002","672-BX","2019/07/05 21:09:26","新北市淡水區水源街一段159號","121.447956666667","25.1716883333333","6501000","淡水區"
"251003","766-UM","2019/07/05 21:09:38","新北市淡水區新春街125巷2號","121.44175","25.1818966666667","6501000","淡水區"
"247010","KED-0683","2019/07/05 21:09:33","新北市蘆洲區三民路26巷35號","121.477266666667","25.0829766666667","6501400","蘆洲區"
"242025","362-BY","2019/07/05 21:09:31","新北市林口區太平里180號","121.366888333333","25.13498","6500500","新莊區"
"242013","132-UY","2019/07/05 21:09:27","新北市五股區新五路二段66號","121.437006666667","25.0723166666667","6500500","新莊區"
"242007","349-TH","2019/07/05 21:09:27","新北市五股區成泰路一段98巷77號","121.45146","25.0763366666667","6500500","新莊區"
"221021","277-VK","2019/07/05 21:09:26","新北市汐止區長江街一段100巷1號","121.656435","25.0698483333333","6501100","汐止區"
"220101","245-BX","2019/07/05 21:09:34","新北市板橋區民生路三段277號","121.464161666667","25.02995","6500100","板橋區"
