"lineid","car","time","location","longitude","latitude","cityid","cityname"
"231027","0293-UT","2019/07/05 21:45:32","新北市新店區安華路1-1號","121.519653333333","24.96048","6500600","新店區"
"251004","009-UM","2019/07/05 22:09:44","新北市淡水區民族路33號","121.462315","25.1358666666667","6501000","淡水區"
"251008","181-VK","2019/07/05 22:09:36","新北市淡水區學府路104號","121.449866666667","25.1717933333333","6501000","淡水區"
"251010","413-VK","2019/07/05 22:09:37","新北市淡水區沙崙路200號","121.42468","25.18388","6501000","淡水區"
"251007","442-VK","2019/07/05 22:09:43","新北市淡水區北新路180號","121.449458333333","25.1787633333333","6501000","淡水區"
"251005","443-VK","2019/07/05 22:09:26","新北市淡水區鄧公路19號","121.451451666667","25.16998","6501000","淡水區"
"251011","650-BX","2019/07/05 22:09:28","新北市淡水區水碓街7號","121.443166666667","25.1771516666667","6501000","淡水區"
