"lineid","car","time","location","longitude","latitude","cityid","cityname"
"234044","148-BY","2019/12/13 14:13:17","新北市永和區得和路293號","121.522743333333","24.99954","6500400","永和區"
"234078","298-R6","2019/12/13 14:13:13","新北市永和區國中路150號","121.52272","25.0068066666667","6500400","永和區"
"234036","336-UY","2019/12/13 14:13:09","新北市永和區成功路一段93巷23弄13號","121.528415","25.0033716666667","6500400","永和區"
"234062","337-UY","2019/12/13 14:13:17","新北市永和區得和路251號","121.52122","24.9999316666667","6500400","永和區"
"234084","338-UY","2019/12/13 14:13:13","新北市永和區中正路523號","121.516855","25.00756","6500400","永和區"
"234068","552-UM","2019/12/13 14:13:24","新北市永和區永亨路52號","121.520283333333","25.0062666666667","6500400","永和區"
"234015","745-BX","2019/12/13 14:13:11","新北市永和區仁愛路97號","121.512871666667","25.0130733333333","6500400","永和區"
"234028","746-BX","2019/12/13 14:13:29","新北市永和區民權路84號","121.519778333333","24.997","6500400","永和區"
"234052","KEA-2590","2019/12/13 14:13:23","新北市永和區永和路二段298號","121.516163333333","25.0158016666667","6500400","永和區"
"234005","KED-0605","2019/12/13 14:13:21","新北市永和區永貞路368號","121.510048333333","25.0067383333333","6500400","永和區"
"234012","KEA-2591","2019/12/13 14:13:10","新北市永和區保生路3號","121.506278333333","25.0072116666667","6500400","永和區"
"234060","AAD-866","2019/12/13 14:13:24","新北市永和區得和路51-4號","121.51681","25.0000633333333","6500400","永和區"
"234040","862-TW","2019/12/13 14:13:25","新北市永和區雙和街1號","121.509793333333","25.0015933333333","6500400","永和區"
"234048","863-TW","2019/12/13 14:13:09","新北市永和區新生路28巷16號","121.50836","25.0163533333333","6500400","永和區"
"234025","9371-KE","2019/12/13 14:13:28","新北市永和區安樂路198巷4弄2號","121.515551666667","25.002005","6500400","永和區"
"248019","KED-0813","2019/12/13 14:03:17","新北市五股區凌雲路三段57號","121.425296666667","25.1250016666667","6501500","五股區"
"234022","9380-KE","2019/12/13 14:13:22","新北市永和區竹林路25巷15號","121.517796666667","25.0149433333333","6500400","永和區"
"234076","969-R7","2019/12/13 14:13:17","新北市永和區民族街81巷1號","121.5186","24.9966633333333","6500400","永和區"
"234072","AAC-211","2019/12/13 14:13:21","新北市永和區豫溪街191巷7弄23號","121.523248333333","25.0109866666667","6500400","永和區"
"234066","AAC-212","2019/12/13 14:13:13","新北市永和區保平路268巷14號","121.507908333333","25.0060166666667","6500400","永和區"
"234001","AAC-295","2019/12/13 14:13:16","新北市永和區中正路609巷1號","121.516201666667","25.0094783333333","6500400","永和區"
"244004","248-BX","2019/12/13 14:13:08","新北市林口區南勢里33-3號","121.352125","25.0699283333333","6501700","林口區"
"244002","658-BX","2019/12/13 14:13:06","新北市林口區文化北路一段303號","121.365385","25.0776716666667","6501700","林口區"
"231030","002-UM","2019/12/13 14:13:22","新北市新店區安民街65巷21-2號","121.515163333333","24.9675383333333","6500600","新店區"
"231027","0293-UT","2019/12/13 14:13:11","新北市新店區中興路一段24-3號","121.538763333333","24.958195","6500600","新店區"
"231005","046-UY","2019/12/13 14:13:25","新北市新店區中興路三段219-1號","121.543426666667","24.982415","6500600","新店區"
"231029","106-UY","2019/12/13 14:13:24","新北市新店區安康路二段208號","121.510173333333","24.9594816666667","6500600","新店區"
"231018","107-UY","2019/12/13 14:13:27","新北市新店區中央五街44號","121.528191666667","24.975125","6500600","新店區"
"231013","108-UY","2019/12/13 14:13:12","新北市新店區大豐路12號","121.541218333333","24.98034","6500600","新店區"
"231036","110-UY","2019/12/13 14:13:13","新北市新店區安祥路109巷5號","121.475801666667","24.9589533333333","6500600","新店區"
"231016","KEA-2219","2019/12/13 14:13:13","新北市新店區中生路22巷10號","121.561593333333","24.952655","6500600","新店區"
"231032","256-BX","2019/12/13 14:13:13","新北市新店區太平路44號","121.532931666667","24.9593516666667","6500600","新店區"
"231023","260-TV","2019/12/13 14:13:08","新北市新店區北宜路一段39巷17號","121.538985","24.9580133333333","6500600","新店區"
"231003","268-BY","2019/12/13 14:13:13","新北市新店區中興路一段168號","121.542831666667","24.9643866666667","6500600","新店區"
"231035","278-BY","2019/12/13 14:13:22","新北市新店區安和路二段115號","121.518615","24.9704416666667","6500600","新店區"
"231006","355-BY","2019/12/13 14:13:25","新北市新店區北宜路二段269號","121.554706666667","24.9535566666667","6500600","新店區"
"231038","3712-VJ","2019/12/13 14:13:26","新北市新店區溪洲路55號","121.533575","24.9605933333333","6500600","新店區"
"231025","4715-K9","2019/12/13 14:13:14","新北市新店區民族路106號","121.538968333333","24.978015","6500600","新店區"
"231002","619-UM","2019/12/13 14:13:11","新北市新店區中正路500-1號","121.534126666667","24.9819166666667","6500600","新店區"
"231034","641-BX","2019/12/13 14:13:14","新北市新店區車子路11號","121.503085","24.9520866666667","6500600","新店區"
"231012","KED-0819","2019/12/13 14:13:11","新北市新店區五峰路63巷8弄5號","121.547206666667","24.96932","6500600","新店區"
"231022","718-UY","2019/12/13 14:13:28","新北市新店區頂石厝路20號","121.536875","24.9184883333333","6500600","新店區"
"231028","897-TW","2019/12/13 14:13:15","新北市新店區安興路141號","121.516676666667","24.9791716666667","6500600","新店區"
"231001","898-TW","2019/12/13 14:13:10","新北市新店區中華路68號","121.539155","24.9691","6500600","新店區"
"231004","899-TW","2019/12/13 14:13:22","新北市新店區北新路二段86號","121.542976666667","24.97293","6500600","新店區"
"231037","AKT-0513","2019/12/13 14:13:27","新北市新店區安康路二段341巷4號","121.496771666667","24.954995","6500600","新店區"
"235030","003-UY","2019/12/13 14:13:19","新北市中和區中和路102號","121.502705","24.999705","6500300","中和區"
"235028","005-UY","2019/12/13 14:13:08","新北市中和區南山路81巷53號","121.50393","24.998185","6500300","中和區"
"235027","006-UY","2019/12/13 14:13:22","新北市中和區連勝街128號","121.494383333333","24.9966283333333","6500300","中和區"
"235020","096-UM","2019/12/13 14:13:13","新北市中和區員山路511號","121.479851666667","25.0065533333333","6500300","中和區"
"235003","097-UM","2019/12/13 14:13:15","新北市中和區秀峰街103巷8弄12號","121.519725","24.989645","6500300","中和區"
"235029","098-UM","2019/12/13 14:13:15","新北市中和區中山路二段2巷13弄11號","121.503548333333","25.00651","6500300","中和區"
"235004","150-BY","2019/12/13 14:13:16","新北市中和區保健路106巷24號","121.511363333333","24.9947983333333","6500300","中和區"
"235022","151-BY","2019/12/13 14:13:15","新北市中和區中正路637巷52弄3號","121.485301666667","24.9936416666667","6500300","中和區"
"235019","183-VK","2019/12/13 14:13:23","新北市中和區中山路三段181巷30號","121.473031666667","25.0050216666667","6500300","中和區"
"235002","185-VK","2019/12/13 14:13:20","新北市中和區大仁街15號","121.51765","24.992845","6500300","中和區"
"235031","255-BX","2019/12/13 14:13:27","新北市中和區連城路308號","121.483703333333","24.99627","6500300","中和區"
"235008","293-VK","2019/12/13 14:13:12","新北市中和區中興街222-6號","121.500653333333","24.9896833333333","6500300","中和區"
"235036","301-VK","2019/12/13 14:13:25","新北市中和區莊敬路33巷20號","121.500163333333","25.0054616666667","6500300","中和區"
"235007","352-BY","2019/12/13 14:13:09","新北市中和區景平路296號","121.51295","24.9928716666667","6500300","中和區"
"235006","KEA-2878","2019/12/13 14:13:26","新北市中和區大勇街76號","121.518295","24.9947516666667","6500300","中和區"
"247015","KEA-2869","2019/12/13 14:13:14","新北市蘆洲區光華路70巷6號","121.467741666667","25.083285","6501400","蘆洲區"
"247009","KED-0682","2019/12/13 14:13:19","新北市蘆洲區信義路170號","121.479331666667","25.0838733333333","6501400","蘆洲區"
"235014","4979-A6","2019/12/13 14:13:08","新北市中和區復興路280巷18弄20號","121.501813333333","24.9923233333333","6500300","中和區"
"235033","4980-A6","2019/12/13 14:13:24","新北市中和區福祥路7號","121.499481666667","25.00303","6500300","中和區"
"235032","551-UM","2019/12/13 14:13:14","新北市中和區南山路27號","121.502051666667","24.9990783333333","6500300","中和區"
"235034","558-UM","2019/12/13 14:13:15","新北市中和區中山路二段211-1號","121.498806666667","25.00263","6500300","中和區"
"235009","565-BX","2019/12/13 14:13:26","新北市中和區景新街383巷55號","121.513623333333","24.9907033333333","6500300","中和區"
"235024","KED-0823","2019/12/13 14:13:18","新北市中和區中山路二段523巷41號","121.482216666667","25.0031733333333","6500300","中和區"
"235018","640-BX","2019/12/13 14:13:09","新北市中和區國光街104號","121.470146666667","25.0005233333333","6500300","中和區"
"235035","647-TV","2019/12/13 14:13:27","新北市中和區建一路18號","121.4879","25.0037583333333","6500300","中和區"
"235011","732-UM","2019/12/13 14:13:12","新北市中和區景平路239巷33弄46號","121.509965","24.9914033333333","6500300","中和區"
"235010","733-UM","2019/12/13 14:13:22","新北市中和區華新街115號","121.507323333333","24.982155","6500300","中和區"
"235026","800-TS","2019/12/13 14:13:11","新北市中和區中山路二段526巷17號","121.485813333333","25.005505","6500300","中和區"
"235021","801-TS","2019/12/13 14:13:14","新北市中和區中山路三段37巷25號","121.479351666667","25.0050233333333","6500300","中和區"
"235005","802-TS","2019/12/13 14:13:23","新北市中和區中安街202-1號","121.51191","24.99903","6500300","中和區"
"235016","805-TS","2019/12/13 14:13:14","新北市中和區興南路二段242巷16號","121.502471666667","24.98324","6500300","中和區"
"235012","896-TW","2019/12/13 14:13:07","新北市中和區華新街109巷26號","121.508506666667","24.9802916666667","6500300","中和區"
"235017","900-TW","2019/12/13 14:13:27","新北市中和區華安街17巷18號","121.467348333333","24.9982366666667","6500300","中和區"
"235015","157-BY","2019/12/13 14:13:22","新北市中和區興南路一段56巷36號","121.510456666667","24.991255","6500300","中和區"
"235001","AAC-213","2019/12/13 14:13:27","新北市中和區自立路15巷1號","121.522441666667","24.9961066666667","6500300","中和區"
"235023","AAC-215","2019/12/13 14:13:10","新北市中和區錦和路201號","121.49075","24.99046","6500300","中和區"
"220002","015-TV","2019/12/13 14:13:13","新北市板橋區四川路一段197號","121.460665","25.0037383333333","6500100","板橋區"
"220034","073-UY","2019/12/13 14:13:16","新北市板橋區中正路236巷78號","121.458151666667","25.0193666666667","6500100","板橋區"
"220105","075-UY","2019/12/13 14:13:21","新北市板橋區江寧路三段85巷14號","121.472303333333","25.0331583333333","6500100","板橋區"
"220017","AAD-861","2019/12/13 14:13:15","新北市板橋區大明街20巷29弄19號","121.457785","25.00345","6500100","板橋區"
"247005","893-R6","2019/12/13 14:13:16","新北市蘆洲區九芎街15巷12號","121.467935","25.0778666666667","6501400","蘆洲區"
"247019","546-UM","2019/12/13 14:13:21","新北市蘆洲區民族路426號","121.473573333333","25.0919066666667","6501400","蘆洲區"
"247021","341-TH","2019/12/13 14:13:17","新北市蘆洲區三民路246號","121.468011666667","25.0898783333333","6501400","蘆洲區"
"247003","336-TH","2019/12/13 14:13:18","新北市蘆洲區長安街174號","121.459073333333","25.083305","6501400","蘆洲區"
"247023","057-VK","2019/12/13 14:13:27","新北市蘆洲區長榮路500號","121.459475","25.0897166666667","6501400","蘆洲區"
"247013","056-VK","2019/12/13 14:13:23","新北市蘆洲區三民路34號","121.475548333333","25.0828416666667","6501400","蘆洲區"
"247017","053-VK","2019/12/13 14:13:08","新北市蘆洲區復興路178號","121.477818333333","25.088515","6501400","蘆洲區"
"247007","002-UY","2019/12/13 14:13:25","新北市蘆洲區中山一路257號","121.472866666667","25.0802183333333","6501400","蘆洲區"
"247001","001-UY","2019/12/13 14:13:20","新北市蘆洲區長榮路526號","121.459593333333","25.090285","6501400","蘆洲區"
"235013","251-BX","2019/12/13 14:13:26","新北市中和區景新街230巷2號","121.508141666667","24.9941383333333","6500300","中和區"
"207002","749-BX","2019/12/13 14:13:14","新北市萬里區溪底里溪底路21號","121.612998333333","25.1492683333333","6502800","萬里區"
"207001","662-BX","2019/12/13 14:13:15","新北市萬里區磺潭里清水18號","121.637821666667","25.197675","6502800","萬里區"
"236040","KED-0685","2019/12/13 14:13:23","新北市土城區裕生路84巷1號","121.44722","24.9852583333333","6501300","土城區"
"220110","KED-0812","2019/12/13 14:13:23","新北市板橋區公館街134號","121.461396666667","25.0184216666667","6500100","板橋區"
"236077","166-UM","2019/12/13 14:13:12","新北市土城區永安街117號","121.429511666667","24.96415","6501300","土城區"
"236029","253-BX","2019/12/13 14:13:08","新北市土城區員福街38號","121.440796666667","24.97892","6501300","土城區"
"236024","269-VK","2019/12/13 14:13:13","新北市土城區承天路67號","121.43952","24.963515","6501300","土城區"
"236013","270-VK","2019/12/13 14:13:13","新北市土城區青雲路39巷7號","121.460336666667","24.98759","6501300","土城區"
"236032","271-VK","2019/12/13 14:13:08","新北市土城區青雲路453號","121.458718333333","24.974675","6501300","土城區"
"247011","KED-0683","2019/12/13 14:13:15","","121.477606666667","25.08762","6501400","蘆洲區"
"236067","KEA-2877","2019/12/13 14:13:23","新北市土城區明德路一段128巷9號","121.463236666667","24.9789783333333","6501300","土城區"
"236016","401-BY","2019/12/13 14:13:23","新北市土城區明德路一段385-1號","121.45293","24.980295","6501300","土城區"
"236057","912-UM","2019/12/13 14:13:11","新北市土城區中央路四段270號","121.41466","24.9565883333333","6501300","土城區"
"236045","913-UM","2019/12/13 14:13:15","新北市土城區明德路一段365-1號","121.453551666667","24.9790766666667","6501300","土城區"
"236060","915-UM","2019/12/13 14:13:15","新北市土城區金城路三段202號","121.469076666667","24.98838","6501300","土城區"
"236054","AAC-216","2019/12/13 14:13:29","新北市土城區中華路二段92號","121.438238333333","24.97474","6501300","土城區"
"220027","145-BY","2019/12/13 14:13:29","新北市板橋區民權路202巷3弄2號","121.459768333333","25.0144066666667","6500100","板橋區"
"220028","200-UY","2019/12/13 14:13:25","新北市板橋區大觀路二段7巷66號","121.44929","25.00314","6500100","板橋區"
"220030","610-BX","2019/12/13 14:13:23","新北市板橋區滿平街60號","121.427183333333","24.989415","6500100","板橋區"
"220050","245-BX","2019/12/13 14:13:11","新北市板橋區縣民大道三段121巷32號","121.47653","25.0234516666667","6500100","板橋區"
"220040","267-BY","2019/12/13 14:13:20","新北市板橋區萬板路408號","121.478953333333","25.0253966666667","6500100","板橋區"
"220004","276-BY","2019/12/13 14:13:24","新北市板橋區信義路215號","121.459503333333","24.9914816666667","6500100","板橋區"
"220020","277-BY","2019/12/13 14:13:13","新北市板橋區金門街330號","121.428196666667","24.98472","6500100","板橋區"
"220037","280-UM","2019/12/13 14:12:27","新北市板橋區文化路二段182巷3弄60號","121.472755","25.0288266666667","6500100","板橋區"
"220043","283-UM","2019/12/13 14:13:17","新北市板橋區光武街110巷10弄1號","121.466361666667","25.0295533333333","6500100","板橋區"
"220019","283-VK","2019/12/13 14:13:24","新北市板橋區重慶路269巷31-3號","121.464271666667","24.9992216666667","6500100","板橋區"
"220001","285-VK","2019/12/13 14:13:21","新北市板橋區富山街53巷30號","121.47752","25.0210583333333","6500100","板橋區"
"220107","286-VK","2019/12/13 14:13:30","新北市板橋區大觀路二段174巷186弄4號","121.442496666667","25.0035733333333","6500100","板橋區"
"220029","287-VK","2019/12/13 14:13:26","新北市板橋區南雅西路一段110號","121.45304","25.0061633333333","6500100","板橋區"
"220039","288-VK","2019/12/13 14:13:21","新北市板橋區裕民街62號","121.461201666667","25.028555","6500100","板橋區"
"220009","293-UM","2019/12/13 14:13:21","新北市板橋區成功路6巷49號","121.476605","25.0175883333333","6500100","板橋區"
"220041","295-UM","2019/12/13 14:13:14","新北市板橋區光武街4巷25號","121.46827","25.0259616666667","6500100","板橋區"
"220032","296-UM","2019/12/13 14:13:23","新北市板橋區溪北路73巷5號","121.428351666667","24.989915","6500100","板橋區"
"220023","303-R5","2019/12/13 14:13:23","新北市板橋區府中路141-2號","121.455563333333","25.0095216666667","6500100","板橋區"
"220010","305-R5","2019/12/13 14:13:20","新北市板橋區三民路二段153巷36弄2號","121.481083333333","25.0141233333333","6500100","板橋區"
"220047","317-R6","2019/12/13 14:13:10","新北市板橋區四維路112巷33號","121.465266666667","25.025805","6500100","板橋區"
"220104","560-BX","2019/12/13 14:13:21","新北市板橋區新生街89巷38號","121.456575","25.0224866666667","6500100","板橋區"
"220052","561-BX","2019/12/13 14:13:28","新北市板橋區文化路一段270巷2號","121.467378333333","25.0204483333333","6500100","板橋區"
"220013","568-UM","2019/12/13 14:13:21","新北市板橋區海山路1-1號","121.469565","25.0092783333333","6500100","板橋區"
"220109","609-BX","2019/12/13 14:13:18","新北市板橋區三民路二段241號","121.479041666667","25.0125966666667","6500100","板橋區"
"220005","686-BX","2019/12/13 14:13:14","新北市板橋區五權街25號","121.46429","24.994305","6500100","板橋區"
"220025","687-BX","2019/12/13 14:13:11","新北市板橋區龍興街2號","121.442703333333","24.9994183333333","6500100","板橋區"
"220111","689-BX","2019/12/13 14:13:22","新北市板橋區新海路113號","121.46115","25.0227166666667","6500100","板橋區"
"220051","KEA-2699","2019/12/13 14:13:10","新北市板橋區松柏街15巷3-2號","121.47409","25.0299833333333","6500100","板橋區"
"220003","827-TW","2019/12/13 14:13:23","新北市板橋區新民街4巷8號","121.46452","25.01006","6500100","板橋區"
"220014","829-TW","2019/12/13 14:13:18","新北市板橋區長安街222-2號","121.475053333333","25.0123266666667","6500100","板橋區"
"220016","830-TW","2019/12/13 14:13:20","新北市板橋區三民路一段1巷39號","121.480291666667","25.0248766666667","6500100","板橋區"
"220022","895-R6","2019/12/13 14:13:24","新北市板橋區文昌街22號","121.45578","25.0107233333333","6500100","板橋區"
"220108","985-R7","2019/12/13 14:13:27","新北市板橋區中正路187號","121.456428333333","25.0168833333333","6500100","板橋區"
"220046","AAC-210","2019/12/13 14:13:17","新北市板橋區新海路135巷1號","121.460731666667","25.0233366666667","6500100","板橋區"
"220012","AAC-253","2019/12/13 14:13:23","新北市板橋區中山路一段85號","121.461526666667","25.0100516666667","6500100","板橋區"
"235025","KEA-2875","2019/12/13 14:13:02","新北市中和區民利街9巷2弄16號","121.480115","24.9987866666667","6500300","中和區"
