"lineid","car","time","location","longitude","latitude","cityid","cityname"
"249005","172-UM","2019/12/13 16:59:18","新北市八里區渡船頭1號","121.434176666667","25.152125","6502300","八里區"
"249001","173-UM","2019/12/13 16:59:17","新北市八里區下罟子1-11號","121.390068333333","25.1421716666667","6502300","八里區"
"249004","303-UY","2019/12/13 16:59:28","新北市八里區忠孝路460號","121.415065","25.16116","6502300","八里區"
"249002","305-UY","2019/12/13 16:59:27","新北市八里區牛寮埔22號","121.432613333333","25.14249","6502300","八里區"
"249003","593-UM","2019/12/13 16:59:31","新北市八里區中山路二段283號","121.401585","25.1486383333333","6502300","八里區"
"244007","080-UY","2019/12/13 16:59:19","新北市林口區中湖50-1號","121.383826666667","25.0910716666667","6501700","林口區"
"244017","485-VK","2019/12/13 16:59:25","新北市林口區粉寮69號","121.40508","25.09084","6501700","林口區"
"244025","837-TS","2019/12/13 16:59:17","新北市林口區粉寮路二段28號","121.402973333333","25.0863816666667","6501700","林口區"
"231046","719-UM","2019/12/13 16:59:17","新北市新店區灣潭路15-8號","121.540781666667","24.9388383333333","6500600","新店區"
"241011","013-R5","2019/12/13 16:59:23","新北市三重區仁愛街53巷76號","121.497996666667","25.0724716666667","6500200","三重區"
"241028","022-UY","2019/12/13 16:59:22","新北市三重區中正南路54號","121.494001666667","25.0598166666667","6500200","三重區"
"241008","059-VK","2019/12/13 16:59:17","新北市三重區永福街179巷28號","121.478003333333","25.0747516666667","6500200","三重區"
"241031","061-VK","2019/12/13 16:59:24","新北市三重區重新路三段115巷2號","121.490635","25.0599516666667","6500200","三重區"
"241015","062-VK","2019/12/13 16:59:29","新北市三重區中央北路102號","121.499996666667","25.0670866666667","6500200","三重區"
"241017","063-VK","2019/12/13 16:59:32","新北市三重區國隆路18號","121.492718333333","25.064055","6500200","三重區"
"241024","065-VK","2019/12/13 16:59:25","新北市三重區力行路二段7號","121.482105","25.0721083333333","6500200","三重區"
"241007","066-VK","2019/12/13 16:59:24","新北市三重區溪尾街126巷21號","121.488778333333","25.0792933333333","6500200","三重區"
"241002","090-VK","2019/12/13 16:59:13","新北市三重區仁義街225巷42號","121.497811666667","25.082985","6500200","三重區"
"241003","091-VK","2019/12/13 16:59:15","新北市三重區五華街141巷58號","121.493578333333","25.0867716666667","6500200","三重區"
"241026","742-BX","2019/12/13 16:59:13","新北市三重區光興街13號","121.500048333333","25.06033","6500200","三重區"
"241006","262-UM","2019/12/13 16:59:12","新北市三重區車路頭街143巷4號","121.484076666667","25.0766483333333","6500200","三重區"
"241016","266-UM","2019/12/13 16:59:15","新北市三重區國隆路12巷3號","121.49282","25.0637466666667","6500200","三重區"
"241009","267-UM","2019/12/13 16:59:29","新北市三重區仁美街108巷36號","121.484353333333","25.0803483333333","6500200","三重區"
"241018","268-UM","2019/12/13 16:59:21","新北市三重區民生東街6號","121.4927","25.0684","6500200","三重區"
"241032","269-UM","2019/12/13 16:59:11","新北市三重區新北大道一段35巷1號","121.486036666667","25.061015","6500200","三重區"
"241013","270-UM","2019/12/13 16:59:24","新北市三重區仁孝街62號","121.497306666667","25.0745466666667","6500200","三重區"
"241030","KED-0822","2019/12/13 16:59:13","新北市三重區成功路11號","121.490308333333","25.05034","6500200","三重區"
"241004","475-VK","2019/12/13 16:59:27","新北市三重區五華街106號","121.492533333333","25.082495","6500200","三重區"
"241020","478-VK","2019/12/13 16:59:29","新北市三重區國道路一段1號","121.486385","25.0734783333333","6500200","三重區"
"241014","543-UM","2019/12/13 16:59:19","新北市三重區介壽路189號","121.501423333333","25.0707183333333","6500200","三重區"
"241023","545-UM","2019/12/13 16:59:24","新北市三重區新北大道一段252號","121.479975","25.0616766666667","6500200","三重區"
"241001","547-UM","2019/12/13 16:59:31","新北市三重區仁愛街247號","121.493625","25.0780333333333","6500200","三重區"
"241019","KEA-2593","2019/12/13 16:59:26","新北市三重區三張街104號","121.487896666667","25.0699416666667","6500200","三重區"
"241005","AAD-863","2019/12/13 16:59:14","新北市三重區永安北路二段13巷21號","121.483025","25.081665","6500200","三重區"
"241012","743-BX","2019/12/13 16:59:19","新北市三重區仁興街10號","121.499535","25.07427","6500200","三重區"
"241022","KED-0820","2019/12/13 16:59:16","新北市三重區中華路121號","121.48359","25.0637733333333","6500200","三重區"
"241025","KED-0670","2019/12/13 16:59:27","新北市三重區中正北路508巷11號","121.472636666667","25.0710416666667","6500200","三重區"
"241029","942-UM","2019/12/13 16:59:23","新北市三重區中正南路252巷5號","121.49352","25.0524916666667","6500200","三重區"
"241033","AAC-255","2019/12/13 16:59:35","新北市三重區中興北街271號","121.469161666667","25.0605916666667","6500200","三重區"
"247016","KEA-2869","2019/12/13 16:59:20","新北市蘆洲區中正路67號","121.470276666667","25.0826283333333","6501400","蘆洲區"
"247010","KED-0682","2019/12/13 16:59:26","新北市蘆洲區信義路172號","121.479245","25.0839483333333","6501400","蘆洲區"
"247006","893-R6","2019/12/13 16:59:14","新北市蘆洲區長安街99巷20號","121.461045","25.0801283333333","6501400","蘆洲區"
"247020","546-UM","2019/12/13 16:59:26","新北市蘆洲區民族路422巷82弄2號","121.473618333333","25.0937166666667","6501400","蘆洲區"
"247022","341-TH","2019/12/13 16:59:25","新北市蘆洲區三民路128巷130號","121.468766666667","25.091895","6501400","蘆洲區"
"247004","336-TH","2019/12/13 16:59:19","新北市蘆洲區長安街108巷2號","121.461351666667","25.0817833333333","6501400","蘆洲區"
"247024","057-VK","2019/12/13 16:59:27","新北市蘆洲區長興路255號","121.460525","25.087525","6501400","蘆洲區"
"247014","056-VK","2019/12/13 16:59:30","新北市蘆洲區中山二路36巷8號","121.474445","25.0826816666667","6501400","蘆洲區"
"247018","053-VK","2019/12/13 16:59:23","新北市蘆洲區民族路227巷16號","121.47701","25.08925","6501400","蘆洲區"
"247008","002-UY","2019/12/13 16:59:32","新北市蘆洲區信義路52號","121.475201666667","25.0796333333333","6501400","蘆洲區"
"247002","001-UY","2019/12/13 16:59:14","新北市蘆洲區永平街1號","121.459165","25.09052","6501400","蘆洲區"
"228002","663-BX","2019/12/13 16:59:19","新北市貢寮區貢寮里朝陽街142號","121.905333333333","25.0232983333333","6502600","貢寮區"
"228003","828-UM","2019/12/13 16:59:30","新北市貢寮區福隆里興隆街13號","121.944603333333","25.0166","6502600","貢寮區"
"224006","676-BX","2019/12/13 16:59:21","新北市瑞芳區大寮路356-1號","121.784965","25.1031516666667","6501200","瑞芳區"
"224007","285-BY","2019/12/13 16:59:19","新北市瑞芳區粗坑口路3-1號","121.762095","25.0986","6501200","瑞芳區"
"224009","275-VK","2019/12/13 16:59:26","新北市瑞芳區明燈路一段1號","121.826558333333","25.10933","6501200","瑞芳區"
"224008","273-VK","2019/12/13 16:59:26","新北市瑞芳區明燈路二段2巷14號","121.814921666667","25.1086833333333","6501200","瑞芳區"
"224005","271-BY","2019/12/13 16:59:20","","121.901043333333","25.1202616666667","6501200","瑞芳區"
"227002","642-TC","2019/12/13 16:59:27","新北市雙溪區上林里內平林82-1號","121.828718333333","25.0279716666667","6502500","雙溪區"
"227001","400-TW","2019/12/13 16:59:30","新北市雙溪區三貂里定福路27號","121.85169","25.0743666666667","6502500","雙溪區"
"251004","009-UM","2019/12/13 16:59:26","新北市淡水區清水街58號","121.444011666667","25.1702533333333","6501000","淡水區"
"251005","010-UM","2019/12/13 16:59:28","新北市淡水區文化路63號","121.438218333333","25.1728183333333","6501000","淡水區"
"251008","181-VK","2019/12/13 16:59:31","新北市淡水區樹梅坑9號","121.472791666667","25.1426866666667","6501000","淡水區"
"251012","441-VK","2019/12/13 16:59:20","新北市淡水區中正路二段31號","121.419426666667","25.181625","6501000","淡水區"
"251007","442-VK","2019/12/13 16:59:28","新北市淡水區文化路65號","121.438071666667","25.17285","6501000","淡水區"
"251006","561-UM","2019/12/13 16:59:19","新北市淡水區中正東路8號","121.447933333333","25.1665883333333","6501000","淡水區"
"251009","575-R6","2019/12/13 16:59:27","新北市淡水區中正路二段31號","121.419545","25.1815233333333","6501000","淡水區"
"251011","650-BX","2019/12/13 16:59:15","新北市淡水區坪頂路50號","121.457901666667","25.1625166666667","6501000","淡水區"
"252001","292-VK","2019/12/13 16:59:28","新北市三芝區淡金路二段38-1號","121.502943333333","25.25996","6502100","三芝區"
"247012","KED-0683","2019/12/13 16:59:16","新北市蘆洲區民族路237號","121.477281666667","25.0900866666667","6501400","蘆洲區"
"252002","KED-0821","2019/12/13 16:59:21","新北市三芝區忠孝街116號","121.505936666667","25.2573333333333","6502100","三芝區"
"242060","986-R7","2019/12/13 16:59:25","新北市新莊區新泰路255巷83號","121.442271666667","25.03913","6500500","新莊區"
"242005","751-BX","2019/12/13 16:59:23","新北市新莊區三和路12-21號","121.442215","25.0385333333333","6500500","新莊區"
"242029","615-BX","2019/12/13 16:59:29","新北市新莊區三和路18-25號","121.441681666667","25.0393816666667","6500500","新莊區"
"242027","613-BX","2019/12/13 16:59:34","新北市新莊區新泰路255巷83號","121.44224","25.0390916666667","6500500","新莊區"
"242058","612-BX","2019/12/13 16:59:21","新北市新莊區新泰路357巷3弄57號","121.442178333333","25.039245","6500500","新莊區"
"242048","566-BX","2019/12/13 16:59:24","新北市新莊區三和路12-21號","121.442348333333","25.0381883333333","6500500","新莊區"
"242054","497-BY","2019/12/13 16:59:32","新北市新莊區新泰路357巷3弄57號","121.442321666667","25.0397466666667","6500500","新莊區"
"242041","442-UM","2019/12/13 16:59:14","新北市新莊區三和路12-21號","121.441986666667","25.038785","6500500","新莊區"
"242013","413-TV","2019/12/13 16:59:20","新北市新莊區新泰路357巷3弄57號","121.442045","25.039525","6500500","新莊區"
"242050","400-BY","2019/12/13 16:59:27","新北市新莊區新泰路357巷3弄57號","121.442178333333","25.0396166666667","6500500","新莊區"
"242025","362-BY","2019/12/13 16:59:16","新北市新莊區新泰路357巷3弄57號","121.441925","25.03898","6500500","新莊區"
"242032","175-VK","2019/12/13 16:59:29","新北市新莊區三和路12-21號","121.441995","25.038545","6500500","新莊區"
"242021","KED-0687","2019/12/13 16:59:19","新北市新莊區三和路12-21號","121.442356666667","25.0380166666667","6500500","新莊區"
"242007","346-TH","2019/12/13 16:59:17","新北市新莊區三和路12-21號","121.441988333333","25.0381233333333","6500500","新莊區"
"242034","350-TH","2019/12/13 16:59:26","新北市新莊區三和路12-21號","121.441968333333","25.0387816666667","6500500","新莊區"
"242019","351-TH","2019/12/13 16:59:23","新北市新莊區新泰路357巷3弄57號","121.44192","25.0394883333333","6500500","新莊區"
"238015","755-BX","2019/12/13 16:59:30","新北市樹林區育德街78-1號","121.387933333333","24.9679833333333","6500700","樹林區"
"238019","571-TV","2019/12/13 16:59:13","新北市樹林區育德街78號","121.38754","24.9683833333333","6500700","樹林區"
"238018","KEA-2217","2019/12/13 16:59:29","新北市樹林區育德街78-1號","121.38801","24.96803","6500700","樹林區"
"238017","283-BY","2019/12/13 16:59:27","新北市樹林區中洲街30巷13弄15號","121.398118333333","24.9718366666667","6500700","樹林區"
"238014","282-BY","2019/12/13 16:59:15","新北市樹林區佳園路一段94號","121.393351666667","24.9686083333333","6500700","樹林區"
"238020","268-VK","2019/12/13 16:59:23","新北市樹林區佳園路一段94號","121.39343","24.9686166666667","6500700","樹林區"
"239007","AAC-297","2019/12/13 16:59:30","新北市鶯歌區二甲路13-16號","121.345151666667","24.9351416666667","6500800","鶯歌區"
"239008","527-UM","2019/12/13 16:59:27","新北市鶯歌區二甲路13-16號","121.345171666667","24.9351","6500800","鶯歌區"
"239005","526-UM","2019/12/13 16:59:18","新北市鶯歌區二甲路13-16號","121.34532","24.9350466666667","6500800","鶯歌區"
"239001","417-VK","2019/12/13 16:59:25","新北市鶯歌區二甲路12-2號","121.345645","24.93506","6500800","鶯歌區"
"233001","KEA-2870","2019/12/13 16:59:27","新北市烏來區環山路35號","121.54929","24.863985","6502900","烏來區"
"242046","281-VK","2019/12/13 16:59:18","新北市新莊區三和路12-21號","121.442155","25.0382333333333","6500500","新莊區"
"242011","280-VK","2019/12/13 16:59:15","新北市新莊區三和路12-21號","121.442025","25.0383466666667","6500500","新莊區"
