"lineid","car","time","location","longitude","latitude","cityid","cityname"
"234007","KED-0605","2019/12/13 18:13:20","新北市永和區環河東路一段42號","121.518728333333","25.0172333333333","6500400","永和區"
"234026","9371-KE","2019/12/13 18:13:29","新北市永和區豫溪街28巷22號","121.514998333333","25.0089216666667","6500400","永和區"
"249005","172-UM","2019/12/13 18:13:17","新北市八里區荖阡坑路15-40號","121.40173","25.139845","6502300","八里區"
"249001","173-UM","2019/12/13 18:13:17","新北市八里區龍米路一段470號","121.450346666667","25.1348316666667","6502300","八里區"
"249004","303-UY","2019/12/13 18:13:33","新北市八里區龍米路二段202號","121.433481666667","25.1585483333333","6502300","八里區"
"249002","305-UY","2019/12/13 18:13:27","新北市八里區龍形一街2-1號","121.45073","25.1307166666667","6502300","八里區"
"248014","025-BX","2019/12/13 18:13:33","新北市五股區成泰路一段171巷12號","121.434548333333","25.074555","6501500","五股區"
"248016","026-BX","2019/12/13 18:13:16","新北市五股區成泰路三段221巷18號","121.44574","25.0934633333333","6501500","五股區"
"248006","077-UY","2019/12/13 18:13:36","新北市五股區中興路一段161號","121.464766666667","25.07374","6501500","五股區"
"248008","KED-0815","2019/12/13 18:13:36","新北市五股區中興路二段182巷15弄13號","121.457118333333","25.0812866666667","6501500","五股區"
"248018","KED-0813","2019/12/13 18:13:30","新北市五股區成泰路三段51-1號","121.442766666667","25.089525","6501500","五股區"
"248010","272-BY","2019/12/13 18:13:25","新北市五股區成泰路一段189巷32弄23號","121.433151666667","25.076695","6501500","五股區"
"248004","677-BX","2019/12/13 18:13:20","新北市五股區成泰路二段156號","121.438315","25.0841016666667","6501500","五股區"
"232011","375-UM","2019/12/13 18:13:16","新北市坪林區下坑子口5-9號","121.713218333333","24.9425583333333","6502000","坪林區"
"244007","080-UY","2019/12/13 18:13:19","新北市林口區林口路126號","121.388406666667","25.0817016666667","6501700","林口區"
"244013","KEA-2802","2019/12/13 18:13:30","新北市林口區佳林路101巷34號","121.386911666667","25.0799383333333","6501700","林口區"
"244023","483-VK","2019/12/13 18:13:33","新北市林口區東湖路153巷121號","121.382413333333","25.0729266666667","6501700","林口區"
"244017","485-VK","2019/12/13 18:13:25","新北市林口區文化一路一段43號","121.371043333333","25.0697666666667","6501700","林口區"
"244009","657-BX","2019/12/13 18:13:18","新北市林口區福林路113號","121.377901666667","25.0891733333333","6501700","林口區"
"244011","701-TV","2019/12/13 18:13:35","新北市林口區新寮1-61號","121.39281","25.076415","6501700","林口區"
"244025","837-TS","2019/12/13 18:13:17","新北市林口區文化北路一段299巷17-10號","121.359551666667","25.0730316666667","6501700","林口區"
"244021","838-TS","2019/12/13 18:13:14","新北市林口區自強一街54號","121.39952","25.0772933333333","6501700","林口區"
"208001","267-VK","2019/12/13 18:13:31","新北市金山區中山路90-1號","121.64177","25.21877","6502700","金山區"
"243013","646-TV","2019/12/13 18:13:19","新北市泰山區南林路99巷23號","121.418118333333","25.0500133333333","6501600","泰山區"
"222003","436-BY","2019/12/13 18:13:31","新北市深坑區文山路二段3號","121.623085","25.0003833333333","6501800","深坑區"
"222002","659-BX","2019/12/13 18:13:18","新北市深坑區文化街13號","121.620325","25.0012916666667","6501800","深坑區"
"231060","106-UY","2019/12/13 18:13:31","新北市新店區安華路28-1號","121.519783333333","24.960835","6500600","新店區"
"231065","110-UY","2019/12/13 18:13:30","新北市新店區安一路一段1-1號","121.519376666667","24.961105","6500600","新店區"
"221031","KEA-2785","2019/12/13 18:13:32","新北市汐止區中興路181巷14弄10號","121.629888333333","25.0667666666667","6501100","汐止區"
"231054","260-TV","2019/12/13 18:13:30","新北市新店區安一路一段1-1號","121.519338333333","24.961255","6500600","新店區"
"231042","268-BY","2019/12/13 18:13:23","新北市新店區安一路一段1-1號","121.519715","24.96132","6500600","新店區"
"231064","278-BY","2019/12/13 18:13:25","新北市新店區安一路一段1-1號","121.519565","24.9610916666667","6500600","新店區"
"231045","355-BY","2019/12/13 18:13:17","新北市新店區安華路28-1號","121.519301666667","24.9609583333333","6500600","新店區"
"231055","4716-K9","2019/12/13 18:13:20","新北市新店區安華路28-1號","121.519651666667","24.960725","6500600","新店區"
"231056","4715-K9","2019/12/13 18:13:28","新北市新店區安康路一段9-2號","121.53367","24.960545","6500600","新店區"
"231063","641-BX","2019/12/13 18:13:20","新北市新店區安華路1-1號","121.519488333333","24.9604883333333","6500600","新店區"
"231048","KED-0819","2019/12/13 18:13:23","新北市新店區安一路一段1-1號","121.519613333333","24.9612216666667","6500600","新店區"
"231046","719-UM","2019/12/13 18:13:17","新北市新店區直潭七街60號","121.532256666667","24.939925","6500600","新店區"
"231057","720-UM","2019/12/13 18:13:13","新北市新店區安一路一段1-1號","121.51933","24.9611783333333","6500600","新店區"
"231040","898-TW","2019/12/13 18:13:16","新北市新店區安華路28-1號","121.519333333333","24.96086","6500600","新店區"
"231043","899-TW","2019/12/13 18:05:50","新北市新店區安華路28-1號","121.51907","24.960905","6500600","新店區"
"231066","AKT-0513","2019/12/13 18:13:17","新北市新店區安華路1-1號","121.519403333333","24.9604916666667","6500600","新店區"
"235064","005-UY","2019/12/13 18:13:33","新北市中和區中正路140號","121.499371666667","24.99374","6500300","中和區"
"235063","006-UY","2019/12/13 18:13:18","新北市中和區中正路589巷3號","121.48589","24.9942033333333","6500300","中和區"
"235056","096-UM","2019/12/13 18:13:15","新北市中和區新生街276號","121.483721666667","24.9968966666667","6500300","中和區"
"235039","097-UM","2019/12/13 18:13:23","新北市中和區中正路395號","121.489581666667","24.993535","6500300","中和區"
"235065","098-UM","2019/12/13 18:13:32","新北市中和區莊敬路49巷18號","121.501625","25.0061516666667","6500300","中和區"
"235040","150-BY","2019/12/13 18:13:19","新北市中和區中正路395號","121.489843333333","24.9935583333333","6500300","中和區"
"235058","151-BY","2019/12/13 18:13:27","新北市中和區圓通路367巷60-2號","121.492125","24.9838083333333","6500300","中和區"
"235055","183-VK","2019/12/13 18:13:20","新北市中和區新生街283號","121.483775","24.9976183333333","6500300","中和區"
"235038","185-VK","2019/12/13 18:13:29","新北市中和區大智街29號","121.520273333333","24.9919916666667","6500300","中和區"
"235072","301-VK","2019/12/13 18:13:26","新北市中和區錦和路216號","121.490405","24.9941683333333","6500300","中和區"
"235043","352-BY","2019/12/13 18:13:23","新北市中和區中正路169號","121.498018333333","24.9937233333333","6500300","中和區"
"235042","KEA-2878","2019/12/13 18:13:21","新北市中和區景平路159巷33號","121.513051666667","24.9910066666667","6500300","中和區"
"235050","4979-A6","2019/12/13 18:13:32","新北市中和區錦和路350-1號","121.49084","24.9935566666667","6500300","中和區"
"235069","4980-A6","2019/12/13 18:13:13","新北市中和區建八路28-1號","121.487208333333","24.998615","6500300","中和區"
"235070","558-UM","2019/12/13 18:13:25","新北市中和區錦和路350-1號","121.490036666667","24.9935383333333","6500300","中和區"
"235045","565-BX","2019/12/13 18:13:14","新北市中和區景安路200巷6弄2號","121.503325","24.991685","6500300","中和區"
"235060","KED-0823","2019/12/13 18:13:16","新北市中和區員山路198號","121.481335","25.0005366666667","6500300","中和區"
"235054","640-BX","2019/12/13 18:13:31","新北市中和區民享街91-12號","121.474663333333","25.00073","6500300","中和區"
"235047","732-UM","2019/12/13 18:13:34","新北市中和區中正路748號","121.485376666667","24.9984616666667","6500300","中和區"
"235062","800-TS","2019/12/13 18:13:17","新北市中和區中山路二段312巷47號","121.495055","25.0042266666667","6500300","中和區"
"235057","801-TS","2019/12/13 18:13:25","新北市中和區民享街97巷19號","121.475381666667","24.999565","6500300","中和區"
"235052","805-TS","2019/12/13 18:13:17","新北市中和區中正路13號","121.503035","24.9934483333333","6500300","中和區"
"235051","157-BY","2019/12/13 18:13:26","新北市中和區捷運路58-3號","121.507466666667","24.990685","6500300","中和區"
"235037","AAC-213","2019/12/13 18:13:16","新北市中和區景平路151巷47號","121.514838333333","24.990345","6500300","中和區"
"235059","AAC-215","2019/12/13 18:13:13","新北市中和區員山路36巷16-3號","121.485106666667","24.99122","6500300","中和區"
"207004","KEE-1107","2019/12/13 18:13:13","新北市萬里區中幅里中福路168號","121.674133333333","25.1663233333333","6502800","萬里區"
"226004","312-R5","2019/12/13 18:13:15","新北市平溪區薯榔里薯榔寮28號","121.713556666667","25.0194466666667","6502400","平溪區"
"235049","251-BX","2019/12/13 18:13:27","新北市中和區員山路36巷13號","121.484181666667","24.99091","6500300","中和區"
"228002","663-BX","2019/12/13 18:13:18","新北市貢寮區福連里馬崗街25-1號","122.002733333333","25.013745","6502600","貢寮區"
"228001","670-TC","2019/12/13 18:13:12","新北市貢寮區真理里新港街26巷55弄2-1號","121.92743","25.0528833333333","6502600","貢寮區"
"228003","828-UM","2019/12/13 18:13:13","新北市貢寮區真理里美艷山街22-2號","121.927101666667","25.0647833333333","6502600","貢寮區"
"224006","676-BX","2019/12/13 18:13:21","新北市瑞芳區三爪子坑路124號","121.805991666667","25.1055633333333","6501200","瑞芳區"
"224009","275-VK","2019/12/13 18:13:26","新北市瑞芳區新山路43號","121.855958333333","25.10827","6501200","瑞芳區"
"224008","273-VK","2019/12/13 18:13:26","新北市瑞芳區三爪子坑路303-2號","121.818436666667","25.1055616666667","6501200","瑞芳區"
"224005","271-BY","2019/12/13 18:13:20","新北市瑞芳區建基路二段59號","121.806558333333","25.1336583333333","6501200","瑞芳區"
"227002","642-TC","2019/12/13 18:13:19","新北市雙溪區雙溪里太平路1號","121.863863333333","25.03506","6502500","雙溪區"
"227001","400-TW","2019/12/13 18:13:30","新北市雙溪區三貂里政光路4號","121.852168333333","25.062555","6502500","雙溪區"
"253005","032-BX","2019/12/13 18:13:22","新北市石門區中央路35號","121.568023333333","25.2942133333333","6502200","石門區"
"253006","295-VK","2019/12/13 18:13:30","新北市石門區老梅路52巷21號","121.54641","25.288575","6502200","石門區"
"222001","KEA-2212","2019/12/13 18:13:30","新北市深坑區北深路二段104號","121.61692","25.0032733333333","6501800","深坑區"
"208002","KEA-2872","2019/12/13 18:13:25","新北市金山區海興路35號","121.629221666667","25.236395","6502700","金山區"
"208003","665-BX","2019/12/13 18:13:16","新北市金山區民生路124號","121.647593333333","25.2237516666667","6502700","金山區"
"251004","009-UM","2019/12/13 18:13:26","新北市淡水區民族路110巷6號","121.462201666667","25.1354533333333","6501000","淡水區"
"251005","010-UM","2019/12/13 18:13:28","新北市淡水區水源街一段120號","121.447251666667","25.171815","6501000","淡水區"
"251001","011-UM","2019/12/13 18:13:29","新北市淡水區自立路6-2號","121.462546666667","25.129365","6501000","淡水區"
"251008","181-VK","2019/12/13 18:13:31","新北市淡水區淡金路6號","121.457493333333","25.159255","6501000","淡水區"
"251010","413-VK","2019/12/13 18:13:19","新北市淡水區中正路二段52號","121.419386666667","25.1833","6501000","淡水區"
"251012","441-VK","2019/12/13 18:13:20","新北市淡水區泉洲厝19號","121.49025","25.1907833333333","6501000","淡水區"
"251006","561-UM","2019/12/13 18:13:19","新北市淡水區新民街74號","121.438785","25.17645","6501000","淡水區"
"251011","650-BX","2019/12/13 18:13:35","新北市淡水區坪頂路755巷1號","121.482905","25.15821","6501000","淡水區"
"251002","672-BX","2019/12/13 18:13:32","新北市淡水區中正東路一段97號","121.453101666667","25.1613633333333","6501000","淡水區"
"251003","766-UM","2019/12/13 18:13:28","新北市淡水區北新路182巷58號","121.44826","25.1776033333333","6501000","淡水區"
"252001","292-VK","2019/12/13 18:13:28","新北市三芝區中興街二段2號","121.498358333333","25.2565716666667","6502100","三芝區"
"237004","KEA-2597","2019/12/13 18:13:25","新北市三峽區大埔1-3號","121.374743333333","24.8904733333333","6500900","三峽區"
"237007","153-BY","2019/12/13 18:13:20","新北市三峽區中正路二段416-1號","121.364973333333","24.908085","6500900","三峽區"
"237009","210-TH","2019/12/13 18:13:12","新北市三峽區大仁路6號","121.36679","24.9376533333333","6500900","三峽區"
"237013","252-BX","2019/12/13 18:13:20","新北市三峽區長泰街20號","121.378763333333","24.931785","6500900","三峽區"
"237012","275-BY","2019/12/13 18:13:22","新北市三峽區民生街1巷5-18號","121.37872","24.9359416666667","6500900","三峽區"
"237008","302-VK","2019/12/13 18:13:15","新北市三峽區白雞68-85號","121.392638333333","24.90864","6500900","三峽區"
"237014","433-BY","2019/12/13 18:13:33","新北市三峽區復興路110巷3弄23號","121.372373333333","24.93875","6500900","三峽區"
"237006","5529-G3","2019/12/13 18:13:26","新北市三峽區溪東路235號","121.406603333333","24.9325916666667","6500900","三峽區"
"237011","KEA-2596","2019/12/13 18:13:30","新北市三峽區介壽路一段233號","121.3792","24.930325","6500900","三峽區"
"237015","649-BX","2019/12/13 18:13:23","新北市三峽區紫新路25巷6號","121.422746666667","24.9212633333333","6500900","三峽區"
"237010","706-TV","2019/12/13 18:13:32","新北市三峽區民族街32號","121.369346666667","24.9308766666667","6500900","三峽區"
"237005","AKY-6261","2019/12/13 18:13:29","新北市三峽區秀川街26巷3號","121.371538333333","24.93428","6500900","三峽區"
"236042","KED-0685","2019/12/13 18:13:21","新北市土城區裕生路65-1號","121.447426666667","24.985435","6501300","土城區"
"236079","166-UM","2019/12/13 18:13:30","新北市土城區永安街38號","121.433356666667","24.9645683333333","6501300","土城區"
"236030","253-BX","2019/12/13 18:13:18","新北市土城區員福街20號","121.441521666667","24.9785933333333","6501300","土城區"
"236026","269-VK","2019/12/13 18:13:29","新北市土城區承天路18號","121.4395","24.9633483333333","6501300","土城區"
"236014","270-VK","2019/12/13 18:13:16","新北市土城區青雲路39巷7號","121.460266666667","24.9874133333333","6501300","土城區"
"236039","271-VK","2019/12/13 18:13:24","新北市土城區青雲路449號","121.458781666667","24.9748616666667","6501300","土城區"
"236069","KEA-2877","2019/12/13 18:13:27","新北市土城區明德路一段128巷9號","121.463245","24.979015","6501300","土城區"
"252002","KED-0821","2019/12/13 18:13:21","新北市三芝區中山路二段38號","121.503033333333","25.2551616666667","6502100","三芝區"
"236020","401-BY","2019/12/13 18:13:23","新北市土城區金城路一段112號","121.446535","24.97587","6501300","土城區"
"236059","912-UM","2019/12/13 18:13:26","新北市土城區中央路四段199號","121.414626666667","24.956525","6501300","土城區"
"236048","913-UM","2019/12/13 18:13:20","新北市土城區明德路一段365-1號","121.45357","24.9790316666667","6501300","土城區"
"236063","915-UM","2019/12/13 18:13:35","新北市土城區金城路二段354巷4號","121.460653333333","24.9848466666667","6501300","土城區"
"236055","AAC-216","2019/12/13 18:13:33","新北市土城區中華路二段92號","121.438263333333","24.9746983333333","6501300","土城區"
"242060","986-R7","2019/12/13 18:13:25","新北市新莊區新樹路479號","121.432713333333","25.01268","6500500","新莊區"
"242005","751-BX","2019/12/13 18:13:23","新北市新莊區中華路二段13號","121.453813333333","25.0456483333333","6500500","新莊區"
"242029","615-BX","2019/12/13 18:13:29","新北市新莊區中平路202號","121.444878333333","25.0487816666667","6500500","新莊區"
"242027","613-BX","2019/12/13 18:13:34","新北市新莊區幸福路677號","121.450503333333","25.0492","6500500","新莊區"
"242058","612-BX","2019/12/13 18:13:21","新北市新莊區壽山路47號","121.414376666667","25.0308966666667","6500500","新莊區"
"242048","566-BX","2019/12/13 18:13:24","新北市新莊區民安路98巷5號","121.423581666667","25.0256783333333","6500500","新莊區"
"242054","497-BY","2019/12/13 18:13:32","新北市新莊區民安西路375號","121.428673333333","25.010265","6500500","新莊區"
"242041","442-UM","2019/12/13 18:13:27","新北市新莊區天祥街135巷8弄1號","121.413581666667","25.0292816666667","6500500","新莊區"
"242044","415-TV","2019/12/13 18:13:30","新北市新莊區中正路726-13號","121.415315","25.0237916666667","6500500","新莊區"
"242050","400-BY","2019/12/13 18:13:29","新北市新莊區民本街11巷26號","121.428915","25.0202283333333","6500500","新莊區"
"242025","362-BY","2019/12/13 18:13:16","新北市新莊區五工路58號","121.458841666667","25.0627633333333","6500500","新莊區"
"242015","132-UY","2019/12/13 18:13:22","新北市新莊區中平路152巷41號","121.446495","25.0474066666667","6500500","新莊區"
"242056","172-VK","2019/12/13 18:13:29","新北市新莊區豐年街豐2巷15號","121.447213333333","25.0308116666667","6500500","新莊區"
"242032","175-VK","2019/12/13 18:13:29","新北市新莊區新泰路277巷8號","121.445191666667","25.0403316666667","6500500","新莊區"
"242021","KED-0687","2019/12/13 18:13:19","新北市新莊區新興街27巷2號","121.45071","25.0373983333333","6500500","新莊區"
"242007","346-TH","2019/12/13 18:13:25","新北市新莊區自立街77號","121.454381666667","25.04544","6500500","新莊區"
"242002","347-TH","2019/12/13 18:13:21","新北市新莊區新莊路50號","121.457981666667","25.03686","6500500","新莊區"
"242037","348-TH","2019/12/13 18:13:24","新北市新莊區後港一路49巷3弄11號","121.425108333333","25.0267033333333","6500500","新莊區"
"242009","349-TH","2019/12/13 18:13:28","新北市新莊區昌平街71巷13號","121.45365","25.05341","6500500","新莊區"
"242034","350-TH","2019/12/13 18:13:25","新北市新莊區瓊林路38-2號","121.448573333333","25.030695","6500500","新莊區"
"242019","351-TH","2019/12/13 18:13:23","新北市新莊區公園路216號","121.45579","25.0405116666667","6500500","新莊區"
"238015","755-BX","2019/12/13 18:13:29","新北市樹林區大安路323巷10弄11號","121.417256666667","24.9909316666667","6500700","樹林區"
"238023","601-UM","2019/12/13 18:13:22","新北市樹林區忠義街18號","121.409508333333","25.014285","6500700","樹林區"
"238019","571-TV","2019/12/13 18:13:33","新北市樹林區水源街38號","121.425531666667","24.981435","6500700","樹林區"
"238018","KEA-2217","2019/12/13 18:13:28","新北市板橋區溪北路1-1號","121.426668333333","24.99086","6500700","樹林區"
"238025","303-VK","2019/12/13 18:13:26","新北市樹林區保安二街二段6-9號","121.415841666667","25.00119","6500700","樹林區"
"238017","283-BY","2019/12/13 18:13:28","新北市樹林區中正路648號","121.409765","25.016315","6500700","樹林區"
"238014","282-BY","2019/12/13 18:13:15","新北市樹林區大安路111巷25號","121.42316","24.9976433333333","6500700","樹林區"
"238020","268-VK","2019/12/13 18:13:27","新北市樹林區三龍街115號","121.417476666667","25.0182766666667","6500700","樹林區"
"238026","172-UY","2019/12/13 18:13:25","新北市樹林區育德街57號","121.391353333333","24.9701666666667","6500700","樹林區"
"238016","169-UY","2019/12/13 18:13:19","新北市樹林區復興路339號","121.417736666667","24.98778","6500700","樹林區"
"239007","AAC-297","2019/12/13 18:13:30","新北市鶯歌區育英街53號","121.347105","24.9526783333333","6500800","鶯歌區"
"239006","891-R6","2019/12/13 18:13:18","新北市鶯歌區鶯桃路381巷2弄21號","121.332776666667","24.96399","6500800","鶯歌區"
"239008","527-UM","2019/12/13 18:13:27","新北市鶯歌區欣欣街3號","121.336223333333","24.9779166666667","6500800","鶯歌區"
"239005","526-UM","2019/12/13 18:13:18","新北市鶯歌區鶯桃路668巷73號","121.329945","24.97179","6500800","鶯歌區"
"239001","417-VK","2019/12/13 18:13:25","新北市鶯歌區中正三路106-1號","121.338033333333","24.9408566666667","6500800","鶯歌區"
"239003","360-BY","2019/12/13 18:13:30","新北市鶯歌區鶯桃路390號","121.333755","24.96358","6500800","鶯歌區"
"239002","359-BY","2019/12/13 18:13:05","新北市鶯歌區中山路78號","121.351341666667","24.9571333333333","6500800","鶯歌區"
"239004","193-VK","2019/12/13 18:13:30","新北市鶯歌區尖山路88號","121.34865","24.9494866666667","6500800","鶯歌區"
"221008","489-VK","2019/12/13 18:13:19","新北市汐止區康寧街315號","121.627041666667","25.067935","6501100","汐止區"
"221036","130-UY","2019/12/13 18:13:30","新北市汐止區大同路三段116號","121.672053333333","25.0767416666667","6501100","汐止區"
"221015","131-UY","2019/12/13 18:13:26","新北市汐止區長江街341號","121.667026666667","25.0819183333333","6501100","汐止區"
"244019","KED-0667","2019/12/13 18:13:22","新北市林口區文化一路一段100巷10弄1號","121.373868333333","25.070775","6501700","林口區"
"221010","269-BY","2019/12/13 18:13:23","新北市汐止區汐萬路二段275巷3弄1號","121.64529","25.08875","6501100","汐止區"
"221018","277-VK","2019/12/13 18:13:26","新北市汐止區忠孝東路384號","121.665553333333","25.0701333333333","6501100","汐止區"
"221012","278-VK","2019/12/13 18:13:13","新北市汐止區長興街二段50巷46號","121.675311666667","25.080805","6501100","汐止區"
"221023","279-VK","2019/12/13 18:13:24","新北市汐止區民族五街77號","121.627666666667","25.0700083333333","6501100","汐止區"
"221032","280-BY","2019/12/13 18:13:25","新北市汐止區橫科路73巷22-2號","121.619311666667","25.0514783333333","6501100","汐止區"
"221027","281-BY","2019/12/13 18:13:26","新北市汐止區和平街6巷8-1號","121.663446666667","25.0715066666667","6501100","汐止區"
"221029","298-VK","2019/12/13 18:13:15","新北市汐止區樟樹二路320號","121.641401666667","25.0700033333333","6501100","汐止區"
"221021","299-VK","2019/12/13 18:13:32","新北市汐止區龍安路16號","121.655831666667","25.064305","6501100","汐止區"
"207003","KEE-1020","2019/12/13 18:13:31","新北市萬里區港東路野柳風景區攤販66號","121.691271666667","25.2058033333333","6502800","萬里區"
"221025","567-BX","2019/12/13 18:13:31","新北市汐止區秀峰路149號","121.660641666667","25.062095","6501100","汐止區"
"221035","622-UM","2019/12/13 18:13:20","新北市汐止區新江北路30巷15號","121.652401666667","25.06956","6501100","汐止區"
"221038","646-BX","2019/12/13 18:13:14","新北市汐止區秀峰路139號","121.660311666667","25.0624366666667","6501100","汐止區"
"221033","647-BX","2019/12/13 18:13:22","新北市汐止區宜興街40巷9弄3號","121.622685","25.041415","6501100","汐止區"
"221002","707-TV","2019/12/13 18:13:22","新北市汐止區福德一路201巷6號","121.635496666667","25.0654533333333","6501100","汐止區"
"233001","KEA-2870","2019/12/13 18:13:31","新北市烏來區新烏路五段56號","121.544303333333","24.8754183333333","6502900","烏來區"
"220082","610-BX","2019/12/13 18:13:21","新北市板橋區華東街1-9號","121.448225","24.994955","6500100","板橋區"
"224002","257-TC","2019/12/13 18:13:35","新北市瑞芳區三爪子坑路149巷6號","121.810926666667","25.1064033333333","6501200","瑞芳區"
"242046","281-VK","2019/12/13 18:13:18","新北市新莊區福營路298號","121.422551666667","25.0274733333333","6500500","新莊區"
"242011","280-VK","2019/12/13 18:13:15","新北市新莊區中榮街26號","121.450161666667","25.0528266666667","6500500","新莊區"
"235061","KEA-2875","2019/12/13 18:13:16","新北市中和區國光街215巷24弄13號","121.466748333333","25.0001483333333","6500300","中和區"
