"lineid","car","time","location","longitude","latitude","cityid","cityname"
"234046","148-BY","2019/12/13 18:59:26","新北市永和區永元路52巷41號","121.52429","25.0008633333333","6500400","永和區"
"234081","298-R6","2019/12/13 18:59:31","新北市永和區國中路200號","121.522158333333","25.0062016666667","6500400","永和區"
"234038","336-UY","2019/12/13 18:59:23","新北市永和區成功路二段207號","121.526521666667","24.9959183333333","6500400","永和區"
"234064","337-UY","2019/12/13 18:59:27","新北市永和區秀朗路一段140號","121.518056666667","25.00344","6500400","永和區"
"234086","338-UY","2019/12/13 18:59:32","新北市永和區永寧街133巷1號","121.51806","25.0050083333333","6500400","永和區"
"234070","552-UM","2019/12/13 18:59:24","新北市永和區竹林路124巷38號","121.517986666667","25.011505","6500400","永和區"
"234017","745-BX","2019/12/13 18:59:13","新北市永和區永和路二段297號","121.51609","25.016025","6500400","永和區"
"234030","746-BX","2019/12/13 18:59:33","新北市永和區秀朗路二段274號","121.52605","24.99804","6500400","永和區"
"234054","KEA-2590","2019/12/13 18:59:14","新北市永和區竹林路66巷4號","121.518213333333","25.0133516666667","6500400","永和區"
"234007","KED-0605","2019/12/13 18:59:20","新北市永和區中山路一段58號","121.512958333333","25.01068","6500400","永和區"
"234013","KEA-2591","2019/12/13 18:59:17","新北市永和區中山路一段58號","121.513011666667","25.0108383333333","6500400","永和區"
"234061","AAD-866","2019/12/13 18:59:21","新北市永和區福和路307號","121.51629","25.0071233333333","6500400","永和區"
"234042","862-TW","2019/12/13 18:59:24","新北市永和區永貞路308號","121.511826666667","25.0048566666667","6500400","永和區"
"234050","863-TW","2019/12/13 18:59:21","新北市永和區文化路194號","121.51084","25.0162266666667","6500400","永和區"
"234026","9371-KE","2019/12/13 18:59:29","新北市永和區安樂路451號","121.514313333333","25.00497","6500400","永和區"
"234011","9373-KE","2019/12/13 18:59:21","新北市永和區仁愛路141巷3弄23號","121.512313333333","25.0126566666667","6500400","永和區"
"249005","172-UM","2019/12/13 18:59:17","新北市八里區長道坑2號","121.393521666667","25.1254216666667","6502300","八里區"
"249001","173-UM","2019/12/13 18:59:17","新北市八里區龍米路二段28號","121.448706666667","25.13964","6502300","八里區"
"248016","026-BX","2019/12/13 18:59:16","新北市五股區成泰路三段543巷12弄11號","121.451321666667","25.1024066666667","6501500","五股區"
"248006","077-UY","2019/12/13 18:59:15","新北市五股區四維路183號","121.468025","25.0754333333333","6501500","五股區"
"248008","KED-0815","2019/12/13 18:59:27","新北市五股區中興路一段118巷6弄9號","121.46634","25.0745866666667","6501500","五股區"
"248018","KED-0813","2019/12/13 18:59:30","新北市五股區民義路二段22巷20號","121.423378333333","25.097665","6501500","五股區"
"248010","272-BY","2019/12/13 18:59:25","新北市五股區水碓一路23號","121.430566666667","25.071275","6501500","五股區"
"248004","677-BX","2019/12/13 18:59:20","新北市五股區民義路一段187號","121.430948333333","25.0886816666667","6501500","五股區"
"248002","682-TV","2019/12/13 18:59:32","新北市五股區凌雲路一段131號","121.449585","25.1020783333333","6501500","五股區"
"234023","9380-KE","2019/12/13 18:59:26","新北市永和區竹林路39巷28弄39號","121.520045","25.0140666666667","6500400","永和區"
"234077","969-R7","2019/12/13 18:59:26","新北市永和區得和路104巷4號","121.518008333333","24.9999166666667","6500400","永和區"
"234074","AAC-211","2019/12/13 18:59:31","新北市永和區環河東路二段92號","121.524435","25.010615","6500400","永和區"
"234067","AAC-212","2019/12/13 18:59:24","新北市永和區自由街53號","121.513806666667","25.0057483333333","6500400","永和區"
"234003","AAC-295","2019/12/13 18:59:33","新北市永和區和平街38號","121.513058333333","25.009965","6500400","永和區"
"232011","375-UM","2019/12/13 18:59:36","新北市坪林區水柳腳11號","121.711505","24.9352683333333","6502000","坪林區"
"244013","KEA-2802","2019/12/13 18:59:30","新北市林口區麗園一街4巷1號","121.376531666667","25.07127","6501700","林口區"
"244023","483-VK","2019/12/13 18:59:33","新北市林口區民權路155號","121.37399","25.0837116666667","6501700","林口區"
"244017","485-VK","2019/12/13 18:59:30","新北市林口區文化二路一段120巷5號","121.3679","25.0699883333333","6501700","林口區"
"244009","657-BX","2019/12/13 18:59:18","新北市林口區林口路62號","121.390286666667","25.0791616666667","6501700","林口區"
"244011","701-TV","2019/12/13 18:59:15","新北市林口區中正路332號","121.38732","25.0779333333333","6501700","林口區"
"244025","837-TS","2019/12/13 18:59:17","新北市林口區南勢一街20號","121.3608","25.0754716666667","6501700","林口區"
"208001","267-VK","2019/12/13 18:59:31","新北市金山區金包里街14巷1號","121.640366666667","25.2207083333333","6502700","金山區"
"243012","AAD-798","2019/12/13 18:59:28","新北市泰山區泰林路二段73巷21號","121.434511666667","25.0578783333333","6501600","泰山區"
"243010","297-R6","2019/12/13 18:59:34","新北市泰山區辭修路26巷12號","121.429206666667","25.0585166666667","6501600","泰山區"
"243014","KEA-2801","2019/12/13 18:59:24","新北市泰山區黎明路13號","121.42103","25.06314","6501600","泰山區"
"243016","421-VK","2019/12/13 18:59:27","新北市泰山區明志路二段152-1號","121.427575","25.0507716666667","6501600","泰山區"
"243015","680-BX","2019/12/13 18:59:30","新北市泰山區美寧街39號","121.430298333333","25.0644216666667","6501600","泰山區"
"222003","436-BY","2019/12/13 18:59:24","新北市深坑區深南路88巷1號","121.621453333333","25.0108233333333","6501800","深坑區"
"222002","659-BX","2019/12/13 18:59:18","新北市深坑區文山路一段31巷2號","121.62987","25.0033283333333","6501800","深坑區"
"231061","002-UM","2019/12/13 18:59:31","新北市新店區安華路30巷3號","121.518886666667","24.9585916666667","6500600","新店區"
"231058","0293-UT","2019/12/13 18:59:19","新北市新店區中正路1巷2號","121.545651666667","24.9689416666667","6500600","新店區"
"231044","046-UY","2019/12/13 18:59:15","新北市新店區寶中路72號","121.547831666667","24.9805833333333","6500600","新店區"
"231060","106-UY","2019/12/13 18:59:30","新北市新店區安華路16號","121.517221666667","24.958105","6500600","新店區"
"231051","107-UY","2019/12/13 18:59:21","新北市新店區中央路15號","121.533295","24.9783116666667","6500600","新店區"
"231049","108-UY","2019/12/13 18:59:33","新北市新店區中正路454-5號","121.534466666667","24.9790383333333","6500600","新店區"
"231065","110-UY","2019/12/13 18:59:30","","121.475635","24.9554933333333","6500600","新店區"
"231050","KEA-2219","2019/12/13 18:59:26","新北市新店區新烏路一段5號","121.547346666667","24.9517716666667","6500600","新店區"
"221031","KEA-2785","2019/12/13 18:59:32","新北市汐止區福德一路300巷33號","121.630421666667","25.0642983333333","6501100","汐止區"
"231062","256-BX","2019/12/13 18:59:32","新北市新店區安忠路101號","121.511131666667","24.9562633333333","6500600","新店區"
"231054","260-TV","2019/12/13 18:59:30","新北市新店區北新路一段23號","121.537918333333","24.9591133333333","6500600","新店區"
"231042","268-BY","2019/12/13 18:59:23","新北市新店區中興路二段25號","121.545955","24.9695216666667","6500600","新店區"
"231064","278-BY","2019/12/13 18:59:25","新北市新店區安康路一段266巷4號","121.519825","24.96401","6500600","新店區"
"231045","355-BY","2019/12/13 18:59:17","新北市新店區安康路一段221號","121.525773333333","24.9630116666667","6500600","新店區"
"231055","4716-K9","2019/12/13 18:59:20","新北市新店區新生街13巷13號","121.539446666667","24.9659366666667","6500600","新店區"
"231056","4715-K9","2019/12/13 18:59:28","新北市新店區民權路133號","121.53499","24.9827266666667","6500600","新店區"
"231067","4772-VM","2019/12/13 18:59:18","新北市新店區安康路一段76巷8號","121.52862","24.9627633333333","6500600","新店區"
"231041","619-UM","2019/12/13 18:59:29","新北市新店區安康路一段90號","121.52796","24.961995","6500600","新店區"
"231063","641-BX","2019/12/13 18:59:20","新北市新店區安華路28-1號","121.51954","24.9605716666667","6500600","新店區"
"231048","KED-0819","2019/12/13 18:59:23","新北市新店區德正街23巷12-1號","121.54455","24.9722016666667","6500600","新店區"
"231053","718-UY","2019/12/13 18:59:28","新北市新店區新烏路二段7號","121.543568333333","24.929655","6500600","新店區"
"231046","719-UM","2019/12/13 18:59:17","新北市新店區直潭一街1號","121.535931666667","24.9434633333333","6500600","新店區"
"231057","720-UM","2019/12/13 18:59:33","新北市新店區百齡一路12號","121.55303","24.93247","6500600","新店區"
"231059","897-TW","2019/12/13 18:59:28","新北市新店區安華路28-1號","121.519543333333","24.960805","6500600","新店區"
"231040","898-TW","2019/12/13 18:59:36","新北市新店區中央路63號","121.532585","24.9770233333333","6500600","新店區"
"231043","899-TW","2019/12/13 18:59:34","新北市新店區北新路一段293號","121.541283333333","24.9670916666667","6500600","新店區"
"231066","AKT-0513","2019/12/13 18:59:33","新北市新店區安豐路23號","121.501301666667","24.9564983333333","6500600","新店區"
"241026","742-BX","2019/12/13 18:59:33","新北市三重區正義南路181巷1號","121.499326666667","25.05703","6500200","三重區"
"241035","462-BY","2019/12/13 18:59:22","新北市三重區重新路四段121號","121.48486","25.05197","6500200","三重區"
"235066","003-UY","2019/12/13 18:59:18","新北市中和區中山路二段131巷5弄2號","121.502888333333","25.0028383333333","6500300","中和區"
"235064","005-UY","2019/12/13 18:59:33","新北市中和區中和路40巷3號","121.499526666667","25.0011883333333","6500300","中和區"
"235063","006-UY","2019/12/13 18:59:18","新北市中和區連城路248號","121.487255","24.9964383333333","6500300","中和區"
"235056","096-UM","2019/12/13 18:59:35","新北市板橋區三民路二段204號","121.478873333333","25.0122666666667","6500300","中和區"
"235039","097-UM","2019/12/13 18:59:23","新北市中和區自強路31號","121.520808333333","24.9927283333333","6500300","中和區"
"235065","098-UM","2019/12/13 18:59:32","新北市中和區福祥路135號","121.498353333333","25.0074083333333","6500300","中和區"
"235040","150-BY","2019/12/13 18:59:19","新北市中和區宜安路23巷17號","121.512393333333","24.9952","6500300","中和區"
"235058","151-BY","2019/12/13 18:59:08","新北市中和區連城路571號","121.47913","24.9944666666667","6500300","中和區"
"235055","183-VK","2019/12/13 18:59:20","新北市中和區德光路17號","121.471111666667","25.00438","6500300","中和區"
"235038","185-VK","2019/12/13 18:59:29","新北市中和區立人街24-4號","121.518971666667","24.9941633333333","6500300","中和區"
"235067","255-BX","2019/12/13 18:59:30","新北市中和區新生街166巷14號","121.48294","25.0001966666667","6500300","中和區"
"235044","293-VK","2019/12/13 18:59:20","新北市中和區中興街161巷2弄2號","121.500203333333","24.9908533333333","6500300","中和區"
"235072","301-VK","2019/12/13 18:59:26","新北市中和區中山路二段258號","121.497535","25.0025233333333","6500300","中和區"
"235043","352-BY","2019/12/13 18:59:23","新北市中和區景平路2號","121.52461","24.9906016666667","6500300","中和區"
"235042","KEA-2878","2019/12/13 18:59:21","新北市中和區秀朗路三段22巷15號","121.525553333333","24.9961","6500300","中和區"
"235050","4979-A6","2019/12/13 18:59:32","新北市中和區忠孝街1號","121.50888","24.9830216666667","6500300","中和區"
"235069","4980-A6","2019/12/13 18:59:14","新北市中和區圓通路107號","121.499561666667","24.9964866666667","6500300","中和區"
"235070","558-UM","2019/12/13 18:59:30","新北市中和區中和路174號","121.504613333333","24.9996983333333","6500300","中和區"
"235045","565-BX","2019/12/13 18:59:33","新北市中和區景新街467巷35弄17號","121.513995","24.988845","6500300","中和區"
"235060","KED-0823","2019/12/13 18:59:17","新北市中和區民有街60號","121.476006666667","25.0045033333333","6500300","中和區"
"235054","640-BX","2019/12/13 18:59:25","新北市中和區國光街109巷2弄4號","121.469541666667","25.000605","6500300","中和區"
"235047","732-UM","2019/12/13 18:59:34","新北市中和區興南路二段94號","121.505233333333","24.9843133333333","6500300","中和區"
"235046","733-UM","2019/12/13 18:59:32","新北市中和區興南路二段23號","121.50779","24.9859016666667","6500300","中和區"
"235057","801-TS","2019/12/13 18:59:25","新北市中和區民利街72號","121.478515","24.9983783333333","6500300","中和區"
"235041","802-TS","2019/12/13 18:59:22","新北市中和區景安路75號","121.506721666667","24.9976516666667","6500300","中和區"
"235052","805-TS","2019/12/13 18:59:17","新北市中和區興南路二段114巷2號","121.504308333333","24.9842333333333","6500300","中和區"
"235048","896-TW","2019/12/13 18:59:18","新北市中和區工專路147號","121.508566666667","24.9788316666667","6500300","中和區"
"235053","900-TW","2019/12/13 18:59:29","新北市中和區壽德街26號","121.466616666667","24.9941783333333","6500300","中和區"
"235051","157-BY","2019/12/13 18:59:25","新北市中和區忠孝街19巷56號","121.509375","24.985405","6500300","中和區"
"235037","AAC-213","2019/12/13 18:59:16","新北市中和區秀朗路三段60巷9號","121.525783333333","24.995055","6500300","中和區"
"235059","AAC-215","2019/12/13 18:59:33","新北市中和區圓通路369巷10號","121.49053","24.9881716666667","6500300","中和區"
"207004","KEE-1107","2019/12/13 18:59:33","新北市萬里區萬里里獅頭路23號","121.693278333333","25.1782433333333","6502800","萬里區"
"220054","015-TV","2019/12/13 18:59:19","新北市板橋區重慶路127巷20號","121.463651666667","25.0049266666667","6500100","板橋區"
"220086","073-UY","2019/12/13 18:59:30","新北市板橋區中正路80巷11號","121.457313333333","25.01457","6500100","板橋區"
"220106","075-UY","2019/12/13 18:59:25","新北市板橋區雙十路三段10巷13號","121.472238333333","25.0309683333333","6500100","板橋區"
"220069","AAD-861","2019/12/13 18:59:18","新北市板橋區華興街66號","121.457511666667","25.0048916666667","6500100","板橋區"
"226004","312-R5","2019/12/13 18:59:15","新北市平溪區靜安路二段382號","121.738328333333","25.0245766666667","6502400","平溪區"
"235049","251-BX","2019/12/13 18:59:27","新北市中和區明仁街23號","121.506371666667","24.9954866666667","6500300","中和區"
"228002","663-BX","2019/12/13 18:59:18","新北市貢寮區福隆里東興街106巷25弄1號","121.946458333333","25.018295","6502600","貢寮區"
"228001","670-TC","2019/12/13 18:59:32","新北市貢寮區仁理村研海街12-1號","121.923811666667","25.0516483333333","6502600","貢寮區"
"228003","828-UM","2019/12/13 18:59:13","新北市貢寮區和美里龍洞街52-1號","121.911781666667","25.1132833333333","6502600","貢寮區"
"224010","AGQ-8101","2019/12/13 18:59:17","新北市瑞芳區崙頂路3-1號","121.847351666667","25.1040883333333","6501200","瑞芳區"
"224006","676-BX","2019/12/13 18:59:21","新北市瑞芳區東和路3號","121.804391666667","25.1062416666667","6501200","瑞芳區"
"224007","285-BY","2019/12/13 18:59:17","新北市瑞芳區瑞竹路76-4號","121.763443333333","25.1033383333333","6501200","瑞芳區"
"224009","275-VK","2019/12/13 18:59:26","新北市瑞芳區長仁路40號","121.864413333333","25.1182466666667","6501200","瑞芳區"
"224008","273-VK","2019/12/13 18:59:25","新北市瑞芳區逢甲路340-9號","121.798253333333","25.1163466666667","6501200","瑞芳區"
"224005","271-BY","2019/12/13 18:59:20","新北市瑞芳區明燈路二段44-1號","121.809555","25.1083133333333","6501200","瑞芳區"
"227002","642-TC","2019/12/13 18:59:19","新北市雙溪區平林里外平林10-1號","121.858963333333","25.0380483333333","6502500","雙溪區"
"227001","400-TW","2019/12/13 18:59:30","新北市雙溪區牡丹里中正路60號","121.866121666667","25.0422416666667","6502500","雙溪區"
"253005","032-BX","2019/12/13 18:59:28","新北市石門區尖子鹿116-1號","121.574796666667","25.297535","6502200","石門區"
"253006","295-VK","2019/12/13 18:59:30","新北市石門區下員坑28-2號","121.51886","25.280395","6502200","石門區"
"222001","KEA-2212","2019/12/13 18:59:30","新北市深坑區北深路一段300號","121.624231666667","25.0057233333333","6501800","深坑區"
"208002","KEA-2872","2019/12/13 18:59:15","新北市金山區仁愛路67巷4號","121.634563333333","25.2209016666667","6502700","金山區"
"208003","665-BX","2019/12/13 18:59:35","新北市金山區中正路136號","121.631995","25.22147","6502700","金山區"
"251001","011-UM","2019/12/13 18:59:29","新北市淡水區自強路58號","121.463193333333","25.1275083333333","6501000","淡水區"
"251010","413-VK","2019/12/13 18:59:19","新北市淡水區淡海路69巷26號","121.422053333333","25.1809883333333","6501000","淡水區"
"251012","441-VK","2019/12/13 18:59:20","新北市淡水區新春街126巷15弄17號","121.440593333333","25.1809866666667","6501000","淡水區"
"251007","442-VK","2019/12/13 18:59:28","新北市淡水區民生路113巷1弄40號","121.46306","25.13864","6501000","淡水區"
"251009","575-R6","2019/12/13 18:59:27","新北市淡水區重建街66號","121.439871666667","25.1719716666667","6501000","淡水區"
"251011","650-BX","2019/12/13 18:59:18","新北市淡水區鄧公路34號","121.45782","25.1688966666667","6501000","淡水區"
"251002","672-BX","2019/12/13 18:59:32","新北市淡水區中正東路49號","121.446563333333","25.16796","6501000","淡水區"
"251003","766-UM","2019/12/13 18:59:23","新北市淡水區中山北路一段149巷24號","121.442918333333","25.178005","6501000","淡水區"
"252001","292-VK","2019/12/13 18:59:28","新北市三芝區中興街二段242號","121.501645","25.2531183333333","6502100","三芝區"
"237004","KEA-2597","2019/12/13 18:59:25","新北市三峽區有木206號","121.439088333333","24.8516033333333","6500900","三峽區"
"237007","153-BY","2019/12/13 18:59:20","新北市三峽區中正路二段125-5號","121.366231666667","24.9163366666667","6500900","三峽區"
"237013","252-BX","2019/12/13 18:59:20","新北市三峽區光明路69巷24號","121.376728333333","24.9291116666667","6500900","三峽區"
"237012","275-BY","2019/12/13 18:59:22","新北市三峽區三樹路222巷60號","121.382351666667","24.942305","6500900","三峽區"
"237008","302-VK","2019/12/13 18:59:15","新北市三峽區大同路98-6號","121.375186666667","24.9275733333333","6500900","三峽區"
"237014","433-BY","2019/12/13 18:59:33","新北市三峽區隆恩街232號","121.357793333333","24.941165","6500900","三峽區"
"237006","5529-G3","2019/12/13 18:59:26","新北市三峽區溪東路233巷45弄16號","121.410028333333","24.9341033333333","6500900","三峽區"
"237011","KEA-2596","2019/12/13 18:59:30","新北市三峽區介壽路三段245號","121.407948333333","24.9494766666667","6500900","三峽區"
"237015","649-BX","2019/12/13 18:59:23","新北市三峽區建安71號","121.448818333333","24.926105","6500900","三峽區"
"237010","706-TV","2019/12/13 18:59:33","新北市三峽區復興路271號","121.36641","24.938845","6500900","三峽區"
"237005","AKY-6261","2019/12/13 18:59:29","新北市三峽區中山路459巷135號","121.348625","24.9329183333333","6500900","三峽區"
"236042","KED-0685","2019/12/13 18:59:21","新北市土城區學府路一段189巷15號","121.452551666667","24.9845116666667","6501300","土城區"
"236079","166-UM","2019/12/13 18:59:30","新北市土城區中央路四段400號","121.412556666667","24.9541016666667","6501300","土城區"
"236030","253-BX","2019/12/13 18:59:17","新北市土城區慶利街16號","121.439733333333","24.9736383333333","6501300","土城區"
"236026","269-VK","2019/12/13 18:59:29","新北市土城區中正路56巷15號","121.444175","24.9746516666667","6501300","土城區"
"236014","270-VK","2019/12/13 18:59:16","新北市土城區立德路13巷22號","121.461596666667","24.9887516666667","6501300","土城區"
"236039","271-VK","2019/12/13 18:59:24","新北市土城區仁愛路8-2號","121.460035","24.980905","6501300","土城區"
"236069","KEA-2877","2019/12/13 18:59:27","新北市土城區清水路99巷13號","121.45683","24.9823433333333","6501300","土城區"
"252002","KED-0821","2019/12/13 18:59:21","新北市三芝區中正路一段16-1號","121.502895","25.25883","6502100","三芝區"
"236020","401-BY","2019/12/13 18:59:23","新北市土城區延吉街168巷9號","121.4681","24.9857833333333","6501300","土城區"
"236059","912-UM","2019/12/13 18:59:06","新北市土城區金城路二段224號","121.45642","24.9827183333333","6501300","土城區"
"236048","913-UM","2019/12/13 18:59:21","新北市土城區青雲路271號","121.459123333333","24.98046","6501300","土城區"
"236063","915-UM","2019/12/13 18:59:15","新北市土城區金城路三段139巷11號","121.467838333333","24.988695","6501300","土城區"
"236055","AAC-216","2019/12/13 18:59:33","新北市土城區裕民路22號","121.447653333333","24.9885766666667","6501300","土城區"
"242060","986-R7","2019/12/13 18:59:25","新北市新莊區民安東路150號","121.431476666667","25.0206233333333","6500500","新莊區"
"242009","349-TH","2019/12/13 18:59:28","新北市新莊區三和路12-21號","121.442088333333","25.03831","6500500","新莊區"
"238023","601-UM","2019/12/13 18:59:22","新北市樹林區大慶街146號","121.396661666667","25.0135466666667","6500700","樹林區"
"238019","571-TV","2019/12/13 18:59:33","新北市樹林區東榮街169號","121.413923333333","24.9814533333333","6500700","樹林區"
"238024","5061-A6","2019/12/13 18:59:16","新北市樹林區育德街78-1號","121.387883333333","24.968095","6500700","樹林區"
"238022","KEA-2213","2019/12/13 18:59:30","新北市樹林區東興街43號","121.410638333333","24.9776666666667","6500700","樹林區"
"238021","KEA-2539","2019/12/13 18:59:32","新北市樹林區柑園街二段326號","121.37301","24.9517533333333","6500700","樹林區"
"238025","303-VK","2019/12/13 18:59:26","新北市樹林區中山路三段22號","121.395575","24.972915","6500700","樹林區"
"238017","283-BY","2019/12/13 18:59:27","新北市樹林區光興街50號","121.409838333333","25.0026933333333","6500700","樹林區"
"238014","282-BY","2019/12/13 18:59:31","新北市樹林區千歲街61巷6號","121.42637","24.9980183333333","6500700","樹林區"
"238020","268-VK","2019/12/13 18:59:23","新北市樹林區俊英街219巷47-1號","121.420596666667","25.0113766666667","6500700","樹林區"
"238026","172-UY","2019/12/13 18:59:33","新北市樹林區吉祥街21號","121.395355","24.9736633333333","6500700","樹林區"
"238016","169-UY","2019/12/13 18:59:18","新北市樹林區文化街28號","121.419268333333","24.9877533333333","6500700","樹林區"
"239007","AAC-297","2019/12/13 18:59:30","新北市鶯歌區中正一路建德巷10號","121.364813333333","24.956955","6500800","鶯歌區"
"239006","891-R6","2019/12/13 18:59:18","新北市鶯歌區鶯桃路296巷46-1號","121.335695","24.9613516666667","6500800","鶯歌區"
"239008","527-UM","2019/12/13 18:59:27","新北市鶯歌區朝陽街1號","121.336283333333","24.9765666666667","6500800","鶯歌區"
"239005","526-UM","2019/12/13 18:59:18","新北市鶯歌區鳳吉一街76號","121.326798333333","24.974235","6500800","鶯歌區"
"239001","417-VK","2019/12/13 18:59:25","新北市鶯歌區尖山埔路二段55號","121.3419","24.948625","6500800","鶯歌區"
"239003","360-BY","2019/12/13 18:59:30","新北市鶯歌區永和街116號","121.334455","24.9690883333333","6500800","鶯歌區"
"239002","359-BY","2019/12/13 18:59:24","新北市鶯歌區中山路268號","121.344413333333","24.9569433333333","6500800","鶯歌區"
"239004","193-VK","2019/12/13 18:59:30","新北市鶯歌區中正三路156巷59-17號","121.332308333333","24.94109","6500800","鶯歌區"
"221008","489-VK","2019/12/13 18:59:19","新北市汐止區康寧街680-1號","121.636558333333","25.0713516666667","6501100","汐止區"
"221036","130-UY","2019/12/13 18:59:30","新北市汐止區水碓街57號","121.665136666667","25.069195","6501100","汐止區"
"221015","131-UY","2019/12/13 18:59:26","新北市汐止區鄉長路一段55巷6號","121.665441666667","25.0761216666667","6501100","汐止區"
"244019","KED-0667","2019/12/13 18:59:22","新北市林口區麗園二街1巷6-2號","121.378065","25.0701","6501700","林口區"
"221032","280-BY","2019/12/13 18:59:25","新北市汐止區橫科路500號","121.628926666667","25.047925","6501100","汐止區"
"221029","298-VK","2019/12/13 18:59:35","新北市汐止區樟樹一路228號","121.642316666667","25.0666516666667","6501100","汐止區"
"207003","KEE-1020","2019/12/13 18:59:30","新北市萬里區大鵬里頂社2-1號","121.66036","25.2072066666667","6502800","萬里區"
"221035","622-UM","2019/12/13 18:59:19","新北市汐止區大同路二段298號","121.655205","25.066615","6501100","汐止區"
"221002","707-TV","2019/12/13 18:59:20","新北市汐止區大同路一段2號","121.620991666667","25.05496","6501100","汐止區"
"220079","145-BY","2019/12/13 18:59:24","新北市板橋區大智街71巷8弄2號","121.453423333333","25.0152483333333","6500100","板橋區"
"220080","200-UY","2019/12/13 18:59:29","新北市板橋區大觀路二段265巷1弄50號","121.445031666667","24.9979616666667","6500100","板橋區"
"220082","610-BX","2019/12/13 18:59:21","新北市板橋區篤行路二段136號","121.429828333333","24.9884466666667","6500100","板橋區"
"220101","245-BX","2019/12/13 18:59:31","新北市板橋區莊敬路220巷48號","121.471916666667","25.0203933333333","6500100","板橋區"
"224002","257-TC","2019/12/13 18:59:15","新北市平溪區新寮里五分寮10-2號","121.800063333333","25.0741083333333","6501200","瑞芳區"
"220091","267-BY","2019/12/13 18:59:27","新北市板橋區大同街8巷53號","121.477606666667","25.02651","6500100","板橋區"
"220056","276-BY","2019/12/13 18:59:23","新北市板橋區信義路64號","121.457291666667","24.9937233333333","6500100","板橋區"
"220072","277-BY","2019/12/13 18:59:28","新北市板橋區篤行路一段33號","121.432033333333","24.994395","6500100","板橋區"
"220094","283-UM","2019/12/13 18:59:25","新北市板橋區光武街151號","121.465476666667","25.0294","6500100","板橋區"
"220071","283-VK","2019/12/13 18:59:33","新北市板橋區忠孝路176巷13號","121.464781666667","25.0017116666667","6500100","板橋區"
"220053","285-VK","2019/12/13 18:59:24","新北市板橋區太和街5巷20號","121.473108333333","25.0196966666667","6500100","板橋區"
"220083","286-VK","2019/12/13 18:59:32","新北市板橋區大觀路一段38巷156弄64號","121.44279","25.006225","6500100","板橋區"
"220081","287-VK","2019/12/13 18:59:31","新北市板橋區光華街19巷13號","121.453246666667","25.0119433333333","6500100","板橋區"
"220090","288-VK","2019/12/13 18:59:20","新北市板橋區裕民街23-3號","121.462061666667","25.028945","6500100","板橋區"
"220061","293-UM","2019/12/13 18:59:32","新北市板橋區懷仁街26-1號","121.476428333333","25.0196166666667","6500100","板橋區"
"220092","295-UM","2019/12/13 18:59:32","新北市板橋區文化路二段225巷60弄55號","121.469078333333","25.0296883333333","6500100","板橋區"
"220084","296-UM","2019/12/13 18:59:17","新北市板橋區大觀路二段142-1號","121.442638333333","24.9991633333333","6500100","板橋區"
"220075","303-R5","2019/12/13 18:59:24","新北市板橋區南興路56號","121.454323333333","25.0073433333333","6500100","板橋區"
"220062","305-R5","2019/12/13 18:59:30","新北市板橋區民享街142巷2號","121.477863333333","25.0164733333333","6500100","板橋區"
"220098","317-R6","2019/12/13 18:59:27","新北市板橋區民生路二段226巷31弄2號","121.471261666667","25.0221666666667","6500100","板橋區"
"220089","487-VK","2019/12/13 18:59:19","新北市板橋區文化路二段159號","121.47028","25.0273583333333","6500100","板橋區"
"220088","491-VK","2019/12/13 18:59:22","新北市板橋區莒光路165巷44號","121.474486666667","25.02512","6500100","板橋區"
"220035","560-BX","2019/12/13 18:59:31","新北市板橋區中正路325巷8號","121.454353333333","25.0198066666667","6500100","板橋區"
"220103","561-BX","2019/12/13 18:59:29","新北市板橋區介壽街64號","121.469238333333","25.01952","6500100","板橋區"
"220065","568-UM","2019/12/13 18:59:25","新北市板橋區民族路287巷8號","121.471218333333","25.0070933333333","6500100","板橋區"
"220063","609-BX","2019/12/13 18:59:33","新北市板橋區中山路二段122號","121.47617","25.0168466666667","6500100","板橋區"
"220057","686-BX","2019/12/13 18:59:28","新北市板橋區重慶路305號","121.463856666667","24.9987933333333","6500100","板橋區"
"220077","687-BX","2019/12/13 18:59:28","新北市板橋區龍興街55號","121.443186666667","25.0010416666667","6500100","板橋區"
"220093","689-BX","2019/12/13 18:59:30","新北市板橋區民生路三段171號","121.465566666667","25.02707","6500100","板橋區"
"220102","KEA-2699","2019/12/13 18:59:30","新北市板橋區萬板路818巷1號","121.482951666667","25.0273383333333","6500100","板橋區"
"220055","827-TW","2019/12/13 18:59:26","新北市板橋區新府路70號","121.465136666667","25.0109966666667","6500100","板橋區"
"220067","829-TW","2019/12/13 18:59:14","新北市板橋區三民路186巷13-1號","121.47868","25.014985","6500100","板橋區"
"220068","830-TW","2019/12/13 18:59:18","新北市板橋區三民路一段31巷42號","121.481118333333","25.022945","6500100","板橋區"
"220074","895-R6","2019/12/13 18:59:19","新北市板橋區府中路120號","121.455376666667","25.0094816666667","6500100","板橋區"
"220073","985-R7","2019/12/13 18:59:14","新北市板橋區中正路79號","121.456311666667","25.014085","6500100","板橋區"
"220097","AAC-210","2019/12/13 18:59:36","新北市板橋區幸福路60巷58號","121.459568333333","25.0221683333333","6500100","板橋區"
"220064","AAC-253","2019/12/13 18:59:21","新北市板橋區漢生東路166號","121.467075","25.0148883333333","6500100","板橋區"
"235061","KEA-2875","2019/12/13 18:59:16","新北市中和區中山路三段121號","121.474476666667","25.00609","6500300","中和區"
"235068","KEA-2876","2019/12/13 18:59:28","新北市中和區圓通路222號","121.49535","24.99306","6500300","中和區"
