"lineid","car","time","location","longitude","latitude","cityid","cityname"
"234046","148-BY","2019/12/13 19:43:26","新北市永和區永利路179號","121.525751666667","25.0034233333333","6500400","永和區"
"234081","298-R6","2019/12/13 19:43:31","新北市永和區林森路46巷1號","121.52497","25.0046983333333","6500400","永和區"
"234038","336-UY","2019/12/13 19:43:23","新北市永和區民樂街39巷18弄2號","121.52848","24.999645","6500400","永和區"
"234064","337-UY","2019/12/13 19:43:34","新北市永和區中正路412巷20弄7號","121.51867","25.0020083333333","6500400","永和區"
"234086","338-UY","2019/12/13 19:43:32","新北市永和區永亨路144號","121.525235","25.0039","6500400","永和區"
"234070","552-UM","2019/12/13 19:43:24","新北市永和區竹林路30號","121.517043333333","25.01485","6500400","永和區"
"234017","745-BX","2019/12/13 19:43:33","新北市永和區永和路二段425巷23號","121.514775","25.0176033333333","6500400","永和區"
"234030","746-BX","2019/12/13 19:43:33","新北市永和區民生路47巷33號","121.525025","24.9978016666667","6500400","永和區"
"234054","KEA-2590","2019/12/13 19:43:34","新北市永和區竹林路39巷26號","121.519036666667","25.014805","6500400","永和區"
"234007","KED-0605","2019/12/13 19:43:20","新北市中和區中和路324巷6弄2號","121.509661666667","25.0004833333333","6500400","永和區"
"234013","KEA-2591","2019/12/13 19:43:17","新北市永和區仁愛路168號","121.51011","25.0127","6500400","永和區"
"234061","AAD-866","2019/12/13 19:43:21","新北市永和區中正路161號","121.516456666667","24.9984966666667","6500400","永和區"
"234042","862-TW","2019/12/13 19:43:24","新北市永和區中和路305巷14號","121.507345","25.0011766666667","6500400","永和區"
"234050","863-TW","2019/12/13 19:43:21","新北市永和區環河西路一段105號","121.511086666667","25.0174766666667","6500400","永和區"
"234026","9371-KE","2019/12/13 19:43:29","新北市永和區雙和街7巷7-1號","121.509533333333","25.001405","6500400","永和區"
"234011","9373-KE","2019/12/13 19:43:25","新北市永和區仁愛路352巷92弄6號","121.501386666667","25.0080133333333","6500400","永和區"
"249004","303-UY","2019/12/13 19:43:20","新北市八里區中山路一段268巷5弄11號","121.414271666667","25.1603","6502300","八里區"
"249002","305-UY","2019/12/13 19:43:27","新北市八里區頂寮二街33-1號","121.450361666667","25.125245","6502300","八里區"
"249003","593-UM","2019/12/13 19:43:19","新北市八里區中華路二段532號","121.399168333333","25.145655","6502300","八里區"
"248014","025-BX","2019/12/13 19:43:29","新北市五股區五福路32巷5號","121.434376666667","25.0893533333333","6501500","五股區"
"248016","026-BX","2019/12/13 19:43:16","新北市五股區成泰路三段613號","121.452755","25.1035583333333","6501500","五股區"
"248008","KED-0815","2019/12/13 19:43:15","新北市五股區四維路118巷13號","121.469278333333","25.0741866666667","6501500","五股區"
"248018","KED-0813","2019/12/13 19:43:30","新北市五股區外寮路1-5號","121.425886666667","25.0768283333333","6501500","五股區"
"248012","247-BX","2019/12/13 19:43:28","新北市五股區蓬萊路24號","121.433885","25.0799016666667","6501500","五股區"
"248010","272-BY","2019/12/13 19:43:25","新北市五股區登林路74-1號","121.431146666667","25.06936","6501500","五股區"
"248004","677-BX","2019/12/13 19:43:30","新北市五股區成泰路一段149-7號","121.435286666667","25.0737883333333","6501500","五股區"
"248002","682-TV","2019/12/13 19:43:31","新北市五股區成泰路三段577巷16號","121.451701666667","25.1027833333333","6501500","五股區"
"234023","9380-KE","2019/12/13 19:43:26","新北市永和區中正路680巷3號","121.517006666667","25.009365","6500400","永和區"
"234077","969-R7","2019/12/13 19:43:23","新北市永和區民權路33號","121.519893333333","24.997785","6500400","永和區"
"234074","AAC-211","2019/12/13 19:43:31","新北市永和區竹林路213巷39號","121.523218333333","25.0091866666667","6500400","永和區"
"234067","AAC-212","2019/12/13 19:43:24","新北市永和區永貞路418號","121.50878","25.0080266666667","6500400","永和區"
"234003","AAC-295","2019/12/13 19:43:28","新北市永和區永和路一段122號","121.513793333333","25.0077183333333","6500400","永和區"
"244023","483-VK","2019/12/13 19:43:33","新北市林口區文林四街47號","121.373878333333","25.0855016666667","6501700","林口區"
"208001","267-VK","2019/12/13 19:43:31","新北市金山區重和里六股林口13-1號","121.602838333333","25.21808","6502700","金山區"
"243012","AAD-798","2019/12/13 19:43:28","新北市泰山區仁愛路100巷56號","121.433638333333","25.05445","6501600","泰山區"
"243010","297-R6","2019/12/13 19:16:54","新北市泰山區明志路一段492巷4弄1號","121.429946666667","25.0548616666667","6501600","泰山區"
"243016","421-VK","2019/12/13 19:43:27","新北市泰山區明志路三段480號","121.420975","25.031485","6501600","泰山區"
"243009","KEA-2215","2019/12/13 19:43:29","新北市泰山區美寧街60號","121.430946666667","25.0646466666667","6501600","泰山區"
"243011","KEA-2216","2019/12/13 19:43:35","新北市泰山區明志路三段196巷21弄31號","121.42249","25.0381916666667","6501600","泰山區"
"222003","436-BY","2019/12/13 19:34:22","新北市深坑區深南路51-1號","121.621128333333","25.0099166666667","6501800","深坑區"
"222002","659-BX","2019/12/13 19:43:18","新北市深坑區北深路一段177號","121.632523333333","25.01082","6501800","深坑區"
"231061","002-UM","2019/12/13 19:43:31","新北市新店區安民街160號","121.516843333333","24.970295","6500600","新店區"
"231058","0293-UT","2019/12/13 19:43:19","新北市新店區中正路76巷11弄11號","121.543853333333","24.9713283333333","6500600","新店區"
"231044","046-UY","2019/12/13 19:43:32","新北市新店區順安街15號","121.540941666667","24.9853783333333","6500600","新店區"
"231060","106-UY","2019/12/13 19:43:31","新北市新店區安康路二段161號","121.510296666667","24.9593583333333","6500600","新店區"
"231051","107-UY","2019/12/13 19:43:21","新北市新店區中央四街20號","121.529143333333","24.9741066666667","6500600","新店區"
"231049","108-UY","2019/12/13 19:43:33","新北市新店區民權路100-1號","121.536135","24.9832433333333","6500600","新店區"
"231065","110-UY","2019/12/13 19:43:30","新北市新店區安祥路109巷151弄5號","121.478316666667","24.9587116666667","6500600","新店區"
"231050","KEA-2219","2019/12/13 19:43:20","新北市新店區郵政路71號","121.555421666667","24.95153","6500600","新店區"
"221031","KEA-2785","2019/12/13 19:43:32","新北市汐止區康寧街901號","121.650808333333","25.075305","6501100","汐止區"
"231062","256-BX","2019/12/13 19:43:32","新北市新店區太平路25-1號","121.533836666667","24.9580933333333","6500600","新店區"
"231054","260-TV","2019/12/13 19:43:30","新北市新店區文中路40號","121.539713333333","24.95655","6500600","新店區"
"231042","268-BY","2019/12/13 19:43:24","新北市新店區中興路一段260號","121.544851666667","24.96707","6500600","新店區"
"231064","278-BY","2019/12/13 19:43:25","新北市新店區安和路二段115號","121.518601666667","24.97043","6500600","新店區"
"231045","355-BY","2019/12/13 19:43:17","新北市新店區北宜路二段106號","121.555693333333","24.9536483333333","6500600","新店區"
"231056","4715-K9","2019/12/13 19:43:28","新北市新店區民權路72號","121.538065","24.9832433333333","6500600","新店區"
"231041","619-UM","2019/12/13 19:43:29","新北市新店區中正路485號","121.533841666667","24.9817266666667","6500600","新店區"
"231063","641-BX","2019/12/13 19:43:20","新北市新店區黎明路57巷49號","121.5044","24.9482833333333","6500600","新店區"
"231048","KED-0819","2019/12/13 19:43:23","新北市新店區五峰路61巷2-1號","121.547286666667","24.9701516666667","6500600","新店區"
"231053","718-UY","2019/12/13 19:43:28","新北市新店區新烏路二段486號","121.553048333333","24.9079366666667","6500600","新店區"
"231046","719-UM","2019/12/13 19:43:17","新北市新店區三民路84巷9號","121.534821666667","24.9731533333333","6500600","新店區"
"231057","720-UM","2019/12/13 19:43:33","新北市新店區百齡一路12號","121.553188333333","24.9323066666667","6500600","新店區"
"231059","897-TW","2019/12/13 19:43:28","新北市新店區安和路三段1-1號","121.51676","24.9798483333333","6500600","新店區"
"231040","898-TW","2019/12/13 19:43:35","新北市新店區中正路75巷71號","121.543138333333","24.9688533333333","6500600","新店區"
"231043","899-TW","2019/12/13 19:43:34","新北市新店區中正路213號","121.539805","24.9728483333333","6500600","新店區"
"231066","AKT-0513","2019/12/13 19:43:17","新北市新店區安康路三段165巷5號","121.489693333333","24.9512783333333","6500600","新店區"
"241011","013-R5","2019/12/13 19:43:27","新北市三重區仁愛街29號","121.496828333333","25.07115","6500200","三重區"
"241028","022-UY","2019/12/13 19:43:15","新北市三重區中正南路157號","121.493738333333","25.05612","6500200","三重區"
"241008","059-VK","2019/12/13 19:43:17","新北市三重區永福街111巷16號","121.478681666667","25.0775433333333","6500200","三重區"
"241031","061-VK","2019/12/13 19:43:24","新北市三重區重新路四段101-1號","121.48565","25.054405","6500200","三重區"
"241015","062-VK","2019/12/13 19:43:35","新北市三重區三和路一段43號","121.503211666667","25.0651133333333","6500200","三重區"
"241017","063-VK","2019/12/13 19:43:29","新北市三重區重陽路三段5巷8弄37號","121.490393333333","25.0663583333333","6500200","三重區"
"241007","066-VK","2019/12/13 19:43:19","新北市三重區三和路四段125巷27號","121.48567","25.0780266666667","6500200","三重區"
"241026","742-BX","2019/12/13 19:43:33","新北市三重區文化南路42號","121.500323333333","25.0601","6500200","三重區"
"241006","262-UM","2019/12/13 19:43:31","新北市三重區永福街263號","121.481588333333","25.07429","6500200","三重區"
"241016","266-UM","2019/12/13 19:41:11","新北市三重區正義北路2巷17號","121.496945","25.0624166666667","6500200","三重區"
"241009","267-UM","2019/12/13 19:43:29","新北市三重區三和路四段225號","121.481356666667","25.0796883333333","6500200","三重區"
"241032","269-UM","2019/12/13 19:43:31","新北市三重區重陽路一段60巷13號","121.485488333333","25.058195","6500200","三重區"
"241013","270-UM","2019/12/13 19:43:26","新北市三重區仁愛街119號","121.49542","25.0746933333333","6500200","三重區"
"241030","KED-0822","2019/12/13 19:43:32","新北市三重區環河南路227號","121.492283333333","25.0515983333333","6500200","三重區"
"241035","462-BY","2019/12/13 19:43:22","新北市三重區文化北路22-2號","121.499255","25.0642566666667","6500200","三重區"
"241020","478-VK","2019/12/13 19:43:32","新北市三重區三和路四段6號","121.491523333333","25.073835","6500200","三重區"
"241014","543-UM","2019/12/13 19:43:34","新北市三重區龍濱路17巷1號","121.503098333333","25.067725","6500200","三重區"
"241023","545-UM","2019/12/13 19:43:24","新北市三重區頂崁街168號","121.477613333333","25.065915","6500200","三重區"
"241019","KEA-2593","2019/12/13 19:43:35","新北市三重區力行路一段89巷12-1號","121.487295","25.0691766666667","6500200","三重區"
"241012","743-BX","2019/12/13 19:43:16","新北市三重區仁興街28巷44號","121.49837","25.075115","6500200","三重區"
"241022","KED-0820","2019/12/13 19:43:33","新北市三重區新北大道一段7號","121.489688333333","25.0614866666667","6500200","三重區"
"241025","KED-0670","2019/12/13 19:43:33","新北市三重區忠孝路三段56號","121.480605","25.0654516666667","6500200","三重區"
"241029","942-UM","2019/12/13 19:43:34","新北市三重區光明路59號","121.491755","25.0577233333333","6500200","三重區"
"235066","003-UY","2019/12/13 19:43:18","新北市中和區景新街57巷3號","121.504576666667","24.9990816666667","6500300","中和區"
"235056","096-UM","2019/12/13 19:43:35","新北市中和區中山路三段136巷2號","121.474031666667","25.006475","6500300","中和區"
"235039","097-UM","2019/12/13 19:43:37","新北市中和區景平路172號","121.517011666667","24.99269","6500300","中和區"
"235065","098-UM","2019/12/13 19:43:32","新北市中和區福美路255號","121.498686666667","25.0050983333333","6500300","中和區"
"235040","150-BY","2019/12/13 19:43:19","新北市中和區安和路39號","121.509668333333","24.9948633333333","6500300","中和區"
"235058","151-BY","2019/12/13 19:43:27","新北市中和區員山路146巷24號","121.482406666667","24.9968016666667","6500300","中和區"
"235055","183-VK","2019/12/13 19:43:29","新北市中和區德光路23號","121.470788333333","25.00416","6500300","中和區"
"235038","185-VK","2019/12/13 19:43:29","新北市中和區自強路17號","121.520371666667","24.99339","6500300","中和區"
"235067","255-BX","2019/12/13 19:43:30","新北市中和區新生街186巷1弄1號","121.48349","24.9996516666667","6500300","中和區"
"235044","293-VK","2019/12/13 19:43:20","新北市中和區捷運路127號","121.507003333333","24.9904883333333","6500300","中和區"
"235072","301-VK","2019/12/13 19:43:26","新北市中和區連城路265巷6弄6號","121.49104","24.9958716666667","6500300","中和區"
"235043","352-BY","2019/12/13 19:43:23","新北市中和區華新街232巷10號","121.50581","24.9821666666667","6500300","中和區"
"235042","KEA-2878","2019/12/13 19:43:21","新北市中和區景安路79巷3號","121.50687","24.9973533333333","6500300","中和區"
"235070","558-UM","2019/12/13 19:43:25","新北市中和區圓通路159號","121.498065","24.99559","6500300","中和區"
"235071","647-TV","2019/12/13 19:43:17","新北市中和區中山路二段441號","121.484701666667","25.0047466666667","6500300","中和區"
"235047","732-UM","2019/12/13 19:43:34","新北市中和區捷運路3號","121.509703333333","24.989435","6500300","中和區"
"235046","733-UM","2019/12/13 19:43:32","新北市中和區仁愛街114號","121.511671666667","24.9869583333333","6500300","中和區"
"235041","802-TS","2019/12/13 19:43:22","新北市中和區永貞路239巷15號","121.512641666667","25.0031166666667","6500300","中和區"
"235052","805-TS","2019/12/13 19:43:17","新北市中和區興南路二段159巷21號","121.505845","24.9838783333333","6500300","中和區"
"235048","896-TW","2019/12/13 19:43:18","新北市中和區興南路一段156號","121.508318333333","24.9868316666667","6500300","中和區"
"235053","900-TW","2019/12/13 19:43:29","新北市中和區國光街189巷12弄2號","121.467408333333","25.0015216666667","6500300","中和區"
"235051","157-BY","2019/12/13 19:43:25","新北市中和區中興街180巷52弄3號","121.49852","24.9883433333333","6500300","中和區"
"235037","AAC-213","2019/12/13 19:43:36","新北市中和區自立路56巷2號","121.523348333333","24.9918683333333","6500300","中和區"
"235059","AAC-215","2019/12/13 19:43:33","新北市中和區圓通路305巷15弄1號","121.494245","24.98951","6500300","中和區"
"207004","KEE-1107","2019/12/13 19:43:13","新北市萬里區萬里里瑪鋉路12-2號","121.687671666667","25.1755","6502800","萬里區"
"220054","015-TV","2019/12/13 19:43:19","新北市板橋區忠孝路52號","121.460895","25.0019","6500100","板橋區"
"220086","073-UY","2019/12/13 19:43:30","新北市板橋區中正路236巷104號","121.458918333333","25.01953","6500100","板橋區"
"220106","075-UY","2019/12/13 19:43:25","新北市板橋區民治街84號","121.479458333333","25.0321566666667","6500100","板橋區"
"220069","AAD-861","2019/12/13 19:43:22","新北市板橋區貴興路119巷1弄1號","121.455715","25.0022666666667","6500100","板橋區"
"247004","500-BY","2019/12/13 19:43:26","新北市蘆洲區中原路21巷7弄26號","121.461421666667","25.0825183333333","6501400","蘆洲區"
"247014","056-VK","2019/12/13 19:43:30","新北市蘆洲區中央路153號","121.472471666667","25.08446","6501400","蘆洲區"
"247002","001-UY","2019/12/13 19:43:21","新北市蘆洲區長榮路681號","121.460296666667","25.0921333333333","6501400","蘆洲區"
"226004","312-R5","2019/12/13 19:43:35","新北市平溪區十分里十分街60號","121.775678333333","25.0415783333333","6502400","平溪區"
"235049","251-BX","2019/12/13 19:43:27","新北市中和區景平路429號","121.501461666667","24.9953433333333","6500300","中和區"
"228001","670-TC","2019/12/13 19:43:32","新北市貢寮區真理里新港街106號","121.92699","25.05619","6502600","貢寮區"
"228003","828-UM","2019/12/13 19:43:33","新北市貢寮區真理里美艷山街15-3號","121.923693333333","25.0679833333333","6502600","貢寮區"
"224010","AGQ-8101","2019/12/13 19:43:37","新北市瑞芳區基山街251號","121.841356666667","25.107145","6501200","瑞芳區"
"227002","642-TC","2019/12/13 19:43:19","新北市雙溪區雙溪里內挖路36號","121.863205","25.0367366666667","6502500","雙溪區"
"227001","400-TW","2019/12/13 19:43:30","新北市雙溪區新基里中華路44號","121.865915","25.0374666666667","6502500","雙溪區"
"222001","KEA-2212","2019/12/13 19:43:30","新北市深坑區北深路三段14號","121.609608333333","25.00106","6501800","深坑區"
"208002","KEA-2872","2019/12/13 19:43:15","新北市金山區中華路366-1號","121.633251666667","25.2245083333333","6502700","金山區"
"208003","665-BX","2019/12/13 19:43:35","新北市金山區清泉里清水路32號","121.629963333333","25.2305466666667","6502700","金山區"
"251005","010-UM","2019/12/13 19:43:28","新北市淡水區水源街一段3號","121.442605","25.1725733333333","6501000","淡水區"
"251001","011-UM","2019/12/13 19:43:29","新北市淡水區中正東路二段87-3號","121.459415","25.152815","6501000","淡水區"
"251008","181-VK","2019/12/13 19:43:31","新北市淡水區中正路一段1號","121.426791666667","25.1761166666667","6501000","淡水區"
"251010","413-VK","2019/12/13 19:43:18","新北市淡水區崁頂92號","121.4283","25.2022116666667","6501000","淡水區"
"251007","442-VK","2019/12/13 19:43:28","新北市淡水區中正東路一段111巷1號","121.454033333333","25.1598866666667","6501000","淡水區"
"251006","561-UM","2019/12/13 19:43:19","新北市淡水區中山北路一段207巷74號","121.44138","25.1793433333333","6501000","淡水區"
"251009","575-R6","2019/12/13 19:43:32","新北市淡水區中山北路一段168號","121.44438","25.1787166666667","6501000","淡水區"
"251011","650-BX","2019/12/13 19:43:25","新北市淡水區八勢路50巷78號","121.462043333333","25.1489616666667","6501000","淡水區"
"251002","672-BX","2019/12/13 19:43:32","新北市淡水區下圭柔山90-2號","121.43176","25.2120216666667","6501000","淡水區"
"252001","292-VK","2019/12/13 19:43:28","新北市三芝區公正街9號","121.499755","25.2574666666667","6502100","三芝區"
"237004","KEA-2597","2019/12/13 19:43:25","新北市三峽區金敏17號","121.391683333333","24.874195","6500900","三峽區"
"237007","153-BY","2019/12/13 19:43:20","新北市三峽區二鬮路136巷20弄2號","121.357338333333","24.9098766666667","6500900","三峽區"
"237009","210-TH","2019/12/13 19:43:32","新北市三峽區中園街64號","121.36802","24.9255883333333","6500900","三峽區"
"237013","252-BX","2019/12/13 19:43:34","新北市三峽區溪北街95號","121.397863333333","24.9355733333333","6500900","三峽區"
"237012","275-BY","2019/12/13 19:43:22","新北市三峽區光明路39號","121.373775","24.9306183333333","6500900","三峽區"
"237008","302-VK","2019/12/13 19:43:15","新北市三峽區安溪路351號","121.3699","24.9261133333333","6500900","三峽區"
"237014","433-BY","2019/12/13 19:43:33","新北市三峽區嘉添91號","121.369108333333","24.9097133333333","6500900","三峽區"
"237006","5529-G3","2019/12/13 19:43:26","新北市三峽區中正路一段336巷15弄2號","121.36995","24.9249433333333","6500900","三峽區"
"237015","649-BX","2019/12/13 19:43:23","新北市三峽區成福路55號","121.418171666667","24.9289716666667","6500900","三峽區"
"237010","706-TV","2019/12/13 19:43:32","新北市三峽區復興路36-2號","121.374116666667","24.9365183333333","6500900","三峽區"
"237005","AKY-6261","2019/12/13 19:43:29","新北市三峽區文化路139號","121.36982","24.935355","6500900","三峽區"
"236042","KED-0685","2019/12/13 19:43:36","新北市土城區清水路87號","121.456141666667","24.9818616666667","6501300","土城區"
"236079","166-UM","2019/12/13 19:43:30","新北市土城區溪頭路151號","121.409175","24.9508433333333","6501300","土城區"
"236030","253-BX","2019/12/13 19:43:17","新北市土城區中央路一段294號","121.443303333333","24.98236","6501300","土城區"
"236069","KEA-2877","2019/12/13 19:43:27","新北市土城區和平路26號","121.443265","24.9729066666667","6501300","土城區"
"252002","KED-0821","2019/12/13 19:43:21","新北市三芝區三民街35號","121.504726666667","25.2585116666667","6502100","三芝區"
"236020","401-BY","2019/12/13 19:43:23","新北市土城區峰廷街8號","121.468695","24.987745","6501300","土城區"
"236059","912-UM","2019/12/13 19:43:32","新北市土城區中央路一段210號","121.44506","24.9855283333333","6501300","土城區"
"236048","913-UM","2019/12/13 19:43:31","新北市土城區明德路一段245號","121.462593333333","24.9781016666667","6501300","土城區"
"236063","915-UM","2019/12/13 19:43:16","新北市土城區延平街73號","121.467646666667","24.9931166666667","6501300","土城區"
"236055","AAC-216","2019/12/13 19:43:33","新北市土城區延和路22號","121.464645","24.988385","6501300","土城區"
"242005","751-BX","2019/12/13 19:43:26","新北市新莊區化成路29巷84號","121.461996666667","25.0440633333333","6500500","新莊區"
"242048","566-BX","2019/12/13 19:43:33","新北市新莊區後港一路15號","121.424348333333","25.0263533333333","6500500","新莊區"
"242039","441-UM","2019/12/13 19:43:24","新北市新莊區建國二路19號","121.434121666667","25.023895","6500500","新莊區"
"242013","413-TV","2019/12/13 19:43:32","新北市新莊區中誠街145號","121.448831666667","25.0474166666667","6500500","新莊區"
"242050","400-BY","2019/12/13 19:43:26","新北市新莊區民安東路132號","121.430976666667","25.0206133333333","6500500","新莊區"
"242023","353-BY","2019/12/13 19:43:28","新北市新莊區復興路三段115號","121.464301666667","25.04452","6500500","新莊區"
"242017","173-VK","2019/12/13 19:43:25","新北市新莊區新泰路361巷23號","121.442356666667","25.0430266666667","6500500","新莊區"
"242032","175-VK","2019/12/13 19:43:29","新北市新莊區新泰路207號","121.44678","25.0384166666667","6500500","新莊區"
"242037","348-TH","2019/12/13 19:43:34","新北市新莊區建安街101巷4弄2號","121.426961666667","25.02382","6500500","新莊區"
"242034","350-TH","2019/12/13 19:43:36","新北市新莊區仁愛街30號","121.444326666667","25.0362233333333","6500500","新莊區"
"238015","755-BX","2019/12/13 19:43:36","新北市樹林區日新街87號","121.421703333333","24.990325","6500700","樹林區"
"238023","601-UM","2019/12/13 19:43:22","新北市樹林區三福街114號","121.406543333333","25.01631","6500700","樹林區"
"238019","571-TV","2019/12/13 19:43:33","新北市樹林區八德街7號","121.417865","24.98455","6500700","樹林區"
"238024","5061-A6","2019/12/13 19:43:36","新北市樹林區中山路三段26號","121.39543","24.9727533333333","6500700","樹林區"
"238022","KEA-2213","2019/12/13 19:43:26","新北市樹林區國凱街50巷30號","121.420921666667","24.9780366666667","6500700","樹林區"
"238021","KEA-2539","2019/12/13 19:43:32","新北市樹林區佳園路三段101巷80弄3號","121.395015","24.9497666666667","6500700","樹林區"
"238025","303-VK","2019/12/13 19:43:25","新北市樹林區鎮前街281-4號","121.418296666667","24.985235","6500700","樹林區"
"238017","283-BY","2019/12/13 19:16:47","新北市樹林區光興街376巷2號","121.406315","25.00567","6500700","樹林區"
"238014","282-BY","2019/12/13 19:43:35","新北市樹林區千歲街46巷11號","121.426708333333","24.9966766666667","6500700","樹林區"
"239007","AAC-297","2019/12/13 19:43:30","新北市鶯歌區大湖路326巷14號","121.34618","24.9701066666667","6500800","鶯歌區"
"239006","891-R6","2019/12/13 19:43:22","新北市鶯歌區永昌街15號","121.34307","24.94972","6500800","鶯歌區"
"239008","527-UM","2019/12/13 19:43:27","新北市鶯歌區大湖路462號","121.339945","24.972115","6500800","鶯歌區"
"239005","526-UM","2019/12/13 19:43:18","新北市鶯歌區中湖街309巷1號","121.346906666667","24.9780416666667","6500800","鶯歌區"
"239001","417-VK","2019/12/13 19:43:25","新北市鶯歌區鶯桃路39號","121.342711666667","24.9508333333333","6500800","鶯歌區"
"239003","360-BY","2019/12/13 19:43:30","新北市鶯歌區中正二路46號","121.351115","24.95141","6500800","鶯歌區"
"239002","359-BY","2019/12/13 19:43:24","新北市鶯歌區大湖路185巷22號","121.342605","24.9704933333333","6500800","鶯歌區"
"239004","193-VK","2019/12/13 19:43:30","新北市鶯歌區國中街183號","121.339373333333","24.9391666666667","6500800","鶯歌區"
"221008","489-VK","2019/12/13 19:43:19","新北市汐止區康寧街141巷20弄5號","121.621598333333","25.0679283333333","6501100","汐止區"
"221010","269-BY","2019/12/13 19:43:22","新北市汐止區連峰街1巷1號","121.646493333333","25.0762066666667","6501100","汐止區"
"221012","278-VK","2019/12/13 19:43:33","新北市汐止區大同路三段298號","121.678435","25.071145","6501100","汐止區"
"221023","279-VK","2019/12/13 19:43:32","新北市汐止區中興路270號","121.628893333333","25.0688183333333","6501100","汐止區"
"221027","281-BY","2019/12/13 19:43:26","新北市汐止區忠孝東路9號","121.658275","25.06591","6501100","汐止區"
"221021","299-VK","2019/12/13 19:43:32","新北市汐止區新興路108號","121.657215","25.0608983333333","6501100","汐止區"
"207003","KEE-1020","2019/12/13 19:43:30","新北市萬里區大鵬里下社17-4號","121.64818","25.2177066666667","6502800","萬里區"
"221025","567-BX","2019/12/13 19:43:31","新北市汐止區福安街20巷17號","121.662245","25.0647383333333","6501100","汐止區"
"221038","646-BX","2019/12/13 19:43:30","新北市汐止區忠孝東路287號","121.663893333333","25.0687666666667","6501100","汐止區"
"221033","647-BX","2019/12/13 19:43:21","新北市汐止區東勢街32號","121.62523","25.0387633333333","6501100","汐止區"
"221002","707-TV","2019/12/13 19:43:20","新北市汐止區連峰街1巷5號","121.645993333333","25.0759533333333","6501100","汐止區"
"220079","145-BY","2019/12/13 19:43:30","新北市板橋區民權路260巷3號","121.45813","25.0153866666667","6500100","板橋區"
"220080","200-UY","2019/12/13 19:43:29","新北市板橋區大觀路二段37巷246號","121.449718333333","25.0018466666667","6500100","板橋區"
"220082","610-BX","2019/12/13 19:43:35","新北市板橋區大觀路三段198巷1號","121.430936666667","24.9925616666667","6500100","板橋區"
"220101","245-BX","2019/12/13 19:43:31","新北市板橋區縣民大道三段101號","121.476288333333","25.02226","6500100","板橋區"
"224002","257-TC","2019/12/13 19:43:34","新北市瑞芳區三爪子坑路13巷153號","121.815046666667","25.1062933333333","6501200","瑞芳區"
"220091","267-BY","2019/12/13 19:43:27","新北市板橋區懷德街127巷14弄1號","121.47941","25.0310966666667","6500100","板橋區"
"220056","276-BY","2019/12/13 19:43:29","新北市板橋區信義路1巷24號","121.458021666667","24.99722","6500100","板橋區"
"220072","277-BY","2019/12/13 19:43:28","新北市板橋區金門街151巷40弄2號","121.433575","24.99034","6500100","板橋區"
"220094","283-UM","2019/12/13 19:43:33","新北市板橋區陽明街299號","121.461626666667","25.026655","6500100","板橋區"
"220071","283-VK","2019/12/13 19:43:33","新北市板橋區國慶路182巷28-1號","121.463225","24.9953883333333","6500100","板橋區"
"220053","285-VK","2019/12/13 19:43:24","新北市板橋區中山路二段60巷1弄11號","121.474695","25.0155516666667","6500100","板橋區"
"220083","286-VK","2019/12/13 19:43:31","新北市板橋區大觀路二段174巷139號","121.441323333333","25.00235","6500100","板橋區"
"220081","287-VK","2019/12/13 19:43:31","新北市板橋區大觀路一段29巷131弄33-16號","121.450313333333","25.0041516666667","6500100","板橋區"
"220090","288-VK","2019/12/13 19:43:20","新北市板橋區英士路57號","121.460653333333","25.024445","6500100","板橋區"
"220061","293-UM","2019/12/13 19:43:32","新北市板橋區中山路一段283巷14號","121.47028","25.0150283333333","6500100","板橋區"
"220092","295-UM","2019/12/13 19:43:32","新北市板橋區新海路354號","121.460061666667","25.024785","6500100","板橋區"
"220084","296-UM","2019/12/13 19:43:37","新北市板橋區滿平街84巷70號","121.426035","24.9873866666667","6500100","板橋區"
"220075","303-R5","2019/12/13 19:43:24","新北市板橋區中正路253巷29號","121.454108333333","25.0177066666667","6500100","板橋區"
"220062","305-R5","2019/12/13 19:43:30","新北市板橋區三民路二段29巷31弄1號","121.481423333333","25.0176933333333","6500100","板橋區"
"220098","317-R6","2019/12/13 19:43:27","新北市板橋區四維路257號","121.463421666667","25.0281583333333","6500100","板橋區"
"220089","487-VK","2019/12/13 19:43:32","新北市板橋區互助街64號","121.461148333333","25.026675","6500100","板橋區"
"220088","491-VK","2019/12/13 19:43:22","新北市板橋區大同街79號","121.479668333333","25.028215","6500100","板橋區"
"220035","560-BX","2019/12/13 19:43:37","新北市板橋區金華街85巷42號","121.45915","25.0213166666667","6500100","板橋區"
"220103","561-BX","2019/12/13 19:43:29","新北市板橋區文化路一段421巷9號","121.466946666667","25.0227483333333","6500100","板橋區"
"220065","568-UM","2019/12/13 19:43:25","新北市板橋區國泰街52號","121.46786","25.0066083333333","6500100","板橋區"
"220063","609-BX","2019/12/13 19:43:35","新北市板橋區三民路一段129號","121.47935","25.02109","6500100","板橋區"
"220057","686-BX","2019/12/13 19:43:28","新北市板橋區四川路二段47巷2號","121.453911666667","24.9953466666667","6500100","板橋區"
"220077","687-BX","2019/12/13 19:43:34","新北市板橋區僑中二街106巷1號","121.445918333333","25.0075633333333","6500100","板橋區"
"220093","689-BX","2019/12/13 19:43:27","新北市板橋區長江路三段134號","121.475655","25.03461","6500100","板橋區"
"220102","KEA-2699","2019/12/13 19:43:32","新北市板橋區仁化街42巷14號","121.475426666667","25.0310716666667","6500100","板橋區"
"220055","827-TW","2019/12/13 19:43:26","新北市板橋區國慶路149巷13弄12-4號","121.460458333333","24.9970433333333","6500100","板橋區"
"220067","829-TW","2019/12/13 19:43:35","新北市板橋區長安街138巷1弄292號","121.474906666667","25.0112016666667","6500100","板橋區"
"220068","830-TW","2019/12/13 19:43:18","新北市板橋區中山路二段416巷47弄18號","121.483583333333","25.0194","6500100","板橋區"
"220074","895-R6","2019/12/13 19:43:16","新北市板橋區大東街36號","121.456523333333","25.0086633333333","6500100","板橋區"
"220073","985-R7","2019/12/13 19:43:33","新北市板橋區國光路51號","121.458086666667","25.0179516666667","6500100","板橋區"
"220097","AAC-210","2019/12/13 19:43:36","新北市板橋區光正街43號","121.461825","25.0172166666667","6500100","板橋區"
"220064","AAC-253","2019/12/13 19:43:21","新北市板橋區公園街56號","121.462101666667","25.0078566666667","6500100","板橋區"
"235061","KEA-2875","2019/12/13 19:43:16","新北市中和區新生街148巷22號","121.482545","25.0007616666667","6500300","中和區"
"235068","KEA-2876","2019/12/13 19:43:28","新北市中和區廟美街28號","121.500728333333","25.00179","6500300","中和區"
