"lineid","car","time","location","longitude","latitude","cityid","cityname"
"231060","106-UY","2019/12/13 21:13:30","新北市新店區薏仁坑路5號","121.498965","24.9591216666667","6500600","新店區"
"231051","107-UY","2019/12/13 21:13:33","新北市新店區中正路700巷82號","121.53608","24.9931266666667","6500600","新店區"
"231065","110-UY","2019/12/13 21:13:30","新北市新店區薏仁坑路自強巷6號","121.496653333333","24.9584716666667","6500600","新店區"
"231050","KEA-2219","2019/12/13 21:13:20","新北市新店區華興街3號","121.53813","24.9698383333333","6500600","新店區"
"231062","256-BX","2019/12/13 21:13:32","新北市新店區安康路二段341巷11號","121.497755","24.955645","6500600","新店區"
"231042","268-BY","2019/12/13 21:13:23","新北市新店區薏仁坑路自強巷1號","121.497726666667","24.9577983333333","6500600","新店區"
"231063","641-BX","2019/12/13 21:13:20","新北市新店區吉祥街15巷1號","121.497708333333","24.9456316666667","6500600","新店區"
"231059","897-TW","2019/12/13 21:13:30","新北市新店區僑義路28號","121.500583333333","24.9499533333333","6500600","新店區"
"231040","898-TW","2019/12/13 21:13:35","新北市新店區北新路一段103號","121.539123333333","24.9621583333333","6500600","新店區"
"241011","013-R5","2019/12/13 21:13:27","新北市三重區龍濱路114號","121.502198333333","25.0702633333333","6500200","三重區"
"241028","022-UY","2019/12/13 21:13:35","新北市三重區重安街170巷6號","121.496471666667","25.0546666666667","6500200","三重區"
"241008","059-VK","2019/12/13 21:13:36","新北市三重區自強路一段64號","121.497253333333","25.0666066666667","6500200","三重區"
"241031","061-VK","2019/12/13 21:13:24","新北市三重區五谷王南街46巷37號","121.475743333333","25.0455133333333","6500200","三重區"
"241015","062-VK","2019/12/13 21:13:35","新北市三重區河邊北街23號","121.504256666667","25.0651416666667","6500200","三重區"
"241017","063-VK","2019/12/13 21:13:29","新北市三重區大同北路140號","121.492578333333","25.0648483333333","6500200","三重區"
"241024","065-VK","2019/12/13 21:13:19","新北市三重區力行路一段48號","121.486075","25.0682116666667","6500200","三重區"
"241007","066-VK","2019/12/13 21:13:19","新北市三重區車路頭街135-1號","121.484215","25.0761933333333","6500200","三重區"
"241002","090-VK","2019/12/13 21:13:33","新北市三重區五華街19號","121.494898333333","25.08037","6500200","三重區"
"241003","091-VK","2019/12/13 21:13:23","新北市三重區仁義街347號","121.494796666667","25.0849833333333","6500200","三重區"
"241026","742-BX","2019/12/13 21:13:33","新北市三重區中正北路83號","121.489885","25.0630916666667","6500200","三重區"
"241006","262-UM","2019/12/13 21:13:31","新北市三重區明志街135號","121.489128333333","25.0632316666667","6500200","三重區"
"241016","266-UM","2019/12/13 21:13:31","新北市三重區信義西街41號","121.495206666667","25.06418","6500200","三重區"
"241009","267-UM","2019/12/13 21:13:29","新北市三重區忠孝路三段12號","121.481841666667","25.067375","6500200","三重區"
"241018","268-UM","2019/12/13 21:13:36","新北市三重區忠孝路一段13號","121.492233333333","25.0717883333333","6500200","三重區"
"241032","269-UM","2019/12/13 21:13:31","新北市三重區中興北街136號","121.468858333333","25.0560516666667","6500200","三重區"
"241013","270-UM","2019/12/13 21:13:26","新北市三重區仁愛街83號","121.495926666667","25.0732433333333","6500200","三重區"
"241001","KEA-2210","2019/12/13 21:13:36","新北市三重區自強路三段87巷18號","121.48836","25.0750266666667","6500200","三重區"
"241030","KED-0822","2019/12/13 21:13:32","新北市三重區五谷王北街20巷15弄1號","121.475096666667","25.04847","6500200","三重區"
"241004","475-VK","2019/12/13 21:13:26","新北市三重區仁愛街423-1號","121.490356666667","25.08146","6500200","三重區"
"241014","543-UM","2019/12/13 21:13:34","新北市三重區長安街82-1號","121.501391666667","25.0677266666667","6500200","三重區"
"241023","545-UM","2019/12/13 21:13:24","新北市三重區中正北路176巷16號","121.482676666667","25.0659316666667","6500200","三重區"
"241005","AAD-863","2019/12/13 21:13:33","新北市三重區仁華街118巷6號","121.485645","25.0830716666667","6500200","三重區"
"241012","743-BX","2019/12/13 21:13:36","新北市三重區龍門路227號","121.50153","25.0739216666667","6500200","三重區"
"241022","KED-0820","2019/12/13 21:13:33","新北市三重區中正北路64巷23號","121.485968333333","25.0637833333333","6500200","三重區"
"241025","KED-0670","2019/12/13 21:13:33","新北市三重區中正北路208巷8號","121.48225","25.0669583333333","6500200","三重區"
"241029","942-UM","2019/12/13 21:13:33","新北市三重區正義南路111號","121.498273333333","25.0584716666667","6500200","三重區"
"241033","AAC-255","2019/12/13 21:13:14","新北市三重區光復路二段168號","121.472095","25.0610683333333","6500200","三重區"
"235055","183-VK","2019/12/13 21:13:20","新北市中和區新生街41號","121.483356666667","25.0032266666667","6500300","中和區"
"247010","KED-0682","2019/12/13 21:13:29","新北市蘆洲區鷺江街19號","121.47903","25.0824066666667","6501400","蘆洲區"
"247006","893-R6","2019/12/13 21:13:22","新北市蘆洲區長安街26號","121.464036666667","25.0792","6501400","蘆洲區"
"247020","546-UM","2019/12/13 21:13:24","新北市蘆洲區民族路436巷22號","121.472796666667","25.0929483333333","6501400","蘆洲區"
"247004","500-BY","2019/12/13 21:13:26","新北市蘆洲區永安南路二段322號","121.456941666667","25.0827183333333","6501400","蘆洲區"
"247022","341-TH","2019/12/13 21:13:22","新北市蘆洲區三民路243號","121.468856666667","25.08886","6501400","蘆洲區"
"247024","057-VK","2019/12/13 21:13:21","新北市蘆洲區長興路50巷1號","121.463755","25.083755","6501400","蘆洲區"
"247014","056-VK","2019/12/13 21:13:30","新北市蘆洲區忠孝路37號","121.471356666667","25.08581","6501400","蘆洲區"
"247018","053-VK","2019/12/13 21:13:18","新北市蘆洲區復興路105巷11號","121.476415","25.0883766666667","6501400","蘆洲區"
"247008","002-UY","2019/12/13 21:13:25","新北市蘆洲區民生街26號","121.474941666667","25.0788866666667","6501400","蘆洲區"
"247002","001-UY","2019/12/13 21:13:20","新北市蘆洲區永樂街38巷40號","121.458608333333","25.0901016666667","6501400","蘆洲區"
"251004","009-UM","2019/12/13 21:13:36","新北市淡水區民族路33號","121.462323333333","25.1358016666667","6501000","淡水區"
"251005","010-UM","2019/12/13 21:13:28","新北市淡水區仁愛街14號","121.44649","25.1703966666667","6501000","淡水區"
"251001","011-UM","2019/12/13 21:13:34","新北市淡水區中山北路二段381巷117號","121.443336666667","25.1859833333333","6501000","淡水區"
"251008","181-VK","2019/12/13 21:13:31","新北市淡水區北投子99號","121.465288333333","25.1776766666667","6501000","淡水區"
"251010","413-VK","2019/12/13 21:13:18","新北市淡水區中正路一段61號","121.423928333333","25.1776733333333","6501000","淡水區"
"251012","441-VK","2019/12/13 21:13:20","新北市淡水區溪口6號","121.456091666667","25.2360283333333","6501000","淡水區"
"251009","575-R6","2019/12/13 21:13:33","新北市淡水區民族路112巷57號","121.462018333333","25.1343383333333","6501000","淡水區"
"251011","650-BX","2019/12/13 21:13:25","新北市淡水區新民街178巷42弄8-1號","121.438433333333","25.1796716666667","6501000","淡水區"
"251002","672-BX","2019/12/13 21:13:32","新北市淡水區學府路172巷21號","121.448293333333","25.174985","6501000","淡水區"
"251003","766-UM","2019/12/13 21:13:23","新北市淡水區新春街94號","121.439048333333","25.1823733333333","6501000","淡水區"
"247012","KED-0683","2019/12/13 21:13:33","新北市蘆洲區民族路242號","121.479231666667","25.08847","6501400","蘆洲區"
"242019","351-TH","2019/12/13 21:13:27","新北市八里區商港路105巷15-1號","121.391838333333","25.1496","6500500","新莊區"
"220057","686-BX","2019/12/13 21:13:28","新北市五股區新五路二段99-1號","121.437198333333","25.0757033333333","6500100","板橋區"
