"lineid","car","time","location","longitude","latitude","cityid","cityname"
"251004","009-UM","2019/12/13 22:13:36","新北市淡水區民族路33號","121.462233333333","25.1357883333333","6501000","淡水區"
"251008","181-VK","2019/12/13 22:13:31","新北市淡水區學府路104號","121.449923333333","25.1718283333333","6501000","淡水區"
"251010","413-VK","2019/12/13 22:13:18","新北市淡水區沙崙路200號","121.424696666667","25.18391","6501000","淡水區"
"251007","442-VK","2019/12/13 22:13:28","新北市淡水區北新路180號","121.44949","25.1786966666667","6501000","淡水區"
"251011","650-BX","2019/12/13 22:13:25","新北市淡水區水碓街7號","121.443181666667","25.177095","6501000","淡水區"
