"lineid","car","time","location","longitude","latitude","cityid","cityname"
"232017","290-BY","2019/12/02 08:13:38","新北市坪林區坪雙路二段143號","121.762676666667","24.9627583333333","6502000","坪林區"
"232005","291-BY","2019/12/02 08:13:47","新北市坪林區鶯子瀨6號","121.707943333333","24.9154633333333","6502000","坪林區"
"232012","705-BZ","2019/12/02 08:13:46","新北市坪林區金瓜寮36號","121.67268","24.89814","6502000","坪林區"
"232001","758-BX","2019/12/02 08:13:42","新北市坪林區坪雙路一段115號","121.729366666667","24.9480633333333","6502000","坪林區"
"244024","069-UM","2019/12/02 08:13:35","新北市林口區中山路298號","121.381853333333","25.0814933333333","6501700","林口區"
"244006","080-UY","2019/12/02 08:13:44","新北市林口區菁埔路33號","121.377541666667","25.0970283333333","6501700","林口區"
"244001","248-BX","2019/12/02 08:13:46","新北市林口區下福里20鄰12號","121.314328333333","25.1101516666667","6501700","林口區"
"244012","KEA-2802","2019/12/02 08:13:42","新北市林口區中正路559號","121.38106","25.0768316666667","6501700","林口區"
"244022","483-VK","2019/12/02 08:13:36","新北市林口區仁愛路一段665號","121.387788333333","25.0764233333333","6501700","林口區"
"244016","485-VK","2019/12/02 08:13:48","新北市林口區中山路285號","121.384265","25.0801266666667","6501700","林口區"
"244008","656-BX","2019/12/02 08:13:41","新北市林口區中北一街15巷86號","121.384606666667","25.08691","6501700","林口區"
"244010","701-TV","2019/12/02 08:13:47","新北市林口區仁愛路一段338號","121.390791666667","25.0765133333333","6501700","林口區"
"244020","838-TS","2019/12/02 08:13:43","新北市林口區粉寮路二段457-9號","121.404718333333","25.0980266666667","6501700","林口區"
"222004","289-BY","2019/12/02 08:13:42","新北市深坑區北深路三段111號","121.605005","25.0020616666667","6501800","深坑區"
"231007","189-VK","2019/12/02 08:13:43","新北市新店區華潭街52號","121.528461666667","24.9548216666667","6500600","新店區"
"231008","192-VK","2019/12/02 08:13:47","新北市新店區新烏路二段212-1號","121.547438333333","24.915265","6500600","新店區"
"223008","406-TH","2019/12/02 08:13:40","新北市石碇區蚯蚓坑61-1號","121.682746666667","25.0096533333333","6501900","石碇區"
"223001","437-BY","2019/12/02 08:13:50","新北市石碇區月扇湖3-1號","121.658061666667","24.9581","6501900","石碇區"
"223004","660-BX","2019/12/02 08:13:41","新北市石碇區外按8號","121.65116","24.9964766666667","6501900","石碇區"
"223007","661-BX","2019/12/02 08:13:37","新北市石碇區靜安路一段262號","121.680895","25.0108166666667","6501900","石碇區"
"227003","282-VK","2019/12/02 08:13:46","新北市雙溪區上林里內平林131-1號","121.82204","25.0250983333333","6502500","雙溪區"
"252006","073-UM","2019/12/02 08:13:46","新北市三芝區海景四街20號","121.473611666667","25.246465","6502100","三芝區"
"252004","249-BX","2019/12/02 08:13:50","新北市三芝區興華里車埕16號","121.50239","25.1982633333333","6502100","三芝區"
"237013","760-BX","2019/12/02 08:13:46","桃園市大溪區三民路二段360號","121.352668333333","24.8521466666667","6500900","三峽區"
"242059","986-R7","2019/12/02 08:13:51","新北市新莊區瓊林南路75號","121.434865","25.0145583333333","6500500","新莊區"
"242028","615-BX","2019/12/02 08:13:55","新北市新莊區復興路一段63號","121.44767","25.0423933333333","6500500","新莊區"
"242026","613-BX","2019/12/02 08:13:42","新北市新莊區福壽街138號","121.457685","25.0517616666667","6500500","新莊區"
"242057","612-BX","2019/12/02 08:13:46","新北市新莊區中正路723號","121.423655","25.0293033333333","6500500","新莊區"
"242047","566-BX","2019/12/02 08:13:42","新北市新莊區萬安街97號","121.420983333333","25.0231933333333","6500500","新莊區"
"242052","497-BY","2019/12/02 08:13:46","新北市新莊區保安街一段14巷61弄7號","121.43052","24.9965516666667","6500500","新莊區"
"242040","442-UM","2019/12/02 08:13:36","新北市泰山區新北大道六段347號","121.422863333333","25.0334616666667","6500500","新莊區"
"242001","441-UM","2019/12/02 08:13:45","新北市新莊區大觀街42巷23號","121.45443","25.036225","6500500","新莊區"
"242043","415-TV","2019/12/02 08:13:49","新北市新莊區中正路871巷9弄10號","121.41896","25.027005","6500500","新莊區"
"242012","413-TV","2019/12/02 08:13:41","新北市新莊區中誠街140號","121.448765","25.0476033333333","6500500","新莊區"
"242049","400-BY","2019/12/02 08:13:50","新北市新莊區西盛街311巷21號","121.428798333333","25.01535","6500500","新莊區"
"242024","362-BY","2019/12/02 08:13:43","新北市新莊區思源路746號","121.460043333333","25.059345","6500500","新莊區"
"242022","353-BY","2019/12/02 08:13:49","新北市新莊區福樂街13號","121.457845","25.0449616666667","6500500","新莊區"
"242014","132-UY","2019/12/02 08:13:37","新北市新莊區中平路40號","121.444818333333","25.04371","6500500","新莊區"
"242038","135-UY","2019/12/02 08:13:51","新北市新莊區富國路204號","121.424926666667","25.0242416666667","6500500","新莊區"
"242055","172-VK","2019/12/02 08:13:46","新北市新莊區瓊林路13-7號","121.448261666667","25.0302883333333","6500500","新莊區"
"242016","173-VK","2019/12/02 08:13:39","新北市新莊區永安街176號","121.448698333333","25.04436","6500500","新莊區"
"242003","176-VK","2019/12/02 08:13:53","新北市新莊區自立街214巷9弄2號","121.45722","25.0449933333333","6500500","新莊區"
"242020","KED-0687","2019/12/02 08:13:51","新北市新莊區中港路142號","121.455161666667","25.0409533333333","6500500","新莊區"
"242006","346-TH","2019/12/02 08:13:36","新北市新莊區福樂街156巷12弄20號","121.456885","25.04876","6500500","新莊區"
"242030","347-TH","2019/12/02 08:13:37","新北市新莊區新泰路321巷9號","121.444186666667","25.0412616666667","6500500","新莊區"
"242035","348-TH","2019/12/02 08:13:48","新北市新莊區建福路69巷28號","121.428138333333","25.027235","6500500","新莊區"
"242008","349-TH","2019/12/02 08:13:39","新北市新莊區福壽街169巷13號","121.456791666667","25.053605","6500500","新莊區"
"242033","350-TH","2019/12/02 08:13:43","新北市新莊區新莊路783號","121.441116666667","25.03267","6500500","新莊區"
"242018","351-TH","2019/12/02 08:13:38","新北市新莊區中港路254號","121.453723333333","25.0435016666667","6500500","新莊區"
"244018","KED-0667","2019/12/02 08:13:51","新北市林口區竹林路2號","121.386565","25.0769683333333","6501700","林口區"
"242045","281-VK","2019/12/02 08:13:39","新北市新莊區建國一路50號","121.43401","25.0310583333333","6500500","新莊區"
"242010","280-VK","2019/12/02 08:13:43","新北市新莊區榮華路二段2號","121.450833333333","25.0558183333333","6500500","新莊區"
