"lineid","car","time","location","longitude","latitude","cityid","cityname"
"234044","148-BY","2019/12/02 13:59:49","新北市永和區成功路一段36號","121.527038333333","25.004535","6500400","永和區"
"234078","298-R6","2019/12/02 13:59:34","新北市永和區永利路73號","121.52117","25.0038183333333","6500400","永和區"
"234036","336-UY","2019/12/02 13:59:37","新北市永和區成功路二段152-2號","121.526555","24.9966916666667","6500400","永和區"
"234062","337-UY","2019/12/02 13:59:42","新北市永和區中正路368巷1弄43號","121.519038333333","25.0010266666667","6500400","永和區"
"234084","338-UY","2019/12/02 13:59:41","新北市永和區中正路513號","121.516855","25.0073133333333","6500400","永和區"
"234068","552-UM","2019/12/02 13:59:37","新北市永和區國光路14號","121.519198333333","25.0083783333333","6500400","永和區"
"234028","746-BX","2019/12/02 13:59:39","新北市永和區民生路22巷15號","121.521681666667","24.9970616666667","6500400","永和區"
"234052","KEA-2590","2019/12/02 13:59:41","新北市永和區竹林路64號","121.51828","25.0134766666667","6500400","永和區"
"234005","KED-0605","2019/12/02 13:59:36","新北市永和區中和路499號","121.510578333333","25.0022583333333","6500400","永和區"
"234012","KEA-2591","2019/12/02 13:59:29","新北市永和區保生路55號","121.504728333333","25.010575","6500400","永和區"
"234060","AAD-866","2019/12/02 13:59:46","新北市永和區中正路283巷66弄2號","121.515923333333","24.9996266666667","6500400","永和區"
"234015","748-BX","2019/12/02 13:59:38","新北市永和區文化路95-1號","121.513236666667","25.015155","6500400","永和區"
"234040","862-TW","2019/12/02 13:59:41","新北市永和區中和路335巷14號","121.50759","25.000305","6500400","永和區"
"234048","863-TW","2019/12/02 13:59:31","新北市永和區保安路232號","121.506893333333","25.0131533333333","6500400","永和區"
"234010","9373-KE","2019/12/02 13:59:29","新北市永和區仁愛路264號","121.504711666667","25.0089116666667","6500400","永和區"
"248015","026-BX","2019/12/02 13:59:29","新北市五股區成泰路三段577巷21號","121.451443333333","25.102635","6501500","五股區"
"248007","KED-0815","2019/12/02 13:59:48","新北市五股區中興路一段118巷6弄9號","121.466286666667","25.0745","6501500","五股區"
"248019","KED-0813","2019/12/02 13:59:35","新北市五股區凌雲路三段71-3號","121.424318333333","25.125475","6501500","五股區"
"248003","677-BX","2019/12/02 13:59:33","新北市五股區民義路二段50-16號","121.412698333333","25.1023083333333","6501500","五股區"
"248001","678-BX","2019/12/02 13:59:45","新北市五股區凌雲路一段156巷1號","121.448938333333","25.10262","6501500","五股區"
"234022","9380-KE","2019/12/02 13:59:37","新北市永和區復興街19巷4號","121.516206666667","25.01315","6500400","永和區"
"234076","969-R7","2019/12/02 13:59:42","新北市永和區民權路56號","121.519996666667","24.9983533333333","6500400","永和區"
"234072","AAC-211","2019/12/02 13:59:41","新北市永和區豫溪街151號","121.52108","25.0104033333333","6500400","永和區"
"234066","AAC-212","2019/12/02 13:59:27","新北市永和區永貞路313號","121.510053333333","25.00657","6500400","永和區"
"234001","AAC-295","2019/12/02 13:59:31","新北市永和區福和路316號","121.516126666667","25.0073566666667","6500400","永和區"
"244001","248-BX","2019/12/02 13:59:36","新北市林口區太平里11鄰38號","121.360065","25.1318566666667","6501700","林口區"
"243004","AAD-798","2019/12/02 13:59:45","新北市泰山區福興三街26號","121.43416","25.057725","6501600","泰山區"
"243002","297-R6","2019/12/02 13:59:41","新北市泰山區辭修路24號","121.429048333333","25.058235","6501600","泰山區"
"243006","KEA-2801","2019/12/02 13:59:36","新北市泰山區泰林路二段603號","121.421358333333","25.0634633333333","6501600","泰山區"
"243008","421-VK","2019/12/02 13:59:34","新北市泰山區明志路二段135號","121.427645","25.0507866666667","6501600","泰山區"
"243001","KEA-2215","2019/12/02 13:59:41","新北市泰山區泰林路二段280巷2號","121.431553333333","25.0624066666667","6501600","泰山區"
"243005","646-TV","2019/12/02 13:59:34","新北市泰山區明志路三段206巷12號","121.423041666667","25.0380983333333","6501600","泰山區"
"243007","680-BX","2019/12/02 13:59:47","新北市泰山區美寧街48號","121.430436666667","25.0644033333333","6501600","泰山區"
"231005","001-UM","2019/12/02 13:59:46","新北市新店區中興路三段200號","121.543883333333","24.9819283333333","6500600","新店區"
"231030","002-UM","2019/12/02 13:59:44","新北市新店區安康路一段258號","121.520613333333","24.9639916666667","6500600","新店區"
"231024","0291-UT","2019/12/02 13:59:41","新北市新店區新生街13巷14號","121.539395","24.9659883333333","6500600","新店區"
"231001","047-UY","2019/12/02 13:59:46","新北市新店區三民路24號","121.537108333333","24.970965","6500600","新店區"
"231029","106-UY","2019/12/02 13:59:37","新北市新店區安康路一段351-1號","121.519701666667","24.9639566666667","6500600","新店區"
"231018","107-UY","2019/12/02 13:59:47","新北市新店區中央路63號","121.532638333333","24.9771183333333","6500600","新店區"
"231013","108-UY","2019/12/02 13:59:30","新北市新店區明德路64號","121.541603333333","24.9794633333333","6500600","新店區"
"231036","110-UY","2019/12/02 13:59:36","新北市新店區安祥路110巷61號","121.473766666667","24.95688","6500600","新店區"
"231023","260-TV","2019/12/02 13:59:34","新北市新店區文中路40號","121.539721666667","24.9565816666667","6500600","新店區"
"231003","268-BY","2019/12/02 13:59:34","新北市新店區光明街22號","121.538306666667","24.9586416666667","6500600","新店區"
"231035","278-BY","2019/12/02 13:59:39","新北市新店區安和路二段115號","121.518631666667","24.9704416666667","6500600","新店區"
"231014","AAD-862","2019/12/02 13:59:39","新北市新店區郵政路3巷2號","121.557351666667","24.9518566666667","6500600","新店區"
"231006","355-BY","2019/12/02 13:59:46","新北市新店區北宜路二段68號","121.551606666667","24.953135","6500600","新店區"
"231038","3712-VJ","2019/12/02 13:59:33","新北市新店區安華路30巷1號","121.519588333333","24.9592416666667","6500600","新店區"
"231027","3713-VJ","2019/12/02 13:59:47","新北市新店區北宜路一段12號","121.538106666667","24.95739","6500600","新店區"
"231025","4715-K9","2019/12/02 13:59:36","新北市新店區中正路302巷6號","121.5378","24.9749566666667","6500600","新店區"
"231019","513-UM","2019/12/02 13:59:33","新北市新店區新烏路二段9號","121.544246666667","24.9292866666667","6500600","新店區"
"231031","515-UM","2019/12/02 13:59:44","新北市新店區莒光路44巷21弄11-3號","121.5184","24.952235","6500600","新店區"
"231002","619-UM","2019/12/02 13:59:47","新北市新店區中正路630號","121.533915","24.9890666666667","6500600","新店區"
"231034","641-BX","2019/12/02 13:59:42","新北市新店區達觀路30號","121.502003333333","24.9402283333333","6500600","新店區"
"231011","KED-0819","2019/12/02 13:59:28","新北市新店區中興路二段79巷8號","121.546505","24.9713066666667","6500600","新店區"
"231010","719-UM","2019/12/02 13:59:41","新北市新店區安康路一段355-3號","121.519838333333","24.9626716666667","6500600","新店區"
"231026","720-UM","2019/12/02 13:59:34","新北市新店區三民路159巷19弄2號","121.532708333333","24.9741033333333","6500600","新店區"
"231028","897-TW","2019/12/02 13:59:44","新北市新店區安和路三段46號","121.517968333333","24.9818716666667","6500600","新店區"
"231004","899-TW","2019/12/02 13:59:46","新北市新店區北新路二段137號","121.542873333333","24.9755566666667","6500600","新店區"
"231037","AKT-0513","2019/12/02 13:59:33","新北市新店區安康路三段456號","121.484356666667","24.9510733333333","6500600","新店區"
"235030","003-UY","2019/12/02 13:59:47","新北市中和區中山路二段131巷5弄5號","121.502916666667","25.0029233333333","6500300","中和區"
"235028","005-UY","2019/12/02 13:59:35","新北市中和區中和路26巷8號","121.499438333333","25.0016383333333","6500300","中和區"
"235027","006-UY","2019/12/02 13:59:40","新北市中和區中正路578號","121.486183333333","24.9947916666667","6500300","中和區"
"235020","096-UM","2019/12/02 13:59:37","新北市板橋區三民路二段228號","121.478773333333","25.0114133333333","6500300","中和區"
"235003","097-UM","2019/12/02 13:59:47","新北市中和區自立路58巷6號","121.523331666667","24.9914866666667","6500300","中和區"
"235029","098-UM","2019/12/02 13:59:45","新北市中和區中山路二段136巷70號","121.500568333333","25.004605","6500300","中和區"
"235004","150-BY","2019/12/02 13:59:46","新北市中和區保健路46巷25-1號","121.50891","24.99602","6500300","中和區"
"235022","151-BY","2019/12/02 13:59:34","新北市中和區連城路585號","121.478763333333","24.9941016666667","6500300","中和區"
"235002","185-VK","2019/12/02 13:59:42","新北市中和區立人街28號","121.518586666667","24.9941433333333","6500300","中和區"
"235031","255-BX","2019/12/02 13:59:38","新北市中和區中正路738號","121.48543","24.9977716666667","6500300","中和區"
"235008","293-VK","2019/12/02 13:59:41","新北市中和區復興路280巷33弄4號","121.501385","24.99153","6500300","中和區"
"235036","301-VK","2019/12/02 13:59:37","新北市中和區中山路二段106號","121.503148333333","25.00406","6500300","中和區"
"235007","352-BY","2019/12/02 13:59:31","新北市中和區秀朗路三段24號","121.526458333333","24.9962066666667","6500300","中和區"
"235006","KEA-2878","2019/12/02 13:59:50","新北市中和區秀朗路三段24號","121.526391666667","24.9963833333333","6500300","中和區"
"247015","KEA-2869","2019/12/02 13:59:33","新北市蘆洲區光華路44號","121.468783333333","25.0831283333333","6501400","蘆洲區"
"247009","KED-0682","2019/12/02 13:59:46","新北市蘆洲區中山一路114號","121.477188333333","25.08147","6501400","蘆洲區"
"235014","4978-A6","2019/12/02 13:59:50","新北市中和區忠孝街37巷4號","121.511251666667","24.9836033333333","6500300","中和區"
"235033","4980-A6","2019/12/02 13:59:47","新北市中和區中和路219-3號","121.504216666667","25.0001183333333","6500300","中和區"
"235032","551-UM","2019/12/02 13:59:31","新北市中和區連勝街38巷16號","121.497803333333","24.9979333333333","6500300","中和區"
"235034","558-UM","2019/12/02 13:59:32","新北市中和區中和路253號","121.504913333333","24.9997383333333","6500300","中和區"
"235009","565-BX","2019/12/02 13:59:40","新北市中和區景新街467巷38弄2號","121.514518333333","24.988625","6500300","中和區"
"235024","KED-0823","2019/12/02 13:59:43","新北市中和區員山路469巷1號","121.480348333333","25.0045883333333","6500300","中和區"
"235018","640-BX","2019/12/02 13:59:36","新北市中和區民享街30巷1號","121.474043333333","25.003425","6500300","中和區"
"235035","647-TV","2019/12/02 13:59:45","新北市中和區立德街98巷55號","121.487595","25.0088733333333","6500300","中和區"
"235011","732-UM","2019/12/02 13:59:35","新北市中和區興南路二段74巷12號","121.505236666667","24.985005","6500300","中和區"
"235010","733-UM","2019/12/02 13:59:30","新北市中和區興南路二段31巷7號","121.50795","24.9854966666667","6500300","中和區"
"235026","800-TS","2019/12/02 13:59:35","新北市中和區中山路二段380巷15號","121.490868333333","25.0043183333333","6500300","中和區"
"235021","801-TS","2019/12/02 13:59:46","新北市中和區民利街54號","121.479223333333","24.99872","6500300","中和區"
"235005","802-TS","2019/12/02 13:59:32","新北市中和區中安街40巷8號","121.512701666667","25.0029483333333","6500300","中和區"
"235016","805-TS","2019/12/02 13:59:35","新北市中和區興南路二段244號","121.5036","24.9819866666667","6500300","中和區"
"235012","896-TW","2019/12/02 13:59:49","新北市中和區華新街32號","121.50774","24.9845166666667","6500300","中和區"
"235017","900-TW","2019/12/02 13:59:48","新北市板橋區和平路161巷2號","121.463646666667","24.99598","6500300","中和區"
"235019","911-UM","2019/12/02 13:59:29","新北市中和區民生街85巷6弄1號","121.469225","25.0040116666667","6500300","中和區"
"235015","157-BY","2019/12/02 13:58:39","新北市中和區忠孝街19巷24-1號","121.510033333333","24.9835066666667","6500300","中和區"
"235001","AAC-213","2019/12/02 13:59:46","新北市中和區秀朗路三段58-2號","121.525921666667","24.9951683333333","6500300","中和區"
"235023","AAC-215","2019/12/02 13:59:47","新北市中和區圓通路369巷14弄8號","121.490431666667","24.9878416666667","6500300","中和區"
"220002","015-TV","2019/12/02 13:59:39","新北市板橋區重慶路127巷11號","121.46323","25.0049133333333","6500100","板橋區"
"220013","072-UY","2019/12/02 13:59:40","新北市板橋區漢生東路324號","121.471803333333","25.0079766666667","6500100","板橋區"
"220034","073-UY","2019/12/02 13:59:48","新北市板橋區大智街20號","121.455731666667","25.0149683333333","6500100","板橋區"
"220017","AAD-861","2019/12/02 13:59:48","新北市板橋區華興街58號","121.457735","25.004805","6500100","板橋區"
"247005","893-R6","2019/12/02 13:59:45","新北市蘆洲區永安南路二段32號","121.467088333333","25.0772566666667","6501400","蘆洲區"
"247019","546-UM","2019/12/02 13:59:45","新北市蘆洲區民族路422巷35號","121.473545","25.09361","6501400","蘆洲區"
"247011","341-TH","2019/12/02 13:59:35","新北市蘆洲區中興街22號","121.48065","25.0869133333333","6501400","蘆洲區"
"247011","337-TH","2019/12/02 13:34:08","新北市五股區中興路三段2巷10號","121.449736666667","25.0811016666667","6501400","蘆洲區"
"247003","336-TH","2019/12/02 13:59:33","新北市蘆洲區長安街98巷21號","121.462996666667","25.0818333333333","6501400","蘆洲區"
"247013","056-VK","2019/12/02 13:59:51","新北市蘆洲區保和街69巷2弄1號","121.46942","25.0859083333333","6501400","蘆洲區"
"247017","053-VK","2019/12/02 13:59:41","新北市蘆洲區民族路257巷2號","121.476573333333","25.0903833333333","6501400","蘆洲區"
"247021","007-UY","2019/12/02 13:59:37","新北市蘆洲區中正路263巷2號","121.467313333333","25.0875766666667","6501400","蘆洲區"
"247007","002-UY","2019/12/02 13:59:50","新北市蘆洲區重陽一街3號","121.481743333333","25.0815166666667","6501400","蘆洲區"
"247001","001-UY","2019/12/02 13:59:35","新北市蘆洲區永平街32巷74號","121.460571666667","25.093645","6501400","蘆洲區"
"235013","251-BX","2019/12/02 13:59:36","新北市中和區景安路68號","121.505878333333","24.9966816666667","6500300","中和區"
"253003","6232-TK","2019/12/02 13:59:46","新北市石門區尖子鹿53-2號","121.580926666667","25.2706933333333","6502200","石門區"
"253004","6251-TK","2019/12/02 13:59:40","新北市石門區小坑38號","121.596325","25.263745","6502200","石門區"
"253002","637-UY","2019/12/02 13:58:39","新北市石門區尖山湖18號","121.559593333333","25.247115","6502200","石門區"
"253001","KEC-0718","2019/12/02 13:59:46","新北市石門區八甲74號","121.529685","25.263755","6502200","石門區"
"243011","549-UM","2019/12/02 13:59:32","新北市泰山區明志路230號","121.427205","25.048265","6501600","泰山區"
"207002","749-BX","2019/12/02 13:59:32","新北市萬里區溪底里富士坪路1號","121.6313","25.15014","6502800","萬里區"
"252005","073-UM","2019/12/02 13:59:12","新北市三芝區圓山里二坪頂46號","121.539716666667","25.2307383333333","6502100","三芝區"
"207001","662-BX","2019/12/02 13:59:27","新北市萬里區磺潭里清水1號","121.639511666667","25.20232","6502800","萬里區"
"237013","760-BX","2019/12/02 13:59:41","新北市三峽區中山路459巷66號","121.356251666667","24.9355133333333","6500900","三峽區"
"236040","KED-0685","2019/12/02 13:59:31","新北市土城區城林路6巷80號","121.438461666667","24.9797316666667","6501300","土城區"
"236074","166-UM","2019/12/02 13:59:41","新北市土城區永寧路32巷10弄23號","121.428928333333","24.9610433333333","6501300","土城區"
"236029","253-BX","2019/12/02 13:59:41","新北市土城區城林路6巷80號","121.438661666667","24.9796783333333","6501300","土城區"
"236024","269-VK","2019/12/02 13:59:34","新北市土城區中華路二段50號","121.439185","24.9776883333333","6501300","土城區"
"236032","271-VK","2019/12/02 13:59:39","新北市土城區員福街50號","121.440421666667","24.979145","6501300","土城區"
"236064","KEA-2877","2019/12/02 13:59:41","新北市土城區城林路6巷80號","121.43868","24.9796816666667","6501300","土城區"
"236016","401-BY","2019/12/02 13:59:36","新北市土城區城林路6巷80號","121.438556666667","24.9797616666667","6501300","土城區"
"236012","752-BX","2019/12/02 13:59:37","新北市土城區中華路二段2號","121.43971","24.9794816666667","6501300","土城區"
"236057","912-UM","2019/12/02 13:59:37","新北市土城區中央路四段43號","121.422623333333","24.961975","6501300","土城區"
"236045","913-UM","2019/12/02 13:59:33","新北市土城區城林路6巷80號","121.438163333333","24.9795616666667","6501300","土城區"
"236060","915-UM","2019/12/02 13:59:31","新北市土城區中央路二段280號","121.440736666667","24.9740616666667","6501300","土城區"
"236055","AAC-216","2019/12/02 13:59:41","新北市土城區中華路二段92號","121.43823","24.974785","6501300","土城區"
"242055","172-VK","2019/12/02 13:59:37","新北市新莊區復興路一段127巷4號","121.449555","25.04381","6500500","新莊區"
"220027","145-BY","2019/12/02 13:59:44","新北市板橋區大智街86號","121.453566666667","25.0157083333333","6500100","板橋區"
"220028","200-UY","2019/12/02 13:59:36","新北市板橋區大觀路二段文和巷102號","121.445026666667","24.998035","6500100","板橋區"
"220030","610-BX","2019/12/02 13:59:42","新北市板橋區篤行路三段20-1號","121.428805","24.9872383333333","6500100","板橋區"
"220050","245-BX","2019/12/02 13:59:44","新北市板橋區萬板路51號","121.471248333333","25.0214883333333","6500100","板橋區"
"220004","276-BY","2019/12/02 13:59:48","新北市板橋區信義路112號","121.458358333333","24.9925983333333","6500100","板橋區"
"220020","277-BY","2019/12/02 13:59:34","新北市板橋區金門街222號","121.431118333333","24.9879083333333","6500100","板橋區"
"220043","283-UM","2019/12/02 13:59:37","新北市板橋區光武街155號","121.465495","25.029625","6500100","板橋區"
"220019","283-VK","2019/12/02 13:59:34","新北市板橋區忠孝路176巷46號","121.465315","25.0017066666667","6500100","板橋區"
"220001","285-VK","2019/12/02 13:59:42","新北市板橋區太和街5巷1號","121.473755","25.0199","6500100","板橋區"
"220031","286-VK","2019/12/02 13:59:41","新北市板橋區大觀路一段38巷184號","121.441456666667","25.0047183333333","6500100","板橋區"
"220029","287-VK","2019/12/02 13:59:33","新北市板橋區南雅西路二段102號","121.452365","25.0118","6500100","板橋區"
"220039","288-VK","2019/12/02 13:59:39","新北市板橋區裕民街23-3號","121.462108333333","25.0290166666667","6500100","板橋區"
"220009","293-UM","2019/12/02 13:59:41","新北市板橋區中山路二段222號","121.478143333333","25.01793","6500100","板橋區"
"220032","296-UM","2019/12/02 13:59:43","新北市板橋區龍興街15號","121.442743333333","24.9996866666667","6500100","板橋區"
"220023","303-R5","2019/12/02 13:59:36","新北市板橋區南興路11號","121.455035","25.007925","6500100","板橋區"
"220010","305-R5","2019/12/02 13:59:37","新北市板橋區三民路二段253-1號","121.478985","25.0116116666667","6500100","板橋區"
"220041","307-R5","2019/12/02 13:59:45","新北市板橋區文化路二段225巷60弄66號","121.469068333333","25.0299133333333","6500100","板橋區"
"220047","317-R6","2019/12/02 13:59:31","新北市板橋區民生路二段234巷77號","121.470311666667","25.0225433333333","6500100","板橋區"
"220038","487-VK","2019/12/02 13:59:49","新北市板橋區文化路二段319號","121.472353333333","25.03008","6500100","板橋區"
"220037","491-VK","2019/12/02 13:59:31","新北市板橋區雙十路二段47巷50號","121.474763333333","25.025445","6500100","板橋區"
"220104","560-BX","2019/12/02 13:59:32","新北市板橋區中正路242號","121.455626666667","25.01901","6500100","板橋區"
"220052","561-BX","2019/12/02 13:59:38","新北市板橋區介壽街66號","121.469251666667","25.0195266666667","6500100","板橋區"
"220011","609-BX","2019/12/02 13:59:34","新北市板橋區中山路二段307號","121.478758333333","25.0186016666667","6500100","板橋區"
"220040","637-BX","2019/12/02 13:59:42","新北市板橋區大同街8巷58號","121.477731666667","25.0265116666667","6500100","板橋區"
"220005","686-BX","2019/12/02 13:59:46","新北市板橋區重慶路342號","121.464201666667","24.9974333333333","6500100","板橋區"
"220025","687-BX","2019/12/02 13:59:32","新北市板橋區大觀路二段265巷7-7號","121.443281666667","24.9944983333333","6500100","板橋區"
"220042","689-BX","2019/12/02 13:59:42","新北市板橋區民生路三段119號","121.466375","25.02574","6500100","板橋區"
"220051","KEA-2699","2019/12/02 13:59:43","新北市板橋區田單街2巷39-3號","121.482313333333","25.0276966666667","6500100","板橋區"
"220003","827-TW","2019/12/02 13:59:45","新北市板橋區中山路一段128號","121.46333","25.0108066666667","6500100","板橋區"
"220105","829-TW","2019/12/02 13:59:42","新北市板橋區雙十路三段10巷16號","121.472348333333","25.0310533333333","6500100","板橋區"
"220016","830-TW","2019/12/02 13:59:39","新北市板橋區中山路二段465巷40弄2號","121.481208333333","25.021475","6500100","板橋區"
"220014","831-TW","2019/12/02 13:59:47","新北市板橋區三民路二段正隆巷12弄6號","121.478083333333","25.013115","6500100","板橋區"
"220022","895-R6","2019/12/02 13:59:32","新北市板橋區西門街55巷1號","121.45406","25.0102616666667","6500100","板橋區"
"220021","985-R7","2019/12/02 13:59:38","新北市板橋區中正路1巷22號","121.455076666667","25.0114216666667","6500100","板橋區"
"220046","AAC-210","2019/12/02 13:59:45","新北市板橋區新海路135巷33號","121.460003333333","25.0228383333333","6500100","板橋區"
"220012","AAC-253","2019/12/02 13:59:50","新北市板橋區中山路一段266號","121.471925","25.014655","6500100","板橋區"
"235025","KEA-2875","2019/12/02 13:59:28","新北市中和區員山路394巷2弄1號","121.481305","25.0038866666667","6500300","中和區"
