"lineid","car","time","location","longitude","latitude","cityid","cityname"
"234062","337-UY","2019/12/02 14:43:39","新北市永和區仁愛路289號","121.50541","25.0094416666667","6500400","永和區"
"234005","KED-0605","2019/12/02 14:43:35","新北市永和區仁愛路289號","121.50532","25.0094083333333","6500400","永和區"
"234048","863-TW","2019/12/02 14:43:32","新北市永和區保安路266號","121.505741666667","25.01227","6500400","永和區"
"234025","9371-KE","2019/12/02 14:43:47","新北市永和區雙和街7巷12號","121.509368333333","25.0014533333333","6500400","永和區"
"248013","025-BX","2019/12/02 14:43:40","新北市五股區五福路32巷26號","121.435016666667","25.089745","6501500","五股區"
"248015","026-BX","2019/12/02 14:43:29","新北市五股區成泰路三段577巷80弄50號","121.449693333333","25.1048216666667","6501500","五股區"
"248007","KED-0815","2019/12/02 14:43:48","新北市五股區中興路一段95巷20號","121.466526666667","25.07227","6501500","五股區"
"248001","KED-0813","2019/12/02 14:43:46","新北市五股區凌雲路三段35-1號","121.430411666667","25.1167933333333","6501500","五股區"
"248011","247-BX","2019/12/02 14:43:46","新北市五股區民義路一段112-10號","121.435313333333","25.0852516666667","6501500","五股區"
"248009","272-BY","2019/12/02 14:43:29","新北市五股區登林路79-7號","121.427246666667","25.07056","6501500","五股區"
"248003","677-BX","2019/12/02 14:43:33","新北市五股區成泰路一段126號","121.435238333333","25.0743183333333","6501500","五股區"
"248001","678-BX","2019/12/02 14:43:45","新北市五股區成泰路三段243號","121.446475","25.093425","6501500","五股區"
"244001","248-BX","2019/12/02 14:43:36","新北市林口區汕頭1號","121.356301666667","25.131965","6501700","林口區"
"243004","AAD-798","2019/12/02 14:43:45","新北市泰山區仁愛路100巷27號","121.433521666667","25.0550766666667","6501600","泰山區"
"243002","297-R6","2019/12/02 14:43:44","新北市泰山區明志路二段254巷16弄5號","121.426191666667","25.0481566666667","6501600","泰山區"
"243006","KEA-2801","2019/12/02 14:43:36","新北市泰山區明志路一段88號","121.43343","25.0642266666667","6501600","泰山區"
"243008","421-VK","2019/12/02 14:43:34","新北市泰山區中山路二段841號","121.42563","25.0354233333333","6501600","泰山區"
"243001","KEA-2215","2019/12/02 14:43:41","新北市泰山區泰林路二段142巷5號","121.43473","25.0601683333333","6501600","泰山區"
"231005","001-UM","2019/12/02 14:43:26","新北市新店區寶慶街85號","121.540881666667","24.9865783333333","6500600","新店區"
"231030","002-UM","2019/12/02 14:43:35","新北市新店區安民街135號","121.516336666667","24.9692766666667","6500600","新店區"
"231001","047-UY","2019/12/02 14:43:46","新北市新店區中正路100號","121.543246666667","24.97046","6500600","新店區"
"231029","106-UY","2019/12/02 14:43:37","新北市新店區安康路三段450號","121.484535","24.9513533333333","6500600","新店區"
"231018","107-UY","2019/12/02 14:43:47","新北市新店區中央三街24號","121.52874","24.9738733333333","6500600","新店區"
"231013","108-UY","2019/12/02 14:43:35","新北市新店區明德路27號","121.5419","24.9771883333333","6500600","新店區"
"231036","110-UY","2019/12/02 14:43:36","新北市新店區安祥路106巷288號","121.472611666667","24.9582316666667","6500600","新店區"
"231039","187-VK","2019/12/02 14:43:48","新北市新店區安一路一段1-1號","121.519698333333","24.9613066666667","6500600","新店區"
"231023","260-TV","2019/12/02 14:43:34","新北市新店區檳榔路109號","121.54439","24.961675","6500600","新店區"
"231003","268-BY","2019/12/02 14:43:34","新北市新店區中正路7號","121.54576","24.96932","6500600","新店區"
"231035","278-BY","2019/12/02 14:43:39","新北市新店區安和路一段52巷2-1號","121.517665","24.9665083333333","6500600","新店區"
"231014","AAD-862","2019/12/02 14:43:39","新北市新店區北宜路三段221號","121.592691666667","24.9532333333333","6500600","新店區"
"231006","355-BY","2019/12/02 14:43:46","新北市新店區北宜路二段151-1號","121.551928333333","24.9532633333333","6500600","新店區"
"231038","3712-VJ","2019/12/02 14:43:33","新北市新店區安一路一段1-1號","121.519605","24.9610416666667","6500600","新店區"
"231027","3713-VJ","2019/12/02 14:43:47","新北市新店區中正路76巷11弄22號","121.543713333333","24.9717466666667","6500600","新店區"
"231025","4715-K9","2019/12/02 14:43:36","新北市新店區溪園路389-12號","121.523268333333","24.9788616666667","6500600","新店區"
"231019","513-UM","2019/12/02 14:43:33","新北市新店區桂山路37號","121.561093333333","24.9018083333333","6500600","新店區"
"231031","515-UM","2019/12/02 14:43:44","新北市新店區吉安街39號","121.515381666667","24.9663316666667","6500600","新店區"
"231002","619-UM","2019/12/02 14:43:47","新北市新店區民權路125號","121.535635","24.9828433333333","6500600","新店區"
"231034","641-BX","2019/12/02 14:43:42","新北市新店區黎明路3號","121.503675","24.9524683333333","6500600","新店區"
"231011","KED-0819","2019/12/02 14:43:48","新北市新店區寶宏路38號","121.549445","24.9755533333333","6500600","新店區"
"231028","897-TW","2019/12/02 14:43:44","新北市新店區安德街33-1號","121.511256666667","24.96235","6500600","新店區"
"231004","899-TW","2019/12/02 14:43:46","新北市新店區民族路108號","121.537963333333","24.9770533333333","6500600","新店區"
"231037","AKT-0513","2019/12/02 14:43:33","新北市新店區柴埕路52巷20號","121.510206666667","24.965775","6500600","新店區"
"235030","003-UY","2019/12/02 14:43:47","新北市中和區景新街140-3號","121.50547","24.9977483333333","6500300","中和區"
"235027","006-UY","2019/12/02 14:43:40","新北市中和區連城路263巷10號","121.492405","24.9952033333333","6500300","中和區"
"235020","096-UM","2019/12/02 14:43:37","新北市中和區民富街86號","121.476431666667","25.0082316666667","6500300","中和區"
"235003","097-UM","2019/12/02 14:43:39","新北市中和區安平路186號","121.512941666667","24.999055","6500300","中和區"
"235029","098-UM","2019/12/02 14:43:44","新北市中和區永和路90巷5號","121.497441666667","25.005985","6500300","中和區"
"235004","150-BY","2019/12/02 14:43:46","新北市中和區安平路31號","121.509471666667","24.9946783333333","6500300","中和區"
"235022","151-BY","2019/12/02 14:43:34","新北市中和區員山路150巷2弄43號","121.482021666667","24.9975283333333","6500300","中和區"
"235002","185-VK","2019/12/02 14:43:42","新北市中和區自強路3號","121.519973333333","24.99382","6500300","中和區"
"235008","293-VK","2019/12/02 14:43:41","新北市中和區南山路282號","121.507865","24.9879566666667","6500300","中和區"
"235036","301-VK","2019/12/02 14:43:37","新北市中和區水源路36巷1弄12號","121.505735","25.0029966666667","6500300","中和區"
"235007","352-BY","2019/12/02 14:43:31","新北市中和區安和路59號","121.508761666667","24.9948783333333","6500300","中和區"
"235006","KEA-2878","2019/12/02 14:43:50","新北市中和區宜安路56號","121.51182","24.9968533333333","6500300","中和區"
"247015","KEA-2869","2019/12/02 14:43:33","新北市蘆洲區正和街29號","121.469705","25.0819483333333","6501400","蘆洲區"
"235032","551-UM","2019/12/02 14:43:31","新北市中和區中山路二段250巷5號","121.497355","25.00298","6500300","中和區"
"235034","558-UM","2019/12/02 14:43:32","新北市中和區連勝街40號","121.498028333333","24.9975983333333","6500300","中和區"
"235018","640-BX","2019/12/02 14:43:36","新北市中和區莒光路222-7號","121.469106666667","24.9948983333333","6500300","中和區"
"235035","647-TV","2019/12/02 14:43:39","新北市中和區建一路90號","121.487828333333","25.0022783333333","6500300","中和區"
"235011","732-UM","2019/12/02 14:43:15","新北市中和區捷運路69號","121.508708333333","24.9899316666667","6500300","中和區"
"235010","733-UM","2019/12/02 14:43:30","新北市中和區仁愛街110號","121.511578333333","24.9869733333333","6500300","中和區"
"235005","802-TS","2019/12/02 14:43:32","新北市中和區宜安路137號","121.509538333333","24.9984816666667","6500300","中和區"
"235016","805-TS","2019/12/02 14:43:32","新北市中和區興南路二段121號","121.505631666667","24.9841133333333","6500300","中和區"
"235012","896-TW","2019/12/02 14:43:29","新北市中和區忠孝街137號","121.512761666667","24.9882716666667","6500300","中和區"
"235017","900-TW","2019/12/02 14:43:48","新北市中和區國光街189巷12弄1-1號","121.467708333333","25.0013","6500300","中和區"
"235019","911-UM","2019/12/02 14:43:49","新北市中和區德光路27巷36號","121.47106","25.00327","6500300","中和區"
"235015","157-BY","2019/12/02 14:43:29","新北市中和區復興路348號","121.500083333333","24.9904116666667","6500300","中和區"
"235001","AAC-213","2019/12/02 14:43:46","新北市中和區自立路46號","121.523066666667","24.992335","6500300","中和區"
"235023","AAC-215","2019/12/02 14:43:47","新北市中和區圓通路305巷25弄2號","121.49496","24.9891716666667","6500300","中和區"
"220002","015-TV","2019/12/02 14:43:43","新北市板橋區忠孝路196-2號","121.465356666667","25.0025633333333","6500100","板橋區"
"220013","072-UY","2019/12/02 14:43:40","新北市板橋區國泰街38巷4弄43號","121.468051666667","25.0066616666667","6500100","板橋區"
"220034","073-UY","2019/12/02 14:43:28","新北市板橋區國光路173巷3弄2號","121.460345","25.018965","6500100","板橋區"
"220017","AAD-861","2019/12/02 14:43:48","新北市板橋區大明街18-9號","121.458726666667","25.0027116666667","6500100","板橋區"
"247005","893-R6","2019/12/02 14:43:45","新北市蘆洲區長安街78號","121.462303333333","25.0802583333333","6501400","蘆洲區"
"247019","546-UM","2019/12/02 14:43:45","新北市蘆洲區民義街68巷21號","121.474061666667","25.0899266666667","6501400","蘆洲區"
"247011","341-TH","2019/12/02 14:43:35","新北市蘆洲區集賢路224巷46弄60-1號","121.480811666667","25.088105","6501400","蘆洲區"
"247023","057-VK","2019/12/02 14:43:33","新北市蘆洲區中山二路222巷21弄18號","121.468761666667","25.079955","6501400","蘆洲區"
"247013","056-VK","2019/12/02 14:43:51","新北市蘆洲區成功路96號","121.472655","25.0819666666667","6501400","蘆洲區"
"247021","007-UY","2019/12/02 14:43:36","新北市蘆洲區三民路368-3號","121.465313333333","25.09261","6501400","蘆洲區"
"247007","002-UY","2019/12/02 14:43:49","新北市蘆洲區信義路29號","121.474146666667","25.0793466666667","6501400","蘆洲區"
"247001","001-UY","2019/12/02 14:43:35","新北市蘆洲區長安街282號","121.457355","25.0874766666667","6501400","蘆洲區"
"235013","251-BX","2019/12/02 14:43:36","新北市中和區中興街22號","121.50104","24.9949233333333","6500300","中和區"
"253003","6232-TK","2019/12/02 14:43:46","新北市石門區尖子鹿103-2號","121.57999","25.2938033333333","6502200","石門區"
"253004","6251-TK","2019/12/02 14:43:40","新北市石門區內阿里磅37-1號","121.585175","25.238985","6502200","石門區"
"253002","637-UY","2019/12/02 14:40:39","新北市石門區七股53號","121.546016666667","25.2523383333333","6502200","石門區"
"253001","KEC-0718","2019/12/02 14:43:46","新北市石門區崁子腳36-1號","121.537333333333","25.2702216666667","6502200","石門區"
"243011","549-UM","2019/12/02 14:43:32","新北市泰山區明志路三段204巷10弄15號","121.422876666667","25.0387783333333","6501600","泰山區"
"207002","749-BX","2019/12/02 14:43:32","新北市萬里區崁腳里崁腳路73號","121.64758","25.1596716666667","6502800","萬里區"
"252005","073-UM","2019/12/02 14:43:32","新北市三芝區茂長里陳厝坑16號","121.51814","25.25549","6502100","三芝區"
"207001","662-BX","2019/12/02 14:43:47","新北市萬里區雙興里豐稟路22-1號","121.640175","25.1854016666667","6502800","萬里區"
"237013","760-BX","2019/12/02 14:43:41","新北市三峽區中山路459巷135號","121.34887","24.9331533333333","6500900","三峽區"
"236040","KED-0685","2019/12/02 14:43:33","新北市土城區裕民路92巷25弄8號","121.449803333333","24.985775","6501300","土城區"
"236074","166-UM","2019/12/02 14:43:41","新北市土城區中央路四段196-1號","121.416288333333","24.9577066666667","6501300","土城區"
"236029","253-BX","2019/12/02 14:43:41","新北市土城區中華路二段126號","121.437748333333","24.9735933333333","6501300","土城區"
"236024","269-VK","2019/12/02 14:43:34","新北市土城區農豐街7號","121.442515","24.97395","6501300","土城區"
"236032","271-VK","2019/12/02 14:43:38","新北市土城區明德路一段221巷5號","121.46374","24.9781366666667","6501300","土城區"
"236064","KEA-2877","2019/12/02 14:43:41","新北市土城區永豐路135巷1號","121.466726666667","24.9833933333333","6501300","土城區"
"236016","401-BY","2019/12/02 14:43:36","新北市土城區延吉街253巷17號","121.467841666667","24.984075","6501300","土城區"
"236012","752-BX","2019/12/02 14:43:04","新北市土城區清水路278巷28弄2號","121.462593333333","24.9825816666667","6501300","土城區"
"236057","912-UM","2019/12/02 14:43:37","新北市土城區中央路三段141號","121.43348","24.9654033333333","6501300","土城區"
"236045","913-UM","2019/12/02 14:43:33","新北市土城區青雲路113號","121.458993333333","24.9844766666667","6501300","土城區"
"236060","915-UM","2019/12/02 14:43:42","新北市土城區延和路177巷28號","121.470308333333","24.9909716666667","6501300","土城區"
"236054","AAC-216","2019/12/02 14:43:41","新北市土城區裕民路52-1號","121.448505","24.988115","6501300","土城區"
"242055","172-VK","2019/12/02 14:43:37","新北市樹林區中山路三段214號","121.379778333333","24.9676","6500500","新莊區"
"220027","145-BY","2019/12/02 14:43:44","新北市板橋區民權路316號","121.457181666667","25.0164466666667","6500100","板橋區"
"220028","200-UY","2019/12/02 14:43:37","新北市板橋區大觀路二段37巷282號","121.44989","25.0012216666667","6500100","板橋區"
"220030","610-BX","2019/12/02 14:43:42","新北市板橋區金門街223號","121.43206","24.98975","6500100","板橋區"
"220050","245-BX","2019/12/02 14:43:43","新北市板橋區莒光路200-1號","121.474155","25.022025","6500100","板橋區"
"220004","276-BY","2019/12/02 14:43:30","新北市板橋區國慶路39號","121.459091666667","24.9956433333333","6500100","板橋區"
"220020","277-BY","2019/12/02 14:43:51","新北市板橋區金門街215巷22號","121.433286666667","24.989545","6500100","板橋區"
"220043","283-UM","2019/12/02 14:43:37","新北市板橋區陽明街273號","121.462156666667","25.0259333333333","6500100","板橋區"
"220019","283-VK","2019/12/02 14:43:33","新北市板橋區四川路一段467號","121.457205","24.9976283333333","6500100","板橋區"
"220001","285-VK","2019/12/02 14:43:42","新北市板橋區中山路二段148巷32號","121.47706","25.016025","6500100","板橋區"
"220031","286-VK","2019/12/02 14:43:41","新北市板橋區僑中二街108巷2號","121.44586","25.00736","6500100","板橋區"
"220029","287-VK","2019/12/02 14:43:43","新北市板橋區大觀路一段29巷137弄1號","121.45022","25.0054533333333","6500100","板橋區"
"220039","288-VK","2019/12/02 14:43:39","新北市板橋區龍泉街90巷3號","121.456126666667","25.0248733333333","6500100","板橋區"
"220009","293-UM","2019/12/02 14:43:41","新北市板橋區板新路118號","121.471151666667","25.0154066666667","6500100","板橋區"
"220032","296-UM","2019/12/02 14:43:49","新北市板橋區滿平二街41-1號","121.425105","24.9877666666667","6500100","板橋區"
"220023","303-R5","2019/12/02 14:43:31","新北市板橋區中正路289巷2號","121.455171666667","25.0192583333333","6500100","板橋區"
"220010","305-R5","2019/12/02 14:43:39","新北市板橋區三民路二段95巷22號","121.480525","25.0162166666667","6500100","板橋區"
"220041","307-R5","2019/12/02 14:43:46","新北市板橋區裕民街135號","121.459073333333","25.0273183333333","6500100","板橋區"
"220047","317-R6","2019/12/02 14:43:32","新北市板橋區四維路279巷60號","121.460581666667","25.0275333333333","6500100","板橋區"
"220038","487-VK","2019/12/02 14:43:49","新北市板橋區龍泉街126號","121.456771666667","25.0238966666667","6500100","板橋區"
"220037","491-VK","2019/12/02 14:43:31","新北市板橋區文化路二段410巷2號","121.473823333333","25.0315166666667","6500100","板橋區"
"220104","560-BX","2019/12/02 14:43:32","新北市板橋區中正路360巷59號","121.456618333333","25.0228966666667","6500100","板橋區"
"220052","561-BX","2019/12/02 14:43:38","新北市板橋區自由路15號","121.465513333333","25.022815","6500100","板橋區"
"220011","609-BX","2019/12/02 14:43:34","新北市板橋區三民路一段1巷39號","121.480338333333","25.0247833333333","6500100","板橋區"
"220040","637-BX","2019/12/02 14:43:42","新北市板橋區懷德街181巷25號","121.480128333333","25.03048","6500100","板橋區"
"220005","686-BX","2019/12/02 14:43:31","新北市板橋區廣和街61號","121.462586666667","24.9929833333333","6500100","板橋區"
"220025","687-BX","2019/12/02 14:43:41","新北市板橋區僑中二街12巷2號","121.446846666667","25.01067","6500100","板橋區"
"220042","689-BX","2019/12/02 14:43:42","新北市板橋區民生路三段323號","121.463473333333","25.0311283333333","6500100","板橋區"
"220051","KEA-2699","2019/12/02 14:43:43","新北市板橋區仁化街9號","121.47487","25.0317333333333","6500100","板橋區"
"220003","827-TW","2019/12/02 14:43:44","新北市板橋區國慶路167巷5號","121.462021666667","24.99658","6500100","板橋區"
"220105","829-TW","2019/12/02 14:43:37","新北市板橋區民治街57巷15弄2號","121.479976666667","25.0339483333333","6500100","板橋區"
"220016","830-TW","2019/12/02 14:43:39","新北市板橋區中山路二段416巷36-1號","121.483078333333","25.0198083333333","6500100","板橋區"
"220014","831-TW","2019/12/02 14:43:47","新北市板橋區漢生東路279巷8號","121.471906666667","25.0091183333333","6500100","板橋區"
"220022","895-R6","2019/12/02 14:43:32","新北市板橋區東門街6號","121.4579","25.0091433333333","6500100","板橋區"
"220021","985-R7","2019/12/02 14:43:38","新北市板橋區中正路302號","121.45485","25.0207516666667","6500100","板橋區"
"220046","AAC-210","2019/12/02 14:43:45","新北市板橋區民權路48號","121.459801666667","25.0137566666667","6500100","板橋區"
"220012","AAC-253","2019/12/02 14:43:46","新北市板橋區公園街34巷2號","121.462376666667","25.0084266666667","6500100","板橋區"
