"lineid","car","time","location","longitude","latitude","cityid","cityname"
"231005","001-UM","2019/12/02 15:29:46","新北市新店區建國路293巷2號","121.536931666667","24.9863483333333","6500600","新店區"
"231030","002-UM","2019/12/02 15:29:35","新北市新店區安和路三段60-1號","121.518103333333","24.9827966666667","6500600","新店區"
"231024","0291-UT","2019/12/02 15:29:41","新北市新店區薏仁坑路6-3號","121.499721666667","24.9586483333333","6500600","新店區"
"231001","047-UY","2019/12/02 15:29:46","新北市新店區光明街181號","121.5399","24.9630033333333","6500600","新店區"
"231029","106-UY","2019/12/02 15:29:37","新北市新店區安康路三段535號","121.48022","24.9479583333333","6500600","新店區"
"231018","107-UY","2019/12/02 15:29:47","新北市新店區中央三街83號","121.526028333333","24.9757383333333","6500600","新店區"
"231013","108-UY","2019/12/02 15:29:34","新北市新店區永業路81巷5弄1號","121.530176666667","24.9489666666667","6500600","新店區"
"231036","110-UY","2019/12/02 15:29:36","新北市新店區安祥路67巷50弄10號","121.484785","24.9590216666667","6500600","新店區"
"231039","187-VK","2019/12/02 15:29:28","新北市新店區寶元路一段95-1號","121.54365","24.9849283333333","6500600","新店區"
"231023","260-TV","2019/12/02 15:29:34","新北市新店區五峰路26號","121.543661666667","24.9689583333333","6500600","新店區"
"231003","268-BY","2019/12/02 15:29:34","新北市新店區寶高路120巷1號","121.554611666667","24.97601","6500600","新店區"
"231035","278-BY","2019/12/02 15:29:39","新北市新店區安興路83號","121.515276666667","24.975285","6500600","新店區"
"231014","AAD-862","2019/12/02 15:29:39","新北市新店區明山路45號","121.563811666667","24.95586","6500600","新店區"
"231038","3712-VJ","2019/12/02 15:29:33","新北市新店區吉安街9號","121.516643333333","24.9655916666667","6500600","新店區"
"231025","4715-K9","2019/12/02 15:29:36","新北市新店區柴埕路52巷1-5號","121.512525","24.9647","6500600","新店區"
"231019","513-UM","2019/12/02 15:29:33","新北市新店區花園二路三段11號","121.555461666667","24.9318316666667","6500600","新店區"
"231031","515-UM","2019/12/02 15:29:44","新北市新店區裕合街215號","121.489113333333","24.948985","6500600","新店區"
"231002","619-UM","2019/12/02 15:29:46","新北市新店區環河路116號","121.536763333333","24.9672983333333","6500600","新店區"
"231034","641-BX","2019/12/02 15:29:42","新北市新店區富貴街6巷1號","121.494448333333","24.9499933333333","6500600","新店區"
"231011","KED-0819","2019/12/02 15:29:48","新北市新店區寶元路一段109號","121.5457","24.983125","6500600","新店區"
"231026","720-UM","2019/12/02 15:29:29","新北市新店區三民路117巷3弄2號","121.534406666667","24.9715116666667","6500600","新店區"
"231028","897-TW","2019/12/02 15:29:44","新北市新店區僑信路122號","121.500478333333","24.94635","6500600","新店區"
"231004","899-TW","2019/12/02 15:29:45","新北市新店區中央路151號","121.529581666667","24.9724616666667","6500600","新店區"
"231037","AKT-0513","2019/12/02 15:29:33","新北市新店區安興路85-2號","121.515113333333","24.9750316666667","6500600","新店區"
"241015","062-VK","2019/12/02 15:29:47","新北市三重區重新路四段121號","121.48511","25.0520083333333","6500200","三重區"
"241017","063-VK","2019/12/02 15:29:28","新北市三重區重新路四段121號","121.485303333333","25.05194","6500200","三重區"
"241007","066-VK","2019/12/02 15:29:39","新北市三重區重新路四段121號","121.484948333333","25.051945","6500200","三重區"
"241020","478-VK","2019/12/02 15:29:31","新北市三重區重新路四段121號","121.484781666667","25.0519016666667","6500200","三重區"
"241012","743-BX","2019/12/02 15:29:37","新北市三重區重新路四段121號","121.485048333333","25.0519433333333","6500200","三重區"
"241033","AAC-255","2019/12/02 15:29:31","","121.483106666667","25.0511166666667","6500200","三重區"
"235030","003-UY","2019/12/02 15:29:47","新北市中和區中山路二段3巷22弄24號","121.505816666667","25.0045883333333","6500300","中和區"
"235014","4978-A6","2019/12/02 15:29:29","新北市中和區景新街160巷14號","121.505038333333","24.99676","6500300","中和區"
"235033","4980-A6","2019/12/02 15:29:42","新北市中和區連城路302號","121.483853333333","24.9962916666667","6500300","中和區"
"235026","800-TS","2019/12/02 15:29:35","新北市中和區中山路二段423號","121.485478333333","25.0049383333333","6500300","中和區"
"235019","911-UM","2019/12/02 15:29:29","新北市新店區薏仁坑路自強巷1號","121.49809","24.9575733333333","6500300","中和區"
"235023","AAC-215","2019/12/02 15:29:47","新北市中和區員山路14-12號","121.483945","24.9835066666667","6500300","中和區"
"253004","6251-TK","2019/12/02 15:29:40","新北市石門區小坑20號","121.596405","25.2819383333333","6502200","石門區"
"207001","662-BX","2019/12/02 15:29:47","新北市萬里區龜吼里玉田路4-2號","121.680551666667","25.1842066666667","6502800","萬里區"
"236040","KED-0685","2019/12/02 15:29:36","新北市土城區學享街30號","121.451698333333","24.9871316666667","6501300","土城區"
"236074","166-UM","2019/12/02 15:29:41","新北市土城區中央路四段321巷34弄5號","121.412748333333","24.950905","6501300","土城區"
"236029","253-BX","2019/12/02 15:29:41","新北市土城區中央路一段242巷2弄2號","121.44426","24.98511","6501300","土城區"
"236024","269-VK","2019/12/02 15:29:39","新北市土城區明德路二段102巷5號","121.445426666667","24.9844333333333","6501300","土城區"
"236032","271-VK","2019/12/02 15:29:38","新北市土城區延吉街296巷5號","121.464373333333","24.9846783333333","6501300","土城區"
"236064","KEA-2877","2019/12/02 15:29:41","新北市土城區中央路二段190號","121.441976666667","24.976065","6501300","土城區"
"236016","401-BY","2019/12/02 15:29:36","新北市土城區延吉街137巷2弄2號","121.470731666667","24.986065","6501300","土城區"
"236012","752-BX","2019/12/02 15:29:37","新北市土城區廣興街53號","121.454908333333","24.9914716666667","6501300","土城區"
"236057","912-UM","2019/12/02 15:29:37","新北市土城區中華路一段301號","121.4398","24.9794183333333","6501300","土城區"
"236045","913-UM","2019/12/02 15:29:43","新北市土城區青雲路145號","121.458755","24.9842516666667","6501300","土城區"
"236060","915-UM","2019/12/02 15:29:39","新北市土城區金城路三段73巷9弄19號","121.465706666667","24.98739","6501300","土城區"
"236054","AAC-216","2019/12/02 15:29:41","新北市土城區金城路三段179號","121.469545","24.9887583333333","6501300","土城區"
"238002","755-BX","2019/12/02 15:29:45","新北市樹林區長壽街4號","121.423803333333","24.993295","6500700","樹林區"
"238010","601-UM","2019/12/02 15:29:37","新北市樹林區三福街38號","121.408096666667","25.01657","6500700","樹林區"
"238006","599-UM","2019/12/02 15:29:34","新北市樹林區太元街66號","121.418581666667","24.979105","6500700","樹林區"
"238011","5061-A6","2019/12/02 15:29:34","新北市樹林區八德街212巷2號","121.417505","24.9730916666667","6500700","樹林區"
"238005","KEA-2217","2019/12/02 15:29:49","新北市樹林區鎮前街281-4號","121.418251666667","24.9850066666667","6500700","樹林區"
"238009","KEA-2213","2019/12/02 15:29:48","新北市樹林區和平街2巷20號","121.421101666667","24.98084","6500700","樹林區"
"238008","KEA-2539","2019/12/02 15:29:32","新北市樹林區柑園街一段23-2號","121.404523333333","24.9604066666667","6500700","樹林區"
"238012","303-VK","2019/12/02 15:29:49","新北市樹林區中山路一段276號","121.4208","24.9871483333333","6500700","樹林區"
"238004","283-BY","2019/12/02 15:29:38","新北市樹林區保安街二段337巷21號","121.411036666667","25.0079583333333","6500700","樹林區"
"238001","282-BY","2019/12/02 15:29:31","新北市樹林區中正路45巷3號","121.426806666667","24.9993683333333","6500700","樹林區"
"238007","268-VK","2019/12/02 15:29:40","新北市樹林區俊英街116巷41弄16號","121.428768333333","25.0067533333333","6500700","樹林區"
"238013","172-UY","2019/12/02 15:29:40","新北市樹林區新興街19巷34弄27號","121.402396666667","24.9725183333333","6500700","樹林區"
"238003","169-UY","2019/12/02 15:29:40","新北市樹林區育英街78號","121.420731666667","24.9892816666667","6500700","樹林區"
"220027","145-BY","2019/12/02 15:29:44","新北市板橋區大觀路三段52號","121.432416666667","24.9959566666667","6500100","板橋區"
"220031","286-VK","2019/12/02 15:29:41","新北市板橋區僑中二街116巷1-2號","121.445508333333","25.0064066666667","6500100","板橋區"
"220029","287-VK","2019/12/02 15:29:33","新北市板橋區僑中一街100號","121.446725","25.0116716666667","6500100","板橋區"
"220003","827-TW","2019/12/02 15:29:44","新北市板橋區四川路一段367號","121.458231666667","24.99962","6500100","板橋區"
"220012","AAC-253","2019/12/02 15:29:46","新北市板橋區長安街331巷5號","121.474205","25.0122666666667","6500100","板橋區"
