"lineid","car","time","location","longitude","latitude","cityid","cityname"
"234046","148-BY","2019/12/02 18:43:42","新北市永和區永元路40巷43號","121.523768333333","25.0006616666667","6500400","永和區"
"234081","298-R6","2019/12/02 18:43:32","新北市永和區林森路81號","121.523918333333","25.0038733333333","6500400","永和區"
"234064","337-UY","2019/12/02 18:43:37","新北市永和區福和路1號","121.526506666667","25.0098566666667","6500400","永和區"
"234086","338-UY","2019/12/02 18:43:49","新北市永和區中正路4號","121.51234","24.9935733333333","6500400","永和區"
"234030","746-BX","2019/12/02 18:43:34","新北市永和區得和路326號","121.523258333333","24.9996033333333","6500400","永和區"
"234007","KED-0605","2019/12/02 18:43:43","新北市永和區文化路164號","121.51215","25.0153583333333","6500400","永和區"
"234013","KEA-2591","2019/12/02 18:43:35","新北市永和區保福路二段109巷35號","121.509446666667","25.0130816666667","6500400","永和區"
"234061","AAD-866","2019/12/02 18:43:41","新北市永和區福和路82-1號","121.522855","25.0079833333333","6500400","永和區"
"234042","748-BX","2019/12/02 18:43:39","新北市永和區永貞路267號","121.511841666667","25.0047383333333","6500400","永和區"
"234050","863-TW","2019/12/02 18:43:45","新北市永和區福和路1號","121.52552","25.0095","6500400","永和區"
"234026","9371-KE","2019/12/02 18:43:33","新北市永和區保生路55-1號","121.504526666667","25.0109183333333","6500400","永和區"
"234011","9373-KE","2019/12/02 18:43:39","新北市永和區永和路二段235號","121.515378333333","25.01434","6500400","永和區"
"249005","172-UM","2019/12/02 18:43:34","新北市八里區長道坑15號","121.394376666667","25.1185316666667","6502300","八里區"
"249001","173-UM","2019/12/02 18:43:46","新北市八里區龍米路一段263-2號","121.449843333333","25.1367383333333","6502300","八里區"
"249004","303-UY","2019/12/02 18:43:43","新北市八里區中山路59-2號","121.418533333333","25.1596116666667","6502300","八里區"
"249002","305-UY","2019/12/02 18:43:31","新北市八里區龍形一街31號","121.449581666667","25.1304466666667","6502300","八里區"
"249003","593-UM","2019/12/02 18:32:12","新北市八里區博物館路10-1號","121.4151","25.1639616666667","6502300","八里區"
"248014","025-BX","2019/12/02 18:43:34","新北市五股區民義路一段107巷32號","121.432126666667","25.0845483333333","6501500","五股區"
"248016","026-BX","2019/12/02 18:43:35","新北市五股區凌雲路一段149巷13-1號","121.44862","25.100865","6501500","五股區"
"248008","KED-0815","2019/12/02 18:43:35","新北市五股區中興路一段151巷3號","121.46503","25.072885","6501500","五股區"
"248018","KED-0813","2019/12/02 18:43:37","新北市五股區民義路二段116號","121.403623333333","25.1115816666667","6501500","五股區"
"248012","247-BX","2019/12/02 18:43:48","新北市五股區成泰路二段147巷34-2號","121.436763333333","25.08874","6501500","五股區"
"248010","272-BY","2019/12/02 18:43:46","新北市五股區水碓三路103號","121.431206666667","25.0726283333333","6501500","五股區"
"248004","677-BX","2019/12/02 18:43:37","新北市五股區民義路二段41號","121.413915","25.1014133333333","6501500","五股區"
"248002","678-BX","2019/12/02 18:43:33","新北市五股區成泰路三段435巷11號","121.449291666667","25.09779","6501500","五股區"
"234023","9380-KE","2019/12/02 18:43:35","新北市永和區豫溪街217巷21號","121.524293333333","25.0098883333333","6500400","永和區"
"234077","969-R7","2019/12/02 18:43:52","新北市永和區中正路46號","121.513068333333","24.9944783333333","6500400","永和區"
"234067","AAC-212","2019/12/02 18:43:42","新北市永和區永貞路208號","121.51564","25.0040833333333","6500400","永和區"
"234003","AAC-295","2019/12/02 18:43:39","新北市永和區福和路71號","121.522643333333","25.007895","6500400","永和區"
"232011","375-UM","2019/12/02 18:43:33","新北市坪林區坪雙路一段41號","121.711728333333","24.9424716666667","6502000","坪林區"
"244007","080-UY","2019/12/02 18:43:45","新北市林口區太平里5鄰27-1號","121.377115","25.1173783333333","6501700","林口區"
"244013","KEA-2802","2019/12/02 18:43:33","新北市林口區麗園路1號","121.375358333333","25.0695783333333","6501700","林口區"
"244023","483-VK","2019/12/02 18:43:46","新北市林口區文化二路二段111號","121.378441666667","25.08101","6501700","林口區"
"244017","485-VK","2019/12/02 18:43:43","新北市林口區文化二路一段68巷12-6號","121.366178333333","25.068225","6501700","林口區"
"244009","656-BX","2019/12/02 18:43:30","新北市林口區竹林路440號","121.388478333333","25.0852833333333","6501700","林口區"
"244011","701-TV","2019/12/02 18:43:46","新北市林口區仁愛路一段285巷116號","121.395086666667","25.0757","6501700","林口區"
"244025","837-TS","2019/12/02 18:43:36","新北市林口區南勢里53-6號","121.355058333333","25.0747933333333","6501700","林口區"
"244020","838-TS","2019/12/02 18:43:40","新北市林口區工六路100號","121.401223333333","25.0765266666667","6501700","林口區"
"243016","421-VK","2019/12/02 18:43:34","新北市泰山區明志路一段456號","121.430706666667","25.0556516666667","6501600","泰山區"
"243015","539-UM","2019/12/02 18:43:46","新北市泰山區黎明路25號","121.421995","25.0606716666667","6501600","泰山區"
"243009","KEA-2215","2019/12/02 18:43:47","新北市泰山區黎明路23-1號","121.421451666667","25.0611166666667","6501600","泰山區"
"222003","436-BY","2019/12/02 18:43:47","新北市深坑區翠谷街17巷25號","121.626098333333","25.0091066666667","6501800","深坑區"
"222002","659-BX","2019/12/02 18:43:45","新北市深坑區文山路一段69號","121.626971666667","25.001895","6501800","深坑區"
"231061","002-UM","2019/12/02 18:43:34","新北市新店區安華路28-1號","121.519741666667","24.9607283333333","6500600","新店區"
"231055","0291-UT","2019/12/02 18:43:44","新北市新店區中華路83巷67號","121.538378333333","24.9673983333333","6500600","新店區"
"231058","0293-UT","2019/12/02 18:43:38","新北市新店區新店後街36號","121.537928333333","24.9535116666667","6500600","新店區"
"231040","047-UY","2019/12/02 18:43:48","新北市新店區安華路28-1號","121.519125","24.9609333333333","6500600","新店區"
"231060","106-UY","2019/12/02 18:43:38","新北市新店區安華路28-1號","121.51958","24.9607183333333","6500600","新店區"
"231051","107-UY","2019/12/02 18:43:51","新北市新店區中央路79號","121.53246","24.9765266666667","6500600","新店區"
"231049","108-UY","2019/12/02 18:43:43","新北市新店區安康路一段35-1號","121.532085","24.960585","6500600","新店區"
"231065","110-UY","2019/12/02 18:43:42","新北市新店區車子路20號","121.505288333333","24.95459","6500600","新店區"
"221031","KEA-2785","2019/12/02 18:43:47","新北市汐止區大同路一段312號","121.63732","25.0588133333333","6501100","汐止區"
"231054","260-TV","2019/12/02 18:43:34","新北市新店區安一路一段1-1號","121.519163333333","24.9611883333333","6500600","新店區"
"231042","268-BY","2019/12/02 18:43:41","新北市新店區安一路一段1-1號","121.519663333333","24.9612766666667","6500600","新店區"
"231064","278-BY","2019/12/02 18:43:47","新北市新店區安一路一段1-1號","121.519743333333","24.961055","6500600","新店區"
"231050","AAD-862","2019/12/02 18:43:36","新北市新店區安華路28-1號","121.519576666667","24.9609283333333","6500600","新店區"
"231045","355-BY","2019/12/02 18:43:46","新北市新店區安華路28-1號","121.519243333333","24.9607783333333","6500600","新店區"
"231056","4715-K9","2019/12/02 18:43:43","新北市新店區大豐路68巷1號","121.539066666667","24.9796666666667","6500600","新店區"
"231052","513-UM","2019/12/02 18:43:50","新北市新店區長興路1號","121.545908333333","24.9404516666667","6500600","新店區"
"231062","515-UM","2019/12/02 18:43:51","新北市新店區安一路一段1-1號","121.519716666667","24.961095","6500600","新店區"
"231041","619-UM","2019/12/02 18:43:35","新北市新店區安華路1-1號","121.519296666667","24.96053","6500600","新店區"
"231063","641-BX","2019/12/02 18:43:45","新北市新店區安華路1-1號","121.519506666667","24.960405","6500600","新店區"
"231047","KED-0819","2019/12/02 18:43:44","新北市新店區安康路一段299-1號","121.522315","24.9637183333333","6500600","新店區"
"231046","719-UM","2019/12/02 18:43:37","新北市新店區直潭二街1號","121.535411666667","24.9431416666667","6500600","新店區"
"231057","720-UM","2019/12/02 18:43:31","新北市新店區新烏路一段106號","121.54554","24.936475","6500600","新店區"
"231059","897-TW","2019/12/02 18:43:44","新北市新店區安華路1-1號","121.519496666667","24.9605133333333","6500600","新店區"
"231043","899-TW","2019/12/02 18:43:44","新北市新店區安一路一段1-1號","121.518958333333","24.9609516666667","6500600","新店區"
"235066","003-UY","2019/12/02 18:43:32","新北市中和區水源路34巷21弄2號","121.504656666667","25.0026583333333","6500300","中和區"
"235064","005-UY","2019/12/02 18:43:50","新北市中和區泰和街33號","121.499263333333","24.9997783333333","6500300","中和區"
"235063","006-UY","2019/12/02 18:43:33","新北市中和區連城路234號","121.489063333333","24.9964216666667","6500300","中和區"
"235056","096-UM","2019/12/02 18:43:49","新北市中和區員山路502-6號","121.47967","25.0077083333333","6500300","中和區"
"235039","097-UM","2019/12/02 18:43:48","新北市永和區中正路65號","121.514606666667","24.9967083333333","6500300","中和區"
"235065","098-UM","2019/12/02 18:43:44","新北市中和區中山路二段2巷51號","121.50188","25.0072983333333","6500300","中和區"
"235040","150-BY","2019/12/02 18:43:44","新北市中和區宜安路56號","121.511758333333","24.99689","6500300","中和區"
"235038","185-VK","2019/12/02 18:43:45","新北市中和區自強路64號","121.519976666667","24.994345","6500300","中和區"
"235067","255-BX","2019/12/02 18:43:46","新北市中和區中正路853號","121.48461","25.0029883333333","6500300","中和區"
"235044","293-VK","2019/12/02 18:43:51","新北市中和區復興路280巷19號","121.502201666667","24.99161","6500300","中和區"
"235072","301-VK","2019/12/02 18:43:37","新北市中和區中山路二段75號","121.50386","25.004465","6500300","中和區"
"235043","352-BY","2019/12/02 18:43:52","新北市中和區成功路139號","121.525846666667","24.99026","6500300","中和區"
"235042","KEA-2878","2019/12/02 18:43:43","新北市中和區秀朗路三段133巷2號","121.525405","24.992725","6500300","中和區"
"235050","4978-A6","2019/12/02 18:43:47","新北市中和區景新街496巷35弄2號","121.513473333333","24.9855733333333","6500300","中和區"
"235069","4980-A6","2019/12/02 18:43:40","新北市中和區南山路81巷20號","121.50259","24.9978883333333","6500300","中和區"
"235070","558-UM","2019/12/02 18:43:34","新北市中和區中和路143號","121.502195","24.9997633333333","6500300","中和區"
"235045","565-BX","2019/12/02 18:43:39","新北市中和區捷運路3號","121.509441666667","24.989295","6500300","中和區"
"235060","KED-0823","2019/12/02 18:43:34","新北市中和區中山路三段152-2號","121.473395","25.006275","6500300","中和區"
"235054","640-BX","2019/12/02 18:43:38","新北市中和區民享街35巷8弄15號","121.47486","25.0035066666667","6500300","中和區"
"235047","732-UM","2019/12/02 18:43:34","新北市中和區興南路二段34巷60號","121.504996666667","24.984985","6500300","中和區"
"235046","733-UM","2019/12/02 18:43:49","新北市中和區仁愛街36巷26號","121.511005","24.9871266666667","6500300","中和區"
"235062","800-TS","2019/12/02 18:43:46","新北市中和區中山路二段356號","121.492881666667","25.002925","6500300","中和區"
"235057","801-TS","2019/12/02 18:43:33","新北市中和區民利街33號","121.480008333333","24.9989983333333","6500300","中和區"
"235041","802-TS","2019/12/02 18:43:40","新北市中和區中安街222號","121.512143333333","24.9988116666667","6500300","中和區"
"235052","805-TS","2019/12/02 18:43:41","新北市中和區興南路三段70號","121.492381666667","24.9745233333333","6500300","中和區"
"235048","896-TW","2019/12/02 18:43:36","新北市中和區南山路300號","121.50793","24.9870716666667","6500300","中和區"
"235053","900-TW","2019/12/02 18:43:34","新北市中和區華福街10號","121.465623333333","24.9967316666667","6500300","中和區"
"235055","911-UM","2019/12/02 18:43:48","新北市中和區民生街85巷5弄2號","121.469243333333","25.004055","6500300","中和區"
"235051","157-BY","2019/12/02 18:43:49","新北市中和區華新街109巷11弄3號","121.508716666667","24.9792433333333","6500300","中和區"
"235037","AAC-213","2019/12/02 18:43:32","新北市中和區秀朗路三段128巷25弄5號","121.524091666667","24.9937866666667","6500300","中和區"
"235059","AAC-215","2019/12/02 18:43:42","新北市中和區圓通路369巷2號","121.490998333333","24.9895383333333","6500300","中和區"
"220054","015-TV","2019/12/02 18:43:39","新北市板橋區華東街260號","121.452678333333","25.0014216666667","6500100","板橋區"
"220065","072-UY","2019/12/02 18:43:45","新北市板橋區成都街43號","121.461221666667","25.00486","6500100","板橋區"
"220086","073-UY","2019/12/02 18:43:43","新北市板橋區館前西路168-1號","121.451956666667","25.0083883333333","6500100","板橋區"
"220069","AAD-861","2019/12/02 18:43:32","新北市板橋區四川路一段70號","121.459423333333","25.00541","6500100","板橋區"
"226004","312-R5","2019/12/02 18:43:36","新北市平溪區平溪里三坑路50號","121.733625","25.030075","6502400","平溪區"
"235049","251-BX","2019/12/02 18:43:34","新北市中和區景安路132巷37號","121.503968333333","24.9943316666667","6500300","中和區"
"228003","097-TW","2019/12/02 18:43:35","新北市貢寮區和美里龍洞街1-5號","121.91923","25.112475","6502600","貢寮區"
"228002","663-BX","2019/12/02 18:43:34","新北市貢寮區福隆里東興街6-11號","121.950733333333","25.021055","6502600","貢寮區"
"228001","670-TC","2019/12/02 18:43:34","新北市貢寮區仁理村研海街12-1號","121.923768333333","25.0516866666667","6502600","貢寮區"
"224010","AGQ-8101","2019/12/02 18:43:33","新北市瑞芳區基山街13號","121.84533","25.1096016666667","6501200","瑞芳區"
"224006","676-BX","2019/12/02 18:43:46","新北市瑞芳區中正路88號","121.8054","25.10771","6501200","瑞芳區"
"224007","285-BY","2019/12/02 18:43:38","新北市瑞芳區大埔路229號","121.76238","25.1012816666667","6501200","瑞芳區"
"224009","275-VK","2019/12/02 18:43:50","新北市瑞芳區祈堂路53-1號","121.85958","25.11045","6501200","瑞芳區"
"224008","273-VK","2019/12/02 18:43:38","新北市瑞芳區逢甲路282巷5弄8號","121.803808333333","25.1115116666667","6501200","瑞芳區"
"224005","271-BY","2019/12/02 18:43:39","新北市瑞芳區瑞濱路32號","121.826376666667","25.1215466666667","6501200","瑞芳區"
"227002","642-TC","2019/12/02 18:43:39","新北市雙溪區魚行里坤溪3-5號","121.876188333333","25.020825","6502500","雙溪區"
"227001","400-TW","2019/12/02 18:43:43","新北市雙溪區牡丹里下坑11號","121.850978333333","25.0561683333333","6502500","雙溪區"
"253005","032-BX","2019/12/02 18:43:44","新北市石門區中山路28-1號","121.565781666667","25.290025","6502200","石門區"
"253006","295-VK","2019/12/02 18:43:51","新北市石門區下員坑30號","121.520165","25.2828216666667","6502200","石門區"
"222001","KEA-2212","2019/12/02 18:43:44","新北市深坑區松柏街43巷2號","121.638781666667","25.0120583333333","6501800","深坑區"
"208002","KEA-2872","2019/12/02 18:43:32","新北市金山區仁愛路31號","121.6366","25.2193466666667","6502700","金山區"
"251004","009-UM","2019/12/02 18:43:45","新北市淡水區民權路3巷18弄2號","121.461516666667","25.1426066666667","6501000","淡水區"
"251015","KEA-2871","2019/12/02 18:43:44","新北市淡水區興福寮66巷75號","121.485988333333","25.1610983333333","6501000","淡水區"
"251016","180-VK","2019/12/02 18:43:35","新北市淡水區下圭柔山76-13號","121.445195","25.2056116666667","6501000","淡水區"
"251008","181-VK","2019/12/02 18:43:37","新北市淡水區北投子87-3號","121.468881666667","25.1785866666667","6501000","淡水區"
"251013","182-VK","2019/12/02 18:43:34","新北市淡水區雲廣坑7-1號","121.476191666667","25.2131283333333","6501000","淡水區"
"251010","413-VK","2019/12/02 18:43:45","新北市淡水區沙崙路124號","121.423326666667","25.1828616666667","6501000","淡水區"
"251012","441-VK","2019/12/02 18:43:46","新北市淡水區北新路121號","121.44905","25.1786433333333","6501000","淡水區"
"251001","559-UM","2019/12/02 18:43:33","新北市淡水區自強路166號","121.465635","25.1341316666667","6501000","淡水區"
"251006","561-UM","2019/12/02 18:43:42","新北市淡水區崁頂36號","121.438933333333","25.1946466666667","6501000","淡水區"
"251014","577-R6","2019/12/02 18:43:44","新北市淡水區崙頂12-8號","121.495578333333","25.21724","6501000","淡水區"
"251011","650-BX","2019/12/02 18:43:32","新北市淡水區平遠街1-4號","121.448053333333","25.167665","6501000","淡水區"
"251002","672-BX","2019/12/02 18:43:43","新北市淡水區中正東路71-4號","121.447403333333","25.16752","6501000","淡水區"
"251003","673-BX","2019/12/02 18:43:43","新北市淡水區北新路69巷26號","121.44672","25.1801183333333","6501000","淡水區"
"207003","681-TV","2019/12/02 18:43:46","新北市萬里區野柳里港東路73號","121.688193333333","25.20504","6502800","萬里區"
"207004","291-VK","2019/12/02 18:43:45","新北市萬里區萬里里獅頭路23號","121.693253333333","25.1782083333333","6502800","萬里區"
"252003","249-BX","2019/12/02 18:43:34","新北市三芝區後厝里大片頭83-19號","121.458733333333","25.2439666666667","6502100","三芝區"
"252001","292-VK","2019/12/02 18:43:42","新北市三芝區中正路三段17號","121.502855","25.25338","6502100","三芝區"
"237004","KEA-2597","2019/12/02 18:43:44","新北市三峽區插角220號","121.415106666667","24.867635","6500900","三峽區"
"237007","153-BY","2019/12/02 18:43:46","新北市三峽區柑樹路2巷3號","121.362235","24.9057966666667","6500900","三峽區"
"237009","210-TH","2019/12/02 18:43:31","新北市三峽區大同路202-1號","121.367526666667","24.927795","6500900","三峽區"
"237013","252-BX","2019/12/02 18:43:50","新北市三峽區大同路48巷17弄8-1號","121.376775","24.9290266666667","6500900","三峽區"
"237012","275-BY","2019/12/02 18:43:34","新北市三峽區三樹路340號","121.383906666667","24.9432866666667","6500900","三峽區"
"237014","433-BY","2019/12/02 18:43:30","新北市三峽區復興路480巷53號","121.361071666667","24.940435","6500900","三峽區"
"237006","5529-G3","2019/12/02 18:43:43","新北市三峽區溪東路315巷6號","121.41062","24.9306383333333","6500900","三峽區"
"237011","KEA-2596","2019/12/02 18:43:33","新北市三峽區溪東路405號","121.412231666667","24.9288216666667","6500900","三峽區"
"237015","649-BX","2019/12/02 18:43:38","新北市三峽區安坑1-12號","121.438595","24.9264533333333","6500900","三峽區"
"237010","706-TV","2019/12/02 18:43:43","新北市三峽區復興路485號","121.361306666667","24.9384616666667","6500900","三峽區"
"237005","AKY-6261","2019/12/02 18:43:38","新北市三峽區民生街104巷15號","121.373588333333","24.9360333333333","6500900","三峽區"
"236042","KED-0685","2019/12/02 18:43:44","新北市土城區裕民路92巷13號","121.450018333333","24.9865133333333","6501300","土城區"
"236078","166-UM","2019/12/02 18:43:49","新北市土城區中央路四段185巷28號","121.415511666667","24.9558116666667","6501300","土城區"
"236030","253-BX","2019/12/02 18:43:33","新北市土城區慶樂街33號","121.438536666667","24.9730966666667","6501300","土城區"
"236026","269-VK","2019/12/02 18:43:32","新北市土城區和平路73號","121.443781666667","24.9715133333333","6501300","土城區"
"236039","271-VK","2019/12/02 18:43:39","新北市土城區明德路一段235巷38號","121.463203333333","24.977385","6501300","土城區"
"236069","KEA-2877","2019/12/02 18:43:48","新北市土城區永豐路157巷4號","121.46825","24.9815","6501300","土城區"
"252002","KED-0821","2019/12/02 18:43:51","新北市三芝區民生街17號","121.503658333333","25.2570683333333","6502100","三芝區"
"236020","401-BY","2019/12/02 18:43:47","新北市土城區延吉街253巷31號","121.468048333333","24.9836166666667","6501300","土城區"
"236014","752-BX","2019/12/02 18:43:48","新北市土城區清水路278巷28弄2號","121.462595","24.9825383333333","6501300","土城區"
"236059","912-UM","2019/12/02 18:43:49","新北市土城區中央路三段127號","121.433781666667","24.9654783333333","6501300","土城區"
"236048","913-UM","2019/12/02 18:43:46","新北市土城區青雲路107-1號","121.45912","24.9855633333333","6501300","土城區"
"236063","915-UM","2019/12/02 18:43:49","新北市土城區延和路177巷11弄7號","121.469556666667","24.9908366666667","6501300","土城區"
"236055","AAC-216","2019/12/02 18:43:39","新北市土城區裕民路55號","121.448635","24.9880633333333","6501300","土城區"
"242058","612-BX","2019/12/02 18:43:44","新北市新莊區中正路879-6號","121.417745","25.026195","6500500","新莊區"
"242044","415-TV","2019/12/02 18:43:40","新北市新莊區中正路新旺巷45弄2號","121.416553333333","25.0223733333333","6500500","新莊區"
"242009","349-TH","2019/12/02 18:43:39","新北市新莊區環河路48-3號","121.436546666667","25.0087483333333","6500500","新莊區"
"238023","601-UM","2019/12/02 18:43:37","新北市樹林區三福街114號","121.406468333333","25.01632","6500700","樹林區"
"238024","5061-A6","2019/12/02 18:43:41","新北市樹林區太順街79巷17號","121.417186666667","24.9781233333333","6500700","樹林區"
"238020","268-VK","2019/12/02 18:43:37","新北市樹林區俊英街282號","121.423726666667","25.0133366666667","6500700","樹林區"
"238026","172-UY","2019/12/02 18:43:40","新北市樹林區育德街78-1號","121.388078333333","24.9680333333333","6500700","樹林區"
"238016","169-UY","2019/12/02 18:43:20","新北市樹林區中山路一段412號","121.41742","24.98512","6500700","樹林區"
"239008","527-UM","2019/12/02 18:43:43","新北市鶯歌區朝陽街1號","121.336303333333","24.9765716666667","6500800","鶯歌區"
"239005","526-UM","2019/12/02 18:43:41","新北市鶯歌區鳳吉三街25號","121.32699","24.9736933333333","6500800","鶯歌區"
"239001","417-VK","2019/12/02 18:43:50","新北市鶯歌區國中街197號","121.338243333333","24.93916","6500800","鶯歌區"
"239003","360-BY","2019/12/02 18:43:40","新北市鶯歌區福安街58號","121.335498333333","24.9652333333333","6500800","鶯歌區"
"239004","193-VK","2019/12/02 18:43:48","新北市鶯歌區黃厝街7巷26號","121.344288333333","24.9461783333333","6500800","鶯歌區"
"221036","130-UY","2019/12/02 18:43:35","新北市汐止區長興街一段50號","121.670638333333","25.0792916666667","6501100","汐止區"
"221015","131-UY","2019/12/02 18:43:35","新北市汐止區鄉友街26號","121.668641666667","25.0811433333333","6501100","汐止區"
"244019","KED-0667","2019/12/02 18:43:44","新北市林口區麗園二街87號","121.382685","25.0668116666667","6501700","林口區"
"221010","269-BY","2019/12/02 18:43:36","新北市汐止區夢湖路一段2巷5號","121.642061666667","25.108045","6501100","汐止區"
"221018","277-VK","2019/12/02 18:43:34","新北市汐止區茄苳路224巷3弄23號","121.671243333333","25.0680566666667","6501100","汐止區"
"221012","278-VK","2019/12/02 18:43:52","新北市汐止區保長路149號","121.67688","25.0764466666667","6501100","汐止區"
"221032","280-BY","2019/12/02 18:43:41","新北市汐止區民權街二段79號","121.619193333333","25.0479916666667","6501100","汐止區"
"221029","298-VK","2019/12/02 18:43:38","新北市汐止區樟樹一路97號","121.641993333333","25.0635716666667","6501100","汐止區"
"221021","299-VK","2019/12/02 18:43:33","新北市汐止區復興路53巷1號","121.656846666667","25.0626816666667","6501100","汐止區"
"221035","622-UM","2019/12/02 18:43:44","新北市汐止區大同路二段49號","121.64882","25.0628433333333","6501100","汐止區"
"221025","623-UM","2019/12/02 18:43:51","新北市汐止區仁愛路119巷2號","121.66265","25.0638133333333","6501100","汐止區"
"221002","707-TV","2019/12/02 18:43:41","新北市汐止區大同路一段277號","121.636475","25.0584833333333","6501100","汐止區"
"220079","145-BY","2019/12/02 18:43:38","新北市板橋區南雅西路二段121號","121.452465","25.0110133333333","6500100","板橋區"
"220080","200-UY","2019/12/02 18:43:48","新北市板橋區大觀路二段265巷76弄27號","121.441551666667","24.996665","6500100","板橋區"
"220082","610-BX","2019/12/02 18:43:49","新北市板橋區篤行路二段117-1號","121.431378333333","24.9908616666667","6500100","板橋區"
"220101","245-BX","2019/12/02 18:43:32","新北市板橋區民生路二段89-6號","121.47074","25.019315","6500100","板橋區"
"224002","257-TC","2019/12/02 18:43:37","新北市瑞芳區中山路54號","121.803161666667","25.10639","6501200","瑞芳區"
"220056","276-BY","2019/12/02 18:43:53","新北市板橋區四川路一段205號","121.460118333333","25.0035116666667","6500100","板橋區"
"220072","277-BY","2019/12/02 18:43:41","新北市板橋區大觀路二段431-1號","121.441268333333","24.9949633333333","6500100","板橋區"
"220094","283-UM","2019/12/02 18:43:49","新北市板橋區民生路二段120號","121.470371666667","25.0196283333333","6500100","板橋區"
"220071","283-VK","2019/12/02 18:43:39","新北市土城區四川路8號","121.45565","24.9961066666667","6500100","板橋區"
"220083","286-VK","2019/12/02 18:43:44","新北市板橋區大觀路二段111號","121.446285","25.001535","6500100","板橋區"
"220081","287-VK","2019/12/02 18:43:40","新北市板橋區大觀路一段35巷2號","121.44906","25.008355","6500100","板橋區"
"220090","288-VK","2019/12/02 18:43:46","新北市板橋區民生路三段105號","121.466761666667","25.0252733333333","6500100","板橋區"
"220061","293-UM","2019/12/02 18:43:42","新北市板橋區民生路二段89-4號","121.471436666667","25.0184716666667","6500100","板橋區"
"220084","296-UM","2019/12/02 18:43:30","新北市板橋區大觀路二段174巷102弄19號","121.441631666667","25.0012133333333","6500100","板橋區"
"220075","303-R5","2019/12/02 18:43:49","新北市板橋區南雅西路一段63巷8號","121.452038333333","25.00788","6500100","板橋區"
"220062","305-R5","2019/12/02 18:43:51","新北市板橋區民生路二段120號","121.47038","25.0196566666667","6500100","板橋區"
"220092","307-R5","2019/12/02 18:43:44","新北市板橋區漢生東路21-1號","121.465161666667","25.017125","6500100","板橋區"
"220098","317-R6","2019/12/02 18:43:33","新北市板橋區民生路二段56-6號","121.471023333333","25.0191633333333","6500100","板橋區"
"220089","487-VK","2019/12/02 18:43:36","新北市板橋區文化路一段360號","121.468516666667","25.0237683333333","6500100","板橋區"
"220088","491-VK","2019/12/02 18:43:47","新北市板橋區民生路二段89-6號","121.470581666667","25.019285","6500100","板橋區"
"220035","560-BX","2019/12/02 18:43:34","新北市板橋區南雅西路二段175巷2號","121.451688333333","25.01255","6500100","板橋區"
"220103","561-BX","2019/12/02 18:43:45","新北市板橋區民生路二段89-4號","121.471268333333","25.0184166666667","6500100","板橋區"
"220063","609-BX","2019/12/02 18:43:30","新北市板橋區中山路二段50-2號","121.473376666667","25.01538","6500100","板橋區"
"220057","686-BX","2019/12/02 18:43:35","新北市板橋區館前東路53號","121.46127","25.007435","6500100","板橋區"
"220077","687-BX","2019/12/02 18:43:39","新北市板橋區大觀路二段443-2號","121.440995","24.995255","6500100","板橋區"
"220093","689-BX","2019/12/02 18:43:47","新北市板橋區民生路二段175號","121.469891666667","25.0202133333333","6500100","板橋區"
"220102","KEA-2699","2019/12/02 18:43:40","新北市板橋區民生路二段120號","121.470391666667","25.0196983333333","6500100","板橋區"
"220055","827-TW","2019/12/02 18:43:50","新北市板橋區忠孝路99號","121.462403333333","25.0023866666667","6500100","板橋區"
"220106","829-TW","2019/12/02 18:43:13","新北市板橋區民生路二段89-6號","121.470641666667","25.0192766666667","6500100","板橋區"
"220068","830-TW","2019/12/02 18:43:50","新北市板橋區萬板路165號","121.474158333333","25.0235233333333","6500100","板橋區"
"220067","831-TW","2019/12/02 18:43:48","新北市板橋區三民路二段正隆巷45號","121.476723333333","25.0134816666667","6500100","板橋區"
"220074","895-R6","2019/12/02 18:43:41","新北市板橋區南門街7號","121.457651666667","25.0092816666667","6500100","板橋區"
"220073","985-R7","2019/12/02 18:43:47","新北市板橋區貴興路7號","121.457711666667","25.00442","6500100","板橋區"
"220097","AAC-210","2019/12/02 18:43:34","新北市板橋區民生路三段54號","121.467028333333","25.02511","6500100","板橋區"
"220064","AAC-253","2019/12/02 18:43:44","新北市板橋區中山路一段275號","121.469143333333","25.0135733333333","6500100","板橋區"
"235025","KEA-2875","2019/12/02 18:43:32","新北市中和區民治街132巷6號","121.475066666667","25.0023616666667","6500300","中和區"
"235068","KEA-2876","2019/12/02 18:43:48","新北市中和區中正路211巷13弄5號","121.497053333333","24.99311","6500300","中和區"
