"lineid","car","time","location","longitude","latitude","cityid","cityname"
"231063","641-BX","2019/12/02 21:29:45","新北市新店區如意街30號","121.493686666667","24.9483633333333","6500600","新店區"
"241017","063-VK","2019/12/02 21:29:48","新北市三重區中正北路25巷23號","121.493121666667","25.0625633333333","6500200","三重區"
"241024","065-VK","2019/12/02 21:29:39","新北市三重區中正北路117號","121.483565","25.06705","6500200","三重區"
"241007","066-VK","2019/12/02 21:29:40","新北市三重區大同北路69號","121.495168333333","25.0637416666667","6500200","三重區"
"241003","742-BX","2019/12/02 21:29:41","新北市三重區仁義街393號","121.494638333333","25.0855916666667","6500200","三重區"
"241016","266-UM","2019/12/02 21:29:54","新北市三重區信義西街150巷1號","121.495351666667","25.063705","6500200","三重區"
"241005","AAD-863","2019/12/02 21:29:45","新北市三重區碧華街50號","121.48352","25.081265","6500200","三重區"
"247006","893-R6","2019/12/02 21:29:51","新北市五股區凌雲路三段24巷19號","121.435056666667","25.1073016666667","6501400","蘆洲區"
"247008","002-UY","2019/12/02 21:29:51","新北市五股區新城三路45號","121.448915","25.0930316666667","6501400","蘆洲區"
"251009","008-UM","2019/12/02 21:29:43","新北市淡水區民族路33巷16-3號","121.463423333333","25.13601","6501000","淡水區"
"251004","009-UM","2019/12/02 21:29:38","新北市淡水區民族路2號","121.460351666667","25.1368566666667","6501000","淡水區"
"251005","010-UM","2019/12/02 21:29:39","新北市淡水區水源街一段73號","121.444578333333","25.1722683333333","6501000","淡水區"
"251016","180-VK","2019/12/02 21:29:43","新北市淡水區前洲子28號","121.441055","25.2192433333333","6501000","淡水區"
"251008","181-VK","2019/12/02 21:29:57","新北市淡水區水源街二段148號","121.454216666667","25.1750133333333","6501000","淡水區"
"251013","182-VK","2019/12/02 21:29:46","新北市淡水區埤島61-5號","121.459783333333","25.1953483333333","6501000","淡水區"
"251010","413-VK","2019/12/02 21:29:38","新北市淡水區沙崙路25巷21號","121.420573333333","25.18258","6501000","淡水區"
"251012","441-VK","2019/12/02 21:29:46","新北市淡水區石頭埔6號","121.452911666667","25.2342783333333","6501000","淡水區"
"251001","559-UM","2019/12/02 21:29:53","新北市淡水區濱海路三段148巷50弄76號","121.43152","25.1906183333333","6501000","淡水區"
"251006","561-UM","2019/12/02 21:29:42","新北市淡水區公明街73巷1號","121.443918333333","25.168595","6501000","淡水區"
"251014","577-R6","2019/12/02 21:29:44","新北市淡水區六塊厝2-1號","121.450155","25.2404566666667","6501000","淡水區"
"251011","650-BX","2019/12/02 21:29:38","新北市淡水區新民街164號","121.437071666667","25.1783833333333","6501000","淡水區"
"251002","672-BX","2019/12/02 21:29:43","新北市淡水區學府路172巷21號","121.448388333333","25.1748383333333","6501000","淡水區"
"251003","673-BX","2019/12/02 21:29:43","新北市淡水區新春街65巷6號","121.437865","25.18262","6501000","淡水區"
