"lineid","car","time","location","longitude","latitude","cityid","cityname"
"251004","009-UM","2019/12/02 22:13:38","新北市淡水區民族路33號","121.462243333333","25.135865","6501000","淡水區"
"251008","181-VK","2019/12/02 22:13:37","新北市淡水區學府路104號","121.449865","25.1718216666667","6501000","淡水區"
"251010","413-VK","2019/12/02 22:13:37","新北市淡水區沙崙路200號","121.424868333333","25.1838233333333","6501000","淡水區"
"251007","442-VK","2019/12/02 22:13:39","新北市淡水區北新路180號","121.449443333333","25.1786816666667","6501000","淡水區"
"251011","650-BX","2019/12/02 22:13:38","新北市淡水區水碓街7號","121.443176666667","25.1770833333333","6501000","淡水區"
