"lineid","car","time","location","longitude","latitude","cityid","cityname"
"251004","009-UM","2019/12/02 22:29:38","新北市淡水區民族路33號","121.462245","25.1358266666667","6501000","淡水區"
"251008","181-VK","2019/12/02 22:29:57","新北市淡水區學府路104號","121.449866666667","25.1718366666667","6501000","淡水區"
"251010","413-VK","2019/12/02 22:29:38","新北市淡水區沙崙路216巷21號","121.425908333333","25.1842533333333","6501000","淡水區"
"251007","442-VK","2019/12/02 22:29:39","新北市淡水區北新路180號","121.449455","25.1787","6501000","淡水區"
"251011","650-BX","2019/12/02 22:29:38","新北市淡水區水碓街7號","121.443183333333","25.1771283333333","6501000","淡水區"
