"lineid","car","time","location","longitude","latitude","cityid","cityname"
"234015","745-BX","2019/11/30 12:13:47","新北市永和區福和路1號","121.526313333333","25.0096216666667","6500400","永和區"
"228005","097-TW","2019/11/30 12:13:46","新北市貢寮區福隆里桂安街15號","121.962931666667","25.020875","6502600","貢寮區"
"228004","212-TW","2019/11/30 12:13:39","新北市貢寮區貢寮里長泰路14號","121.90754","25.019575","6502600","貢寮區"
"207002","749-BX","2019/11/30 12:13:46","新北市萬里區中幅里大湖路6號","121.660626666667","25.1711616666667","6502800","萬里區"
"207001","662-BX","2019/11/30 12:13:51","新北市萬里區萬里里獅頭路15-1號","121.697971666667","25.180045","6502800","萬里區"
"220108","985-R7","2019/11/30 12:06:06","新北市板橋區華東街1-9號","121.448255","24.9947633333333","6500100","板橋區"
