"lineid","car","time","location","longitude","latitude","cityid","cityname"
"249005","172-UM","2019/11/30 16:59:49","新北市八里區渡船頭1號","121.434061666667","25.1518866666667","6502300","八里區"
"249001","173-UM","2019/11/30 16:59:31","新北市八里區中山路三段106號","121.391076666667","25.1422016666667","6502300","八里區"
"249004","303-UY","2019/11/30 16:59:47","新北市八里區忠孝路393號","121.416213333333","25.1611066666667","6502300","八里區"
"249002","305-UY","2019/11/30 16:57:44","新北市八里區牛寮埔20號","121.431963333333","25.1429933333333","6502300","八里區"
"249003","593-UM","2019/11/30 16:59:38","新北市八里區中山路二段283號","121.401588333333","25.14864","6502300","八里區"
"244007","080-UY","2019/11/30 16:59:41","新北市林口區中湖48-11號","121.380253333333","25.0933066666667","6501700","林口區"
"244025","837-TS","2019/11/30 16:59:34","新北市林口區粉寮路二段167-1號","121.404348333333","25.088175","6501700","林口區"
"231046","719-UM","2019/11/30 16:59:33","新北市新店區灣潭路15-5號","121.541768333333","24.940275","6500600","新店區"
"241011","013-R5","2019/11/30 16:59:31","新北市三重區仁愛街55巷15號","121.49874","25.07266","6500200","三重區"
"241028","022-UY","2019/11/30 16:59:44","新北市三重區中正南路41巷1號","121.493865","25.05989","6500200","三重區"
"241008","059-VK","2019/11/30 16:59:38","新北市三重區永福街177巷6-1號","121.478561666667","25.0749616666667","6500200","三重區"
"241031","061-VK","2019/11/30 16:59:53","新北市三重區重新路三段115巷4號","121.490518333333","25.0600683333333","6500200","三重區"
"241015","062-VK","2019/11/30 16:59:37","新北市三重區三和路二段1-4號","121.50162","25.0664833333333","6500200","三重區"
"241017","063-VK","2019/11/30 16:59:37","新北市三重區國隆路12巷16號","121.492503333333","25.0635866666667","6500200","三重區"
"241007","066-VK","2019/11/30 16:59:43","新北市三重區三和路四段145巷219號","121.488953333333","25.079435","6500200","三重區"
"241002","090-VK","2019/11/30 16:59:51","新北市三重區仁義街101巷2號","121.49757","25.0802733333333","6500200","三重區"
"241003","091-VK","2019/11/30 16:59:46","新北市三重區五華街141巷58號","121.493595","25.0867983333333","6500200","三重區"
"241006","262-UM","2019/11/30 16:59:38","新北市三重區三和路四段274巷18號","121.484753333333","25.07689","6500200","三重區"
"241016","266-UM","2019/11/30 16:59:41","新北市三重區大同北路112號","121.4933","25.06392","6500200","三重區"
"241009","267-UM","2019/11/30 16:59:42","新北市三重區仁愛街600巷18號","121.484261666667","25.08042","6500200","三重區"
"241018","268-UM","2019/11/30 16:59:34","新北市三重區六張街126巷23弄4號","121.49221","25.0689633333333","6500200","三重區"
"241032","269-UM","2019/11/30 16:59:43","新北市三重區新北大道一段33號","121.486006666667","25.061095","6500200","三重區"
"241013","270-UM","2019/11/30 16:59:50","新北市三重區仁福街70號","121.498208333333","25.07482","6500200","三重區"
"241030","KED-0822","2019/11/30 16:59:33","新北市三重區昌隆街65號","121.490953333333","25.0509966666667","6500200","三重區"
"241004","475-VK","2019/11/30 16:59:43","新北市三重區五華街102號","121.49249","25.0824483333333","6500200","三重區"
"241020","478-VK","2019/11/30 16:59:37","新北市三重區國道路一段8號","121.486116666667","25.0734033333333","6500200","三重區"
"241026","480-VK","2019/11/30 16:59:40","新北市三重區光興街43號","121.499381666667","25.0602033333333","6500200","三重區"
"241014","543-UM","2019/11/30 16:59:49","新北市三重區三和路二段173巷145號","121.501136666667","25.0706483333333","6500200","三重區"
"241023","545-UM","2019/11/30 16:59:40","新北市三重區忠孝路三段126號","121.479856666667","25.062","6500200","三重區"
"241001","547-UM","2019/11/30 16:59:53","新北市三重區仁愛街172巷4號","121.49385","25.0765233333333","6500200","三重區"
"241019","KEA-2593","2019/11/30 16:59:41","新北市三重區力行路一段89巷12-1號","121.487246666667","25.0691716666667","6500200","三重區"
"241005","AAD-863","2019/11/30 16:59:42","新北市三重區永安北路二段25巷45號","121.483123333333","25.0817616666667","6500200","三重區"
"241012","743-BX","2019/11/30 16:59:37","新北市三重區仁和街129號","121.498928333333","25.0743816666667","6500200","三重區"
"241022","KED-0820","2019/11/30 16:59:52","新北市三重區三民街141-1號","121.484486666667","25.0640233333333","6500200","三重區"
"241025","KED-0670","2019/11/30 16:59:48","新北市三重區中正北路508巷9號","121.472581666667","25.0711366666667","6500200","三重區"
"241029","942-UM","2019/11/30 16:59:36","新北市三重區中正南路181號","121.49371","25.0552733333333","6500200","三重區"
"241033","AAC-255","2019/11/30 16:59:38","新北市三重區中興北街271號","121.469123333333","25.06067","6500200","三重區"
"247016","KEA-2869","2019/11/30 16:59:47","新北市蘆洲區正和街10號","121.470101666667","25.0826766666667","6501400","蘆洲區"
"247006","893-R6","2019/11/30 16:59:43","新北市蘆洲區長安街99巷31號","121.460755","25.0796683333333","6501400","蘆洲區"
"247020","546-UM","2019/11/30 16:59:31","新北市蘆洲區民族路422巷82弄14號","121.473908333333","25.0938583333333","6501400","蘆洲區"
"247004","500-BY","2019/11/30 16:59:42","新北市蘆洲區長安街110號","121.46099","25.0815633333333","6501400","蘆洲區"
"247024","057-VK","2019/11/30 16:59:23","新北市蘆洲區長興路202號","121.460568333333","25.087475","6501400","蘆洲區"
"247014","056-VK","2019/11/30 16:59:36","新北市蘆洲區中山二路36巷11號","121.474226666667","25.082685","6501400","蘆洲區"
"247018","053-VK","2019/11/30 16:59:51","新北市蘆洲區民族路227巷25號","121.476758333333","25.0891083333333","6501400","蘆洲區"
"247022","007-UY","2019/11/30 16:59:53","新北市蘆洲區三民路128巷67號","121.469255","25.0908733333333","6501400","蘆洲區"
"247008","002-UY","2019/11/30 16:59:52","新北市蘆洲區信義路52號","121.475283333333","25.0796566666667","6501400","蘆洲區"
"247002","001-UY","2019/11/30 16:59:46","新北市蘆洲區永平街16號","121.459213333333","25.0905433333333","6501400","蘆洲區"
"228003","097-TW","2019/11/30 16:59:38","新北市貢寮區福隆里興隆街36號","121.942543333333","25.0165366666667","6502600","貢寮區"
"228001","212-TW","2019/11/30 16:59:51","新北市貢寮區貢寮里朝陽街2號","121.913176666667","25.0216383333333","6502600","貢寮區"
"228002","663-BX","2019/11/30 16:59:49","新北市貢寮區貢寮里長泰路24-2號","121.903435","25.0239033333333","6502600","貢寮區"
"224006","676-BX","2019/11/30 16:59:50","新北市瑞芳區大寮路356-1號","121.784905","25.1031533333333","6501200","瑞芳區"
"224007","285-BY","2019/11/30 16:59:53","新北市瑞芳區楓子瀨路29號","121.768068333333","25.1006783333333","6501200","瑞芳區"
"224009","275-VK","2019/11/30 16:59:38","新北市瑞芳區明燈路一段1號","121.826555","25.1093383333333","6501200","瑞芳區"
"224008","273-VK","2019/11/30 16:59:42","新北市瑞芳區明燈路三段1號","121.809376666667","25.1071783333333","6501200","瑞芳區"
"224005","271-BY","2019/11/30 16:59:52","新北市瑞芳區哩咾路1號","121.875151666667","25.1235816666667","6501200","瑞芳區"
"227001","642-TC","2019/11/30 16:59:36","新北市雙溪區三貂里定福路22-1號","121.851505","25.0733016666667","6502500","雙溪區"
"227002","400-TW","2019/11/30 16:59:38","新北市雙溪區上林里內平林90號","121.82805","25.0276666666667","6502500","雙溪區"
"251009","008-UM","2019/11/30 16:59:39","新北市淡水區中正路二段31號","121.419491666667","25.1815983333333","6501000","淡水區"
"251004","009-UM","2019/11/30 16:59:50","新北市淡水區中正路一段102號","121.423925","25.1778116666667","6501000","淡水區"
"251005","010-UM","2019/11/30 16:59:52","新北市淡水區文化路15號","121.439531666667","25.1725966666667","6501000","淡水區"
"251015","KEA-2871","2019/11/30 16:59:43","新北市淡水區忠愛街5-2號","121.460691666667","25.1715883333333","6501000","淡水區"
"251016","180-VK","2019/11/30 16:59:41","新北市淡水區瓦坑6-1號","121.477645","25.18112","6501000","淡水區"
"251008","181-VK","2019/11/30 16:59:50","新北市淡水區樹梅坑9號","121.47281","25.142665","6501000","淡水區"
"251013","182-VK","2019/11/30 16:59:46","新北市淡水區泉洲厝32號","121.489273333333","25.192515","6501000","淡水區"
"251012","441-VK","2019/11/30 16:59:42","新北市淡水區中正路二段31號","121.419531666667","25.1822366666667","6501000","淡水區"
"251007","442-VK","2019/11/30 16:59:37","新北市淡水區中正東路36-1號","121.448978333333","25.1658233333333","6501000","淡水區"
"251006","561-UM","2019/11/30 16:59:39","新北市淡水區淡海路25巷12號","121.422778333333","25.1786216666667","6501000","淡水區"
"251014","577-R6","2019/11/30 16:59:51","新北市淡水區淡金路四段476號","121.452431666667","25.2239033333333","6501000","淡水區"
"251011","650-BX","2019/11/30 16:59:48","新北市淡水區坪頂路50號","121.457936666667","25.1624683333333","6501000","淡水區"
"252001","292-VK","2019/11/30 16:59:45","新北市三芝區淡金路二段81號","121.503871666667","25.2606466666667","6502100","三芝區"
"252001","KED-0821","2019/11/30 16:59:43","新北市三芝區忠孝街177號","121.50527","25.2616466666667","6502100","三芝區"
"242004","751-BX","2019/11/30 16:59:44","新北市新莊區三和路12-21號","121.442278333333","25.0385766666667","6500500","新莊區"
"242058","612-BX","2019/11/30 16:59:40","新北市新莊區新泰路357巷3弄57號","121.442428333333","25.03943","6500500","新莊區"
"242048","566-BX","2019/11/30 16:59:14","新北市新莊區三和路12-21號","121.442093333333","25.0384116666667","6500500","新莊區"
"242053","497-BY","2019/11/30 16:59:44","新北市新莊區新泰路357巷3弄57號","121.442283333333","25.0393816666667","6500500","新莊區"
"242042","442-UM","2019/11/30 16:59:41","新北市新莊區新泰路255巷83號","121.442041666667","25.0388383333333","6500500","新莊區"
"242051","400-BY","2019/11/30 16:59:36","新北市新莊區新泰路357巷3弄57號","121.441941666667","25.0396133333333","6500500","新莊區"
"242023","353-BY","2019/11/30 16:59:41","新北市新莊區新泰路357巷3弄57號","121.44209","25.0391383333333","6500500","新莊區"
"242017","173-VK","2019/11/30 16:59:46","新北市新莊區三和路12-21號","121.44205","25.03874","6500500","新莊區"
"242031","175-VK","2019/11/30 16:59:49","新北市新莊區三和路12-21號","121.441936666667","25.0386683333333","6500500","新莊區"
"242021","KED-0687","2019/11/30 16:59:42","新北市新莊區三和路12-21號","121.442366666667","25.038145","6500500","新莊區"
"242007","346-TH","2019/11/30 16:59:48","新北市新莊區三和路12-21號","121.44202","25.038205","6500500","新莊區"
"242009","349-TH","2019/11/30 16:59:36","新北市新莊區三和路12-21號","121.442323333333","25.0384216666667","6500500","新莊區"
"242034","350-TH","2019/11/30 16:59:50","新北市新莊區三和路12-21號","121.441973333333","25.0388466666667","6500500","新莊區"
"242019","351-TH","2019/11/30 16:59:50","新北市新莊區新泰路357巷3弄57號","121.44201","25.0394716666667","6500500","新莊區"
"238023","571-TV","2019/11/30 16:59:35","新北市樹林區中山路三段204號","121.387358333333","24.968435","6500700","樹林區"
"238018","KEA-2217","2019/11/30 16:59:47","新北市樹林區育德街78-1號","121.388325","24.96821","6500700","樹林區"
"238020","268-VK","2019/11/30 16:59:41","新北市樹林區八德街822號","121.394546666667","24.968695","6500700","樹林區"
"239006","891-R6","2019/11/30 16:47:19","新北市鶯歌區二甲路12-2號","121.345545","24.9349116666667","6500800","鶯歌區"
"239008","527-UM","2019/11/30 16:59:44","新北市鶯歌區二甲路13-16號","121.344981666667","24.9352083333333","6500800","鶯歌區"
"239005","526-UM","2019/11/30 16:59:51","新北市鶯歌區環河路177-17號","121.345611666667","24.93534","6500800","鶯歌區"
"239001","417-VK","2019/11/30 16:59:48","新北市鶯歌區環河路175號","121.346311666667","24.936215","6500800","鶯歌區"
"244019","KED-0667","2019/11/30 16:59:37","新北市林口區仁愛路二段165號","121.381671666667","25.0736483333333","6501700","林口區"
"233001","KEA-2870","2019/11/30 16:59:53","新北市烏來區環山路100號","121.548735","24.8627766666667","6502900","烏來區"
"242046","281-VK","2019/11/30 16:59:40","新北市新莊區三和路12-21號","121.442356666667","25.0384216666667","6500500","新莊區"
"242011","280-VK","2019/11/30 16:59:48","新北市新莊區三和路12-21號","121.44189","25.038225","6500500","新莊區"
