"lineid","car","time","location","longitude","latitude","cityid","cityname"
"234046","148-BY","2019/11/30 19:29:34","新北市永和區秀朗路二段169-1號","121.525411666667","25.001655","6500400","永和區"
"234081","298-R6","2019/11/30 19:29:43","新北市永和區林森路8號","121.526535","25.0057183333333","6500400","永和區"
"234038","336-UY","2019/11/30 19:29:45","新北市永和區民樂街38號","121.527531666667","25.0007233333333","6500400","永和區"
"234064","337-UY","2019/11/30 19:29:51","新北市永和區中正路368巷1弄88號","121.520506666667","25.000745","6500400","永和區"
"234086","338-UY","2019/11/30 19:29:54","新北市永和區成功路一段28巷11號","121.526293333333","25.0047583333333","6500400","永和區"
"234070","552-UM","2019/11/30 19:29:43","新北市永和區警光街12號","121.519765","25.0095416666667","6500400","永和區"
"234017","745-BX","2019/11/30 19:29:44","新北市永和區環河西路一段87號","121.512275","25.01793","6500400","永和區"
"234030","746-BX","2019/11/30 19:29:41","新北市永和區民生路38號","121.522528333333","24.9967783333333","6500400","永和區"
"234054","KEA-2590","2019/11/30 19:29:41","新北市永和區復興街17號","121.516058333333","25.0130316666667","6500400","永和區"
"234007","KED-0605","2019/11/30 19:29:49","新北市永和區永和路一段153號","121.514248333333","25.0092683333333","6500400","永和區"
"234013","KEA-2591","2019/11/30 19:29:39","新北市永和區中山路一段87號","121.5119","25.010805","6500400","永和區"
"234061","AAD-866","2019/11/30 19:29:50","新北市永和區永貞路147巷1號","121.516011666667","25.0041183333333","6500400","永和區"
"234042","862-TW","2019/11/30 19:29:49","新北市永和區中和路519巷7號","121.510718333333","25.00298","6500400","永和區"
"234050","863-TW","2019/11/30 19:29:48","新北市永和區信義路86號","121.512463333333","25.0134966666667","6500400","永和區"
"234026","9371-KE","2019/11/30 19:29:46","新北市中和區安平路220號","121.513835","25.000035","6500400","永和區"
"234011","9373-KE","2019/11/30 19:29:42","新北市永和區保安路292號","121.505058333333","25.0117833333333","6500400","永和區"
"249003","593-UM","2019/11/30 19:29:43","新北市八里區商港一路22號","121.397195","25.147755","6502300","八里區"
"248014","025-BX","2019/11/30 19:29:39","新北市五股區五福路23巷9號","121.433593333333","25.0886016666667","6501500","五股區"
"248008","KED-0815","2019/11/30 19:29:48","新北市五股區中興路一段93號","121.466593333333","25.0727616666667","6501500","五股區"
"248020","KED-0813","2019/11/30 19:29:37","新北市五股區凌雲路三段102號","121.426733333333","25.1228516666667","6501500","五股區"
"248012","247-BX","2019/11/30 19:29:46","新北市五股區成泰路二段91巷11號","121.437553333333","25.0841033333333","6501500","五股區"
"248010","272-BY","2019/11/30 19:29:47","新北市五股區水碓一路23號","121.430561666667","25.0712766666667","6501500","五股區"
"248004","677-BX","2019/11/30 19:29:47","新北市五股區五福路49號","121.433001666667","25.08962","6501500","五股區"
"234023","9380-KE","2019/11/30 19:29:39","新北市永和區竹林路91巷43弄2號","121.521336666667","25.0128116666667","6500400","永和區"
"234077","969-R7","2019/11/30 19:29:46","新北市永和區民權路58巷5號","121.519423333333","24.9983016666667","6500400","永和區"
"234074","AAC-211","2019/11/30 19:27:58","新北市永和區環河東路一段124號","121.52074","25.015465","6500400","永和區"
"234067","AAC-212","2019/11/30 19:29:44","新北市永和區保平路123號","121.510688333333","25.0064783333333","6500400","永和區"
"234003","AAC-295","2019/11/30 19:29:39","新北市永和區福和路378號","121.51418","25.007805","6500400","永和區"
"244023","483-VK","2019/11/30 19:29:47","新北市林口區文林六街2-1號","121.370425","25.0799433333333","6501700","林口區"
"244021","838-TS","2019/11/30 19:29:53","新北市八里區下罟子23號","121.37633","25.138625","6501700","林口區"
"208001","267-VK","2019/11/30 19:29:36","新北市金山區中正路168號","121.631038333333","25.22129","6502700","金山區"
"243012","AAD-798","2019/11/30 19:29:42","新北市泰山區仁義路220巷16號","121.432745","25.053455","6501600","泰山區"
"243010","297-R6","2019/11/30 19:21:19","新北市泰山區明志路一段509號","121.430595","25.0544416666667","6501600","泰山區"
"243014","KEA-2801","2019/11/30 19:29:48","新北市泰山區中港西路422號","121.433781666667","25.0539016666667","6501600","泰山區"
"243016","421-VK","2019/11/30 19:29:44","新北市泰山區明志路三段319號","121.422381666667","25.03591","6501600","泰山區"
"243011","KEA-2216","2019/11/30 19:29:45","新北市泰山區貴子路140號","121.4287","25.0404666666667","6501600","泰山區"
"243013","646-TV","2019/11/30 19:29:51","新北市泰山區明志路三段145巷5弄19號","121.425635","25.0404916666667","6501600","泰山區"
"243015","680-BX","2019/11/30 19:29:36","新北市泰山區明志路二段81號","121.428793333333","25.0523166666667","6501600","泰山區"
"222003","436-BY","2019/11/30 19:29:51","新北市深坑區深南路51-1號","121.621125","25.00993","6501800","深坑區"
"222002","659-BX","2019/11/30 19:29:47","新北市深坑區北深路一段177號","121.632475","25.010815","6501800","深坑區"
"231060","001-UM","2019/11/30 19:29:44","新北市新店區安康路一段351-1號","121.51935","24.9640333333333","6500600","新店區"
"231061","002-UM","2019/11/30 19:29:40","新北市新店區安康路二段1-5號","121.517248333333","24.9639683333333","6500600","新店區"
"231044","046-UY","2019/11/30 19:29:35","新北市新店區中興路三段197號","121.543803333333","24.98147","6500600","新店區"
"231040","047-UY","2019/11/30 19:29:39","新北市新店區中華路52號","121.539576666667","24.9685066666667","6500600","新店區"
"231051","107-UY","2019/11/30 19:29:44","新北市新店區中央路97號","121.531288333333","24.9749883333333","6500600","新店區"
"231049","108-UY","2019/11/30 19:29:44","新北市新店區北新路三段65巷34弄27號","121.539985","24.98193","6500600","新店區"
"231065","110-UY","2019/11/30 19:29:44","新北市新店區安祥路109巷1弄43號","121.47711","24.9604366666667","6500600","新店區"
"221031","KEA-2785","2019/11/30 19:29:36","新北市汐止區汐萬路一段256巷1號","121.651953333333","25.0747983333333","6501100","汐止區"
"231054","260-TV","2019/11/30 19:29:47","新北市新店區文中路40號","121.539673333333","24.956625","6500600","新店區"
"231042","268-BY","2019/11/30 19:29:48","新北市新店區中興路一段140號","121.542283333333","24.9636983333333","6500600","新店區"
"231064","278-BY","2019/11/30 19:29:45","新北市新店區安康路二段71號","121.513763333333","24.9630633333333","6500600","新店區"
"231050","AAD-862","2019/11/30 19:29:32","新北市新店區竹林路72巷15號","121.55419","24.950655","6500600","新店區"
"231045","355-BY","2019/11/30 19:29:37","新北市新店區北宜路二段209號","121.553163333333","24.9533533333333","6500600","新店區"
"231058","3713-VJ","2019/11/30 19:29:39","新北市新店區北新路一段126巷25號","121.543365","24.9697316666667","6500600","新店區"
"231056","4715-K9","2019/11/30 19:29:32","新北市新店區安和路三段4巷3號","121.520758333333","24.980715","6500600","新店區"
"231067","4772-VM","2019/11/30 19:29:36","新北市新店區安康路二段320巷15弄18號","121.502153333333","24.9588566666667","6500600","新店區"
"231052","513-UM","2019/11/30 19:29:43","新北市新店區新烏路二段331號","121.550205","24.9105833333333","6500600","新店區"
"231062","515-UM","2019/11/30 19:29:49","新北市新店區莒光路99號","121.522208333333","24.9535766666667","6500600","新店區"
"231041","619-UM","2019/11/30 19:29:43","新北市新店區中正路543-4號","121.533676666667","24.987405","6500600","新店區"
"231063","641-BX","2019/11/30 19:29:54","新北市新店區達觀路18-1號","121.502795","24.9414466666667","6500600","新店區"
"231048","KED-0819","2019/11/30 19:29:48","新北市新店區五峰路71號","121.54636","24.9681083333333","6500600","新店區"
"231046","719-UM","2019/11/30 19:29:33","新北市新店區環河路1-5號","121.53841","24.9616616666667","6500600","新店區"
"231057","720-UM","2019/11/30 19:29:49","新北市新店區花園一路二段11-2號","121.550435","24.9334966666667","6500600","新店區"
"231059","897-TW","2019/11/30 19:29:36","新北市新店區安和路三段7號","121.518066666667","24.9806016666667","6500600","新店區"
"231043","899-TW","2019/11/30 19:29:45","新北市新店區北新路二段218號","121.542945","24.97709","6500600","新店區"
"231066","AKT-0513","2019/11/30 19:29:42","新北市新店區安康路三段355巷26號","121.484673333333","24.9495866666667","6500600","新店區"
"241008","059-VK","2019/11/30 19:29:39","新北市三重區永福街135巷32弄1號","121.477473333333","25.077015","6500200","三重區"
"241031","061-VK","2019/11/30 19:29:33","新北市三重區集美街65-1號","121.488436666667","25.0541433333333","6500200","三重區"
"241017","063-VK","2019/11/30 19:29:36","新北市三重區國隆路18號","121.49275","25.064035","6500200","三重區"
"241007","066-VK","2019/11/30 19:29:43","新北市三重區溪尾街126巷9號","121.489015","25.0792866666667","6500200","三重區"
"241006","262-UM","2019/11/30 19:29:38","新北市三重區車路頭街79號","121.484446666667","25.0741133333333","6500200","三重區"
"241009","267-UM","2019/11/30 19:29:42","新北市三重區仁美街123號","121.485631666667","25.0812766666667","6500200","三重區"
"241032","269-UM","2019/11/30 19:29:43","新北市三重區三陽路39號","121.485251666667","25.05884","6500200","三重區"
"241013","270-UM","2019/11/30 19:29:35","新北市三重區仁愛街125巷3號","121.49616","25.07522","6500200","三重區"
"241030","KED-0822","2019/11/30 19:29:33","新北市三重區成功路41巷21號","121.4905","25.0518583333333","6500200","三重區"
"241035","462-BY","2019/11/30 19:29:52","新北市三重區信義西街1號","121.498096666667","25.064875","6500200","三重區"
"241020","478-VK","2019/11/30 19:29:38","新北市三重區三和路四段20巷12號","121.49054","25.0738416666667","6500200","三重區"
"241026","480-VK","2019/11/30 19:29:42","新北市三重區中央南路95巷25-3號","121.500413333333","25.0605316666667","6500200","三重區"
"241023","545-UM","2019/11/30 19:29:43","新北市三重區頂崁街99號","121.47795","25.06385","6500200","三重區"
"241012","743-BX","2019/11/30 19:29:48","新北市三重區河邊北街272號","121.501636666667","25.076565","6500200","三重區"
"241022","KED-0820","2019/11/30 19:29:49","新北市三重區重陽路二段52巷83弄1號","121.484278333333","25.06557","6500200","三重區"
"241025","KED-0670","2019/11/30 19:29:46","新北市三重區頂崁街210巷28弄9號","121.475776666667","25.0672033333333","6500200","三重區"
"241029","942-UM","2019/11/30 19:29:49","新北市三重區泉州街84巷18號","121.495816666667","25.0543","6500200","三重區"
"235066","003-UY","2019/11/30 19:29:46","新北市中和區中和路136號","121.5034","24.9993316666667","6500300","中和區"
"235064","005-UY","2019/11/30 19:29:44","新北市中和區南華路43號","121.503686666667","24.9967133333333","6500300","中和區"
"235063","006-UY","2019/11/30 19:29:38","新北市中和區安邦街16號","121.496058333333","24.9979366666667","6500300","中和區"
"235056","096-UM","2019/11/30 19:29:43","新北市中和區員山路581巷31弄22號","121.47661","25.01041","6500300","中和區"
"235039","097-UM","2019/11/30 19:29:35","新北市中和區秀峰街125號","121.51988","24.99086","6500300","中和區"
"235065","098-UM","2019/11/30 19:29:43","新北市中和區永和路8巷10號","121.500366666667","25.0032","6500300","中和區"
"235040","150-BY","2019/11/30 19:29:36","新北市中和區保健路46巷33號","121.508783333333","24.9957833333333","6500300","中和區"
"235058","151-BY","2019/11/30 19:29:46","新北市中和區員山路124巷2號","121.481513333333","24.9958266666667","6500300","中和區"
"235055","183-VK","2019/11/30 19:29:34","新北市中和區中山路三段179巷6號","121.473325","25.0058333333333","6500300","中和區"
"235038","185-VK","2019/11/30 19:29:46","新北市中和區自立路127號","121.522056666667","24.9940983333333","6500300","中和區"
"235067","255-BX","2019/11/30 19:29:36","新北市中和區新生街220巷17號","121.482871666667","24.99851","6500300","中和區"
"235044","293-VK","2019/11/30 19:29:50","新北市中和區捷運路185號","121.505506666667","24.9915166666667","6500300","中和區"
"235072","301-VK","2019/11/30 19:29:42","新北市中和區連城路265巷10弄1號","121.491693333333","24.9952716666667","6500300","中和區"
"235043","352-BY","2019/11/30 19:29:42","新北市中和區安和路9號","121.511615","24.993585","6500300","中和區"
"235042","KEA-2878","2019/11/30 19:29:52","新北市中和區中和路350巷8弄3-2號","121.510306666667","25.00006","6500300","中和區"
"235068","551-UM","2019/11/30 19:29:47","新北市中和區圓通路158巷16號","121.498096666667","24.99668","6500300","中和區"
"235070","558-UM","2019/11/30 19:29:36","新北市中和區連城路127巷35號","121.497455","24.9971566666667","6500300","中和區"
"235045","565-BX","2019/11/30 19:29:47","新北市中和區景新街467巷20弄110號","121.514908333333","24.9865733333333","6500300","中和區"
"235060","KED-0823","2019/11/30 19:29:47","新北市中和區中山路二段523巷16號","121.481606666667","25.0043583333333","6500300","中和區"
"235054","640-BX","2019/11/30 19:29:48","新北市中和區莒光路65號","121.47234","25.00361","6500300","中和區"
"235071","647-TV","2019/11/30 19:29:54","新北市中和區連城路469巷16號","121.483561666667","24.995245","6500300","中和區"
"235047","732-UM","2019/11/30 19:29:47","新北市中和區景平路241巷38號","121.50851","24.9924366666667","6500300","中和區"
"235046","733-UM","2019/11/30 19:29:39","新北市中和區忠孝街37巷20號","121.510961666667","24.9838633333333","6500300","中和區"
"235057","801-TS","2019/11/30 19:29:46","新北市中和區員山路173號","121.4812","24.996935","6500300","中和區"
"235041","802-TS","2019/11/30 19:29:52","新北市中和區中和路458巷6號","121.512316666667","25.0037166666667","6500300","中和區"
"235052","805-TS","2019/11/30 19:29:48","新北市中和區華新街143巷69弄24號","121.50777","24.9789666666667","6500300","中和區"
"235048","896-TW","2019/11/30 19:29:41","新北市中和區忠孝街1巷2-1號","121.509176666667","24.9830683333333","6500300","中和區"
"235053","900-TW","2019/11/30 19:29:47","新北市中和區民德路197-1號","121.468451666667","24.9990983333333","6500300","中和區"
"235051","157-BY","2019/11/30 19:29:55","新北市中和區南山路130號","121.50375","24.9928266666667","6500300","中和區"
"235037","AAC-213","2019/11/30 19:29:40","新北市中和區秀朗路三段10巷21弄8號","121.525225","24.9961316666667","6500300","中和區"
"235059","AAC-215","2019/11/30 19:29:33","新北市中和區圓通路252巷29弄10號","121.492711666667","24.991855","6500300","中和區"
"220054","015-TV","2019/11/30 19:29:50","新北市板橋區實踐路169號","121.464343333333","25.0037866666667","6500100","板橋區"
"220065","072-UY","2019/11/30 19:29:53","新北市板橋區國泰街75巷28弄62號","121.467458333333","25.0045383333333","6500100","板橋區"
"220086","073-UY","2019/11/30 19:29:38","新北市板橋區中正路216巷97號","121.458815","25.019215","6500100","板橋區"
"220069","AAD-861","2019/11/30 19:29:42","新北市板橋區南雅南路二段18號","121.454438333333","25.0035016666667","6500100","板橋區"
"247004","336-TH","2019/11/30 19:29:48","新北市蘆洲區長安街221號","121.459805","25.0824033333333","6501400","蘆洲區"
"226004","312-R5","2019/11/30 19:29:34","新北市平溪區靜安路三段331號","121.779591666667","25.0446983333333","6502400","平溪區"
"235049","251-BX","2019/11/30 19:29:51","新北市中和區景新街246號","121.509251666667","24.9935116666667","6500300","中和區"
"228003","097-TW","2019/11/30 19:29:38","新北市貢寮區和美里和美街19-2號","121.912828333333","25.0825966666667","6502600","貢寮區"
"228001","212-TW","2019/11/30 19:29:50","新北市貢寮區真理里大澳街46號","121.925086666667","25.056375","6502600","貢寮區"
"224008","273-VK","2019/11/30 19:29:42","新北市瑞芳區一坑路297號","121.80084","25.10842","6501200","瑞芳區"
"227001","642-TC","2019/11/30 19:29:41","新北市雙溪區新基里新基北街43號","121.868285","25.0397666666667","6502500","雙溪區"
"227002","400-TW","2019/11/30 19:29:38","新北市雙溪區雙溪里光復街18號","121.865121666667","25.03546","6502500","雙溪區"
"222001","KEA-2212","2019/11/30 19:29:49","新北市深坑區深坑街10號","121.615916666667","25.00271","6501800","深坑區"
"208002","KEA-2872","2019/11/30 19:29:43","新北市金山區中山路313巷3號","121.63545","25.2234183333333","6502700","金山區"
"208003","665-BX","2019/11/30 19:29:45","新北市金山區仁愛路59號","121.635165","25.2208466666667","6502700","金山區"
"251009","008-UM","2019/11/30 19:29:39","新北市淡水區中山北路一段108號","121.44277","25.1766916666667","6501000","淡水區"
"251005","010-UM","2019/11/30 19:29:32","新北市淡水區水源街一段47巷41號","121.444095","25.1736283333333","6501000","淡水區"
"251015","KEA-2871","2019/11/30 19:29:43","新北市淡水區北新路三段10-1號","121.48281","25.1854516666667","6501000","淡水區"
"251016","180-VK","2019/11/30 19:29:41","新北市淡水區下圭柔山119-51號","121.4507","25.2085133333333","6501000","淡水區"
"251008","181-VK","2019/11/30 19:29:49","新北市淡水區中正路一段26號","121.426683333333","25.176195","6501000","淡水區"
"251013","182-VK","2019/11/30 19:29:45","新北市淡水區安子內18號","121.47168","25.21875","6501000","淡水區"
"251010","413-VK","2019/11/30 19:29:50","新北市淡水區中正路二段206號","121.426235","25.188875","6501000","淡水區"
"243009","549-UM","2019/11/30 19:29:43","新北市泰山區半山雅2號","121.431748333333","25.06737","6501600","泰山區"
"251007","442-VK","2019/11/30 19:29:37","新北市淡水區八勢一街26號","121.460891666667","25.1559116666667","6501000","淡水區"
"251001","559-UM","2019/11/30 19:29:43","新北市淡水區民權路167號","121.45997","25.1358083333333","6501000","淡水區"
"251006","561-UM","2019/11/30 19:29:39","新北市淡水區大義街29巷18號","121.441476666667","25.17802","6501000","淡水區"
"251014","577-R6","2019/11/30 19:29:50","新北市淡水區小中寮15-2號","121.484811666667","25.2298133333333","6501000","淡水區"
"251002","672-BX","2019/11/30 19:29:51","新北市淡水區新民街一段117號","121.428155","25.1877583333333","6501000","淡水區"
"251003","766-UM","2019/11/30 19:29:42","新北市淡水區中山北路三段79號","121.444611666667","25.19201","6501000","淡水區"
"207003","681-TV","2019/11/30 19:29:40","新北市萬里區大鵬里萬里加投103-1號","121.646075","25.2129783333333","6502800","萬里區"
"207004","291-VK","2019/11/30 19:29:53","新北市萬里區萬里里瑪鋉路119號","121.688785","25.17767","6502800","萬里區"
"252001","292-VK","2019/11/30 19:29:44","新北市三芝區長勤街62-5號","121.500045","25.2564283333333","6502100","三芝區"
"237004","KEA-2597","2019/11/30 19:29:47","新北市三峽區有木205-1號","121.439038333333","24.8516383333333","6500900","三峽區"
"237007","153-BY","2019/11/30 19:29:42","新北市三峽區二鬮路136巷41號","121.35825","24.9087983333333","6500900","三峽區"
"237009","210-TH","2019/11/30 19:29:39","新北市三峽區長福街2號","121.369796666667","24.9337116666667","6500900","三峽區"
"237013","252-BX","2019/11/30 19:29:45","新北市三峽區介壽路一段311巷7號","121.381225","24.930725","6500900","三峽區"
"237012","275-BY","2019/11/30 19:29:35","新北市三峽區三樹路98巷72-2號","121.384145","24.938845","6500900","三峽區"
"237008","302-VK","2019/11/30 19:29:47","新北市三峽區大同路132巷12號","121.373798333333","24.9273033333333","6500900","三峽區"
"237014","433-BY","2019/11/30 19:29:35","新北市三峽區中山路63巷8號","121.366926666667","24.9343183333333","6500900","三峽區"
"237006","5529-G3","2019/11/30 19:29:48","新北市三峽區中正路一段336巷15弄2號","121.369963333333","24.924945","6500900","三峽區"
"237011","KEA-2596","2019/11/30 19:29:40","新北市三峽區介壽路一段365號","121.38281","24.9307266666667","6500900","三峽區"
"237015","649-BX","2019/11/30 19:29:41","新北市三峽區成福路337號","121.43314","24.9241133333333","6500900","三峽區"
"237010","706-TV","2019/11/30 19:29:40","新北市三峽區復興路124號","121.37222","24.9379033333333","6500900","三峽區"
"237005","AKY-6261","2019/11/30 19:29:35","新北市三峽區中山路219巷17弄7號","121.363566666667","24.9362266666667","6500900","三峽區"
"236042","KED-0685","2019/11/30 19:29:47","新北市土城區學府路一段276號","121.450165","24.983125","6501300","土城區"
"220089","KED-0812","2019/11/30 19:29:51","新北市板橋區英士路199號","121.4586","25.0235483333333","6500100","板橋區"
"236079","166-UM","2019/11/30 19:29:45","新北市土城區中州路24巷5號","121.414775","24.9576216666667","6501300","土城區"
"236070","KEA-2877","2019/11/30 19:29:38","新北市土城區裕民路185巷36弄8號","121.45443","24.9845483333333","6501300","土城區"
"252002","KED-0821","2019/11/30 19:29:43","新北市三芝區淡金路二段18-1號","121.502686666667","25.25956","6502100","三芝區"
"236021","401-BY","2019/11/30 19:29:45","新北市土城區峰廷街8號","121.468625","24.98773","6501300","土城區"
"236049","913-UM","2019/11/30 19:29:47","新北市土城區清水路211號","121.460521666667","24.98199","6501300","土城區"
"236063","915-UM","2019/11/30 19:29:42","新北市土城區延平街32號","121.468143333333","24.99172","6501300","土城區"
"242004","751-BX","2019/11/30 19:29:44","新北市新莊區思源路50號","121.460621666667","25.04397","6500500","新莊區"
"238015","755-BX","2019/11/30 19:29:51","新北市樹林區大安路542號","121.413515","24.9854416666667","6500700","樹林區"
"238019","599-UM","2019/11/30 19:29:48","新北市樹林區東榮街54號","121.417005","24.9832033333333","6500700","樹林區"
"238023","571-TV","2019/11/30 19:29:35","新北市樹林區中正路865號","121.408781666667","25.0181333333333","6500700","樹林區"
"238024","5061-A6","2019/11/30 19:29:43","新北市樹林區福德街43-1號","121.400141666667","24.9751033333333","6500700","樹林區"
"238018","KEA-2217","2019/11/30 19:29:50","新北市樹林區中華路353-1號","121.414805","24.9802283333333","6500700","樹林區"
"238022","KEA-2213","2019/11/30 19:29:46","新北市樹林區國凱街36號","121.419911666667","24.9786766666667","6500700","樹林區"
"238021","KEA-2539","2019/11/30 19:29:44","新北市樹林區佳園路三段225號","121.385088333333","24.946115","6500700","樹林區"
"238025","303-VK","2019/11/30 19:29:39","新北市樹林區中山路一段224號","121.421325","24.9878866666667","6500700","樹林區"
"238017","283-BY","2019/11/30 19:29:44","新北市樹林區光興街134巷1號","121.40673","25.0032983333333","6500700","樹林區"
"238014","282-BY","2019/11/30 19:29:34","新北市樹林區千歲街6巷26號","121.425721666667","24.9950633333333","6500700","樹林區"
"238020","268-VK","2019/11/30 19:29:41","新北市樹林區俊英街107號","121.425058333333","25.0096083333333","6500700","樹林區"
"238026","172-UY","2019/11/30 19:29:42","新北市樹林區佳園路三段3號","121.388468333333","24.9556","6500700","樹林區"
"238016","169-UY","2019/11/30 19:29:47","新北市樹林區復興路464巷56號","121.412725","24.9836233333333","6500700","樹林區"
"239007","AAC-297","2019/11/30 19:29:50","新北市鶯歌區西湖街53巷30-1號","121.341946666667","24.9610633333333","6500800","鶯歌區"
"239006","891-R6","2019/11/30 19:29:39","新北市鶯歌區鶯桃路67巷9號","121.34102","24.9521316666667","6500800","鶯歌區"
"239008","527-UM","2019/11/30 19:29:44","新北市鶯歌區國際二路6巷18號","121.339095","24.97384","6500800","鶯歌區"
"239005","526-UM","2019/11/30 19:29:51","新北市鶯歌區東湖路4號","121.351018333333","24.9728133333333","6500800","鶯歌區"
"239001","417-VK","2019/11/30 19:29:48","新北市鶯歌區鶯桃路143號","121.337706666667","24.9548983333333","6500800","鶯歌區"
"239003","360-BY","2019/11/30 19:29:35","新北市鶯歌區鶯桃路300號","121.334015","24.961575","6500800","鶯歌區"
"239002","359-BY","2019/11/30 19:29:36","新北市鶯歌區國際二路6巷17號","121.339091666667","24.9739833333333","6500800","鶯歌區"
"239004","193-VK","2019/11/30 19:29:37","新北市鶯歌區二甲路103號","121.333593333333","24.9314433333333","6500800","鶯歌區"
"221008","489-VK","2019/11/30 19:29:40","新北市汐止區康寧街235號","121.624011666667","25.0668233333333","6501100","汐止區"
"244019","KED-0667","2019/11/30 19:29:37","新北市林口區後坑34-3號","121.352216666667","25.1299516666667","6501700","林口區"
"221027","281-BY","2019/11/30 19:29:51","新北市汐止區忠孝東路9號","121.658286666667","25.0659166666667","6501100","汐止區"
"221025","623-UM","2019/11/30 19:29:49","新北市汐止區新台五路二段10號","121.660285","25.0650266666667","6501100","汐止區"
"221033","647-BX","2019/11/30 19:29:33","新北市汐止區南勢街3號","121.627091666667","25.0374216666667","6501100","汐止區"
"221002","707-TV","2019/11/30 19:29:50","新北市汐止區大同路一段219巷27號","121.633283333333","25.0583666666667","6501100","汐止區"
"220079","145-BY","2019/11/30 19:29:47","新北市板橋區民權路202巷12弄2號","121.46053","25.01547","6500100","板橋區"
"220080","200-UY","2019/11/30 19:29:45","新北市板橋區大觀路二段3巷30號","121.44819","25.0036016666667","6500100","板橋區"
"220082","610-BX","2019/11/30 19:29:39","新北市板橋區金門街263號","121.431585","24.98865","6500100","板橋區"
"220101","245-BX","2019/11/30 19:29:39","新北市板橋區莒光路196巷28號","121.473001666667","25.022565","6500100","板橋區"
"224002","257-TC","2019/11/30 19:29:36","新北市瑞芳區靜安路四段107號","121.793178333333","25.1098","6501200","瑞芳區"
"220056","276-BY","2019/11/30 19:29:51","新北市板橋區和平路17號","121.459696666667","24.9948833333333","6500100","板橋區"
"220072","277-BY","2019/11/30 19:29:52","新北市板橋區金門街215巷2弄21號","121.433145","24.9887416666667","6500100","板橋區"
"220088","280-UM","2019/11/30 19:29:44","新北市板橋區仁化街191號","121.478456666667","25.034185","6500100","板橋區"
"220094","283-UM","2019/11/30 19:29:37","新北市板橋區宏國路93號","121.469756666667","25.0323333333333","6500100","板橋區"
"220071","283-VK","2019/11/30 19:29:50","新北市板橋區大豐街91號","121.462076666667","25.0005016666667","6500100","板橋區"
"220053","285-VK","2019/11/30 19:29:41","新北市板橋區富山街53巷1弄104號","121.47775","25.0198983333333","6500100","板橋區"
"220083","286-VK","2019/11/30 19:29:35","新北市板橋區龍興街73巷2號","121.443925","25.00216","6500100","板橋區"
"220081","287-VK","2019/11/30 19:29:33","新北市板橋區南雅西路一段7巷1號","121.454291666667","25.0042883333333","6500100","板橋區"
"220090","288-VK","2019/11/30 19:29:52","新北市板橋區長江路一段48巷13號","121.459326666667","25.0283366666667","6500100","板橋區"
"220061","293-UM","2019/11/30 19:29:35","新北市板橋區中山路一段293-2號","121.471028333333","25.0144","6500100","板橋區"
"220084","296-UM","2019/11/30 19:29:49","新北市板橋區滿平街136巷1弄1號","121.42864","24.9879933333333","6500100","板橋區"
"220075","303-R5","2019/11/30 19:29:35","新北市板橋區館前西路160巷34號","121.451813333333","25.0093116666667","6500100","板橋區"
"220062","305-R5","2019/11/30 19:29:42","新北市板橋區三民路二段159號","121.479203333333","25.0148033333333","6500100","板橋區"
"220092","307-R5","2019/11/30 19:29:42","新北市板橋區陽明街52號","121.46519","25.0221666666667","6500100","板橋區"
"220098","317-R6","2019/11/30 19:29:55","新北市板橋區四維路257號","121.463456666667","25.0280716666667","6500100","板橋區"
"220035","560-BX","2019/11/30 19:29:45","新北市板橋區中正路431號","121.454195","25.0232433333333","6500100","板橋區"
"220103","561-BX","2019/11/30 19:29:50","新北市板橋區陽明街29巷15號","121.464655","25.0220083333333","6500100","板橋區"
"220063","609-BX","2019/11/30 19:29:31","新北市板橋區三民路一段31巷89弄3號","121.481806666667","25.0233516666667","6500100","板橋區"
"220091","637-BX","2019/11/30 19:29:33","新北市板橋區松柏街72號","121.47647","25.0304266666667","6500100","板橋區"
"220057","686-BX","2019/11/30 19:29:48","新北市板橋區廣和街75巷2號","121.462711666667","24.9924633333333","6500100","板橋區"
"220077","687-BX","2019/11/30 19:29:49","新北市板橋區大觀路一段28巷72號","121.44981","25.01067","6500100","板橋區"
"220093","689-BX","2019/11/30 19:29:37","新北市板橋區新海路438號","121.458038333333","25.02776","6500100","板橋區"
"220102","KEA-2699","2019/11/30 19:29:51","新北市板橋區文化路二段410巷2弄3號","121.474081666667","25.0309216666667","6500100","板橋區"
"220055","827-TW","2019/11/30 19:29:33","新北市板橋區重慶路290巷22弄4號","121.462293333333","24.9991133333333","6500100","板橋區"
"220106","829-TW","2019/11/30 19:29:49","新北市板橋區文化路二段528號","121.476028333333","25.034045","6500100","板橋區"
"220068","830-TW","2019/11/30 19:29:40","新北市板橋區萬安街55號","121.483933333333","25.0238233333333","6500100","板橋區"
"220067","831-TW","2019/11/30 19:29:42","新北市板橋區長安街138巷1弄7號","121.473096666667","25.00973","6500100","板橋區"
"220074","895-R6","2019/11/30 19:29:47","新北市板橋區西門街14號","121.455503333333","25.0114533333333","6500100","板橋區"
"220073","985-R7","2019/11/30 19:29:43","新北市板橋區中正路328號","121.454463333333","25.021395","6500100","板橋區"
"220097","AAC-210","2019/11/30 19:29:41","新北市板橋區文化路一段285巷2弄31號","121.463905","25.0195733333333","6500100","板橋區"
"220064","AAC-253","2019/11/30 19:29:48","新北市板橋區中山路一段68號","121.461523333333","25.0098516666667","6500100","板橋區"
"235061","KEA-2875","2019/11/30 19:29:27","新北市中和區民安街2巷15號","121.480345","25.001415","6500300","中和區"
