"lineid","car","time","location","longitude","latitude","cityid","cityname"
"234046","148-BY","2019/11/30 19:59:54","新北市永和區成功路一段4號","121.527105","25.0055233333333","6500400","永和區"
"234081","298-R6","2019/11/30 19:59:45","新北市永和區永利路98號","121.521108333333","25.0035833333333","6500400","永和區"
"234038","336-UY","2019/11/30 19:59:40","新北市永和區成功路二段112號","121.526563333333","24.9980966666667","6500400","永和區"
"234064","337-UY","2019/11/30 19:59:51","新北市永和區中正路368巷53號","121.51927","25.0009566666667","6500400","永和區"
"234086","338-UY","2019/11/30 19:59:48","新北市永和區福和路152號","121.521803333333","25.0078783333333","6500400","永和區"
"234070","552-UM","2019/11/30 19:59:43","新北市永和區國光路39-1號","121.519071666667","25.0082083333333","6500400","永和區"
"234017","745-BX","2019/11/30 19:59:44","新北市永和區文化路49號","121.514398333333","25.0150833333333","6500400","永和區"
"234030","746-BX","2019/11/30 19:59:41","新北市永和區民生路22巷7號","121.522056666667","24.9972583333333","6500400","永和區"
"234054","KEA-2590","2019/11/30 19:59:40","新北市永和區環河東路一段124號","121.52064","25.0153933333333","6500400","永和區"
"234007","KED-0605","2019/11/30 19:59:49","新北市永和區保順路19號","121.504185","25.0098133333333","6500400","永和區"
"234013","KEA-2591","2019/11/30 19:59:39","新北市永和區保生路55號","121.504701666667","25.010565","6500400","永和區"
"234061","AAD-866","2019/11/30 19:59:47","新北市永和區中正路283巷66弄2號","121.516021666667","24.9995983333333","6500400","永和區"
"234042","862-TW","2019/11/30 19:59:49","新北市永和區中和路335巷18弄12號","121.507795","25.000295","6500400","永和區"
"234050","863-TW","2019/11/30 19:59:48","新北市永和區保安路244號","121.506501666667","25.0127133333333","6500400","永和區"
"234026","9371-KE","2019/11/30 19:56:58","新北市永和區水源街33巷1號","121.51087","25.00442","6500400","永和區"
"234011","9373-KE","2019/11/30 19:59:22","新北市永和區仁愛路352巷122弄17號","121.500863333333","25.0089216666667","6500400","永和區"
"249005","172-UM","2019/11/30 19:59:48","新北市八里區楓林路3-4號","121.38221","25.12934","6502300","八里區"
"249001","173-UM","2019/11/30 19:59:48","新北市八里區中華路二段312號","121.403795","25.1483633333333","6502300","八里區"
"249004","303-UY","2019/11/30 19:59:47","新北市八里區中華路一段331巷8號","121.413718333333","25.153335","6502300","八里區"
"249002","305-UY","2019/11/30 19:59:44","新北市八里區頂寮一街28巷1號","121.45128","25.1239933333333","6502300","八里區"
"249003","593-UM","2019/11/30 19:59:43","新北市八里區訊塘路5號","121.398135","25.1447366666667","6502300","八里區"
"248014","025-BX","2019/11/30 19:59:39","新北市五股區成泰路三段64號","121.442943333333","25.08934","6501500","五股區"
"248016","026-BX","2019/11/30 19:59:47","新北市五股區成泰路三段577巷80弄7號","121.449521666667","25.104275","6501500","五股區"
"248008","KED-0815","2019/11/30 19:59:48","新北市五股區中興路一段1巷11號","121.469436666667","25.0714583333333","6501500","五股區"
"248020","KED-0813","2019/11/30 19:59:36","新北市五股區凌雲路三段60號","121.430225","25.1104383333333","6501500","五股區"
"248012","247-BX","2019/11/30 19:59:47","新北市五股區六合街29號","121.430658333333","25.088865","6501500","五股區"
"248010","272-BY","2019/11/30 19:59:47","新北市五股區登林路75號","121.428265","25.0698783333333","6501500","五股區"
"248004","677-BX","2019/11/30 19:59:47","新北市五股區成泰路一段8巷2-3號","121.434966666667","25.066895","6501500","五股區"
"248002","678-BX","2019/11/30 19:59:37","新北市五股區成泰路三段487號","121.450701666667","25.0992533333333","6501500","五股區"
"234023","9380-KE","2019/11/30 19:59:39","新北市永和區中正路702巷18號","121.516476666667","25.010545","6500400","永和區"
"234077","969-R7","2019/11/30 19:59:46","新北市永和區民有街7號","121.516141666667","24.9970216666667","6500400","永和區"
"234074","AAC-211","2019/11/30 19:59:38","新北市永和區豫溪街185號","121.522475","25.0103716666667","6500400","永和區"
"234067","AAC-212","2019/11/30 19:59:44","新北市永和區永貞路358號","121.510291666667","25.0066133333333","6500400","永和區"
"234003","AAC-295","2019/11/30 19:59:39","新北市永和區中正路730號","121.515605","25.010165","6500400","永和區"
"244023","483-VK","2019/11/30 19:59:47","新北市林口區民權路179號","121.374553333333","25.0851683333333","6501700","林口區"
"243012","AAD-798","2019/11/30 19:59:42","新北市泰山區全興路20號","121.432388333333","25.05882","6501600","泰山區"
"243014","KEA-2801","2019/11/30 19:59:48","新北市泰山區泰林路二段36-1號","121.435978333333","25.0571833333333","6501600","泰山區"
"243016","421-VK","2019/11/30 19:59:44","新北市泰山區貴陽街3號","121.421021666667","25.033695","6501600","泰山區"
"243011","KEA-2216","2019/11/30 19:59:51","新北市泰山區工專路47號","121.42285","25.04007","6501600","泰山區"
"222003","436-BY","2019/11/30 19:59:51","新北市深坑區埔新街14號","121.620758333333","25.0039366666667","6501800","深坑區"
"222002","659-BX","2019/11/30 19:59:49","新北市深坑區北深路二段81巷27號","121.618533333333","25.002415","6501800","深坑區"
"231060","001-UM","2019/11/30 19:59:44","新北市新店區安康路二段356號","121.502208333333","24.9574833333333","6500600","新店區"
"231061","002-UM","2019/11/30 19:59:40","新北市新店區安民街315號","121.51753","24.9742","6500600","新店區"
"231044","046-UY","2019/11/30 19:59:35","新北市新店區寶慶街68號","121.54183","24.9867233333333","6500600","新店區"
"231040","047-UY","2019/11/30 19:59:39","新北市新店區中正路75巷61號","121.543413333333","24.9694883333333","6500600","新店區"
"231051","107-UY","2019/11/30 19:59:44","新北市新店區中央路216-1號","121.52983","24.9732733333333","6500600","新店區"
"231049","108-UY","2019/11/30 19:59:44","新北市新店區建國路220號","121.537711666667","24.9811866666667","6500600","新店區"
"231065","110-UY","2019/11/30 19:59:44","新北市新店區安祥路104-10號","121.479031666667","24.9620266666667","6500600","新店區"
"231068","187-VK","2019/11/30 19:59:37","新北市新店區安康路一段355號","121.519926666667","24.9638266666667","6500600","新店區"
"221031","KEA-2785","2019/11/30 19:59:36","新北市汐止區福德二路55巷6弄1號","121.634561666667","25.0666166666667","6501100","汐止區"
"231054","260-TV","2019/11/30 19:59:47","新北市新店區光明街139號","121.539525","24.962015","6500600","新店區"
"231042","268-BY","2019/11/30 19:59:48","新北市新店區中興路一段286號","121.545851666667","24.9689133333333","6500600","新店區"
"231064","278-BY","2019/11/30 19:59:45","新北市新店區安光路10-1號","121.513875","24.96417","6500600","新店區"
"231050","AAD-862","2019/11/30 19:59:32","新北市新店區北宜路二段16號","121.547986666667","24.9516983333333","6500600","新店區"
"231045","355-BY","2019/11/30 19:59:37","新北市新店區北宜路二段353-3號","121.55846","24.9541933333333","6500600","新店區"
"231055","4716-K9","2019/11/30 19:59:43","新北市新店區力行路36號","121.538946666667","24.96499","6500600","新店區"
"231056","4715-K9","2019/11/30 19:59:52","新北市新店區北新路二段59巷1號","121.542305","24.9730116666667","6500600","新店區"
"231067","4772-VM","2019/11/30 19:59:36","新北市新店區秀山路11巷12弄12號","121.531291666667","24.9596466666667","6500600","新店區"
"231052","513-UM","2019/11/30 19:59:43","新北市新店區新烏路三段寶島巷2弄3號","121.551971666667","24.8986533333333","6500600","新店區"
"231062","515-UM","2019/11/30 19:59:49","新北市新店區華潭街26巷1弄1號","121.529491666667","24.9536283333333","6500600","新店區"
"231041","619-UM","2019/11/30 19:59:43","新北市新店區中央路17號","121.53323","24.9782466666667","6500600","新店區"
"231063","641-BX","2019/11/30 19:59:34","新北市新店區車子路11號","121.50299","24.9519616666667","6500600","新店區"
"231048","KED-0819","2019/11/30 19:59:48","新北市新店區中興路二段234號","121.547815","24.975425","6500600","新店區"
"231057","720-UM","2019/11/30 19:59:48","新北市新店區花園二路一段11號","121.555445","24.9325233333333","6500600","新店區"
"231059","897-TW","2019/11/30 19:59:36","新北市新店區安和路一段15號","121.516868333333","24.96422","6500600","新店區"
"231043","899-TW","2019/11/30 19:59:45","新北市新店區中正路263-5號","121.538206666667","24.9739133333333","6500600","新店區"
"241011","013-R5","2019/11/30 19:59:51","新北市三重區三和路三段37號","121.495846666667","25.071165","6500200","三重區"
"241028","022-UY","2019/11/30 19:59:51","新北市三重區中正南路78號","121.49426","25.05912","6500200","三重區"
"241008","059-VK","2019/11/30 19:59:46","新北市三重區永福街179巷26號","121.478093333333","25.0747583333333","6500200","三重區"
"241031","061-VK","2019/11/30 19:59:33","新北市三重區重新路四段144巷10號","121.487166666667","25.055715","6500200","三重區"
"241015","062-VK","2019/11/30 19:59:51","新北市三重區長安街77-17號","121.502543333333","25.067705","6500200","三重區"
"241017","063-VK","2019/11/30 19:59:36","新北市三重區自強路一段217號","121.491315","25.0686066666667","6500200","三重區"
"241024","065-VK","2019/11/30 19:59:46","新北市三重區力行路一段277號","121.482155","25.0715033333333","6500200","三重區"
"241007","066-VK","2019/11/30 19:59:43","新北市三重區溪尾街160號","121.488746666667","25.0800733333333","6500200","三重區"
"241002","090-VK","2019/11/30 19:59:51","新北市三重區仁愛街314號","121.49192","25.0797166666667","6500200","三重區"
"241003","091-VK","2019/11/30 19:59:47","新北市三重區五華街128號","121.491671666667","25.0834783333333","6500200","三重區"
"241006","262-UM","2019/11/30 19:59:47","新北市三重區力行路二段123巷11號","121.483445","25.0762483333333","6500200","三重區"
"241016","266-UM","2019/11/30 19:59:40","新北市三重區正義北路36巷10號","121.496745","25.0632833333333","6500200","三重區"
"241009","267-UM","2019/11/30 19:59:42","新北市三重區三和路四段205號","121.482023333333","25.07927","6500200","三重區"
"241018","268-UM","2019/11/30 19:59:52","新北市三重區正義北路250號","121.496051666667","25.0681983333333","6500200","三重區"
"241032","269-UM","2019/11/30 19:59:43","新北市三重區朝陽街23號","121.483581666667","25.0565366666667","6500200","三重區"
"241013","270-UM","2019/11/30 19:59:35","新北市三重區三和路三段139巷5號","121.492816666667","25.0736966666667","6500200","三重區"
"241030","KED-0822","2019/11/30 19:59:52","新北市三重區成功路187號","121.485715","25.0528316666667","6500200","三重區"
"241035","462-BY","2019/11/30 19:59:32","新北市三重區大榮街7號","121.498183333333","25.06313","6500200","三重區"
"241004","475-VK","2019/11/30 19:59:42","新北市三重區仁愛街425巷89號","121.492245","25.0826","6500200","三重區"
"241020","478-VK","2019/11/30 19:59:36","新北市三重區忠孝路一段101號","121.489576666667","25.0721533333333","6500200","三重區"
"241026","480-VK","2019/11/30 19:59:42","新北市三重區福德南路32號","121.50294","25.062895","6500200","三重區"
"241014","543-UM","2019/11/30 19:59:49","新北市三重區長春街11號","121.49961","25.0690333333333","6500200","三重區"
"241023","545-UM","2019/11/30 19:59:43","新北市三重區頂崁街168號","121.477685","25.0658883333333","6500200","三重區"
"241001","547-UM","2019/11/30 19:59:49","新北市三重區福隆路10號","121.490178333333","25.0773483333333","6500200","三重區"
"241019","KEA-2593","2019/11/30 19:59:36","新北市三重區自強路二段27號","121.489615","25.06931","6500200","三重區"
"241005","AAD-863","2019/11/30 19:59:41","新北市三重區碧華街245號","121.489283333333","25.082955","6500200","三重區"
"241012","743-BX","2019/11/30 19:59:48","新北市三重區仁興街45號","121.498955","25.0759716666667","6500200","三重區"
"241025","KED-0670","2019/11/30 19:59:46","新北市三重區頂崁街210巷7號","121.47661","25.0677666666667","6500200","三重區"
"241029","942-UM","2019/11/30 19:59:49","新北市三重區重安街14號","121.490293333333","25.058185","6500200","三重區"
"241033","AAC-255","2019/11/30 19:59:50","新北市三重區中興北街26號","121.4697","25.0486333333333","6500200","三重區"
"235066","003-UY","2019/11/30 19:59:46","新北市中和區光華街10號","121.504275","25.00434","6500300","中和區"
"235039","097-UM","2019/11/30 19:59:33","新北市中和區大勇街25巷39弄13號","121.514695","24.9940466666667","6500300","中和區"
"235065","098-UM","2019/11/30 19:59:43","新北市中和區福美路256巷12號","121.498066666667","25.0058583333333","6500300","中和區"
"235040","150-BY","2019/11/30 19:59:36","新北市中和區景安路79巷39號","121.507431666667","24.996265","6500300","中和區"
"235055","183-VK","2019/11/30 19:59:34","新北市中和區民有街1號","121.475563333333","25.005935","6500300","中和區"
"235044","293-VK","2019/11/30 19:59:50","新北市中和區復興路75號","121.503466666667","24.990225","6500300","中和區"
"247016","KEA-2869","2019/11/30 19:59:40","新北市蘆洲區中正路83號","121.470038333333","25.0835216666667","6501400","蘆洲區"
"235050","4978-A6","2019/11/30 19:59:36","新北市中和區景平路239巷1號","121.509995","24.992755","6500300","中和區"
"235069","4980-A6","2019/11/30 19:59:41","新北市中和區景新街34巷3-1號","121.50336","24.9988683333333","6500300","中和區"
"235068","551-UM","2019/11/30 19:59:47","新北市中和區福美路301巷6號","121.497271666667","25.00463","6500300","中和區"
"235047","732-UM","2019/11/30 19:59:47","新北市中和區和平街74號","121.507791666667","24.991075","6500300","中和區"
"235046","733-UM","2019/11/30 19:59:44","新北市中和區忠孝街31巷54號","121.509718333333","24.9853983333333","6500300","中和區"
"235052","805-TS","2019/11/30 19:59:48","新北市中和區華新街30巷15號","121.507168333333","24.9842733333333","6500300","中和區"
"235051","157-BY","2019/11/30 19:59:55","新北市中和區景安路220巷4弄1號","121.503336666667","24.9909483333333","6500300","中和區"
"235037","AAC-213","2019/11/30 19:59:40","新北市中和區自強路58號","121.520063333333","24.99459","6500300","中和區"
"235059","AAC-215","2019/11/30 19:59:33","新北市中和區圓通路335巷13號","121.493396666667","24.9895183333333","6500300","中和區"
"220054","015-TV","2019/11/30 19:59:50","新北市板橋區忠孝路忠義巷13號","121.46586","25.0037933333333","6500100","板橋區"
"220065","072-UY","2019/11/30 19:59:53","新北市板橋區海山路27號","121.467713333333","25.0090066666667","6500100","板橋區"
"220086","073-UY","2019/11/30 19:59:45","新北市板橋區中正路48號","121.456425","25.0141833333333","6500100","板橋區"
"220069","AAD-861","2019/11/30 19:59:42","新北市板橋區貴興路62號","121.456638333333","25.0029516666667","6500100","板橋區"
"247006","893-R6","2019/11/30 19:59:43","新北市蘆洲區九芎街143號","121.46554","25.0793516666667","6501400","蘆洲區"
"247020","546-UM","2019/11/30 19:59:40","新北市蘆洲區民義街53號","121.472833333333","25.0897866666667","6501400","蘆洲區"
"247004","336-TH","2019/11/30 19:59:48","新北市蘆洲區長安街228號","121.457746666667","25.085335","6501400","蘆洲區"
"247024","057-VK","2019/11/30 19:59:43","新北市蘆洲區光復路59號","121.46362","25.08512","6501400","蘆洲區"
"247014","056-VK","2019/11/30 19:59:38","新北市蘆洲區成功路133號","121.472331666667","25.0823816666667","6501400","蘆洲區"
"247018","053-VK","2019/11/30 19:59:50","新北市蘆洲區民族路290巷13號","121.478458333333","25.0901033333333","6501400","蘆洲區"
"247022","007-UY","2019/11/30 19:59:33","新北市蘆洲區中正路186號","121.46695","25.0879716666667","6501400","蘆洲區"
"247008","002-UY","2019/11/30 19:59:45","新北市蘆洲區中山一路95巷20弄2號","121.477028333333","25.0806433333333","6501400","蘆洲區"
"247002","001-UY","2019/11/30 19:59:37","新北市蘆洲區長安街274巷4號","121.457673333333","25.08694","6501400","蘆洲區"
"226004","312-R5","2019/11/30 19:59:53","新北市平溪區靜安路三段331號","121.779426666667","25.0446","6502400","平溪區"
"228003","097-TW","2019/11/30 19:59:38","新北市貢寮區仁理村仁和路194號","121.923556666667","25.052685","6502600","貢寮區"
"224010","AGQ-8101","2019/11/30 19:59:51","新北市瑞芳區輕便路294-2號","121.84364","25.1091633333333","6501200","瑞芳區"
"227001","642-TC","2019/11/30 19:59:41","新北市雙溪區新基里新基南街25號","121.866246666667","25.0381466666667","6502500","雙溪區"
"227002","400-TW","2019/11/30 19:59:38","新北市雙溪區雙溪里長安街16號","121.864946666667","25.03473","6502500","雙溪區"
"222001","KEA-2212","2019/11/30 19:59:41","新北市深坑區北深路三段157-1號","121.601978333333","25.0032566666667","6501800","深坑區"
"208003","665-BX","2019/11/30 19:59:45","新北市金山區永興里濆水路13號","121.626775","25.26849","6502700","金山區"
"251009","008-UM","2019/11/30 19:59:39","新北市淡水區英專路21巷12-3號","121.444916666667","25.1697616666667","6501000","淡水區"
"251004","009-UM","2019/11/30 19:59:50","新北市淡水區民族路110巷38弄11號","121.461166666667","25.1357483333333","6501000","淡水區"
"251005","010-UM","2019/11/30 19:59:32","新北市淡水區學府路136巷37號","121.451876666667","25.1727433333333","6501000","淡水區"
"251015","KEA-2871","2019/11/30 19:59:43","新北市淡水區北新路三段169-8號","121.491386666667","25.19034","6501000","淡水區"
"251016","180-VK","2019/11/30 19:59:41","新北市淡水區興仁路162號","121.451393333333","25.2207266666667","6501000","淡水區"
"251008","181-VK","2019/11/30 19:59:49","新北市淡水區淡海路76號","121.42309","25.1809966666667","6501000","淡水區"
"251013","182-VK","2019/11/30 19:59:45","新北市淡水區下圭柔山63-7號","121.451886666667","25.2061566666667","6501000","淡水區"
"243009","549-UM","2019/11/30 19:59:53","新北市泰山區泰林路二段164巷30號","121.43446","25.061115","6501600","泰山區"
"251012","441-VK","2019/11/30 19:59:43","新北市淡水區下圭柔山93-3號","121.436141666667","25.209135","6501000","淡水區"
"251001","559-UM","2019/11/30 19:59:43","新北市淡水區淡金路二段15號","121.446146666667","25.1892116666667","6501000","淡水區"
"251006","561-UM","2019/11/30 19:59:39","新北市淡水區水碓街14號","121.443776666667","25.177155","6501000","淡水區"
"251014","577-R6","2019/11/30 19:59:50","新北市淡水區石頭厝2-1號","121.458108333333","25.2356933333333","6501000","淡水區"
"251011","650-BX","2019/11/30 19:59:45","新北市淡水區北投子14-6號","121.447638333333","25.184575","6501000","淡水區"
"251002","672-BX","2019/11/30 19:59:51","新北市淡水區新民街一段117號","121.428471666667","25.187685","6501000","淡水區"
"207003","681-TV","2019/11/30 19:59:40","新北市萬里區大鵬里萬里加投44-3號","121.640413333333","25.2091666666667","6502800","萬里區"
"207004","291-VK","2019/11/30 19:59:49","新北市萬里區北基里忠二街35號","121.685646666667","25.1757166666667","6502800","萬里區"
"252001","292-VK","2019/11/30 19:59:44","新北市三芝區公正街9號","121.49974","25.2574483333333","6502100","三芝區"
"237004","KEA-2597","2019/11/30 19:59:47","新北市三峽區添福9-3號","121.371405","24.90735","6500900","三峽區"
"237009","210-TH","2019/11/30 19:59:39","新北市三峽區民族街76-5號","121.36942","24.9299066666667","6500900","三峽區"
"237012","275-BY","2019/11/30 19:59:35","新北市三峽區中華路105-1號","121.371371666667","24.9285233333333","6500900","三峽區"
"237008","302-VK","2019/11/30 19:59:47","新北市三峽區中正路一段174巷9號","121.371953333333","24.9288783333333","6500900","三峽區"
"237014","433-BY","2019/11/30 19:59:35","新北市三峽區添福13-35號","121.374678333333","24.9083116666667","6500900","三峽區"
"237006","5529-G3","2019/11/30 19:59:48","新北市三峽區中正路二段168號","121.366058333333","24.9156066666667","6500900","三峽區"
"237015","649-BX","2019/11/30 19:59:41","新北市三峽區介壽路二段138巷1弄13-1號","121.396276666667","24.9338966666667","6500900","三峽區"
"237005","AKY-6261","2019/11/30 19:59:35","新北市三峽區三樹路98巷115號","121.38264","24.93863","6500900","三峽區"
"236042","KED-0685","2019/11/30 19:59:47","新北市土城區學府路一段98巷15號","121.455728333333","24.988565","6501300","土城區"
"220089","KED-0812","2019/11/30 19:59:31","新北市板橋區四維路286號","121.462941666667","25.0289933333333","6500100","板橋區"
"236079","166-UM","2019/11/30 19:59:34","新北市土城區民族街22巷5號","121.419303333333","24.9634266666667","6501300","土城區"
"236030","253-BX","2019/11/30 19:59:54","新北市土城區中央路一段252號","121.444398333333","24.9846133333333","6501300","土城區"
"236026","269-VK","2019/11/30 19:59:38","新北市土城區中央路二段98號","121.442243333333","24.9783383333333","6501300","土城區"
"236038","271-VK","2019/11/30 19:59:51","新北市土城區國際路74號","121.466858333333","24.9761683333333","6501300","土城區"
"236070","KEA-2877","2019/11/30 19:59:38","新北市土城區忠義路75巷2號","121.442291666667","24.96613","6501300","土城區"
"252002","KED-0821","2019/11/30 19:59:43","新北市三芝區三民街39巷5號","121.50547","25.2576466666667","6502100","三芝區"
"236021","401-BY","2019/11/30 19:59:45","新北市土城區延吉街81號","121.471931666667","24.9871633333333","6501300","土城區"
"236014","752-BX","2019/11/30 19:59:42","新北市土城區廣福街123號","121.456283333333","24.9928816666667","6501300","土城區"
"236059","912-UM","2019/11/30 19:59:43","新北市土城區中央路一段346號","121.443108333333","24.9810883333333","6501300","土城區"
"236049","913-UM","2019/11/30 19:59:43","新北市土城區金城路三段137號","121.468226666667","24.9881183333333","6501300","土城區"
"236063","915-UM","2019/11/30 19:59:39","新北市土城區金城路三段73巷4弄30號","121.466313333333","24.9883166666667","6501300","土城區"
"236055","AAC-216","2019/11/30 19:59:40","新北市土城區學府路一段63號","121.45725","24.9882966666667","6501300","土城區"
"242004","751-BX","2019/11/30 19:59:44","新北市新莊區化成路314巷19號","121.466933333333","25.04829","6500500","新莊區"
"242029","615-BX","2019/11/30 19:59:51","新北市新莊區中平路377巷1-16號","121.444368333333","25.0518033333333","6500500","新莊區"
"242058","612-BX","2019/11/30 19:59:38","新北市新莊區八德街81號","121.424571666667","25.0218283333333","6500500","新莊區"
"242048","566-BX","2019/11/30 19:59:54","新北市新莊區民安路224號","121.426076666667","25.0225216666667","6500500","新莊區"
"242053","497-BY","2019/11/30 19:59:34","新北市新莊區西盛街418號","121.427136666667","25.012175","6500500","新莊區"
"242002","441-UM","2019/11/30 19:59:44","新北市新莊區中正路219號","121.45096","25.0358416666667","6500500","新莊區"
"242013","413-TV","2019/11/30 19:59:48","新北市新莊區中港路433號","121.452373333333","25.047865","6500500","新莊區"
"242051","400-BY","2019/11/30 19:59:45","新北市新莊區西盛街170號","121.428206666667","25.0191133333333","6500500","新莊區"
"242025","362-BY","2019/11/30 19:59:50","新北市新莊區五工二路86巷22號","121.460191666667","25.066965","6500500","新莊區"
"242023","353-BY","2019/11/30 19:59:50","新北市新莊區化成路402號","121.465975","25.050645","6500500","新莊區"
"242015","132-UY","2019/11/30 19:59:38","新北市新莊區泰順街41號","121.446876666667","25.0428233333333","6500500","新莊區"
"242039","135-UY","2019/11/30 19:59:41","新北市新莊區民安路285-4號","121.4291","25.022285","6500500","新莊區"
"242056","172-VK","2019/11/30 19:59:40","新北市新莊區中正路347巷17弄6號","121.447406666667","25.034335","6500500","新莊區"
"242017","173-VK","2019/11/30 19:59:45","新北市新莊區中安街1號","121.452751666667","25.045285","6500500","新莊區"
"242031","175-VK","2019/11/30 19:59:49","新北市新莊區公園一路40號","121.443358333333","25.0355466666667","6500500","新莊區"
"242021","KED-0687","2019/11/30 19:59:51","新北市新莊區建中街16巷18號","121.44938","25.0383466666667","6500500","新莊區"
"242007","346-TH","2019/11/30 19:59:51","新北市新莊區富貴路59號","121.458828333333","25.0562983333333","6500500","新莊區"
"242036","347-TH","2019/11/30 19:59:51","新北市新莊區民安路207巷42號","121.428928333333","25.0249016666667","6500500","新莊區"
"242034","350-TH","2019/11/30 19:59:43","新北市新莊區建中街107號","121.446375","25.036525","6500500","新莊區"
"242019","351-TH","2019/11/30 19:59:52","新北市新莊區明智街21巷1號","121.454121666667","25.0413216666667","6500500","新莊區"
"238024","5061-A6","2019/11/30 19:57:41","新北市樹林區中山路三段214號","121.380066666667","24.9678983333333","6500700","樹林區"
"238017","283-BY","2019/11/30 19:59:37","新北市樹林區保安街二段45巷40-1號","121.414186666667","25.0002633333333","6500700","樹林區"
"239006","891-R6","2019/11/30 19:59:39","新北市鶯歌區文化路145巷4號","121.356615","24.9540516666667","6500800","鶯歌區"
"221008","489-VK","2019/11/30 19:59:40","新北市汐止區康寧街83巷26號","121.6207","25.0674016666667","6501100","汐止區"
"221015","131-UY","2019/11/30 19:59:51","新北市汐止區橋東街1號","121.666803333333","25.0763033333333","6501100","汐止區"
"221010","269-BY","2019/11/30 19:59:35","新北市汐止區八連路一段9號","121.648636666667","25.0803433333333","6501100","汐止區"
"221012","278-VK","2019/11/30 19:59:36","新北市汐止區保長路271巷2號","121.68096","25.0743216666667","6501100","汐止區"
"221023","279-VK","2019/11/30 19:59:38","新北市汐止區民族六街6巷2號","121.629753333333","25.0698533333333","6501100","汐止區"
"221027","281-BY","2019/11/30 19:59:50","新北市汐止區中正路106號","121.660978333333","25.069525","6501100","汐止區"
"221029","298-VK","2019/11/30 19:59:49","新北市汐止區樟樹一路137巷26號","121.641045","25.0660016666667","6501100","汐止區"
"221021","299-VK","2019/11/30 19:59:41","新北市汐止區莊敬街128-2號","121.65474","25.0613033333333","6501100","汐止區"
"221035","622-UM","2019/11/30 19:59:32","新北市汐止區長江街15號","121.654793333333","25.0712633333333","6501100","汐止區"
"221025","623-UM","2019/11/30 19:59:49","新北市汐止區秀峰路109巷26弄7號","121.661241666667","25.0634616666667","6501100","汐止區"
"221038","646-BX","2019/11/30 19:59:38","新北市汐止區忠孝東路512號","121.666823333333","25.07547","6501100","汐止區"
"221033","647-BX","2019/11/30 19:59:53","新北市汐止區東勢街215巷1弄15號","121.633835","25.0422616666667","6501100","汐止區"
"220079","145-BY","2019/11/30 19:59:47","新北市板橋區光正街45巷6弄19號","121.460808333333","25.0168916666667","6500100","板橋區"
"220080","200-UY","2019/11/30 19:59:49","新北市板橋區大觀路二段163巷23號","121.44674","25.0000433333333","6500100","板橋區"
"220082","610-BX","2019/11/30 19:59:39","新北市板橋區存德街9號","121.429965","24.992015","6500100","板橋區"
"220101","245-BX","2019/11/30 19:59:39","新北市板橋區莒光路165巷44號","121.47453","25.0251183333333","6500100","板橋區"
"224002","257-TC","2019/11/30 19:59:36","新北市瑞芳區三爪子坑路319號","121.817976666667","25.1041433333333","6501200","瑞芳區"
"220056","276-BY","2019/11/30 19:59:51","新北市板橋區南雅南路二段49號","121.451596666667","24.99446","6500100","板橋區"
"220072","277-BY","2019/11/30 19:59:52","新北市板橋區金門街109巷12號","121.433775","24.9918066666667","6500100","板橋區"
"220088","280-UM","2019/11/30 19:59:44","新北市板橋區民治街92-1號","121.4791","25.0317716666667","6500100","板橋區"
"220094","283-UM","2019/11/30 19:59:37","新北市板橋區文化路一段160號","121.46543","25.019255","6500100","板橋區"
"220071","283-VK","2019/11/30 19:59:50","新北市板橋區五權街32巷20號","121.46413","24.9929","6500100","板橋區"
"220053","285-VK","2019/11/30 19:59:37","新北市板橋區永豐街100號","121.475938333333","25.0203466666667","6500100","板橋區"
"220083","286-VK","2019/11/30 19:59:35","新北市板橋區僑中二街8巷22號","121.446256666667","25.0113966666667","6500100","板橋區"
"220081","287-VK","2019/11/30 19:59:51","新北市板橋區大觀路一段28巷30號","121.449903333333","25.0095566666667","6500100","板橋區"
"220090","288-VK","2019/11/30 19:59:51","新北市板橋區新海路72巷5弄43號","121.461196666667","25.0234783333333","6500100","板橋區"
"220061","293-UM","2019/11/30 19:59:55","新北市板橋區縣民大道二段200巷15號","121.47011","25.0174416666667","6500100","板橋區"
"220084","296-UM","2019/11/30 19:59:49","新北市板橋區溪崑二街92巷4號","121.426645","24.9893533333333","6500100","板橋區"
"220075","303-R5","2019/11/30 19:59:35","新北市板橋區金華街10巷7號","121.456083333333","25.0200583333333","6500100","板橋區"
"220062","305-R5","2019/11/30 19:59:44","新北市板橋區中山路二段361號","121.479733333333","25.0190033333333","6500100","板橋區"
"220092","307-R5","2019/11/30 19:59:42","新北市板橋區文化路一段45巷9號","121.460258333333","25.0138433333333","6500100","板橋區"
"220098","317-R6","2019/11/30 19:59:35","新北市板橋區新海路385巷12號","121.458465","25.0258133333333","6500100","板橋區"
"242011","280-VK","2019/11/30 19:59:48","新北市新莊區中港路531巷54號","121.450125","25.0515116666667","6500500","新莊區"
"220035","560-BX","2019/11/30 19:59:45","新北市板橋區金華街87-3號","121.458118333333","25.020725","6500100","板橋區"
"220103","561-BX","2019/11/30 19:59:44","新北市板橋區漢生東路27-1號","121.465196666667","25.01704","6500100","板橋區"
"220063","609-BX","2019/11/30 19:59:51","新北市板橋區中山路二段84-1號","121.47472","25.0161283333333","6500100","板橋區"
"220091","637-BX","2019/11/30 19:59:53","新北市板橋區懷德街174巷18弄2-2號","121.478891666667","25.0296416666667","6500100","板橋區"
"220057","686-BX","2019/11/30 19:59:47","新北市板橋區南雅南路二段140號","121.45188","24.99623","6500100","板橋區"
"220077","687-BX","2019/11/30 19:59:50","新北市板橋區僑中一街114號","121.446251666667","25.011715","6500100","板橋區"
"220093","689-BX","2019/11/30 19:59:46","新北市板橋區長江路二段196號","121.467456666667","25.0321333333333","6500100","板橋區"
"220102","KEA-2699","2019/11/30 19:59:50","新北市板橋區文化路二段124巷34弄22號","121.47053","25.0255833333333","6500100","板橋區"
"220055","827-TW","2019/11/30 19:59:53","新北市板橋區仁愛路62巷17弄1號","121.460066666667","24.9982233333333","6500100","板橋區"
"220106","829-TW","2019/11/30 19:59:49","新北市板橋區文聖街23號","121.475818333333","25.032025","6500100","板橋區"
"220068","830-TW","2019/11/30 19:59:39","新北市板橋區中山路二段492號","121.485253333333","25.0220283333333","6500100","板橋區"
"220067","831-TW","2019/11/30 19:59:46","新北市板橋區中山路一段206巷70號","121.472185","25.0132933333333","6500100","板橋區"
"220074","895-R6","2019/11/30 19:59:47","新北市板橋區府中路42號","121.457421666667","25.009545","6500100","板橋區"
"220073","985-R7","2019/11/30 19:59:43","新北市板橋區大仁街63號","121.45425","25.01626","6500100","板橋區"
"220097","AAC-210","2019/11/30 19:59:41","新北市板橋區復興街135號","121.461093333333","25.017965","6500100","板橋區"
"220064","AAC-253","2019/11/30 19:59:39","新北市板橋區民族路272-1號","121.469791666667","25.0070366666667","6500100","板橋區"
