"lineid","car","time","location","longitude","latitude","cityid","cityname"
"234081","298-R6","2019/11/30 20:29:43","新北市永和區永貞路31號","121.520998333333","25.0066033333333","6500400","永和區"
"234064","337-UY","2019/11/30 20:29:51","新北市永和區中正路433號","121.517133333333","25.0050683333333","6500400","永和區"
"234070","552-UM","2019/11/30 20:29:43","新北市永和區永利路62號","121.519365","25.0050816666667","6500400","永和區"
"234030","746-BX","2019/11/30 20:29:41","新北市中和區自強路27巷1號","121.520658333333","24.9928666666667","6500400","永和區"
"234054","KEA-2590","2019/11/30 20:29:43","新北市永和區環河東路一段76號","121.519381666667","25.0166333333333","6500400","永和區"
"234013","KEA-2591","2019/11/30 20:29:39","新北市永和區仁愛路301號","121.503793333333","25.0081366666667","6500400","永和區"
"234061","AAD-866","2019/11/30 20:29:39","新北市永和區安樂路194巷17弄3號","121.515911666667","25.0011666666667","6500400","永和區"
"234042","862-TW","2019/11/30 20:29:49","新北市永和區安樂路284號","121.51441","25.0044083333333","6500400","永和區"
"234050","863-TW","2019/11/30 20:29:48","新北市永和區新生路175號","121.506983333333","25.0145183333333","6500400","永和區"
"249005","172-UM","2019/11/30 20:29:48","新北市八里區中山路三段299號","121.379468333333","25.1382466666667","6502300","八里區"
"249001","173-UM","2019/11/30 20:29:47","新北市八里區中山路三段106號","121.39106","25.1421866666667","6502300","八里區"
"249004","303-UY","2019/11/30 20:29:47","新北市八里區中山路一段129巷31號","121.41406","25.158525","6502300","八里區"
"249002","305-UY","2019/11/30 20:29:44","新北市八里區龍米路二段125巷23號","121.445873333333","25.14555","6502300","八里區"
"249003","593-UM","2019/11/30 20:29:43","新北市八里區中山路二段466巷22號","121.398978333333","25.1483416666667","6502300","八里區"
"248002","678-BX","2019/11/30 20:29:37","新北市五股區新五路二段331號","121.44372","25.0873383333333","6501500","五股區"
"234023","9380-KE","2019/11/30 20:29:39","新北市永和區博愛街32巷12號","121.518796666667","25.0152116666667","6500400","永和區"
"234074","AAC-211","2019/11/30 20:29:38","新北市永和區豫溪街217巷29號","121.524306666667","25.0102466666667","6500400","永和區"
"234067","AAC-212","2019/11/30 20:29:44","新北市永和區保平路292巷42號","121.507603333333","25.0052533333333","6500400","永和區"
"234003","AAC-295","2019/11/30 20:29:39","新北市永和區中正路533號","121.516861666667","25.0077916666667","6500400","永和區"
"244023","483-VK","2019/11/30 20:29:47","新北市林口區汕頭32號","121.366581666667","25.1347833333333","6501700","林口區"
"243012","AAD-798","2019/11/30 20:29:51","新北市泰山區文化街42號","121.43521","25.0634716666667","6501600","泰山區"
"243010","297-R6","2019/11/30 20:21:48","新北市泰山區明志路二段246巷9號","121.426455","25.0476833333333","6501600","泰山區"
"243014","KEA-2801","2019/11/30 20:29:48","新北市泰山區泰林路二段519號","121.423903333333","25.0637766666667","6501600","泰山區"
"243016","421-VK","2019/11/30 20:29:44","新北市泰山區明志路二段210-1號","121.427326666667","25.0492233333333","6501600","泰山區"
"243011","KEA-2216","2019/11/30 20:29:45","新北市泰山區明志路三段98號","121.425061666667","25.0412483333333","6501600","泰山區"
"243013","646-TV","2019/11/30 20:29:36","新北市泰山區中央路5巷25號","121.42742","25.04324","6501600","泰山區"
"243015","680-BX","2019/11/30 20:29:36","新北市泰山區同義街47巷30號","121.432671666667","25.0562683333333","6501600","泰山區"
"222003","436-BY","2019/11/30 20:29:51","新北市深坑區深坑街59號","121.614935","25.001625","6501800","深坑區"
"222002","659-BX","2019/11/30 20:29:47","新北市深坑區萬福路69-1號","121.601106666667","25.00794","6501800","深坑區"
"231060","001-UM","2019/11/30 20:29:44","新北市新店區錦秀路11巷96弄2號","121.480031666667","24.9419483333333","6500600","新店區"
"231061","002-UM","2019/11/30 20:29:40","新北市新店區安興路33-1號","121.515771666667","24.9704266666667","6500600","新店區"
"231044","046-UY","2019/11/30 20:29:35","新北市新店區建國路130號","121.539121666667","24.9787816666667","6500600","新店區"
"231040","047-UY","2019/11/30 20:29:39","新北市新店區三民路191號","121.535393333333","24.9754983333333","6500600","新店區"
"231051","107-UY","2019/11/30 20:29:44","新北市新店區中央七街101號","121.52616","24.9774316666667","6500600","新店區"
"231049","108-UY","2019/11/30 20:29:44","新北市新店區永業路81巷9弄3號","121.53072","24.9506533333333","6500600","新店區"
"231065","110-UY","2019/11/30 20:29:44","新北市新店區安祥路102巷46弄73號","121.486865","24.963355","6500600","新店區"
"231068","187-VK","2019/11/30 20:29:37","新北市新店區民權路4號","121.542735","24.9829116666667","6500600","新店區"
"221031","KEA-2785","2019/11/30 20:29:56","新北市汐止區中興路150巷15號","121.633145","25.0650666666667","6501100","汐止區"
"231054","260-TV","2019/11/30 20:29:47","新北市新店區檳榔路109號","121.544468333333","24.9615933333333","6500600","新店區"
"231042","268-BY","2019/11/30 20:29:48","新北市新店區寶橋路230號","121.551511666667","24.9788583333333","6500600","新店區"
"231064","278-BY","2019/11/30 20:29:45","新北市新店區永安街56巷6-2號","121.518598333333","24.9862233333333","6500600","新店區"
"231050","AAD-862","2019/11/30 20:29:32","新北市新店區建興街9巷11號","121.539873333333","24.976265","6500600","新店區"
"231045","355-BY","2019/11/30 20:29:37","新北市新店區新坡一街28號","121.549073333333","24.9621133333333","6500600","新店區"
"231058","3713-VJ","2019/11/30 20:29:53","新北市新店區自由街5號","121.535573333333","24.9751833333333","6500600","新店區"
"231055","4716-K9","2019/11/30 20:29:43","新北市新店區安康路一段351-1號","121.519351666667","24.9640316666667","6500600","新店區"
"231056","4715-K9","2019/11/30 20:29:52","新北市新店區中央七街63號","121.528043333333","24.9762966666667","6500600","新店區"
"231067","4772-VM","2019/11/30 20:29:36","新北市新店區安華路28-1號","121.51976","24.9607783333333","6500600","新店區"
"231052","513-UM","2019/11/30 20:29:43","新北市新店區松林路36號","121.546206666667","24.9102516666667","6500600","新店區"
"231062","515-UM","2019/11/30 20:29:49","新北市新店區安泰路7巷16號","121.485685","24.95097","6500600","新店區"
"231041","619-UM","2019/11/30 20:29:43","新北市新店區民權路159號","121.534043333333","24.9826316666667","6500600","新店區"
"231063","641-BX","2019/11/30 20:29:34","新北市新店區安康路二段382號","121.500321666667","24.956905","6500600","新店區"
"231048","KED-0819","2019/11/30 20:29:48","新北市新店區寶慶街58巷21-1號","121.541946666667","24.98727","6500600","新店區"
"231057","720-UM","2019/11/30 20:29:48","新北市新店區花園六路二段9-2號","121.555848333333","24.933205","6500600","新店區"
"231059","897-TW","2019/11/30 20:29:36","新北市新店區安德街164號","121.508561666667","24.959015","6500600","新店區"
"231043","899-TW","2019/11/30 20:29:45","新北市新店區建國路86號","121.540525","24.9769783333333","6500600","新店區"
"231066","AKT-0513","2019/11/30 20:29:42","新北市新店區安興路69-1號","121.515788333333","24.9753016666667","6500600","新店區"
"241011","013-R5","2019/11/30 20:29:51","新北市三重區龍門路76號","121.496983333333","25.0727116666667","6500200","三重區"
"241028","022-UY","2019/11/30 20:29:51","新北市三重區光興街93號","121.49731","25.0599333333333","6500200","三重區"
"241008","059-VK","2019/11/30 20:29:39","新北市三重區下竹圍街89號","121.481161666667","25.0749483333333","6500200","三重區"
"241031","061-VK","2019/11/30 20:29:13","新北市三重區三寧街13-1號","121.48921","25.0596166666667","6500200","三重區"
"241015","062-VK","2019/11/30 20:29:51","新北市三重區長元街2-2號","121.49875","25.0658483333333","6500200","三重區"
"241017","063-VK","2019/11/30 20:29:36","新北市三重區自強路一段290號","121.491536666667","25.0683183333333","6500200","三重區"
"241024","065-VK","2019/11/30 20:29:46","新北市三重區忠孝路三段15巷30號","121.48032","25.0678433333333","6500200","三重區"
"241007","066-VK","2019/11/30 20:29:43","新北市三重區自強路四段14號","121.488495","25.0762916666667","6500200","三重區"
"241002","090-VK","2019/11/30 20:29:51","新北市三重區仁義街211巷21號","121.497526666667","25.08225","6500200","三重區"
"241003","091-VK","2019/11/30 20:29:47","新北市三重區富華街103號","121.492193333333","25.0842333333333","6500200","三重區"
"241006","262-UM","2019/11/30 20:29:38","新北市三重區車路頭街139巷12號","121.484216666667","25.0762266666667","6500200","三重區"
"241016","266-UM","2019/11/30 20:29:40","新北市三重區正義北路190巷11號","121.495936666667","25.066795","6500200","三重區"
"241009","267-UM","2019/11/30 20:29:42","新北市三重區碧華街57號","121.484801666667","25.0813166666667","6500200","三重區"
"241018","268-UM","2019/11/30 20:29:52","新北市三重區正義北路208號","121.49617","25.0674783333333","6500200","三重區"
"241032","269-UM","2019/11/30 20:29:43","新北市三重區重陽路一段120巷46號","121.485091666667","25.0601433333333","6500200","三重區"
"241013","270-UM","2019/11/30 20:29:48","新北市三重區三和路四段15號","121.491155","25.0741683333333","6500200","三重區"
"241030","KED-0822","2019/11/30 20:29:52","新北市三重區成功路62號","121.488615","25.05089","6500200","三重區"
"241035","462-BY","2019/11/30 20:29:51","新北市三重區正義北路220號","121.496253333333","25.0676516666667","6500200","三重區"
"241004","475-VK","2019/11/30 20:29:42","新北市三重區溪尾街233號","121.488128333333","25.08126","6500200","三重區"
"241020","478-VK","2019/11/30 20:29:36","新北市三重區忠孝路一段21號","121.492016666667","25.0718816666667","6500200","三重區"
"241026","480-VK","2019/11/30 20:29:42","新北市三重區環河南路23號","121.503598333333","25.0623483333333","6500200","三重區"
"241014","543-UM","2019/11/30 20:29:49","新北市三重區長榮路72號","121.501926666667","25.06907","6500200","三重區"
"241023","545-UM","2019/11/30 20:29:43","新北市三重區自由街17巷1號","121.479895","25.0666766666667","6500200","三重區"
"241001","547-UM","2019/11/30 20:29:49","新北市三重區聯華街126號","121.484993333333","25.0747716666667","6500200","三重區"
"241019","KEA-2593","2019/11/30 20:29:35","新北市三重區重陽路四段126巷14號","121.49203","25.070975","6500200","三重區"
"241005","AAD-863","2019/11/30 20:29:41","新北市三重區五華街141巷31號","121.492263333333","25.0856166666667","6500200","三重區"
"241012","743-BX","2019/11/30 20:29:48","新北市三重區龍濱路269號","121.501425","25.0730416666667","6500200","三重區"
"241022","KED-0820","2019/11/30 20:29:49","新北市三重區中正北路20巷12號","121.48804","25.062505","6500200","三重區"
"241025","KED-0670","2019/11/30 20:29:46","新北市三重區頂崁街210巷23弄1號","121.475886666667","25.0681383333333","6500200","三重區"
"241029","942-UM","2019/11/30 20:29:49","新北市三重區集美街112巷51號","121.490971666667","25.05448","6500200","三重區"
"241033","AAC-255","2019/11/30 20:29:50","新北市三重區五谷王北街82號","121.476021666667","25.0527283333333","6500200","三重區"
"235066","003-UY","2019/11/30 20:29:46","新北市中和區光華街31巷24號","121.505643333333","25.0049166666667","6500300","中和區"
"235040","150-BY","2019/11/30 20:29:36","新北市新店區光華街38巷3號","121.515601666667","24.969885","6500300","中和區"
"235055","183-VK","2019/11/30 20:29:34","新北市林口區太平里180號","121.368185","25.1346983333333","6500300","中和區"
"247016","KEA-2869","2019/11/30 20:29:40","新北市蘆洲區光華路112號","121.467103333333","25.0826366666667","6501400","蘆洲區"
"247010","KED-0682","2019/11/30 20:29:48","新北市蘆洲區民族路73號","121.479211666667","25.08588","6501400","蘆洲區"
"235050","4978-A6","2019/11/30 20:29:36","新北市中和區景新街160巷2號","121.505526666667","24.9971866666667","6500300","中和區"
"235069","4980-A6","2019/11/30 20:29:40","新北市中和區連城路347巷16弄5號","121.488315","24.9948133333333","6500300","中和區"
"235059","AAC-215","2019/11/30 20:29:33","新北市中和區員山路66-3號","121.482183333333","24.99148","6500300","中和區"
"247006","893-R6","2019/11/30 20:29:43","新北市蘆洲區九芎街88號","121.46584","25.0799133333333","6501400","蘆洲區"
"247020","546-UM","2019/11/30 20:29:40","新北市蘆洲區仁愛街132號","121.469175","25.0945","6501400","蘆洲區"
"247012","337-TH","2019/11/30 20:29:48","新北市蘆洲區復興路206號","121.478543333333","25.089135","6501400","蘆洲區"
"247004","336-TH","2019/11/30 20:29:48","新北市蘆洲區長安街303號","121.458001666667","25.0849816666667","6501400","蘆洲區"
"247024","057-VK","2019/11/30 20:29:43","新北市蘆洲區光復路70巷21號","121.464885","25.0851933333333","6501400","蘆洲區"
"247014","056-VK","2019/11/30 20:29:38","新北市蘆洲區中山二路134號","121.471568333333","25.08148","6501400","蘆洲區"
"247018","053-VK","2019/11/30 20:29:50","新北市蘆洲區民族路336巷29-1號","121.478063333333","25.091445","6501400","蘆洲區"
"247022","007-UY","2019/11/30 20:29:33","新北市蘆洲區中正路263巷2號","121.46718","25.087675","6501400","蘆洲區"
"247008","002-UY","2019/11/30 20:29:45","新北市蘆洲區永安北路二段76巷12-1號","121.483193333333","25.0850283333333","6501400","蘆洲區"
"247002","001-UY","2019/11/30 20:29:37","新北市蘆洲區長安街361巷24號","121.456111666667","25.0875466666667","6501400","蘆洲區"
"222001","KEA-2212","2019/11/30 20:29:41","新北市深坑區北深路三段329號","121.597283333333","25.0050883333333","6501800","深坑區"
"251009","008-UM","2019/11/30 20:29:38","新北市淡水區中正路32號","121.444006666667","25.16917","6501000","淡水區"
"251015","KEA-2871","2019/11/30 20:29:43","新北市淡水區商工路151號","121.447626666667","25.1890333333333","6501000","淡水區"
"251016","180-VK","2019/11/30 20:29:41","新北市淡水區新埔子11-11號","121.447055","25.2287333333333","6501000","淡水區"
"251008","181-VK","2019/11/30 20:29:49","新北市淡水區淡海路206巷21號","121.42141","25.1856183333333","6501000","淡水區"
"251013","182-VK","2019/11/30 20:29:45","新北市淡水區後坑子5號","121.463351666667","25.206775","6501000","淡水區"
"251010","413-VK","2019/11/30 20:29:46","新北市淡水區沙崙路181巷15號","121.423988333333","25.184355","6501000","淡水區"
"243009","549-UM","2019/11/30 20:29:53","新北市泰山區泰林路二段408號","121.427465","25.06427","6501600","泰山區"
"251012","441-VK","2019/11/30 20:29:42","新北市淡水區頂田寮路58號","121.455361666667","25.216335","6501000","淡水區"
"251001","559-UM","2019/11/30 20:29:43","新北市淡水區新市一路三段2號","121.444838333333","25.1828883333333","6501000","淡水區"
"251006","561-UM","2019/11/30 20:29:47","新北市淡水區商工路353號","121.46897","25.18562","6501000","淡水區"
"251014","577-R6","2019/11/30 20:29:50","新北市淡水區石頭厝14-58號","121.46595","25.2367766666667","6501000","淡水區"
"251002","672-BX","2019/11/30 20:29:50","新北市淡水區中正路27號","121.442493333333","25.169605","6501000","淡水區"
"251003","766-UM","2019/11/30 20:29:42","新北市淡水區新生街29號","121.439463333333","25.175175","6501000","淡水區"
"207004","291-VK","2019/11/30 20:29:49","新北市萬里區北基里忠二街13號","121.684971666667","25.1754066666667","6502800","萬里區"
"252001","292-VK","2019/11/30 20:29:44","新北市三芝區中山路一段14號","121.500736666667","25.2580816666667","6502100","三芝區"
"252002","KED-0821","2019/11/30 20:29:43","新北市三芝區淡金路二段47-2號","121.503743333333","25.2605933333333","6502100","三芝區"
"242004","751-BX","2019/11/30 20:29:44","新北市新莊區頭前路38號","121.467386666667","25.0525083333333","6500500","新莊區"
"242029","615-BX","2019/11/30 20:29:51","新北市新莊區中華路二段151號","121.452743333333","25.0514366666667","6500500","新莊區"
"242027","613-BX","2019/11/30 20:29:43","新北市新莊區幸福路639號","121.451736666667","25.0492066666667","6500500","新莊區"
"242058","612-BX","2019/11/30 20:29:38","新北市新莊區四維路201-1號","121.421856666667","25.0205733333333","6500500","新莊區"
"242048","566-BX","2019/11/30 20:29:34","新北市新莊區龍安路212號","121.420023333333","25.019945","6500500","新莊區"
"242053","497-BY","2019/11/30 20:29:53","新北市新莊區民安西路245巷7號","121.426556666667","25.0136966666667","6500500","新莊區"
"242042","442-UM","2019/11/30 20:29:29","新北市新莊區天祥街54巷3弄1號","121.416828333333","25.02942","6500500","新莊區"
"242002","441-UM","2019/11/30 20:29:45","新北市新莊區中正路33號","121.46386","25.0409383333333","6500500","新莊區"
"242044","415-TV","2019/11/30 20:29:36","新北市新莊區中正路新建巷41號","121.414511666667","25.0217833333333","6500500","新莊區"
"242013","413-TV","2019/11/30 20:29:48","新北市新莊區中榮街81巷8號","121.445423333333","25.0524483333333","6500500","新莊區"
"242051","400-BY","2019/11/30 20:29:45","新北市新莊區民安西路189巷12號","121.426591666667","25.01529","6500500","新莊區"
"242025","362-BY","2019/11/30 20:29:41","新北市新莊區五工二路62巷16號","121.461148333333","25.06593","6500500","新莊區"
"242023","353-BY","2019/11/30 20:29:50","新北市新莊區化成路940號","121.464836666667","25.062795","6500500","新莊區"
"242015","132-UY","2019/11/30 20:29:38","新北市新莊區中平路36巷22號","121.445625","25.043535","6500500","新莊區"
"242039","135-UY","2019/11/30 20:29:41","新北市新莊區八德街15巷21號","121.425971666667","25.022025","6500500","新莊區"
"242056","172-VK","2019/11/30 20:29:40","新北市新莊區瓊泰路170號","121.443265","25.0328266666667","6500500","新莊區"
"242017","173-VK","2019/11/30 20:29:45","新北市新莊區中港二街143號","121.448108333333","25.0455616666667","6500500","新莊區"
"242031","175-VK","2019/11/30 20:29:48","新北市新莊區三和路35號","121.435896666667","25.0392083333333","6500500","新莊區"
"242021","KED-0687","2019/11/30 20:29:51","新北市新莊區公園路12號","121.447955","25.0388266666667","6500500","新莊區"
"242007","346-TH","2019/11/30 20:29:51","新北市新莊區福壽街124巷32弄1號","121.459081666667","25.0512983333333","6500500","新莊區"
"242036","347-TH","2019/11/30 20:29:47","新北市新莊區後港一路76巷14弄2號","121.427346666667","25.02557","6500500","新莊區"
"242009","349-TH","2019/11/30 20:29:48","新北市新莊區昌盛街81巷2弄2號","121.45549","25.0502516666667","6500500","新莊區"
"242034","350-TH","2019/11/30 20:29:43","新北市新莊區新泰路160號","121.447583333333","25.0375466666667","6500500","新莊區"
"242019","351-TH","2019/11/30 20:29:31","新北市新莊區復興路二段196巷2弄2號","121.459363333333","25.04419","6500500","新莊區"
"221008","489-VK","2019/11/30 20:29:40","新北市汐止區明峰街317號","121.62513","25.0669533333333","6501100","汐止區"
"221036","130-UY","2019/11/30 20:29:35","新北市汐止區福安街37巷8號","121.663215","25.0650566666667","6501100","汐止區"
"221015","131-UY","2019/11/30 20:29:51","新北市汐止區建成路142巷19弄11號","121.661988333333","25.073835","6501100","汐止區"
"221010","269-BY","2019/11/30 20:29:35","新北市汐止區八連路二段36巷10號","121.637408333333","25.0943383333333","6501100","汐止區"
"221012","278-VK","2019/11/30 20:29:36","新北市汐止區汐平路二段66號","121.69834","25.0610583333333","6501100","汐止區"
"221023","279-VK","2019/11/30 20:29:39","新北市汐止區明峰街297巷2號","121.6254","25.067775","6501100","汐止區"
"221032","280-BY","2019/11/30 20:29:45","新北市汐止區民權街二段70號","121.619113333333","25.0482583333333","6501100","汐止區"
"221027","281-BY","2019/11/30 20:29:50","新北市汐止區中正路205號","121.658426666667","25.06894","6501100","汐止區"
"221029","298-VK","2019/11/30 20:29:49","新北市汐止區樟樹一路129巷32號","121.640518333333","25.0651416666667","6501100","汐止區"
"221021","299-VK","2019/11/30 20:29:41","新北市汐止區水源路一段284號","121.654228333333","25.0582616666667","6501100","汐止區"
"221035","622-UM","2019/11/30 20:29:52","新北市汐止區長江街97號","121.658158333333","25.0728116666667","6501100","汐止區"
"221025","623-UM","2019/11/30 20:29:49","新北市汐止區水源路二段90號","121.656458333333","25.0560433333333","6501100","汐止區"
"221038","646-BX","2019/11/30 20:29:38","新北市汐止區水源路一段72號","121.65683","25.0652333333333","6501100","汐止區"
"221033","647-BX","2019/11/30 20:29:53","新北市汐止區林森街73巷15號","121.623715","25.0413133333333","6501100","汐止區"
"221002","707-TV","2019/11/30 20:29:50","新北市汐止區福德二路49號","121.634293333333","25.06718","6501100","汐止區"
"221018","753-BX","2019/11/30 20:28:58","新北市汐止區茄苳路225巷11弄31號","121.67058","25.070015","6501100","汐止區"
"220083","286-VK","2019/11/30 20:29:44","新北市板橋區僑中二街102巷18號","121.44538","25.0084866666667","6500100","板橋區"
"220081","287-VK","2019/11/30 20:29:51","新北市板橋區僑中一街102巷1弄1號","121.446693333333","25.0119933333333","6500100","板橋區"
"242046","281-VK","2019/11/30 20:29:40","新北市新莊區裕民街72巷5號","121.418301666667","25.0241866666667","6500500","新莊區"
"242011","280-VK","2019/11/30 20:29:48","新北市新莊區中義街2號","121.451548333333","25.0512","6500500","新莊區"
"220074","895-R6","2019/11/30 20:29:47","新北市板橋區南門街65號","121.457003333333","25.00816","6500100","板橋區"
