"lineid","car","time","location","longitude","latitude","cityid","cityname"
"249001","173-UM","2019/11/30 20:43:47","新北市八里區中山路三段323號","121.377593333333","25.1388316666667","6502300","八里區"
"249004","303-UY","2019/11/30 20:43:47","新北市八里區中山路一段157巷26號","121.412958333333","25.1581433333333","6502300","八里區"
"234074","AAC-211","2019/11/30 20:43:38","新北市永和區竹林路39巷10號","121.518295","25.0144666666667","6500400","永和區"
"243012","AAD-798","2019/11/30 20:43:42","新北市泰山區泰林路二段387號","121.427331666667","25.0642866666667","6501600","泰山區"
"222003","436-BY","2019/11/30 20:43:51","新北市深坑區阿柔洋70號","121.611018333333","24.9985566666667","6501800","深坑區"
"222002","659-BX","2019/11/30 20:43:47","新北市深坑區北深路三段165-2號","121.601901666667","25.0034816666667","6501800","深坑區"
"231060","001-UM","2019/11/30 20:43:44","新北市新店區錦秀路32號","121.479228333333","24.9440183333333","6500600","新店區"
"231061","002-UM","2019/11/30 20:43:47","新北市新店區新和街74號","121.520206666667","24.985695","6500600","新店區"
"231044","046-UY","2019/11/30 20:43:48","新北市新店區建國路172-2號","121.538266666667","24.9796716666667","6500600","新店區"
"231040","047-UY","2019/11/30 20:43:39","新北市新店區中正路257號","121.538848333333","24.97356","6500600","新店區"
"231051","107-UY","2019/11/30 20:43:44","新北市新店區中央八街121號","121.525591666667","24.9781866666667","6500600","新店區"
"231049","108-UY","2019/11/30 20:43:44","新北市新店區永業路81巷11弄8號","121.531581666667","24.9505966666667","6500600","新店區"
"231065","110-UY","2019/11/30 20:43:44","新北市新店區安祥路104巷11弄16號","121.481006666667","24.9636666666667","6500600","新店區"
"231068","187-VK","2019/11/30 20:43:37","新北市新店區寶元路一段95-1號","121.5437","24.9849166666667","6500600","新店區"
"221031","KEA-2785","2019/11/30 20:43:36","新北市汐止區中興路100號","121.63429","25.0625583333333","6501100","汐止區"
"231054","260-TV","2019/11/30 20:43:47","新北市新店區北新路一段329號","121.541786666667","24.96844","6500600","新店區"
"231042","268-BY","2019/11/30 20:43:48","新北市新店區寶高路120巷1號","121.55465","24.9759966666667","6500600","新店區"
"231064","278-BY","2019/11/30 20:43:45","新北市新店區安和路三段33-1號","121.51681","24.979945","6500600","新店區"
"231050","AAD-862","2019/11/30 20:43:52","新北市新店區中正路247巷13號","121.53886","24.9726483333333","6500600","新店區"
"231045","355-BY","2019/11/30 20:43:37","新北市新店區長春路19巷2-1號","121.548573333333","24.9566433333333","6500600","新店區"
"231058","3713-VJ","2019/11/30 20:43:39","新北市新店區平等街27號","121.536695","24.973615","6500600","新店區"
"231056","4715-K9","2019/11/30 20:43:52","新北市新店區安德街60巷35號","121.51094","24.9638516666667","6500600","新店區"
"231067","4772-VM","2019/11/30 20:43:36","新北市新店區安成街38號","121.509923333333","24.9611583333333","6500600","新店區"
"231052","513-UM","2019/11/30 20:43:43","新北市新店區新烏路二段300號","121.54794","24.9126133333333","6500600","新店區"
"231062","515-UM","2019/11/30 20:43:49","新北市新店區安泰路60巷83號","121.48412","24.944565","6500600","新店區"
"231041","619-UM","2019/11/30 20:43:43","新北市新店區中正路695巷2號","121.533925","24.9907166666667","6500600","新店區"
"231063","641-BX","2019/11/30 20:43:54","新北市新店區如意街3巷2號","121.495531666667","24.94913","6500600","新店區"
"231048","KED-0819","2019/11/30 20:43:48","新北市新店區寶元路一段109號","121.545755","24.983105","6500600","新店區"
"231057","720-UM","2019/11/30 20:43:48","新北市新店區金興路37-1號","121.552296666667","24.9319966666667","6500600","新店區"
"231059","897-TW","2019/11/30 20:43:36","新北市新店區僑信路130號","121.500713333333","24.9459233333333","6500600","新店區"
"231043","899-TW","2019/11/30 20:43:45","新北市新店區建國路29號","121.540206666667","24.9740516666667","6500600","新店區"
"231066","AKT-0513","2019/11/30 20:43:42","新北市新店區安民街365巷1弄8號","121.516286666667","24.97513","6500600","新店區"
"241011","013-R5","2019/11/30 20:43:51","新北市三重區龍濱路205巷22號","121.50311","25.0720266666667","6500200","三重區"
"241028","022-UY","2019/11/30 20:43:51","新北市三重區中正南路48號","121.493896666667","25.0599366666667","6500200","三重區"
"241008","059-VK","2019/11/30 20:43:39","新北市三重區下竹圍街91號","121.481161666667","25.074935","6500200","三重區"
"241031","061-VK","2019/11/30 20:43:33","新北市三重區重陽路一段113巷1弄49號","121.488045","25.0587066666667","6500200","三重區"
"241015","062-VK","2019/11/30 20:43:51","新北市三重區文化北路224-2號","121.497645","25.0691566666667","6500200","三重區"
"241017","063-VK","2019/11/30 20:43:36","新北市三重區民生街51號","121.491255","25.0666433333333","6500200","三重區"
"241024","065-VK","2019/11/30 20:43:46","新北市三重區三民街166號","121.48225","25.0654816666667","6500200","三重區"
"241007","066-VK","2019/11/30 20:43:43","新北市三重區慈愛街8號","121.48443","25.0784016666667","6500200","三重區"
"241002","090-VK","2019/11/30 20:43:51","新北市三重區仁義街157巷14號","121.497573333333","25.0812466666667","6500200","三重區"
"241003","091-VK","2019/11/30 20:43:47","新北市三重區集賢路87-1號","121.493658333333","25.08682","6500200","三重區"
"241006","262-UM","2019/11/30 20:43:38","新北市三重區車路頭街139巷12號","121.484265","25.076225","6500200","三重區"
"241016","266-UM","2019/11/30 20:43:40","新北市三重區正義北路196號","121.496291666667","25.0669766666667","6500200","三重區"
"241009","267-UM","2019/11/30 20:43:42","新北市三重區碧華街1號","121.483651666667","25.0809816666667","6500200","三重區"
"241018","268-UM","2019/11/30 20:43:51","新北市三重區正義北路346號","121.494441666667","25.0709116666667","6500200","三重區"
"241032","269-UM","2019/11/30 20:43:43","新北市三重區重陽路一段120巷46號","121.485096666667","25.060135","6500200","三重區"
"241013","270-UM","2019/11/30 20:43:35","新北市三重區三和路三段85號","121.494266666667","25.0721733333333","6500200","三重區"
"241030","KED-0822","2019/11/30 20:43:32","新北市三重區成功路73巷18號","121.48939","25.0519383333333","6500200","三重區"
"241035","462-BY","2019/11/30 20:43:51","新北市三重區文化北路248號","121.497325","25.0699383333333","6500200","三重區"
"241004","475-VK","2019/11/30 20:43:42","新北市三重區仁愛街406巷3號","121.490683333333","25.0812016666667","6500200","三重區"
"241020","478-VK","2019/11/30 20:43:36","新北市三重區忠孝路一段101號","121.489611666667","25.0721783333333","6500200","三重區"
"241026","480-VK","2019/11/30 20:43:42","新北市三重區重新路二段36巷33號","121.49994","25.0622816666667","6500200","三重區"
"241014","543-UM","2019/11/30 20:43:49","新北市三重區萬壽街24號","121.499871666667","25.0694733333333","6500200","三重區"
"241023","545-UM","2019/11/30 20:43:43","新北市三重區忠孝路三段75巷5號","121.48028","25.066055","6500200","三重區"
"241001","547-UM","2019/11/30 20:43:49","新北市三重區自強路三段76巷9號","121.486423333333","25.0741683333333","6500200","三重區"
"241019","KEA-2593","2019/11/30 20:43:35","新北市三重區大智街188號","121.489493333333","25.070435","6500200","三重區"
"241005","AAD-863","2019/11/30 20:43:41","新北市三重區三信路186號","121.488031666667","25.0860716666667","6500200","三重區"
"241012","743-BX","2019/11/30 20:43:48","新北市三重區龍門路274巷45號","121.501231666667","25.075525","6500200","三重區"
"241022","KED-0820","2019/11/30 20:43:49","新北市三重區中正北路20巷12號","121.487943333333","25.0624733333333","6500200","三重區"
"241025","KED-0670","2019/11/30 20:43:46","新北市三重區中華路55號","121.483611666667","25.06204","6500200","三重區"
"241029","942-UM","2019/11/30 20:43:52","新北市三重區重安街156號","121.49584","25.0547433333333","6500200","三重區"
"241033","AAC-255","2019/11/30 20:43:50","新北市三重區中興北街175巷18號","121.470816666667","25.0559783333333","6500200","三重區"
"235055","183-VK","2019/11/30 20:43:34","新北市五股區凌雲路二段18巷64-3號","121.441346666667","25.1062666666667","6500300","中和區"
"247016","KEA-2869","2019/11/30 20:43:40","新北市蘆洲區中山一路355號","121.47039","25.077945","6501400","蘆洲區"
"247010","KED-0682","2019/11/30 20:43:48","新北市蘆洲區民族路7號","121.475716666667","25.0839716666667","6501400","蘆洲區"
"235069","4980-A6","2019/11/30 20:43:40","新北市中和區新生街122號","121.483576666667","25.0012866666667","6500300","中和區"
"247006","893-R6","2019/11/30 20:43:54","新北市蘆洲區和平路121巷15號","121.466873333333","25.0794966666667","6501400","蘆洲區"
"247012","337-TH","2019/11/30 20:43:48","新北市蘆洲區集賢路224巷46弄10-3號","121.481758333333","25.08769","6501400","蘆洲區"
"247004","336-TH","2019/11/30 20:43:48","新北市蘆洲區長安街124號","121.460508333333","25.0818716666667","6501400","蘆洲區"
"247024","057-VK","2019/11/30 20:43:43","新北市蘆洲區長樂路168號","121.462491666667","25.0909666666667","6501400","蘆洲區"
"247014","056-VK","2019/11/30 20:43:38","新北市蘆洲區中山一路216號","121.472936666667","25.080715","6501400","蘆洲區"
"247022","007-UY","2019/11/30 20:43:53","新北市蘆洲區中正路185巷46弄26號","121.466876666667","25.0856833333333","6501400","蘆洲區"
"247008","002-UY","2019/11/30 20:43:45","新北市蘆洲區永安北路二段8巷2號","121.480896666667","25.0805583333333","6501400","蘆洲區"
"247002","001-UY","2019/11/30 20:43:37","新北市蘆洲區長榮路341號","121.459571666667","25.0874866666667","6501400","蘆洲區"
"222001","KEA-2212","2019/11/30 20:43:41","新北市深坑區北深路三段208號","121.601283333333","25.0037283333333","6501800","深坑區"
"251009","008-UM","2019/11/30 20:43:39","新北市淡水區中正東路二段143巷2弄1號","121.460836666667","25.1473366666667","6501000","淡水區"
"251015","KEA-2871","2019/11/30 20:43:43","新北市淡水區淡金路三段446號","121.450836666667","25.2143816666667","6501000","淡水區"
"251016","180-VK","2019/11/30 20:43:41","新北市淡水區後洲子4-1號","121.445501666667","25.225565","6501000","淡水區"
"251013","182-VK","2019/11/30 20:43:45","新北市淡水區下圭柔山27-2號","121.45872","25.2033266666667","6501000","淡水區"
"251010","413-VK","2019/11/30 20:43:46","新北市淡水區沙崙路133號","121.422931666667","25.1825933333333","6501000","淡水區"
"251012","441-VK","2019/11/30 20:43:42","新北市淡水區興仁路103巷37號","121.450365","25.2164866666667","6501000","淡水區"
"251007","442-VK","2019/11/30 20:43:37","新北市淡水區學府路102巷62號","121.453461666667","25.1711383333333","6501000","淡水區"
"251001","559-UM","2019/11/30 20:43:43","新北市淡水區淡金路一段96號","121.4581","25.17387","6501000","淡水區"
"251006","561-UM","2019/11/30 20:43:39","新北市淡水區商工路30號","121.447241666667","25.1882566666667","6501000","淡水區"
"251014","577-R6","2019/11/30 20:43:50","新北市淡水區公埔子32-8號","121.461641666667","25.2323416666667","6501000","淡水區"
"251011","650-BX","2019/11/30 20:43:45","新北市淡水區新市一路一段281巷2號","121.434653333333","25.1867516666667","6501000","淡水區"
"251002","672-BX","2019/11/30 20:43:51","新北市淡水區公明街89號","121.444238333333","25.1684383333333","6501000","淡水區"
"251003","766-UM","2019/11/30 20:43:42","新北市淡水區新興街121巷35號","121.440795","25.17962","6501000","淡水區"
"252002","KED-0821","2019/11/30 20:43:43","新北市三芝區淡金路二段93號","121.504106666667","25.2608916666667","6502100","三芝區"
"242004","751-BX","2019/11/30 20:43:44","新北市新莊區化成路371巷30弄2號","121.46332","25.0570883333333","6500500","新莊區"
"242029","615-BX","2019/11/30 20:43:51","新北市新莊區中華路二段97號","121.452666666667","25.04955","6500500","新莊區"
"242027","613-BX","2019/11/30 20:43:43","新北市新莊區思源路267號","121.459768333333","25.0477116666667","6500500","新莊區"
"242058","612-BX","2019/11/30 20:43:38","新北市新莊區四維路123-1號","121.423003333333","25.02292","6500500","新莊區"
"242048","566-BX","2019/11/30 20:43:34","新北市新莊區中正路871巷1號","121.418258333333","25.027025","6500500","新莊區"
"242053","497-BY","2019/11/30 20:43:33","新北市新莊區西盛街324巷41號","121.426541666667","25.0147266666667","6500500","新莊區"
"242042","442-UM","2019/11/30 20:43:49","新北市新莊區天祥街15巷6號","121.416898333333","25.0275933333333","6500500","新莊區"
"242002","441-UM","2019/11/30 20:43:44","新北市新莊區中正路98號","121.454905","25.0368166666667","6500500","新莊區"
"242044","415-TV","2019/11/30 20:43:36","新北市新莊區龍安路65號","121.415601666667","25.02157","6500500","新莊區"
"242013","413-TV","2019/11/30 20:43:48","新北市新莊區中和街175巷9號","121.447235","25.0504483333333","6500500","新莊區"
"242051","400-BY","2019/11/30 20:43:49","新北市新莊區民安西路136號","121.426523333333","25.017925","6500500","新莊區"
"242025","362-BY","2019/11/30 20:43:41","新北市新莊區化成路565號","121.465101666667","25.0656083333333","6500500","新莊區"
"242023","353-BY","2019/11/30 20:43:50","新北市新莊區化成路362號","121.46581","25.04955","6500500","新莊區"
"242015","132-UY","2019/11/30 20:43:38","新北市新莊區中和街24號","121.448298333333","25.043635","6500500","新莊區"
"242039","135-UY","2019/11/30 20:43:41","新北市新莊區新樹路168號","121.434705","25.0223616666667","6500500","新莊區"
"242056","172-VK","2019/11/30 20:43:41","新北市新莊區瓊泰路2巷10號","121.445083333333","25.0291666666667","6500500","新莊區"
"242017","173-VK","2019/11/30 20:43:45","新北市新莊區中港三街108號","121.448316666667","25.0461166666667","6500500","新莊區"
"242031","175-VK","2019/11/30 20:43:48","新北市新莊區中正路508巷5弄2號","121.435048333333","25.0338383333333","6500500","新莊區"
"242021","KED-0687","2019/11/30 20:43:51","新北市新莊區中華路一段112號","121.452188333333","25.0405166666667","6500500","新莊區"
"242007","346-TH","2019/11/30 20:43:51","新北市新莊區思源路287巷19號","121.458745","25.0481516666667","6500500","新莊區"
"242036","347-TH","2019/11/30 20:43:37","新北市新莊區建安街16巷1號","121.428541666667","25.026395","6500500","新莊區"
"242009","349-TH","2019/11/30 20:43:36","新北市新莊區福壽街99巷11弄1號","121.457526666667","25.0503716666667","6500500","新莊區"
"242034","350-TH","2019/11/30 20:43:44","新北市新莊區中正路437號","121.44338","25.0341733333333","6500500","新莊區"
"242019","351-TH","2019/11/30 20:43:52","新北市新莊區銘德街97號","121.455891666667","25.0434016666667","6500500","新莊區"
"221008","489-VK","2019/11/30 20:43:48","新北市汐止區康寧街706-1號","121.637975","25.072635","6501100","汐止區"
"221036","130-UY","2019/11/30 20:43:35","新北市汐止區新昌路20號","121.662005","25.0675333333333","6501100","汐止區"
"221015","131-UY","2019/11/30 20:43:31","新北市汐止區建成路18-1號","121.664961666667","25.0726333333333","6501100","汐止區"
"221010","269-BY","2019/11/30 20:42:35","新北市汐止區八連路二段610巷17號","121.624096666667","25.111515","6501100","汐止區"
"221012","278-VK","2019/11/30 20:43:36","新北市汐止區保新街283號","121.692726666667","25.0683016666667","6501100","汐止區"
"221023","279-VK","2019/11/30 20:43:38","新北市汐止區湖東街49號","121.635796666667","25.0735133333333","6501100","汐止區"
"221027","281-BY","2019/11/30 20:43:50","新北市汐止區大同路二段435號","121.65932","25.0674833333333","6501100","汐止區"
"221029","298-VK","2019/11/30 20:43:48","新北市汐止區大同路一段421號","121.642656666667","25.061215","6501100","汐止區"
"221021","299-VK","2019/11/30 20:43:41","新北市汐止區水源路一段286號","121.65416","25.0581833333333","6501100","汐止區"
"221035","622-UM","2019/11/30 20:43:52","新北市汐止區長江街101-5號","121.658755","25.0731516666667","6501100","汐止區"
"221025","623-UM","2019/11/30 20:43:49","新北市汐止區水源路二段236號","121.658713333333","25.0510716666667","6501100","汐止區"
"221033","647-BX","2019/11/30 20:43:33","新北市汐止區合順街18巷8弄5號","121.620363333333","25.041935","6501100","汐止區"
"221002","707-TV","2019/11/30 20:43:50","新北市汐止區福德二路167號","121.630891666667","25.0651933333333","6501100","汐止區"
"221018","753-BX","2019/11/30 20:43:38","新北市汐止區茄苳路107號","121.667708333333","25.0714066666667","6501100","汐止區"
"220083","286-VK","2019/11/30 20:43:35","新北市板橋區僑中二街108巷26號","121.444755","25.0074966666667","6500100","板橋區"
"220081","287-VK","2019/11/30 20:43:31","新北市板橋區大觀路三段50巷49號","121.432228333333","24.99581","6500100","板橋區"
"242046","281-VK","2019/11/30 20:43:40","新北市新莊區裕民街57號","121.418773333333","25.0245433333333","6500500","新莊區"
"242011","280-VK","2019/11/30 20:43:48","新北市新莊區中榮街122巷2號","121.446578333333","25.05317","6500500","新莊區"
