"lineid","car","time","location","longitude","latitude","cityid","cityname"
"231060","001-UM","2019/11/30 21:13:44","新北市新店區安康路三段27號","121.4932","24.9531566666667","6500600","新店區"
"231061","002-UM","2019/11/30 21:13:40","新北市新店區安和路三段57號","121.518016666667","24.9828316666667","6500600","新店區"
"231040","047-UY","2019/11/30 21:13:38","新北市新店區安康路一段33-1號","121.53227","24.9605816666667","6500600","新店區"
"231051","107-UY","2019/11/30 21:13:44","新北市新店區中正路680巷51弄11號","121.535455","24.9895083333333","6500600","新店區"
"231065","110-UY","2019/11/30 21:13:44","新北市新店區薏仁坑路6-1號","121.499981666667","24.9583516666667","6500600","新店區"
"231042","268-BY","2019/11/30 21:13:48","新北市新店區薏仁坑路自強巷6號","121.496833333333","24.95832","6500600","新店區"
"231050","AAD-862","2019/11/30 21:13:32","新北市新店區中華路143號","121.538155","24.9701183333333","6500600","新店區"
"231062","515-UM","2019/11/30 21:13:49","新北市新店區雙城路60巷16弄13號","121.491773333333","24.94792","6500600","新店區"
"231063","641-BX","2019/11/30 21:13:34","新北市新店區玫瑰路57巷13號","121.496238333333","24.946315","6500600","新店區"
"231059","897-TW","2019/11/30 21:13:36","新北市新店區僑義路16號","121.50049","24.95048","6500600","新店區"
"241011","013-R5","2019/11/30 21:13:51","新北市三重區河邊北街110巷66號","121.502235","25.070265","6500200","三重區"
"241028","022-UY","2019/11/30 21:13:51","新北市三重區中正南路163號","121.493693333333","25.0560733333333","6500200","三重區"
"241008","059-VK","2019/11/30 21:13:39","新北市三重區自強路一段62號","121.497318333333","25.0665483333333","6500200","三重區"
"241031","061-VK","2019/11/30 21:13:53","新北市三重區五谷王南街46巷37號","121.475788333333","25.0454516666667","6500200","三重區"
"241015","062-VK","2019/11/30 21:13:51","新北市三重區河邊北街23號","121.504255","25.0653066666667","6500200","三重區"
"241017","063-VK","2019/11/30 21:13:36","新北市三重區大同北路175號","121.492775","25.0652833333333","6500200","三重區"
"241024","065-VK","2019/11/30 21:13:46","新北市三重區力行路一段239號","121.482693333333","25.0705166666667","6500200","三重區"
"241007","066-VK","2019/11/30 21:13:43","新北市三重區車路頭街135-1號","121.484261666667","25.0759766666667","6500200","三重區"
"241002","090-VK","2019/11/30 21:13:31","新北市三重區五華街14號","121.494945","25.080255","6500200","三重區"
"241003","091-VK","2019/11/30 21:13:47","新北市三重區仁義街228巷1號","121.494843333333","25.0847933333333","6500200","三重區"
"241006","262-UM","2019/11/30 21:13:38","新北市三重區中正北路40號","121.48783","25.0636","6500200","三重區"
"241016","266-UM","2019/11/30 21:13:40","新北市三重區信義西街41號","121.495301666667","25.0639616666667","6500200","三重區"
"241009","267-UM","2019/11/30 21:13:42","新北市三重區忠孝路三段48號","121.480836666667","25.0659633333333","6500200","三重區"
"241018","268-UM","2019/11/30 21:13:52","新北市三重區忠孝路二段35號","121.48593","25.0710766666667","6500200","三重區"
"241032","269-UM","2019/11/30 21:13:43","新北市三重區中興北街134號","121.468978333333","25.0558733333333","6500200","三重區"
"241013","270-UM","2019/11/30 21:13:35","新北市三重區仁愛街83號","121.495916666667","25.0733","6500200","三重區"
"241030","KED-0822","2019/11/30 21:13:52","新北市三重區五谷王北街20巷15弄1號","121.475081666667","25.04844","6500200","三重區"
"241004","475-VK","2019/11/30 21:13:42","新北市三重區仁愛街418號","121.490418333333","25.0814","6500200","三重區"
"241026","480-VK","2019/11/30 21:13:42","新北市三重區新北大道一段7號","121.48994","25.06143","6500200","三重區"
"241014","543-UM","2019/11/30 21:13:49","新北市三重區安和路1號","121.5014","25.0678233333333","6500200","三重區"
"241023","545-UM","2019/11/30 21:13:43","新北市三重區中正北路176巷16號","121.482673333333","25.06592","6500200","三重區"
"241001","547-UM","2019/11/30 21:13:49","新北市三重區福隆路101號","121.492436666667","25.0783833333333","6500200","三重區"
"241019","KEA-2593","2019/11/30 21:13:35","新北市三重區重陽路三段11號","121.489258333333","25.06664","6500200","三重區"
"241005","AAD-863","2019/11/30 21:13:41","新北市三重區仁華街118巷6號","121.485705","25.083","6500200","三重區"
"241012","743-BX","2019/11/30 21:13:48","新北市三重區龍濱路172號","121.50135","25.0728383333333","6500200","三重區"
"241022","KED-0820","2019/11/30 21:13:49","新北市三重區中正北路64巷24號","121.486088333333","25.0636766666667","6500200","三重區"
"241025","KED-0670","2019/11/30 21:13:46","新北市三重區中正北路208巷8號","121.48233","25.066925","6500200","三重區"
"241029","942-UM","2019/11/30 21:13:49","新北市三重區正義南路111號","121.49819","25.058535","6500200","三重區"
"241033","AAC-255","2019/11/30 21:13:50","新北市三重區光復路二段126巷27號","121.470798333333","25.058825","6500200","三重區"
"247016","KEA-2869","2019/11/30 21:13:45","新北市蘆洲區光復路77巷26-3號","121.464545","25.086265","6501400","蘆洲區"
"247010","KED-0682","2019/11/30 21:13:48","新北市蘆洲區鷺江街16-1號","121.478873333333","25.0825733333333","6501400","蘆洲區"
"247006","893-R6","2019/11/30 21:13:43","新北市蘆洲區長安街14號","121.464243333333","25.0791633333333","6501400","蘆洲區"
"247020","546-UM","2019/11/30 21:13:40","新北市蘆洲區民族路436巷22號","121.472836666667","25.0929916666667","6501400","蘆洲區"
"247012","337-TH","2019/11/30 21:13:52","新北市蘆洲區復興路120號","121.476395","25.087295","6501400","蘆洲區"
"247004","336-TH","2019/11/30 21:13:48","新北市蘆洲區永安南路二段322號","121.456951666667","25.0827333333333","6501400","蘆洲區"
"247024","057-VK","2019/11/30 21:13:43","新北市蘆洲區長興路50巷1號","121.463756666667","25.08377","6501400","蘆洲區"
"247014","056-VK","2019/11/30 21:13:38","新北市蘆洲區中央路155號","121.472675","25.0847083333333","6501400","蘆洲區"
"247018","053-VK","2019/11/30 21:13:50","新北市蘆洲區復興路111-6號","121.476475","25.0883116666667","6501400","蘆洲區"
"247022","007-UY","2019/11/30 21:13:53","新北市蘆洲區三民路202號","121.469221666667","25.0889433333333","6501400","蘆洲區"
"247008","002-UY","2019/11/30 21:13:45","新北市蘆洲區民生街47號","121.474991666667","25.078805","6501400","蘆洲區"
"247002","001-UY","2019/11/30 21:13:37","新北市蘆洲區永樂街38巷40號","121.458585","25.09002","6501400","蘆洲區"
"251009","008-UM","2019/11/30 21:13:39","新北市淡水區民族路112巷57號","121.46201","25.1343183333333","6501000","淡水區"
"251005","010-UM","2019/11/30 21:13:52","新北市淡水區博愛街1號","121.446161666667","25.1703466666667","6501000","淡水區"
"251015","KEA-2871","2019/11/30 21:13:43","新北市淡水區淡金路四段542巷52-2號","121.455596666667","25.2259","6501000","淡水區"
"251016","180-VK","2019/11/30 21:13:40","新北市淡水區前洲子28號","121.441046666667","25.219235","6501000","淡水區"
"251008","181-VK","2019/11/30 21:13:49","新北市淡水區北投子78-8號","121.457391666667","25.179155","6501000","淡水區"
"251013","182-VK","2019/11/30 21:13:45","新北市淡水區行忠路330號","121.460683333333","25.1998916666667","6501000","淡水區"
"251010","413-VK","2019/11/30 21:13:46","新北市淡水區中正路一段63巷1弄2號","121.423613333333","25.1774016666667","6501000","淡水區"
"251012","441-VK","2019/11/30 21:13:42","新北市淡水區淡金路五段87號","121.455161666667","25.2343833333333","6501000","淡水區"
"251001","559-UM","2019/11/30 21:13:43","新北市淡水區中山北路二段381巷124號","121.44315","25.1857","6501000","淡水區"
"251014","577-R6","2019/11/30 21:13:50","新北市淡水區六塊厝2-1號","121.450113333333","25.2404683333333","6501000","淡水區"
"251011","650-BX","2019/11/30 21:13:45","新北市淡水區新民街178巷42弄2號","121.438386666667","25.17963","6501000","淡水區"
"251002","672-BX","2019/11/30 21:13:50","新北市淡水區水源街二段2號","121.448705","25.1733766666667","6501000","淡水區"
"251003","766-UM","2019/11/30 21:13:42","新北市淡水區新春街87號","121.438885","25.1825683333333","6501000","淡水區"
"242025","362-BY","2019/11/30 21:13:41","新北市林口區太平里180號","121.366901666667","25.1348616666667","6500500","新莊區"
"242009","349-TH","2019/11/30 21:13:36","新北市五股區凌雲路二段18巷12號","121.443898333333","25.1068583333333","6500500","新莊區"
