"lineid","car","time","location","longitude","latitude","cityid","cityname"
"251004","009-UM","2019/11/30 22:29:50","新北市淡水區民族路33號","121.462283333333","25.1358316666667","6501000","淡水區"
"251008","181-VK","2019/11/30 22:29:49","新北市淡水區學府路104號","121.449831666667","25.1718266666667","6501000","淡水區"
"251010","413-VK","2019/11/30 22:29:46","新北市淡水區中正路一段22巷101號","121.42705","25.1864216666667","6501000","淡水區"
"251007","442-VK","2019/11/30 22:29:36","新北市淡水區北新路180號","121.449448333333","25.1787033333333","6501000","淡水區"
"251011","650-BX","2019/11/30 22:29:45","新北市淡水區水碓街7號","121.443191666667","25.1771666666667","6501000","淡水區"
