"lineid","car","time","location","longitude","latitude","cityid","cityname"
"232009","291-BY","2019/08/17 06:50:01","新北市坪林區九芎林36號","121.702478333333","24.9209366666667","6502000","坪林區"
"232010","375-UM","2019/08/17 06:50:01","新北市坪林區北宜路八段387號","121.707731666667","24.93241","6502000","坪林區"
"232016","705-BZ","2019/08/17 06:50:04","新北市坪林區九芎林14-1號","121.7069","24.9319216666667","6502000","坪林區"
"232004","758-BX","2019/08/17 06:50:02","新北市坪林區九芎林14-1號","121.707801666667","24.9307833333333","6502000","坪林區"
"244005","248-BX","2019/08/17 06:50:00","新北市林口區粉寮路二段98號","121.404408333333","25.0894466666667","6501700","林口區"
"223002","KEA-2673","2019/08/17 06:49:50","新北市石碇區員山子1號","121.651705","24.966035","6501900","石碇區"
"223003","205-TH","2019/08/17 06:49:44","新北市石碇區湳窟37-1號","121.662796666667","24.9958983333333","6501900","石碇區"
"223008","406-TH","2019/08/17 06:50:05","新北市石碇區雙溪84-1號","121.661298333333","25.0088916666667","6501900","石碇區"
"223004","437-BY","2019/08/17 06:50:07","新北市石碇區碇坪路一段109號","121.663951666667","24.9885966666667","6501900","石碇區"
"223001","592-UM","2019/08/17 06:49:47","新北市石碇區湳窟38號","121.666243333333","24.99742","6501900","石碇區"
"223007","661-BX","2019/08/17 06:49:58","新北市石碇區雙溪45號","121.651816666667","25.0077133333333","6501900","石碇區"
"227004","282-VK","2019/08/17 06:50:02","新北市雙溪區新基里自強路5號","121.866365","25.039055","6502500","雙溪區"
"252007","AAC-283","2019/08/17 06:49:58","新北市三芝區埔坪里埔頭坑41號","121.504556666667","25.2645916666667","6502100","三芝區"
"226005","ANY-2373","2019/08/17 06:49:45","新北市平溪區石底里公園街18-3號","121.733216666667","25.025805","6502400","平溪區"
