"lineid","car","time","location","longitude","latitude","cityid","cityname"
"232017","290-BY","2019/10/14 07:49:30","新北市坪林區乾溪5號","121.74244","24.972555","6502000","坪林區"
"232005","291-BY","2019/10/14 07:49:19","新北市坪林區魚堀44-3號","121.701798333333","24.9329066666667","6502000","坪林區"
"232010","375-UM","2019/10/14 07:49:15","新北市坪林區厚德岡坑3號","121.731243333333","24.9404416666667","6502000","坪林區"
"232012","705-BZ","2019/10/14 07:49:25","新北市坪林區金瓜寮13-2號","121.681221666667","24.9151683333333","6502000","坪林區"
"232001","758-BX","2019/10/14 07:49:11","新北市坪林區下坑子口18-3號","121.710248333333","24.9464866666667","6502000","坪林區"
"244006","080-UY","2019/10/14 07:49:17","新北市林口區粉寮69號","121.404985","25.0908733333333","6501700","林口區"
"244001","248-BX","2019/10/14 07:49:12","新北市林口區頂福里24-1號","121.352206666667","25.0959116666667","6501700","林口區"
"244012","KEA-2802","2019/10/14 07:49:27","新北市林口區粉寮69號","121.404693333333","25.09079","6501700","林口區"
"222004","289-BY","2019/10/14 07:49:30","新北市深坑區文化街45號","121.616836666667","25.00172","6501800","深坑區"
"231008","192-VK","2019/10/14 07:49:21","新北市新店區安康路一段75-1號","121.530055","24.9611466666667","6500600","新店區"
"226005","5620-A6","2019/10/14 07:49:18","新北市平溪區嶺腳里中華街51號","121.739116666667","25.0248466666667","6502400","平溪區"
"226001","APG-9813","2019/10/14 07:49:19","新北市平溪區平湖里坑頭3號","121.783515","25.0257683333333","6502400","平溪區"
"226003","AGD-0702","2019/10/14 07:35:28","新北市平溪區嶺腳里嶺腳寮83-2號","121.750026666667","25.035355","6502400","平溪區"
"223003","205-TH","2019/10/14 07:46:56","新北市石碇區烏塗窟36-1號","121.656348333333","24.972225","6501900","石碇區"
"223008","406-TH","2019/10/14 07:38:43","新北市石碇區靜安路一段337號","121.69891","25.0145966666667","6501900","石碇區"
"223001","592-UM","2019/10/14 07:49:25","新北市石碇區四分子3號","121.664106666667","24.9641316666667","6501900","石碇區"
"223004","660-BX","2019/10/14 07:49:30","新北市石碇區靜安路一段25號","121.642321666667","25.0115616666667","6501900","石碇區"
"223007","661-BX","2019/10/14 07:46:42","新北市石碇區靜安路一段337號","121.698776666667","25.0144833333333","6501900","石碇區"
"227003","282-VK","2019/10/14 07:49:15","新北市雙溪區雙溪里太平路54號","121.864706666667","25.035445","6502500","雙溪區"
"252006","073-UM","2019/10/14 07:49:31","新北市三芝區古庄里四棧橋41號","121.481955","25.2637716666667","6502100","三芝區"
"252004","249-BX","2019/10/14 07:49:19","新北市三芝區店子里菜公坑76-1號","121.509311666667","25.2055","6502100","三芝區"
"237014","760-BX","2019/10/14 07:49:20","新北市三峽區東眼47號","121.407816666667","24.8593816666667","6500900","三峽區"
"242040","AAC-296","2019/10/14 07:49:17","新北市新莊區中正路384號","121.441963333333","25.0345566666667","6500500","新莊區"
"242059","986-R7","2019/10/14 07:49:17","新北市新莊區三和路10號","121.442031666667","25.03554","6500500","新莊區"
"242003","751-BX","2019/10/14 07:49:19","新北市新莊區中港路276號","121.453221666667","25.0440583333333","6500500","新莊區"
"242028","615-BX","2019/10/14 07:49:29","新北市新莊區幸福路602-1號","121.45228","25.04933","6500500","新莊區"
"242026","613-BX","2019/10/14 07:49:13","新北市新莊區中港一街142號","121.446695","25.044905","6500500","新莊區"
"242057","612-BX","2019/10/14 07:49:13","新北市新莊區三和路12-21號","121.442231666667","25.0386516666667","6500500","新莊區"
"242047","566-BX","2019/10/14 07:49:28","新北市新莊區中正路683號","121.426103333333","25.03005","6500500","新莊區"
"242052","497-BY","2019/10/14 07:49:30","新北市新莊區瓊林南路61-87號","121.439201666667","25.0178566666667","6500500","新莊區"
"242038","442-UM","2019/10/14 07:49:21","新北市新莊區中正路481號","121.441323333333","25.03374","6500500","新莊區"
"242001","441-UM","2019/10/14 07:49:23","新北市新莊區瓊林路46-9號","121.447128333333","25.0290666666667","6500500","新莊區"
"242006","440-UM","2019/10/14 07:49:15","新北市新莊區中和街61號","121.447453333333","25.0468716666667","6500500","新莊區"
"242043","415-TV","2019/10/14 07:49:18","新北市新莊區富國路154號","121.42322","25.0249683333333","6500500","新莊區"
"242012","413-TV","2019/10/14 07:49:28","新北市新莊區三和路12-21號","121.442165","25.038445","6500500","新莊區"
"242049","400-BY","2019/10/14 07:49:27","新北市新莊區瓊林南路31-2號","121.436313333333","25.0188116666667","6500500","新莊區"
"242024","362-BY","2019/10/14 07:49:19","新北市新莊區中港一街161號","121.447266666667","25.0449216666667","6500500","新莊區"
"242022","353-BY","2019/10/14 07:49:18","新北市新莊區新泰路500號","121.442381666667","25.0458583333333","6500500","新莊區"
"242014","132-UY","2019/10/14 07:49:12","新北市新莊區新泰路277巷44號","121.443718333333","25.0401733333333","6500500","新莊區"
"242055","172-VK","2019/10/14 07:49:28","新北市新莊區新莊路664號","121.442405","25.0328816666667","6500500","新莊區"
"242016","173-VK","2019/10/14 07:49:26","新北市新莊區三和路12-21號","121.442166666667","25.0382866666667","6500500","新莊區"
"242030","175-VK","2019/10/14 07:49:25","新北市新莊區中環路二段392-1號","121.442363333333","25.0454133333333","6500500","新莊區"
"242020","KED-0687","2019/10/14 07:49:23","新北市新莊區中港路307號","121.452696666667","25.04466","6500500","新莊區"
"242035","347-TH","2019/10/14 07:49:26","新北市新莊區中正路481號","121.441435","25.0337716666667","6500500","新莊區"
"242033","350-TH","2019/10/14 07:49:30","新北市新莊區瓊林路46-3號","121.447345","25.029355","6500500","新莊區"
"242018","351-TH","2019/10/14 07:49:20","新北市新莊區新泰路207號","121.44695","25.0383183333333","6500500","新莊區"
"242045","281-VK","2019/10/14 07:49:32","新北市新莊區新莊路773號","121.441991666667","25.0327066666667","6500500","新莊區"
"242010","280-VK","2019/10/14 07:49:28","新北市新莊區新泰路500號","121.442491666667","25.046095","6500500","新莊區"
