"lineid","car","time","location","longitude","latitude","cityid","cityname"
"244006","080-UY","2019/12/19 08:59:29","新北市林口區竹林路462號","121.38777","25.0849133333333","6501700","林口區"
"244003","248-BX","2019/12/19 08:59:26","新北市林口區下福里9鄰117號","121.29241","25.11815","6501700","林口區"
"244018","402-UM","2019/12/19 08:59:36","新北市林口區文化一路一段124號","121.375205","25.0724533333333","6501700","林口區"
"244012","KEA-2802","2019/12/19 08:59:35","新北市林口區中正路514巷6弄1號","121.382245","25.07804","6501700","林口區"
"244022","483-VK","2019/12/19 08:59:37","新北市林口區東湖路96號","121.385721666667","25.073725","6501700","林口區"
"244016","485-VK","2019/12/19 08:59:30","新北市林口區八德路78號","121.365345","25.0656416666667","6501700","林口區"
"244008","657-BX","2019/12/19 08:59:22","新北市林口區中山路677-3號","121.37779","25.0835916666667","6501700","林口區"
"244010","701-TV","2019/12/19 08:59:21","新北市林口區興林路17巷3弄2號","121.390248333333","25.07701","6501700","林口區"
"244024","837-TS","2019/12/19 08:59:31","新北市林口區南勢六街246號","121.355886666667","25.0747316666667","6501700","林口區"
"244020","838-TS","2019/12/19 08:59:31","新北市林口區自強三街33號","121.398471666667","25.0771983333333","6501700","林口區"
"222006","289-BY","2019/12/19 08:59:40","新北市深坑區土庫尖路75-1號","121.63128","25.018175","6501800","深坑區"
"231069","189-VK","2019/12/19 08:59:38","新北市新店區平廣路二段160-1號","121.495755","24.8948483333333","6500600","新店區"
"231008","192-VK","2019/12/19 08:59:35","新北市新店區廣興路60巷28-1號","121.54187","24.9162483333333","6500600","新店區"
"223003","205-TH","2019/12/19 08:59:41","新北市石碇區北宜路六段水底寮巷25號","121.666215","24.9434283333333","6501900","石碇區"
"223008","406-TH","2019/12/19 08:59:37","新北市石碇區石汐路1號","121.678368333333","25.0342066666667","6501900","石碇區"
"223001","592-UM","2019/12/19 08:59:38","新北市石碇區北宜路六段水底寮巷25號","121.666186666667","24.9434066666667","6501900","石碇區"
"223004","660-BX","2019/12/19 08:59:36","新北市石碇區碇坪路二段52號","121.682816666667","24.970375","6501900","石碇區"
"223007","661-BX","2019/12/19 08:59:38","新北市石碇區碇南路二段鹿窟巷19號","121.666988333333","25.0324116666667","6501900","石碇區"
"223005","677-TV","2019/12/19 08:59:24","新北市石碇區碇坪路二段72號","121.683915","24.968145","6501900","石碇區"
"252004","249-BX","2019/12/19 08:59:30","新北市三芝區興華里田心子31號","121.488858333333","25.2004933333333","6502100","三芝區"
"252007","AAC-283","2019/12/19 08:59:31","新北市三芝區古庄里四棧橋27-1號","121.484671666667","25.2625116666667","6502100","三芝區"
"242040","AAC-296","2019/12/19 08:59:29","新北市新莊區天祥街92巷14號","121.415633333333","25.0300383333333","6500500","新莊區"
"242059","986-R7","2019/12/19 08:59:34","新北市新莊區民安路192號","121.425528333333","25.0235","6500500","新莊區"
"242003","751-BX","2019/12/19 08:59:30","新北市新莊區化成路118號","121.46538","25.04467","6500500","新莊區"
"242028","615-BX","2019/12/19 08:59:26","新北市新莊區中華路二段160號","121.453198333333","25.051195","6500500","新莊區"
"242026","613-BX","2019/12/19 08:59:34","新北市新莊區立信三街58號","121.444053333333","25.0509033333333","6500500","新莊區"
"242057","612-BX","2019/12/19 08:59:24","新北市新莊區中正路879-6號","121.417721666667","25.0261966666667","6500500","新莊區"
"242047","566-BX","2019/12/19 08:59:35","新北市新莊區民安路207巷7弄11號","121.426618333333","25.0231233333333","6500500","新莊區"
"242052","497-BY","2019/12/19 08:59:39","新北市新莊區民安西路369號","121.428641666667","25.0103883333333","6500500","新莊區"
"242043","442-UM","2019/12/19 08:59:37","新北市新莊區中正路新旺巷6號","121.415725","25.0235366666667","6500500","新莊區"
"242001","441-UM","2019/12/19 08:59:24","新北市新莊區思源路23號","121.460433333333","25.0389733333333","6500500","新莊區"
"242012","413-TV","2019/12/19 08:59:42","新北市新莊區中和街155巷2號","121.447246666667","25.0497433333333","6500500","新莊區"
"242049","400-BY","2019/12/19 08:59:27","新北市新莊區民安西路212巷5弄15號","121.425016666667","25.0141183333333","6500500","新莊區"
"242024","362-BY","2019/12/19 08:59:33","新北市新莊區五工二路80號","121.460121666667","25.0662483333333","6500500","新莊區"
"242022","353-BY","2019/12/19 08:59:38","新北市新莊區化成路750號","121.465536666667","25.0577083333333","6500500","新莊區"
"242014","132-UY","2019/12/19 08:59:38","新北市新莊區中平路26巷41號","121.446835","25.0434","6500500","新莊區"
"242055","172-VK","2019/12/19 08:59:21","新北市新莊區瓊泰路1號","121.445113333333","25.0285333333333","6500500","新莊區"
"242016","173-VK","2019/12/19 08:59:28","新北市新莊區中港二街46號","121.450475","25.0460366666667","6500500","新莊區"
"242030","175-VK","2019/12/19 08:59:26","新北市新莊區新泰路213巷28號","121.445845","25.0387916666667","6500500","新莊區"
"242038","176-VK","2019/12/19 08:59:37","新北市新莊區成功街78-1號","121.424158333333","25.0188516666667","6500500","新莊區"
"242006","346-TH","2019/12/19 08:59:32","新北市新莊區福壽街124巷34弄5號","121.45936","25.051095","6500500","新莊區"
"242020","347-TH","2019/12/19 08:59:34","新北市新莊區建中街48巷8弄1號","121.448151666667","25.03818","6500500","新莊區"
"242035","348-TH","2019/12/19 08:59:38","新北市新莊區建安街41巷5號","121.429158333333","25.025235","6500500","新莊區"
"242008","349-TH","2019/12/19 08:59:41","新北市新莊區昌盛街79號","121.455428333333","25.0501116666667","6500500","新莊區"
"242033","350-TH","2019/12/19 08:59:33","新北市新莊區中正路318巷16號","121.446633333333","25.0359383333333","6500500","新莊區"
"242018","351-TH","2019/12/19 08:59:37","新北市新莊區博愛路8巷2號","121.456151666667","25.0438483333333","6500500","新莊區"
"233003","KEA-2870","2019/12/19 08:59:28","新北市烏來區李茂岸8號","121.49782","24.78428","6502900","烏來區"
"242045","281-VK","2019/12/19 08:59:33","新北市新莊區民安路30-1號","121.422951666667","25.0279283333333","6500500","新莊區"
"242010","280-VK","2019/12/19 08:59:26","新北市新莊區中信街49號","121.449716666667","25.0507433333333","6500500","新莊區"
