"lineid","car","time","location","longitude","latitude","cityid","cityname"
"244022","483-VK","2019/12/19 10:13:31","新北市林口區文林六街2-1號","121.37037","25.0800166666667","6501700","林口區"
"222006","289-BY","2019/12/19 10:13:20","新北市深坑區大崙尾1號","121.614158333333","24.9750433333333","6501800","深坑區"
"231069","189-VK","2019/12/19 10:13:38","新北市新店區新潭路二段62巷15號","121.520101666667","24.9275633333333","6500600","新店區"
"231008","192-VK","2019/12/19 10:13:35","新北市新店區廣興路116號","121.536288333333","24.9116516666667","6500600","新店區"
"252007","AAC-283","2019/12/19 10:13:31","新北市三芝區車新路87號","121.495815","25.2677433333333","6502100","三芝區"
"242026","613-BX","2019/12/19 10:13:43","新北市新莊區新泰路255巷83號","121.442331666667","25.039165","6500500","新莊區"
"233003","KEA-2870","2019/12/19 10:13:28","新北市烏來區啦卡路70-1號","121.565295","24.8558383333333","6502900","烏來區"
