"lineid","car","time","location","longitude","latitude","cityid","cityname"
"234084","338-UY","2019/12/19 12:29:41","新北市永和區福和路1號","121.52578","25.0095883333333","6500400","永和區"
"234068","552-UM","2019/12/19 12:29:47","新北市永和區福和路1號","121.525738333333","25.0091516666667","6500400","永和區"
"234015","745-BX","2019/12/19 12:29:46","新北市永和區福和路1號","121.526466666667","25.0097016666667","6500400","永和區"
"234012","KEA-2591","2019/12/19 12:29:39","新北市永和區環河東路二段48號","121.523271666667","25.012085","6500400","永和區"
"234022","9380-KE","2019/12/19 12:29:41","新北市永和區福和路1號","121.526201666667","25.00953","6500400","永和區"
"234076","969-R7","2019/12/19 12:29:44","新北市永和區福和路1號","121.526378333333","25.0098916666667","6500400","永和區"
"223001","592-UM","2019/12/19 12:29:41","新北市新店區安康路二段320巷15弄2號","121.504638333333","24.9599566666667","6501900","石碇區"
"228005","097-TW","2019/12/19 12:29:38","新北市貢寮區福連里蓬萊街16號","121.979766666667","24.9928616666667","6502600","貢寮區"
"228004","212-TW","2019/12/19 12:29:37","新北市貢寮區龍崗里嵩陽街33號","121.903693333333","25.0168983333333","6502600","貢寮區"
"207002","749-BX","2019/12/19 12:29:32","新北市萬里區中幅里大湖路6號","121.660768333333","25.1712716666667","6502800","萬里區"
