"lineid","car","time","location","longitude","latitude","cityid","cityname"
"234044","148-BY","2019/12/19 13:29:53","新北市永和區秀朗路二段241號","121.526388333333","24.9997616666667","6500400","永和區"
"234078","298-R6","2019/12/19 13:29:54","新北市永和區林森路10巷18弄17號","121.526271666667","25.0072133333333","6500400","永和區"
"234036","336-UY","2019/12/19 13:29:33","新北市永和區民樂街38號","121.527503333333","25.000735","6500400","永和區"
"234062","337-UY","2019/12/19 13:29:53","新北市永和區得和路243巷20號","121.520693333333","25.0009233333333","6500400","永和區"
"234084","338-UY","2019/12/19 13:29:50","新北市永和區永元路124號","121.522815","25.0028433333333","6500400","永和區"
"234068","552-UM","2019/12/19 13:29:47","新北市永和區警光街12號","121.519711666667","25.0095816666667","6500400","永和區"
"234015","745-BX","2019/12/19 13:29:46","新北市永和區環河西路一段51巷1號","121.51404","25.01817","6500400","永和區"
"234028","746-BX","2019/12/19 13:29:42","新北市永和區民生路63號","121.522658333333","24.9973866666667","6500400","永和區"
"234052","KEA-2590","2019/12/19 13:29:40","新北市永和區復興街31號","121.516256666667","25.0131883333333","6500400","永和區"
"234005","KED-0605","2019/12/19 13:29:42","新北市永和區中山路一段222號","121.50816","25.0082183333333","6500400","永和區"
"234012","KEA-2591","2019/12/19 13:29:39","新北市永和區永和路二段46號","121.514695","25.0106783333333","6500400","永和區"
"234060","AAD-866","2019/12/19 13:29:41","新北市永和區永貞路184號","121.516225","25.00421","6500400","永和區"
"234040","862-TW","2019/12/19 13:29:52","新北市永和區中和路519巷7號","121.51083","25.003","6500400","永和區"
"234048","863-TW","2019/12/19 13:29:34","新北市永和區信義路126-1號","121.512405","25.0150933333333","6500400","永和區"
"234025","9371-KE","2019/12/19 13:29:39","新北市永和區豫溪街52巷10號","121.515728333333","25.0094016666667","6500400","永和區"
"234010","9373-KE","2019/12/19 13:29:41","新北市永和區仁愛路141巷30弄5號","121.512006666667","25.01161","6500400","永和區"
"248013","025-BX","2019/12/19 13:29:36","新北市五股區成泰路一段219-5號","121.435415","25.077475","6501500","五股區"
"248015","026-BX","2019/12/19 13:29:54","新北市五股區凌雲路一段83巷20號","121.45013","25.1006733333333","6501500","五股區"
"248005","077-UY","2019/12/19 13:29:49","新北市五股區中興路一段32號","121.468675","25.07245","6501500","五股區"
"248007","KED-0815","2019/12/19 13:29:45","新北市五股區更洲路32巷8弄35號","121.460253333333","25.079435","6501500","五股區"
"248017","KED-0813","2019/12/19 13:29:35","新北市五股區御史路269號","121.421888333333","25.1061616666667","6501500","五股區"
"248011","247-BX","2019/12/19 13:29:45","新北市五股區御史路37巷1號","121.442148333333","25.0918216666667","6501500","五股區"
"248010","272-BY","2019/12/19 13:29:49","新北市五股區水碓路16巷2號","121.433745","25.0725633333333","6501500","五股區"
"248003","677-BX","2019/12/19 13:29:44","新北市五股區六合街19號","121.431206666667","25.0886483333333","6501500","五股區"
"248001","678-BX","2019/12/19 13:29:34","新北市五股區西雲路148號","121.446151666667","25.0943266666667","6501500","五股區"
"234022","9380-KE","2019/12/19 13:29:41","新北市永和區環河東路二段48號","121.52314","25.0119566666667","6500400","永和區"
"234076","969-R7","2019/12/19 13:29:44","新北市永和區智光街53號","121.517211666667","24.9980533333333","6500400","永和區"
"234072","AAC-211","2019/12/19 13:29:52","新北市永和區光復街60巷25號","121.517798333333","25.0175566666667","6500400","永和區"
"234066","AAC-212","2019/12/19 13:29:42","新北市永和區保平路113號","121.5109","25.0066716666667","6500400","永和區"
"234001","AAC-295","2019/12/19 13:29:46","新北市永和區永和路一段118號","121.514031666667","25.0078133333333","6500400","永和區"
"244003","248-BX","2019/12/19 13:29:49","新北市林口區瑞平里8鄰54號","121.339866666667","25.1252483333333","6501700","林口區"
"243007","680-BX","2019/12/19 13:29:43","新北市泰山區黎明路25號","121.42209","25.0606333333333","6501600","泰山區"
"231030","002-UM","2019/12/19 13:29:39","新北市新店區安華路30巷3號","121.51909","24.9589366666667","6500600","新店區"
"231024","0291-UT","2019/12/19 13:29:37","新北市新店區中正路128巷15號","121.542611666667","24.9723816666667","6500600","新店區"
"231027","0293-UT","2019/12/19 13:29:39","新北市新店區環河路19巷7弄2號","121.537673333333","24.9606383333333","6500600","新店區"
"231005","046-UY","2019/12/19 13:29:40","新北市新店區安華路28-1號","121.519373333333","24.9609983333333","6500600","新店區"
"231029","106-UY","2019/12/19 13:29:40","新北市新店區安華路16號","121.51686","24.9580933333333","6500600","新店區"
"231018","107-UY","2019/12/19 13:29:53","新北市新店區中央路218號","121.52974","24.9731183333333","6500600","新店區"
"231013","108-UY","2019/12/19 13:29:40","新北市新店區環河路116號","121.5371","24.966695","6500600","新店區"
"231036","110-UY","2019/12/19 13:29:53","新北市新店區安祥路190巷19號","121.47812","24.9555316666667","6500600","新店區"
"231017","KEA-2219","2019/12/19 13:29:50","新北市新店區新烏路一段11巷1弄2號","121.547326666667","24.951345","6500600","新店區"
"231031","256-BX","2019/12/19 13:29:53","新北市新店區僑信路2巷10號","121.499521666667","24.9536816666667","6500600","新店區"
"231023","260-TV","2019/12/19 13:29:41","新北市新店區新店路13號","121.540281666667","24.9529133333333","6500600","新店區"
"231003","268-BY","2019/12/19 13:29:49","新北市新店區中興路二段203號","121.548218333333","24.9741466666667","6500600","新店區"
"231035","278-BY","2019/12/19 13:29:44","新北市新店區安康路一段266巷4號","121.519885","24.9640716666667","6500600","新店區"
"231006","355-BY","2019/12/19 13:29:49","新北市新店區安華路28-1號","121.5193","24.960905","6500600","新店區"
"231025","4715-K9","2019/12/19 13:29:44","新北市新店區中央五街38號","121.528473333333","24.9749966666667","6500600","新店區"
"231021","515-UM","2019/12/19 13:29:38","新北市新店區安一路一段1-1號","121.519311666667","24.9611733333333","6500600","新店區"
"231002","619-UM","2019/12/19 13:29:52","新北市新店區安康路一段17號","121.533093333333","24.9604033333333","6500600","新店區"
"231034","641-BX","2019/12/19 13:29:54","新北市新店區安華路28-1號","121.519513333333","24.96054","6500600","新店區"
"231011","KED-0819","2019/12/19 13:29:53","新北市新店區光明街205號","121.539961666667","24.9637","6500600","新店區"
"231010","719-UM","2019/12/19 13:29:46","新北市新店區中正路341號","121.535636666667","24.97536","6500600","新店區"
"231026","720-UM","2019/12/19 13:29:48","新北市新店區安一路一段1-1號","121.519705","24.96192","6500600","新店區"
"231028","897-TW","2019/12/19 13:29:52","新北市新店區安華路28-1號","121.51964","24.9607216666667","6500600","新店區"
"231001","898-TW","2019/12/19 13:29:40","新北市新店區安華路28-1號","121.519586666667","24.9609783333333","6500600","新店區"
"231037","AKT-0513","2019/12/19 13:29:33","新北市新店區薏仁坑路33號","121.494005","24.962295","6500600","新店區"
"235028","005-UY","2019/12/19 13:29:36","新北市中和區連城路136號","121.495706666667","24.99906","6500300","中和區"
"235027","006-UY","2019/12/19 13:29:49","新北市中和區連城路347巷2弄3-3號","121.488053333333","24.9957766666667","6500300","中和區"
"235036","KEE-1103","2019/12/19 13:29:43","新北市中和區連城路237-1號","121.493826666667","24.9973766666667","6500300","中和區"
"235020","096-UM","2019/12/19 13:29:43","新北市中和區中山路二段550號","121.484126666667","25.0052816666667","6500300","中和區"
"235003","097-UM","2019/12/19 13:29:42","新北市中和區景平路170號","121.51699","24.9924966666667","6500300","中和區"
"235029","098-UM","2019/12/19 13:29:48","新北市中和區中山路二段64巷16弄2號","121.503315","25.005765","6500300","中和區"
"235004","150-BY","2019/12/19 13:29:53","新北市中和區保健路50巷62-1號","121.509375","24.995245","6500300","中和區"
"235022","151-BY","2019/12/19 13:29:50","新北市中和區圓通路369巷66號","121.490553333333","24.9824566666667","6500300","中和區"
"235019","183-VK","2019/12/19 13:29:34","新北市中和區國光街8巷7號","121.471581666667","25.0006816666667","6500300","中和區"
"235002","185-VK","2019/12/19 13:29:46","新北市中和區自強路20號","121.520173333333","24.9954183333333","6500300","中和區"
"235031","255-BX","2019/12/19 13:29:43","新北市中和區新生街220巷15弄2號","121.482898333333","24.9978766666667","6500300","中和區"
"235035","301-VK","2019/12/19 13:29:51","新北市中和區環中路138號","121.482293333333","25.0134833333333","6500300","中和區"
"235007","352-BY","2019/12/19 13:29:36","新北市中和區景平路243號","121.509356666667","24.9927633333333","6500300","中和區"
"235006","KEA-2878","2019/12/19 13:29:44","新北市中和區秀朗路三段175巷1號","121.524715","24.991395","6500300","中和區"
"235014","4979-A6","2019/12/19 13:29:53","新北市中和區景新街362巷5號","121.511958333333","24.9900866666667","6500300","中和區"
"235033","4980-A6","2019/12/19 13:29:35","新北市中和區連城路99巷74號","121.497415","24.99821","6500300","中和區"
"235032","551-UM","2019/12/19 13:29:47","新北市中和區中正路271-5號","121.495808333333","24.99329","6500300","中和區"
"235034","558-UM","2019/12/19 13:29:41","新北市中和區景新街131號","121.505871666667","24.9973333333333","6500300","中和區"
"235009","565-BX","2019/12/19 13:29:47","新北市中和區南山路236-2號","121.506185","24.9893366666667","6500300","中和區"
"235024","KED-0823","2019/12/19 13:29:52","新北市中和區中山路三段116號","121.475946666667","25.0059483333333","6500300","中和區"
"235018","640-BX","2019/12/19 13:29:38","新北市中和區民享街32巷8號","121.473503333333","25.0032633333333","6500300","中和區"
"235011","732-UM","2019/12/19 13:29:36","新北市中和區南山路493號","121.507941666667","24.9878966666667","6500300","中和區"
"235010","733-UM","2019/12/19 13:29:50","新北市中和區捷運路3號","121.509475","24.9893683333333","6500300","中和區"
"235026","800-TS","2019/12/19 13:29:41","新北市中和區景平路677巷5號","121.49622","25.0027366666667","6500300","中和區"
"235021","801-TS","2019/12/19 13:29:42","新北市中和區員山路327巷1號","121.480815","25.0012683333333","6500300","中和區"
"235005","802-TS","2019/12/19 13:29:52","新北市中和區中和路320號","121.509748333333","25.0006766666667","6500300","中和區"
"235016","805-TS","2019/12/19 13:29:50","新北市中和區興南路二段122號","121.50442","24.9837833333333","6500300","中和區"
"235012","896-TW","2019/12/19 13:29:42","新北市中和區中正路589巷15號","121.48571","24.9935166666667","6500300","中和區"
"235017","900-TW","2019/12/19 13:29:47","新北市土城區金城路三段216號","121.472141666667","24.99009","6500300","中和區"
"235015","157-BY","2019/12/19 13:29:50","新北市中和區興南路二段114巷10弄1號","121.503925","24.985065","6500300","中和區"
"235001","AAC-213","2019/12/19 13:29:40","新北市中和區景德街40號","121.517776666667","24.99146","6500300","中和區"
"235023","AAC-215","2019/12/19 13:29:45","新北市中和區員山路36巷16-3號","121.484993333333","24.9914183333333","6500300","中和區"
"220002","015-TV","2019/12/19 13:29:44","新北市板橋區華東街1-9號","121.448115","24.9949916666667","6500100","板橋區"
"220013","072-UY","2019/12/19 13:29:54","新北市板橋區縣民大道一段96-1號","121.456346666667","25.0049716666667","6500100","板橋區"
"220017","AAD-861","2019/12/19 13:29:49","新北市板橋區南雅南路二段120-7號","121.452128333333","24.99951","6500100","板橋區"
"247005","893-R6","2019/12/19 13:29:44","新北市五股區中興路三段5號","121.449886666667","25.0794266666667","6501400","蘆洲區"
"247013","056-VK","2019/12/19 13:29:47","新北市五股區中興路三段2巷10號","121.449241666667","25.0810683333333","6501400","蘆洲區"
"235013","251-BX","2019/12/19 13:29:46","新北市中和區景安路125號","121.505731666667","24.9961316666667","6500300","中和區"
"223004","437-BY","2019/12/19 13:24:56","新北市石碇區小粗坑(潭邊里)9-2號","121.679065","24.9861383333333","6501900","石碇區"
"228005","097-TW","2019/12/19 13:29:38","新北市貢寮區美豐里文秀坑8號","121.902571666667","25.0504316666667","6502600","貢寮區"
"228004","212-TW","2019/12/19 13:29:37","新北市貢寮區龍崗里石壁坑街17號","121.91046","24.9896066666667","6502600","貢寮區"
"253003","6232-TK","2019/12/19 13:29:46","新北市石門區內石門50-4號","121.570298333333","25.26328","6502200","石門區"
"253004","6251-TK","2019/12/19 13:29:34","新北市石門區竹子湖11號","121.618165","25.2575983333333","6502200","石門區"
"253002","637-UY","2019/12/19 13:29:41","新北市石門區九芎林8號","121.564411666667","25.265125","6502200","石門區"
"253001","KEC-0718","2019/12/19 13:29:55","新北市石門區白沙灣別墅31號","121.510793333333","25.2778533333333","6502200","石門區"
"207002","749-BX","2019/12/19 13:29:52","新北市萬里區崁腳里崁腳路166號","121.645066666667","25.1558333333333","6502800","萬里區"
"252005","073-UM","2019/12/19 13:29:40","新北市三芝區福德里土地公埔67-6號","121.518505","25.22754","6502100","三芝區"
"207001","662-BX","2019/12/19 13:29:38","新北市萬里區野柳里八斗60號","121.671096666667","25.2015483333333","6502800","萬里區"
"247011","KED-0683","2019/12/19 13:29:41","新北市五股區中興路三段163號","121.449375","25.080885","6501400","蘆洲區"
"220027","145-BY","2019/12/19 13:29:53","新北市板橋區華東街1-10號","121.448346666667","24.9950833333333","6500100","板橋區"
"220030","610-BX","2019/12/19 13:29:40","新北市板橋區華東街1-10號","121.44827","24.9949483333333","6500100","板橋區"
"220004","276-BY","2019/12/19 13:29:39","新北市板橋區四川路二段130巷24號","121.449523333333","24.994275","6500100","板橋區"
"220043","285-UM","2019/12/19 13:29:38","新北市板橋區民生路二段161巷1號","121.470136666667","25.01984","6500100","板橋區"
"220031","286-VK","2019/12/19 13:29:52","新北市板橋區華東街1-10號","121.44836","24.995115","6500100","板橋區"
"220029","287-VK","2019/12/19 13:29:42","新北市板橋區華東街1-10號","121.448246666667","24.995035","6500100","板橋區"
"220032","296-UM","2019/12/19 13:29:36","新北市板橋區華東街1-9號","121.448176666667","24.9949583333333","6500100","板橋區"
"220104","560-BX","2019/12/19 13:29:41","新北市板橋區南雅南路二段90號","121.453621666667","25.0014283333333","6500100","板橋區"
"220005","686-BX","2019/12/19 13:29:42","新北市板橋區大觀路2段435-7號","121.447911666667","24.9955683333333","6500100","板橋區"
"220025","687-BX","2019/12/19 13:29:50","新北市板橋區篤行路一段29號","121.431983333333","24.9946533333333","6500100","板橋區"
"220022","895-R6","2019/12/19 13:29:35","新北市板橋區南雅南路二段140號","121.451781666667","24.9962483333333","6500100","板橋區"
"220021","985-R7","2019/12/19 13:29:38","新北市板橋區四川路二段140巷2號","121.449731666667","24.9931466666667","6500100","板橋區"
"220046","AAC-210","2019/12/19 13:29:43","新北市板橋區民生路二段120號","121.470378333333","25.0196516666667","6500100","板橋區"
"220012","AAC-253","2019/12/19 13:29:49","新北市板橋區縣民大道一段193號","121.459345","25.0083566666667","6500100","板橋區"
"235025","KEA-2875","2019/12/19 13:29:53","新北市中和區民享街114巷4號","121.474276666667","24.9993366666667","6500300","中和區"
