"lineid","car","time","location","longitude","latitude","cityid","cityname"
"234084","338-UY","2019/12/19 14:59:41","新北市五股區凌雲路三段24巷22號","121.433028333333","25.1077633333333","6500400","永和區"
"234025","9371-KE","2019/12/19 14:59:39","新北市永和區水源街21巷14弄4號","121.51138","25.003825","6500400","永和區"
"248015","026-BX","2019/12/19 14:59:55","新北市五股區凌雲路一段158巷39弄2號","121.44674","25.10383","6501500","五股區"
"248007","KED-0815","2019/12/19 14:59:45","新北市五股區國道路三段1號","121.469955","25.075035","6501500","五股區"
"248017","KED-0813","2019/12/19 14:59:54","新北市五股區登林路106巷8號","121.426925","25.07093","6501500","五股區"
"248010","272-BY","2019/12/19 14:59:53","新北市五股區成泰路一段2-6號","121.43411","25.0670966666667","6501500","五股區"
"248003","677-BX","2019/12/19 14:59:46","新北市五股區成泰路一段205號","121.435248333333","25.0769566666667","6501500","五股區"
"248001","678-BX","2019/12/19 14:59:54","新北市五股區新五路二段391號","121.44419","25.08898","6501500","五股區"
"243004","AAD-798","2019/12/19 14:59:45","新北市泰山區楓江路83巷1號","121.436748333333","25.0635233333333","6501600","泰山區"
"243010","297-R6","2019/12/19 14:43:50","新北市泰山區明志路二段254巷14號","121.426143333333","25.048005","6501600","泰山區"
"243006","KEA-2801","2019/12/19 14:59:47","新北市泰山區泰林路二段395號","121.427133333333","25.06429","6501600","泰山區"
"243008","421-VK","2019/12/19 14:59:49","新北市泰山區新生路33號","121.427626666667","25.04533","6501600","泰山區"
"243001","KEA-2215","2019/12/19 14:59:40","新北市泰山區泰林路二段290號","121.431073333333","25.062615","6501600","泰山區"
"243003","KEA-2216","2019/12/19 14:59:58","新北市泰山區壽山路158號","121.416748333333","25.03073","6501600","泰山區"
"243005","646-TV","2019/12/19 14:59:51","新北市泰山區中央路5巷40-2號","121.427953333333","25.042965","6501600","泰山區"
"243007","680-BX","2019/12/19 14:59:54","新北市泰山區仁愛路67號","121.433035","25.0555066666667","6501600","泰山區"
"231030","002-UM","2019/12/19 14:59:39","新北市新店區安民街337號","121.517193333333","24.9748683333333","6500600","新店區"
"231024","0291-UT","2019/12/19 14:59:57","新北市新店區中華路83巷67號","121.538351666667","24.96728","6500600","新店區"
"231027","0293-UT","2019/12/19 14:59:39","新北市新店區中正路328巷1號","121.536876666667","24.9753233333333","6500600","新店區"
"231005","046-UY","2019/12/19 14:59:40","新北市新店區復興路53號","121.5362","24.9872416666667","6500600","新店區"
"231029","106-UY","2019/12/19 14:59:40","新北市新店區錦秀路11巷64號","121.480746666667","24.9436133333333","6500600","新店區"
"231018","107-UY","2019/12/19 14:59:52","新北市新店區中央路192號","121.530851666667","24.974625","6500600","新店區"
"231013","108-UY","2019/12/19 14:59:40","新北市新店區北新路一段121號","121.539476666667","24.9627016666667","6500600","新店區"
"231036","110-UY","2019/12/19 14:59:52","新北市新店區安祥路102巷19號","121.484716666667","24.9645933333333","6500600","新店區"
"231017","KEA-2219","2019/12/19 14:59:50","新北市新店區北宜路三段66號","121.57525","24.9514616666667","6500600","新店區"
"231023","260-TV","2019/12/19 14:59:41","新北市新店區檳榔路150號","121.54426","24.961645","6500600","新店區"
"231003","268-BY","2019/12/19 14:59:49","新北市新店區中興路一段306號","121.546456666667","24.96991","6500600","新店區"
"231035","278-BY","2019/12/19 14:59:43","新北市新店區新和街75號","121.520535","24.98605","6500600","新店區"
"231006","355-BY","2019/12/19 14:59:49","新北市新店區中興路一段24-1號","121.538428333333","24.958035","6500600","新店區"
"231038","3712-VJ","2019/12/19 14:59:49","新北市新店區安華路28-1號","121.519658333333","24.9609066666667","6500600","新店區"
"231025","4715-K9","2019/12/19 14:59:44","新北市新店區大同街8巷17號","121.53917","24.98068","6500600","新店區"
"231039","512-UM","2019/12/19 14:59:52","新北市新店區中興路三段88號","121.545388333333","24.978725","6500600","新店區"
"231021","515-UM","2019/12/19 14:59:53","新北市新店區桂山路38號","121.558166666667","24.9029533333333","6500600","新店區"
"231004","618-UM","2019/12/19 14:59:41","新北市新店區民族路11號","121.541498333333","24.9787933333333","6500600","新店區"
"231002","619-UM","2019/12/19 14:59:52","新北市新店區中正路501-2號","121.533658333333","24.983735","6500600","新店區"
"231034","641-BX","2019/12/19 14:59:54","新北市新店區玫瑰路4-1號","121.493551666667","24.9514266666667","6500600","新店區"
"231011","KED-0819","2019/12/19 14:59:53","新北市新店區寶橋路85巷35號","121.545286666667","24.9763","6500600","新店區"
"231026","720-UM","2019/12/19 14:59:43","新北市新店區中正路148號","121.54169","24.9716266666667","6500600","新店區"
"231028","897-TW","2019/12/19 14:59:52","新北市新店區安康路二段243號","121.508033333333","24.95854","6500600","新店區"
"231001","898-TW","2019/12/19 14:59:53","新北市新店區中正路300號","121.537551666667","24.974515","6500600","新店區"
"231037","AKT-0513","2019/12/19 14:59:53","新北市新店區安民街138號","121.51655","24.9695516666667","6500600","新店區"
"235030","003-UY","2019/12/19 14:59:47","新北市中和區光華街36號","121.504926666667","25.0039716666667","6500300","中和區"
"235036","KEE-1103","2019/12/19 14:59:43","新北市中和區中山路二段3巷22弄11號","121.506185","25.0047016666667","6500300","中和區"
"235020","096-UM","2019/12/19 14:59:43","新北市中和區漢民路421號","121.47245","25.006805","6500300","中和區"
"235003","097-UM","2019/12/19 14:59:42","新北市中和區安樂路217巷40弄2號","121.513493333333","24.9980833333333","6500300","中和區"
"235029","098-UM","2019/12/19 14:59:48","新北市中和區永和路128巷47號","121.497731666667","25.00687","6500300","中和區"
"235004","150-BY","2019/12/19 14:59:53","新北市中和區保健路10巷3弄1號","121.50777","24.9976666666667","6500300","中和區"
"235019","183-VK","2019/12/19 14:59:54","新北市板橋區文化路二段656號","121.481073333333","25.0391033333333","6500300","中和區"
"235035","301-VK","2019/12/19 14:59:51","新北市中和區中正路758號","121.485305","24.9991333333333","6500300","中和區"
"235007","352-BY","2019/12/19 14:59:36","新北市中和區華新街232巷24號","121.50555","24.9825783333333","6500300","中和區"
"235006","KEA-2878","2019/12/19 14:59:44","新北市新店區安民街303巷22號","121.516271666667","24.9740166666667","6500300","中和區"
"235033","4980-A6","2019/12/19 14:59:55","新北市中和區景新街64巷11弄2號","121.50393","24.9983716666667","6500300","中和區"
"235032","551-UM","2019/12/19 14:59:46","新北市中和區福美路230號","121.499183333333","25.0053416666667","6500300","中和區"
"235034","558-UM","2019/12/19 14:59:41","新北市中和區中正路304號","121.494338333333","24.9940583333333","6500300","中和區"
"235010","733-UM","2019/12/19 14:59:50","新北市中和區興南路一段93巷58弄1號","121.510628333333","24.9859016666667","6500300","中和區"
"235016","805-TS","2019/12/19 14:59:50","新北市中和區華新街117號","121.507143333333","24.982055","6500300","中和區"
"235012","896-TW","2019/12/19 14:59:42","新北市中和區忠孝街1巷2-1號","121.509193333333","24.9830383333333","6500300","中和區"
"235015","157-BY","2019/12/19 14:59:49","新北市中和區捷運路59號","121.509138333333","24.9897366666667","6500300","中和區"
"235001","AAC-213","2019/12/19 14:59:40","新北市中和區自立路16-1號","121.522093333333","24.9937316666667","6500300","中和區"
"235023","AAC-215","2019/12/19 14:59:45","新北市中和區圓通路339號","121.49158","24.9905","6500300","中和區"
"220002","015-TV","2019/12/19 14:59:24","新北市板橋區忠孝路201巷94號","121.464713333333","25.0048033333333","6500100","板橋區"
"220013","072-UY","2019/12/19 14:59:49","新北市板橋區海山路29號","121.467623333333","25.0091033333333","6500100","板橋區"
"220034","073-UY","2019/12/19 14:59:41","新北市板橋區南雅西路二段7巷25號","121.451928333333","25.009475","6500100","板橋區"
"220105","075-UY","2019/12/19 14:59:45","新北市板橋區民治街126巷15號","121.477471666667","25.0315966666667","6500100","板橋區"
"223004","437-BY","2019/12/19 14:55:32","新北市石碇區小粗坑(潭邊里)9-2號","121.678678333333","24.9856","6501900","石碇區"
"228004","212-TW","2019/12/19 14:59:37","新北市貢寮區雙玉里田寮洋街24號","121.92875","25.0178166666667","6502600","貢寮區"
"253004","6251-TK","2019/12/19 14:59:53","新北市石門區茂林社區86號","121.59274","25.2695833333333","6502200","石門區"
"253002","637-UY","2019/12/19 14:59:41","新北市石門區楓林43號","121.541093333333","25.282885","6502200","石門區"
"207002","749-BX","2019/12/19 14:59:52","新北市萬里區崁腳里崁腳路73號","121.647605","25.15957","6502800","萬里區"
"252005","073-UM","2019/12/19 14:59:39","新北市三芝區埔坪里埔頭坑156號","121.509133333333","25.2496033333333","6502100","三芝區"
"207001","662-BX","2019/12/19 14:59:38","新北市萬里區雙興里豐稟路6-3號","121.650756666667","25.184375","6502800","萬里區"
"236040","KED-0685","2019/12/19 14:59:56","新北市土城區裕民路206號","121.453371666667","24.984615","6501300","土城區"
"236029","253-BX","2019/12/19 14:59:40","新北市土城區中央路二段278巷11-2號","121.439728333333","24.9748666666667","6501300","土城區"
"236024","269-VK","2019/12/19 14:59:42","新北市土城區中正路74巷3弄2號","121.444836666667","24.974715","6501300","土城區"
"236012","270-VK","2019/12/19 14:59:48","新北市土城區立德路13巷22號","121.46163","24.9888066666667","6501300","土城區"
"236032","271-VK","2019/12/19 14:59:49","新北市土城區清水路137號","121.458215","24.9815866666667","6501300","土城區"
"236068","KEA-2877","2019/12/19 14:59:50","新北市土城區裕生路65-1號","121.447481666667","24.9855583333333","6501300","土城區"
"236017","401-BY","2019/12/19 14:59:53","新北市土城區延吉街219號","121.468433333333","24.985245","6501300","土城區"
"236057","912-UM","2019/12/19 14:59:45","新北市土城區金城路二段208號","121.455235","24.98202","6501300","土城區"
"236045","913-UM","2019/12/19 14:59:46","新北市土城區青雲路318-1號","121.458943333333","24.9778283333333","6501300","土城區"
"236060","915-UM","2019/12/19 14:59:53","新北市土城區延和路41巷2弄16號","121.466628333333","24.9900316666667","6501300","土城區"
"236054","AAC-216","2019/12/19 14:59:52","新北市土城區裕民路76號","121.449728333333","24.9873066666667","6501300","土城區"
"238010","601-UM","2019/12/19 14:59:53","新北市樹林區八德街1016號","121.391288333333","24.9684416666667","6500700","樹林區"
"238006","599-UM","2019/12/19 14:59:54","新北市樹林區八德街1172號","121.390118333333","24.9682383333333","6500700","樹林區"
"238005","KEA-2217","2019/12/19 14:59:47","新北市樹林區八德街584號","121.398958333333","24.9693483333333","6500700","樹林區"
"238008","KEA-2539","2019/12/19 14:59:47","新北市樹林區佳園路二段6號","121.393708333333","24.9642216666667","6500700","樹林區"
"238012","303-VK","2019/12/19 14:59:57","新北市樹林區育德街78號","121.387471666667","24.9684966666667","6500700","樹林區"
"238004","283-BY","2019/12/19 14:59:51","新北市樹林區八德街65-2號","121.400473333333","24.9692733333333","6500700","樹林區"
"220027","145-BY","2019/12/19 14:59:53","新北市板橋區民權路202巷13弄30號","121.458731666667","25.0163016666667","6500100","板橋區"
"220028","200-UY","2019/12/19 14:59:47","新北市板橋區大觀路二段169巷23號","121.446613333333","24.9998416666667","6500100","板橋區"
"220030","610-BX","2019/12/19 14:59:40","新北市板橋區溪崑一街86號","121.42911","24.98946","6500100","板橋區"
"220050","245-BX","2019/12/19 14:59:51","新北市板橋區萬板路378號","121.478366666667","25.025355","6500100","板橋區"
"220004","276-BY","2019/12/19 14:59:39","新北市板橋區四川路二段99巷4弄2號","121.452865","24.9942116666667","6500100","板橋區"
"220020","277-BY","2019/12/19 14:59:44","新北市板橋區篤行路二段31巷8號","121.432246666667","24.99261","6500100","板橋區"
"220019","283-VK","2019/12/19 14:59:56","新北市板橋區五權街30巷14號","121.46432","24.993275","6500100","板橋區"
"220043","285-UM","2019/12/19 14:59:38","新北市板橋區文化路一段273號","121.464683333333","25.0183433333333","6500100","板橋區"
"220001","285-VK","2019/12/19 14:59:47","新北市板橋區永豐街66號","121.47504","25.01991","6500100","板橋區"
"220031","286-VK","2019/12/19 14:59:52","新北市板橋區僑中二街90巷16號","121.44552","25.0092833333333","6500100","板橋區"
"220029","287-VK","2019/12/19 14:59:42","新北市板橋區大觀路一段28巷91-1號","121.450116666667","25.0114266666667","6500100","板橋區"
"220039","288-VK","2019/12/19 14:59:40","新北市板橋區新海路72巷77號","121.461451666667","25.0231833333333","6500100","板橋區"
"220009","293-UM","2019/12/19 14:59:39","新北市板橋區中山路一段26號","121.460448333333","25.0084066666667","6500100","板橋區"
"220041","295-UM","2019/12/19 14:59:47","新北市板橋區文化路一段139號","121.461823333333","25.0156433333333","6500100","板橋區"
"220032","296-UM","2019/12/19 14:59:36","新北市板橋區滿平街2巷10號","121.425196666667","24.98941","6500100","板橋區"
"220023","303-R5","2019/12/19 14:59:41","新北市板橋區金華街3號","121.455536666667","25.0201","6500100","板橋區"
"220010","305-R5","2019/12/19 14:59:53","新北市板橋區中山路二段光榮巷30弄12號","121.484565","25.0205166666667","6500100","板橋區"
"220047","317-R6","2019/12/19 14:59:50","新北市板橋區裕民街133巷1號","121.459201666667","25.027125","6500100","板橋區"
"220038","487-VK","2019/12/19 14:59:36","新北市板橋區互助街47號","121.461026666667","25.0265533333333","6500100","板橋區"
"220037","491-VK","2019/12/19 14:59:43","新北市板橋區仁化街103號","121.476671666667","25.0322716666667","6500100","板橋區"
"220104","560-BX","2019/12/19 14:59:41","新北市板橋區金華街77號","121.45774","25.0208533333333","6500100","板橋區"
"220052","561-BX","2019/12/19 14:59:52","新北市板橋區漢生東路63巷27號","121.466843333333","25.01729","6500100","板橋區"
"220011","609-BX","2019/12/19 14:59:43","新北市板橋區中山路二段553巷4弄4號","121.483493333333","25.0226066666667","6500100","板橋區"
"220040","637-BX","2019/12/19 14:59:41","新北市板橋區懷德街174巷1-16號","121.478965","25.0293666666667","6500100","板橋區"
"220005","686-BX","2019/12/19 14:59:41","新北市板橋區德興街17號","121.453451666667","24.994295","6500100","板橋區"
"220025","687-BX","2019/12/19 14:59:50","新北市板橋區僑中一街120號","121.446003333333","25.0117366666667","6500100","板橋區"
"220042","689-BX","2019/12/19 14:59:44","新北市板橋區文化路二段652號","121.478765","25.0361733333333","6500100","板橋區"
"220051","KEA-2699","2019/12/19 14:59:51","新北市板橋區莒光路40巷18號","121.47003","25.0236183333333","6500100","板橋區"
"220003","827-TW","2019/12/19 14:59:51","新北市板橋區仁愛路78號","121.460555","24.9995166666667","6500100","板橋區"
"220016","830-TW","2019/12/19 14:59:41","新北市板橋區光復街234-1號","121.484616666667","25.0215183333333","6500100","板橋區"
"220014","831-TW","2019/12/19 14:59:41","新北市板橋區中山路一段206巷105號","121.472588333333","25.0136033333333","6500100","板橋區"
"220022","895-R6","2019/12/19 14:59:55","新北市板橋區文化路一段46巷23號","121.460381666667","25.0115066666667","6500100","板橋區"
"220021","985-R7","2019/12/19 14:59:46","新北市板橋區南雅西路二段153號","121.452101666667","25.0121116666667","6500100","板橋區"
"220046","AAC-210","2019/12/19 14:59:44","新北市板橋區光正街45巷6弄12號","121.461256666667","25.01707","6500100","板橋區"
"220012","AAC-253","2019/12/19 14:59:49","新北市板橋區館前東路154號","121.464723333333","25.008145","6500100","板橋區"
