"lineid","car","time","location","longitude","latitude","cityid","cityname"
"234001","395-TH","2019/12/19 16:13:24","新北市永和區保生路55-8號","121.503981666667","25.0104166666667","6500400","永和區"
"231018","107-UY","2019/12/19 16:13:12","新北市新店區中正路694巷15號","121.535335","24.9909283333333","6500600","新店區"
"231046","719-UM","2019/12/19 16:13:27","新北市新店區灣潭路2-28號","121.536611666667","24.9492783333333","6500600","新店區"
"231026","720-UM","2019/12/19 16:13:22","新北市新店區安康路一段3-1號","121.534471666667","24.9608516666667","6500600","新店區"
"231037","AKT-0513","2019/12/19 16:13:12","新北市新店區薏仁坑路自強巷1號","121.49773","24.9577083333333","6500600","新店區"
"241011","013-R5","2019/12/19 16:13:27","新北市三重區三和路三段58號","121.4954","25.0712966666667","6500200","三重區"
"241028","022-UY","2019/12/19 16:13:18","新北市三重區大同南路172巷26號","121.497878333333","25.0575116666667","6500200","三重區"
"241015","062-VK","2019/12/19 16:13:16","新北市三重區福德北路89號","121.501818333333","25.0661883333333","6500200","三重區"
"241017","063-VK","2019/12/19 16:13:11","新北市三重區民生街74號","121.490526666667","25.0649683333333","6500200","三重區"
"241024","065-VK","2019/12/19 16:13:27","新北市三重區力行路一段38巷6號","121.486011666667","25.067505","6500200","三重區"
"241007","066-VK","2019/12/19 16:13:28","新北市三重區三和路四段145巷9號","121.484563333333","25.0783333333333","6500200","三重區"
"241008","742-BX","2019/12/19 16:13:17","新北市三重區永福街72巷37-6號","121.480706666667","25.076295","6500200","三重區"
"241006","262-UM","2019/12/19 16:13:22","新北市三重區永福街46巷41弄57號","121.480961666667","25.0771283333333","6500200","三重區"
"241016","266-UM","2019/12/19 16:13:13","新北市三重區大仁街86號","121.492778333333","25.0653983333333","6500200","三重區"
"241018","268-UM","2019/12/19 16:13:24","新北市三重區中正北路83號","121.489901666667","25.063025","6500200","三重區"
"241013","270-UM","2019/12/19 16:13:17","新北市三重區三和路三段89號","121.494708333333","25.0722033333333","6500200","三重區"
"241020","478-VK","2019/12/19 16:13:24","新北市三重區力行路一段257號","121.48248","25.0708066666667","6500200","三重區"
"241026","480-VK","2019/12/19 16:13:23","新北市三重區正義南路50號","121.498231666667","25.0608016666667","6500200","三重區"
"241014","543-UM","2019/12/19 16:13:09","新北市三重區河邊北街80號","121.504515","25.0688","6500200","三重區"
"241023","545-UM","2019/12/19 16:13:24","新北市三重區中正北路145巷14號","121.484121666667","25.0678516666667","6500200","三重區"
"241001","547-UM","2019/12/19 16:13:06","新北市三重區自強路四段77號","121.49068","25.078875","6500200","三重區"
"241019","KEA-2593","2019/12/19 16:13:22","新北市三重區重陽路三段180號","121.490138333333","25.0680516666667","6500200","三重區"
"241005","AAD-863","2019/12/19 16:13:05","新北市三重區溪尾街305號","121.48755","25.0836633333333","6500200","三重區"
"241012","743-BX","2019/12/19 16:13:24","新北市三重區文化北路69號","121.498483333333","25.0667133333333","6500200","三重區"
"241025","KED-0670","2019/12/19 16:13:22","新北市三重區頂崁街153號","121.478175","25.06502","6500200","三重區"
"241029","942-UM","2019/12/19 16:13:09","新北市三重區中正南路236號","121.493423333333","25.0543966666667","6500200","三重區"
"241033","AAC-255","2019/12/19 16:13:08","新北市三重區中興南街80巷9號","121.471693333333","25.0436933333333","6500200","三重區"
"235026","800-TS","2019/12/19 16:13:20","新北市中和區中山路二段346號","121.493376666667","25.0023216666667","6500300","中和區"
"224007","285-BY","2019/12/19 16:13:27","新北市瑞芳區粗坑口路36號","121.761785","25.0992466666667","6501200","瑞芳區"
"224005","271-BY","2019/12/19 16:13:16","新北市瑞芳區傑魚坑路189號","121.788365","25.107845","6501200","瑞芳區"
"227002","642-TC","2019/12/19 16:13:21","新北市雙溪區上林里內平林80號","121.828281666667","25.0279333333333","6502500","雙溪區"
"227001","400-TW","2019/12/19 16:13:14","新北市雙溪區三港里雙澳路12號","121.869603333333","25.0484133333333","6502500","雙溪區"
"251008","181-VK","2019/12/19 16:13:09","新北市淡水區長興街2巷2號","121.443783333333","25.170435","6501000","淡水區"
"251013","182-VK","2019/12/19 16:13:25","新北市淡水區北新路40號","121.44555","25.1779216666667","6501000","淡水區"
"236057","912-UM","2019/12/19 16:13:25","新北市土城區中央路三段140號","121.433178333333","24.9655683333333","6501300","土城區"
"238006","599-UM","2019/12/19 16:13:13","新北市樹林區中華路172號","121.414731666667","24.9806166666667","6500700","樹林區"
"238011","5061-A6","2019/12/19 16:13:22","新北市樹林區中山路三段210-2號","121.38054","24.9678683333333","6500700","樹林區"
"238001","282-BY","2019/12/19 16:13:22","新北市樹林區中正路22-1號","121.427725","24.9994533333333","6500700","樹林區"
"238007","268-VK","2019/12/19 16:13:17","新北市樹林區三龍街144號","121.416888333333","25.018295","6500700","樹林區"
"238013","172-UY","2019/12/19 16:13:28","新北市樹林區佳園路一段39-1號","121.393316666667","24.9708916666667","6500700","樹林區"
