"lineid","car","time","location","longitude","latitude","cityid","cityname"
"234001","395-TH","2019/12/19 16:29:24","新北市永和區保生路55-8號","121.503941666667","25.010325","6500400","永和區"
"231046","719-UM","2019/12/19 16:29:27","新北市新店區灣潭路3-5號","121.538011666667","24.9507983333333","6500600","新店區"
"241011","013-R5","2019/12/19 16:29:27","新北市三重區龍濱路257號","121.50142","25.072825","6500200","三重區"
"241028","022-UY","2019/12/19 16:29:38","新北市三重區中正南路165號","121.49383","25.0559416666667","6500200","三重區"
"241031","061-VK","2019/12/19 16:29:37","新北市三重區重陽路一段108號","121.486723333333","25.0597133333333","6500200","三重區"
"241015","062-VK","2019/12/19 16:29:36","新北市三重區信義街59號","121.501243333333","25.0650466666667","6500200","三重區"
"241017","063-VK","2019/12/19 16:29:32","新北市三重區大同北路67號","121.49501","25.06359","6500200","三重區"
"241024","065-VK","2019/12/19 16:29:27","新北市三重區中正北路315巷16弄8號","121.475258333333","25.0716583333333","6500200","三重區"
"241007","066-VK","2019/12/19 16:29:28","新北市三重區三和路四段167巷99號","121.486966666667","25.0799716666667","6500200","三重區"
"241002","090-VK","2019/12/19 16:29:27","新北市三重區五華街37號","121.494541666667","25.0809466666667","6500200","三重區"
"241003","091-VK","2019/12/19 16:29:40","新北市三重區五華街57巷26號","121.493725","25.083005","6500200","三重區"
"241008","742-BX","2019/12/19 16:29:37","新北市三重區永福街177巷14號","121.478288333333","25.07519","6500200","三重區"
"241006","262-UM","2019/12/19 16:29:22","新北市三重區永福街10巷8號","121.482683333333","25.0778383333333","6500200","三重區"
"241016","266-UM","2019/12/19 16:29:33","新北市三重區自強路一段160巷2弄33號","121.494595","25.0658816666667","6500200","三重區"
"241009","267-UM","2019/12/19 16:29:39","新北市三重區三和路四段191巷74號","121.48416","25.0797433333333","6500200","三重區"
"241018","268-UM","2019/12/19 16:29:25","新北市三重區重陽路四段77號","121.492403333333","25.070795","6500200","三重區"
"241032","269-UM","2019/12/19 16:29:36","新北市三重區三陽路116巷4號","121.483095","25.0580933333333","6500200","三重區"
"241013","270-UM","2019/12/19 16:29:27","新北市三重區仁愛街50號","121.496055","25.0728166666667","6500200","三重區"
"241030","KED-0822","2019/12/19 16:29:29","新北市三重區成功路40號","121.489455","25.0505116666667","6500200","三重區"
"241004","475-VK","2019/12/19 16:29:41","新北市三重區仁愛街377巷64號","121.492623333333","25.0810283333333","6500200","三重區"
"241020","478-VK","2019/12/19 16:29:24","新北市三重區車路頭街37巷3號","121.48397","25.0716266666667","6500200","三重區"
"241026","480-VK","2019/12/19 16:29:23","新北市三重區中央南路95巷19-1號","121.500783333333","25.0606133333333","6500200","三重區"
"241014","543-UM","2019/12/19 16:29:28","新北市三重區河邊北街72-6號","121.504318333333","25.0684483333333","6500200","三重區"
"241023","545-UM","2019/12/19 16:29:24","新北市三重區忠孝路三段50巷43號","121.482895","25.064495","6500200","三重區"
"241001","547-UM","2019/12/19 16:29:26","新北市三重區福隆路47號","121.490816666667","25.0776","6500200","三重區"
"241019","KEA-2593","2019/12/19 16:29:21","新北市三重區重陽路三段142-1號","121.489411666667","25.0672166666667","6500200","三重區"
"241005","AAD-863","2019/12/19 16:29:25","新北市三重區碧華街186號","121.48617","25.082085","6500200","三重區"
"241012","743-BX","2019/12/19 16:29:37","新北市三重區河邊北街379-1號","121.50178","25.0765416666667","6500200","三重區"
"241022","KED-0820","2019/12/19 16:29:37","新北市三重區新北大道一段88號","121.485963333333","25.0615466666667","6500200","三重區"
"241025","KED-0670","2019/12/19 16:29:43","新北市三重區頂崁街210巷88號","121.473793333333","25.0681466666667","6500200","三重區"
"241029","942-UM","2019/12/19 16:29:29","新北市三重區集美街126巷26號","121.489993333333","25.0538716666667","6500200","三重區"
"241033","AAC-255","2019/12/19 16:29:28","新北市三重區重新路五段416號","121.475363333333","25.047995","6500200","三重區"
"235026","800-TS","2019/12/19 16:29:40","新北市中和區建八路125巷6弄2號","121.489733333333","24.9988833333333","6500300","中和區"
"224007","285-BY","2019/12/19 16:29:33","新北市瑞芳區瑞竹路36巷4號","121.764281666667","25.104185","6501200","瑞芳區"
"224009","275-VK","2019/12/19 16:29:28","新北市瑞芳區民權街3-1號","121.809173333333","25.10838","6501200","瑞芳區"
"224005","271-BY","2019/12/19 16:29:37","新北市瑞芳區阿美家園26號","121.82156","25.1166183333333","6501200","瑞芳區"
"227002","642-TC","2019/12/19 16:29:21","新北市雙溪區外柑里外柑腳35號","121.810178333333","25.018885","6502500","雙溪區"
"227001","400-TW","2019/12/19 16:29:34","新北市雙溪區牡丹里五分11號","121.86531","25.04768","6502500","雙溪區"
"251015","KEA-2871","2019/12/19 16:29:36","新北市淡水區中正路一段21號","121.426358333333","25.1762866666667","6501000","淡水區"
"251016","180-VK","2019/12/19 16:29:27","新北市淡水區中正路二段31號","121.419488333333","25.1815766666667","6501000","淡水區"
"251008","181-VK","2019/12/19 16:29:29","新北市淡水區民生路60號","121.462126666667","25.1379566666667","6501000","淡水區"
"251013","182-VK","2019/12/19 16:29:25","新北市淡水區北新路三段171-1號","121.491876666667","25.1914666666667","6501000","淡水區"
"251014","178-VK","2019/12/19 16:29:28","新北市淡水區沙崙路30號","121.421561666667","25.181505","6501000","淡水區"
"252002","KED-0821","2019/12/19 16:29:29","新北市三芝區智成街120號","121.506061666667","25.255365","6502100","三芝區"
"238023","601-UM","2019/12/19 16:29:32","新北市樹林區中山路三段210-2號","121.38055","24.9667683333333","6500700","樹林區"
"238006","599-UM","2019/12/19 16:29:33","新北市樹林區中華路341-3號","121.415396666667","24.9801083333333","6500700","樹林區"
"238025","303-VK","2019/12/19 16:29:37","新北市樹林區中正路22-1號","121.42787","24.999355","6500700","樹林區"
"238001","282-BY","2019/12/19 16:29:42","新北市樹林區中正路22-1號","121.427806666667","24.999465","6500700","樹林區"
