"lineid","car","time","location","longitude","latitude","cityid","cityname"
"249005","172-UM","2019/12/19 17:13:41","新北市八里區華富山30-1號","121.419035","25.1296983333333","6502300","八里區"
"249001","173-UM","2019/12/19 17:13:30","新北市八里區中華路二段165巷21號","121.408846666667","25.1502783333333","6502300","八里區"
"249004","303-UY","2019/12/19 17:13:21","新北市八里區文化街131號","121.421983333333","25.1600633333333","6502300","八里區"
"249002","305-UY","2019/12/19 17:13:22","新北市八里區龍米路二段115號","121.447043333333","25.143105","6502300","八里區"
"249003","593-UM","2019/12/19 17:13:39","新北市八里區中山路二段435號","121.396861666667","25.1460016666667","6502300","八里區"
"244007","080-UY","2019/12/19 17:13:40","新北市林口區菁埔20號","121.377775","25.0965133333333","6501700","林口區"
"244019","402-UM","2019/12/19 17:13:39","新北市林口區文化二路一段378號","121.374113333333","25.07637","6501700","林口區"
"244013","KEA-2802","2019/12/19 17:13:34","新北市林口區粉寮69號","121.40481","25.09077","6501700","林口區"
"244023","483-VK","2019/12/19 17:13:39","新北市林口區仁愛路一段667巷1號","121.387738333333","25.0763733333333","6501700","林口區"
"244017","485-VK","2019/12/19 17:13:31","新北市林口區粉寮路二段221號","121.404256666667","25.090645","6501700","林口區"
"244009","657-BX","2019/12/19 17:13:42","新北市林口區文化北路二段550巷30弄8號","121.378933333333","25.0917066666667","6501700","林口區"
"244011","701-TV","2019/12/19 17:13:26","新北市林口區仁愛路一段246號","121.395768333333","25.075835","6501700","林口區"
"244025","837-TS","2019/12/19 17:13:25","新北市林口區文化三路一段460號","121.369291666667","25.0748033333333","6501700","林口區"
"244021","838-TS","2019/12/19 17:13:33","新北市林口區粉寮路二段128號","121.404518333333","25.09036","6501700","林口區"
"231046","719-UM","2019/12/19 17:13:27","新北市新店區直潭七街60號","121.532258333333","24.9398983333333","6500600","新店區"
"241011","013-R5","2019/12/19 17:13:27","新北市三重區仁愛街44號","121.49633","25.0721783333333","6500200","三重區"
"241028","022-UY","2019/12/19 17:13:37","新北市三重區仁化商場3號","121.49351","25.05953","6500200","三重區"
"241015","062-VK","2019/12/19 17:13:36","新北市三重區長生街28號","121.499513333333","25.0664083333333","6500200","三重區"
"241024","065-VK","2019/12/19 17:13:27","新北市三重區中正北路171號","121.478175","25.0694183333333","6500200","三重區"
"241007","066-VK","2019/12/19 17:13:27","新北市三重區三和路四段163巷1號","121.483551666667","25.0786616666667","6500200","三重區"
"241002","090-VK","2019/12/19 17:13:31","新北市三重區自強路五段5號","121.492308333333","25.0803","6500200","三重區"
"241003","091-VK","2019/12/19 17:13:40","新北市三重區富福街83號","121.492708333333","25.0850433333333","6500200","三重區"
"241008","742-BX","2019/12/19 17:13:37","新北市三重區力行路二段100巷4號","121.48162","25.074525","6500200","三重區"
"241006","262-UM","2019/12/19 17:13:22","新北市三重區車路頭街135號","121.48416","25.075775","6500200","三重區"
"241016","266-UM","2019/12/19 17:13:33","新北市三重區大同北路54巷5號","121.494033333333","25.0633916666667","6500200","三重區"
"241009","267-UM","2019/12/19 17:13:39","新北市三重區仁愛街688號","121.481726666667","25.0801466666667","6500200","三重區"
"241018","268-UM","2019/12/19 17:13:24","新北市三重區正義北路278-1號","121.49567","25.0690816666667","6500200","三重區"
"241032","269-UM","2019/12/19 17:13:36","新北市三重區興華街83號","121.484656666667","25.05982","6500200","三重區"
"241030","KED-0822","2019/12/19 17:13:34","新北市三重區集成路13號","121.488716666667","25.0521183333333","6500200","三重區"
"241004","475-VK","2019/12/19 17:13:41","新北市三重區五華街122巷19號","121.491105","25.0827583333333","6500200","三重區"
"241020","478-VK","2019/12/19 17:13:24","新北市三重區自強路三段33號","121.486985","25.0725916666667","6500200","三重區"
"241026","480-VK","2019/12/19 17:13:43","新北市三重區重新路二段36巷33號","121.500003333333","25.0622466666667","6500200","三重區"
"241014","543-UM","2019/12/19 17:13:28","新北市三重區河邊北街110巷66號","121.502226666667","25.0703716666667","6500200","三重區"
"241023","545-UM","2019/12/19 17:13:36","新北市三重區三民街156號","121.482366666667","25.0654083333333","6500200","三重區"
"241001","547-UM","2019/12/19 17:13:26","新北市三重區五華街1巷2號","121.495511666667","25.0796733333333","6500200","三重區"
"241019","KEA-2593","2019/12/19 17:13:41","新北市三重區三張街153號","121.48643","25.0695883333333","6500200","三重區"
"241005","AAD-863","2019/12/19 17:13:25","新北市三重區永安北路二段5巷13號","121.481926666667","25.0810516666667","6500200","三重區"
"241012","743-BX","2019/12/19 17:13:44","新北市三重區仁壽街154號","121.499945","25.0744866666667","6500200","三重區"
"241022","KED-0820","2019/12/19 17:13:37","新北市三重區重陽路二段34巷37號","121.485515","25.0640433333333","6500200","三重區"
"241025","KED-0670","2019/12/19 17:13:35","新北市三重區中正北路419號","121.470363333333","25.072235","6500200","三重區"
"241029","942-UM","2019/12/19 17:13:29","新北市三重區重新路三段89-5號","121.491708333333","25.0600166666667","6500200","三重區"
"241033","AAC-255","2019/12/19 17:13:28","新北市三重區中興北街219號","121.46904","25.0584916666667","6500200","三重區"
"247016","KEA-2869","2019/12/19 17:13:31","新北市蘆洲區光華路73巷6號","121.468196666667","25.0823933333333","6501400","蘆洲區"
"247010","KED-0682","2019/12/19 17:13:39","新北市蘆洲區鷺江街51號","121.477825","25.0825033333333","6501400","蘆洲區"
"207004","KEE-1107","2019/12/19 17:13:41","新北市萬里區萬里里獅頭路23號","121.693236666667","25.178315","6502800","萬里區"
"247006","893-R6","2019/12/19 17:13:25","新北市蘆洲區長安街108巷19號","121.461786666667","25.0822666666667","6501400","蘆洲區"
"247020","546-UM","2019/12/19 17:13:27","新北市蘆洲區仁愛街18號","121.472336666667","25.0927166666667","6501400","蘆洲區"
"247022","341-TH","2019/12/19 17:13:38","新北市蘆洲區民義街9巷14號","121.471115","25.0889933333333","6501400","蘆洲區"
"247004","336-TH","2019/12/19 17:13:39","新北市蘆洲區長安街207巷24號","121.45925","25.0817666666667","6501400","蘆洲區"
"247024","057-VK","2019/12/19 17:13:40","新北市蘆洲區長榮路1號","121.463946666667","25.082","6501400","蘆洲區"
"247014","056-VK","2019/12/19 17:13:37","新北市蘆洲區得勝街64號","121.472746666667","25.0834883333333","6501400","蘆洲區"
"247018","053-VK","2019/12/19 17:13:38","新北市蘆洲區復興路100號","121.475866666667","25.0869483333333","6501400","蘆洲區"
"247008","002-UY","2019/12/19 17:13:28","新北市蘆洲區信義路30巷131號","121.47532","25.0767133333333","6501400","蘆洲區"
"247002","001-UY","2019/12/19 17:13:39","新北市蘆洲區永樂街38巷25號","121.458063333333","25.0890583333333","6501400","蘆洲區"
"228003","097-TW","2019/12/19 17:13:27","新北市貢寮區福隆里東興街10號","121.950786666667","25.018935","6502600","貢寮區"
"228001","212-TW","2019/12/19 17:13:35","新北市貢寮區仁理村尖山腳街4號","121.926208333333","25.0476666666667","6502600","貢寮區"
"228002","663-BX","2019/12/19 17:13:26","新北市貢寮區龍崗里嵩陽街38號","121.909638333333","25.0166866666667","6502600","貢寮區"
"224006","676-BX","2019/12/19 17:13:41","新北市瑞芳區大寮路63巷1-1號","121.78195","25.09709","6501200","瑞芳區"
"224009","275-VK","2019/12/19 17:13:25","新北市瑞芳區街頂巷36號","121.843548333333","25.110565","6501200","瑞芳區"
"224008","272-VK","2019/12/19 17:13:33","新北市瑞芳區柴寮路64號","121.82771","25.0873233333333","6501200","瑞芳區"
"224005","271-BY","2019/12/19 17:13:37","新北市瑞芳區鼻頭路115-1號","121.916306666667","25.12246","6501200","瑞芳區"
"227002","642-TC","2019/12/19 17:13:41","新北市雙溪區平林里梅竹蹊61號","121.850198333333","25.0318766666667","6502500","雙溪區"
"251009","008-UM","2019/12/19 17:13:29","新北市淡水區中正路330號","121.43605","25.173005","6501000","淡水區"
"251004","009-UM","2019/12/19 17:04:32","新北市淡水區中正東路二段88巷15號","121.459063333333","25.150505","6501000","淡水區"
"251005","010-UM","2019/12/19 17:13:27","新北市淡水區鄧公路19-1號","121.450251666667","25.1699516666667","6501000","淡水區"
"251015","KEA-2871","2019/12/19 17:13:35","新北市淡水區鄧公路36巷13號","121.455875","25.1691983333333","6501000","淡水區"
"251016","180-VK","2019/12/19 17:13:27","新北市淡水區鄒厝崙5-1號","121.470668333333","25.1871316666667","6501000","淡水區"
"251008","181-VK","2019/12/19 17:13:29","新北市淡水區民生路169號","121.469646666667","25.142105","6501000","淡水區"
"251013","182-VK","2019/12/19 17:13:25","新北市淡水區大埤頭9-1號","121.482416666667","25.1946983333333","6501000","淡水區"
"251010","413-VK","2019/12/19 17:13:35","新北市淡水區中正路二段31號","121.419523333333","25.1819766666667","6501000","淡水區"
"251012","441-VK","2019/12/19 17:13:32","新北市淡水區中山北路一段158號","121.444215","25.1778316666667","6501000","淡水區"
"251007","442-VK","2019/12/19 17:13:39","新北市淡水區民生路58號","121.462075","25.1378966666667","6501000","淡水區"
"251006","561-UM","2019/12/19 17:13:42","新北市淡水區新民街19巷12號","121.43845","25.1746516666667","6501000","淡水區"
"251011","650-BX","2019/12/19 17:13:29","新北市淡水區坪頂路50號","121.457943333333","25.1626033333333","6501000","淡水區"
"251003","766-UM","2019/12/19 17:13:42","新北市淡水區中正路二段31號","121.419301666667","25.18176","6501000","淡水區"
"251014","178-VK","2019/12/19 17:13:28","新北市淡水區八里堆12-1號","121.462238333333","25.2253433333333","6501000","淡水區"
"252001","292-VK","2019/12/19 17:13:40","新北市三芝區埔頭里埔頭15號","121.495106666667","25.2599666666667","6502100","三芝區"
"237010","706-TV","2019/12/19 17:13:38","新北市三峽區中山路459巷135號","121.34886","24.93322","6500900","三峽區"
"233002","762-BX","2019/12/19 17:13:44","新北市烏來區環山路153號","121.549056666667","24.85907","6502900","烏來區"
"252002","KED-0821","2019/12/19 17:13:29","新北市三芝區忠孝街1-14號","121.505526666667","25.2539516666667","6502100","三芝區"
"242042","AAC-296","2019/12/19 17:13:40","新北市新莊區三和路10號","121.441936666667","25.03594","6500500","新莊區"
"242061","986-R7","2019/12/19 17:13:28","新北市新莊區新泰路357巷3弄57號","121.442185","25.0392183333333","6500500","新莊區"
"242004","751-BX","2019/12/19 17:13:31","新北市新莊區三和路12-21號","121.442168333333","25.0385616666667","6500500","新莊區"
"242029","615-BX","2019/12/19 17:13:40","新北市新莊區幸福路914號","121.442605","25.04851","6500500","新莊區"
"242027","613-BX","2019/12/19 17:13:31","新北市泰山區磚雅厝3號","121.442353333333","25.042015","6500500","新莊區"
"242058","612-BX","2019/12/19 17:13:34","新北市新莊區新泰路357巷3弄57號","121.4421","25.039175","6500500","新莊區"
"242048","566-BX","2019/12/19 17:13:26","新北市新莊區福營路262號","121.425021666667","25.0284183333333","6500500","新莊區"
"242053","497-BY","2019/12/19 17:13:37","新北市新莊區新樹路67巷1號","121.442196666667","25.0300316666667","6500500","新莊區"
"242044","442-UM","2019/12/19 17:13:26","新北市新莊區中正路466號","121.43883","25.0333666666667","6500500","新莊區"
"242002","441-UM","2019/12/19 17:13:38","新北市新莊區新泰路357巷3弄1號","121.442388333333","25.0414783333333","6500500","新莊區"
"242013","413-TV","2019/12/19 17:13:36","新北市新莊區新泰路357巷3弄57號","121.44184","25.0394666666667","6500500","新莊區"
"242051","400-BY","2019/12/19 17:13:40","新北市新莊區中正路400號","121.441858333333","25.0342766666667","6500500","新莊區"
"242025","362-BY","2019/12/19 17:13:26","新北市新莊區新泰路357巷3弄5號","121.442436666667","25.041115","6500500","新莊區"
"242023","353-BY","2019/12/19 17:13:35","新北市新莊區三和路12-21號","121.44233","25.0384933333333","6500500","新莊區"
"242056","172-VK","2019/12/19 17:13:32","新北市新莊區新泰路357巷2號","121.44213","25.0415033333333","6500500","新莊區"
"242017","173-VK","2019/12/19 17:13:29","新北市新莊區三和路12-21號","121.441903333333","25.0387616666667","6500500","新莊區"
"242031","175-VK","2019/12/19 17:13:35","新北市新莊區三和路12-21號","121.44199","25.0386683333333","6500500","新莊區"
"242039","176-VK","2019/12/19 17:13:25","新北市新莊區中正路384-1號","121.441973333333","25.03526","6500500","新莊區"
"242007","346-TH","2019/12/19 17:13:38","新北市新莊區三和路12-21號","121.441985","25.03826","6500500","新莊區"
"242036","348-TH","2019/12/19 17:13:33","新北市新莊區三和路10號","121.441935","25.0357483333333","6500500","新莊區"
"242009","349-TH","2019/12/19 17:13:25","新北市新莊區三和路12-21號","121.442218333333","25.0383833333333","6500500","新莊區"
"242034","350-TH","2019/12/19 17:13:35","新北市新莊區新樹路67巷1號","121.442061666667","25.0300933333333","6500500","新莊區"
"242019","351-TH","2019/12/19 17:13:41","新北市新莊區三和路12-21號","121.44215","25.03806","6500500","新莊區"
"238023","601-UM","2019/12/19 17:13:32","新北市樹林區中正路433-1號","121.414961666667","25.0077666666667","6500700","樹林區"
"238019","599-UM","2019/12/19 17:13:33","新北市樹林區八德街1168號","121.390391666667","24.9682933333333","6500700","樹林區"
"238018","KEA-2217","2019/12/19 17:13:34","新北市樹林區博愛街223號","121.424093333333","24.9860233333333","6500700","樹林區"
"238022","KEA-2213","2019/12/19 17:13:35","新北市樹林區忠孝街31號","121.423755","24.9822","6500700","樹林區"
"238021","KEA-2539","2019/12/19 17:13:40","新北市樹林區西圳街一段165巷20弄11號","121.395691666667","24.960195","6500700","樹林區"
"238025","303-VK","2019/12/19 17:13:37","新北市樹林區千歲街57號","121.425748333333","24.996805","6500700","樹林區"
"238017","283-BY","2019/12/19 17:13:41","新北市樹林區光武街2-1號","121.415265","25.004025","6500700","樹林區"
"238014","282-BY","2019/12/19 17:13:22","新北市樹林區長壽街70巷3號","121.42161","24.9944516666667","6500700","樹林區"
"238026","172-UY","2019/12/19 17:13:38","新北市樹林區東豐街115號","121.405923333333","24.9744533333333","6500700","樹林區"
"238016","169-UY","2019/12/19 17:13:26","新北市樹林區中山路二段10號","121.417535","24.985","6500700","樹林區"
"239007","AAC-297","2019/12/19 17:13:41","新北市鶯歌區光復街76號","121.35123","24.95654","6500800","鶯歌區"
"239006","891-R6","2019/12/19 17:13:26","新北市鶯歌區八德路2巷20弄2號","121.336321666667","24.94667","6500800","鶯歌區"
"239008","527-UM","2019/12/19 17:13:29","新北市鶯歌區文化路110號","121.352355","24.9523516666667","6500800","鶯歌區"
"239005","526-UM","2019/12/19 17:13:28","新北市鶯歌區鶯桃路379號","121.333745","24.9633683333333","6500800","鶯歌區"
"239001","417-VK","2019/12/19 17:13:41","新北市鶯歌區尖山路156巷1-1號","121.345946666667","24.949","6500800","鶯歌區"
"239003","360-BY","2019/12/19 17:13:24","新北市鶯歌區德昌二街70巷32弄61號","121.330286666667","24.958265","6500800","鶯歌區"
"239002","359-BY","2019/12/19 17:13:38","新北市鶯歌區建國路260號","121.347563333333","24.95345","6500800","鶯歌區"
"239004","193-VK","2019/12/19 17:13:29","新北市鶯歌區文化路537號","121.353018333333","24.9479083333333","6500800","鶯歌區"
"233001","KEA-2870","2019/12/19 17:13:28","新北市烏來區西羅岸路49號","121.54642","24.8631133333333","6502900","烏來區"
"242046","281-VK","2019/12/19 17:13:31","新北市新莊區新樹路67巷3號","121.441635","25.0306716666667","6500500","新莊區"
"242011","280-VK","2019/12/19 17:13:34","新北市新莊區三和路12-21號","121.441943333333","25.0383533333333","6500500","新莊區"
