"lineid","car","time","location","longitude","latitude","cityid","cityname"
"234007","KED-0605","2019/12/19 17:59:36","新北市永和區福和路1號","121.5257","25.00946","6500400","永和區"
"234026","9371-KE","2019/12/19 17:59:37","新北市永和區水源街2巷15號","121.512093333333","25.00562","6500400","永和區"
"249005","172-UM","2019/12/19 17:59:34","新北市八里區荖阡坑路15-4號","121.399645","25.1412383333333","6502300","八里區"
"249001","173-UM","2019/12/19 17:59:30","新北市八里區龍米路二段35號","121.44841","25.1400183333333","6502300","八里區"
"249004","303-UY","2019/12/19 17:59:41","新北市八里區龍米路二段159-2號","121.438991666667","25.1541116666667","6502300","八里區"
"249002","305-UY","2019/12/19 17:59:42","新北市八里區龍形五街25號","121.449958333333","25.133435","6502300","八里區"
"249003","593-UM","2019/12/19 17:59:34","新北市八里區中華路二段165巷19弄6號","121.408958333333","25.1507866666667","6502300","八里區"
"248014","025-BX","2019/12/19 17:59:27","新北市五股區中興路四段40-3號","121.43876","25.0828216666667","6501500","五股區"
"248016","026-BX","2019/12/19 17:59:35","新北市五股區中興路二段83巷26-6號","121.459775","25.07534","6501500","五股區"
"248006","077-UY","2019/12/19 17:59:28","新北市五股區中興路二段147號","121.458338333333","25.0778966666667","6501500","五股區"
"248008","KED-0815","2019/12/19 17:59:27","新北市五股區中興路二段150號","121.458703333333","25.0784633333333","6501500","五股區"
"248020","KED-0813","2019/12/19 17:59:43","新北市五股區中興路二段63巷17號","121.460273333333","25.075495","6501500","五股區"
"248004","677-BX","2019/12/19 17:59:32","新北市五股區成泰路一段98巷102號","121.451238333333","25.0792233333333","6501500","五股區"
"248002","678-BX","2019/12/19 17:59:37","新北市五股區中興路二段63巷17號","121.460278333333","25.0753983333333","6501500","五股區"
"232011","375-UM","2019/12/19 17:59:44","新北市坪林區北宜路八段219號","121.70879","24.9349166666667","6502000","坪林區"
"244007","080-UY","2019/12/19 17:59:40","新北市林口區林口路124巷10弄3號","121.389116666667","25.081695","6501700","林口區"
"244019","402-UM","2019/12/19 17:59:39","新北市林口區文化一路一段100巷8弄6號","121.37364","25.0705183333333","6501700","林口區"
"244013","KEA-2802","2019/12/19 17:59:34","新北市林口區中山路40號","121.395458333333","25.07843","6501700","林口區"
"244023","483-VK","2019/12/19 17:59:39","新北市林口區東湖路105巷98號","121.38518","25.0712433333333","6501700","林口區"
"244017","485-VK","2019/12/19 17:59:30","新北市林口區忠孝路490號","121.370491666667","25.0704233333333","6501700","林口區"
"244009","657-BX","2019/12/19 17:59:42","新北市林口區竹林路606巷21弄4號","121.384833333333","25.0826933333333","6501700","林口區"
"244011","701-TV","2019/12/19 17:59:26","新北市林口區中正路39號","121.39586","25.0774233333333","6501700","林口區"
"244025","837-TS","2019/12/19 17:59:25","新北市林口區八德路408號","121.357881666667","25.065955","6501700","林口區"
"244021","838-TS","2019/12/19 17:59:33","新北市林口區仁愛路一段2-1號","121.397243333333","25.0681233333333","6501700","林口區"
"208001","267-VK","2019/12/19 17:59:35","新北市金山區磺港里磺港路160號","121.644796666667","25.2257716666667","6502700","金山區"
"222003","436-BY","2019/12/19 17:59:32","新北市深坑區炮子崙20-2號","121.606796666667","24.9899366666667","6501800","深坑區"
"222002","659-BX","2019/12/19 17:59:30","新北市深坑區文化街98號","121.617103333333","25.001915","6501800","深坑區"
"231055","0291-UT","2019/12/19 17:59:38","新北市新店區安華路28-1號","121.519698333333","24.960635","6500600","新店區"
"221031","KEA-2785","2019/12/19 17:59:26","新北市汐止區中興路96巷1-3號","121.635355","25.0625533333333","6501100","汐止區"
"231046","719-UM","2019/12/19 17:59:27","新北市新店區康雅崙路31號","121.537716666667","24.92596","6500600","新店區"
"231040","898-TW","2019/12/19 17:59:37","新北市新店區安華路28-1號","121.519411666667","24.960855","6500600","新店區"
"241016","266-UM","2019/12/19 17:59:33","新北市五股區五工一路104號","121.458126666667","25.0696833333333","6500200","三重區"
"241024","462-BY","2019/12/19 17:59:28","新北市三重區大勇街49號","121.481356666667","25.071875","6500200","三重區"
"241033","AAC-255","2019/12/19 17:59:28","新北市三重區光復路一段68巷48號","121.470251666667","25.0492333333333","6500200","三重區"
"235064","005-UY","2019/12/19 17:57:09","新北市中和區中正路527號","121.48768","24.9935016666667","6500300","中和區"
"235063","006-UY","2019/12/19 17:59:37","新北市中和區員山路36巷16-3號","121.485125","24.991315","6500300","中和區"
"235058","151-BY","2019/12/19 17:59:24","新北市中和區圓通路367巷33弄12號","121.494265","24.98488","6500300","中和區"
"235042","KEA-2878","2019/12/19 17:59:43","新北市中和區中正路637巷52弄1號","121.4855","24.993475","6500300","中和區"
"247016","KEA-2869","2019/12/19 17:59:31","新北市蘆洲區中正路185巷78弄17號","121.465753333333","25.0847833333333","6501400","蘆洲區"
"247010","KED-0682","2019/12/19 17:59:39","新北市蘆洲區信義路158-7號","121.479455","25.0838266666667","6501400","蘆洲區"
"235045","565-BX","2019/12/19 17:59:23","新北市中和區員山路36巷13號","121.484171666667","24.9910366666667","6500300","中和區"
"235060","KED-0823","2019/12/19 17:59:36","新北市中和區和城路一段271巷1號","121.485478333333","24.9918083333333","6500300","中和區"
"235054","640-BX","2019/12/19 17:59:41","新北市中和區連城路506號","121.477358333333","24.9923283333333","6500300","中和區"
"235047","732-UM","2019/12/19 17:59:38","新北市中和區中正路748號","121.485588333333","24.9984866666667","6500300","中和區"
"235062","800-TS","2019/12/19 17:59:35","新北市中和區中正路637巷52弄1號","121.485355","24.9937","6500300","中和區"
"235057","801-TS","2019/12/19 17:59:41","新北市中和區新生街262號","121.483723333333","24.9972866666667","6500300","中和區"
"235052","805-TS","2019/12/19 17:59:43","新北市中和區員山路36巷16-3號","121.484521666667","24.9911016666667","6500300","中和區"
"235038","911-UM","2019/12/19 17:59:40","新北市中和區中正路169號","121.498086666667","24.993735","6500300","中和區"
"235051","157-BY","2019/12/19 17:59:39","新北市中和區中正路637巷52弄1號","121.4856","24.9935133333333","6500300","中和區"
"235037","AAC-213","2019/12/19 17:59:37","新北市中和區景平路151號","121.513735","24.992105","6500300","中和區"
"207004","KEE-1107","2019/12/19 17:59:41","新北市萬里區萬里里瑪鋉路5號","121.68598","25.1749116666667","6502800","萬里區"
"247006","893-R6","2019/12/19 17:59:25","新北市蘆洲區中華街31號","121.463225","25.0814966666667","6501400","蘆洲區"
"247004","336-TH","2019/12/19 17:59:39","新北市蘆洲區永康街77號","121.45574","25.0851583333333","6501400","蘆洲區"
"247024","057-VK","2019/12/19 17:59:40","新北市蘆洲區光復路30巷31-1號","121.463608333333","25.0844133333333","6501400","蘆洲區"
"247014","056-VK","2019/12/19 17:59:43","新北市蘆洲區保和街28號","121.470441666667","25.0865416666667","6501400","蘆洲區"
"247018","053-VK","2019/12/19 17:59:38","新北市蘆洲區復興路189號","121.479183333333","25.0894316666667","6501400","蘆洲區"
"247008","002-UY","2019/12/19 17:59:28","新北市蘆洲區成功路52號","121.47302","25.079785","6501400","蘆洲區"
"247002","001-UY","2019/12/19 17:59:39","新北市蘆洲區永平街32巷55號","121.45987","25.092665","6501400","蘆洲區"
"226004","312-R5","2019/12/19 17:59:38","新北市平溪區石底里公園街18-3號","121.733335","25.0259716666667","6502400","平溪區"
"228003","097-TW","2019/12/19 17:59:27","新北市貢寮區真理里美艷山街6-2號","121.928933333333","25.0607416666667","6502600","貢寮區"
"228001","212-TW","2019/12/19 17:59:43","新北市貢寮區真理里新港街26巷31號","121.929158333333","25.05475","6502600","貢寮區"
"228002","663-BX","2019/12/19 17:59:26","新北市貢寮區福連里香蘭街3-4號","121.971843333333","25.02454","6502600","貢寮區"
"224006","676-BX","2019/12/19 17:59:41","新北市瑞芳區大寮路356-1號","121.784896666667","25.10316","6501200","瑞芳區"
"224009","275-VK","2019/12/19 17:59:46","新北市瑞芳區山尖路2號","121.854086666667","25.1162383333333","6501200","瑞芳區"
"224008","272-VK","2019/12/19 17:59:33","新北市瑞芳區明燈路一段45巷100號","121.820863333333","25.1042833333333","6501200","瑞芳區"
"224005","271-BY","2019/12/19 17:59:37","新北市瑞芳區深澳路197-3號","121.819625","25.133715","6501200","瑞芳區"
"227001","400-TW","2019/12/19 17:59:34","新北市雙溪區三貂里政光路3-1號","121.850771666667","25.0633816666667","6502500","雙溪區"
"253005","032-BX","2019/12/19 17:59:35","新北市石門區中山路62號","121.567706666667","25.2895066666667","6502200","石門區"
"253006","295-VK","2019/12/19 17:59:27","新北市石門區大丘田45-1號","121.549781666667","25.2750766666667","6502200","石門區"
"222001","KEA-2212","2019/12/19 17:59:44","新北市深坑區北深路二段189號","121.612155","25.0011783333333","6501800","深坑區"
"208002","KEA-2872","2019/12/19 17:59:34","新北市金山區三界壇路60號","121.620155","25.2306583333333","6502700","金山區"
"208003","665-BX","2019/12/19 17:59:34","新北市金山區磺港里磺港路202-1號","121.64515","25.2274933333333","6502700","金山區"
"251009","008-UM","2019/12/19 17:59:29","新北市淡水區中山路126號","121.441888333333","25.1709583333333","6501000","淡水區"
"251004","009-UM","2019/12/19 17:59:37","新北市淡水區民權路187巷5號","121.459728333333","25.13358","6501000","淡水區"
"251005","010-UM","2019/12/19 17:59:42","新北市淡水區英專路126號","121.446256666667","25.172405","6501000","淡水區"
"251002","012-UM","2019/12/19 17:59:28","新北市淡水區中山路18-1號","121.444671666667","25.16913","6501000","淡水區"
"251015","KEA-2871","2019/12/19 17:59:35","新北市淡水區興福寮31-1號","121.489858333333","25.16252","6501000","淡水區"
"251016","180-VK","2019/12/19 17:59:42","新北市淡水區淡金路三段46巷13弄1號","121.448258333333","25.199215","6501000","淡水區"
"251008","181-VK","2019/12/19 17:59:29","新北市淡水區八勢一街77號","121.461436666667","25.15507","6501000","淡水區"
"251013","182-VK","2019/12/19 17:59:45","新北市淡水區泉洲厝31號","121.479531666667","25.1910116666667","6501000","淡水區"
"251010","413-VK","2019/12/19 17:59:35","新北市淡水區中正路一段87巷1號","121.421606666667","25.1790483333333","6501000","淡水區"
"251012","441-VK","2019/12/19 17:59:31","新北市淡水區北新路三段38巷7號","121.484525","25.1869866666667","6501000","淡水區"
"251001","559-UM","2019/12/19 17:59:41","新北市淡水區民權路14號","121.463046666667","25.1246183333333","6501000","淡水區"
"251006","561-UM","2019/12/19 17:59:42","新北市淡水區新生街20-5號","121.438855","25.1739716666667","6501000","淡水區"
"251011","650-BX","2019/12/19 17:59:29","新北市淡水區小坪頂23-6號","121.485006666667","25.15585","6501000","淡水區"
"251003","766-UM","2019/12/19 17:59:32","新北市淡水區大忠街45號","121.444651666667","25.17636","6501000","淡水區"
"207003","291-VK","2019/12/19 17:59:29","新北市萬里區野柳里東澳路66號","121.692691666667","25.20088","6502800","萬里區"
"251014","178-VK","2019/12/19 17:59:28","新北市淡水區公埔子16-6號","121.481018333333","25.2245783333333","6501000","淡水區"
"252001","292-VK","2019/12/19 17:59:40","新北市三芝區中興街二段2號","121.49842","25.2566216666667","6502100","三芝區"
"237004","KEA-2597","2019/12/19 17:59:42","新北市三峽區大埔路171號","121.366655","24.905305","6500900","三峽區"
"237007","153-BY","2019/12/19 17:59:40","新北市三峽區中園街126-14號","121.367","24.9213183333333","6500900","三峽區"
"237009","210-TH","2019/12/19 17:59:38","新北市三峽區文化路185號","121.366983333333","24.9357516666667","6500900","三峽區"
"237013","252-BX","2019/12/19 17:59:33","新北市三峽區介壽路一段135號","121.376221666667","24.9316933333333","6500900","三峽區"
"237012","275-BY","2019/12/19 17:59:29","新北市三峽區民生街19巷1號","121.376263333333","24.9363483333333","6500900","三峽區"
"237008","302-VK","2019/12/19 17:59:24","新北市三峽區白雞38-19號","121.373406666667","24.9119116666667","6500900","三峽區"
"237014","433-BY","2019/12/19 17:59:37","新北市三峽區復興路101巷1弄79號","121.370951666667","24.9376266666667","6500900","三峽區"
"237006","5529-G3","2019/12/19 17:59:42","新北市三峽區介壽路二段138巷1弄126號","121.398241666667","24.9306633333333","6500900","三峽區"
"237011","KEA-2596","2019/12/19 17:59:33","新北市三峽區中正路一段27號","121.376008333333","24.93077","6500900","三峽區"
"237015","649-BX","2019/12/19 17:59:30","新北市三峽區紫微路139號","121.407181666667","24.9114966666667","6500900","三峽區"
"237010","706-TV","2019/12/19 17:59:38","新北市三峽區文化路266-4號","121.366561666667","24.9357916666667","6500900","三峽區"
"237005","AKY-6261","2019/12/19 17:59:36","新北市三峽區復興路239-2號","121.368181666667","24.9385","6500900","三峽區"
"236042","KED-0685","2019/12/19 17:59:42","新北市土城區城林路6巷80號","121.438521666667","24.9796016666667","6501300","土城區"
"233002","762-BX","2019/12/19 17:59:24","新北市烏來區烏來街101號","121.551425","24.8637033333333","6502900","烏來區"
"236030","253-BX","2019/12/19 17:59:42","新北市土城區城林路6巷80號","121.43845","24.9797566666667","6501300","土城區"
"236026","269-VK","2019/12/19 17:59:26","新北市土城區承天路47號","121.438905","24.9637683333333","6501300","土城區"
"236014","270-VK","2019/12/19 17:59:29","新北市土城區員福街52號","121.440395","24.9791516666667","6501300","土城區"
"236038","271-VK","2019/12/19 17:59:40","新北市土城區城林路6巷80號","121.43813","24.979605","6501300","土城區"
"247012","KED-0683","2019/12/19 17:59:28","新北市蘆洲區信義路302巷21號","121.478123333333","25.08843","6501400","蘆洲區"
"236070","KEA-2877","2019/12/19 17:59:37","新北市土城區青雲路474-2號","121.463836666667","24.9663233333333","6501300","土城區"
"252002","KED-0821","2019/12/19 17:59:29","新北市三芝區中山路二段40號","121.503005","25.25509","6502100","三芝區"
"236021","401-BY","2019/12/19 17:59:43","新北市土城區城林路6巷80號","121.438785","24.9796433333333","6501300","土城區"
"236059","912-UM","2019/12/19 17:59:44","新北市土城區中央路三段260號","121.4273","24.96398","6501300","土城區"
"236049","913-UM","2019/12/19 17:59:39","新北市土城區城林路6巷80號","121.438683333333","24.979685","6501300","土城區"
"236063","915-UM","2019/12/19 17:59:27","新北市土城區城林路6巷80號","121.438725","24.9796283333333","6501300","土城區"
"236055","AAC-216","2019/12/19 17:59:32","新北市土城區城林路6巷80號","121.438691666667","24.9796783333333","6501300","土城區"
"242042","AAC-296","2019/12/19 17:59:40","新北市新莊區中正路612-1號","121.426085","25.03012","6500500","新莊區"
"242061","986-R7","2019/12/19 17:59:38","新北市新莊區新樹路517號","121.432786666667","25.0104333333333","6500500","新莊區"
"242004","751-BX","2019/12/19 17:59:31","新北市新莊區思源路177巷31號","121.459228333333","25.0466616666667","6500500","新莊區"
"242029","615-BX","2019/12/19 17:59:39","新北市新莊區中平路82巷23號","121.44578","25.0453883333333","6500500","新莊區"
"242027","613-BX","2019/12/19 17:59:31","新北市新莊區思源路455號","121.45979","25.053475","6500500","新莊區"
"242058","612-BX","2019/12/19 17:59:34","新北市新莊區新北大道七段387號","121.412771666667","25.0262683333333","6500500","新莊區"
"242048","566-BX","2019/12/19 17:59:26","新北市新莊區萬安街49號","121.421506666667","25.0245566666667","6500500","新莊區"
"242053","497-BY","2019/12/19 17:59:37","新北市新莊區光華街48號","121.42864","25.01176","6500500","新莊區"
"242044","442-UM","2019/12/19 17:59:26","新北市新莊區雙鳳路111號","121.413843333333","25.027905","6500500","新莊區"
"242002","441-UM","2019/12/19 17:59:38","新北市新莊區新莊路152巷18號","121.454675","25.0364716666667","6500500","新莊區"
"242013","413-TV","2019/12/19 17:59:36","新北市新莊區中平路198巷31號","121.446595","25.048605","6500500","新莊區"
"242051","400-BY","2019/12/19 17:59:40","新北市新莊區龍安路498號","121.426606666667","25.0171783333333","6500500","新莊區"
"242025","362-BY","2019/12/19 17:59:26","新北市新莊區新北大道二段370號","121.462023333333","25.062485","6500500","新莊區"
"242023","353-BY","2019/12/19 17:59:35","新北市新莊區福壽街20號","121.458083333333","25.0479716666667","6500500","新莊區"
"242015","132-UY","2019/12/19 17:59:41","新北市新莊區中平路119巷18號","121.443985","25.046715","6500500","新莊區"
"242056","172-VK","2019/12/19 17:59:32","新北市新莊區豐年街124巷9號","121.445906666667","25.0297","6500500","新莊區"
"242017","173-VK","2019/12/19 17:59:29","新北市新莊區中和街60巷33號","121.449411666667","25.0449766666667","6500500","新莊區"
"242031","175-VK","2019/12/19 17:59:39","新北市新莊區新泰路305巷1號","121.445165","25.040975","6500500","新莊區"
"242039","176-VK","2019/12/19 17:59:25","新北市新莊區民安西路88巷2號","121.426446666667","25.0200066666667","6500500","新莊區"
"242007","346-TH","2019/12/19 17:59:38","新北市新莊區自信街65巷7號","121.455443333333","25.0487216666667","6500500","新莊區"
"242021","347-TH","2019/12/19 17:59:38","新北市新莊區中華路一段6號","121.452008333333","25.0365216666667","6500500","新莊區"
"242036","348-TH","2019/12/19 17:59:33","新北市新莊區後港一路65號","121.426481666667","25.0266083333333","6500500","新莊區"
"242009","349-TH","2019/12/19 17:59:25","新北市新莊區中原路187號","121.452896666667","25.0542866666667","6500500","新莊區"
"242034","350-TH","2019/12/19 17:59:35","新北市新莊區福海街12號","121.445276666667","25.033655","6500500","新莊區"
"242019","351-TH","2019/12/19 17:59:41","新北市新莊區明中街47巷15號","121.4569","25.038735","6500500","新莊區"
"238015","755-BX","2019/12/19 17:59:40","新北市樹林區大安路493號","121.414316666667","24.9867533333333","6500700","樹林區"
"238023","601-UM","2019/12/19 17:59:32","新北市樹林區龍興街34號","121.402961666667","25.015845","6500700","樹林區"
"238019","599-UM","2019/12/19 17:59:33","新北市樹林區太平路162號","121.418593333333","24.977565","6500700","樹林區"
"238018","KEA-2217","2019/12/19 17:59:34","新北市樹林區中正路7-1號","121.430265","24.9976083333333","6500700","樹林區"
"238022","KEA-2213","2019/12/19 17:59:35","新北市樹林區太平路150巷21號","121.417595","24.9775533333333","6500700","樹林區"
"238021","KEA-2539","2019/12/19 17:59:40","新北市樹林區柑園街一段277號","121.393746666667","24.956335","6500700","樹林區"
"238025","303-VK","2019/12/19 17:59:37","新北市樹林區三俊街72-1號","121.413565","25.01569","6500700","樹林區"
"238017","283-BY","2019/12/19 17:59:42","新北市樹林區中正路644號","121.409973333333","25.01621","6500700","樹林區"
"238014","282-BY","2019/12/19 17:59:41","新北市樹林區中正路59號","121.42662","25.0000233333333","6500700","樹林區"
"238020","268-VK","2019/12/19 17:59:37","新北市樹林區三俊街141號","121.418448333333","25.0155883333333","6500700","樹林區"
"238026","172-UY","2019/12/19 17:59:38","新北市樹林區中山路三段125-1號","121.397218333333","24.9735466666667","6500700","樹林區"
"238016","169-UY","2019/12/19 17:59:26","新北市樹林區育英街128號","121.419753333333","24.9893483333333","6500700","樹林區"
"239007","AAC-297","2019/12/19 17:59:41","新北市鶯歌區永樂街34號","121.342053333333","24.95382","6500800","鶯歌區"
"239006","891-R6","2019/12/19 17:59:26","新北市鶯歌區鳳鳴路105號","121.334385","24.966295","6500800","鶯歌區"
"239008","527-UM","2019/12/19 17:59:29","新北市鶯歌區欣欣街4號","121.335728333333","24.9774316666667","6500800","鶯歌區"
"239005","526-UM","2019/12/19 17:59:28","新北市鶯歌區鶯桃路658巷87號","121.331648333333","24.970775","6500800","鶯歌區"
"239001","417-VK","2019/12/19 17:59:41","新北市鶯歌區中正三路286-1號","121.328608333333","24.9357666666667","6500800","鶯歌區"
"239003","360-BY","2019/12/19 17:59:24","新北市鶯歌區永吉街46巷17號","121.335118333333","24.9574133333333","6500800","鶯歌區"
"239002","359-BY","2019/12/19 17:59:38","新北市鶯歌區光明街94號","121.346405","24.9558933333333","6500800","鶯歌區"
"221008","489-VK","2019/12/19 17:59:33","新北市汐止區康寧街753巷2弄8號","121.639275","25.0738966666667","6501100","汐止區"
"221015","131-UY","2019/12/19 17:59:42","新北市汐止區長江街213號","121.66059","25.0770133333333","6501100","汐止區"
"221010","269-BY","2019/12/19 17:59:35","新北市汐止區汐萬路二段247號","121.646485","25.0882533333333","6501100","汐止區"
"221012","278-VK","2019/12/19 17:59:44","新北市汐止區保長路1號","121.67102","25.0800733333333","6501100","汐止區"
"221023","279-VK","2019/12/19 17:59:39","新北市汐止區明峰街72號","121.631661666667","25.0711966666667","6501100","汐止區"
"221029","298-VK","2019/12/19 17:59:32","新北市汐止區樟樹二路338號","121.641511666667","25.0705","6501100","汐止區"
"221032","567-BX","2019/12/19 17:59:30","新北市汐止區民權街一段16號","121.621285","25.0536","6501100","汐止區"
"221035","622-UM","2019/12/19 17:59:36","新北市汐止區汐萬路一段220號","121.651818333333","25.0727733333333","6501100","汐止區"
"221025","623-UM","2019/12/19 17:59:38","新北市汐止區仁愛路17號","121.659225","25.0639666666667","6501100","汐止區"
"221038","646-BX","2019/12/19 17:59:43","新北市汐止區新台五路一段150號","121.653465","25.06208","6501100","汐止區"
"221033","647-BX","2019/12/19 17:59:29","新北市汐止區合順街37號","121.62067","25.0432283333333","6501100","汐止區"
"233001","KEA-2870","2019/12/19 17:59:28","新北市烏來區環山路41號","121.549375","24.8637166666667","6502900","烏來區"
"224002","257-TC","2019/12/19 17:59:35","新北市瑞芳區三爪子坑路32巷112號","121.80975","25.1058716666667","6501200","瑞芳區"
"242046","281-VK","2019/12/19 17:59:31","新北市新莊區福營路165巷51號","121.432975","25.029805","6500500","新莊區"
"242011","280-VK","2019/12/19 17:59:34","新北市新莊區中港路618-2號","121.45112","25.0544783333333","6500500","新莊區"
"235061","KEA-2875","2019/12/19 17:59:33","新北市土城區金城路三段269號","121.472353333333","24.9901166666667","6500300","中和區"
