"lineid","car","time","location","longitude","latitude","cityid","cityname"
"234046","148-BY","2019/12/19 18:29:42","新北市永和區豫溪街217巷21號","121.524755","25.0102616666667","6500400","永和區"
"234081","298-R6","2019/12/19 18:29:37","新北市永和區環河東路二段92號","121.524248333333","25.0106166666667","6500400","永和區"
"234070","552-UM","2019/12/19 18:29:28","新北市永和區福和路1號","121.526528333333","25.010005","6500400","永和區"
"234030","746-BX","2019/12/19 18:29:41","新北市永和區福和路1號","121.526485","25.0096266666667","6500400","永和區"
"234007","KED-0605","2019/12/19 18:29:33","新北市永和區環河西路二段219號","121.501206666667","25.010155","6500400","永和區"
"234013","KEA-2591","2019/12/19 18:29:31","新北市永和區豫溪街217巷19號","121.524873333333","25.0102233333333","6500400","永和區"
"234026","9371-KE","2019/12/19 18:29:17","新北市永和區永貞路417巷11號","121.506678333333","25.0091266666667","6500400","永和區"
"234011","9373-KE","2019/12/19 18:29:36","新北市永和區保福路二段158巷1號","121.509113333333","25.0150766666667","6500400","永和區"
"249005","172-UM","2019/12/19 18:29:34","新北市八里區中華路三段145巷5號","121.392095","25.1338316666667","6502300","八里區"
"249001","173-UM","2019/12/19 18:29:30","新北市八里區龍米路一段116-3號","121.453211666667","25.125005","6502300","八里區"
"249004","303-UY","2019/12/19 18:29:41","新北市八里區忠孝路86號","121.426046666667","25.1604366666667","6502300","八里區"
"249002","305-UY","2019/12/19 18:29:42","新北市八里區龍形二街52號","121.45031","25.133065","6502300","八里區"
"249003","593-UM","2019/12/19 18:29:34","新北市八里區博物館路137號","121.407785","25.1583783333333","6502300","八里區"
"248014","025-BX","2019/12/19 18:29:27","新北市五股區成泰路一段149-1號","121.435451666667","25.073305","6501500","五股區"
"248016","026-BX","2019/12/19 18:29:35","新北市五股區凌雲路一段83巷1-5號","121.450286666667","25.1006583333333","6501500","五股區"
"248008","KED-0815","2019/12/19 18:29:27","新北市五股區中興路二段52巷15-8號","121.462858333333","25.0779","6501500","五股區"
"248020","KED-0813","2019/12/19 18:29:43","新北市五股區孝義路80號","121.44956","25.11483","6501500","五股區"
"248012","247-BX","2019/12/19 18:29:42","新北市五股區御史路8號","121.442248333333","25.0904133333333","6501500","五股區"
"248010","272-BY","2019/12/19 18:29:28","新北市五股區水碓路16巷2號","121.433796666667","25.0725616666667","6501500","五股區"
"248004","677-BX","2019/12/19 18:29:32","新北市五股區六合街19號","121.431171666667","25.0886666666667","6501500","五股區"
"248002","678-BX","2019/12/19 18:29:37","新北市五股區西雲路142-1號","121.445873333333","25.09419","6501500","五股區"
"234077","969-R7","2019/12/19 18:29:29","新北市永和區福和路1號","121.526473333333","25.0098366666667","6500400","永和區"
"232011","375-UM","2019/12/19 18:29:44","新北市坪林區坪雙路一段41號","121.711775","24.9424183333333","6502000","坪林區"
"244007","080-UY","2019/12/19 18:29:40","新北市林口區後湖56-7號","121.384753333333","25.1034866666667","6501700","林口區"
"244019","402-UM","2019/12/19 18:29:39","新北市林口區忠孝路646巷28號","121.379101666667","25.067225","6501700","林口區"
"244013","KEA-2802","2019/12/19 18:29:40","新北市林口區中正路510號","121.38196","25.0771633333333","6501700","林口區"
"244023","483-VK","2019/12/19 18:29:39","新北市林口區仁愛路二段62巷15號","121.384128333333","25.0760833333333","6501700","林口區"
"244017","485-VK","2019/12/19 18:29:30","新北市林口區文化二路一段82號","121.366186666667","25.069465","6501700","林口區"
"244009","657-BX","2019/12/19 18:29:42","新北市林口區文化二路二段369號","121.380986666667","25.0868183333333","6501700","林口區"
"244011","701-TV","2019/12/19 18:29:26","新北市林口區仁愛路一段272巷21號","121.392065","25.0766883333333","6501700","林口區"
"244025","837-TS","2019/12/19 18:29:25","新北市林口區南勢六街71號","121.355008333333","25.07223","6501700","林口區"
"244021","838-TS","2019/12/19 18:29:32","新北市林口區自強三街25號","121.398016666667","25.0774166666667","6501700","林口區"
"208001","267-VK","2019/12/19 18:29:35","新北市金山區文化二路6號","121.636838333333","25.2246133333333","6502700","金山區"
"222003","436-BY","2019/12/19 18:29:32","新北市深坑區北深路一段288號","121.628155","25.00765","6501800","深坑區"
"222002","659-BX","2019/12/19 18:29:36","新北市深坑區雲鄉路113號","121.62355","24.9982616666667","6501800","深坑區"
"231055","0291-UT","2019/12/19 18:29:38","新北市新店區光明街215號","121.540091666667","24.9639366666667","6500600","新店區"
"231058","0293-UT","2019/12/19 18:29:39","新北市新店區環河路1-6號","121.538276666667","24.961195","6500600","新店區"
"231044","046-UY","2019/12/19 18:29:39","新北市新店區安華路28-1號","121.519458333333","24.9609583333333","6500600","新店區"
"231060","106-UY","2019/12/19 18:29:41","新北市新店區安華路28-1號","121.519578333333","24.960825","6500600","新店區"
"231051","107-UY","2019/12/19 18:29:31","新北市新店區安一路一段1-1號","121.519706666667","24.961145","6500600","新店區"
"231065","110-UY","2019/12/19 18:29:28","新北市新店區安一路一段1-1號","121.519366666667","24.9611466666667","6500600","新店區"
"231050","KEA-2219","2019/12/19 18:29:42","新北市新店區安一路一段1-1號","121.519758333333","24.9612266666667","6500600","新店區"
"221031","KEA-2785","2019/12/19 18:29:26","新北市汐止區大同路一段219巷25-1號","121.63313","25.059175","6501100","汐止區"
"231054","260-TV","2019/12/19 18:29:24","新北市新店區安一路一段1-1號","121.519303333333","24.961265","6500600","新店區"
"231042","268-BY","2019/12/19 18:29:34","新北市新店區安一路一段1-1號","121.519705","24.961365","6500600","新店區"
"231064","278-BY","2019/12/19 18:29:26","新北市新店區安華路28-1號","121.519828333333","24.9610583333333","6500600","新店區"
"231045","355-BY","2019/12/19 18:29:28","新北市新店區安華路28-1號","121.518916666667","24.9608883333333","6500600","新店區"
"231056","4715-K9","2019/12/19 18:29:32","新北市新店區二十張路129巷3弄1號","121.536203333333","24.978955","6500600","新店區"
"231067","4772-VM","2019/12/19 18:29:28","新北市新店區安華路28-1號","121.519221666667","24.9605816666667","6500600","新店區"
"231052","515-UM","2019/12/19 18:29:33","新北市新店區北宜路一段148號","121.5402","24.95395","6500600","新店區"
"231043","618-UM","2019/12/19 18:29:43","新北市新店區安華路28-1號","121.519313333333","24.9609166666667","6500600","新店區"
"231041","619-UM","2019/12/19 18:29:43","新北市新店區安華路28-1號","121.519485","24.960825","6500600","新店區"
"231063","641-BX","2019/12/19 18:29:29","新北市新店區安華路28-1號","121.519588333333","24.9606033333333","6500600","新店區"
"231047","KED-0819","2019/12/19 18:29:25","新北市新店區安華路28-1號","121.519791666667","24.9610433333333","6500600","新店區"
"231046","719-UM","2019/12/19 18:29:27","新北市新店區直潭七街60號","121.532278333333","24.9397483333333","6500600","新店區"
"231057","720-UM","2019/12/19 18:29:39","新北市新店區安一路一段1-1號","121.519236666667","24.9614816666667","6500600","新店區"
"231040","898-TW","2019/12/19 18:29:37","新北市新店區安華路28-1號","121.519436666667","24.960805","6500600","新店區"
"231066","AKT-0513","2019/12/19 18:29:32","新北市新店區安華路28-1號","121.519468333333","24.96059","6500600","新店區"
"241013","270-UM","2019/12/19 18:29:27","新北市三重區仁福街22號","121.49657","25.074525","6500200","三重區"
"235066","003-UY","2019/12/19 18:29:27","新北市中和區中山路二段120號","121.502878333333","25.00378","6500300","中和區"
"235064","005-UY","2019/12/19 18:29:29","新北市中和區連城路137號","121.495853333333","24.9987883333333","6500300","中和區"
"235063","006-UY","2019/12/19 18:29:37","新北市中和區連城路403號","121.486181666667","24.99615","6500300","中和區"
"235072","KEE-1103","2019/12/19 18:29:42","新北市中和區連城路103號","121.496321666667","24.9995116666667","6500300","中和區"
"235056","096-UM","2019/12/19 18:29:39","新北市中和區員山路611巷1號","121.477896666667","25.011265","6500300","中和區"
"235003","097-UM","2019/12/19 18:29:41","新北市中和區安樂路245號","121.514136666667","24.9995416666667","6500300","中和區"
"235065","098-UM","2019/12/19 18:29:28","新北市中和區莊敬路49巷20弄24號","121.50278","25.0058266666667","6500300","中和區"
"235040","150-BY","2019/12/19 18:29:23","新北市中和區保健路50巷68號","121.509161666667","24.9951416666667","6500300","中和區"
"235058","151-BY","2019/12/19 18:29:24","新北市中和區圓通路320號","121.487066666667","24.9882833333333","6500300","中和區"
"235055","183-VK","2019/12/19 18:29:27","新北市中和區民生街68號","121.468811666667","25.0050883333333","6500300","中和區"
"235067","255-BX","2019/12/19 18:29:41","新北市中和區中正路899號","121.484088333333","25.0049266666667","6500300","中和區"
"235071","301-VK","2019/12/19 18:29:28","新北市中和區員山路36巷12號","121.483988333333","24.99085","6500300","中和區"
"235043","352-BY","2019/12/19 18:29:30","新北市中和區景平路239巷1號","121.510041666667","24.9927366666667","6500300","中和區"
"235042","KEA-2878","2019/12/19 18:29:43","新北市中和區自立路56巷8號","121.52304","24.99176","6500300","中和區"
"235050","4979-A6","2019/12/19 18:29:27","新北市中和區景新街362巷3號","121.512106666667","24.9901133333333","6500300","中和區"
"235069","4980-A6","2019/12/19 18:29:41","新北市中和區連城路127巷7-3號","121.496423333333","24.9987933333333","6500300","中和區"
"235070","558-UM","2019/12/19 18:29:39","新北市中和區景平路590號","121.501063333333","24.9959283333333","6500300","中和區"
"235045","565-BX","2019/12/19 18:29:43","新北市中和區南山路236巷32號","121.505441666667","24.9885066666667","6500300","中和區"
"235060","KED-0823","2019/12/19 18:29:36","新北市中和區中山路三段39-2號","121.477616666667","25.005495","6500300","中和區"
"235054","640-BX","2019/12/19 18:29:41","新北市中和區民享街32巷7號","121.473425","25.00313","6500300","中和區"
"235047","732-UM","2019/12/19 18:29:37","新北市中和區興南路二段30巷10號","121.507091666667","24.9862033333333","6500300","中和區"
"235046","733-UM","2019/12/19 18:29:30","新北市中和區興南路一段83號","121.5099","24.9889316666667","6500300","中和區"
"235062","800-TS","2019/12/19 18:29:35","新北市中和區景平路734號","121.496623333333","25.0039716666667","6500300","中和區"
"235057","801-TS","2019/12/19 18:29:41","新北市中和區民安街1號","121.480871666667","25.0009733333333","6500300","中和區"
"235041","802-TS","2019/12/19 18:29:44","新北市中和區中和路260-1號","121.508105","24.99952","6500300","中和區"
"235052","805-TS","2019/12/19 18:29:45","新北市中和區興南路二段116號","121.504765","24.9838916666667","6500300","中和區"
"235048","896-TW","2019/12/19 18:29:30","新北市中和區中正路79號","121.500826666667","24.9934716666667","6500300","中和區"
"235038","911-UM","2019/12/19 18:29:40","新北市中和區自強路58號","121.520075","24.9945916666667","6500300","中和區"
"235051","157-BY","2019/12/19 18:29:39","新北市中和區興南路二段142巷23號","121.503081666667","24.98383","6500300","中和區"
"235037","AAC-213","2019/12/19 18:29:37","新北市中和區景德街67號","121.516893333333","24.991485","6500300","中和區"
"235059","AAC-215","2019/12/19 18:29:26","新北市中和區員山路36巷16-3號","121.485013333333","24.9914383333333","6500300","中和區"
"207004","KEE-1107","2019/12/19 18:29:41","新北市萬里區萬里里瑪鋉路5號","121.686118333333","25.174875","6502800","萬里區"
"220054","015-TV","2019/12/19 18:29:42","新北市板橋區華東街1-9號","121.44816","24.9949266666667","6500100","板橋區"
"220065","072-UY","2019/12/19 18:29:34","新北市板橋區南雅南路二段18號","121.454598333333","25.003435","6500100","板橋區"
"220086","073-UY","2019/12/19 18:29:28","新北市板橋區華東街1-10號","121.448266666667","24.9950266666667","6500100","板橋區"
"220069","AAD-861","2019/12/19 18:29:29","新北市板橋區華東街11號","121.451198333333","24.9981483333333","6500100","板橋區"
"226004","312-R5","2019/12/19 18:29:38","新北市平溪區白石里白石腳211號","121.727811666667","25.02242","6502400","平溪區"
"235049","251-BX","2019/12/19 18:29:36","新北市中和區景安路123號","121.50577","24.9962516666667","6500300","中和區"
"228003","097-TW","2019/12/19 18:29:27","新北市貢寮區和美里和美街37號","121.912346666667","25.0869333333333","6502600","貢寮區"
"228001","212-TW","2019/12/19 18:29:43","新北市貢寮區仁理村仁和路166號","121.923395","25.052195","6502600","貢寮區"
"228002","663-BX","2019/12/19 18:29:26","新北市貢寮區福連里香蘭街16-2號","121.983213333333","25.0217733333333","6502600","貢寮區"
"224006","676-BX","2019/12/19 18:29:41","新北市瑞芳區明燈路二段66號","121.809386666667","25.10742","6501200","瑞芳區"
"224007","285-BY","2019/12/19 18:29:24","新北市瑞芳區大埔路吉慶公園城37號","121.764298333333","25.099455","6501200","瑞芳區"
"224009","275-VK","2019/12/19 18:29:25","新北市瑞芳區五號路213號","121.855888333333","25.1104433333333","6501200","瑞芳區"
"224008","272-VK","2019/12/19 18:29:33","新北市瑞芳區岳王路1巷23號","121.80605","25.1104916666667","6501200","瑞芳區"
"224005","271-BY","2019/12/19 18:29:37","新北市瑞芳區台電新村1-2號","121.814463333333","25.1289733333333","6501200","瑞芳區"
"227002","642-TC","2019/12/19 18:29:35","新北市雙溪區魚行里坤溪22號","121.870358333333","25.028965","6502500","雙溪區"
"227001","400-TW","2019/12/19 18:29:34","新北市雙溪區牡丹里牡丹137號","121.851105","25.05902","6502500","雙溪區"
"253005","032-BX","2019/12/19 18:29:33","新北市石門區老崩山10-2號","121.552831666667","25.2911533333333","6502200","石門區"
"253006","295-VK","2019/12/19 18:29:26","新北市石門區公地15號","121.545615","25.2901883333333","6502200","石門區"
"222001","KEA-2212","2019/12/19 18:29:43","新北市深坑區北深路一段185號","121.631545","25.0102133333333","6501800","深坑區"
"208002","KEA-2872","2019/12/19 18:29:34","新北市金山區民生路21號","121.64376","25.2220866666667","6502700","金山區"
"208003","665-BX","2019/12/19 18:29:41","新北市金山區中山路309號","121.635765","25.223635","6502700","金山區"
"251004","009-UM","2019/12/19 18:29:37","新北市淡水區民族路31巷2號","121.46246","25.1364233333333","6501000","淡水區"
"251005","010-UM","2019/12/19 18:29:47","新北市淡水區中正東路35巷8號","121.446365","25.1685433333333","6501000","淡水區"
"251002","012-UM","2019/12/19 18:29:28","新北市淡水區竿蓁二街65號","121.454856666667","25.1633383333333","6501000","淡水區"
"251015","KEA-2871","2019/12/19 18:29:35","新北市淡水區興福寮88巷216號","121.486005","25.1666283333333","6501000","淡水區"
"251016","180-VK","2019/12/19 18:29:27","新北市淡水區下圭柔山115-15號","121.446605","25.211115","6501000","淡水區"
"251008","181-VK","2019/12/19 18:29:29","新北市淡水區水源街二段346巷1弄1號","121.464396666667","25.1755216666667","6501000","淡水區"
"251013","182-VK","2019/12/19 18:29:45","新北市淡水區椿子林19-5號","121.481053333333","25.2028366666667","6501000","淡水區"
"251010","413-VK","2019/12/19 18:29:36","新北市淡水區沙崙路181巷15號","121.423985","25.18433","6501000","淡水區"
"251012","441-VK","2019/12/19 18:29:31","新北市淡水區北新路一段157號","121.458695","25.1823233333333","6501000","淡水區"
"251001","559-UM","2019/12/19 18:29:41","新北市淡水區自強路357號","121.464106666667","25.132925","6501000","淡水區"
"251006","561-UM","2019/12/19 18:29:42","新北市淡水區新民街28號","121.439613333333","25.1757866666667","6501000","淡水區"
"251011","650-BX","2019/12/19 18:29:33","新北市淡水區坪頂路57號","121.458833333333","25.1627333333333","6501000","淡水區"
"251003","766-UM","2019/12/19 18:29:42","新北市淡水區北新路169巷35-1號","121.449633333333","25.180095","6501000","淡水區"
"207003","291-VK","2019/12/19 18:29:40","新北市萬里區野柳里港東路6-1號","121.686551666667","25.2031633333333","6502800","萬里區"
"251014","178-VK","2019/12/19 18:29:28","新北市淡水區番社前25-1號","121.494698333333","25.2145533333333","6501000","淡水區"
"252003","249-BX","2019/12/19 18:29:42","新北市三芝區後厝里北勢子42-1號","121.471401666667","25.2521933333333","6502100","三芝區"
"252001","292-VK","2019/12/19 18:29:40","新北市三芝區中興街二段2號","121.498383333333","25.256635","6502100","三芝區"
"237004","KEA-2597","2019/12/19 18:29:42","新北市三峽區五寮36-1號","121.37242","24.86789","6500900","三峽區"
"237007","153-BY","2019/12/19 18:29:40","新北市三峽區中正路三段170巷34號","121.352705","24.9045733333333","6500900","三峽區"
"237009","210-TH","2019/12/19 18:29:38","新北市三峽區民權街132號","121.368601666667","24.931935","6500900","三峽區"
"237013","252-BX","2019/12/19 18:29:37","新北市三峽區永安街9巷19號","121.375901666667","24.9293966666667","6500900","三峽區"
"237012","275-BY","2019/12/19 18:29:29","新北市三峽區民生街1巷5-17號","121.378716666667","24.9359716666667","6500900","三峽區"
"237008","302-VK","2019/12/19 18:29:24","新北市三峽區白雞115-16號","121.40133","24.906375","6500900","三峽區"
"237014","433-BY","2019/12/19 18:29:37","新北市三峽區文化路41-1號","121.372581666667","24.936075","6500900","三峽區"
"237006","5529-G3","2019/12/19 18:29:41","新北市三峽區溪東路473巷66號","121.415385","24.9290416666667","6500900","三峽區"
"237011","KEA-2596","2019/12/19 18:29:33","新北市三峽區溪東路240號","121.408355","24.9316916666667","6500900","三峽區"
"237015","649-BX","2019/12/19 18:29:30","新北市三峽區竹崙路144號","121.435048333333","24.9089483333333","6500900","三峽區"
"237010","706-TV","2019/12/19 18:29:38","新北市三峽區民族街6號","121.36895","24.93149","6500900","三峽區"
"237005","AKY-6261","2019/12/19 18:29:36","新北市三峽區民族街5巷38號","121.369671666667","24.931485","6500900","三峽區"
"236042","KED-0685","2019/12/19 18:29:42","新北市土城區學成路91巷3號","121.450381666667","24.98778","6501300","土城區"
"233002","762-BX","2019/12/19 18:29:24","新北市烏來區新烏路四段50號","121.547641666667","24.8839733333333","6502900","烏來區"
"236030","253-BX","2019/12/19 18:29:22","新北市土城區水源街81巷6號","121.439445","24.9762983333333","6501300","土城區"
"236026","269-VK","2019/12/19 18:29:28","新北市土城區南天母路135巷14號","121.448228333333","24.95458","6501300","土城區"
"236014","270-VK","2019/12/19 18:29:29","新北市土城區青雲路39巷7號","121.460278333333","24.9873866666667","6501300","土城區"
"236038","271-VK","2019/12/19 18:29:40","新北市土城區明德路一段323號","121.459113333333","24.9770783333333","6501300","土城區"
"236070","KEA-2877","2019/12/19 18:29:44","新北市土城區永豐路255巷21弄1號","121.475073333333","24.973945","6501300","土城區"
"252002","KED-0821","2019/12/19 18:29:29","新北市三芝區中山路二段39號","121.502938333333","25.2550966666667","6502100","三芝區"
"236021","401-BY","2019/12/19 18:29:42","新北市土城區永豐路202巷5號","121.46647","24.9832616666667","6501300","土城區"
"236059","912-UM","2019/12/19 18:29:43","新北市土城區中央路四段99-1號","121.416728333333","24.957925","6501300","土城區"
"236049","913-UM","2019/12/19 18:29:39","新北市土城區青雲路517號","121.458845","24.973025","6501300","土城區"
"236063","915-UM","2019/12/19 18:29:38","新北市土城區延壽路111巷2-1號","121.469108333333","24.9937033333333","6501300","土城區"
"236055","AAC-216","2019/12/19 18:29:32","新北市土城區中華路一段245號","121.441078333333","24.981965","6501300","土城區"
"242042","AAC-296","2019/12/19 18:29:40","新北市新莊區天祥街71巷14號","121.415525","25.02858","6500500","新莊區"
"242061","986-R7","2019/12/19 18:29:28","新北市新莊區富國路176巷1號","121.42424","25.0243616666667","6500500","新莊區"
"242058","612-BX","2019/12/19 18:29:34","新北市新莊區中正路897-10號","121.411581666667","25.0216416666667","6500500","新莊區"
"242053","497-BY","2019/12/19 18:29:37","新北市新莊區樹新路120巷40號","121.430025","24.99602","6500500","新莊區"
"242044","442-UM","2019/12/19 18:29:25","新北市新莊區龍安路9-1號","121.414538333333","25.02266","6500500","新莊區"
"242051","400-BY","2019/12/19 18:29:40","新北市新莊區民安東路191號","121.433385","25.0204683333333","6500500","新莊區"
"242025","362-BY","2019/12/19 18:29:26","新北市新莊區五工路97巷5號","121.45664","25.063235","6500500","新莊區"
"242056","172-VK","2019/12/19 18:29:32","新北市新莊區瓊泰路77巷16號","121.442585","25.0290433333333","6500500","新莊區"
"242021","347-TH","2019/12/19 18:29:38","新北市新莊區中正路192號","121.449565","25.0355733333333","6500500","新莊區"
"242009","349-TH","2019/12/19 18:29:45","新北市新莊區中港一街137號","121.448108333333","25.0450433333333","6500500","新莊區"
"238023","601-UM","2019/12/19 18:29:32","新北市樹林區三福街114號","121.406356666667","25.016305","6500700","樹林區"
"238019","599-UM","2019/12/19 18:29:33","新北市樹林區八德街119號","121.421498333333","24.97995","6500700","樹林區"
"238024","5061-A6","2019/12/19 18:29:42","新北市樹林區育英街6號","121.422773333333","24.9890116666667","6500700","樹林區"
"238018","KEA-2217","2019/12/19 18:29:34","新北市樹林區樹新路93號","121.427836666667","24.995485","6500700","樹林區"
"238020","268-VK","2019/12/19 18:29:37","新北市樹林區中正路642巷19號","121.411416666667","25.01749","6500700","樹林區"
"238026","172-UY","2019/12/19 18:29:38","新北市樹林區八德街828-18號","121.392456666667","24.9693","6500700","樹林區"
"238016","169-UY","2019/12/19 18:29:26","新北市樹林區中山路二段34-2號","121.416988333333","24.9854433333333","6500700","樹林區"
"239006","891-R6","2019/12/19 18:29:26","新北市鶯歌區德昌街140巷28號","121.332246666667","24.9614033333333","6500800","鶯歌區"
"239008","527-UM","2019/12/19 18:29:29","新北市鶯歌區朝陽街1號","121.33628","24.976575","6500800","鶯歌區"
"239005","526-UM","2019/12/19 18:29:28","新北市鶯歌區鶯桃路668巷73號","121.329928333333","24.9717966666667","6500800","鶯歌區"
"239001","417-VK","2019/12/19 18:29:41","新北市鶯歌區高職東街3巷18號","121.339993333333","24.9423383333333","6500800","鶯歌區"
"239003","360-BY","2019/12/19 18:29:44","新北市鶯歌區福安街58號","121.335616666667","24.9652066666667","6500800","鶯歌區"
"239004","193-VK","2019/12/19 18:29:26","新北市鶯歌區尖山路168巷7號","121.344905","24.9483166666667","6500800","鶯歌區"
"221036","130-UY","2019/12/19 18:29:25","新北市汐止區大同路三段143號","121.669366666667","25.0777416666667","6501100","汐止區"
"221015","131-UY","2019/12/19 18:29:30","新北市汐止區鄉長路二段25-1號","121.66824","25.0826383333333","6501100","汐止區"
"221010","269-BY","2019/12/19 18:29:35","新北市汐止區汐萬路35號","121.644316666667","25.0912166666667","6501100","汐止區"
"221012","278-VK","2019/12/19 18:29:44","新北市汐止區保長路35巷10號","121.67283","25.079695","6501100","汐止區"
"221023","279-VK","2019/12/19 18:29:39","新北市汐止區康寧街474巷7-2號","121.632338333333","25.06789","6501100","汐止區"
"221027","281-BY","2019/12/19 18:29:40","新北市汐止區和平街63號","121.66165","25.0707266666667","6501100","汐止區"
"221029","298-VK","2019/12/19 18:29:32","新北市汐止區樟樹一路272-6號","121.642783333333","25.068815","6501100","汐止區"
"221021","299-VK","2019/12/19 18:29:27","新北市汐止區連興街120號","121.653676666667","25.0625566666667","6501100","汐止區"
"221032","567-BX","2019/12/19 18:29:30","新北市汐止區民權街二段79號","121.619153333333","25.0481333333333","6501100","汐止區"
"221035","622-UM","2019/12/19 18:29:36","新北市汐止區大同路二段189號","121.65223","25.0644083333333","6501100","汐止區"
"221025","623-UM","2019/12/19 18:29:38","新北市汐止區仁愛路108號","121.662441666667","25.0634633333333","6501100","汐止區"
"221038","646-BX","2019/12/19 18:29:42","新北市汐止區忠孝東路225號","121.662346666667","25.0668933333333","6501100","汐止區"
"221033","647-BX","2019/12/19 18:29:29","新北市汐止區宜興街44號","121.622206666667","25.0422","6501100","汐止區"
"221002","707-TV","2019/12/19 18:29:31","新北市汐止區福德一路188-1號","121.63474","25.065445","6501100","汐止區"
"221018","753-BX","2019/12/19 18:29:43","新北市汐止區茄苳路118號","121.668003333333","25.0702","6501100","汐止區"
"220080","200-UY","2019/12/19 18:29:35","新北市板橋區華東街1-9號","121.4481","24.9948733333333","6500100","板橋區"
"220082","610-BX","2019/12/19 18:29:31","新北市板橋區華東街1-9號","121.448223333333","24.994895","6500100","板橋區"
"224002","257-TC","2019/12/19 18:29:35","新北市瑞芳區三爪子坑路29巷42號","121.813683333333","25.1066633333333","6501200","瑞芳區"
"220056","276-BY","2019/12/19 18:29:30","新北市板橋區四川路二段130巷25弄10號","121.448913333333","24.9946133333333","6500100","板橋區"
"220072","277-BY","2019/12/19 18:29:40","新北市板橋區華東街1-10號","121.448295","24.995125","6500100","板橋區"
"220071","283-VK","2019/12/19 18:29:42","新北市板橋區華東街1-9號","121.448038333333","24.9949133333333","6500100","板橋區"
"220094","285-UM","2019/12/19 18:29:29","新北市板橋區民生路二段161巷5號","121.47015","25.0196916666667","6500100","板橋區"
"220083","286-VK","2019/12/19 18:29:43","新北市板橋區華東街1-10號","121.448391666667","24.9950466666667","6500100","板橋區"
"220081","287-VK","2019/12/19 18:29:35","新北市板橋區華東街1-10號","121.448291666667","24.9949966666667","6500100","板橋區"
"220084","296-UM","2019/12/19 18:29:33","新北市板橋區華東街1-9號","121.44824","24.9949133333333","6500100","板橋區"
"242046","281-VK","2019/12/19 18:29:31","新北市新莊區中正路831-2號","121.420945","25.027725","6500500","新莊區"
"242011","280-VK","2019/12/19 18:29:34","新北市新莊區中榮街82號","121.448078333333","25.0527216666667","6500500","新莊區"
"220035","560-BX","2019/12/19 18:29:43","新北市板橋區華東街330號","121.453053333333","25.0038283333333","6500100","板橋區"
"220057","686-BX","2019/12/19 18:29:27","新北市板橋區華東街1-10號","121.448651666667","24.9947933333333","6500100","板橋區"
"220077","687-BX","2019/12/19 18:29:43","新北市板橋區華東街1-10號","121.448341666667","24.9950733333333","6500100","板橋區"
"220055","827-TW","2019/12/19 18:29:30","新北市板橋區四川路二段140巷20號","121.449093333333","24.9935133333333","6500100","板橋區"
"220073","985-R7","2019/12/19 18:29:46","新北市板橋區四川路二段247號","121.450063333333","24.99308","6500100","板橋區"
"220064","AAC-253","2019/12/19 18:29:40","新北市板橋區南雅西路一段5巷5號","121.454611666667","25.0038866666667","6500100","板橋區"
"235061","KEA-2875","2019/12/19 18:29:33","新北市中和區民享街92巷36號","121.473543333333","24.9996066666667","6500300","中和區"
"235068","KEA-2876","2019/12/19 18:29:20","新北市中和區中正路271-5號","121.495796666667","24.9932916666667","6500300","中和區"
