"lineid","car","time","location","longitude","latitude","cityid","cityname"
"234081","298-R6","2019/12/19 20:29:37","新北市永和區永貞路41號","121.521003333333","25.0065083333333","6500400","永和區"
"234064","337-UY","2019/12/19 20:29:30","新北市永和區中正路439號","121.517106666667","25.005225","6500400","永和區"
"234086","338-UY","2019/12/19 20:29:33","新北市永和區永和路二段243號","121.515721666667","25.0148433333333","6500400","永和區"
"234070","552-UM","2019/12/19 20:29:28","新北市永和區永寧街52號","121.519661666667","25.00693","6500400","永和區"
"234030","746-BX","2019/12/19 20:29:42","新北市新店區安興路105號","121.515065","24.97819","6500400","永和區"
"234054","KEA-2590","2019/12/19 20:29:36","新北市永和區環河東路一段76號","121.519375","25.0166366666667","6500400","永和區"
"234061","AAD-866","2019/12/19 20:29:30","新北市永和區安樂路194巷37號","121.516415","25.0012833333333","6500400","永和區"
"234042","862-TW","2019/12/19 20:29:39","新北市永和區安樂路433號","121.51437","25.0045733333333","6500400","永和區"
"234050","863-TW","2019/12/19 20:29:46","新北市永和區新生路143號","121.507413333333","25.0149033333333","6500400","永和區"
"249005","172-UM","2019/12/19 20:29:34","新北市八里區中山路三段299號","121.379451666667","25.1382683333333","6502300","八里區"
"249001","173-UM","2019/12/19 20:29:42","新北市八里區中山路三段106號","121.391041666667","25.1422483333333","6502300","八里區"
"249004","303-UY","2019/12/19 20:29:31","新北市八里區中山路一段129巷35號","121.414185","25.1584083333333","6502300","八里區"
"249002","305-UY","2019/12/19 20:29:36","新北市八里區龍米路二段32巷18號","121.448953333333","25.1408033333333","6502300","八里區"
"249003","593-UM","2019/12/19 20:29:34","新北市八里區中山路二段341號","121.399546666667","25.14736","6502300","八里區"
"248002","678-BX","2019/12/19 20:29:37","新北市五股區新五路二段333號","121.44374","25.0873383333333","6501500","五股區"
"234023","9380-KE","2019/12/19 20:29:38","新北市永和區博愛街32巷7號","121.518785","25.0155733333333","6500400","永和區"
"234074","AAC-211","2019/12/19 20:29:39","新北市永和區竹林路119巷30弄1號","121.522141666667","25.011795","6500400","永和區"
"234067","AAC-212","2019/12/19 20:29:35","新北市永和區保平路290號","121.508116666667","25.00455","6500400","永和區"
"234003","AAC-295","2019/12/19 20:29:39","新北市永和區中正路614號","121.517113333333","25.0075583333333","6500400","永和區"
"243012","AAD-798","2019/12/19 20:29:34","新北市泰山區楓江路10號","121.433606666667","25.0624516666667","6501600","泰山區"
"243014","KEA-2801","2019/12/19 20:29:28","新北市泰山區泰林路二段506號","121.424418333333","25.0641183333333","6501600","泰山區"
"243016","421-VK","2019/12/19 20:29:37","新北市泰山區文程路23號","121.428553333333","25.0492066666667","6501600","泰山區"
"243009","KEA-2215","2019/12/19 20:29:38","新北市泰山區泰林路二段385巷1號","121.427511666667","25.0641916666667","6501600","泰山區"
"243011","KEA-2216","2019/12/19 20:29:47","新北市泰山區明志路3段87-1號","121.425066666667","25.0414533333333","6501600","泰山區"
"243013","646-TV","2019/12/19 20:29:46","新北市泰山區貴子路9巷6-1號","121.425506666667","25.0423216666667","6501600","泰山區"
"243015","680-BX","2019/12/19 20:29:43","新北市泰山區福興街30號","121.434496666667","25.0573233333333","6501600","泰山區"
"222003","436-BY","2019/12/19 20:29:32","新北市深坑區深坑街77號","121.61479","25.0016333333333","6501800","深坑區"
"222002","659-BX","2019/12/19 20:29:30","新北市深坑區萬福路16巷45號","121.609455","25.0089183333333","6501800","深坑區"
"231061","002-UM","2019/12/19 20:29:27","新北市新店區光華街38巷3號","121.51554","24.9698683333333","6500600","新店區"
"231055","0291-UT","2019/12/19 20:29:37","新北市新店區安康路一段222號","121.523738333333","24.9635733333333","6500600","新店區"
"231058","0293-UT","2019/12/19 20:28:19","新北市新店區溪園路397號","121.523451666667","24.9777833333333","6500600","新店區"
"231044","046-UY","2019/12/19 20:29:39","新北市新店區民族路63號","121.539761666667","24.9782916666667","6500600","新店區"
"231060","106-UY","2019/12/19 20:29:41","新北市新店區錦秀路11巷92弄1號","121.480268333333","24.9427516666667","6500600","新店區"
"231051","107-UY","2019/12/19 20:29:31","新北市新店區中央七街83號","121.527016666667","24.976875","6500600","新店區"
"231049","108-UY","2019/12/19 20:29:42","新北市新店區永業路81巷60號","121.52923","24.94806","6500600","新店區"
"231065","110-UY","2019/12/19 20:29:28","新北市新店區安祥路102巷46弄7號","121.485005","24.9641416666667","6500600","新店區"
"231050","KEA-2219","2019/12/19 20:29:42","新北市新店區建興街9巷1號","121.53992","24.9763216666667","6500600","新店區"
"221031","KEA-2785","2019/12/19 20:29:46","新北市汐止區中興路150巷15-1號","121.633003333333","25.06509","6501100","汐止區"
"231062","256-BX","2019/12/19 20:29:40","新北市新店區安泰路7巷16號","121.48567","24.950895","6500600","新店區"
"231054","260-TV","2019/12/19 20:29:44","新北市新店區檳榔路69號","121.544191666667","24.96206","6500600","新店區"
"231042","268-BY","2019/12/19 20:29:34","新北市新店區寶橋路230號","121.551421666667","24.97891","6500600","新店區"
"231064","278-BY","2019/12/19 20:29:46","新北市新店區永安街56巷7號","121.518643333333","24.9862266666667","6500600","新店區"
"231045","355-BY","2019/12/19 20:29:49","新北市新店區新坡一街20號","121.54899","24.961855","6500600","新店區"
"231056","4715-K9","2019/12/19 20:29:32","新北市新店區中央七街61巷14號","121.528766666667","24.976225","6500600","新店區"
"231067","4772-VM","2019/12/19 20:29:48","新北市新店區安華路28-1號","121.51964","24.96097","6500600","新店區"
"231068","512-UM","2019/12/19 20:29:38","新北市新店區寶元路一段61號","121.542163333333","24.9858266666667","6500600","新店區"
"231052","515-UM","2019/12/19 20:29:32","新北市新店區松林路38號","121.546223333333","24.9102466666667","6500600","新店區"
"231043","618-UM","2019/12/19 20:29:43","新北市新店區建國路86號","121.540516666667","24.9768833333333","6500600","新店區"
"231041","619-UM","2019/12/19 20:29:43","新北市新店區民權路151號","121.534396666667","24.982625","6500600","新店區"
"231063","641-BX","2019/12/19 20:29:48","新北市新店區玫瑰路4-1號","121.493538333333","24.9514","6500600","新店區"
"231047","KED-0819","2019/12/19 20:29:45","新北市新店區寶慶街58巷12號","121.542058333333","24.9872366666667","6500600","新店區"
"231057","720-UM","2019/12/19 20:29:39","新北市新店區花園十路二段4號","121.555908333333","24.933215","6500600","新店區"
"231059","897-TW","2019/12/19 20:29:28","新北市新店區安康路二段266號","121.508598333333","24.9590166666667","6500600","新店區"
"231040","898-TW","2019/12/19 20:29:37","新北市新店區三民路181號","121.53509","24.9751416666667","6500600","新店區"
"231066","AKT-0513","2019/12/19 20:29:32","新北市新店區安興路56號","121.516573333333","24.9749133333333","6500600","新店區"
"241011","013-R5","2019/12/19 20:29:29","新北市三重區龍門路132號","121.498145","25.0730283333333","6500200","三重區"
"241028","022-UY","2019/12/19 20:29:42","新北市三重區光興街91號","121.497361666667","25.0599","6500200","三重區"
"241031","061-VK","2019/12/19 20:29:37","新北市三重區三寧街15號","121.489398333333","25.0597616666667","6500200","三重區"
"241015","062-VK","2019/12/19 20:29:41","新北市三重區文化北路47號","121.498815","25.0653883333333","6500200","三重區"
"241024","065-VK","2019/12/19 20:29:47","新北市三重區忠孝路三段15巷28號","121.480443333333","25.0679383333333","6500200","三重區"
"241007","066-VK","2019/12/19 20:29:47","新北市三重區自強路四段51號","121.489863333333","25.0780816666667","6500200","三重區"
"241002","090-VK","2019/12/19 20:29:34","新北市三重區仁義街167巷38弄4號","121.498683333333","25.0828566666667","6500200","三重區"
"241003","091-VK","2019/12/19 20:29:30","新北市三重區富華街129號","121.492683333333","25.0845633333333","6500200","三重區"
"241008","742-BX","2019/12/19 20:29:40","新北市三重區車路頭街137號","121.484085","25.0762166666667","6500200","三重區"
"241006","262-UM","2019/12/19 20:29:42","新北市三重區車路頭街139巷14號","121.484421666667","25.0761883333333","6500200","三重區"
"241016","266-UM","2019/12/19 20:29:33","新北市三重區正義北路190巷16號","121.49594","25.066635","6500200","三重區"
"241009","267-UM","2019/12/19 20:29:38","新北市三重區永福街44號","121.482221666667","25.0781583333333","6500200","三重區"
"241018","268-UM","2019/12/19 20:29:44","新北市三重區正義北路218號","121.496091666667","25.0675433333333","6500200","三重區"
"241032","269-UM","2019/12/19 20:29:29","新北市三重區重陽路一段120巷37號","121.485035","25.0602183333333","6500200","三重區"
"241013","270-UM","2019/12/19 20:29:27","新北市三重區三和路三段151巷9號","121.492465","25.073785","6500200","三重區"
"241035","KEA-2210","2019/12/19 20:29:32","新北市三重區正義北路132號","121.49682","25.0656983333333","6500200","三重區"
"241030","KED-0822","2019/12/19 20:29:28","新北市三重區成功路62號","121.488613333333","25.0510683333333","6500200","三重區"
"241004","475-VK","2019/12/19 20:29:41","新北市三重區溪尾街212號","121.488095","25.0813066666667","6500200","三重區"
"241020","478-VK","2019/12/19 20:29:36","新北市三重區忠孝路一段21號","121.492006666667","25.0718883333333","6500200","三重區"
"241026","480-VK","2019/12/19 20:29:42","新北市三重區環河南路23號","121.503515","25.0623866666667","6500200","三重區"
"241014","543-UM","2019/12/19 20:29:28","新北市三重區長榮路68號","121.501918333333","25.06898","6500200","三重區"
"241023","545-UM","2019/12/19 20:29:41","新北市三重區自由街17巷16號","121.479883333333","25.0668166666667","6500200","三重區"
"241001","547-UM","2019/12/19 20:29:43","新北市三重區福隆路31號","121.489986666667","25.0771983333333","6500200","三重區"
"241019","KEA-2593","2019/12/19 20:29:41","新北市三重區大智街137-1號","121.4909","25.0706483333333","6500200","三重區"
"241005","AAD-863","2019/12/19 20:29:45","新北市三重區五華街141巷58號","121.49327","25.08668","6500200","三重區"
"241012","743-BX","2019/12/19 20:29:32","新北市三重區龍濱路285號","121.501073333333","25.0733233333333","6500200","三重區"
"241022","KED-0820","2019/12/19 20:29:37","新北市三重區中正北路20巷12號","121.48801","25.0625083333333","6500200","三重區"
"241025","KED-0670","2019/12/19 20:29:36","新北市三重區頂崁街210巷23弄1號","121.475835","25.06812","6500200","三重區"
"241029","942-UM","2019/12/19 20:29:48","新北市三重區集美街219號","121.491936666667","25.0547183333333","6500200","三重區"
"241033","AAC-255","2019/12/19 20:29:27","新北市三重區五谷王北街80巷26號","121.47553","25.0527183333333","6500200","三重區"
"235055","183-VK","2019/12/19 20:29:26","新北市八里區中山路三段409號","121.368676666667","25.1346766666667","6500300","中和區"
"247016","KEA-2869","2019/12/19 20:29:33","新北市蘆洲區光華路118號","121.466901666667","25.08252","6501400","蘆洲區"
"247010","KED-0682","2019/12/19 20:29:40","新北市蘆洲區民族路79號","121.479281666667","25.0860066666667","6501400","蘆洲區"
"235050","4979-A6","2019/12/19 20:29:27","新北市中和區景新街160巷8號","121.505268333333","24.99714","6500300","中和區"
"235069","4980-A6","2019/12/19 20:29:41","新北市中和區中正路446號","121.491001666667","24.994295","6500300","中和區"
"235059","AAC-215","2019/12/19 20:29:46","新北市中和區員山路32號","121.481066666667","24.9877316666667","6500300","中和區"
"207004","KEE-1107","2019/12/19 20:29:41","新北市萬里區北基里忠二街13號","121.684935","25.1753616666667","6502800","萬里區"
"247006","893-R6","2019/12/19 20:29:33","新北市蘆洲區和平路121巷14弄38號","121.466125","25.0801316666667","6501400","蘆洲區"
"247020","546-UM","2019/12/19 20:29:31","新北市蘆洲區仁愛街130號","121.469211666667","25.0944833333333","6501400","蘆洲區"
"247022","341-TH","2019/12/19 20:29:33","新北市蘆洲區中正路325號","121.466078333333","25.0889116666667","6501400","蘆洲區"
"247004","336-TH","2019/12/19 20:29:47","新北市蘆洲區長安街222號","121.45812","25.0849233333333","6501400","蘆洲區"
"247024","057-VK","2019/12/19 20:29:30","新北市蘆洲區光復路70巷25號","121.46479","25.0850033333333","6501400","蘆洲區"
"247014","056-VK","2019/12/19 20:29:45","新北市蘆洲區中山二路238號","121.469453333333","25.0793933333333","6501400","蘆洲區"
"247018","053-VK","2019/12/19 20:29:43","新北市蘆洲區民族路251號","121.476928333333","25.0902966666667","6501400","蘆洲區"
"247008","002-UY","2019/12/19 20:29:31","新北市蘆洲區永安北路二段76巷8號","121.483261666667","25.0849916666667","6501400","蘆洲區"
"247002","001-UY","2019/12/19 20:29:40","新北市蘆洲區長安街361巷14號","121.456461666667","25.0876233333333","6501400","蘆洲區"
"222001","KEA-2212","2019/12/19 20:29:43","新北市深坑區北深路三段327號","121.597395","25.004985","6501800","深坑區"
"251002","012-UM","2019/12/19 20:29:28","新北市淡水區中正路116號","121.441771666667","25.169695","6501000","淡水區"
"251015","KEA-2871","2019/12/19 20:29:35","新北市淡水區埤島76-2號","121.451598333333","25.192835","6501000","淡水區"
"251016","180-VK","2019/12/19 20:29:47","新北市淡水區新埔子11-1號","121.44727","25.22859","6501000","淡水區"
"251008","181-VK","2019/12/19 20:29:45","新北市淡水區淡海路189巷1號","121.420165","25.1844233333333","6501000","淡水區"
"251013","182-VK","2019/12/19 20:29:44","新北市淡水區後坑子6號","121.463415","25.2066683333333","6501000","淡水區"
"251010","413-VK","2019/12/19 20:29:42","新北市淡水區沙崙路181巷2號","121.424471666667","25.1839666666667","6501000","淡水區"
"251012","441-VK","2019/12/19 20:29:31","新北市淡水區頂田寮路5號","121.453776666667","25.2167033333333","6501000","淡水區"
"251007","442-VK","2019/12/19 20:29:39","新北市淡水區淡金路二段605號","121.44616","25.1935383333333","6501000","淡水區"
"251001","559-UM","2019/12/19 20:29:41","新北市淡水區新市一路三段18號","121.445433333333","25.1829216666667","6501000","淡水區"
"251006","561-UM","2019/12/19 20:29:42","新北市淡水區商工路393號","121.474753333333","25.1848133333333","6501000","淡水區"
"251003","766-UM","2019/12/19 20:29:42","新北市淡水區新民街21號","121.439315","25.175255","6501000","淡水區"
"251014","178-VK","2019/12/19 20:29:28","新北市淡水區石頭厝12-1號","121.460795","25.2360316666667","6501000","淡水區"
"252001","292-VK","2019/12/19 20:29:40","新北市三芝區中山路一段14號","121.500753333333","25.258035","6502100","三芝區"
"233002","762-BX","2019/12/19 20:00:28","新北市烏來區啦卡路70-1號","121.565261666667","24.8559416666667","6502900","烏來區"
"247012","KED-0683","2019/12/19 20:29:41","新北市蘆洲區復興路270號","121.480305","25.08976","6501400","蘆洲區"
"252002","KED-0821","2019/12/19 20:29:49","新北市三芝區淡金路二段47-2號","121.50371","25.2605916666667","6502100","三芝區"
"242042","AAC-296","2019/12/19 20:29:44","新北市新莊區壽山路33-4號","121.416438333333","25.0305383333333","6500500","新莊區"
"242061","986-R7","2019/12/19 20:29:28","新北市新莊區民安路343號","121.43076","25.02292","6500500","新莊區"
"242004","751-BX","2019/12/19 20:29:31","新北市新莊區頭前路30號","121.467683333333","25.0524916666667","6500500","新莊區"
"242029","615-BX","2019/12/19 20:29:39","新北市新莊區昌隆街26號","121.453983333333","25.0507866666667","6500500","新莊區"
"242027","613-BX","2019/12/19 20:29:45","新北市新莊區幸福路610號","121.451706666667","25.049285","6500500","新莊區"
"242058","612-BX","2019/12/19 20:29:43","新北市新莊區四維路169號","121.422365","25.0215866666667","6500500","新莊區"
"242048","566-BX","2019/12/19 20:29:45","新北市新莊區龍安路261號","121.420056666667","25.0200016666667","6500500","新莊區"
"242053","497-BY","2019/12/19 20:29:31","新北市新莊區民安西路246號","121.425906666667","25.01389","6500500","新莊區"
"242044","442-UM","2019/12/19 20:29:45","新北市新莊區龍安路66-5號","121.414831666667","25.0213533333333","6500500","新莊區"
"242002","441-UM","2019/12/19 20:29:38","新北市新莊區中正路78-1號","121.458543333333","25.0377716666667","6500500","新莊區"
"242013","413-TV","2019/12/19 20:29:40","新北市新莊區中平路292巷1弄2號","121.445498333333","25.05206","6500500","新莊區"
"242051","400-BY","2019/12/19 20:29:42","新北市新莊區民安西路264號","121.425916666667","25.0131766666667","6500500","新莊區"
"242025","362-BY","2019/12/19 20:29:46","新北市新莊區五工二路62巷16號","121.461158333333","25.0659666666667","6500500","新莊區"
"242023","353-BY","2019/12/19 20:29:46","新北市新莊區化成路766號","121.465193333333","25.058815","6500500","新莊區"
"242015","132-UY","2019/12/19 20:29:49","新北市新莊區中平路36巷17號","121.445511666667","25.0436416666667","6500500","新莊區"
"242056","172-VK","2019/12/19 20:29:32","新北市新莊區瓊泰路154號","121.443183333333","25.0324233333333","6500500","新莊區"
"242017","173-VK","2019/12/19 20:29:43","新北市新莊區中港二街98號","121.449116666667","25.04578","6500500","新莊區"
"242031","175-VK","2019/12/19 20:29:35","新北市新莊區三和路60-23號","121.437373333333","25.0389583333333","6500500","新莊區"
"242039","176-VK","2019/12/19 20:29:39","新北市新莊區民安路302號","121.428261666667","25.0218316666667","6500500","新莊區"
"242007","346-TH","2019/12/19 20:29:43","新北市新莊區思源路331號","121.459928333333","25.04967","6500500","新莊區"
"242021","347-TH","2019/12/19 20:29:37","新北市新莊區和興街5號","121.447603333333","25.039095","6500500","新莊區"
"242036","348-TH","2019/12/19 20:29:33","新北市新莊區後港一路76巷10弄1號","121.42712","25.0259316666667","6500500","新莊區"
"242009","349-TH","2019/12/19 20:29:46","新北市新莊區昌盛街65巷2弄11號","121.455423333333","25.05026","6500500","新莊區"
"242034","350-TH","2019/12/19 20:29:32","新北市新莊區中正路289號","121.448628333333","25.0352533333333","6500500","新莊區"
"242019","351-TH","2019/12/19 20:29:37","新北市新莊區復興路二段191號","121.459285","25.044515","6500500","新莊區"
"221008","489-VK","2019/12/19 20:29:33","新北市汐止區康寧街139號","121.621276666667","25.0665183333333","6501100","汐止區"
"221036","130-UY","2019/12/19 20:29:38","新北市汐止區福安街37巷10號","121.663228333333","25.0651283333333","6501100","汐止區"
"221015","131-UY","2019/12/19 20:29:30","新北市汐止區建成路160巷41號","121.661751666667","25.074005","6501100","汐止區"
"221010","269-BY","2019/12/19 20:29:34","新北市汐止區八連路二段36巷14號","121.636658333333","25.0946916666667","6501100","汐止區"
"221012","278-VK","2019/12/19 20:29:44","新北市汐止區汐平路二段66號","121.698595","25.06092","6501100","汐止區"
"221023","279-VK","2019/12/19 20:29:42","新北市汐止區明峰街94-1號","121.631041666667","25.0711033333333","6501100","汐止區"
"221027","281-BY","2019/12/19 20:29:28","新北市汐止區中正路214號","121.658236666667","25.0688733333333","6501100","汐止區"
"221029","298-VK","2019/12/19 20:29:31","新北市汐止區樟樹一路129巷34弄19號","121.64049","25.0651716666667","6501100","汐止區"
"221021","299-VK","2019/12/19 20:29:47","新北市汐止區水源路一段284號","121.654281666667","25.0583133333333","6501100","汐止區"
"221032","567-BX","2019/12/19 20:29:30","新北市汐止區民權街二段47號","121.619483333333","25.0491733333333","6501100","汐止區"
"221035","622-UM","2019/12/19 20:29:36","新北市汐止區長江街99號","121.658108333333","25.07293","6501100","汐止區"
"221038","646-BX","2019/12/19 20:29:48","新北市汐止區水源路一段72號","121.656558333333","25.0650566666667","6501100","汐止區"
"221033","647-BX","2019/12/19 20:29:28","新北市汐止區林森街73巷3號","121.623561666667","25.0409016666667","6501100","汐止區"
"221002","707-TV","2019/12/19 20:29:31","新北市汐止區原興路72號","121.63247","25.065895","6501100","汐止區"
"221018","753-BX","2019/12/19 20:29:43","新北市汐止區茄苳路225巷11弄33號","121.670485","25.0700866666667","6501100","汐止區"
"220079","145-BY","2019/12/19 20:29:43","新北市板橋區僑中一街124巷70-5號","121.449945","25.0168166666667","6500100","板橋區"
"220083","286-VK","2019/12/19 20:29:43","新北市板橋區僑中二街104巷48號","121.444223333333","25.0082833333333","6500100","板橋區"
"242046","281-VK","2019/12/19 20:29:31","新北市新莊區中正路881-16號","121.417503333333","25.02471","6500500","新莊區"
"242011","280-VK","2019/12/19 20:29:34","新北市新莊區中義街20號","121.450773333333","25.0512766666667","6500500","新莊區"
