"lineid","car","time","location","longitude","latitude","cityid","cityname"
"234042","862-TW","2019/12/19 21:13:39","新北市新店區安民街245號","121.516431666667","24.972425","6500400","永和區"
"231060","106-UY","2019/12/19 21:13:41","新北市新店區薏仁坑路2-1號","121.500461666667","24.95772","6500600","新店區"
"231051","107-UY","2019/12/19 21:13:31","新北市新店區中正路680巷33弄1號","121.535135","24.9893016666667","6500600","新店區"
"231050","KEA-2219","2019/12/19 21:13:42","新北市新店區華興街7號","121.538018333333","24.9697566666667","6500600","新店區"
"231062","256-BX","2019/12/19 21:13:40","新北市新店區雙城路60巷16弄1號","121.492216666667","24.94821","6500600","新店區"
"231063","641-BX","2019/12/19 21:13:28","新北市新店區玫瑰路57巷40號","121.497046666667","24.9463466666667","6500600","新店區"
"231059","897-TW","2019/12/19 21:13:48","新北市新店區僑義路24號","121.500596666667","24.9500466666667","6500600","新店區"
"231040","898-TW","2019/12/19 21:13:37","新北市新店區光明街212號","121.540045","24.9626466666667","6500600","新店區"
"231066","AKT-0513","2019/12/19 21:13:32","新北市新店區僑信路1號","121.500268333333","24.9538516666667","6500600","新店區"
"241011","013-R5","2019/12/19 21:13:48","新北市三重區龍濱路114號","121.50207","25.0702883333333","6500200","三重區"
"241028","022-UY","2019/12/19 21:13:42","新北市三重區重安街160號","121.49601","25.05461","6500200","三重區"
"241031","061-VK","2019/12/19 21:13:37","新北市三重區五谷王南街46巷37號","121.475721666667","25.0455183333333","6500200","三重區"
"241015","062-VK","2019/12/19 21:13:41","新北市三重區三和路一段39巷11號","121.504105","25.0654016666667","6500200","三重區"
"241017","063-VK","2019/12/19 21:13:31","新北市三重區大智街49號","121.49279","25.0675316666667","6500200","三重區"
"241024","065-VK","2019/12/19 21:13:47","新北市三重區力行路一段265號","121.482283333333","25.0712583333333","6500200","三重區"
"241007","066-VK","2019/12/19 21:13:27","新北市三重區車路頭街137號","121.484208333333","25.07621","6500200","三重區"
"241002","090-VK","2019/12/19 21:13:35","新北市三重區五華街20號","121.494828333333","25.0804033333333","6500200","三重區"
"241003","091-VK","2019/12/19 21:13:30","新北市三重區仁義街339號","121.495038333333","25.0849466666667","6500200","三重區"
"241008","742-BX","2019/12/19 21:13:39","新北市三重區自強路一段62號","121.497335","25.0666216666667","6500200","三重區"
"241006","262-UM","2019/12/19 21:13:42","新北市三重區中正北路2-1號","121.489158333333","25.0631316666667","6500200","三重區"
"241016","266-UM","2019/12/19 21:13:32","新北市三重區信義西街138號","121.49537","25.064415","6500200","三重區"
"241009","267-UM","2019/12/19 21:13:38","新北市三重區忠孝路三段4號","121.481851666667","25.0674433333333","6500200","三重區"
"241018","268-UM","2019/12/19 21:13:44","新北市三重區忠孝路一段101號","121.489588333333","25.0721483333333","6500200","三重區"
"241032","269-UM","2019/12/19 21:13:28","新北市三重區中興北街136號","121.46892","25.0559733333333","6500200","三重區"
"241013","270-UM","2019/12/19 21:13:47","新北市三重區仁愛街83號","121.495943333333","25.073255","6500200","三重區"
"241030","KED-0822","2019/12/19 21:13:45","新北市三重區五谷王北街20巷15弄1號","121.475215","25.0485033333333","6500200","三重區"
"241004","475-VK","2019/12/19 21:13:41","新北市三重區仁愛街423-1號","121.490343333333","25.0814483333333","6500200","三重區"
"241026","480-VK","2019/12/19 21:13:42","新北市三重區新北大道一段3-1號","121.490676666667","25.0613966666667","6500200","三重區"
"241014","543-UM","2019/12/19 21:13:48","新北市三重區長安街82號","121.501421666667","25.0675616666667","6500200","三重區"
"241023","545-UM","2019/12/19 21:13:41","新北市三重區中正北路176巷27號","121.482661666667","25.0659316666667","6500200","三重區"
"241001","547-UM","2019/12/19 21:13:43","新北市三重區福隆路50號","121.492443333333","25.0784266666667","6500200","三重區"
"241019","KEA-2593","2019/12/19 21:13:41","新北市三重區重陽路三段7-3號","121.489285","25.06651","6500200","三重區"
"241005","AAD-863","2019/12/19 21:13:45","新北市三重區仁華街118巷6號","121.485695","25.0830083333333","6500200","三重區"
"241012","743-BX","2019/12/19 21:13:32","新北市三重區龍門路223號","121.50143","25.0738916666667","6500200","三重區"
"241022","KED-0820","2019/12/19 21:13:37","新北市三重區中正北路64巷24號","121.486153333333","25.06369","6500200","三重區"
"241025","KED-0670","2019/12/19 21:13:36","新北市三重區中正北路208巷10弄4號","121.482351666667","25.06692","6500200","三重區"
"241029","942-UM","2019/12/19 21:13:28","新北市三重區正義南路111號","121.498205","25.0585583333333","6500200","三重區"
"241033","AAC-255","2019/12/19 21:13:48","新北市三重區光復路二段170號","121.472038333333","25.0612433333333","6500200","三重區"
"235055","183-VK","2019/12/19 21:13:26","新北市中和區員山路36巷13號","121.484241666667","24.990695","6500300","中和區"
"247016","KEA-2869","2019/12/19 21:13:34","新北市蘆洲區中正路185巷68弄1號","121.466518333333","25.08454","6501400","蘆洲區"
"247010","KED-0682","2019/12/19 21:13:39","新北市蘆洲區鷺江街23號","121.478938333333","25.08246","6501400","蘆洲區"
"247006","893-R6","2019/12/19 21:13:33","新北市蘆洲區長安街22巷6號","121.464516666667","25.0793583333333","6501400","蘆洲區"
"247020","546-UM","2019/12/19 21:13:31","新北市蘆洲區民族路436巷5號","121.472905","25.0928916666667","6501400","蘆洲區"
"247022","341-TH","2019/12/19 21:13:44","新北市蘆洲區三民路245號","121.468875","25.0889533333333","6501400","蘆洲區"
"247004","336-TH","2019/12/19 21:13:47","新北市蘆洲區永安南路二段324號","121.456946666667","25.0827483333333","6501400","蘆洲區"
"247024","057-VK","2019/12/19 21:13:30","新北市蘆洲區長興路50巷1號","121.463718333333","25.083785","6501400","蘆洲區"
"247014","056-VK","2019/12/19 21:13:45","新北市蘆洲區保和街17號","121.47105","25.0863966666667","6501400","蘆洲區"
"247018","053-VK","2019/12/19 21:13:43","新北市蘆洲區民族路227巷29號","121.476426666667","25.088485","6501400","蘆洲區"
"247008","002-UY","2019/12/19 21:13:31","新北市蘆洲區民生街28號","121.474905","25.07888","6501400","蘆洲區"
"247002","001-UY","2019/12/19 21:13:40","新北市蘆洲區永樂街38巷40號","121.458561666667","25.0900983333333","6501400","蘆洲區"
"251009","008-UM","2019/12/19 21:13:28","新北市淡水區民族路112巷57號","121.46203","25.1343166666667","6501000","淡水區"
"251004","009-UM","2019/12/19 21:13:39","新北市淡水區民族路33號","121.462293333333","25.1358516666667","6501000","淡水區"
"251005","010-UM","2019/12/19 21:13:46","新北市淡水區博愛街6號","121.445988333333","25.1702","6501000","淡水區"
"251002","012-UM","2019/12/19 21:13:28","新北市淡水區學府路172巷21號","121.448371666667","25.17523","6501000","淡水區"
"251015","KEA-2871","2019/12/19 21:13:35","新北市淡水區淡金路四段542巷83弄13號","121.456475","25.2267433333333","6501000","淡水區"
"251016","180-VK","2019/12/19 21:13:47","新北市淡水區前洲子1號","121.445521666667","25.217515","6501000","淡水區"
"251008","181-VK","2019/12/19 21:13:44","新北市淡水區北投子93-2號","121.465413333333","25.17614","6501000","淡水區"
"251013","182-VK","2019/12/19 21:13:44","新北市淡水區行忠路330號","121.460668333333","25.1999033333333","6501000","淡水區"
"251010","413-VK","2019/12/19 21:13:35","新北市淡水區中正路一段63巷7弄2號","121.423101666667","25.1773066666667","6501000","淡水區"
"251012","441-VK","2019/12/19 21:13:31","新北市淡水區淡金路五段35巷18號","121.453465","25.233645","6501000","淡水區"
"251001","559-UM","2019/12/19 21:13:41","新北市淡水區中山北路二段195號","121.444273333333","25.1854416666667","6501000","淡水區"
"251011","650-BX","2019/12/19 21:13:42","新北市淡水區新民街120巷45弄2號","121.43841","25.1797316666667","6501000","淡水區"
"251003","766-UM","2019/12/19 21:13:42","新北市淡水區新春街96號","121.439038333333","25.18244","6501000","淡水區"
"251014","178-VK","2019/12/19 21:13:28","新北市淡水區六塊厝2-1號","121.450123333333","25.240465","6501000","淡水區"
"247012","KED-0683","2019/12/19 21:13:41","新北市蘆洲區中興街15巷42號","121.479961666667","25.0885483333333","6501400","蘆洲區"
"242009","349-TH","2019/12/19 21:13:45","新北市三重區重化街3號","121.468268333333","25.0642983333333","6500500","新莊區"
"242019","351-TH","2019/12/19 21:13:37","新北市樹林區中山路三段206-1號","121.384188333333","24.9672183333333","6500500","新莊區"
