"lineid","car","time","location","longitude","latitude","cityid","cityname"
"234076","969-R7","2019/09/05 12:19:38","新北市永和區福和路1號","121.526441666667","25.00978","6500400","永和區"
"244023","483-VK","2019/09/05 12:07:16","新北市林口區粉寮路二段160巷28號","121.405138333333","25.09078","6501700","林口區"
"235005","802-TS","2019/09/05 12:19:38","新北市中和區和城路一段271巷1號","121.485431666667","24.991565","6500300","中和區"
"228005","097-TW","2019/09/05 12:19:30","新北市貢寮區福連里福興街37-2號","121.992338333333","25.0116833333333","6502600","貢寮區"
"228004","212-TW","2019/09/05 12:19:39","新北市貢寮區貢寮里長泰路13-1號","121.898501666667","25.0204816666667","6502600","貢寮區"
