"lineid","car","time","location","longitude","latitude","cityid","cityname"
"234044","148-BY","2019/09/05 13:29:46","新北市永和區成功路二段4號","121.52654","25.001155","6500400","永和區"
"234078","298-R6","2019/09/05 13:29:32","新北市永和區環河東路三段60號","121.526833333333","25.0058666666667","6500400","永和區"
"234036","336-UY","2019/09/05 13:29:44","新北市永和區民樂街35巷2號","121.52759","25.00089","6500400","永和區"
"234062","337-UY","2019/09/05 13:29:27","新北市永和區中正路368巷1弄86號","121.520426666667","25.00076","6500400","永和區"
"234084","338-UY","2019/09/05 13:29:44","新北市永和區林森路107號","121.522968333333","25.0033183333333","6500400","永和區"
"234068","552-UM","2019/09/05 13:29:40","新北市永和區中正路666巷59號","121.519086666667","25.00927","6500400","永和區"
"234015","745-BX","2019/09/05 13:29:35","新北市永和區環河西路一段15號","121.514558333333","25.0181633333333","6500400","永和區"
"234028","746-BX","2019/09/05 13:29:39","新北市永和區四維街74號","121.523611666667","24.9984","6500400","永和區"
"234052","KEA-2590","2019/09/05 13:29:35","新北市永和區復興街25號","121.516248333333","25.0130883333333","6500400","永和區"
"234005","KED-0605","2019/09/05 13:29:42","新北市永和區中山路一段230號","121.507928333333","25.0082233333333","6500400","永和區"
"234012","KEA-2591","2019/09/05 13:29:46","新北市永和區中山路一段211-1號","121.508651666667","25.0084083333333","6500400","永和區"
"234060","AAD-866","2019/09/05 13:29:34","新北市永和區中正路526號","121.51725","25.0050616666667","6500400","永和區"
"234040","862-TW","2019/09/05 13:29:37","新北市永和區中和路519巷16號","121.510836666667","25.0031633333333","6500400","永和區"
"234048","863-TW","2019/09/05 13:29:39","新北市永和區信義路93號","121.512338333333","25.013825","6500400","永和區"
"234025","9371-KE","2019/09/05 13:29:46","新北市永和區永和路二段5號","121.514398333333","25.010135","6500400","永和區"
"234010","9373-KE","2019/09/05 13:29:48","新北市永和區仁愛路141巷30弄4號","121.511628333333","25.011655","6500400","永和區"
"248016","026-BX","2019/09/05 13:29:47","新北市五股區凌雲路一段83巷1-5號","121.45031","25.1005933333333","6501500","五股區"
"248005","077-UY","2019/09/05 13:29:33","新北市五股區四維路38號","121.467255","25.0716083333333","6501500","五股區"
"248007","KED-0815","2019/09/05 13:29:30","新北市五股區中興路二段78-5號","121.461378333333","25.0786366666667","6501500","五股區"
"248017","KED-0813","2019/09/05 13:29:39","新北市五股區民義路二段52巷22號","121.415635","25.1112716666667","6501500","五股區"
"248012","247-BX","2019/09/05 13:29:28","新北市五股區御史路41巷2號","121.44232","25.0925533333333","6501500","五股區"
"248013","261-SL","2019/09/05 13:29:49","新北市五股區成泰路二段49號","121.437463333333","25.0825016666667","6501500","五股區"
"248009","272-BY","2019/09/05 13:29:41","新北市五股區水碓路3-1號","121.433846666667","25.0722733333333","6501500","五股區"
"248003","677-BX","2019/09/05 13:29:31","新北市五股區工商路173號","121.434231666667","25.08682","6501500","五股區"
"234022","9380-KE","2019/09/05 13:29:42","新北市永和區環河東路二段90號","121.523976666667","25.010595","6500400","永和區"
"234076","969-R7","2019/09/05 13:29:38","新北市永和區中正路286巷7號","121.517685","24.9986733333333","6500400","永和區"
"234072","AAC-211","2019/09/05 13:29:43","新北市永和區永和路二段96號","121.515041666667","25.0117166666667","6500400","永和區"
"234066","AAC-212","2019/09/05 13:29:44","新北市永和區永貞路400號","121.50922","25.0075933333333","6500400","永和區"
"234001","AAC-295","2019/09/05 13:29:33","新北市永和區永和路一段118號","121.514051666667","25.0078533333333","6500400","永和區"
"244003","248-BX","2019/09/05 13:29:42","新北市林口區寶斗厝坑39號","121.335981666667","25.1191183333333","6501700","林口區"
"231030","002-UM","2019/09/05 13:29:36","新北市新店區安華路28-1號","121.51959","24.96082","6500600","新店區"
"231027","0293-UT","2019/09/05 13:29:37","新北市新店區環河路19巷5弄2號","121.537616666667","24.9606833333333","6500600","新店區"
"231005","046-UY","2019/09/05 13:29:36","新北市新店區北新路一段126巷27號","121.54329","24.9696233333333","6500600","新店區"
"231029","106-UY","2019/09/05 13:29:42","新北市新店區安忠路205巷8號","121.509383333333","24.9550016666667","6500600","新店區"
"231018","107-UY","2019/09/05 13:29:37","新北市新店區中央四街5-1號","121.530183333333","24.97383","6500600","新店區"
"231013","108-UY","2019/09/05 13:29:47","新北市新店區安康路一段9-2號","121.533943333333","24.9606366666667","6500600","新店區"
"231036","110-UY","2019/09/05 13:29:36","新北市新店區安祥路190巷15號","121.477935","24.95614","6500600","新店區"
"231031","256-BX","2019/09/05 13:29:35","新北市新店區安康路一段355-3號","121.519698333333","24.9621566666667","6500600","新店區"
"231023","260-TV","2019/09/05 13:29:34","新北市新店區北宜路一段168號","121.54045","24.9529766666667","6500600","新店區"
"231003","268-BY","2019/09/05 13:29:38","新北市新店區中興路一段256號","121.54466","24.966915","6500600","新店區"
"231035","278-BY","2019/09/05 13:29:48","新北市新店區安康路一段355號","121.519835","24.9627483333333","6500600","新店區"
"231017","AAD-862","2019/09/05 13:29:46","新北市新店區北宜路一段202號","121.54325","24.953035","6500600","新店區"
"231006","355-BY","2019/09/05 13:29:33","新北市新店區安華路28-1號","121.519355","24.9609466666667","6500600","新店區"
"231038","3712-VJ","2019/09/05 13:29:35","新北市新店區安華路1-1號","121.519345","24.9605266666667","6500600","新店區"
"231024","4716-K9","2019/09/05 13:29:36","新北市新店區北新路二段29巷3弄1號","121.54217","24.9730233333333","6500600","新店區"
"231025","4715-K9","2019/09/05 13:29:39","新北市新店區中央五街39號","121.528525","24.9751083333333","6500600","新店區"
"231021","515-UM","2019/09/05 13:29:38","新北市新店區新烏路一段17巷12號","121.546136666667","24.95062","6500600","新店區"
"231034","616-UM","2019/09/05 13:29:29","新北市新店區安華路28-1號","121.519453333333","24.9605333333333","6500600","新店區"
"231002","618-UM","2019/09/05 13:29:39","新北市新店區安康路一段52巷1號","121.529908333333","24.9613033333333","6500600","新店區"
"231011","KED-0819","2019/09/05 13:29:39","新北市新店區光明街157號","121.539443333333","24.9624316666667","6500600","新店區"
"231010","719-UM","2019/09/05 13:29:40","新北市新店區中央路13號","121.533345","24.9783833333333","6500600","新店區"
"231026","720-UM","2019/09/05 13:29:37","新北市新店區安一路一段1-1號","121.51943","24.9612116666667","6500600","新店區"
"231028","897-TW","2019/09/05 13:29:37","新北市新店區安華路28-1號","121.519461666667","24.9607133333333","6500600","新店區"
"231001","898-TW","2019/09/05 13:29:44","新北市新店區安康路一段132號","121.526768333333","24.9629016666667","6500600","新店區"
"231004","899-TW","2019/09/05 13:29:30","新北市新店區安康路一段355-3號","121.519801666667","24.9623833333333","6500600","新店區"
"231037","AKT-0513","2019/09/05 13:29:30","新北市新店區薏仁坑路6-3號","121.499568333333","24.95881","6500600","新店區"
"235030","003-UY","2019/09/05 13:29:48","新北市中和區中山路二段110號","121.502966666667","25.0038233333333","6500300","中和區"
"235027","006-UY","2019/09/05 13:29:38","新北市中和區連城路347巷2號","121.488155","24.995875","6500300","中和區"
"235064","031-BX","2019/09/05 13:29:41","新北市中和區中正路165號","121.49828","24.993555","6500300","中和區"
"235020","096-UM","2019/09/05 13:29:27","新北市中和區新民街106號","121.480776666667","25.0083466666667","6500300","中和區"
"235003","097-UM","2019/09/05 13:29:29","新北市中和區景平路135號","121.514688333333","24.9922216666667","6500300","中和區"
"235029","098-UM","2019/09/05 13:29:48","新北市中和區莊敬路49巷20弄10號","121.502135","25.005975","6500300","中和區"
"235004","150-BY","2019/09/05 13:29:33","新北市中和區保健路50巷66號","121.50917","24.99528","6500300","中和區"
"235022","151-BY","2019/09/05 13:29:30","新北市中和區圓通路369巷60號","121.490756666667","24.9829416666667","6500300","中和區"
"235019","183-VK","2019/09/05 13:29:20","新北市中和區國光街8巷7號","121.471653333333","25.0006616666667","6500300","中和區"
"235002","185-VK","2019/09/05 13:29:44","新北市中和區自立路149號","121.522733333333","24.99314","6500300","中和區"
"235013","186-VK","2019/09/05 13:29:47","新北市中和區景安路84號","121.505658333333","24.9960933333333","6500300","中和區"
"235031","255-BX","2019/09/05 13:29:30","新北市中和區連城路340巷14弄16號","121.482996666667","24.9972916666667","6500300","中和區"
"235007","352-BY","2019/09/05 13:29:26","新北市中和區景平路239巷1號","121.509903333333","24.9927183333333","6500300","中和區"
"235006","KEA-2878","2019/09/05 13:29:42","新北市中和區景平路64巷15號","121.522223333333","24.9914066666667","6500300","中和區"
"235014","4979-A6","2019/09/05 13:29:30","新北市中和區景新街410巷18弄24號","121.511911666667","24.9901066666667","6500300","中和區"
"235033","4980-A6","2019/09/05 13:29:38","新北市中和區連城路127巷16號","121.496623333333","24.998305","6500300","中和區"
"235034","558-UM","2019/09/05 13:29:41","新北市中和區景新街133號","121.505863333333","24.9972633333333","6500300","中和區"
"235001","565-BX","2019/09/05 13:29:41","新北市中和區復興路49巷6號","121.504541666667","24.989655","6500300","中和區"
"235024","KED-0823","2019/09/05 13:29:44","新北市中和區中山路三段81號","121.475803333333","25.005895","6500300","中和區"
"235018","640-BX","2019/09/05 13:29:46","新北市中和區民享街86巷30弄8號","121.473128333333","25.00113","6500300","中和區"
"235011","732-UM","2019/09/05 13:29:47","新北市中和區南山路493號","121.507943333333","24.9878966666667","6500300","中和區"
"235035","783-BX","2019/09/05 13:29:40","新北市中和區中板路41號","121.48244","25.012155","6500300","中和區"
"235021","801-TS","2019/09/05 13:29:34","新北市中和區員山路327巷48號","121.48025","25.0017483333333","6500300","中和區"
"235005","802-TS","2019/09/05 13:29:38","新北市中和區中和路326號","121.509796666667","25.00095","6500300","中和區"
"235016","805-TS","2019/09/05 13:29:40","新北市中和區興南路二段124號","121.504481666667","24.983615","6500300","中和區"
"235012","896-TW","2019/09/05 13:29:38","新北市中和區中正路637巷52弄1號","121.485585","24.9935733333333","6500300","中和區"
"235017","900-TW","2019/09/05 13:29:36","新北市中和區員山路82巷10弄8號","121.481376666667","24.9936116666667","6500300","中和區"
"235028","911-UM","2019/09/05 13:29:32","新北市中和區連城路89巷1號","121.496825","24.9999216666667","6500300","中和區"
"235015","157-BY","2019/09/05 13:29:35","新北市中和區興南路二段142巷12-3號","121.503211666667","24.9839366666667","6500300","中和區"
"235001","AAC-213","2019/09/05 13:29:34","新北市中和區景德街52號","121.517595","24.9915483333333","6500300","中和區"
"235023","AAC-215","2019/09/05 13:29:40","新北市中和區員山路36巷16-3號","121.485","24.9912033333333","6500300","中和區"
"220013","072-UY","2019/09/05 13:29:44","新北市板橋區南雅南路二段120-24號","121.451681666667","24.998825","6500100","板橋區"
"220017","AAD-861","2019/09/05 13:29:34","新北市板橋區華東街1-10號","121.4484","24.9951233333333","6500100","板橋區"
"247013","056-VK","2019/09/05 13:29:38","新北市五股區中興路三段2巷10號","121.44921","25.0810416666667","6501400","蘆洲區"
"247001","001-UY","2019/09/05 13:29:33","新北市五股區中興路三段163號","121.449295","25.0808566666667","6501400","蘆洲區"
"235036","251-BX","2019/09/05 13:29:46","新北市中和區連城路263號","121.491633333333","24.996445","6500300","中和區"
"228005","097-TW","2019/09/05 13:29:10","新北市貢寮區美豐里文秀坑8號","121.902556666667","25.0504283333333","6502600","貢寮區"
"228004","212-TW","2019/09/05 13:29:39","新北市貢寮區龍崗里石壁坑街17號","121.910458333333","24.98959","6502600","貢寮區"
"253003","6232-TK","2019/09/05 13:29:48","新北市石門區內石門83-1號","121.569381666667","25.26407","6502200","石門區"
"253004","6251-TK","2019/09/05 13:26:30","新北市石門區竹子湖11號","121.617941666667","25.25588","6502200","石門區"
"253002","637-UY","2019/09/05 13:29:36","新北市石門區九芎林5-3號","121.559938333333","25.2681116666667","6502200","石門區"
"253001","KEC-0718","2019/09/05 13:29:36","新北市石門區白沙灣別墅31號","121.510816666667","25.2778433333333","6502200","石門區"
"207002","749-BX","2019/09/05 13:29:48","新北市萬里區崁腳里崁腳路166號","121.645181666667","25.15598","6502800","萬里區"
"207001","662-BX","2019/09/05 13:29:35","新北市萬里區野柳里八斗60號","121.668463333333","25.2034866666667","6502800","萬里區"
"252005","AAC-283","2019/09/05 13:29:47","新北市三芝區福德里土地公埔72-2號","121.522551666667","25.22384","6502100","三芝區"
"220027","145-BY","2019/09/05 13:29:41","新北市板橋區華東街1-10號","121.448346666667","24.9951116666667","6500100","板橋區"
"220030","610-BX","2019/09/05 13:29:37","新北市板橋區華東街1-10號","121.448235","24.9950016666667","6500100","板橋區"
"220004","276-BY","2019/09/05 13:29:27","新北市板橋區華東街1-9號","121.44819","24.9949516666667","6500100","板橋區"
"220020","277-BY","2019/09/05 13:29:42","新北市板橋區華東街1-10號","121.448391666667","24.9950533333333","6500100","板橋區"
"220043","283-UM","2019/09/05 13:29:33","新北市板橋區民生路二段161巷1號","121.47025","25.01989","6500100","板橋區"
"220019","283-VK","2019/09/05 13:29:27","新北市板橋區華東街1-9號","121.448058333333","24.9949416666667","6500100","板橋區"
"220031","286-VK","2019/09/05 13:29:43","新北市板橋區華東街1-10號","121.448376666667","24.9951416666667","6500100","板橋區"
"220029","287-VK","2019/09/05 13:29:35","新北市板橋區華東街1-10號","121.448265","24.9950383333333","6500100","板橋區"
"220023","303-R5","2019/09/05 13:29:35","新北市板橋區華東街1-10號","121.448233333333","24.9949933333333","6500100","板橋區"
"220104","560-BX","2019/09/05 13:29:47","新北市板橋區南雅南路一段121號","121.455168333333","25.00468","6500100","板橋區"
"220025","687-BX","2019/09/05 13:29:34","新北市板橋區大觀路二段265巷7-7號","121.444118333333","24.9945683333333","6500100","板橋區"
"220002","741-BX","2019/09/05 13:29:45","新北市板橋區華東街1-9號","121.448173333333","24.9949566666667","6500100","板橋區"
"220022","895-R6","2019/09/05 13:29:33","新北市板橋區四川路二段130巷25弄4號","121.44921","24.9944833333333","6500100","板橋區"
"220021","985-R7","2019/09/05 13:29:36","新北市板橋區四川路二段140巷6號","121.449633333333","24.9932566666667","6500100","板橋區"
"220012","AAC-253","2019/09/05 13:29:39","新北市板橋區南雅南路二段116號","121.45247","25.0003366666667","6500100","板橋區"
"235032","KEA-2873","2019/09/05 13:29:28","新北市中和區中正路211巷36弄4號","121.497185","24.9927583333333","6500300","中和區"
"235025","KEA-2875","2019/09/05 13:29:23","新北市中和區民享街90巷8號","121.47427","25.000235","6500300","中和區"
"235026","KEA-2876","2019/09/05 13:29:27","新北市中和區景平路677巷5號","121.49628","25.0027783333333","6500300","中和區"
