"lineid","car","time","location","longitude","latitude","cityid","cityname"
"234044","148-BY","2019/09/05 13:59:31","新北市永和區成功路一段2號","121.526966666667","25.0055916666667","6500400","永和區"
"234078","298-R6","2019/09/05 13:59:45","新北市永和區永亨路98號","121.52297","25.0047366666667","6500400","永和區"
"234036","336-UY","2019/09/05 13:59:43","新北市永和區成功路二段177-1號","121.526571666667","24.9968466666667","6500400","永和區"
"234062","337-UY","2019/09/05 13:59:33","新北市永和區中正路412巷20弄15號","121.518811666667","25.0016066666667","6500400","永和區"
"234084","338-UY","2019/09/05 13:59:40","新北市永和區福和路188號","121.520275","25.0077333333333","6500400","永和區"
"234068","552-UM","2019/09/05 13:59:39","新北市永和區國光路51號","121.519033333333","25.00823","6500400","永和區"
"234015","745-BX","2019/09/05 13:59:35","新北市永和區文化路120號","121.513198333333","25.01526","6500400","永和區"
"234028","746-BX","2019/09/05 13:59:39","新北市永和區民生路67巷51號","121.525401666667","24.997565","6500400","永和區"
"234052","KEA-2590","2019/09/05 13:59:35","新北市永和區竹林路39巷35-1號","121.52023","25.0153466666667","6500400","永和區"
"234005","KED-0605","2019/09/05 13:59:42","新北市永和區中和路495號","121.510541666667","25.0021883333333","6500400","永和區"
"234012","KEA-2591","2019/09/05 13:59:25","新北市永和區保生路55號","121.504765","25.0106466666667","6500400","永和區"
"234060","AAD-866","2019/09/05 13:59:34","新北市永和區中正路283巷74號","121.515693333333","24.999135","6500400","永和區"
"234040","862-TW","2019/09/05 13:59:37","新北市永和區中和路335巷14號","121.50757","25.0002883333333","6500400","永和區"
"234048","863-TW","2019/09/05 13:59:39","新北市永和區保安路264號","121.505788333333","25.0123483333333","6500400","永和區"
"234025","9371-KE","2019/09/05 13:59:26","新北市永和區自由街58號","121.51372","25.0058716666667","6500400","永和區"
"234010","9373-KE","2019/09/05 13:59:43","新北市永和區仁愛路352巷122弄13號","121.50065","25.0090166666667","6500400","永和區"
"248016","026-BX","2019/09/05 13:59:26","新北市五股區成泰路三段577巷21號","121.451466666667","25.1026983333333","6501500","五股區"
"248007","KED-0815","2019/09/05 13:59:30","新北市五股區中興路一段128巷18號","121.465743333333","25.0746716666667","6501500","五股區"
"248017","KED-0813","2019/09/05 13:59:38","新北市五股區民義路一段287巷1號","121.425576666667","25.0925883333333","6501500","五股區"
"248012","247-BX","2019/09/05 13:59:28","新北市五股區成泰路二段195巷1號","121.440345","25.0873483333333","6501500","五股區"
"248003","677-BX","2019/09/05 13:59:31","新北市五股區民義路二段54號","121.406513333333","25.1071966666667","6501500","五股區"
"234022","9380-KE","2019/09/05 13:59:42","新北市永和區永和路二段239-1號","121.515668333333","25.0146166666667","6500400","永和區"
"234076","969-R7","2019/09/05 13:59:38","新北市永和區民權路58巷1弄10號","121.519801666667","24.9978033333333","6500400","永和區"
"234072","AAC-211","2019/09/05 13:59:23","新北市永和區豫溪街185號","121.52252","25.0103716666667","6500400","永和區"
"234066","AAC-212","2019/09/05 13:59:37","新北市永和區永貞路376號","121.509793333333","25.0068916666667","6500400","永和區"
"234001","AAC-295","2019/09/05 13:59:33","新北市永和區福和路353號","121.51464","25.007315","6500400","永和區"
"244003","248-BX","2019/09/05 13:59:42","新北市林口區太平里2-5號","121.361013333333","25.13273","6501700","林口區"
"243004","AAD-798","2019/09/05 13:59:26","新北市泰山區泰林路二段73巷23號","121.434475","25.0579366666667","6501600","泰山區"
"243002","297-R6","2019/09/05 13:59:29","新北市泰山區辭修路26巷6號","121.429181666667","25.0584233333333","6501600","泰山區"
"243006","KEA-2801","2019/09/05 13:59:29","新北市泰山區黎明路17號","121.420851666667","25.0629316666667","6501600","泰山區"
"243008","421-VK","2019/09/05 13:58:33","新北市泰山區明志路二段152-1號","121.427595","25.050755","6501600","泰山區"
"243001","KEA-2215","2019/09/05 13:59:37","新北市泰山區泰林路二段280巷1號","121.431463333333","25.0625866666667","6501600","泰山區"
"243003","KEA-2216","2019/09/05 13:59:29","新北市泰山區明志路二段235號","121.4273","25.0483283333333","6501600","泰山區"
"243007","680-BX","2019/09/05 13:59:26","新北市泰山區美寧街48號","121.430426666667","25.0643883333333","6501600","泰山區"
"231030","002-UM","2019/09/05 13:59:36","新北市新店區安康路一段166號","121.525818333333","24.9631266666667","6500600","新店區"
"231027","0293-UT","2019/09/05 13:59:38","新北市新店區北宜路一段39巷20號","121.539036666667","24.958545","6500600","新店區"
"231005","046-UY","2019/09/05 13:59:36","新北市新店區寶中路47-3號","121.545683333333","24.9795916666667","6500600","新店區"
"231029","106-UY","2019/09/05 13:59:42","新北市新店區安康路二段1-5號","121.517106666667","24.9638466666667","6500600","新店區"
"231018","107-UY","2019/09/05 13:59:37","新北市新店區中央路192號","121.530915","24.9748283333333","6500600","新店區"
"231013","108-UY","2019/09/05 13:59:27","新北市新店區明德路64號","121.541583333333","24.97943","6500600","新店區"
"231036","110-UY","2019/09/05 13:59:36","新北市新店區安祥路109巷5號","121.475696666667","24.9589433333333","6500600","新店區"
"231031","256-BX","2019/09/05 13:59:35","新北市新店區華潭街52號","121.528456666667","24.9544233333333","6500600","新店區"
"231023","260-TV","2019/09/05 13:59:29","新北市新店區文中路35巷12號","121.53985","24.9567933333333","6500600","新店區"
"231003","268-BY","2019/09/05 13:59:38","新北市新店區中興路一段24號","121.538646666667","24.9584716666667","6500600","新店區"
"231035","278-BY","2019/09/05 13:59:28","新北市新店區安和路一段1號","121.51654","24.963795","6500600","新店區"
"231017","AAD-862","2019/09/05 13:59:46","新北市新店區北宜路二段239號","121.553901666667","24.953475","6500600","新店區"
"231006","355-BY","2019/09/05 13:59:33","新北市新店區北宜路二段71號","121.549795","24.9516366666667","6500600","新店區"
"231038","3712-VJ","2019/09/05 13:59:15","新北市新店區安華路30巷1號","121.51961","24.9592583333333","6500600","新店區"
"231024","4716-K9","2019/09/05 13:59:36","新北市新店區北新路一段271巷26號","121.54009","24.9672716666667","6500600","新店區"
"231025","4715-K9","2019/09/05 13:59:39","新北市新店區中正路302巷1號","121.537918333333","24.9752","6500600","新店區"
"231021","515-UM","2019/09/05 13:59:38","新北市新店區新烏路二段9號","121.544338333333","24.9292783333333","6500600","新店區"
"231034","616-UM","2019/09/05 13:59:29","新北市新店區達觀路41號","121.502885","24.9382183333333","6500600","新店區"
"231002","618-UM","2019/09/05 13:59:39","新北市新店區中正路696號","121.534","24.9905683333333","6500600","新店區"
"231011","KED-0819","2019/09/05 13:59:39","新北市新店區中興路二段57巷23號","121.54547","24.9710133333333","6500600","新店區"
"231010","719-UM","2019/09/05 13:59:40","新北市新店區安康路一段202號","121.524261666667","24.9634816666667","6500600","新店區"
"231026","720-UM","2019/09/05 13:59:37","新北市新店區福園街10巷9號","121.532448333333","24.9730866666667","6500600","新店區"
"231028","897-TW","2019/09/05 13:59:37","新北市新店區安和路2段237-1號","121.517058333333","24.9765383333333","6500600","新店區"
"231001","898-TW","2019/09/05 13:59:24","新北市新店區三民路24號","121.537163333333","24.971025","6500600","新店區"
"231004","899-TW","2019/09/05 13:59:41","新北市新店區北新路二段99號","121.54295","24.974375","6500600","新店區"
"231037","AKT-0513","2019/09/05 13:59:30","新北市新店區安康路三段359巷12弄10號","121.484303333333","24.9497966666667","6500600","新店區"
"235030","003-UY","2019/09/05 13:59:28","新北市中和區水源路6巷22號","121.503161666667","25.0031566666667","6500300","中和區"
"235027","006-UY","2019/09/05 13:59:38","新北市中和區中正路548號","121.4871","24.99445","6500300","中和區"
"235064","031-BX","2019/09/05 13:59:41","新北市中和區圓通路231號","121.496258333333","24.9942216666667","6500300","中和區"
"235020","096-UM","2019/09/05 13:59:27","新北市板橋區三民路二段226號","121.478766666667","25.01153","6500300","中和區"
"235003","097-UM","2019/09/05 13:59:30","新北市中和區秀朗路三段179號","121.524435","24.9907783333333","6500300","中和區"
"235029","098-UM","2019/09/05 13:59:28","新北市中和區勝利路1號","121.500061666667","25.0079633333333","6500300","中和區"
"235004","150-BY","2019/09/05 13:59:33","新北市中和區保健路46巷26弄10號","121.508191666667","24.99555","6500300","中和區"
"235022","151-BY","2019/09/05 13:59:30","新北市中和區員山路77巷1弄1號","121.48058","24.9940916666667","6500300","中和區"
"235019","183-VK","2019/09/05 13:59:40","新北市中和區德光路104號","121.468213333333","25.0032916666667","6500300","中和區"
"235002","185-VK","2019/09/05 13:59:24","新北市中和區立人街22號","121.519006666667","24.9941833333333","6500300","中和區"
"235013","186-VK","2019/09/05 13:59:41","新北市中和區景安路68號","121.505823333333","24.9966716666667","6500300","中和區"
"235031","255-BX","2019/09/05 13:59:30","新北市中和區中正路691號","121.485063333333","24.9979416666667","6500300","中和區"
"235008","293-VK","2019/09/05 13:59:32","新北市中和區中興街161巷1弄2號","121.500311666667","24.99091","6500300","中和區"
"235007","352-BY","2019/09/05 13:59:46","新北市中和區成功路40號","121.526043333333","24.9929916666667","6500300","中和區"
"235006","KEA-2878","2019/09/05 13:59:40","新北市中和區秀朗路三段60巷68號","121.524023333333","24.9948383333333","6500300","中和區"
"247015","KEA-2869","2019/09/05 13:59:36","新北市蘆洲區光華路42號","121.468885","25.08316","6501400","蘆洲區"
"247009","KED-0682","2019/09/05 13:59:40","新北市蘆洲區中興街48號","121.48152","25.0872183333333","6501400","蘆洲區"
"235014","4979-A6","2019/09/05 13:59:36","新北市中和區華新街58號","121.508053333333","24.983945","6500300","中和區"
"235033","4980-A6","2019/09/05 13:59:38","新北市中和區圓通路109巷24號","121.500025","24.996175","6500300","中和區"
"235034","558-UM","2019/09/05 13:59:41","新北市中和區中和路174號","121.504788333333","24.9997","6500300","中和區"
"235001","565-BX","2019/09/05 13:59:41","新北市中和區景新街467巷20弄146號","121.515203333333","24.98743","6500300","中和區"
"235024","KED-0823","2019/09/05 13:59:24","新北市中和區員山路294巷4號","121.48178","25.002425","6500300","中和區"
"235018","640-BX","2019/09/05 13:59:26","新北市中和區民德路163號","121.468698333333","24.999615","6500300","中和區"
"235011","732-UM","2019/09/05 13:59:27","新北市中和區興南路二段34巷75號","121.50517","24.985015","6500300","中和區"
"235010","733-UM","2019/09/05 13:59:35","新北市中和區興南路二段33號","121.507845","24.985625","6500300","中和區"
"235035","783-BX","2019/09/05 13:59:31","新北市中和區立業路87號","121.490908333333","25.0068083333333","6500300","中和區"
"235021","801-TS","2019/09/05 13:59:34","新北市中和區民利街50號","121.479323333333","24.99879","6500300","中和區"
"235005","802-TS","2019/09/05 13:59:37","新北市中和區永貞路239巷4號","121.512938333333","25.00367","6500300","中和區"
"235016","805-TS","2019/09/05 13:59:40","新北市中和區興南路二段131-10號","121.504103333333","24.9806766666667","6500300","中和區"
"235012","896-TW","2019/09/05 13:59:38","新北市中和區華新街71號","121.508173333333","24.9839666666667","6500300","中和區"
"235017","900-TW","2019/09/05 13:59:36","新北市板橋區和平路178號","121.463385","24.9955416666667","6500300","中和區"
"235028","911-UM","2019/09/05 13:59:32","新北市中和區泰和街38巷25號","121.498618333333","25.000965","6500300","中和區"
"235015","157-BY","2019/09/05 13:59:35","新北市中和區忠孝街11巷10號","121.509986666667","24.9832033333333","6500300","中和區"
"235001","AAC-213","2019/09/05 13:59:34","新北市中和區秀朗路三段58-2號","121.525888333333","24.9951466666667","6500300","中和區"
"235023","AAC-215","2019/09/05 13:59:40","新北市中和區圓通路367巷20弄29號","121.491301666667","24.9881833333333","6500300","中和區"
"220013","072-UY","2019/09/05 13:59:24","新北市板橋區民族路247巷9弄46號","121.470945","25.0086533333333","6500100","板橋區"
"220034","073-UY","2019/09/05 13:59:42","新北市板橋區大智街32號","121.455291666667","25.0150733333333","6500100","板橋區"
"220105","075-UY","2019/09/05 13:59:26","新北市板橋區雙十路三段9號","121.471653333333","25.0302916666667","6500100","板橋區"
"220017","AAD-861","2019/09/05 13:59:34","新北市板橋區東興街46號","121.457683333333","25.0052983333333","6500100","板橋區"
"220016","120-SR","2019/09/05 13:59:35","新北市板橋區中山路二段465巷74弄2-5號","121.481163333333","25.0220316666667","6500100","板橋區"
"247005","893-R6","2019/09/05 13:59:39","新北市蘆洲區永安南路二段32號","121.467118333333","25.0771366666667","6501400","蘆洲區"
"247019","546-UM","2019/09/05 13:59:42","新北市蘆洲區民族路426巷40弄11號","121.47342","25.0931666666667","6501400","蘆洲區"
"247011","337-TH","2019/09/05 13:59:38","新北市蘆洲區民族路154號","121.479633333333","25.086085","6501400","蘆洲區"
"247003","336-TH","2019/09/05 13:59:35","新北市蘆洲區長榮路1號","121.463916666667","25.082025","6501400","蘆洲區"
"247013","056-VK","2019/09/05 13:59:38","新北市蘆洲區保和街50-1號","121.469433333333","25.086185","6501400","蘆洲區"
"247021","007-UY","2019/09/05 13:59:41","新北市蘆洲區中正路178號","121.467091666667","25.0878433333333","6501400","蘆洲區"
"247007","002-UY","2019/09/05 13:59:41","新北市蘆洲區集賢路271號","121.481071666667","25.08389","6501400","蘆洲區"
"247001","001-UY","2019/09/05 13:59:33","新北市蘆洲區永平街32巷74號","121.46054","25.0936183333333","6501400","蘆洲區"
"235036","251-BX","2019/09/05 13:59:25","新北市永和區中山路一段330號","121.506225","25.00649","6500300","中和區"
"228005","097-TW","2019/09/05 13:58:30","新北市貢寮區美豐里雞母嶺街52-1號","121.888558333333","25.0684866666667","6502600","貢寮區"
"228004","212-TW","2019/09/05 13:59:39","新北市貢寮區龍崗里泮宮路33號","121.907941666667","25.0175366666667","6502600","貢寮區"
"253003","6232-TK","2019/09/05 13:59:28","新北市石門區尖子鹿53-2號","121.580623333333","25.2703683333333","6502200","石門區"
"253004","6251-TK","2019/09/05 13:59:32","新北市石門區小坑40號","121.598798333333","25.26591","6502200","石門區"
"253002","637-UY","2019/09/05 13:58:36","新北市石門區七股60號","121.553766666667","25.2524","6502200","石門區"
"253001","KEC-0718","2019/09/05 13:59:36","新北市石門區八甲74號","121.52963","25.26401","6502200","石門區"
"207002","749-BX","2019/09/05 13:58:48","新北市萬里區溪底里烏塗炭3-1號","121.636233333333","25.1512066666667","6502800","萬里區"
"207001","662-BX","2019/09/05 13:59:35","新北市萬里區磺潭里清水5-1號","121.640763333333","25.2001816666667","6502800","萬里區"
"252005","AAC-283","2019/09/05 13:59:27","新北市三芝區橫山里大坑60號","121.53517","25.2481416666667","6502100","三芝區"
"236040","KED-0685","2019/09/05 13:59:33","新北市土城區城林路6巷80號","121.438416666667","24.979755","6501300","土城區"
"236029","253-BX","2019/09/05 13:59:37","新北市土城區城林路6巷80號","121.4385","24.9797133333333","6501300","土城區"
"236024","269-VK","2019/09/05 13:59:24","新北市土城區承天路35號","121.43729","24.9649016666667","6501300","土城區"
"236012","270-VK","2019/09/05 13:59:26","新北市土城區城林路6巷80號","121.438586666667","24.9798","6501300","土城區"
"236032","271-VK","2019/09/05 13:59:32","新北市土城區中正路75號","121.445438333333","24.9757516666667","6501300","土城區"
"236068","KEA-2877","2019/09/05 13:59:33","新北市土城區員林街5號","121.442556666667","24.9781366666667","6501300","土城區"
"236017","401-BY","2019/09/05 13:59:32","新北市土城區城林路6巷80號","121.438525","24.979815","6501300","土城區"
"236057","912-UM","2019/09/05 13:59:39","新北市土城區中央路三段282號","121.426668333333","24.9636766666667","6501300","土城區"
"236045","913-UM","2019/09/05 13:59:35","新北市土城區明德路一段365-1號","121.453555","24.9790583333333","6501300","土城區"
"236060","915-UM","2019/09/05 13:59:40","新北市土城區城林路6巷80號","121.438481666667","24.979735","6501300","土城區"
"236054","AAC-216","2019/09/05 13:59:30","新北市土城區城林路6巷80號","121.438603333333","24.9797233333333","6501300","土城區"
"220027","145-BY","2019/09/05 13:59:21","新北市板橋區中正路183巷50號","121.454758333333","25.016015","6500100","板橋區"
"220028","200-UY","2019/09/05 13:59:23","新北市板橋區大觀路二段265巷3弄3號","121.443036666667","24.998375","6500100","板橋區"
"220030","610-BX","2019/09/05 13:59:37","新北市板橋區篤行路三段70號","121.427035","24.9854716666667","6500100","板橋區"
"220050","245-BX","2019/09/05 13:59:45","新北市板橋區萬板路15號","121.470573333333","25.0210333333333","6500100","板橋區"
"220004","276-BY","2019/09/05 13:59:27","新北市板橋區信義路78號","121.457598333333","24.9933333333333","6500100","板橋區"
"220020","277-BY","2019/09/05 13:59:42","新北市樹林區樹新路96號","121.429728333333","24.99765","6500100","板橋區"
"220043","283-UM","2019/09/05 13:59:38","新北市板橋區光武街151號","121.465476666667","25.0294033333333","6500100","板橋區"
"220019","283-VK","2019/09/05 13:59:27","新北市板橋區忠孝路176巷48號","121.465501666667","25.0017383333333","6500100","板橋區"
"220001","285-VK","2019/09/05 13:59:35","新北市板橋區永豐街121號","121.47441","25.0197666666667","6500100","板橋區"
"220031","286-VK","2019/09/05 13:59:43","新北市板橋區大觀路一段38巷170弄1號","121.442001666667","25.0046033333333","6500100","板橋區"
"220029","287-VK","2019/09/05 13:59:35","新北市板橋區光華街15巷38號","121.452956666667","25.01159","6500100","板橋區"
"220039","288-VK","2019/09/05 13:59:43","新北市板橋區裕民街44號","121.461758333333","25.0288466666667","6500100","板橋區"
"220009","293-UM","2019/09/05 13:59:36","新北市板橋區懷仁街85巷6號","121.477701666667","25.0185366666667","6500100","板橋區"
"220010","295-UM","2019/09/05 13:59:32","新北市中和區環中路120號","121.48193","25.0124416666667","6500100","板橋區"
"220032","296-UM","2019/09/05 13:59:37","新北市板橋區大觀路二段265巷72弄35號","121.440946666667","24.997065","6500100","板橋區"
"220023","303-R5","2019/09/05 13:59:35","新北市板橋區南雅東路100巷2號","121.454021666667","25.0075283333333","6500100","板橋區"
"220041","307-R5","2019/09/05 13:59:35","新北市板橋區文化路二段225巷60弄53號","121.469066666667","25.029665","6500100","板橋區"
"220047","317-R6","2019/09/05 13:59:30","新北市板橋區民生路二段226巷31弄1號","121.471105","25.0220766666667","6500100","板橋區"
"220038","487-VK","2019/09/05 13:59:40","新北市板橋區文化路二段231號","121.470955","25.028525","6500100","板橋區"
"220037","491-VK","2019/09/05 13:59:39","新北市板橋區莒光路165巷42-1號","121.474441666667","25.0251316666667","6500100","板橋區"
"220104","560-BX","2019/09/05 13:59:30","新北市板橋區中正路277號","121.45553","25.0189833333333","6500100","板橋區"
"220052","561-BX","2019/09/05 13:59:32","新北市板橋區介壽街61號","121.469273333333","25.019555","6500100","板橋區"
"220011","609-BX","2019/09/05 13:59:42","新北市板橋區中山路二段229號","121.476805","25.01731","6500100","板橋區"
"220040","637-BX","2019/09/05 13:59:40","新北市板橋區大同街14-2號","121.477325","25.0269683333333","6500100","板橋區"
"220005","686-BX","2019/09/05 13:59:33","新北市板橋區重慶路293-1號","121.463391666667","24.999125","6500100","板橋區"
"220025","687-BX","2019/09/05 13:59:34","新北市板橋區大觀路二段170號","121.441021666667","24.9985433333333","6500100","板橋區"
"220042","689-BX","2019/09/05 13:59:46","新北市板橋區民生路三段161號","121.465745","25.0269133333333","6500100","板橋區"
"220002","741-BX","2019/09/05 13:59:25","新北市板橋區重慶路127巷15-2號","121.463381666667","25.0049533333333","6500100","板橋區"
"220051","KEA-2699","2019/09/05 13:59:27","新北市板橋區田單街2巷29號","121.48219","25.0280233333333","6500100","板橋區"
"220003","827-TW","2019/09/05 13:59:33","新北市板橋區中山路一段4號","121.459918333333","25.0076683333333","6500100","板橋區"
"220014","829-TW","2019/09/05 13:59:43","新北市板橋區三民路二段正隆巷24-2號","121.47743","25.0133083333333","6500100","板橋區"
"220022","895-R6","2019/09/05 13:59:33","新北市板橋區南雅東路2號","121.455631666667","25.0057983333333","6500100","板橋區"
"220021","985-R7","2019/09/05 13:59:36","新北市板橋區林園街7-1號","121.453996666667","25.0091866666667","6500100","板橋區"
"220046","AAC-210","2019/09/05 13:59:39","新北市板橋區幸福路60巷81號","121.45973","25.0218133333333","6500100","板橋區"
"220012","AAC-253","2019/09/05 13:59:39","新北市板橋區板新路58號","121.473451666667","25.0139166666667","6500100","板橋區"
"235032","KEA-2873","2019/09/05 13:59:28","新北市中和區連勝街37號","121.498233333333","24.997725","6500300","中和區"
"235025","KEA-2875","2019/09/05 13:59:23","新北市中和區中山路三段81號","121.47585","25.0058566666667","6500300","中和區"
"235026","KEA-2876","2019/09/05 13:59:27","新北市中和區中山路二段366巷20號","121.491855","25.0042966666667","6500300","中和區"
