"lineid","car","time","location","longitude","latitude","cityid","cityname"
"234044","148-BY","2019/09/05 14:19:46","新北市永和區永利路156號","121.522675","25.002645","6500400","永和區"
"234078","298-R6","2019/09/05 14:19:51","新北市永和區福和路19巷14號","121.524356666667","25.0078116666667","6500400","永和區"
"234036","336-UY","2019/09/05 14:19:43","新北市永和區成功路一段93巷20弄2號","121.528318333333","25.00265","6500400","永和區"
"234062","337-UY","2019/09/05 14:19:47","新北市永和區得和路225號","121.519728333333","25.000185","6500400","永和區"
"234084","338-UY","2019/09/05 14:19:44","新北市永和區永和路二段50號","121.514815","25.0109116666667","6500400","永和區"
"234068","552-UM","2019/09/05 14:19:39","新北市永和區福和路263巷7弄1號","121.517861666667","25.0070366666667","6500400","永和區"
"234028","746-BX","2019/09/05 14:19:39","新北市永和區民權路49巷31號","121.521763333333","24.9975283333333","6500400","永和區"
"234052","KEA-2590","2019/09/05 14:19:35","新北市永和區光復街2巷26弄1號","121.51765","25.0166666666667","6500400","永和區"
"234005","KED-0605","2019/09/05 14:19:42","新北市永和區保平路196號","121.510158333333","25.00618","6500400","永和區"
"234012","KEA-2591","2019/09/05 14:19:46","新北市永和區保生路5巷1號","121.506193333333","25.0071716666667","6500400","永和區"
"234060","AAD-866","2019/09/05 14:19:34","新北市永和區安樂路166號","121.514643333333","25.0008283333333","6500400","永和區"
"234040","862-TW","2019/09/05 14:19:37","新北市中和區中安街168號","121.510851666667","24.9998933333333","6500400","永和區"
"234048","863-TW","2019/09/05 14:19:39","新北市永和區新生路24巷1號","121.508798333333","25.0163516666667","6500400","永和區"
"234025","9371-KE","2019/09/05 14:19:46","新北市永和區安樂路144巷24號","121.515238333333","24.99966","6500400","永和區"
"248016","026-BX","2019/09/05 14:19:46","新北市五股區凌雲路一段36號","121.451948333333","25.1006816666667","6501500","五股區"
"248007","KED-0815","2019/09/05 14:19:10","新北市蘆洲區中山一路310號","121.46953","25.0775166666667","6501500","五股區"
"248017","KED-0813","2019/09/05 14:17:58","新北市五股區壟路19-2號","121.412868333333","25.0850833333333","6501500","五股區"
"248012","247-BX","2019/09/05 14:19:48","新北市五股區中興路四段48巷1號","121.438243333333","25.0829666666667","6501500","五股區"
"248003","677-BX","2019/09/05 14:19:51","新北市五股區五福路51號","121.432936666667","25.0896283333333","6501500","五股區"
"234076","969-R7","2019/09/05 14:19:38","新北市永和區民族街81巷62號","121.520228333333","24.996555","6500400","永和區"
"234072","AAC-211","2019/09/05 14:19:43","新北市永和區竹林路119巷30弄11號","121.522621666667","25.01166","6500400","永和區"
"234066","AAC-212","2019/09/05 14:19:37","新北市永和區保平路268巷51弄22號","121.506575","25.00593","6500400","永和區"
"234001","AAC-295","2019/09/05 14:19:39","新北市永和區福和路316號","121.516103333333","25.0075833333333","6500400","永和區"
"244003","248-BX","2019/09/05 14:19:42","新北市八里區中山路三段382號","121.368671666667","25.1359283333333","6501700","林口區"
"243004","AAD-798","2019/09/05 14:19:46","新北市泰山區仁義路220巷12號","121.432836666667","25.0536316666667","6501600","泰山區"
"243002","297-R6","2019/09/05 14:19:49","新北市泰山區明志路二段7巷20號","121.430913333333","25.0532916666667","6501600","泰山區"
"243006","KEA-2801","2019/09/05 14:19:49","新北市泰山區泰林路二段171號","121.433705","25.0606533333333","6501600","泰山區"
"243008","421-VK","2019/09/05 14:19:32","新北市泰山區工專路20號","121.423745","25.039725","6501600","泰山區"
"243001","KEA-2215","2019/09/05 14:19:37","新北市泰山區和平街13巷31號","121.434433333333","25.0660616666667","6501600","泰山區"
"243003","KEA-2216","2019/09/05 14:19:49","新北市泰山區貴子路15巷4弄2號","121.426531666667","25.0421916666667","6501600","泰山區"
"243005","646-TV","2019/09/05 14:19:36","新北市泰山區明志路三段145巷34弄2號","121.426341666667","25.0395133333333","6501600","泰山區"
"243007","680-BX","2019/09/05 14:19:46","新北市泰山區公園路54號","121.428215","25.0547916666667","6501600","泰山區"
"231030","002-UM","2019/09/05 14:19:36","新北市新店區安民街65巷15-2號","121.515431666667","24.966755","6500600","新店區"
"231027","0293-UT","2019/09/05 14:19:37","新北市新店區光明街286巷2號","121.540585","24.9638983333333","6500600","新店區"
"231005","046-UY","2019/09/05 14:19:36","新北市新店區中興路三段232號","121.543343333333","24.98345","6500600","新店區"
"231029","106-UY","2019/09/05 14:19:42","新北市新店區安康路二段167號","121.509961666667","24.959315","6500600","新店區"
"231018","107-UY","2019/09/05 14:19:37","新北市新店區中央四街47號","121.527893333333","24.9749966666667","6500600","新店區"
"231013","108-UY","2019/09/05 14:19:47","新北市新店區大豐路50號","121.539988333333","24.9798333333333","6500600","新店區"
"231036","110-UY","2019/09/05 14:19:36","新北市新店區安祥路109巷90弄84號","121.475843333333","24.958225","6500600","新店區"
"231031","256-BX","2019/09/05 14:19:35","新北市新店區碧潭路123號","121.534091666667","24.9590833333333","6500600","新店區"
"231023","260-TV","2019/09/05 14:19:50","新北市新店區光明街37號","121.53856","24.959765","6500600","新店區"
"231003","268-BY","2019/09/05 14:19:38","新北市新店區中興路一段199號","121.5434","24.96533","6500600","新店區"
"231035","278-BY","2019/09/05 14:19:48","新北市新店區光華街5巷1號","121.517825","24.9687533333333","6500600","新店區"
"231017","AAD-862","2019/09/05 14:19:46","新北市新店區北宜路二段384號","121.564866666667","24.9532983333333","6500600","新店區"
"231006","355-BY","2019/09/05 14:19:33","新北市新店區北宜路二段423-1號","121.56044","24.9544583333333","6500600","新店區"
"231038","3712-VJ","2019/09/05 14:19:35","新北市新店區溪洲路8巷124號","121.533228333333","24.9630283333333","6500600","新店區"
"231021","515-UM","2019/09/05 14:19:38","新北市新店區新烏路二段300號","121.548416666667","24.9134733333333","6500600","新店區"
"231034","616-UM","2019/09/05 14:19:49","新北市新店區車子路11號","121.503055","24.95205","6500600","新店區"
"231002","618-UM","2019/09/05 14:19:45","新北市新店區中央路19號","121.533155","24.9782166666667","6500600","新店區"
"231011","KED-0819","2019/09/05 14:19:39","新北市新店區五峰路61巷5號","121.548723333333","24.9696833333333","6500600","新店區"
"231028","897-TW","2019/09/05 14:19:37","新北市新店區安和路二段238號","121.51654","24.9781566666667","6500600","新店區"
"231001","898-TW","2019/09/05 14:19:44","新北市新店區北新路一段72號","121.541431666667","24.96731","6500600","新店區"
"231004","899-TW","2019/09/05 14:19:50","新北市新店區北新路二段10號","121.542838333333","24.9711266666667","6500600","新店區"
"231037","AKT-0513","2019/09/05 14:19:50","新北市新店區安康路二段341巷14號","121.496396666667","24.954625","6500600","新店區"
"235030","003-UY","2019/09/05 14:19:48","新北市中和區中和路102號","121.502668333333","24.999795","6500300","中和區"
"235027","006-UY","2019/09/05 14:19:38","新北市中和區連勝街111號","121.495176666667","24.9950866666667","6500300","中和區"
"235064","031-BX","2019/09/05 14:19:41","新北市新店區薏仁坑路自強巷1號","121.49765","24.9577316666667","6500300","中和區"
"235020","096-UM","2019/09/05 14:19:47","新北市中和區中山路三段108號","121.476868333333","25.00626","6500300","中和區"
"235003","097-UM","2019/09/05 14:19:49","新北市中和區秀峰街119巷8弄3號","121.519293333333","24.9891466666667","6500300","中和區"
"235029","098-UM","2019/09/05 14:19:48","新北市中和區中山路二段2巷13弄15號","121.503321666667","25.00647","6500300","中和區"
"235004","150-BY","2019/09/05 14:19:33","新北市中和區保健路80號","121.511801666667","24.9963066666667","6500300","中和區"
"235022","151-BY","2019/09/05 14:19:50","新北市中和區員山路124巷1號","121.481488333333","24.995965","6500300","中和區"
"235019","183-VK","2019/09/05 14:19:40","新北市中和區中山路三段181巷30號","121.473105","25.005015","6500300","中和區"
"235002","185-VK","2019/09/05 14:19:44","新北市中和區大仁街20巷50號","121.520186666667","24.99325","6500300","中和區"
"235013","186-VK","2019/09/05 14:19:41","新北市中和區景新街275號","121.50937","24.993635","6500300","中和區"
"235031","255-BX","2019/09/05 14:19:50","新北市中和區新生街186巷1弄28號","121.483225","24.9985416666667","6500300","中和區"
"235008","293-VK","2019/09/05 14:19:52","新北市中和區復興路294號","121.501616666667","24.9903583333333","6500300","中和區"
"235007","352-BY","2019/09/05 14:19:46","新北市中和區景平路280號","121.513685","24.9924733333333","6500300","中和區"
"235006","KEA-2878","2019/09/05 14:19:40","新北市中和區安樂路217巷37號","121.51351","24.998005","6500300","中和區"
"247015","KEA-2869","2019/09/05 14:19:36","新北市蘆洲區中正路185巷31弄16號","121.466538333333","25.08382","6501400","蘆洲區"
"247009","KED-0682","2019/09/05 14:19:39","新北市蘆洲區三民路26巷41號","121.477608333333","25.0830683333333","6501400","蘆洲區"
"235033","4980-A6","2019/09/05 14:19:38","新北市中和區景平路736巷3弄1號","121.4971","25.0037","6500300","中和區"
"235034","558-UM","2019/09/05 14:19:41","新北市中和區中山路二段269號","121.496711666667","25.0022683333333","6500300","中和區"
"235001","565-BX","2019/09/05 14:19:41","新北市中和區景新街423巷35弄7號","121.513966666667","24.9899333333333","6500300","中和區"
"235024","KED-0823","2019/09/05 14:19:44","新北市中和區中山路二段578號","121.482741666667","25.0052133333333","6500300","中和區"
"235018","640-BX","2019/09/05 14:19:46","新北市中和區國光街99號","121.470243333333","25.0003816666667","6500300","中和區"
"235011","732-UM","2019/09/05 14:19:47","新北市中和區景平路241巷53號","121.508156666667","24.992145","6500300","中和區"
"235010","733-UM","2019/09/05 14:19:43","新北市中和區忠孝街20巷8號","121.510585","24.9825533333333","6500300","中和區"
"235035","783-BX","2019/09/05 14:19:51","新北市中和區中正路774號","121.485341666667","25.000205","6500300","中和區"
"235021","801-TS","2019/09/05 14:19:34","新北市中和區員山路370-4號","121.480735","25.0040533333333","6500300","中和區"
"235005","802-TS","2019/09/05 14:19:48","新北市中和區安平路155號","121.512306666667","24.9982633333333","6500300","中和區"
"235016","805-TS","2019/09/05 14:19:40","新北市中和區興南路二段142巷17弄8號","121.503241666667","24.9831666666667","6500300","中和區"
"235012","896-TW","2019/09/05 14:19:38","新北市中和區華新街109巷2號","121.508585","24.982525","6500300","中和區"
"235017","900-TW","2019/09/05 14:19:36","新北市中和區華順街48號","121.466435","24.998565","6500300","中和區"
"235028","911-UM","2019/09/05 14:19:51","新北市中和區南山路81巷60號","121.504058333333","24.9980766666667","6500300","中和區"
"235015","157-BY","2019/09/05 14:19:35","新北市中和區和平街54巷8弄15號","121.509516666667","24.9915866666667","6500300","中和區"
"235001","AAC-213","2019/09/05 14:19:34","新北市中和區秀朗路三段10巷14弄9號","121.52483","24.9965666666667","6500300","中和區"
"235023","AAC-215","2019/09/05 14:19:40","新北市中和區圓通路252巷18弄1號","121.492281666667","24.9924983333333","6500300","中和區"
"220013","072-UY","2019/09/05 14:19:44","新北市板橋區海山路17號","121.468946666667","25.0093933333333","6500100","板橋區"
"220034","073-UY","2019/09/05 14:19:42","新北市板橋區中正路216巷102號","121.458833333333","25.0191866666667","6500100","板橋區"
"220105","075-UY","2019/09/05 14:19:46","新北市板橋區文化路二段441巷6號","121.474478333333","25.0337","6500100","板橋區"
"220017","AAD-861","2019/09/05 14:19:54","新北市板橋區貴興路31號","121.457638333333","25.00399","6500100","板橋區"
"220016","120-SR","2019/09/05 14:19:35","新北市板橋區林森街1巷1號","121.48205","25.024165","6500100","板橋區"
"247005","893-R6","2019/09/05 14:19:39","新北市蘆洲區長安街22巷34號","121.464901666667","25.0801033333333","6501400","蘆洲區"
"247019","546-UM","2019/09/05 14:19:42","新北市蘆洲區仁愛街46號","121.47186","25.093385","6501400","蘆洲區"
"247011","337-TH","2019/09/05 14:19:38","新北市蘆洲區民權路3巷14弄15號","121.47516","25.085675","6501400","蘆洲區"
"247003","336-TH","2019/09/05 14:19:35","新北市蘆洲區長安街237號","121.459221666667","25.0828916666667","6501400","蘆洲區"
"247023","057-VK","2019/09/05 14:19:48","新北市蘆洲區長榮路711號","121.461125","25.0930533333333","6501400","蘆洲區"
"247013","056-VK","2019/09/05 14:19:38","新北市蘆洲區中山一路196號","121.47373","25.0808233333333","6501400","蘆洲區"
"247021","007-UY","2019/09/05 14:19:41","新北市蘆洲區民族路522號","121.468961666667","25.0900766666667","6501400","蘆洲區"
"247001","001-UY","2019/09/05 14:19:53","新北市蘆洲區永樂街92號","121.456541666667","25.088755","6501400","蘆洲區"
"235036","251-BX","2019/09/05 14:19:46","新北市中和區中山路二段261號","121.497086666667","25.0022","6500300","中和區"
"228005","097-TW","2019/09/05 14:19:30","新北市貢寮區美豐里土地公嶺59號","121.899168333333","25.062425","6502600","貢寮區"
"228004","212-TW","2019/09/05 14:19:39","新北市貢寮區雙玉里下雙溪街26號","121.924151666667","25.0103033333333","6502600","貢寮區"
"253003","6232-TK","2019/09/05 14:19:48","新北市石門區內石門67-5號","121.575323333333","25.2552433333333","6502200","石門區"
"253004","6251-TK","2019/09/05 14:19:32","新北市石門區阿里磅26號","121.589336666667","25.2565766666667","6502200","石門區"
"253002","637-UY","2019/09/05 14:19:36","新北市石門區大溪墘3-1號","121.551831666667","25.2808683333333","6502200","石門區"
"253001","KEC-0718","2019/09/05 14:19:36","新北市石門區八甲15號","121.52329","25.2810716666667","6502200","石門區"
"207002","749-BX","2019/09/05 14:19:07","新北市萬里區溪底里溪底路13號","121.613726666667","25.1493416666667","6502800","萬里區"
"207001","662-BX","2019/09/05 14:19:35","新北市萬里區磺潭里清水18號","121.63801","25.1976516666667","6502800","萬里區"
"252005","AAC-283","2019/09/05 14:19:47","新北市三芝區橫山里橫山8-1號","121.53384","25.26174","6502100","三芝區"
"236040","KED-0685","2019/09/05 14:19:33","新北市土城區裕生路21巷6弄4號","121.448728333333","24.9869466666667","6501300","土城區"
"236029","253-BX","2019/09/05 14:19:37","新北市土城區中央路二段180巷6-1號","121.441386666667","24.9764166666667","6501300","土城區"
"236024","269-VK","2019/09/05 14:19:44","新北市土城區承天路18號","121.439445","24.9633583333333","6501300","土城區"
"236012","270-VK","2019/09/05 14:19:46","新北市土城區青雲路39巷7號","121.460353333333","24.987615","6501300","土城區"
"236032","271-VK","2019/09/05 14:19:52","新北市土城區青雲路483巷9號","121.459356666667","24.97362","6501300","土城區"
"247017","KED-0683","2019/09/05 14:19:38","新北市蘆洲區民族路263巷21號","121.475975","25.0899516666667","6501400","蘆洲區"
"236068","KEA-2877","2019/09/05 14:19:53","新北市土城區明德路一段128巷19號","121.462975","24.978785","6501300","土城區"
"236017","401-BY","2019/09/05 14:19:32","新北市土城區明德路一段154號","121.46315","24.9785966666667","6501300","土城區"
"236057","912-UM","2019/09/05 14:19:39","新北市土城區中央路四段295號","121.411273333333","24.9523033333333","6501300","土城區"
"236045","913-UM","2019/09/05 14:19:35","新北市土城區明德路一段361-3號","121.456298333333","24.9777266666667","6501300","土城區"
"236060","915-UM","2019/09/05 14:19:40","新北市土城區金城路三段189-2號","121.469891666667","24.9889316666667","6501300","土城區"
"236054","AAC-216","2019/09/05 14:19:50","新北市土城區中華路二段136號","121.437411666667","24.9728933333333","6501300","土城區"
"220027","145-BY","2019/09/05 14:19:45","新北市板橋區民權路260巷1弄2號","121.458065","25.0156033333333","6500100","板橋區"
"220028","200-UY","2019/09/05 14:19:45","新北市板橋區大觀路二段7巷110號","121.450415","25.00281","6500100","板橋區"
"220030","610-BX","2019/09/05 14:19:37","新北市板橋區溪崑二街134號","121.425915","24.9877566666667","6500100","板橋區"
"220050","245-BX","2019/09/05 14:19:45","新北市板橋區萬板路192-3號","121.476548333333","25.0235716666667","6500100","板橋區"
"220004","276-BY","2019/09/05 14:19:47","新北市土城區永豐路13巷5弄9號","121.461471666667","24.989365","6500100","板橋區"
"220020","277-BY","2019/09/05 14:19:53","新北市板橋區金門街372巷28號","121.427323333333","24.9847716666667","6500100","板橋區"
"220043","283-UM","2019/09/05 14:19:35","新北市板橋區吳鳳路15-2號","121.467703333333","25.0303816666667","6500100","板橋區"
"220019","283-VK","2019/09/05 14:19:47","新北市板橋區大豐街14號","121.462295","25.0014883333333","6500100","板橋區"
"220001","285-VK","2019/09/05 14:19:35","新北市板橋區縣民大道三段270巷12號","121.47846","25.0229466666667","6500100","板橋區"
"220031","286-VK","2019/09/05 14:19:43","新北市板橋區大觀路二段174巷166弄12號","121.442306666667","25.003095","6500100","板橋區"
"220029","287-VK","2019/09/05 14:19:35","新北市板橋區南雅西路二段128號","121.452031666667","25.0126166666667","6500100","板橋區"
"220039","288-VK","2019/09/05 14:19:46","新北市板橋區長江路一段112號","121.459768333333","25.0296766666667","6500100","板橋區"
"220009","293-UM","2019/09/05 14:19:40","新北市板橋區中山路二段169號","121.47597","25.0168116666667","6500100","板橋區"
"220010","295-UM","2019/09/05 14:19:45","新北市板橋區三民路二段153巷5弄15號","121.480126666667","25.015035","6500100","板橋區"
"220032","296-UM","2019/09/05 14:19:37","新北市板橋區滿平街110巷20號","121.427741666667","24.9880083333333","6500100","板橋區"
"220023","303-R5","2019/09/05 14:19:35","新北市板橋區南雅南路一段1巷7號","121.456988333333","25.006865","6500100","板橋區"
"220041","307-R5","2019/09/05 14:19:35","新北市板橋區文化路二段59號","121.469316666667","25.0253716666667","6500100","板橋區"
"220047","317-R6","2019/09/05 14:19:51","新北市板橋區自由路51巷16號","121.464833333333","25.0234166666667","6500100","板橋區"
"220038","487-VK","2019/09/05 14:19:40","新北市板橋區新海路332號","121.46038","25.0241833333333","6500100","板橋區"
"220037","491-VK","2019/09/05 14:19:48","新北市板橋區文化路二段182巷3弄54號","121.472896666667","25.02887","6500100","板橋區"
"220104","560-BX","2019/09/05 14:19:47","新北市板橋區新生街23巷19號","121.456526666667","25.02255","6500100","板橋區"
"220052","561-BX","2019/09/05 14:19:33","新北市板橋區文化路一段351號","121.466701666667","25.0210283333333","6500100","板橋區"
"220011","609-BX","2019/09/05 14:19:42","新北市板橋區三民路二段203-1號","121.479125","25.0136616666667","6500100","板橋區"
"220040","637-BX","2019/09/05 14:19:39","新北市板橋區縣民大道三段235號","121.481076666667","25.0258233333333","6500100","板橋區"
"220005","686-BX","2019/09/05 14:19:52","新北市板橋區五權街59號","121.464766666667","24.99347","6500100","板橋區"
"220025","687-BX","2019/09/05 14:19:34","新北市板橋區龍興街15號","121.442753333333","24.999685","6500100","板橋區"
"220042","689-BX","2019/09/05 14:19:49","新北市板橋區雨農路32號","121.461236666667","25.0243616666667","6500100","板橋區"
"220002","741-BX","2019/09/05 14:19:45","新北市板橋區重慶路155巷43號","121.463705","25.004205","6500100","板橋區"
"220051","KEA-2699","2019/09/05 14:19:47","新北市板橋區松柏街22巷43號","121.4751","25.028935","6500100","板橋區"
"220003","827-TW","2019/09/05 14:19:43","新北市板橋區新民街6巷1號","121.464665","25.0103883333333","6500100","板橋區"
"220014","829-TW","2019/09/05 14:19:40","新北市板橋區長安街287號","121.474191666667","25.0118866666667","6500100","板橋區"
"220022","895-R6","2019/09/05 14:19:39","新北市板橋區文昌街2號","121.456106666667","25.01029","6500100","板橋區"
"220021","985-R7","2019/09/05 14:19:36","新北市板橋區中正路251號","121.455796666667","25.0183533333333","6500100","板橋區"
"220046","AAC-210","2019/09/05 14:19:48","新北市板橋區幸福路32巷2號","121.461588333333","25.0204816666667","6500100","板橋區"
"220012","AAC-253","2019/09/05 14:19:39","新北市板橋區中山路一段85號","121.461516666667","25.01","6500100","板橋區"
"235032","KEA-2873","2019/09/05 14:19:28","新北市中和區中山路二段191號","121.500116666667","25.0025666666667","6500300","中和區"
"235025","KEA-2875","2019/09/05 14:19:43","新北市中和區民利街75號","121.478365","24.99821","6500300","中和區"
"235026","KEA-2876","2019/09/05 14:19:27","新北市中和區中山路二段426號","121.489586666667","25.004065","6500300","中和區"
