"lineid","car","time","location","longitude","latitude","cityid","cityname"
"234040","862-TW","2019/09/05 14:49:37","新北市板橋區文化路二段656號","121.481356666667","25.0394516666667","6500400","永和區"
"234025","9371-KE","2019/09/05 14:49:46","新北市永和區雙和街52巷1號","121.509056666667","25.0032","6500400","永和區"
"248016","026-BX","2019/09/05 14:49:46","新北市五股區成泰路三段577巷80弄71號","121.448941666667","25.1048616666667","6501500","五股區"
"248007","KED-0815","2019/09/05 14:49:39","新北市五股區中興路一段95巷14號","121.46656","25.0724283333333","6501500","五股區"
"248017","KED-0813","2019/09/05 14:49:38","新北市五股區外寮路13-1號","121.424845","25.081265","6501500","五股區"
"248012","247-BX","2019/09/05 14:49:48","新北市五股區六合街107號","121.429768333333","25.0906633333333","6501500","五股區"
"248013","261-SL","2019/09/05 14:49:43","新北市五股區五福路14巷26號","121.435525","25.088925","6501500","五股區"
"248009","272-BY","2019/09/05 14:49:41","新北市五股區成泰路一段42號","121.435356666667","25.068695","6501500","五股區"
"248003","677-BX","2019/09/05 14:49:51","新北市五股區成泰路一段48-1號","121.435401666667","25.0693366666667","6501500","五股區"
"244003","248-BX","2019/09/05 14:49:42","新北市林口區竹林路267號","121.389596666667","25.0808216666667","6501700","林口區"
"243004","AAD-798","2019/09/05 14:49:46","新北市泰山區楓江路62號","121.436866666667","25.06337","6501600","泰山區"
"243002","297-R6","2019/09/05 14:49:49","新北市泰山區明志路二段273巷16弄3號","121.427935","25.0470883333333","6501600","泰山區"
"243006","KEA-2801","2019/09/05 14:49:49","新北市泰山區明志路一段56號","121.433425","25.0648683333333","6501600","泰山區"
"243008","421-VK","2019/09/05 14:49:33","新北市泰山區貴陽街3號","121.421036666667","25.03355","6501600","泰山區"
"243001","KEA-2215","2019/09/05 14:49:37","新北市泰山區泰林路二段116巷1弄1號","121.43481","25.0593783333333","6501600","泰山區"
"243003","KEA-2216","2019/09/05 14:49:49","新北市泰山區明志路三段180號","121.424141666667","25.0389333333333","6501600","泰山區"
"243007","680-BX","2019/09/05 14:49:46","新北市泰山區明志路一段484號","121.430558333333","25.05475","6501600","泰山區"
"231030","002-UM","2019/09/05 14:49:36","新北市新店區安民街241號","121.517195","24.972125","6500600","新店區"
"231027","0293-UT","2019/09/05 14:49:38","新北市新店區中正路282-11號","121.538408333333","24.9739516666667","6500600","新店區"
"231005","046-UY","2019/09/05 14:49:36","新北市新店區復興路2號","121.53247","24.98827","6500600","新店區"
"231029","106-UY","2019/09/05 14:49:42","新北市新店區安康路三段578-1號","121.481085","24.9487016666667","6500600","新店區"
"231018","107-UY","2019/09/05 14:49:37","新北市新店區中央路155號","121.529653333333","24.9726966666667","6500600","新店區"
"231013","108-UY","2019/09/05 14:49:47","新北市新店區北新路二段97巷10弄2號","121.542165","24.974575","6500600","新店區"
"231036","110-UY","2019/09/05 14:49:36","新北市新店區安祥路102巷32號","121.484143333333","24.9639333333333","6500600","新店區"
"231039","187-VK","2019/09/05 14:49:36","新北市新店區安一路一段1-1號","121.519951666667","24.9611516666667","6500600","新店區"
"231023","260-TV","2019/09/05 14:49:49","新北市新店區檳榔路109號","121.544601666667","24.9615933333333","6500600","新店區"
"231003","268-BY","2019/09/05 14:49:38","新北市新店區中興路一段308號","121.546541666667","24.9701516666667","6500600","新店區"
"231035","278-BY","2019/09/05 14:49:48","新北市新店區安業街33號","121.517823333333","24.9770033333333","6500600","新店區"
"231017","AAD-862","2019/09/05 14:49:46","新北市新店區北宜路三段144號","121.585138333333","24.9503783333333","6500600","新店區"
"231006","355-BY","2019/09/05 14:49:33","新北市新店區北宜路一段286號","121.546626666667","24.9527583333333","6500600","新店區"
"231038","3712-VJ","2019/09/05 14:49:35","新北市新店區安華路28-1號","121.519821666667","24.9607916666667","6500600","新店區"
"231024","4716-K9","2019/09/05 14:49:36","新北市新店區力行路96號","121.538023333333","24.9668616666667","6500600","新店區"
"231025","4715-K9","2019/09/05 14:49:47","新北市新店區建國路198巷2號","121.5381","24.9803916666667","6500600","新店區"
"231021","515-UM","2019/09/05 14:49:38","新北市新店區桂山路61巷2號","121.56556","24.901175","6500600","新店區"
"231034","616-UM","2019/09/05 14:49:49","新北市新店區安康路二段383號","121.495056666667","24.9546266666667","6500600","新店區"
"231002","618-UM","2019/09/05 14:49:39","新北市新店區民權路91號","121.53731","24.9828483333333","6500600","新店區"
"231011","KED-0819","2019/09/05 14:49:39","新北市新店區永華街49號","121.544315","24.97589","6500600","新店區"
"231028","897-TW","2019/09/05 14:49:37","新北市新店區安德街60巷19-1號","121.51075","24.9629633333333","6500600","新店區"
"231001","898-TW","2019/09/05 14:49:44","新北市新店區中華路147號","121.538313333333","24.97067","6500600","新店區"
"231004","899-TW","2019/09/05 14:49:49","新北市新店區建國路133號","121.539321666667","24.978155","6500600","新店區"
"231037","AKT-0513","2019/09/05 14:49:50","新北市新店區柴埕路34號","121.513591666667","24.9652333333333","6500600","新店區"
"235030","003-UY","2019/09/05 14:49:48","新北市中和區南工路8號","121.505405","25.0003166666667","6500300","中和區"
"235027","006-UY","2019/09/05 14:49:38","新北市中和區連城路263巷19號","121.492606666667","24.994975","6500300","中和區"
"235064","031-BX","2019/09/05 14:49:41","新北市中和區員山路36巷13號","121.48425","24.9906983333333","6500300","中和區"
"235020","096-UM","2019/09/05 14:49:47","新北市中和區中山路三段136巷10弄21號","121.47395","25.0078483333333","6500300","中和區"
"235003","097-UM","2019/09/05 14:49:49","新北市中和區安樂路147號","121.514365","24.9970183333333","6500300","中和區"
"235029","098-UM","2019/09/05 14:49:52","新北市中和區永和路88-4號","121.497241666667","25.005415","6500300","中和區"
"235004","150-BY","2019/09/05 14:49:33","新北市中和區景安路79巷37弄25號","121.507685","24.9965216666667","6500300","中和區"
"235019","183-VK","2019/09/05 14:49:43","新北市中和區民德路6號","121.468805","25.0030583333333","6500300","中和區"
"235002","185-VK","2019/09/05 14:49:44","新北市中和區更生街66號","121.52204","24.99607","6500300","中和區"
"235013","186-VK","2019/09/05 14:49:40","新北市中和區景平路522號","121.503298333333","24.99408","6500300","中和區"
"235008","293-VK","2019/09/05 14:49:32","新北市中和區板南路100號","121.503773333333","24.99247","6500300","中和區"
"235007","352-BY","2019/09/05 14:49:46","新北市中和區興南路二段80號","121.505876666667","24.9846033333333","6500300","中和區"
"235006","KEA-2878","2019/09/05 14:49:40","新北市中和區自立路56巷2號","121.523381666667","24.991915","6500300","中和區"
"247015","KEA-2869","2019/09/05 14:49:36","新北市蘆洲區光華路155號","121.46547","25.082045","6501400","蘆洲區"
"235014","4979-A6","2019/09/05 14:49:50","新北市中和區景平路241巷84弄57號","121.506046666667","24.9923333333333","6500300","中和區"
"235034","558-UM","2019/09/05 14:49:41","新北市中和區連勝街45號","121.498161666667","24.997555","6500300","中和區"
"235018","640-BX","2019/09/05 14:49:46","新北市中和區中山路三段196號","121.471895","25.0065","6500300","中和區"
"235010","733-UM","2019/09/05 14:49:43","新北市中和區興南路一段110號","121.509476666667","24.9887066666667","6500300","中和區"
"235035","783-BX","2019/09/05 14:49:31","新北市中和區建一路103號","121.487971666667","25.001505","6500300","中和區"
"235016","805-TS","2019/09/05 14:49:40","新北市中和區華新街144巷9號","121.507538333333","24.9831483333333","6500300","中和區"
"235012","896-TW","2019/09/05 14:49:38","新北市中和區忠孝街122號","121.512161666667","24.9857983333333","6500300","中和區"
"235017","900-TW","2019/09/05 14:49:36","新北市中和區國光街191號","121.467346666667","25.0017766666667","6500300","中和區"
"235015","157-BY","2019/09/05 14:49:34","新北市中和區景安路247巷7號","121.504321666667","24.9905933333333","6500300","中和區"
"235001","AAC-213","2019/09/05 14:49:34","新北市中和區自立路26號","121.522476666667","24.9928633333333","6500300","中和區"
"235023","AAC-215","2019/09/05 14:49:40","新北市中和區圓通路305巷5弄41號","121.494796666667","24.9903583333333","6500300","中和區"
"220013","072-UY","2019/09/05 14:49:44","新北市板橋區國泰街39巷3弄1號","121.46845","25.00637","6500100","板橋區"
"220034","073-UY","2019/09/05 14:49:43","新北市板橋區國光路15號","121.456791666667","25.0174166666667","6500100","板橋區"
"220105","075-UY","2019/09/05 14:49:46","新北市板橋區仁化街150巷5-1號","121.478021666667","25.0329716666667","6500100","板橋區"
"220017","AAD-861","2019/09/05 14:49:34","新北市板橋區大明街12號","121.459071666667","25.0025066666667","6500100","板橋區"
"220016","120-SR","2019/09/05 14:49:40","新北市板橋區中山路二段412巷37號","121.483971666667","25.01958","6500100","板橋區"
"247019","546-UM","2019/09/05 14:49:42","新北市蘆洲區民義街71巷29號","121.47228","25.0910366666667","6501400","蘆洲區"
"247013","056-VK","2019/09/05 14:49:38","新北市蘆洲區得勝街111號","121.472586666667","25.0835233333333","6501400","蘆洲區"
"247021","007-UY","2019/09/05 14:49:40","新北市蘆洲區中正路462號","121.462433333333","25.0949916666667","6501400","蘆洲區"
"247001","001-UY","2019/09/05 14:49:32","新北市蘆洲區永康街2巷6號","121.45934","25.08614","6501400","蘆洲區"
"235036","251-BX","2019/09/05 14:49:46","新北市中和區中和路74號","121.500555","25.0001183333333","6500300","中和區"
"228005","097-TW","2019/09/05 14:49:50","新北市貢寮區美豐里丹裡街69號","121.906096666667","25.05746","6502600","貢寮區"
"228004","212-TW","2019/09/05 14:49:39","新北市貢寮區福隆里裕隆街2號","121.946598333333","25.015385","6502600","貢寮區"
"253003","6232-TK","2019/09/05 14:49:48","新北市石門區尖子鹿116-1號","121.575085","25.2975833333333","6502200","石門區"
"253004","6251-TK","2019/09/05 14:49:52","新北市石門區內阿里磅2-1號","121.590948333333","25.2552433333333","6502200","石門區"
"253002","637-UY","2019/09/05 14:49:36","新北市石門區七股9號","121.548018333333","25.2657116666667","6502200","石門區"
"253001","KEC-0718","2019/09/05 14:49:36","新北市石門區崁子腳53號","121.537106666667","25.2832283333333","6502200","石門區"
"207002","749-BX","2019/09/05 14:49:48","新北市萬里區崁腳里崁腳路73號","121.647601666667","25.1596066666667","6502800","萬里區"
"207001","662-BX","2019/09/05 14:49:35","新北市萬里區雙興里豐稟路31-1號","121.643061666667","25.1810483333333","6502800","萬里區"
"252005","AAC-283","2019/09/05 14:49:47","新北市三芝區埔坪里埔頭坑120號","121.518525","25.24505","6502100","三芝區"
"236040","KED-0685","2019/09/05 14:49:33","新北市土城區裕民路114巷29號","121.450256666667","24.98562","6501300","土城區"
"236029","253-BX","2019/09/05 14:49:37","新北市土城區中央路三段59號","121.439045","24.96946","6501300","土城區"
"236024","269-VK","2019/09/05 14:49:45","新北市土城區慶安街11號","121.441963333333","24.9734233333333","6501300","土城區"
"236012","270-VK","2019/09/05 14:49:46","新北市土城區清水路235巷20號","121.460831666667","24.9838316666667","6501300","土城區"
"236032","271-VK","2019/09/05 14:49:32","新北市土城區明德路一段223號","121.463246666667","24.9783983333333","6501300","土城區"
"247017","KED-0683","2019/09/05 14:49:38","新北市蘆洲區民族路321號","121.474253333333","25.0913866666667","6501400","蘆洲區"
"236068","KEA-2877","2019/09/05 14:49:53","新北市土城區明德路一段371號","121.452945","24.97968","6501300","土城區"
"236017","401-BY","2019/09/05 14:49:32","新北市土城區延安街40號","121.46734","24.98579","6501300","土城區"
"236057","912-UM","2019/09/05 14:49:54","新北市土城區金城路一段12號","121.439146666667","24.9687866666667","6501300","土城區"
"236045","913-UM","2019/09/05 14:49:35","新北市土城區廣福街68巷18弄1號","121.459481666667","24.9904633333333","6501300","土城區"
"236060","915-UM","2019/09/05 14:49:40","新北市土城區延和路41巷6弄18號","121.466661666667","24.9903233333333","6501300","土城區"
"236054","AAC-216","2019/09/05 14:49:50","新北市土城區裕民路174號","121.45262","24.9854383333333","6501300","土城區"
"220027","145-BY","2019/09/05 14:49:41","新北市板橋區民權路202巷26號","121.460683333333","25.0172366666667","6500100","板橋區"
"220028","200-UY","2019/09/05 14:49:43","新北市板橋區大觀路二段37巷63號","121.449706666667","25.00257","6500100","板橋區"
"220030","610-BX","2019/09/05 14:49:37","新北市板橋區大觀路三段236-6號","121.429305","24.9922466666667","6500100","板橋區"
"220050","245-BX","2019/09/05 14:49:49","新北市板橋區縣民大道三段79巷1號","121.475308333333","25.02173","6500100","板橋區"
"220004","276-BY","2019/09/05 14:49:47","新北市板橋區信義路1巷26弄30號","121.458315","24.99659","6500100","板橋區"
"220020","277-BY","2019/09/05 14:49:51","新北市板橋區金門街253巷10弄19-1號","121.43347","24.9881916666667","6500100","板橋區"
"220043","283-UM","2019/09/05 14:49:33","新北市板橋區文德路38號","121.46216","25.0241266666667","6500100","板橋區"
"220019","283-VK","2019/09/05 14:49:47","新北市板橋區和平路174巷47號","121.46558","24.9937516666667","6500100","板橋區"
"220001","285-VK","2019/09/05 14:49:52","新北市板橋區中山路二段60巷1弄3-2號","121.474438333333","25.0154316666667","6500100","板橋區"
"220031","286-VK","2019/09/05 14:49:43","新北市板橋區僑中二街8巷15號","121.446403333333","25.0112466666667","6500100","板橋區"
"220029","287-VK","2019/09/05 14:49:35","新北市板橋區大觀路一段29巷179弄7號","121.449026666667","25.0048166666667","6500100","板橋區"
"220039","288-VK","2019/09/05 14:49:43","新北市板橋區漢生西路165巷40號","121.462083333333","25.02354","6500100","板橋區"
"220009","293-UM","2019/09/05 14:49:42","新北市板橋區觀光街57巷20號","121.470221666667","25.0160766666667","6500100","板橋區"
"220010","295-UM","2019/09/05 14:49:46","新北市板橋區中山路二段416巷58號","121.482923333333","25.0189333333333","6500100","板橋區"
"220032","296-UM","2019/09/05 14:49:37","新北市板橋區滿平街43號","121.426931666667","24.9896883333333","6500100","板橋區"
"220023","303-R5","2019/09/05 14:49:35","新北市板橋區中正路253巷72弄1-5號","121.452728333333","25.017265","6500100","板橋區"
"220041","307-R5","2019/09/05 14:49:35","新北市板橋區幸福路32巷2弄46號","121.460795","25.022135","6500100","板橋區"
"220047","317-R6","2019/09/05 14:49:31","新北市板橋區四維路279巷60號","121.46056","25.0275716666667","6500100","板橋區"
"220038","487-VK","2019/09/05 14:49:40","新北市板橋區龍泉街57號","121.457086666667","25.0259016666667","6500100","板橋區"
"220037","491-VK","2019/09/05 14:49:48","新北市板橋區民治街15-2號","121.477743333333","25.0343833333333","6500100","板橋區"
"220104","560-BX","2019/09/05 14:49:47","新北市板橋區金華街85巷42號","121.45918","25.0213883333333","6500100","板橋區"
"220052","561-BX","2019/09/05 14:49:52","新北市板橋區陽明街279巷1弄1號","121.461826666667","25.02604","6500100","板橋區"
"220011","609-BX","2019/09/05 14:49:42","新北市板橋區翠華街6巷2號","121.480225","25.0239366666667","6500100","板橋區"
"220040","637-BX","2019/09/05 14:49:39","新北市板橋區懷德街127巷16號","121.479538333333","25.03124","6500100","板橋區"
"220005","686-BX","2019/09/05 14:49:52","新北市板橋區廣權路1號","121.460565","24.9912783333333","6500100","板橋區"
"220025","687-BX","2019/09/05 14:49:50","新北市板橋區僑中二街106巷1號","121.445958333333","25.0075566666667","6500100","板橋區"
"220042","689-BX","2019/09/05 14:49:49","新北市板橋區長江路二段165號","121.46656","25.03191","6500100","板橋區"
"220002","741-BX","2019/09/05 14:49:45","新北市板橋區忠孝路忠義巷15弄38號","121.465683333333","25.00445","6500100","板橋區"
"220051","KEA-2699","2019/09/05 14:49:47","新北市板橋區文聖街49號","121.476393333333","25.03137","6500100","板橋區"
"220003","827-TW","2019/09/05 14:49:40","新北市板橋區國慶路149巷13弄11號","121.460518333333","24.99704","6500100","板橋區"
"220014","829-TW","2019/09/05 14:49:35","新北市板橋區長安街261巷19號","121.47304","25.0109633333333","6500100","板橋區"
"220022","895-R6","2019/09/05 14:49:53","新北市板橋區府中路29-2號","121.458516666667","25.008005","6500100","板橋區"
"220021","985-R7","2019/09/05 14:49:36","新北市板橋區大仁街51號","121.45457","25.0164533333333","6500100","板橋區"
"220046","AAC-210","2019/09/05 14:49:47","新北市板橋區文化路一段221巷14號","121.463151666667","25.017795","6500100","板橋區"
"220012","AAC-253","2019/09/05 14:49:40","新北市板橋區館前東路106號","121.462926666667","25.0076466666667","6500100","板橋區"
"235032","KEA-2873","2019/09/05 14:49:28","新北市中和區勝利路35巷1弄34號","121.50028","25.007835","6500300","中和區"
