"lineid","car","time","location","longitude","latitude","cityid","cityname"
"234026","9371-KE","2019/09/05 17:49:46","新北市永和區中山路一段102-1號","121.511121666667","25.0104933333333","6500400","永和區"
"234011","9373-KE","2019/09/05 17:33:24","新北市永和區福和路1號","121.525591666667","25.0092966666667","6500400","永和區"
"249005","172-UM","2019/09/05 17:49:45","新北市八里區荖阡坑路34-3號","121.402328333333","25.1319666666667","6502300","八里區"
"249001","173-UM","2019/09/05 17:49:38","新北市八里區龍米路二段147-1號","121.44325","25.1499633333333","6502300","八里區"
"249004","303-UY","2019/09/05 17:49:42","新北市八里區中華路一段309巷2號","121.417146666667","25.1531683333333","6502300","八里區"
"249002","305-UY","2019/09/05 17:49:45","新北市八里區龍形五街37巷6號","121.448783333333","25.1326316666667","6502300","八里區"
"249003","593-UM","2019/09/05 17:49:41","新北市八里區中山路二段75號","121.406346666667","25.1531166666667","6502300","八里區"
"248008","KED-0815","2019/09/05 17:49:36","新北市五股區中興路二段37巷24號","121.460701666667","25.074955","6501500","五股區"
"232011","375-UM","2019/09/05 17:49:33","新北市坪林區北宜路八段168號","121.707493333333","24.9344583333333","6502000","坪林區"
"244007","080-UY","2019/09/05 17:49:48","新北市林口區竹林路155號","121.38875","25.0798733333333","6501700","林口區"
"244019","402-UM","2019/09/05 17:49:52","新北市林口區文化一路一段26號","121.370545","25.0689583333333","6501700","林口區"
"244013","KEA-2802","2019/09/05 17:49:39","新北市林口區中山路136號","121.391856666667","25.07858","6501700","林口區"
"244023","483-VK","2019/09/05 17:49:50","新北市林口區東湖路12巷59號","121.388325","25.075","6501700","林口區"
"244017","485-VK","2019/09/05 17:49:45","新北市林口區文化二路一段256號","121.37069","25.0732666666667","6501700","林口區"
"244009","656-BX","2019/09/05 17:49:45","新北市林口區竹林路582巷13號","121.385975","25.0832766666667","6501700","林口區"
"244011","701-TV","2019/09/05 17:49:45","新北市林口區中正路267號","121.39019","25.0775916666667","6501700","林口區"
"244025","837-TS","2019/09/05 17:49:43","新北市林口區三民路122號","121.360715","25.0708616666667","6501700","林口區"
"244021","838-TS","2019/09/05 17:49:34","新北市林口區新寮43號","121.403766666667","25.065265","6501700","林口區"
"222003","436-BY","2019/09/05 17:49:53","新北市深坑區阿柔洋60-1號","121.608583333333","24.9985016666667","6501800","深坑區"
"222002","659-BX","2019/09/05 17:49:33","新北市深坑區平埔街22巷8號","121.614981666667","25.0008983333333","6501800","深坑區"
"241016","266-UM","2019/09/05 17:47:44","新北市三重區新北大道一段7號","121.489566666667","25.061255","6500200","三重區"
"241024","KEA-2210","2019/09/05 17:49:47","新北市三重區國道路一段42號","121.48291","25.0729166666667","6500200","三重區"
"241033","AAC-255","2019/09/05 17:49:47","新北市三重區光復路一段9號","121.472243333333","25.04712","6500200","三重區"
"235063","006-UY","2019/09/05 17:49:51","新北市中和區員山路36巷16-3號","121.48508","24.9913616666667","6500300","中和區"
"235065","098-UM","2019/09/05 17:49:48","新北市中和區連城路469巷79弄30號","121.48427","24.9937","6500300","中和區"
"235058","151-BY","2019/09/05 17:49:45","新北市中和區員山路36巷16-2號","121.485236666667","24.9916333333333","6500300","中和區"
"247016","KEA-2869","2019/09/05 17:49:41","新北市蘆洲區中正路185巷23弄12號","121.467205","25.0842916666667","6501400","蘆洲區"
"247010","KED-0682","2019/09/05 17:49:40","新北市蘆洲區民族路31-1號","121.477595","25.0849316666667","6501400","蘆洲區"
"235052","805-TS","2019/09/05 17:37:23","","121.484678333333","24.9910733333333","6500300","中和區"
"235064","911-UM","2019/09/05 17:49:39","新北市中和區員山路36巷16-3號","121.48501","24.99136","6500300","中和區"
"247006","893-R6","2019/09/05 17:49:35","新北市蘆洲區長安街25號","121.463976666667","25.0790583333333","6501400","蘆洲區"
"247020","546-UM","2019/09/05 17:49:47","新北市蘆洲區民權路190-1號","121.472018333333","25.0908283333333","6501400","蘆洲區"
"247012","337-TH","2019/09/05 17:49:41","新北市蘆洲區復興路148號","121.477078333333","25.08779","6501400","蘆洲區"
"247004","336-TH","2019/09/05 17:49:46","新北市蘆洲區長榮路207號","121.461006666667","25.0848883333333","6501400","蘆洲區"
"247024","057-VK","2019/09/05 17:49:53","新北市蘆洲區光榮路61巷20號","121.461173333333","25.088905","6501400","蘆洲區"
"247014","056-VK","2019/09/05 17:49:38","新北市蘆洲區中正路187號","121.468593333333","25.0856216666667","6501400","蘆洲區"
"247022","007-UY","2019/09/05 17:49:42","新北市蘆洲區中正路362-7號","121.463608333333","25.092635","6501400","蘆洲區"
"247008","002-UY","2019/09/05 17:49:50","新北市蘆洲區和平路29巷11號","121.471996666667","25.0785983333333","6501400","蘆洲區"
"247002","001-UY","2019/09/05 17:49:51","新北市蘆洲區永平街32巷33弄19號","121.458661666667","25.0923516666667","6501400","蘆洲區"
"228003","097-TW","2019/09/05 17:49:42","新北市貢寮區真理里延平街149號","121.92512","25.057925","6502600","貢寮區"
"228001","212-TW","2019/09/05 17:49:39","新北市貢寮區仁理村仁愛路95-1號","121.927651666667","25.0556266666667","6502600","貢寮區"
"228002","663-BX","2019/09/05 17:49:41","新北市貢寮區福隆里龜壽谷街26號","121.952961666667","25.0079466666667","6502600","貢寮區"
"224006","676-BX","2019/09/05 17:49:45","新北市瑞芳區瑞興新村12巷1號","121.788391666667","25.1082916666667","6501200","瑞芳區"
"224009","275-VK","2019/09/05 17:49:48","新北市瑞芳區金光路366號","121.849923333333","25.11039","6501200","瑞芳區"
"224008","273-VK","2019/09/05 17:49:35","新北市瑞芳區明燈路一段40號","121.820376666667","25.1069566666667","6501200","瑞芳區"
"224005","271-BY","2019/09/05 17:49:35","新北市瑞芳區瑞濱路32-9號","121.822831666667","25.1210416666667","6501200","瑞芳區"
"227001","642-TC","2019/09/05 17:22:51","新北市雙溪區三貂里定福路1-2號","121.85078","25.063405","6502500","雙溪區"
"227002","400-TW","2019/09/05 17:49:41","新北市雙溪區共和里東榮街52號","121.866301666667","25.0336616666667","6502500","雙溪區"
"253006","295-VK","2019/09/05 17:49:46","新北市石門區老崩山6-2號","121.552375","25.2910533333333","6502200","石門區"
"208002","KEA-2872","2019/09/05 17:49:35","新北市金山區磺清路135號","121.63946","25.227685","6502700","金山區"
"251004","009-UM","2019/09/05 17:49:32","新北市淡水區民權一街17巷2號","121.458705","25.136455","6501000","淡水區"
"251002","012-UM","2019/09/05 17:49:53","新北市淡水區中山路95巷11號","121.44224","25.17026","6501000","淡水區"
"251015","KEA-2871","2019/09/05 17:49:35","新北市淡水區糞箕湖17-3號","121.488003333333","25.16912","6501000","淡水區"
"251016","179-VK","2019/09/05 17:49:42","新北市淡水區埤島39-15號","121.452713333333","25.1957966666667","6501000","淡水區"
"251013","180-VK","2019/09/05 17:49:47","新北市淡水區泉洲厝31號","121.479596666667","25.19101","6501000","淡水區"
"251008","181-VK","2019/09/05 17:49:35","新北市淡水區八勢路一段156號","121.468146666667","25.15645","6501000","淡水區"
"251010","413-VK","2019/09/05 17:49:51","新北市淡水區淡海路165巷6號","121.42051","25.183595","6501000","淡水區"
"251012","441-VK","2019/09/05 17:49:43","新北市淡水區商工路388號","121.469738333333","25.18369","6501000","淡水區"
"251007","442-VK","2019/09/05 17:49:51","新北市淡水區民生路16巷8號","121.461171666667","25.1374216666667","6501000","淡水區"
"251005","443-VK","2019/09/05 17:49:49","新北市淡水區學府路102巷2號","121.45043","25.1719466666667","6501000","淡水區"
"251006","561-UM","2019/09/05 17:49:34","新北市淡水區大信街1號","121.441505","25.1762566666667","6501000","淡水區"
"251009","575-R6","2019/09/05 17:49:44","新北市淡水區中山路3號","121.444261666667","25.1696116666667","6501000","淡水區"
"251014","577-R6","2019/09/05 17:49:35","新北市淡水區公埔子16-6號","121.481021666667","25.2245533333333","6501000","淡水區"
"251011","650-BX","2019/09/05 17:49:41","新北市淡水區小坪頂13-3號","121.486605","25.15618","6501000","淡水區"
"251003","673-BX","2019/09/05 17:49:37","新北市淡水區大忠街5巷1號","121.44307","25.1764233333333","6501000","淡水區"
"207003","550-UM","2019/09/05 17:49:39","新北市萬里區野柳里東澳路66號","121.692813333333","25.2009466666667","6502800","萬里區"
"207004","291-VK","2019/09/05 17:49:47","新北市萬里區萬里里瑪鋉路53號","121.68792","25.1761166666667","6502800","萬里區"
"252002","178-VK","2019/09/05 17:49:38","新北市三芝區智成街16號","121.503186666667","25.25667","6502100","三芝區"
"237009","210-TH","2019/09/05 17:49:52","新北市三峽區大勇路60號","121.367125","24.9366333333333","6500900","三峽區"
"237013","252-BX","2019/09/05 17:49:46","新北市三峽區中華路8號","121.375241666667","24.9329966666667","6500900","三峽區"
"237012","275-BY","2019/09/05 17:49:51","新北市三峽區文化路84號","121.371935","24.936165","6500900","三峽區"
"237008","302-VK","2019/09/05 17:49:38","新北市三峽區中園街237-1號","121.36681","24.9195133333333","6500900","三峽區"
"237014","433-BY","2019/09/05 17:49:41","新北市三峽區文化路120巷7號","121.371015","24.9365533333333","6500900","三峽區"
"237006","5529-G3","2019/09/05 17:49:37","新北市三峽區介壽路二段38巷42-2號","121.391685","24.9345166666667","6500900","三峽區"
"237011","KEA-2596","2019/09/05 17:49:48","新北市三峽區大同路37號","121.376636666667","24.9282266666667","6500900","三峽區"
"237015","649-BX","2019/09/05 17:49:36","新北市三峽區白雞149-2號","121.400131666667","24.9055316666667","6500900","三峽區"
"237004","078-UY","2019/09/05 17:49:50","新北市三峽區仁愛街12號","121.368388333333","24.932775","6500900","三峽區"
"237010","706-TV","2019/09/05 17:49:34","新北市三峽區文化路216號","121.36827","24.9359666666667","6500900","三峽區"
"237005","AKY-6261","2019/09/05 17:49:40","新北市三峽區中山路259號","121.362406666667","24.937365","6500900","三峽區"
"236042","KED-0685","2019/09/05 17:49:48","新北市土城區城林路6巷80號","121.4385","24.9797833333333","6501300","土城區"
"236030","253-BX","2019/09/05 17:49:43","新北市土城區城林路6巷80號","121.438526666667","24.9797533333333","6501300","土城區"
"236014","270-VK","2019/09/05 17:49:34","新北市土城區城林路6巷80號","121.43858","24.979765","6501300","土城區"
"236038","271-VK","2019/09/05 17:49:33","新北市土城區城林路6巷80號","121.438555","24.9795916666667","6501300","土城區"
"247018","KED-0683","2019/09/05 17:49:49","新北市蘆洲區復興路227巷2弄11號","121.480515","25.0902766666667","6501400","蘆洲區"
"236070","KEA-2877","2019/09/05 17:49:36","新北市土城區明德路二段67號","121.451341666667","24.980745","6501300","土城區"
"252001","KED-0821","2019/09/05 17:49:43","新北市三芝區中興街一段12號","121.497436666667","25.2593183333333","6502100","三芝區"
"236021","401-BY","2019/09/05 17:49:49","新北市土城區城林路6巷80號","121.438771666667","24.9797216666667","6501300","土城區"
"236059","912-UM","2019/09/05 17:49:43","新北市土城區中華路二段257號","121.437528333333","24.9710783333333","6501300","土城區"
"236049","913-UM","2019/09/05 17:49:33","新北市土城區城林路6巷80號","121.438533333333","24.979585","6501300","土城區"
"236063","915-UM","2019/09/05 17:49:47","新北市土城區城林路6巷80號","121.438698333333","24.9796983333333","6501300","土城區"
"236055","AAC-216","2019/09/05 17:49:44","新北市土城區城林路6巷80號","121.438593333333","24.979595","6501300","土城區"
"242042","AAC-296","2019/09/05 17:49:41","新北市泰山區貴陽街29號","121.42219","25.0331","6500500","新莊區"
"242061","986-R7","2019/09/05 17:49:41","新北市新莊區瓊林南路219號","121.434626666667","25.008885","6500500","新莊區"
"242004","751-BX","2019/09/05 17:49:33","新北市新莊區思源路177巷5弄2號","121.459315","25.0450783333333","6500500","新莊區"
"242029","615-BX","2019/09/05 17:49:49","新北市新莊區新泰路312號","121.445296666667","25.04134","6500500","新莊區"
"242027","613-BX","2019/09/05 17:49:54","新北市新莊區福壽街141號","121.458028333333","25.05272","6500500","新莊區"
"242058","612-BX","2019/09/05 17:49:53","新北市新莊區中正路704-1號","121.417403333333","25.0258","6500500","新莊區"
"242048","566-BX","2019/09/05 17:49:50","新北市新莊區萬安街56號","121.421038333333","25.0236183333333","6500500","新莊區"
"242053","497-BY","2019/09/05 17:49:39","新北市新莊區新樹路573號","121.432813333333","25.00703","6500500","新莊區"
"242002","441-UM","2019/09/05 17:49:39","新北市新莊區新泰路49號","121.449525","25.0337433333333","6500500","新莊區"
"242007","440-UM","2019/09/05 17:49:35","新北市新莊區福樂街104號","121.457525","25.0476633333333","6500500","新莊區"
"242044","415-TV","2019/09/05 17:49:45","新北市新莊區中正路855巷30號","121.420103333333","25.0269616666667","6500500","新莊區"
"242013","413-TV","2019/09/05 17:49:45","新北市新莊區中和街82巷9號","121.448236666667","25.0467033333333","6500500","新莊區"
"242051","400-BY","2019/09/05 17:49:46","新北市新莊區西盛街257巷22號","121.428896666667","25.0157266666667","6500500","新莊區"
"242025","362-BY","2019/09/05 17:49:47","新北市三重區中山路279號","121.471378333333","25.0613783333333","6500500","新莊區"
"242023","353-BY","2019/09/05 17:49:45","新北市新莊區福樂街52號","121.457785","25.0459283333333","6500500","新莊區"
"242015","132-UY","2019/09/05 17:49:37","新北市新莊區新泰路472號","121.44308","25.0450666666667","6500500","新莊區"
"242039","135-UY","2019/09/05 17:49:35","新北市新莊區民安路144巷5號","121.424275","25.0250466666667","6500500","新莊區"
"242056","172-VK","2019/09/05 17:49:37","新北市新莊區瓊林路40巷12號","121.447563333333","25.0302183333333","6500500","新莊區"
"242017","173-VK","2019/09/05 17:49:35","新北市新莊區永安街106號","121.450218333333","25.044545","6500500","新莊區"
"242031","175-VK","2019/09/05 17:49:45","新北市新莊區新泰路357巷3弄1號","121.44244","25.0412866666667","6500500","新莊區"
"242021","346-TH","2019/09/05 17:49:55","新北市新莊區中港路134號","121.45519","25.04073","6500500","新莊區"
"242036","348-TH","2019/09/05 17:49:44","新北市新莊區建福路57號","121.426825","25.0273466666667","6500500","新莊區"
"242009","349-TH","2019/09/05 17:49:48","新北市新莊區昌明街48號","121.455975","25.0522","6500500","新莊區"
"242034","350-TH","2019/09/05 17:49:52","新北市新莊區景德路642號","121.441118333333","25.0328716666667","6500500","新莊區"
"242019","351-TH","2019/09/05 17:49:36","新北市新莊區長青街30號","121.45668","25.0422566666667","6500500","新莊區"
"238015","755-BX","2019/09/05 17:49:53","新北市樹林區復興路67號","121.421553333333","24.992845","6500700","樹林區"
"238023","601-UM","2019/09/05 17:49:36","新北市樹林區龍興街32巷15號","121.402398333333","25.0156433333333","6500700","樹林區"
"238019","599-UM","2019/09/05 17:49:38","新北市樹林區太順街32號","121.41918","24.9801866666667","6500700","樹林區"
"238018","KEA-2217","2019/09/05 17:49:38","新北市樹林區鎮前街53號","121.425221666667","24.9914466666667","6500700","樹林區"
"238022","KEA-2213","2019/09/05 17:49:54","新北市樹林區太順街86巷26號","121.416538333333","24.9787616666667","6500700","樹林區"
"238021","KEA-2539","2019/09/05 17:49:36","新北市樹林區田尾街80號","121.409301666667","24.9583333333333","6500700","樹林區"
"238025","303-VK","2019/09/05 17:49:50","新北市樹林區俊興街211巷7弄23號","121.416776666667","25.0134766666667","6500700","樹林區"
"238017","283-BY","2019/09/05 17:49:43","新北市樹林區俊德街51號","121.415715","25.0133516666667","6500700","樹林區"
"238014","282-BY","2019/09/05 17:49:38","新北市樹林區保安街一段195號","121.420818333333","24.996055","6500700","樹林區"
"238020","268-VK","2019/09/05 17:49:50","新北市樹林區俊英街276號","121.424103333333","25.012815","6500700","樹林區"
"238026","172-UY","2019/09/05 17:49:39","新北市樹林區新興街19巷11號","121.400803333333","24.9731933333333","6500700","樹林區"
"238016","169-UY","2019/09/05 17:49:45","新北市樹林區復興路365號","121.41706","24.9870766666667","6500700","樹林區"
"239007","AAC-297","2019/09/05 17:49:46","新北市鶯歌區鶯桃路永富巷9號","121.338951666667","24.9546983333333","6500800","鶯歌區"
"239006","891-R6","2019/09/05 17:49:40","新北市鶯歌區永和街34巷25號","121.333851666667","24.96704","6500800","鶯歌區"
"239008","527-UM","2019/09/05 17:49:35","新北市鶯歌區大湖路700巷22弄21號","121.333906666667","24.9773616666667","6500800","鶯歌區"
"239005","526-UM","2019/09/05 17:49:51","新北市鶯歌區鳳吉五街33號","121.327416666667","24.972765","6500800","鶯歌區"
"239001","417-VK","2019/09/05 17:49:46","新北市鶯歌區中正三路271號","121.33267","24.9380166666667","6500800","鶯歌區"
"239003","360-BY","2019/09/05 17:49:47","新北市鶯歌區德昌街50號","121.333163333333","24.9598266666667","6500800","鶯歌區"
"239002","359-BY","2019/09/05 17:49:36","新北市鶯歌區育智路22號","121.3449","24.95524","6500800","鶯歌區"
"239004","193-VK","2019/09/05 17:49:41","新北市鶯歌區文化路393巷15號","121.352683333333","24.9509416666667","6500800","鶯歌區"
"221008","489-VK","2019/09/05 17:49:48","新北市汐止區康寧街901號","121.651408333333","25.0750766666667","6501100","汐止區"
"221023","279-VK","2019/09/05 17:49:53","新北市汐止區康寧街753巷2弄6號","121.639216666667","25.0738183333333","6501100","汐止區"
"221029","298-VK","2019/09/05 17:49:49","新北市汐止區康寧街901號","121.651678333333","25.0749916666667","6501100","汐止區"
"221031","353-TW","2019/09/05 17:49:34","新北市汐止區連峰街1巷2號","121.647018333333","25.0761333333333","6501100","汐止區"
"221025","567-BX","2019/09/05 17:49:35","新北市汐止區汐萬路一段244-1號","121.651465","25.073195","6501100","汐止區"
"233001","KEA-2870","2019/09/05 17:49:35","新北市烏來區瀑布路4號","121.551136666667","24.851145","6502900","烏來區"
"242046","281-VK","2019/09/05 17:49:49","新北市新莊區福營路97巷24號","121.435193333333","25.0317266666667","6500500","新莊區"
"242011","280-VK","2019/09/05 17:49:44","新北市新莊區中港路746號","121.450365","25.0583516666667","6500500","新莊區"
"235062","KEA-2876","2019/09/05 17:49:51","新北市中和區員山路36巷16-3號","121.484635","24.9912133333333","6500300","中和區"
