"lineid","car","time","location","longitude","latitude","cityid","cityname"
"234026","9371-KE","2019/09/05 17:59:46","新北市永和區水源街2巷15號","121.512061666667","25.0057133333333","6500400","永和區"
"234011","9373-KE","2019/09/05 17:33:24","新北市永和區福和路1號","121.525591666667","25.0092966666667","6500400","永和區"
"249005","172-UM","2019/09/05 17:59:45","新北市八里區荖阡坑路16號","121.397835","25.1382966666667","6502300","八里區"
"249001","173-UM","2019/09/05 17:59:38","新北市八里區龍米路二段37號","121.448365","25.1400433333333","6502300","八里區"
"249004","303-UY","2019/09/05 17:59:37","新北市八里區龍米路三段6號","121.429235","25.1589283333333","6502300","八里區"
"249002","305-UY","2019/09/05 17:59:45","新北市八里區龍形五街29號","121.449751666667","25.13335","6502300","八里區"
"249003","593-UM","2019/09/05 17:59:41","新北市八里區中華路二段201號","121.405558333333","25.14967","6502300","八里區"
"248008","KED-0815","2019/09/05 17:59:36","新北市五股區中興路二段163號","121.457635","25.0777283333333","6501500","五股區"
"248014","261-SL","2019/09/05 17:59:37","新北市五股區中興路三段165號","121.446623333333","25.08058","6501500","五股區"
"248010","272-BY","2019/09/05 17:59:25","新北市五股區中興路二段63巷17號","121.460346666667","25.0754783333333","6501500","五股區"
"248004","677-BX","2019/09/05 17:59:47","新北市五股區更洲路47號","121.456876666667","25.0791083333333","6501500","五股區"
"232011","375-UM","2019/09/05 17:59:53","新北市坪林區北宜路八段219號","121.708796666667","24.9348983333333","6502000","坪林區"
"244007","080-UY","2019/09/05 17:59:48","新北市林口區林口路226號","121.386911666667","25.08385","6501700","林口區"
"244019","402-UM","2019/09/05 17:59:32","新北市林口區文化一路一段100巷12號","121.373963333333","25.070715","6501700","林口區"
"244013","KEA-2802","2019/09/05 17:59:39","新北市林口區中山路32號","121.395896666667","25.078415","6501700","林口區"
"244023","483-VK","2019/09/05 17:59:50","新北市林口區育林街30號","121.385826666667","25.0737683333333","6501700","林口區"
"244017","485-VK","2019/09/05 17:59:45","新北市林口區文化三路一段402巷2號","121.368683333333","25.0740233333333","6501700","林口區"
"244009","656-BX","2019/09/05 17:59:45","新北市林口區竹林路606巷22號","121.385503333333","25.0829516666667","6501700","林口區"
"244011","701-TV","2019/09/05 17:59:45","新北市林口區中正路54號","121.395165","25.077425","6501700","林口區"
"244025","837-TS","2019/09/05 17:59:43","新北市林口區八德路408號","121.358496666667","25.0663966666667","6501700","林口區"
"244021","838-TS","2019/09/05 17:59:34","新北市林口區仁愛路一段161號","121.39878","25.0722933333333","6501700","林口區"
"222003","436-BY","2019/09/05 17:59:52","新北市深坑區炮子崙23號","121.607203333333","24.9911266666667","6501800","深坑區"
"222002","659-BX","2019/09/05 17:59:52","新北市深坑區文化街84巷7號","121.617386666667","25.0022366666667","6501800","深坑區"
"231064","278-BY","2019/09/05 17:59:39","新北市新店區安一路一段1-1號","121.519746666667","24.9611583333333","6500600","新店區"
"241016","266-UM","2019/09/05 17:59:44","新北市三重區重光街98號","121.466235","25.0639633333333","6500200","三重區"
"241024","KEA-2210","2019/09/05 17:59:47","新北市三重區中正北路193巷35弄35號","121.47753","25.07117","6500200","三重區"
"241033","AAC-255","2019/09/05 17:59:47","新北市三重區重新路五段615號","121.46805","25.0443816666667","6500200","三重區"
"235063","006-UY","2019/09/05 17:59:31","新北市中和區員山路36巷16-3號","121.485113333333","24.99139","6500300","中和區"
"235065","098-UM","2019/09/05 17:59:48","新北市中和區橋和路77號","121.489285","25.00512","6500300","中和區"
"235058","151-BY","2019/09/05 17:59:45","新北市中和區圓通路367巷15-1號","121.492145","24.98748","6500300","中和區"
"235038","185-VK","2019/09/05 17:59:46","新北市中和區中正路277-6號","121.495181666667","24.9938116666667","6500300","中和區"
"247016","KEA-2869","2019/09/05 17:59:41","新北市蘆洲區中正路185巷49號","121.465518333333","25.0838733333333","6501400","蘆洲區"
"247010","KED-0682","2019/09/05 17:59:40","新北市蘆洲區信義路194號","121.479128333333","25.08452","6501400","蘆洲區"
"235070","558-UM","2019/09/05 17:59:33","新北市中和區中正路395號","121.489583333333","24.9936466666667","6500300","中和區"
"235060","KED-0823","2019/09/05 17:59:48","新北市中和區和城路一段271巷1號","121.485513333333","24.99193","6500300","中和區"
"235054","640-BX","2019/09/05 17:59:37","新北市土城區金城路三段271號","121.472931666667","24.9903583333333","6500300","中和區"
"235057","801-TS","2019/09/05 17:59:43","新北市中和區新生街286號","121.483633333333","24.9966533333333","6500300","中和區"
"235052","805-TS","2019/09/05 17:59:41","新北市中和區中正路637巷52弄1號","121.485501666667","24.993475","6500300","中和區"
"235064","911-UM","2019/09/05 17:59:39","新北市中和區錦和路350-1號","121.490273333333","24.9935666666667","6500300","中和區"
"235051","157-BY","2019/09/05 17:59:39","新北市中和區員山路36巷16-2號","121.485345","24.9916966666667","6500300","中和區"
"235037","AAC-213","2019/09/05 17:59:33","新北市中和區中正路169號","121.497961666667","24.9937383333333","6500300","中和區"
"247006","893-R6","2019/09/05 17:59:35","新北市蘆洲區中華街41號","121.46293","25.0811983333333","6501400","蘆洲區"
"247012","337-TH","2019/09/05 17:59:41","新北市蘆洲區民族路167巷15號","121.478221666667","25.088285","6501400","蘆洲區"
"247004","336-TH","2019/09/05 17:59:47","新北市蘆洲區永康街63號","121.456206666667","25.0852383333333","6501400","蘆洲區"
"247024","057-VK","2019/09/05 17:59:47","新北市蘆洲區光復路30巷20號","121.463813333333","25.08409","6501400","蘆洲區"
"247014","056-VK","2019/09/05 17:59:38","新北市蘆洲區三民路155號","121.471436666667","25.0868133333333","6501400","蘆洲區"
"247008","002-UY","2019/09/05 17:59:50","新北市蘆洲區信義路37巷3號","121.474305","25.0797133333333","6501400","蘆洲區"
"247002","001-UY","2019/09/05 17:59:51","新北市蘆洲區永平街32巷57弄13號","121.459351666667","25.0929333333333","6501400","蘆洲區"
"226004","312-R5","2019/09/05 17:59:43","新北市平溪區石底里公園街18-3號","121.733255","25.0257133333333","6502400","平溪區"
"228003","097-TW","2019/09/05 17:59:42","新北市貢寮區真理里美艷山街6-2號","121.928888333333","25.0607466666667","6502600","貢寮區"
"228001","212-TW","2019/09/05 17:59:39","新北市貢寮區仁理村仁愛路106巷36號","121.929388333333","25.054145","6502600","貢寮區"
"228002","663-BX","2019/09/05 17:59:41","新北市貢寮區福隆里桂安街17號","121.966948333333","25.023045","6502600","貢寮區"
"224006","676-BX","2019/09/05 17:59:45","新北市瑞芳區大寮路356-1號","121.784986666667","25.1031816666667","6501200","瑞芳區"
"224002","639-TC","2019/09/05 17:59:33","新北市瑞芳區三爪子坑路32巷68號","121.81023","25.1061166666667","6501200","瑞芳區"
"224009","275-VK","2019/09/05 17:59:48","新北市瑞芳區山尖路2號","121.854086666667","25.1157783333333","6501200","瑞芳區"
"224008","273-VK","2019/09/05 17:59:50","新北市瑞芳區明燈路一段45巷105號","121.822165","25.10398","6501200","瑞芳區"
"224005","271-BY","2019/09/05 17:59:35","新北市瑞芳區深澳路18號","121.820066666667","25.1327483333333","6501200","瑞芳區"
"227002","400-TW","2019/09/05 17:59:41","新北市雙溪區共和里東榮街52號","121.866331666667","25.033665","6502500","雙溪區"
"253005","032-BX","2019/09/05 17:59:40","新北市石門區中山路62-11號","121.567586666667","25.2896683333333","6502200","石門區"
"253006","295-VK","2019/09/05 17:59:46","新北市石門區大丘田45-3號","121.54954","25.277195","6502200","石門區"
"222001","KEA-2212","2019/09/05 17:59:41","新北市深坑區北深路三段10號","121.610241666667","25.00098","6501800","深坑區"
"208002","KEA-2872","2019/09/05 17:59:35","新北市金山區三界壇路56號","121.621668333333","25.229835","6502700","金山區"
"208003","665-BX","2019/09/05 17:59:43","新北市金山區磺港里磺港路202-1號","121.645231666667","25.2274783333333","6502700","金山區"
"251004","009-UM","2019/09/05 17:59:32","新北市淡水區民權路187巷5號","121.45975","25.1335433333333","6501000","淡水區"
"251001","011-UM","2019/09/05 17:59:34","新北市淡水區民權路94巷1號","121.463081666667","25.1248066666667","6501000","淡水區"
"251002","012-UM","2019/09/05 17:59:53","新北市淡水區鼻頭街18-1號","121.446826666667","25.1666983333333","6501000","淡水區"
"251015","KEA-2871","2019/09/05 17:59:35","新北市淡水區興福寮32-2號","121.490813333333","25.16365","6501000","淡水區"
"251016","179-VK","2019/09/05 17:59:45","新北市淡水區淡金路三段46巷13弄1號","121.448255","25.1992183333333","6501000","淡水區"
"251013","180-VK","2019/09/05 17:59:47","新北市淡水區泉洲厝31號","121.479565","25.191015","6501000","淡水區"
"251008","181-VK","2019/09/05 17:59:53","新北市淡水區八勢一街55號","121.461868333333","25.1554683333333","6501000","淡水區"
"251010","413-VK","2019/09/05 17:59:48","新北市淡水區中正路一段130-7號","121.422121666667","25.1793633333333","6501000","淡水區"
"251012","441-VK","2019/09/05 17:59:47","新北市淡水區北新路三段30號","121.48367","25.1864416666667","6501000","淡水區"
"251005","443-VK","2019/09/05 17:59:48","新北市淡水區英專路133號","121.446446666667","25.172715","6501000","淡水區"
"251006","561-UM","2019/09/05 17:59:34","新北市淡水區真理街1號","121.438185","25.17298","6501000","淡水區"
"251009","575-R6","2019/09/05 17:59:44","新北市淡水區原德路5-1號","121.442035","25.1711916666667","6501000","淡水區"
"251014","577-R6","2019/09/05 17:59:35","新北市淡水區公埔子16-6號","121.480665","25.2241916666667","6501000","淡水區"
"251011","650-BX","2019/09/05 17:58:21","新北市淡水區吳(仔)厝70號","121.479566666667","25.1496516666667","6501000","淡水區"
"251003","673-BX","2019/09/05 17:59:42","新北市淡水區大忠街49號","121.444783333333","25.1764283333333","6501000","淡水區"
"207003","550-UM","2019/09/05 17:59:39","新北市萬里區野柳里東澳路66號","121.692771666667","25.2009533333333","6502800","萬里區"
"207004","291-VK","2019/09/05 17:59:43","新北市萬里區萬里里瑪鋉路5號","121.686088333333","25.17491","6502800","萬里區"
"252002","178-VK","2019/09/05 17:59:38","新北市三芝區中山路二段43號","121.503003333333","25.2550333333333","6502100","三芝區"
"208001","170-UY","2019/09/05 17:59:52","新北市金山區磺港里磺港路228號","121.64462","25.2257166666667","6502700","金山區"
"237009","210-TH","2019/09/05 17:59:31","新北市三峽區中山路106巷3號","121.366083333333","24.935995","6500900","三峽區"
"237013","252-BX","2019/09/05 17:59:41","新北市三峽區介壽路一段111號","121.375946666667","24.932105","6500900","三峽區"
"237012","275-BY","2019/09/05 17:59:51","新北市三峽區民生街19巷3-1號","121.376123333333","24.93612","6500900","三峽區"
"237008","302-VK","2019/09/05 17:59:38","新北市三峽區白雞33-27號","121.371456666667","24.91208","6500900","三峽區"
"237014","433-BY","2019/09/05 17:59:41","新北市三峽區復興路101巷1弄79號","121.370993333333","24.937645","6500900","三峽區"
"237006","5529-G3","2019/09/05 17:59:37","新北市三峽區介壽路二段138巷1弄88號","121.397985","24.9322","6500900","三峽區"
"237011","KEA-2596","2019/09/05 17:59:48","新北市三峽區中正路一段60-1號","121.37507","24.9302433333333","6500900","三峽區"
"237015","649-BX","2019/09/05 17:59:36","新北市三峽區紫微路74號","121.411621666667","24.9155683333333","6500900","三峽區"
"237004","078-UY","2019/09/05 17:59:50","新北市三峽區中正路二段169號","121.36601","24.9148233333333","6500900","三峽區"
"237010","706-TV","2019/09/05 17:59:54","新北市三峽區中山路41號","121.36818","24.9344816666667","6500900","三峽區"
"237005","AKY-6261","2019/09/05 17:59:40","新北市三峽區復興路233號","121.368631666667","24.938895","6500900","三峽區"
"236042","KED-0685","2019/09/05 17:59:48","新北市土城區城林路6巷80號","121.438505","24.97979","6501300","土城區"
"233002","762-BX","2019/09/05 17:59:35","新北市烏來區烏來街131號","121.551528333333","24.8628466666667","6502900","烏來區"
"236030","253-BX","2019/09/05 17:59:43","新北市土城區城林路6巷80號","121.438526666667","24.9797533333333","6501300","土城區"
"236026","269-VK","2019/09/05 17:59:43","新北市土城區中央路三段92-1號","121.436021666667","24.96668","6501300","土城區"
"236014","270-VK","2019/09/05 17:59:34","新北市土城區城林路6巷80號","121.43857","24.97979","6501300","土城區"
"236038","271-VK","2019/09/05 17:59:53","新北市土城區中華路二段2號","121.439486666667","24.9795516666667","6501300","土城區"
"247018","KED-0683","2019/09/05 17:59:49","新北市蘆洲區復興路201號","121.479691666667","25.0897466666667","6501400","蘆洲區"
"236070","KEA-2877","2019/09/05 17:59:36","新北市土城區青雲路669-5號","121.469285","24.9643966666667","6501300","土城區"
"252001","KED-0821","2019/09/05 17:59:43","新北市三芝區中興街二段2號","121.498376666667","25.2566066666667","6502100","三芝區"
"236021","401-BY","2019/09/05 17:59:49","新北市土城區城林路6巷80號","121.438765","24.9797733333333","6501300","土城區"
"236059","912-UM","2019/09/05 17:59:43","新北市土城區中央路三段260號","121.427286666667","24.96407","6501300","土城區"
"236049","913-UM","2019/09/05 17:59:53","新北市土城區城林路6巷80號","121.438181666667","24.9797333333333","6501300","土城區"
"236063","915-UM","2019/09/05 17:59:47","新北市土城區中華路一段301號","121.439975","24.9793083333333","6501300","土城區"
"236055","AAC-216","2019/09/05 17:59:44","新北市土城區城林路6巷80號","121.438553333333","24.979605","6501300","土城區"
"242042","AAC-296","2019/09/05 17:59:41","新北市新莊區中正路612-1號","121.426186666667","25.0302216666667","6500500","新莊區"
"242061","986-R7","2019/09/05 17:59:44","新北市新莊區新樹路525號","121.432765","25.0101533333333","6500500","新莊區"
"242004","751-BX","2019/09/05 17:59:33","新北市新莊區思源路177巷17號","121.459256666667","25.0462783333333","6500500","新莊區"
"242029","615-BX","2019/09/05 17:59:49","新北市新莊區中平路110巷18號","121.445556666667","25.0455966666667","6500500","新莊區"
"242027","613-BX","2019/09/05 17:59:34","新北市新莊區中原路1號","121.459463333333","25.0543966666667","6500500","新莊區"
"242058","612-BX","2019/09/05 17:59:49","新北市新莊區新北大道七段399號","121.41279","25.0258","6500500","新莊區"
"242048","566-BX","2019/09/05 17:59:50","新北市新莊區萬安街51號","121.42153","25.0244866666667","6500500","新莊區"
"242053","497-BY","2019/09/05 17:59:39","新北市新莊區光華街5號","121.428795","25.010625","6500500","新莊區"
"242002","441-UM","2019/09/05 17:59:43","新北市新莊區大觀街42巷15號","121.454423333333","25.0359883333333","6500500","新莊區"
"242007","440-UM","2019/09/05 17:59:35","新北市新莊區自信街42號","121.454645","25.0482133333333","6500500","新莊區"
"242044","415-TV","2019/09/05 17:59:45","新北市新莊區雙鳳路73巷3號","121.415","25.02749","6500500","新莊區"
"242013","413-TV","2019/09/05 17:59:45","新北市新莊區幸福路817巷10號","121.445638333333","25.048625","6500500","新莊區"
"242051","400-BY","2019/09/05 17:59:45","新北市新莊區龍安路478號","121.426521666667","25.0178083333333","6500500","新莊區"
"242025","362-BY","2019/09/05 17:59:47","新北市新莊區五工路60號","121.458235","25.06332","6500500","新莊區"
"242023","353-BY","2019/09/05 17:59:45","新北市新莊區福壽街54號","121.458305","25.0488133333333","6500500","新莊區"
"242015","132-UY","2019/09/05 17:59:37","新北市新莊區中平路87巷3號","121.444496666667","25.0457666666667","6500500","新莊區"
"242039","135-UY","2019/09/05 17:59:35","新北市新莊區民安西路24巷16號","121.426228333333","25.0207833333333","6500500","新莊區"
"242056","172-VK","2019/09/05 17:59:37","新北市新莊區豐年街122-3號","121.4465","25.0299083333333","6500500","新莊區"
"242017","173-VK","2019/09/05 17:59:55","新北市新莊區中和街60巷31號","121.44933","25.044965","6500500","新莊區"
"242031","175-VK","2019/09/05 17:59:54","新北市新莊區新泰路289巷33號","121.444083333333","25.0404383333333","6500500","新莊區"
"242021","346-TH","2019/09/05 17:59:35","新北市新莊區中正路213號","121.451378333333","25.0358583333333","6500500","新莊區"
"242036","348-TH","2019/09/05 17:59:44","新北市新莊區中正路612-1號","121.426113333333","25.0301016666667","6500500","新莊區"
"242009","349-TH","2019/09/05 17:59:49","新北市新莊區中原路191號","121.452316666667","25.05408","6500500","新莊區"
"242034","350-TH","2019/09/05 17:59:48","新北市新莊區景德路402號","121.4455","25.0334216666667","6500500","新莊區"
"242019","351-TH","2019/09/05 17:59:37","新北市新莊區明中街49巷15號","121.456771666667","25.0389616666667","6500500","新莊區"
"238015","755-BX","2019/09/05 17:59:49","新北市樹林區文德街3巷41號","121.41805","24.9917616666667","6500700","樹林區"
"238023","601-UM","2019/09/05 17:59:36","新北市樹林區龍興街46巷30號","121.40192","25.0152266666667","6500700","樹林區"
"238019","599-UM","2019/09/05 17:59:38","新北市樹林區太平路213號","121.418693333333","24.9775816666667","6500700","樹林區"
"238018","KEA-2217","2019/09/05 17:59:34","新北市樹林區中正路7-3號","121.430236666667","24.9977033333333","6500700","樹林區"
"238022","KEA-2213","2019/09/05 17:59:53","新北市樹林區太平路150巷21號","121.417646666667","24.9775383333333","6500700","樹林區"
"238021","KEA-2539","2019/09/05 17:59:36","新北市樹林區佳園路二段175號","121.389895","24.9562933333333","6500700","樹林區"
"238025","303-VK","2019/09/05 17:59:50","新北市樹林區三俊街14號","121.411183333333","25.01526","6500700","樹林區"
"238017","283-BY","2019/09/05 17:59:36","新北市樹林區中正路464號","121.412633333333","25.0125616666667","6500700","樹林區"
"238014","282-BY","2019/09/05 17:59:38","新北市樹林區中正路89號","121.425843333333","25.0004133333333","6500700","樹林區"
"238020","268-VK","2019/09/05 17:59:50","新北市樹林區三俊街189號","121.419663333333","25.0156866666667","6500700","樹林區"
"238026","172-UY","2019/09/05 17:59:39","新北市樹林區新興街20-12號","121.398425","24.9726733333333","6500700","樹林區"
"238016","169-UY","2019/09/05 17:59:25","新北市樹林區啟智街137巷1號","121.417211666667","24.98832","6500700","樹林區"
"239007","AAC-297","2019/09/05 17:59:41","新北市鶯歌區鶯桃路94巷59弄16號","121.341478333333","24.9552816666667","6500800","鶯歌區"
"239006","891-R6","2019/09/05 17:59:40","新北市鶯歌區鶯桃路438號","121.333126666667","24.9648066666667","6500800","鶯歌區"
"239008","527-UM","2019/09/05 17:59:51","新北市鶯歌區香賓街13巷5號","121.336768333333","24.9797816666667","6500800","鶯歌區"
"239005","526-UM","2019/09/05 17:59:51","新北市鶯歌區鳳五路117-1號","121.3304","24.972055","6500800","鶯歌區"
"239001","417-VK","2019/09/05 17:59:46","新北市鶯歌區中正三路334號","121.327686666667","24.935065","6500800","鶯歌區"
"239003","360-BY","2019/09/05 17:59:47","新北市鶯歌區鶯桃路206巷20號","121.337631666667","24.9595483333333","6500800","鶯歌區"
"239002","359-BY","2019/09/05 17:59:36","新北市鶯歌區國華路31號","121.343085","24.9557183333333","6500800","鶯歌區"
"221008","489-VK","2019/09/05 17:59:48","新北市汐止區康寧街753巷2弄20號","121.639943333333","25.0743933333333","6501100","汐止區"
"221010","269-BY","2019/09/05 17:59:48","新北市汐止區汐萬路二段247號","121.646418333333","25.08825","6501100","汐止區"
"221012","278-VK","2019/09/05 17:59:49","新北市汐止區長興街一段53號","121.670668333333","25.07964","6501100","汐止區"
"221023","279-VK","2019/09/05 17:59:53","新北市汐止區明峰街101號","121.631358333333","25.0711016666667","6501100","汐止區"
"221029","298-VK","2019/09/05 17:59:49","新北市汐止區樟樹二路328號","121.641485","25.0703","6501100","汐止區"
"221031","353-TW","2019/09/05 17:59:54","新北市汐止區中興路96巷1-3號","121.635215","25.0625016666667","6501100","汐止區"
"221025","567-BX","2019/09/05 17:59:35","新北市汐止區仁愛路13號","121.65918","25.0639716666667","6501100","汐止區"
"221035","622-UM","2019/09/05 17:59:52","新北市汐止區汐萬路一段222號","121.651656666667","25.0729183333333","6501100","汐止區"
"221038","646-BX","2019/09/05 17:59:54","新北市汐止區連興街124號","121.653798333333","25.061945","6501100","汐止區"
"221033","647-BX","2019/09/05 17:59:38","新北市汐止區合順街39巷3號","121.620653333333","25.0433566666667","6501100","汐止區"
"221018","753-BX","2019/09/05 17:59:24","新北市汐止區忠孝東路341號","121.665376666667","25.070135","6501100","汐止區"
"242046","281-VK","2019/09/05 17:59:50","新北市新莊區福營路197號","121.431045","25.03056","6500500","新莊區"
"242011","280-VK","2019/09/05 17:59:44","新北市新莊區中港路629-1號","121.450618333333","25.053835","6500500","新莊區"
"235068","KEA-2873","2019/09/05 17:59:26","新北市中和區員山路36巷16-3號","121.485181666667","24.9911666666667","6500300","中和區"
"235061","KEA-2875","2019/09/05 17:59:42","新北市中和區連城路583巷15號","121.47913","24.993375","6500300","中和區"
"235062","KEA-2876","2019/09/05 17:59:52","新北市中和區民樂路76號","121.484318333333","25.0012333333333","6500300","中和區"
