"lineid","car","time","location","longitude","latitude","cityid","cityname"
"234046","148-BY","2019/09/05 18:49:42","新北市永和區秀朗路二段126巷1號","121.524843333333","25.0012366666667","6500400","永和區"
"234081","298-R6","2019/09/05 18:49:49","新北市永和區永利路108號","121.521286666667","25.0033683333333","6500400","永和區"
"234038","336-UY","2019/09/05 18:49:40","新北市永和區成功路一段74號","121.526903333333","25.00346","6500400","永和區"
"234064","337-UY","2019/09/05 18:49:34","新北市永和區福和路1號","121.526238333333","25.0097616666667","6500400","永和區"
"234086","338-UY","2019/09/05 18:49:36","新北市永和區中正路39-1號","121.514365","24.9960133333333","6500400","永和區"
"234017","745-BX","2019/09/05 18:49:46","新北市永和區忠孝街26巷8號","121.515385","25.01667","6500400","永和區"
"234030","746-BX","2019/09/05 18:49:35","新北市永和區得和路321號","121.523366666667","24.9996916666667","6500400","永和區"
"234054","KEA-2590","2019/09/05 18:49:30","新北市永和區豫溪街189巷4號","121.52283","25.0104116666667","6500400","永和區"
"234007","KED-0605","2019/09/05 18:49:42","新北市永和區文化路170號","121.511835","25.01552","6500400","永和區"
"234013","KEA-2591","2019/09/05 18:49:43","新北市永和區仁愛路202巷24號","121.50891","25.0128666666667","6500400","永和區"
"234061","AAD-866","2019/09/05 18:49:47","新北市永和區福和路307號","121.51625","25.0070766666667","6500400","永和區"
"234042","862-TW","2019/09/05 18:49:37","新北市永和區永貞路267號","121.511936666667","25.004755","6500400","永和區"
"234050","863-TW","2019/09/05 18:49:45","新北市永和區福和路1號","121.52651","25.0100283333333","6500400","永和區"
"234026","9371-KE","2019/09/05 18:49:46","新北市永和區自由街58號","121.513785","25.00594","6500400","永和區"
"234011","9373-KE","2019/09/05 18:49:37","新北市永和區文化路126巷19號","121.513085","25.0160333333333","6500400","永和區"
"249005","172-UM","2019/09/05 18:49:45","新北市八里區長道坑16-1號","121.395581666667","25.117025","6502300","八里區"
"249001","173-UM","2019/09/05 18:49:38","新北市八里區龍米路二段80號","121.447633333333","25.142405","6502300","八里區"
"249002","305-UY","2019/09/05 18:49:44","新北市八里區龍形一街33巷1-6號","121.449383333333","25.1294616666667","6502300","八里區"
"249003","593-UM","2019/09/05 18:38:38","新北市八里區博物館路10-1號","121.415108333333","25.163955","6502300","八里區"
"248016","026-BX","2019/09/05 18:49:37","新北市五股區凌雲路一段134巷21號","121.450006666667","25.1028066666667","6501500","五股區"
"248006","077-UY","2019/09/05 18:49:36","新北市五股區中興路一段75號","121.46732","25.072505","6501500","五股區"
"248008","KED-0815","2019/09/05 18:49:36","新北市五股區中興路一段151巷1弄1號","121.46502","25.0732433333333","6501500","五股區"
"248012","247-BX","2019/09/05 18:49:41","新北市五股區成泰路二段147巷5-16號","121.437143333333","25.0884133333333","6501500","五股區"
"248010","272-BY","2019/09/05 18:49:45","新北市五股區水碓九路59號","121.429491666667","25.07243","6501500","五股區"
"248004","677-BX","2019/09/05 18:49:47","新北市五股區民義路二段79-1號","121.408656666667","25.1058616666667","6501500","五股區"
"234023","9380-KE","2019/09/05 18:49:38","新北市永和區竹林路119巷45號","121.521838333333","25.0119016666667","6500400","永和區"
"234077","969-R7","2019/09/05 18:49:50","新北市永和區中正路2巷29弄2-2號","121.513856666667","24.9939533333333","6500400","永和區"
"234003","AAC-295","2019/09/05 18:49:49","新北市永和區永和路二段5號","121.514423333333","25.0100616666667","6500400","永和區"
"232011","375-UM","2019/09/05 18:49:53","新北市坪林區坪林街69號","121.711443333333","24.9376083333333","6502000","坪林區"
"244007","080-UY","2019/09/05 18:49:48","新北市林口區太平里23-3號","121.376303333333","25.1153416666667","6501700","林口區"
"244019","402-UM","2019/09/05 18:49:52","新北市林口區麗園二街3巷6-3號","121.378811666667","25.0700616666667","6501700","林口區"
"244013","KEA-2802","2019/09/05 18:49:39","新北市林口區麗園二街1巷6-1號","121.378","25.0704083333333","6501700","林口區"
"244023","483-VK","2019/09/05 18:49:50","新北市林口區文化二路二段102號","121.378843333333","25.0816933333333","6501700","林口區"
"244017","485-VK","2019/09/05 18:49:45","新北市林口區文化二路一段68巷12號","121.366101666667","25.0679683333333","6501700","林口區"
"244009","656-BX","2019/09/05 18:49:45","新北市林口區竹林路460號","121.388041666667","25.0850816666667","6501700","林口區"
"244011","701-TV","2019/09/05 18:49:45","新北市林口區仁愛路一段285巷60號","121.39544","25.0743916666667","6501700","林口區"
"244021","838-TS","2019/09/05 18:49:34","新北市林口區工六路78號","121.400423333333","25.0771966666667","6501700","林口區"
"243010","297-R6","2019/09/05 18:49:49","新北市泰山區辭修路48號","121.428468333333","25.0571966666667","6501600","泰山區"
"243014","KEA-2801","2019/09/05 18:49:48","新北市泰山區黎明路25號","121.42215","25.0607283333333","6501600","泰山區"
"243016","421-VK","2019/09/05 18:49:40","新北市泰山區明志路一段493號","121.430735","25.0550533333333","6501600","泰山區"
"243015","680-BX","2019/09/05 18:49:34","新北市泰山區美寧街50號","121.430508333333","25.0644816666667","6501600","泰山區"
"222003","436-BY","2019/09/05 18:49:52","新北市深坑區深南路56號","121.619528333333","25.00938","6501800","深坑區"
"222002","659-BX","2019/09/05 18:49:52","新北市深坑區文山路一段69號","121.627275","25.0021216666667","6501800","深坑區"
"231061","002-UM","2019/09/05 18:49:53","新北市新店區安華路28-1號","121.519821666667","24.9608533333333","6500600","新店區"
"231058","0293-UT","2019/09/05 18:49:40","新北市新店區北宜路一段170號","121.540613333333","24.95304","6500600","新店區"
"231044","046-UY","2019/09/05 18:49:35","新北市新店區中正路56號","121.544518333333","24.9699983333333","6500600","新店區"
"231060","106-UY","2019/09/05 18:49:37","新北市新店區安華路28-1號","121.519626666667","24.9608616666667","6500600","新店區"
"231051","107-UY","2019/09/05 18:49:49","新北市新店區中央路67號","121.532503333333","24.97691","6500600","新店區"
"231049","108-UY","2019/09/05 18:49:42","新北市新店區中央路183-1號","121.536191666667","24.9688233333333","6500600","新店區"
"231065","110-UY","2019/09/05 18:49:42","新北市新店區安康路三段450號","121.48446","24.95129","6500600","新店區"
"231062","256-BX","2019/09/05 18:49:53","新北市新店區安一路一段1-1號","121.519711666667","24.9611333333333","6500600","新店區"
"231054","260-TV","2019/09/05 18:49:51","新北市新店區安一路一段1-1號","121.519278333333","24.9611916666667","6500600","新店區"
"231042","268-BY","2019/09/05 18:49:39","新北市新店區中正路66巷8號","121.544431666667","24.9702466666667","6500600","新店區"
"231064","278-BY","2019/09/05 18:49:39","新北市新店區安一路一段1-1號","121.519671666667","24.9610883333333","6500600","新店區"
"231050","AAD-862","2019/09/05 18:49:45","新北市新店區安康路一段44號","121.530783333333","24.961025","6500600","新店區"
"231045","355-BY","2019/09/05 18:49:49","新北市新店區安一路一段1-1號","121.519345","24.9610166666667","6500600","新店區"
"231055","4716-K9","2019/09/05 18:49:45","新北市新店區中華路38號","121.539978333333","24.9680933333333","6500600","新店區"
"231056","4715-K9","2019/09/05 18:49:38","新北市新店區大同街2號","121.53977","24.980015","6500600","新店區"
"231052","515-UM","2019/09/05 18:49:47","新北市新店區永興路2號","121.545861666667","24.9406733333333","6500600","新店區"
"231063","616-UM","2019/09/05 18:49:51","新北市新店區安華路1-1號","121.519423333333","24.9604966666667","6500600","新店區"
"231047","KED-0819","2019/09/05 18:49:53","新北市新店區安康路一段231號","121.525333333333","24.9631816666667","6500600","新店區"
"231046","719-UM","2019/09/05 18:49:47","新北市新店區直潭路77號","121.531965","24.9420766666667","6500600","新店區"
"231057","720-UM","2019/09/05 18:49:40","新北市新店區新烏路一段201號","121.548083333333","24.932035","6500600","新店區"
"231059","897-TW","2019/09/05 18:49:35","新北市新店區安華路28-1號","121.519603333333","24.9607","6500600","新店區"
"231040","898-TW","2019/09/05 18:49:48","新北市新店區秀山路66號","121.530826666667","24.9609666666667","6500600","新店區"
"231043","899-TW","2019/09/05 18:49:39","新北市新店區安康路一段323-3號","121.521128333333","24.963785","6500600","新店區"
"231066","AKT-0513","2019/09/05 18:49:32","新北市新店區安華路1-1號","121.519386666667","24.9603733333333","6500600","新店區"
"241035","462-BY","2019/09/05 18:49:38","新北市三重區重新路四段121號","121.484928333333","25.0518483333333","6500200","三重區"
"235066","003-UY","2019/09/05 18:49:47","新北市中和區水源路18巷3號","121.504038333333","25.0031933333333","6500300","中和區"
"235063","006-UY","2019/09/05 18:49:51","新北市中和區中正路462號","121.490175","24.994235","6500300","中和區"
"235056","096-UM","2019/09/05 18:49:48","新北市中和區員山路466巷17弄3號","121.480596666667","25.0068766666667","6500300","中和區"
"235039","097-UM","2019/09/05 18:49:45","新北市中和區安樂路217巷39號","121.5134","24.9979166666667","6500300","中和區"
"235065","098-UM","2019/09/05 18:49:48","新北市中和區中山路二段2巷27號","121.503158333333","25.0069383333333","6500300","中和區"
"235040","150-BY","2019/09/05 18:49:34","新北市中和區保健路94號","121.512223333333","24.996035","6500300","中和區"
"235058","151-BY","2019/09/05 18:49:45","新北市中和區連城路518巷1號","121.476545","24.99183","6500300","中和區"
"235055","183-VK","2019/09/05 18:49:37","新北市中和區德光路81號","121.469248333333","25.00368","6500300","中和區"
"235038","185-VK","2019/09/05 18:49:46","新北市中和區大勇街31巷13弄13號","121.517436666667","24.994055","6500300","中和區"
"235049","186-VK","2019/09/05 18:49:46","新北市中和區景安路177巷35號","121.506948333333","24.9945933333333","6500300","中和區"
"235067","255-BX","2019/09/05 18:49:35","新北市中和區中正路839巷1號","121.484661666667","25.0023783333333","6500300","中和區"
"235044","293-VK","2019/09/05 18:49:34","新北市中和區中興街119號","121.499928333333","24.99191","6500300","中和區"
"235043","352-BY","2019/09/05 18:49:37","新北市中和區秀朗路三段97號","121.526551666667","24.9949566666667","6500300","中和區"
"235042","KEA-2878","2019/09/05 18:49:39","新北市中和區秀朗路三段78巷1弄5號","121.52568","24.9938083333333","6500300","中和區"
"235050","4979-A6","2019/09/05 18:49:52","新北市中和區忠孝街62巷46號","121.51316","24.9839366666667","6500300","中和區"
"235069","4980-A6","2019/09/05 18:49:40","新北市中和區南山路58號","121.501923333333","24.9973166666667","6500300","中和區"
"235070","558-UM","2019/09/05 18:49:33","新北市中和區中和路198號","121.505295","24.9996966666667","6500300","中和區"
"235045","565-BX","2019/09/05 18:49:42","新北市中和區景新街467巷20弄19號","121.514983333333","24.9873933333333","6500300","中和區"
"235060","KED-0823","2019/09/05 18:49:48","新北市中和區民治街9巷2號","121.47518","25.0044166666667","6500300","中和區"
"235054","640-BX","2019/09/05 18:49:38","新北市中和區民享街55號","121.474115","25.0025566666667","6500300","中和區"
"235053","647-TV","2019/09/05 18:49:45","新北市中和區民德路290巷9號","121.466951666667","24.9957916666667","6500300","中和區"
"235047","732-UM","2019/09/05 18:49:42","新北市中和區興南路二段34巷43號","121.505353333333","24.9863966666667","6500300","中和區"
"235046","733-UM","2019/09/05 18:49:50","新北市中和區興南路一段156號","121.508316666667","24.9867816666667","6500300","中和區"
"235071","783-BX","2019/09/05 18:49:35","新北市中和區員山路36巷16-3號","121.485238333333","24.9912283333333","6500300","中和區"
"235057","801-TS","2019/09/05 18:49:43","新北市中和區民利街40巷1弄11號","121.478965","24.9989483333333","6500300","中和區"
"235041","802-TS","2019/09/05 18:49:34","新北市中和區安平路145巷22號","121.511318333333","24.9985783333333","6500300","中和區"
"235052","805-TS","2019/09/05 18:49:41","新北市中和區興南路二段399巷90-2號","121.50024","24.9777566666667","6500300","中和區"
"235048","896-TW","2019/09/05 18:49:38","新北市中和區華新街47號","121.507846666667","24.9845516666667","6500300","中和區"
"235064","911-UM","2019/09/05 18:49:39","新北市中和區泰和街44巷38號","121.498183333333","25.001165","6500300","中和區"
"235051","157-BY","2019/09/05 18:49:39","新北市中和區忠孝街106巷45號","121.513851666667","24.984345","6500300","中和區"
"235037","AAC-213","2019/09/05 18:49:33","新北市中和區秀朗路三段10巷14弄39號","121.524133333333","24.9961133333333","6500300","中和區"
"235059","AAC-215","2019/09/05 18:49:46","新北市中和區圓通路393巷18號","121.48985","24.9885783333333","6500300","中和區"
"220065","072-UY","2019/09/05 18:49:51","新北市板橋區館前東路110-1號","121.463311666667","25.0077","6500100","板橋區"
"220086","073-UY","2019/09/05 18:49:49","新北市板橋區南雅西路二段145巷4號","121.451651666667","25.0116633333333","6500100","板橋區"
"220106","075-UY","2019/09/05 18:49:34","新北市板橋區文化路二段124巷28-2號","121.471205","25.0257083333333","6500100","板橋區"
"220069","AAD-861","2019/09/05 18:49:35","新北市板橋區華興街77號","121.456956666667","25.0050683333333","6500100","板橋區"
"220068","120-SR","2019/09/05 18:49:47","新北市板橋區大同街35巷16號","121.477478333333","25.0278166666667","6500100","板橋區"
"226004","312-R5","2019/09/05 18:49:43","新北市平溪區平溪里三坑路17號","121.736825","25.02852","6502400","平溪區"
"235072","251-BX","2019/09/05 18:49:36","新北市中和區中山路二段259號","121.497138333333","25.00224","6500300","中和區"
"228003","097-TW","2019/09/05 18:49:42","新北市貢寮區和美里龍洞街42號","121.913218333333","25.1126783333333","6502600","貢寮區"
"228001","212-TW","2019/09/05 18:49:39","新北市貢寮區仁理村保健街71號","121.923688333333","25.0516566666667","6502600","貢寮區"
"228002","663-BX","2019/09/05 18:49:41","新北市貢寮區福隆里東興街6-11號","121.950745","25.0211416666667","6502600","貢寮區"
"224006","676-BX","2019/09/05 18:49:46","新北市瑞芳區中正路38號","121.807103333333","25.10726","6501200","瑞芳區"
"224002","639-TC","2019/09/05 18:49:33","新北市瑞芳區靜安路四段56巷6號","121.793131666667","25.10211","6501200","瑞芳區"
"224007","285-BY","2019/09/05 18:49:49","新北市瑞芳區大埔路138號","121.761841666667","25.100795","6501200","瑞芳區"
"224009","275-VK","2019/09/05 18:49:48","新北市瑞芳區祈堂路8號","121.858991666667","25.1130316666667","6501200","瑞芳區"
"224008","273-VK","2019/09/05 18:49:35","新北市瑞芳區逢甲路338號","121.802995","25.1117816666667","6501200","瑞芳區"
"224005","271-BY","2019/09/05 18:49:35","新北市瑞芳區濱二路41-1號","121.83312","25.1164883333333","6501200","瑞芳區"
"227001","642-TC","2019/09/05 18:49:34","新北市雙溪區牡丹里下坑11號","121.851056666667","25.0561916666667","6502500","雙溪區"
"227002","400-TW","2019/09/05 18:49:41","新北市雙溪區共和里中山路47號","121.86679","25.03205","6502500","雙溪區"
"253005","032-BX","2019/09/05 18:49:40","新北市石門區中山路32-3號","121.565933333333","25.2897966666667","6502200","石門區"
"253006","295-VK","2019/09/05 18:49:46","新北市石門區下員坑15號","121.510601666667","25.28361","6502200","石門區"
"222001","KEA-2212","2019/09/05 18:49:41","新北市深坑區北深路一段38號","121.637891666667","25.0105266666667","6501800","深坑區"
"208002","KEA-2872","2019/09/05 18:49:35","新北市金山區信義路72號","121.635156666667","25.2195983333333","6502700","金山區"
"208003","665-BX","2019/09/05 18:49:45","新北市金山區中山路391號","121.63358","25.2251433333333","6502700","金山區"
"251001","011-UM","2019/09/05 18:49:33","新北市淡水區自強路106號","121.46204","25.12971","6501000","淡水區"
"251002","012-UM","2019/09/05 18:49:53","新北市淡水區學府路79號","121.448535","25.1700433333333","6501000","淡水區"
"251015","KEA-2871","2019/09/05 18:49:35","新北市淡水區糞箕湖20號","121.485698333333","25.1709116666667","6501000","淡水區"
"251016","179-VK","2019/09/05 18:49:42","新北市淡水區下圭柔山71-3號","121.447001666667","25.2062383333333","6501000","淡水區"
"251013","180-VK","2019/09/05 18:49:47","新北市淡水區安子內5-1號","121.483605","25.21516","6501000","淡水區"
"251010","413-VK","2019/09/05 18:49:48","新北市淡水區沙崙路20號","121.42134","25.181085","6501000","淡水區"
"251012","441-VK","2019/09/05 18:49:43","新北市淡水區北新路16號","121.444813333333","25.1775733333333","6501000","淡水區"
"251014","577-R6","2019/09/05 18:49:55","新北市淡水區崙頂3號","121.490928333333","25.2239016666667","6501000","淡水區"
"251011","650-BX","2019/09/05 18:49:41","新北市淡水區學府路32巷31號","121.448355","25.168045","6501000","淡水區"
"251003","673-BX","2019/09/05 18:49:37","新北市淡水區中山北路一段212巷38號","121.446171666667","25.1789833333333","6501000","淡水區"
"207003","550-UM","2019/09/05 18:49:39","新北市萬里區野柳里港東路6-3號","121.686668333333","25.2032933333333","6502800","萬里區"
"207004","291-VK","2019/09/05 18:49:43","新北市萬里區萬里里獅頭路23號","121.693186666667","25.1783183333333","6502800","萬里區"
"252002","178-VK","2019/09/05 18:49:38","新北市三芝區中正路一段112號","121.50485","25.25638","6502100","三芝區"
"252003","249-BX","2019/09/05 18:49:51","新北市三芝區後厝里大片頭83-4號","121.458988333333","25.2440833333333","6502100","三芝區"
"208001","170-UY","2019/09/05 18:49:52","新北市金山區文化三路66巷1號","121.634226666667","25.225635","6502700","金山區"
"237007","153-BY","2019/09/05 18:49:41","新北市三峽區大埔路80號","121.366435","24.90727","6500900","三峽區"
"237009","210-TH","2019/09/05 18:49:51","新北市三峽區民權街153-1號","121.368435","24.9313","6500900","三峽區"
"237013","252-BX","2019/09/05 18:49:41","新北市三峽區光明路69巷25號","121.376563333333","24.92916","6500900","三峽區"
"237012","275-BY","2019/09/05 18:49:31","新北市三峽區三樹路340號","121.383983333333","24.9433266666667","6500900","三峽區"
"237008","302-VK","2019/09/05 18:49:38","新北市三峽區白雞14-1號","121.368145","24.9129866666667","6500900","三峽區"
"237014","433-BY","2019/09/05 18:49:41","新北市三峽區隆恩街190號","121.36111","24.9424566666667","6500900","三峽區"
"237006","5529-G3","2019/09/05 18:49:37","新北市三峽區溪東路211巷31弄11號","121.40544","24.9343283333333","6500900","三峽區"
"237011","KEA-2596","2019/09/05 18:49:48","新北市三峽區溪東路179號","121.403565","24.933865","6500900","三峽區"
"237015","649-BX","2019/09/05 18:49:36","新北市三峽區建安107-5號","121.457038333333","24.92245","6500900","三峽區"
"237004","078-UY","2019/09/05 18:49:50","新北市三峽區插角117號","121.40848","24.8703816666667","6500900","三峽區"
"237010","706-TV","2019/09/05 18:49:34","新北市三峽區復興路449號","121.362626666667","24.9385633333333","6500900","三峽區"
"237005","AKY-6261","2019/09/05 18:49:40","新北市三峽區文化路105號","121.370608333333","24.936075","6500900","三峽區"
"236042","KED-0685","2019/09/05 18:49:28","新北市土城區裕民路92巷25弄12號","121.449966666667","24.9855866666667","6501300","土城區"
"236030","253-BX","2019/09/05 18:49:43","新北市土城區忠義路36巷16號","121.439883333333","24.9698433333333","6501300","土城區"
"236026","269-VK","2019/09/05 18:49:43","新北市土城區光明街63號","121.442425","24.9731216666667","6501300","土城區"
"236014","270-VK","2019/09/05 18:49:34","新北市土城區青雲路151巷25號","121.459945","24.9844016666667","6501300","土城區"
"236038","271-VK","2019/09/05 18:49:53","新北市土城區明德路一段221巷3號","121.46359","24.9780933333333","6501300","土城區"
"236070","KEA-2877","2019/09/05 18:49:36","新北市土城區延和路1號","121.463608333333","24.9876416666667","6501300","土城區"
"252001","KED-0821","2019/09/05 18:49:43","新北市三芝區中正路三段9號","121.502846666667","25.2540033333333","6502100","三芝區"
"236021","401-BY","2019/09/05 18:49:54","新北市土城區延吉街253巷9號","121.467881666667","24.9844433333333","6501300","土城區"
"236059","912-UM","2019/09/05 18:49:43","新北市土城區金城路二段36號","121.450788333333","24.9784183333333","6501300","土城區"
"236049","913-UM","2019/09/05 18:49:36","新北市土城區青雲路10-1號","121.460205","24.988905","6501300","土城區"
"236063","915-UM","2019/09/05 18:49:47","新北市土城區延和路108巷7弄2號","121.467393333333","24.989385","6501300","土城區"
"236055","AAC-216","2019/09/05 18:49:44","新北市土城區學府路一段169號","121.45275","24.9853866666667","6501300","土城區"
"242002","441-UM","2019/09/05 18:49:38","新北市樹林區環河路600號","121.404241666667","24.9693333333333","6500500","新莊區"
"238023","601-UM","2019/09/05 18:49:36","新北市樹林區工興街14巷1號","121.398951666667","25.013705","6500700","樹林區"
"238024","5061-A6","2019/09/05 18:49:33","新北市樹林區太平路247巷1號","121.419215","24.9750866666667","6500700","樹林區"
"238022","KEA-2213","2019/09/05 18:49:33","新北市樹林區中華路190-8號","121.411335","24.9804883333333","6500700","樹林區"
"238021","KEA-2539","2019/09/05 18:49:50","新北市樹林區西圳街二段56號","121.387071666667","24.95981","6500700","樹林區"
"238020","268-VK","2019/09/05 18:49:50","新北市樹林區俊英街280號","121.423873333333","25.0130716666667","6500700","樹林區"
"238026","172-UY","2019/09/05 18:49:39","新北市樹林區信和街3號","121.389681666667","24.9712316666667","6500700","樹林區"
"238016","169-UY","2019/09/05 18:49:45","新北市樹林區中山路一段412號","121.417411666667","24.985155","6500700","樹林區"
"239007","AAC-297","2019/09/05 18:49:41","新北市鶯歌區中正一路建德巷38號","121.364498333333","24.9578233333333","6500800","鶯歌區"
"239008","527-UM","2019/09/05 18:49:35","新北市鶯歌區朝陽街1號","121.336281666667","24.976595","6500800","鶯歌區"
"239005","526-UM","2019/09/05 18:49:50","新北市鶯歌區鳳吉一街156號","121.328655","24.9753766666667","6500800","鶯歌區"
"239001","417-VK","2019/09/05 18:49:46","新北市鶯歌區高職南街10號","121.337391666667","24.93919","6500800","鶯歌區"
"239003","360-BY","2019/09/05 18:49:47","新北市鶯歌區鶯桃路524-1號","121.331593333333","24.9666883333333","6500800","鶯歌區"
"239004","193-VK","2019/09/05 18:49:41","新北市鶯歌區尖山路293巷13號","121.341556666667","24.9442116666667","6500800","鶯歌區"
"221036","130-UY","2019/09/05 18:49:39","新北市汐止區大同路二段585號","121.663776666667","25.07034","6501100","汐止區"
"221015","131-UY","2019/09/05 18:49:46","新北市汐止區鄉友街1號","121.66795","25.0806883333333","6501100","汐止區"
"221032","280-BY","2019/09/05 18:49:49","新北市汐止區民權街二段79號","121.619166666667","25.04808","6501100","汐止區"
"221029","298-VK","2019/09/05 18:49:49","新北市汐止區工建路60號","121.640653333333","25.06285","6501100","汐止區"
"221021","299-VK","2019/09/05 18:49:34","新北市汐止區復興路67號","121.657196666667","25.0621333333333","6501100","汐止區"
"221031","353-TW","2019/09/05 18:49:34","新北市汐止區福德一路274號","121.632135","25.0640766666667","6501100","汐止區"
"221025","567-BX","2019/09/05 18:49:42","新北市汐止區福安街20巷22號","121.661928333333","25.0645633333333","6501100","汐止區"
"221035","622-UM","2019/09/05 18:49:52","新北市汐止區大同路二段33-1號","121.647676666667","25.0631833333333","6501100","汐止區"
"221002","707-TV","2019/09/05 18:49:52","新北市汐止區大同路一段149號","121.63204","25.0561983333333","6501100","汐止區"
"221018","753-BX","2019/09/05 18:49:48","新北市汐止區茄苳路291號","121.672985","25.0672816666667","6501100","汐止區"
"220079","145-BY","2019/09/05 18:49:31","新北市板橋區南雅西路二段192巷1弄11號","121.452095","25.0147516666667","6500100","板橋區"
"220080","200-UY","2019/09/05 18:49:53","新北市板橋區大觀路二段265巷72弄6號","121.442138333333","24.9969583333333","6500100","板橋區"
"220082","610-BX","2019/09/05 18:49:49","新北市板橋區篤行路三段玉平巷68弄5號","121.427728333333","24.9860033333333","6500100","板橋區"
"220101","245-BX","2019/09/05 18:49:35","新北市板橋區莊敬路121號","121.472033333333","25.0255216666667","6500100","板橋區"
"220056","276-BY","2019/09/05 18:49:31","新北市板橋區四川路一段276號","121.458913333333","25.0009716666667","6500100","板橋區"
"220072","277-BY","2019/09/05 18:49:45","新北市板橋區大觀路三段36巷54弄3號","121.434481666667","24.9970133333333","6500100","板橋區"
"220094","283-UM","2019/09/05 18:49:36","新北市板橋區莒光路18號","121.469866666667","25.024775","6500100","板橋區"
"220071","283-VK","2019/09/05 18:49:46","新北市板橋區四川路一段223號","121.460055","25.0032416666667","6500100","板橋區"
"220053","285-VK","2019/09/05 18:49:41","新北市板橋區成功路48號","121.475033333333","25.01779","6500100","板橋區"
"220083","286-VK","2019/09/05 18:49:45","新北市板橋區大觀路二段22巷25號","121.445331666667","25.003425","6500100","板橋區"
"220081","287-VK","2019/09/05 18:49:45","新北市板橋區光華街13巷29號","121.453128333333","25.0112883333333","6500100","板橋區"
"220090","288-VK","2019/09/05 18:49:46","新北市板橋區四維路233號","121.463253333333","25.0273033333333","6500100","板橋區"
"220061","293-UM","2019/09/05 18:49:35","新北市板橋區富山街109巷63弄27號","121.475335","25.020515","6500100","板橋區"
"220062","295-UM","2019/09/05 18:49:50","新北市板橋區中山路二段50-5號","121.473393333333","25.0149916666667","6500100","板橋區"
"220084","296-UM","2019/09/05 18:49:52","新北市板橋區大觀路二段150巷24號","121.441673333333","24.99958","6500100","板橋區"
"220075","303-R5","2019/09/05 18:49:38","新北市板橋區大觀路一段28巷96號","121.450455","25.0110533333333","6500100","板橋區"
"220092","307-R5","2019/09/05 18:49:43","新北市板橋區文化路一段136巷10-1號","121.465666666667","25.0184716666667","6500100","板橋區"
"220098","317-R6","2019/09/05 18:49:47","新北市板橋區民生路二段234巷77號","121.470238333333","25.0225866666667","6500100","板橋區"
"220089","487-VK","2019/09/05 18:49:45","新北市板橋區文化路二段419號","121.474568333333","25.03276","6500100","板橋區"
"220088","491-VK","2019/09/05 18:49:52","新北市板橋區文化路二段22號","121.468928333333","25.0244283333333","6500100","板橋區"
"220035","560-BX","2019/09/05 18:49:38","新北市板橋區中正路275巷79弄5號","121.452223333333","25.0178083333333","6500100","板橋區"
"220103","561-BX","2019/09/05 18:49:47","新北市板橋區文化路一段188巷11弄16號","121.46901","25.0187083333333","6500100","板橋區"
"220063","609-BX","2019/09/05 18:49:32","新北市板橋區民生路一段55號","121.475356666667","25.0129533333333","6500100","板橋區"
"220091","637-BX","2019/09/05 18:49:44","新北市板橋區莒光路165巷46號","121.474496666667","25.0251516666667","6500100","板橋區"
"220057","686-BX","2019/09/05 18:49:37","新北市板橋區重慶路177號","121.462768333333","25.002525","6500100","板橋區"
"220077","687-BX","2019/09/05 18:49:50","新北市板橋區大觀路二段174巷170號","121.441971666667","25.0034183333333","6500100","板橋區"
"220093","689-BX","2019/09/05 18:49:51","新北市板橋區民生路三段30-5號","121.467535","25.0246416666667","6500100","板橋區"
"220054","741-BX","2019/09/05 18:49:53","新北市板橋區館前東路15號","121.460076666667","25.0071933333333","6500100","板橋區"
"220102","KEA-2699","2019/09/05 18:49:53","新北市板橋區萬板路506號","121.48033","25.0261766666667","6500100","板橋區"
"220055","827-TW","2019/09/05 18:49:48","新北市板橋區忠孝路116號","121.462796666667","25.0022316666667","6500100","板橋區"
"220067","829-TW","2019/09/05 18:49:48","新北市板橋區三民路二段正隆巷31號","121.477295","25.0133533333333","6500100","板橋區"
"220074","895-R6","2019/09/05 18:49:45","新北市板橋區南門街39號","121.457365","25.00883","6500100","板橋區"
"220073","985-R7","2019/09/05 18:49:50","新北市板橋區館前西路66號","121.457905","25.007145","6500100","板橋區"
"220097","AAC-210","2019/09/05 18:49:47","新北市板橋區四維路137巷17號","121.464223333333","25.0248666666667","6500100","板橋區"
"220064","AAC-253","2019/09/05 18:49:43","新北市板橋區縣民大道二段106號","121.466956666667","25.0153966666667","6500100","板橋區"
"235068","KEA-2873","2019/09/05 18:49:26","新北市中和區中正路211巷27號","121.497778333333","24.992695","6500300","中和區"
"235061","KEA-2875","2019/09/05 18:49:41","新北市中和區民治街132巷5-2號","121.475121666667","25.0023366666667","6500300","中和區"
"235062","KEA-2876","2019/09/05 18:49:51","新北市中和區中山路二段386號","121.490533333333","25.0035783333333","6500300","中和區"
