"lineid","car","time","location","longitude","latitude","cityid","cityname"
"234046","148-BY","2019/09/05 19:09:39","新北市永和區永元路18巷25號","121.52365","25.0002366666667","6500400","永和區"
"234081","298-R6","2019/09/05 19:09:50","新北市永和區永貞路39巷13號","121.522345","25.0063316666667","6500400","永和區"
"234038","336-UY","2019/09/05 19:09:40","新北市永和區民樂街71巷1號","121.52735","24.9974716666667","6500400","永和區"
"234064","337-UY","2019/09/05 19:09:34","新北市永和區秀朗路二段46號","121.521456666667","25.002295","6500400","永和區"
"234086","338-UY","2019/09/05 19:09:36","新北市永和區永貞路45號","121.519773333333","25.0045283333333","6500400","永和區"
"234070","552-UM","2019/09/05 19:09:38","新北市永和區豫溪街95巷8號","121.518201666667","25.0107616666667","6500400","永和區"
"234017","745-BX","2019/09/05 19:09:46","新北市永和區文化路90巷9弄2號","121.513813333333","25.0158216666667","6500400","永和區"
"234030","746-BX","2019/09/05 19:09:42","新北市永和區四維街80號","121.523281666667","24.9983966666667","6500400","永和區"
"234054","KEA-2590","2019/09/05 19:09:50","新北市永和區竹林路78號","121.519315","25.0127316666667","6500400","永和區"
"234007","KED-0605","2019/09/05 19:09:42","新北市永和區中山路一段186號","121.509121666667","25.00893","6500400","永和區"
"234013","KEA-2591","2019/09/05 19:09:43","新北市永和區永和路二段50號","121.514793333333","25.0107516666667","6500400","永和區"
"234061","AAD-866","2019/09/05 19:09:54","新北市永和區安樂路300號","121.514416666667","25.00493","6500400","永和區"
"234042","862-TW","2019/09/05 19:09:49","新北市永和區永和路一段49巷3弄99號","121.511798333333","25.0060766666667","6500400","永和區"
"234050","863-TW","2019/09/05 19:09:45","新北市永和區保福路二段150巷18號","121.51035","25.0150216666667","6500400","永和區"
"234026","9371-KE","2019/09/05 19:09:46","新北市永和區安樂路272巷9弄7號","121.515088333333","25.0045583333333","6500400","永和區"
"234011","9373-KE","2019/09/05 19:09:51","新北市永和區信義路25巷53號","121.512338333333","25.0115616666667","6500400","永和區"
"249005","172-UM","2019/09/05 19:09:50","新北市八里區中華路三段55號","121.395061666667","25.1413216666667","6502300","八里區"
"249001","173-UM","2019/09/05 19:09:38","新北市八里區龍米路二段236號","121.431323333333","25.1586316666667","6502300","八里區"
"249002","305-UY","2019/09/05 19:09:44","新北市八里區頂寮二街138號","121.449353333333","25.1294666666667","6502300","八里區"
"249003","593-UM","2019/09/05 19:09:39","新北市八里區博物館路105號","121.408943333333","25.1593116666667","6502300","八里區"
"248016","026-BX","2019/09/05 19:09:37","新北市五股區凌雲路一段134巷21號","121.44999","25.1028383333333","6501500","五股區"
"248008","KED-0815","2019/09/05 19:09:36","新北市五股區中興路二段11號","121.462988333333","25.0741983333333","6501500","五股區"
"248012","247-BX","2019/09/05 19:09:41","新北市五股區中興路四段48巷16號","121.438625","25.0833866666667","6501500","五股區"
"248004","677-BX","2019/09/05 19:09:47","新北市五股區五福路29號","121.433883333333","25.08924","6501500","五股區"
"234023","9380-KE","2019/09/05 19:09:38","新北市永和區中興街10巷30號","121.515723333333","25.0111616666667","6500400","永和區"
"234077","969-R7","2019/09/05 19:09:52","新北市永和區民族街27巷6號","121.519113333333","24.9995583333333","6500400","永和區"
"234074","AAC-211","2019/09/05 19:09:41","新北市永和區福和路59號","121.522983333333","25.0078583333333","6500400","永和區"
"234067","AAC-212","2019/09/05 19:09:41","新北市永和區保平路33號","121.51206","25.007275","6500400","永和區"
"234003","AAC-295","2019/09/05 19:09:49","新北市永和區保福路一段43號","121.512613333333","25.00928","6500400","永和區"
"244025","069-UM","2019/09/05 19:09:46","新北市林口區南勢三街1巷33號","121.357675","25.077635","6501700","林口區"
"244023","483-VK","2019/09/05 19:09:50","新北市林口區文林六街30號","121.371471666667","25.081005","6501700","林口區"
"244011","701-TV","2019/09/05 19:09:45","新北市林口區中正路302號","121.388261666667","25.07776","6501700","林口區"
"243012","AAD-798","2019/09/05 19:09:36","新北市泰山區辭修路34巷1號","121.428811666667","25.0580633333333","6501600","泰山區"
"243010","297-R6","2019/09/05 19:09:49","新北市泰山區明志路一段481號","121.430995","25.0554483333333","6501600","泰山區"
"243014","KEA-2801","2019/09/05 19:09:48","新北市泰山區泰林路二段410號","121.42731","25.0643683333333","6501600","泰山區"
"243016","421-VK","2019/09/05 19:09:40","新北市泰山區明志路二段416號","121.424966666667","25.04408","6501600","泰山區"
"243009","KEA-2215","2019/09/05 19:09:45","新北市泰山區明志路一段122巷7號","121.433153333333","25.0636016666667","6501600","泰山區"
"243011","KEA-2216","2019/09/05 19:09:34","新北市泰山區明志路二段329號","121.425673333333","25.0449183333333","6501600","泰山區"
"243013","646-TV","2019/09/05 19:09:37","新北市泰山區明志路三段277號","121.423153333333","25.0367883333333","6501600","泰山區"
"243015","680-BX","2019/09/05 19:09:54","新北市泰山區明志路一段431號","121.430845","25.0565533333333","6501600","泰山區"
"222003","436-BY","2019/09/05 19:09:32","新北市深坑區深南路162號","121.626095","25.0149883333333","6501800","深坑區"
"222002","659-BX","2019/09/05 19:09:32","新北市深坑區北深路一段177號","121.632391666667","25.0107366666667","6501800","深坑區"
"231061","002-UM","2019/09/05 19:09:33","新北市新店區安康路一段226號","121.523536666667","24.9635866666667","6500600","新店區"
"231058","0293-UT","2019/09/05 19:09:40","新北市新店區中興路一段138號","121.54222","24.9634483333333","6500600","新店區"
"231044","046-UY","2019/09/05 19:09:35","新北市新店區中興路三段216號","121.543695","24.9825066666667","6500600","新店區"
"231060","106-UY","2019/09/05 19:09:37","新北市新店區安康路二段310號","121.505935","24.958175","6500600","新店區"
"231051","107-UY","2019/09/05 19:09:49","新北市新店區中正路382巷28號","121.535541666667","24.9779516666667","6500600","新店區"
"231049","108-UY","2019/09/05 19:09:42","新北市新店區二十張路25巷12號","121.539021666667","24.9820016666667","6500600","新店區"
"231065","110-UY","2019/09/05 19:09:42","新北市新店區安祥路108巷33號","121.475186666667","24.9570266666667","6500600","新店區"
"231062","256-BX","2019/09/05 19:09:53","新北市新店區安平路20號","121.524073333333","24.967175","6500600","新店區"
"231054","260-TV","2019/09/05 19:09:51","新北市新店區新店路143號","121.537053333333","24.9548483333333","6500600","新店區"
"231042","268-BY","2019/09/05 19:09:39","新北市新店區中興路一段177號","121.542955","24.9646616666667","6500600","新店區"
"231064","278-BY","2019/09/05 19:09:39","新北市新店區安忠路56巷6號","121.513005","24.95946","6500600","新店區"
"231050","AAD-862","2019/09/05 19:09:45","新北市新店區竹林路2巷29弄7號","121.550428333333","24.9502683333333","6500600","新店區"
"231045","355-BY","2019/09/05 19:09:49","新北市新店區北宜路一段130號","121.539478333333","24.9548833333333","6500600","新店區"
"231055","4716-K9","2019/09/05 19:09:45","新北市新店區新生街13巷42-1號","121.538898333333","24.9664616666667","6500600","新店區"
"231056","4715-K9","2019/09/05 19:09:38","新北市新店區溪園路283號","121.525408333333","24.9799216666667","6500600","新店區"
"231067","4772-VM","2019/09/05 19:09:50","新北市新店區安康路一段247巷18號","121.52488","24.962335","6500600","新店區"
"231052","515-UM","2019/09/05 19:09:47","新北市新店區自強路70號","121.546245","24.9251783333333","6500600","新店區"
"231063","616-UM","2019/09/05 19:09:51","新北市新店區車子路153號","121.505373333333","24.9471183333333","6500600","新店區"
"231041","618-UM","2019/09/05 19:09:40","新北市新店區中央一街53號","121.526826666667","24.9740133333333","6500600","新店區"
"231047","KED-0819","2019/09/05 19:09:55","新北市新店區德正街27巷11號","121.544945","24.97155","6500600","新店區"
"231046","719-UM","2019/09/05 19:09:47","新北市新店區華城路12號","121.52924","24.9577833333333","6500600","新店區"
"231057","720-UM","2019/09/05 19:09:40","新北市新店區百齡一路12號","121.553028333333","24.9324716666667","6500600","新店區"
"231059","897-TW","2019/09/05 19:09:35","新北市新店區安康路一段351-1號","121.519441666667","24.9640583333333","6500600","新店區"
"231040","898-TW","2019/09/05 19:09:48","新北市新店區三民路155-1號","121.533855","24.97343","6500600","新店區"
"231043","899-TW","2019/09/05 19:09:39","新北市新店區寶橋路88號","121.546855","24.97594","6500600","新店區"
"231066","AKT-0513","2019/09/05 19:09:32","新北市新店區安康路二段408號","121.496736666667","24.9552683333333","6500600","新店區"
"241013","270-UM","2019/09/05 19:09:39","新北市三重區仁愛街95號","121.495711666667","25.07354","6500200","三重區"
"241035","462-BY","2019/09/05 19:09:37","新北市三重區重新路四段146號","121.48628","25.0563866666667","6500200","三重區"
"241026","480-VK","2019/09/05 19:09:54","新北市三重區重安街141號","121.495575","25.0546066666667","6500200","三重區"
"241022","KED-0820","2019/09/05 19:09:43","新北市三重區三民街155巷5號","121.484338333333","25.0646766666667","6500200","三重區"
"241029","942-UM","2019/09/05 19:09:34","新北市三重區重安街87巷14號","121.493161666667","25.055025","6500200","三重區"
"235066","003-UY","2019/09/05 19:09:47","新北市中和區廣福路42號","121.504295","25.0021733333333","6500300","中和區"
"235063","006-UY","2019/09/05 19:09:51","新北市中和區連城路249巷26弄1號","121.494608333333","24.9952666666667","6500300","中和區"
"235056","096-UM","2019/09/05 19:09:47","新北市中和區中正路1161號","121.481928333333","25.0088216666667","6500300","中和區"
"235039","097-UM","2019/09/05 19:09:45","新北市中和區景平路3號","121.523668333333","24.9902466666667","6500300","中和區"
"235065","098-UM","2019/09/05 19:09:48","新北市中和區中山路二段136巷35弄1號","121.50088","25.0042566666667","6500300","中和區"
"235040","150-BY","2019/09/05 19:09:34","新北市中和區保健路61巷7號","121.509706666667","24.99748","6500300","中和區"
"235058","151-BY","2019/09/05 19:09:45","新北市中和區員山路92巷15號","121.481655","24.9944883333333","6500300","中和區"
"235055","183-VK","2019/09/05 19:09:37","新北市中和區德光路103號","121.468318333333","25.003255","6500300","中和區"
"235038","185-VK","2019/09/05 19:09:46","新北市中和區大仁街20巷34號","121.519261666667","24.9931266666667","6500300","中和區"
"235049","186-VK","2019/09/05 19:09:46","新北市中和區安和路109號","121.506803333333","24.9956033333333","6500300","中和區"
"235067","255-BX","2019/09/05 19:09:35","新北市中和區新生街146號","121.483503333333","25.0007","6500300","中和區"
"235044","293-VK","2019/09/05 19:09:34","新北市中和區復興路348號","121.500058333333","24.9903233333333","6500300","中和區"
"235043","352-BY","2019/09/05 19:09:37","新北市中和區景平路372號","121.510741666667","24.9929116666667","6500300","中和區"
"235042","KEA-2878","2019/09/05 19:09:39","新北市中和區大勇街60巷8號","121.518671666667","24.9947333333333","6500300","中和區"
"235050","4979-A6","2019/09/05 19:09:52","新北市中和區復興路249巷11弄3-1號","121.503616666667","24.9896783333333","6500300","中和區"
"235069","4980-A6","2019/09/05 19:09:40","新北市中和區中和路165巷5號","121.502666666667","25.0003916666667","6500300","中和區"
"235070","558-UM","2019/09/05 19:09:33","新北市中和區中和路2號","121.499351666667","25.0023083333333","6500300","中和區"
"235045","565-BX","2019/09/05 19:09:42","新北市中和區景新街423巷27號","121.513638333333","24.989485","6500300","中和區"
"235060","KED-0823","2019/09/05 19:09:48","新北市中和區中山路三段31號","121.479136666667","25.0058766666667","6500300","中和區"
"235054","640-BX","2019/09/05 19:09:37","新北市中和區國光街109巷20號","121.469605","24.999865","6500300","中和區"
"235053","647-TV","2019/09/05 19:09:45","新北市中和區民德路268號","121.467798333333","24.9966216666667","6500300","中和區"
"235047","732-UM","2019/09/05 19:09:42","新北市中和區和平街38巷27號","121.509531666667","24.9912533333333","6500300","中和區"
"235046","733-UM","2019/09/05 19:09:50","新北市中和區工專路111號","121.50744","24.9822166666667","6500300","中和區"
"235071","783-BX","2019/09/05 19:09:35","新北市中和區連城路469巷44弄6號","121.483153333333","24.9945816666667","6500300","中和區"
"235057","801-TS","2019/09/05 19:09:43","新北市中和區員山路423巷4號","121.480496666667","25.0032566666667","6500300","中和區"
"235041","802-TS","2019/09/05 19:09:34","新北市中和區中和路294號","121.50854","24.9997383333333","6500300","中和區"
"235052","805-TS","2019/09/05 19:09:41","新北市中和區興南路二段142巷23號","121.503106666667","24.9836816666667","6500300","中和區"
"235048","896-TW","2019/09/05 19:09:38","新北市中和區忠孝街28號","121.510638333333","24.9831283333333","6500300","中和區"
"235064","911-UM","2019/09/05 19:09:39","新北市中和區連城路4號","121.499188333333","25.0024083333333","6500300","中和區"
"235051","157-BY","2019/09/05 19:09:39","新北市中和區興南路一段85巷23號","121.510148333333","24.988325","6500300","中和區"
"235037","AAC-213","2019/09/05 19:09:53","新北市中和區秀朗路三段10巷37弄14號","121.52364","24.9959483333333","6500300","中和區"
"235059","AAC-215","2019/09/05 19:09:46","新北市中和區圓通路296巷31弄1號","121.48859","24.9904833333333","6500300","中和區"
"220065","072-UY","2019/09/05 19:09:51","新北市板橋區民族路219巷7號","121.46938","25.0080266666667","6500100","板橋區"
"220086","073-UY","2019/09/05 19:09:49","新北市板橋區中正路250巷23號","121.45666","25.0194833333333","6500100","板橋區"
"220106","075-UY","2019/09/05 19:09:34","新北市板橋區雙十路三段66巷1號","121.470515","25.0319583333333","6500100","板橋區"
"220069","AAD-861","2019/09/05 19:09:54","新北市板橋區貴興路37號","121.457505","25.0038033333333","6500100","板橋區"
"220068","120-SR","2019/09/05 19:09:44","新北市板橋區中山路二段443巷72號","121.480858333333","25.0220583333333","6500100","板橋區"
"226004","312-R5","2019/09/05 19:09:43","新北市平溪區靜安路二段565號","121.749523333333","25.0239883333333","6502400","平溪區"
"235072","251-BX","2019/09/05 19:09:36","新北市中和區連城路145號","121.495731666667","24.9987416666667","6500300","中和區"
"228003","097-TW","2019/09/05 19:09:42","新北市貢寮區和美里和美街37號","121.912291666667","25.0868583333333","6502600","貢寮區"
"228001","212-TW","2019/09/05 19:09:39","新北市貢寮區真理里新港街10號","121.925435","25.0542766666667","6502600","貢寮區"
"228002","663-BX","2019/09/05 19:09:41","新北市貢寮區福隆里福隆街32-1號","121.94509","25.0173966666667","6502600","貢寮區"
"224009","275-VK","2019/09/05 19:09:48","新北市瑞芳區洞頂路146號","121.859808333333","25.1185183333333","6501200","瑞芳區"
"224008","273-VK","2019/09/05 19:09:35","新北市瑞芳區瑞芳街84-1號","121.802501666667","25.1101533333333","6501200","瑞芳區"
"224005","271-BY","2019/09/05 19:09:35","新北市瑞芳區傑魚坑路77-1號","121.792976666667","25.11049","6501200","瑞芳區"
"227001","642-TC","2019/09/05 19:09:34","新北市雙溪區牡丹里自強路8巷19號","121.864836666667","25.0378966666667","6502500","雙溪區"
"227002","400-TW","2019/09/05 19:09:41","新北市雙溪區平林里外平林9-5號","121.859141666667","25.038025","6502500","雙溪區"
"253005","032-BX","2019/09/05 19:09:40","新北市石門區尖子鹿103-3號","121.582158333333","25.2950483333333","6502200","石門區"
"253006","295-VK","2019/09/05 19:09:46","新北市石門區崁子腳58-22號","121.531423333333","25.2875","6502200","石門區"
"222001","KEA-2212","2019/09/05 19:09:41","新北市深坑區北深路一段300號","121.624273333333","25.0056916666667","6501800","深坑區"
"208002","KEA-2872","2019/09/05 19:09:35","新北市金山區中正路73號","121.633851666667","25.2217583333333","6502700","金山區"
"208003","665-BX","2019/09/05 19:09:43","新北市金山區中正路120號","121.632488333333","25.2216016666667","6502700","金山區"
"251001","011-UM","2019/09/05 19:09:53","新北市淡水區自強路201巷39號","121.462136666667","25.1268116666667","6501000","淡水區"
"251002","012-UM","2019/09/05 19:09:53","新北市淡水區長興街2巷1號","121.443863333333","25.1704716666667","6501000","淡水區"
"251015","KEA-2871","2019/09/05 19:09:55","新北市淡水區南勢埔6-3號","121.482931666667","25.1808766666667","6501000","淡水區"
"251016","179-VK","2019/09/05 19:09:42","新北市淡水區下圭柔山119-51號","121.450618333333","25.20856","6501000","淡水區"
"251013","180-VK","2019/09/05 19:09:47","新北市淡水區安子內12-1號","121.481563333333","25.2190316666667","6501000","淡水區"
"251010","413-VK","2019/09/05 19:09:48","新北市淡水區中正路一段156巷3號","121.421198333333","25.1802533333333","6501000","淡水區"
"251007","442-VK","2019/09/05 19:09:31","新北市淡水區民生路135巷14號","121.466196666667","25.1389316666667","6501000","淡水區"
"251005","443-VK","2019/09/05 19:09:48","新北市淡水區中山路113號","121.441826666667","25.1708516666667","6501000","淡水區"
"251009","575-R6","2019/09/05 19:09:44","新北市淡水區重建街36號","121.439953333333","25.17121","6501000","淡水區"
"251014","577-R6","2019/09/05 19:09:35","新北市淡水區小中寮39號","121.487003333333","25.2275816666667","6501000","淡水區"
"251003","673-BX","2019/09/05 19:09:37","新北市淡水區中山北路一段177號","121.443718333333","25.1778183333333","6501000","淡水區"
"207003","550-UM","2019/09/05 19:09:39","新北市萬里區大鵬里頂社23號","121.656946666667","25.2104616666667","6502800","萬里區"
"207004","291-VK","2019/09/05 19:09:43","新北市萬里區萬里里瑪鋉下街52號","121.691593333333","25.1795366666667","6502800","萬里區"
"252002","178-VK","2019/09/05 19:09:38","新北市三芝區中正路一段34號","121.503298333333","25.2584033333333","6502100","三芝區"
"252003","249-BX","2019/09/05 19:09:51","新北市三芝區錫板里南勢崗6號","121.479581666667","25.261965","6502100","三芝區"
"208001","170-UY","2019/09/05 19:09:52","新北市金山區金包里街68號","121.639071666667","25.221535","6502700","金山區"
"237007","153-BY","2019/09/05 19:09:41","新北市三峽區中正路二段42巷50號","121.364298333333","24.9205483333333","6500900","三峽區"
"237013","252-BX","2019/09/05 19:09:41","新北市三峽區光明路69巷25號","121.376591666667","24.9291983333333","6500900","三峽區"
"237012","275-BY","2019/09/05 19:09:51","新北市三峽區三樹路222巷254弄17號","121.39201","24.9439266666667","6500900","三峽區"
"237008","302-VK","2019/09/05 19:09:38","新北市三峽區大同路95號","121.374708333333","24.9271133333333","6500900","三峽區"
"237014","433-BY","2019/09/05 19:09:41","新北市三峽區復興路349號","121.36403","24.938675","6500900","三峽區"
"237006","5529-G3","2019/09/05 19:09:37","新北市三峽區溪東路45巷11弄29號","121.400436666667","24.9360933333333","6500900","三峽區"
"237011","KEA-2596","2019/09/05 19:09:48","新北市三峽區介壽路三段155號","121.400816666667","24.9431816666667","6500900","三峽區"
"237015","649-BX","2019/09/05 19:09:36","新北市三峽區安坑37-9號","121.453756666667","24.93165","6500900","三峽區"
"237004","078-UY","2019/09/05 19:09:50","新北市三峽區有木189號","121.449623333333","24.8428316666667","6500900","三峽區"
"237010","706-TV","2019/09/05 19:09:34","新北市三峽區國光街364巷7號","121.371051666667","24.9400283333333","6500900","三峽區"
"237005","AKY-6261","2019/09/05 19:09:40","新北市三峽區中山路459巷135號","121.348901666667","24.932795","6500900","三峽區"
"236026","269-VK","2019/09/05 19:09:43","新北市土城區中正路72號","121.444495","24.9754816666667","6501300","土城區"
"236014","270-VK","2019/09/05 19:09:48","新北市土城區學府路一段39號","121.457858333333","24.9882566666667","6501300","土城區"
"236038","271-VK","2019/09/05 19:09:53","新北市土城區清水路32巷16號","121.457381666667","24.9811016666667","6501300","土城區"
"236070","KEA-2877","2019/09/05 19:09:36","新北市土城區裕生路82巷1號","121.4474","24.9856433333333","6501300","土城區"
"252001","KED-0821","2019/09/05 19:09:43","新北市三芝區長勤街45巷2號","121.500391666667","25.2552083333333","6502100","三芝區"
"236021","401-BY","2019/09/05 19:09:49","新北市土城區延峰街32巷1號","121.46947","24.98502","6501300","土城區"
"236059","912-UM","2019/09/05 19:09:43","新北市土城區金城路一段11號","121.43942","24.9690233333333","6501300","土城區"
"236063","915-UM","2019/09/05 19:09:47","新北市土城區金城路三段202-3號","121.469578333333","24.98861","6501300","土城區"
"236055","AAC-216","2019/09/05 19:09:44","新北市土城區學府路一段213號","121.45155","24.9844633333333","6501300","土城區"
"238023","601-UM","2019/09/05 19:09:36","新北市樹林區三興路66號","121.393681666667","25.0146233333333","6500700","樹林區"
"238019","599-UM","2019/09/05 19:09:38","新北市樹林區東華街30號","121.414661666667","24.9822383333333","6500700","樹林區"
"238022","KEA-2213","2019/09/05 19:09:53","新北市樹林區東興街16巷6弄2號","121.4091","24.9781183333333","6500700","樹林區"
"238021","KEA-2539","2019/09/05 19:09:49","新北市樹林區柑園街二段455號","121.363296666667","24.94623","6500700","樹林區"
"238025","303-VK","2019/09/05 19:09:50","新北市樹林區民和街67號","121.380966666667","24.97141","6500700","樹林區"
"238017","283-BY","2019/09/05 19:09:36","新北市樹林區大安路403號","121.415701666667","24.9890966666667","6500700","樹林區"
"238014","282-BY","2019/09/05 19:09:50","新北市樹林區中正路17號","121.42768","24.999095","6500700","樹林區"
"238020","268-VK","2019/09/05 19:09:50","新北市樹林區俊英街155巷9弄2號","121.423968333333","25.0119666666667","6500700","樹林區"
"238026","172-UY","2019/09/05 19:09:39","新北市樹林區中山路三段160-1號","121.389343333333","24.9703166666667","6500700","樹林區"
"238016","169-UY","2019/09/05 19:09:45","新北市樹林區復興路373巷7弄14號","121.4179","24.9868183333333","6500700","樹林區"
"239007","AAC-297","2019/09/05 19:09:41","新北市鶯歌區中山路6號","121.353058333333","24.9573133333333","6500800","鶯歌區"
"239008","527-UM","2019/09/05 19:09:35","新北市鶯歌區國際二路34號","121.335873333333","24.97534","6500800","鶯歌區"
"239005","526-UM","2019/09/05 19:09:30","新北市鶯歌區大湖路361巷40號","121.330745","24.97772","6500800","鶯歌區"
"239001","417-VK","2019/09/05 19:09:49","新北市鶯歌區永明街23號","121.338756666667","24.9556633333333","6500800","鶯歌區"
"239003","360-BY","2019/09/05 19:09:47","新北市鶯歌區鶯桃路658巷47-2號","121.33047","24.97002","6500800","鶯歌區"
"239004","193-VK","2019/09/05 19:09:41","新北市鶯歌區中正三路247巷62號","121.333573333333","24.93677","6500800","鶯歌區"
"221008","489-VK","2019/09/05 19:09:48","新北市汐止區康寧街428巷2號","121.6308","25.0680383333333","6501100","汐止區"
"221036","130-UY","2019/09/05 19:09:39","新北市汐止區南昌街47號","121.663325","25.0683316666667","6501100","汐止區"
"221015","131-UY","2019/09/05 19:09:46","新北市汐止區鄉長路一段55巷22號","121.664778333333","25.0763383333333","6501100","汐止區"
"221032","280-BY","2019/09/05 19:09:53","新北市汐止區橫科路241-4號","121.622403333333","25.048845","6501100","汐止區"
"221031","353-TW","2019/09/05 19:09:34","新北市汐止區中興路181巷1號","121.63017","25.066845","6501100","汐止區"
"221035","622-UM","2019/09/05 19:09:32","新北市汐止區汐萬路一段115巷2號","121.654256666667","25.0709016666667","6501100","汐止區"
"221002","707-TV","2019/09/05 19:09:52","新北市汐止區大同路一段166號","121.634101666667","25.0574016666667","6501100","汐止區"
"220079","145-BY","2019/09/05 19:09:31","新北市板橋區中正路101號","121.456385","25.0147683333333","6500100","板橋區"
"220080","200-UY","2019/09/05 19:09:33","新北市板橋區合安一路95-5號","121.448625","24.9992833333333","6500100","板橋區"
"220082","610-BX","2019/09/05 19:09:49","新北市板橋區溪崑二街9-3號","121.42897","24.9918633333333","6500100","板橋區"
"220101","245-BX","2019/09/05 19:09:35","新北市板橋區莊敬路9號","121.47407","25.0281716666667","6500100","板橋區"
"220056","276-BY","2019/09/05 19:09:51","新北市板橋區信義路74巷1弄1號","121.457255","24.9931333333333","6500100","板橋區"
"220072","277-BY","2019/09/05 19:09:38","新北市板橋區溪城路121-10號","121.427585","24.9824483333333","6500100","板橋區"
"220094","283-UM","2019/09/05 19:09:36","新北市板橋區吳鳳路81巷1號","121.466815","25.0312616666667","6500100","板橋區"
"220071","283-VK","2019/09/05 19:09:46","新北市板橋區重慶路223巷11號","121.46322","25.0015816666667","6500100","板橋區"
"220053","285-VK","2019/09/05 19:09:49","新北市板橋區懷仁街19號","121.476395","25.0198783333333","6500100","板橋區"
"220083","286-VK","2019/09/05 19:09:54","新北市板橋區龍興街99巷47號","121.443051666667","25.003065","6500100","板橋區"
"220081","287-VK","2019/09/05 19:09:46","新北市板橋區南雅西路二段156巷24號","121.452326666667","25.01289","6500100","板橋區"
"220090","288-VK","2019/09/05 19:09:46","新北市板橋區長江路一段106巷13弄12號","121.460543333333","25.0292283333333","6500100","板橋區"
"220061","293-UM","2019/09/05 19:09:50","新北市板橋區中山路二段318巷27弄2號","121.48052","25.0184683333333","6500100","板橋區"
"220062","295-UM","2019/09/05 19:09:50","新北市板橋區三民路二段居仁巷1弄14號","121.479703333333","25.013515","6500100","板橋區"
"220084","296-UM","2019/09/05 19:09:45","新北市板橋區溪崑一街30巷30號","121.429301666667","24.991455","6500100","板橋區"
"220075","303-R5","2019/09/05 19:09:38","新北市板橋區南雅南路一段1巷21號","121.457036666667","25.0067633333333","6500100","板橋區"
"220092","307-R5","2019/09/05 19:09:43","新北市板橋區文化路二段125巷17號","121.46951","25.027185","6500100","板橋區"
"220098","317-R6","2019/09/05 19:09:47","新北市板橋區民有街42號","121.465816666667","25.02573","6500100","板橋區"
"220089","487-VK","2019/09/05 19:09:45","新北市板橋區文化路一段247號","121.464303333333","25.0179483333333","6500100","板橋區"
"220088","491-VK","2019/09/05 19:09:52","新北市板橋區雙十路一段44巷36號","121.477335","25.0249666666667","6500100","板橋區"
"220035","560-BX","2019/09/05 19:09:33","新北市板橋區中正路399巷10號","121.453611666667","25.0224516666667","6500100","板橋區"
"220103","561-BX","2019/09/05 19:09:47","新北市板橋區文化路一段210號","121.466516666667","25.02016","6500100","板橋區"
"220063","609-BX","2019/09/05 19:09:52","新北市板橋區三民路二段205號","121.479058333333","25.0131383333333","6500100","板橋區"
"220091","637-BX","2019/09/05 19:09:44","新北市板橋區縣民大道三段203號","121.479951666667","25.02487","6500100","板橋區"
"220057","686-BX","2019/09/05 19:09:37","新北市板橋區五權街8-3號","121.464285","24.994205","6500100","板橋區"
"220077","687-BX","2019/09/05 19:09:54","新北市板橋區大觀路二段251號","121.443455","24.9990933333333","6500100","板橋區"
"220093","689-BX","2019/09/05 19:09:49","新北市板橋區文化路一段245號","121.464333333333","25.01789","6500100","板橋區"
"220054","741-BX","2019/09/05 19:09:33","新北市板橋區實踐路59號","121.46379","25.0065533333333","6500100","板橋區"
"220102","KEA-2699","2019/09/05 19:09:52","新北市板橋區田單街2巷38號","121.482311666667","25.0276533333333","6500100","板橋區"
"220055","827-TW","2019/09/05 19:09:35","新北市板橋區新民街9號","121.463986666667","25.0097083333333","6500100","板橋區"
"220067","829-TW","2019/09/05 19:09:36","新北市板橋區民生路一段35號","121.475585","25.0127383333333","6500100","板橋區"
"220074","895-R6","2019/09/05 19:09:48","新北市板橋區中正路自強新村1-1號","121.455718333333","25.013965","6500100","板橋區"
"220073","985-R7","2019/09/05 19:09:50","新北市板橋區中正路191號","121.456446666667","25.0169666666667","6500100","板橋區"
"220097","AAC-210","2019/09/05 19:09:40","新北市板橋區幸福路60巷65號","121.46013","25.021725","6500100","板橋區"
"220064","AAC-253","2019/09/05 19:09:43","新北市板橋區縣民大道二段66號","121.463061666667","25.01275","6500100","板橋區"
"235068","KEA-2873","2019/09/05 19:09:26","新北市中和區板南路252號","121.496236666667","24.99552","6500300","中和區"
"235061","KEA-2875","2019/09/05 19:09:41","新北市中和區台新街37號","121.479675","25.00496","6500300","中和區"
