"lineid","car","time","location","longitude","latitude","cityid","cityname"
"234046","148-BY","2019/09/05 19:19:39","新北市永和區得和路361號","121.524578333333","24.9993916666667","6500400","永和區"
"234081","298-R6","2019/09/05 19:19:49","新北市永和區福和路27號","121.523906666667","25.0082983333333","6500400","永和區"
"234038","336-UY","2019/09/05 19:19:40","新北市永和區民樂街70號","121.527408333333","24.9984283333333","6500400","永和區"
"234064","337-UY","2019/09/05 19:19:47","新北市永和區得和路243巷28弄21號","121.521421666667","25.0011316666667","6500400","永和區"
"234086","338-UY","2019/09/05 19:19:35","新北市永和區永利路72號","121.520223333333","25.0042183333333","6500400","永和區"
"234070","552-UM","2019/09/05 19:19:38","新北市永和區豫溪街53號","121.517146666667","25.009905","6500400","永和區"
"234017","745-BX","2019/09/05 19:19:46","新北市永和區文化路144巷27號","121.51244","25.0167483333333","6500400","永和區"
"234030","746-BX","2019/09/05 19:19:35","新北市永和區厚德街114號","121.523181666667","24.998925","6500400","永和區"
"234054","KEA-2590","2019/09/05 19:19:50","新北市永和區中興街31號","121.51614","25.0118666666667","6500400","永和區"
"234007","KED-0605","2019/09/05 19:19:42","新北市永和區中山路一段219號","121.508093333333","25.007985","6500400","永和區"
"234013","KEA-2591","2019/09/05 19:19:43","新北市永和區仁愛路108號","121.511935","25.0132483333333","6500400","永和區"
"234061","AAD-866","2019/09/05 19:19:47","新北市永和區秀朗路一段175號","121.517078333333","25.0036533333333","6500400","永和區"
"234042","862-TW","2019/09/05 19:19:37","新北市永和區保平路151巷6弄12號","121.509728333333","25.00512","6500400","永和區"
"234050","863-TW","2019/09/05 19:19:45","新北市永和區保福路二段88巷1號","121.510568333333","25.0134583333333","6500400","永和區"
"234026","9371-KE","2019/09/05 19:19:46","新北市永和區得和路42巷23號","121.515415","24.999655","6500400","永和區"
"234011","9373-KE","2019/09/05 19:19:31","新北市永和區保福路二段23巷17號","121.510281666667","25.0112133333333","6500400","永和區"
"249005","172-UM","2019/09/05 19:19:45","新北市八里區中華路三段130號","121.392276666667","25.1350716666667","6502300","八里區"
"249001","173-UM","2019/09/05 19:19:38","新北市八里區中華路二段145號","121.40915","25.1523666666667","6502300","八里區"
"249002","305-UY","2019/09/05 19:19:44","新北市八里區頂寮二街138號","121.449325","25.1294616666667","6502300","八里區"
"249003","593-UM","2019/09/05 19:19:39","新北市八里區中山路二段462號","121.398976666667","25.1472316666667","6502300","八里區"
"248008","KED-0815","2019/09/05 19:19:36","新北市五股區中興路二段83巷26-3號","121.460148333333","25.0753116666667","6501500","五股區"
"248012","247-BX","2019/09/05 19:19:41","新北市五股區中興路四段48巷16號","121.438665","25.0833866666667","6501500","五股區"
"248014","261-SL","2019/09/05 19:19:44","新北市五股區民義路一段185-11號","121.432041666667","25.08785","6501500","五股區"
"248004","677-BX","2019/09/05 19:19:47","新北市五股區五福路85號","121.432385","25.0902816666667","6501500","五股區"
"234023","9380-KE","2019/09/05 19:19:38","新北市永和區竹林路112-1號","121.51977","25.0117366666667","6500400","永和區"
"234077","969-R7","2019/09/05 19:19:50","新北市永和區民治街74號","121.517693333333","24.998105","6500400","永和區"
"234074","AAC-211","2019/09/05 19:19:41","新北市永和區竹林路104號","121.519561666667","25.0118833333333","6500400","永和區"
"234067","AAC-212","2019/09/05 19:19:43","新北市永和區保平路30巷2號","121.511901666667","25.0073766666667","6500400","永和區"
"234003","AAC-295","2019/09/05 19:19:49","新北市永和區中山路一段101號","121.511158333333","25.0103766666667","6500400","永和區"
"244025","069-UM","2019/09/05 19:19:46","新北市林口區南勢二街162號","121.359193333333","25.0747433333333","6501700","林口區"
"244023","483-VK","2019/09/05 19:19:50","新北市林口區仁愛路二段383-8號","121.369513333333","25.0804383333333","6501700","林口區"
"243012","AAD-798","2019/09/05 19:19:36","新北市泰山區同義街29號","121.431638333333","25.0564683333333","6501600","泰山區"
"243010","297-R6","2019/09/05 19:19:49","新北市泰山區明志路二段32巷1號","121.42931","25.0534383333333","6501600","泰山區"
"243014","KEA-2801","2019/09/05 19:19:48","新北市泰山區泰林路二段158號","121.433981666667","25.0603466666667","6501600","泰山區"
"243016","421-VK","2019/09/05 19:19:48","新北市泰山區工專路22號","121.423606666667","25.0398516666667","6501600","泰山區"
"243009","KEA-2215","2019/09/05 19:19:45","新北市泰山區和平街11號","121.434295","25.06463","6501600","泰山區"
"243011","KEA-2216","2019/09/05 19:19:52","新北市泰山區中央路11巷1號","121.426273333333","25.04282","6501600","泰山區"
"243013","646-TV","2019/09/05 19:19:42","新北市泰山區明志路三段145巷2弄5號","121.425313333333","25.039725","6501600","泰山區"
"243015","680-BX","2019/09/05 19:19:34","新北市泰山區公園路36號","121.428931666667","25.0543516666667","6501600","泰山區"
"222003","436-BY","2019/09/05 19:19:52","新北市深坑區深南路204號","121.626681666667","25.016015","6501800","深坑區"
"222002","659-BX","2019/09/05 19:19:52","新北市深坑區北深路一段177號","121.63254","25.010845","6501800","深坑區"
"231061","002-UM","2019/09/05 19:19:53","新北市新店區安康路一段48號","121.530476666667","24.961155","6500600","新店區"
"231058","0293-UT","2019/09/05 19:19:40","新北市新店區檳榔路36巷14號","121.541181666667","24.9633333333333","6500600","新店區"
"231044","046-UY","2019/09/05 19:19:35","新北市新店區中興路三段301號","121.542043333333","24.9854383333333","6500600","新店區"
"231060","106-UY","2019/09/05 19:19:37","新北市新店區安康路二段140號","121.512495","24.961805","6500600","新店區"
"231051","107-UY","2019/09/05 19:19:49","新北市新店區中央路192號","121.530945","24.9748533333333","6500600","新店區"
"231049","108-UY","2019/09/05 19:19:42","新北市新店區明德路107號","121.541526666667","24.9793666666667","6500600","新店區"
"231065","110-UY","2019/09/05 19:19:42","新北市新店區安祥路109巷3弄39號","121.479045","24.9607416666667","6500600","新店區"
"231062","256-BX","2019/09/05 19:19:53","新北市新店區莒光路38巷3號","121.522211666667","24.9588383333333","6500600","新店區"
"231054","260-TV","2019/09/05 19:19:51","新北市新店區國校路27號","121.537991666667","24.9561866666667","6500600","新店區"
"231042","268-BY","2019/09/05 19:19:39","新北市新店區北宜路一段3號","121.538488333333","24.9584416666667","6500600","新店區"
"231064","278-BY","2019/09/05 19:19:39","新北市新店區安忠路57巷26弄28號","121.512386666667","24.9581916666667","6500600","新店區"
"231050","AAD-862","2019/09/05 19:19:45","新北市新店區竹林路30巷1號","121.552293333333","24.9513116666667","6500600","新店區"
"231045","355-BY","2019/09/05 19:19:49","新北市新店區北宜路一段260號","121.54568","24.9527716666667","6500600","新店區"
"231055","4716-K9","2019/09/05 19:19:45","新北市新店區光華街29號","121.515511666667","24.9697366666667","6500600","新店區"
"231056","4715-K9","2019/09/05 19:19:38","新北市新店區安康路二段414巷2號","121.495825","24.957815","6500600","新店區"
"231052","515-UM","2019/09/05 19:19:47","新北市新店區自強路245號","121.547676666667","24.9187833333333","6500600","新店區"
"231063","616-UM","2019/09/05 19:19:51","新北市新店區達觀路14巷1號","121.504413333333","24.9417166666667","6500600","新店區"
"231041","618-UM","2019/09/05 19:19:40","新北市新店區溪園路247號","121.525218333333","24.9832466666667","6500600","新店區"
"231047","KED-0819","2019/09/05 19:19:33","新北市新店區德正街27巷29弄19號","121.544923333333","24.9718633333333","6500600","新店區"
"231046","719-UM","2019/09/05 19:19:47","新北市新店區北新路一段14號","121.54084","24.9656283333333","6500600","新店區"
"231057","720-UM","2019/09/05 19:19:40","新北市新店區百齡一路12號","121.553035","24.9325133333333","6500600","新店區"
"231059","897-TW","2019/09/05 19:19:35","新北市新店區安業街19號","121.516691666667","24.9776716666667","6500600","新店區"
"231040","898-TW","2019/09/05 19:19:53","新北市新店區三民路40號","121.536225","24.971575","6500600","新店區"
"231043","899-TW","2019/09/05 19:19:50","新北市新店區北新路二段106號","121.543045","24.97395","6500600","新店區"
"231066","AKT-0513","2019/09/05 19:19:52","新北市新店區安康路三段30號","121.493103333333","24.9531383333333","6500600","新店區"
"241011","013-R5","2019/09/05 19:19:46","新北市三重區龍濱路257號","121.501571666667","25.0728283333333","6500200","三重區"
"241031","061-VK","2019/09/05 19:19:51","新北市三重區重新路四段101-3號","121.485706666667","25.0542183333333","6500200","三重區"
"241017","063-VK","2019/09/05 19:19:40","新北市三重區大同北路207號","121.492185","25.0657183333333","6500200","三重區"
"241007","066-VK","2019/09/05 19:19:52","新北市三重區慈愛街66號","121.487238333333","25.0795916666667","6500200","三重區"
"241006","742-BX","2019/09/05 19:19:34","新北市三重區力行路二段145號","121.483561666667","25.07743","6500200","三重區"
"241009","267-UM","2019/09/05 19:19:51","新北市三重區溪尾街230巷42號","121.486253333333","25.08119","6500200","三重區"
"241032","269-UM","2019/09/05 19:19:42","新北市三重區新生街90號","121.483808333333","25.0593616666667","6500200","三重區"
"241013","270-UM","2019/09/05 19:19:39","新北市三重區仁愛街92巷16號","121.494765","25.0736183333333","6500200","三重區"
"241030","KED-0822","2019/09/05 19:19:34","新北市三重區新興路42號","121.491393333333","25.0533283333333","6500200","三重區"
"241035","462-BY","2019/09/05 19:19:38","新北市三重區大智街12號","121.495215","25.0645866666667","6500200","三重區"
"241020","478-VK","2019/09/05 19:19:36","新北市三重區大智街163號","121.489836666667","25.07236","6500200","三重區"
"241026","480-VK","2019/09/05 19:19:34","新北市三重區正義南路111號","121.498683333333","25.0585","6500200","三重區"
"241022","KED-0820","2019/09/05 19:19:43","新北市三重區重陽路二段50號","121.487225","25.06341","6500200","三重區"
"241029","942-UM","2019/09/05 19:19:34","新北市三重區集美街235號","121.492108333333","25.0552983333333","6500200","三重區"
"235066","003-UY","2019/09/05 19:19:47","新北市中和區中和路102號","121.50265","24.9997216666667","6500300","中和區"
"235063","006-UY","2019/09/05 19:19:51","新北市中和區連城路227號","121.494063333333","24.9975716666667","6500300","中和區"
"235056","096-UM","2019/09/05 19:19:47","新北市中和區中山路三段102號","121.476928333333","25.0059683333333","6500300","中和區"
"235039","097-UM","2019/09/05 19:19:45","新北市中和區秀峰街119巷6弄2號","121.51965","24.9900633333333","6500300","中和區"
"235065","098-UM","2019/09/05 19:19:48","新北市中和區中山路二段2巷3弄1號","121.504931666667","25.0060616666667","6500300","中和區"
"235040","150-BY","2019/09/05 19:19:34","新北市中和區保健路71-2號","121.510403333333","24.9968866666667","6500300","中和區"
"235058","151-BY","2019/09/05 19:19:45","新北市中和區員山路36巷16-2號","121.485201666667","24.99169","6500300","中和區"
"235055","183-VK","2019/09/05 19:19:37","新北市中和區莒光路120巷12號","121.471601666667","25.0017883333333","6500300","中和區"
"235038","185-VK","2019/09/05 19:19:45","新北市中和區大仁街108號","121.520553333333","24.992785","6500300","中和區"
"235049","186-VK","2019/09/05 19:19:46","新北市中和區景新街267號","121.508956666667","24.9938783333333","6500300","中和區"
"235067","255-BX","2019/09/05 19:19:48","新北市中和區中正路731號","121.484958333333","24.9991116666667","6500300","中和區"
"235044","293-VK","2019/09/05 19:19:54","新北市中和區復興路308號","121.501208333333","24.9903333333333","6500300","中和區"
"235043","352-BY","2019/09/05 19:19:37","新北市中和區南華路14號","121.502491666667","24.9955383333333","6500300","中和區"
"235042","KEA-2878","2019/09/05 19:19:39","新北市中和區中安街110號","121.511336666667","25.0008616666667","6500300","中和區"
"235050","4979-A6","2019/09/05 19:19:52","新北市中和區景安路208巷9號","121.503493333333","24.9911516666667","6500300","中和區"
"235069","4980-A6","2019/09/05 19:19:40","新北市中和區福美路301巷1號","121.497278333333","25.0047266666667","6500300","中和區"
"235070","558-UM","2019/09/05 19:19:33","新北市中和區中山路二段228號","121.499043333333","25.0026966666667","6500300","中和區"
"235045","565-BX","2019/09/05 19:19:42","新北市中和區景新街467巷35弄2號","121.514831666667","24.9891483333333","6500300","中和區"
"235060","KED-0823","2019/09/05 19:19:48","新北市中和區新生街114巷37弄12號","121.48219","25.0018","6500300","中和區"
"235054","640-BX","2019/09/05 19:19:37","新北市中和區國光街112巷18弄20號","121.470596666667","25.0017683333333","6500300","中和區"
"235053","647-TV","2019/09/05 19:19:45","新北市中和區華安街17巷17號","121.467015","24.998265","6500300","中和區"
"235047","732-UM","2019/09/05 19:19:48","新北市中和區景平路239巷61號","121.508528333333","24.9921166666667","6500300","中和區"
"235046","733-UM","2019/09/05 19:19:50","新北市中和區忠孝街20巷5號","121.51066","24.9826016666667","6500300","中和區"
"235071","783-BX","2019/09/05 19:19:40","新北市中和區中正路637巷52弄1號","121.485466666667","24.9938266666667","6500300","中和區"
"235057","801-TS","2019/09/05 19:19:43","新北市中和區員山路388號","121.480621666667","25.004405","6500300","中和區"
"235041","802-TS","2019/09/05 19:19:34","新北市中和區中和路324巷3弄4號","121.510105","25.0008933333333","6500300","中和區"
"235052","805-TS","2019/09/05 19:19:41","新北市中和區興南路二段128巷1弄8號","121.503645","24.9835566666667","6500300","中和區"
"235048","896-TW","2019/09/05 19:19:38","新北市中和區四維街34號","121.51261","24.98705","6500300","中和區"
"235064","911-UM","2019/09/05 19:19:39","新北市中和區南華路69號","121.5046","24.9974016666667","6500300","中和區"
"235051","157-BY","2019/09/05 19:19:39","新北市中和區和平街38巷28號","121.50966","24.9912833333333","6500300","中和區"
"235037","AAC-213","2019/09/05 19:19:33","新北市中和區秀朗路三段10巷14弄16號","121.524956666667","24.9966083333333","6500300","中和區"
"235059","AAC-215","2019/09/05 19:19:46","新北市中和區圓通路286巷10號","121.49158","24.9911583333333","6500300","中和區"
"220065","072-UY","2019/09/05 19:19:51","新北市板橋區民族路129巷14號","121.467621666667","25.0085033333333","6500100","板橋區"
"220086","073-UY","2019/09/05 19:19:49","新北市板橋區中正路216巷142號","121.460315","25.0193633333333","6500100","板橋區"
"220106","075-UY","2019/09/05 19:19:34","新北市板橋區文化路二段417巷11號","121.473495","25.0338533333333","6500100","板橋區"
"220069","AAD-861","2019/09/05 19:19:54","新北市板橋區縣民大道一段64巷2號","121.45519","25.00397","6500100","板橋區"
"220068","120-SR","2019/09/05 19:19:42","新北市板橋區萬安街85巷2-1號","121.483401666667","25.0253916666667","6500100","板橋區"
"226004","312-R5","2019/09/05 19:19:43","新北市平溪區靜安路三段246號","121.775896666667","25.03999","6502400","平溪區"
"235072","251-BX","2019/09/05 19:19:36","新北市中和區連城路220號","121.49134","24.9965016666667","6500300","中和區"
"228003","097-TW","2019/09/05 19:19:42","新北市貢寮區和美里和美街22-1號","121.9128","25.08263","6502600","貢寮區"
"228001","212-TW","2019/09/05 19:19:39","新北市貢寮區真理里新港街10號","121.925443333333","25.054285","6502600","貢寮區"
"228002","663-BX","2019/09/05 19:19:41","新北市貢寮區雙玉里田寮洋街21號","121.9281","25.0234083333333","6502600","貢寮區"
"224008","273-VK","2019/09/05 19:19:35","新北市瑞芳區逢甲路402號","121.79687","25.1125166666667","6501200","瑞芳區"
"227001","642-TC","2019/09/05 19:19:34","新北市雙溪區新基里新基北街40-1號","121.867656666667","25.0373416666667","6502500","雙溪區"
"227002","400-TW","2019/09/05 19:19:41","新北市雙溪區平林里梅竹蹊66-1號","121.86016","25.035835","6502500","雙溪區"
"253005","032-BX","2019/09/05 19:19:40","新北市石門區阿里荖40-1號","121.606335","25.2802416666667","6502200","石門區"
"253006","295-VK","2019/09/05 19:19:46","新北市石門區楓林17-10號","121.5362","25.2931066666667","6502200","石門區"
"222001","KEA-2212","2019/09/05 19:19:41","新北市深坑區北深路二段103號","121.617395","25.00328","6501800","深坑區"
"208002","KEA-2872","2019/09/05 19:19:42","新北市金山區中華路116號","121.633568333333","25.220345","6502700","金山區"
"208003","665-BX","2019/09/05 19:19:43","新北市金山區中山路161號","121.638731666667","25.220515","6502700","金山區"
"251001","011-UM","2019/09/05 19:19:53","新北市淡水區自強路201巷39號","121.462161666667","25.12683","6501000","淡水區"
"251002","012-UM","2019/09/05 19:19:53","新北市淡水區文化路18號","121.439653333333","25.1726316666667","6501000","淡水區"
"251015","KEA-2871","2019/09/05 19:19:41","新北市淡水區山子邊16巷5號","121.485888333333","25.1826683333333","6501000","淡水區"
"251016","179-VK","2019/09/05 19:19:42","新北市淡水區下圭柔山119-51號","121.450656666667","25.208415","6501000","淡水區"
"251013","180-VK","2019/09/05 19:19:47","新北市淡水區安子內12-1號","121.481553333333","25.219045","6501000","淡水區"
"251010","413-VK","2019/09/05 19:19:48","新北市淡水區沙崙路181巷27號","121.42319","25.1848566666667","6501000","淡水區"
"251007","442-VK","2019/09/05 19:19:53","新北市淡水區民生路137號","121.46556","25.1387533333333","6501000","淡水區"
"251005","443-VK","2019/09/05 19:19:48","新北市淡水區水源街一段29號","121.443171666667","25.1722933333333","6501000","淡水區"
"251009","575-R6","2019/09/05 19:19:44","新北市淡水區清水街99-1號","121.440766666667","25.170675","6501000","淡水區"
"251014","577-R6","2019/09/05 19:19:55","新北市淡水區小中寮19-7號","121.484731666667","25.22958","6501000","淡水區"
"251003","673-BX","2019/09/05 19:19:37","新北市淡水區中山路185號","121.441296666667","25.174275","6501000","淡水區"
"207003","550-UM","2019/09/05 19:19:39","新北市萬里區大鵬里萬里加投29-6號","121.647341666667","25.206745","6502800","萬里區"
"207004","291-VK","2019/09/05 19:19:43","新北市萬里區萬里里成功新村63號","121.688298333333","25.17456","6502800","萬里區"
"252002","178-VK","2019/09/05 19:19:38","新北市三芝區淡金路二段21號","121.502728333333","25.2595116666667","6502100","三芝區"
"208001","170-UY","2019/09/05 19:19:52","新北市金山區民生路69號","121.640116666667","25.21962","6502700","金山區"
"237007","153-BY","2019/09/05 19:19:41","新北市三峽區二鬮路134號","121.359886666667","24.907955","6500900","三峽區"
"237009","210-TH","2019/09/05 19:19:52","新北市三峽區民生街235號","121.371066666667","24.934775","6500900","三峽區"
"237013","252-BX","2019/09/05 19:19:41","新北市三峽區光明路75巷19號","121.377363333333","24.92803","6500900","三峽區"
"237012","275-BY","2019/09/05 19:19:51","新北市三峽區三樹路222巷236弄8-3號","121.391381666667","24.9429233333333","6500900","三峽區"
"237008","302-VK","2019/09/05 19:19:38","新北市三峽區大同路126號","121.373916666667","24.9268266666667","6500900","三峽區"
"237014","433-BY","2019/09/05 19:19:41","新北市三峽區中山路257巷8號","121.362316666667","24.936925","6500900","三峽區"
"237006","5529-G3","2019/09/05 19:19:37","新北市三峽區介壽路一段383-1號","121.387646666667","24.933825","6500900","三峽區"
"237011","KEA-2596","2019/09/05 19:19:48","新北市三峽區介壽路三段23號","121.395851666667","24.9366266666667","6500900","三峽區"
"237015","649-BX","2019/09/05 19:19:36","新北市三峽區安坑63號","121.472213333333","24.9268333333333","6500900","三峽區"
"237004","078-UY","2019/09/05 19:19:50","新北市三峽區有木205-1號","121.43901","24.8515633333333","6500900","三峽區"
"237010","706-TV","2019/09/05 19:19:34","新北市三峽區國光街36號","121.374845","24.9377016666667","6500900","三峽區"
"237005","AKY-6261","2019/09/05 19:19:40","新北市三峽區中山路459巷50-3號","121.356011666667","24.9377883333333","6500900","三峽區"
"236026","269-VK","2019/09/05 19:19:43","新北市土城區中央路二段160號","121.441945","24.9766","6501300","土城區"
"236014","270-VK","2019/09/05 19:19:34","新北市土城區學府路一段23巷25弄50號","121.457826666667","24.9863316666667","6501300","土城區"
"236070","KEA-2877","2019/09/05 19:19:36","新北市土城區學成路151號","121.44857","24.98943","6501300","土城區"
"252001","KED-0821","2019/09/05 19:19:43","新北市三芝區長勤街9巷8號","121.501571666667","25.255285","6502100","三芝區"
"236021","401-BY","2019/09/05 19:19:49","新北市土城區峰廷街3號","121.469091666667","24.98727","6501300","土城區"
"236059","912-UM","2019/09/05 19:19:43","新北市土城區中央路二段134號","121.441996666667","24.97753","6501300","土城區"
"236063","915-UM","2019/09/05 19:19:47","新北市土城區金城路三段202-3號","121.469578333333","24.9886216666667","6501300","土城區"
"242004","751-BX","2019/09/05 19:19:53","新北市新莊區新泰路318號","121.445126666667","25.0415866666667","6500500","新莊區"
"238015","755-BX","2019/09/05 19:19:52","新北市樹林區光明街52號","121.412406666667","24.9914983333333","6500700","樹林區"
"238023","601-UM","2019/09/05 19:19:36","新北市樹林區中正路865號","121.4088","25.01814","6500700","樹林區"
"238019","599-UM","2019/09/05 19:19:38","新北市樹林區東華街39號","121.415226666667","24.9815683333333","6500700","樹林區"
"238018","KEA-2217","2019/09/05 19:19:50","新北市樹林區太元街2巷7號","121.417171666667","24.9809066666667","6500700","樹林區"
"238022","KEA-2213","2019/09/05 19:19:53","新北市樹林區中山路二段151巷8弄6號","121.406385","24.9779616666667","6500700","樹林區"
"238021","KEA-2539","2019/09/05 19:19:47","新北市樹林區柑園街二段203巷6號","121.377101666667","24.9515983333333","6500700","樹林區"
"238025","303-VK","2019/09/05 19:19:50","新北市樹林區中山路三段80號","121.393468333333","24.972345","6500700","樹林區"
"238017","283-BY","2019/09/05 19:19:36","新北市樹林區光興街76-1號","121.408935","25.0027266666667","6500700","樹林區"
"238014","282-BY","2019/09/05 19:19:38","新北市樹林區中正路22-1號","121.427736666667","24.999375","6500700","樹林區"
"238020","268-VK","2019/09/05 19:19:51","新北市樹林區俊英街123巷3號","121.424318333333","25.01061","6500700","樹林區"
"238026","172-UY","2019/09/05 19:19:39","新北市樹林區佳園路一段39-1號","121.393296666667","24.9708","6500700","樹林區"
"238016","169-UY","2019/09/05 19:19:25","新北市樹林區中山路一段356巷8號","121.418953333333","24.9864783333333","6500700","樹林區"
"239007","AAC-297","2019/09/05 19:19:41","新北市鶯歌區中山路138巷3-4號","121.349561666667","24.9579933333333","6500800","鶯歌區"
"239006","891-R6","2019/09/05 19:19:40","新北市鶯歌區鶯桃路296巷72弄29號","121.337395","24.9611433333333","6500800","鶯歌區"
"239008","527-UM","2019/09/05 19:19:35","新北市鶯歌區國際二路12巷2號","121.337818333333","24.9744383333333","6500800","鶯歌區"
"239005","526-UM","2019/09/05 19:19:50","新北市鶯歌區大湖路241號","121.345995","24.9729166666667","6500800","鶯歌區"
"239001","417-VK","2019/09/05 19:19:46","新北市鶯歌區永安街45號","121.338035","24.9563016666667","6500800","鶯歌區"
"239003","360-BY","2019/09/05 19:19:47","新北市鶯歌區鶯桃路457號","121.332098333333","24.965755","6500800","鶯歌區"
"239002","359-BY","2019/09/05 19:19:36","新北市鶯歌區中山路129號","121.349533333333","24.9570816666667","6500800","鶯歌區"
"239004","193-VK","2019/09/05 19:19:41","新北市鶯歌區中正三路234-4號","121.330735","24.9370983333333","6500800","鶯歌區"
"221008","489-VK","2019/09/05 19:19:48","新北市汐止區康寧街310號","121.626698333333","25.0671583333333","6501100","汐止區"
"221031","353-TW","2019/09/05 19:19:34","新北市汐止區汐萬路一段312號","121.650576666667","25.0753483333333","6501100","汐止區"
"221002","707-TV","2019/09/05 19:19:52","新北市汐止區大同路一段333號","121.638333333333","25.05938","6501100","汐止區"
"220079","145-BY","2019/09/05 19:19:51","新北市板橋區民權路202巷7弄11號","121.45955","25.0148733333333","6500100","板橋區"
"220080","200-UY","2019/09/05 19:19:33","新北市板橋區大觀路二段7巷13號","121.447531666667","25.003495","6500100","板橋區"
"220082","610-BX","2019/09/05 19:19:53","新北市板橋區滿平街84巷153號","121.426941666667","24.9864483333333","6500100","板橋區"
"220101","245-BX","2019/09/05 19:19:35","新北市板橋區縣民大道三段95號","121.475863333333","25.022035","6500100","板橋區"
"220056","276-BY","2019/09/05 19:19:51","新北市板橋區信義路279巷11-3號","121.462378333333","24.9896233333333","6500100","板橋區"
"220072","277-BY","2019/09/05 19:19:38","新北市板橋區金門街337巷5弄1號","121.429978333333","24.9850366666667","6500100","板橋區"
"220094","283-UM","2019/09/05 19:19:36","新北市板橋區吳鳳路50巷20號","121.469766666667","25.03029","6500100","板橋區"
"220071","283-VK","2019/09/05 19:19:46","新北市板橋區重慶路327巷7弄2號","121.464381666667","24.9986316666667","6500100","板橋區"
"220053","285-VK","2019/09/05 19:19:41","新北市板橋區富山街93號","121.476481666667","25.0218383333333","6500100","板橋區"
"220083","286-VK","2019/09/05 19:19:45","新北市板橋區大觀路二段174巷186弄7號","121.442721666667","25.0036216666667","6500100","板橋區"
"220081","287-VK","2019/09/05 19:19:48","新北市板橋區南雅西路一段126號","121.452605","25.006845","6500100","板橋區"
"220090","288-VK","2019/09/05 19:19:46","新北市板橋區裕民街62號","121.461211666667","25.0285483333333","6500100","板橋區"
"220061","293-UM","2019/09/05 19:19:35","新北市板橋區中山路二段255巷7號","121.47703","25.0179133333333","6500100","板橋區"
"220062","295-UM","2019/09/05 19:19:50","新北市板橋區三民路二段153巷11號","121.480903333333","25.0151766666667","6500100","板橋區"
"220084","296-UM","2019/09/05 19:19:45","新北市板橋區溪北路73巷4號","121.428405","24.9898683333333","6500100","板橋區"
"220075","303-R5","2019/09/05 19:19:38","新北市板橋區南雅西路一段10巷12號","121.454601666667","25.0047716666667","6500100","板橋區"
"220092","307-R5","2019/09/05 19:19:43","新北市板橋區文化路一段383號","121.467311666667","25.0219066666667","6500100","板橋區"
"220098","317-R6","2019/09/05 19:19:47","新北市板橋區自由路51巷9-3號","121.465056666667","25.0234883333333","6500100","板橋區"
"220089","487-VK","2019/09/05 19:19:45","新北市板橋區英士路34號","121.4616","25.0250366666667","6500100","板橋區"
"220088","491-VK","2019/09/05 19:19:32","新北市板橋區雙十路二段149號","121.474733333333","25.0281583333333","6500100","板橋區"
"220035","560-BX","2019/09/05 19:19:33","新北市板橋區新生街89巷36號","121.45658","25.0225466666667","6500100","板橋區"
"220103","561-BX","2019/09/05 19:19:47","新北市板橋區民生路二段237號","121.468291666667","25.0214416666667","6500100","板橋區"
"220063","609-BX","2019/09/05 19:19:32","新北市板橋區三民路一段31巷13號","121.47989","25.0232566666667","6500100","板橋區"
"220091","637-BX","2019/09/05 19:19:44","新北市板橋區文聖街227號","121.480505","25.0256266666667","6500100","板橋區"
"220057","686-BX","2019/09/05 19:19:37","新北市板橋區國慶路128號","121.460741666667","24.99592","6500100","板橋區"
"220077","687-BX","2019/09/05 19:19:50","新北市板橋區大觀路二段123號","121.445915","25.0014066666667","6500100","板橋區"
"220093","689-BX","2019/09/05 19:19:49","新北市板橋區新海路186號","121.460711666667","25.023485","6500100","板橋區"
"220054","741-BX","2019/09/05 19:19:53","新北市板橋區四川路一段225號","121.460008333333","25.0032233333333","6500100","板橋區"
"220102","KEA-2699","2019/09/05 19:19:32","新北市板橋區松柏街22巷43號","121.475125","25.02893","6500100","板橋區"
"220055","827-TW","2019/09/05 19:19:38","新北市板橋區館前東路156巷19號","121.46426","25.0070133333333","6500100","板橋區"
"220067","829-TW","2019/09/05 19:19:36","新北市板橋區長安街138巷3弄37號","121.47389","25.009765","6500100","板橋區"
"220074","895-R6","2019/09/05 19:19:45","新北市板橋區中正路自強新村91-1號","121.454771666667","25.013205","6500100","板橋區"
"220073","985-R7","2019/09/05 19:19:50","新北市板橋區新生街89巷8號","121.458028333333","25.0223133333333","6500100","板橋區"
"220097","AAC-210","2019/09/05 19:19:40","新北市板橋區漢生西路89巷2弄12-2號","121.461766666667","25.019585","6500100","板橋區"
"220064","AAC-253","2019/09/05 19:19:43","新北市板橋區重慶路11號","121.46074","25.0080766666667","6500100","板橋區"
"235068","KEA-2873","2019/09/05 19:19:26","新北市中和區連勝街24號","121.498401666667","24.9980816666667","6500300","中和區"
"235061","KEA-2875","2019/09/05 19:19:41","新北市中和區連城路426號","121.480145","24.9948483333333","6500300","中和區"
