"lineid","car","time","location","longitude","latitude","cityid","cityname"
"234046","148-BY","2019/09/05 20:19:38","台北市文山區溪洲街10-24號","121.533915","25.0073533333333","6500400","永和區"
"234081","298-R6","2019/09/05 20:19:49","新北市永和區國中路104巷5號","121.524415","25.0068183333333","6500400","永和區"
"234038","336-UY","2019/09/05 20:19:46","新北市永和區成功路一段87號","121.526963333333","25.0029483333333","6500400","永和區"
"234064","337-UY","2019/09/05 20:19:34","新北市永和區得和路124號","121.518723333333","25.0001766666667","6500400","永和區"
"234086","338-UY","2019/09/05 20:19:35","新北市永和區中正路659號","121.514735","25.0101633333333","6500400","永和區"
"234070","552-UM","2019/09/05 20:19:38","新北市永和區福和路263巷7弄1號","121.517873333333","25.0069883333333","6500400","永和區"
"234017","745-BX","2019/09/05 20:19:53","新北市永和區仁愛路85號","121.513161666667","25.013215","6500400","永和區"
"234030","746-BX","2019/09/05 20:19:35","新北市永和區民有街75巷10弄47號","121.519413333333","24.996095","6500400","永和區"
"234054","KEA-2590","2019/09/05 20:19:50","新北市永和區光復街2巷25號","121.517293333333","25.0167533333333","6500400","永和區"
"234013","KEA-2591","2019/09/05 20:19:42","新北市永和區保生路5巷1號","121.506063333333","25.0073083333333","6500400","永和區"
"234061","AAD-866","2019/09/05 20:19:47","新北市永和區得和路29號","121.515901666667","25.000245","6500400","永和區"
"234042","862-TW","2019/09/05 20:19:37","新北市中和區中安街168號","121.51084","24.9998683333333","6500400","永和區"
"234050","863-TW","2019/09/05 20:19:54","新北市永和區新生路18號","121.508963333333","25.0164616666667","6500400","永和區"
"249005","172-UM","2019/09/05 20:19:45","新北市八里區下罟子2-13號","121.388381666667","25.1412616666667","6502300","八里區"
"249001","173-UM","2019/09/05 20:19:47","新北市八里區中華路二段538號","121.39904","25.1450733333333","6502300","八里區"
"249004","303-UY","2019/09/05 20:19:44","新北市八里區中山路一段326號","121.412808333333","25.15915","6502300","八里區"
"249002","305-UY","2019/09/05 20:19:44","新北市八里區龍米路一段78號","121.455561666667","25.1219583333333","6502300","八里區"
"249003","593-UM","2019/09/05 20:19:39","新北市八里區訊塘路35號","121.3977","25.1456133333333","6502300","八里區"
"248016","026-BX","2019/09/05 20:19:37","新北市五股區凌雲路一段158巷44號","121.447093333333","25.10384","6501500","五股區"
"248008","KED-0815","2019/09/05 20:19:36","新北市五股區中興路一段171巷67號","121.464806666667","25.0711033333333","6501500","五股區"
"248012","247-BX","2019/09/05 20:19:41","新北市五股區民義路一段84號","121.435975","25.0849283333333","6501500","五股區"
"248010","272-BY","2019/09/05 20:19:44","新北市泰山區新五路一段104號","121.440618333333","25.06133","6501500","五股區"
"234023","9380-KE","2019/09/05 20:19:38","新北市永和區勵行街31號","121.51643","25.013935","6500400","永和區"
"234077","969-R7","2019/09/05 20:19:50","新北市永和區中正路96號","121.514051666667","24.9955266666667","6500400","永和區"
"234074","AAC-211","2019/09/05 20:19:41","新北市永和區豫溪街160巷1號","121.523278333333","25.0096116666667","6500400","永和區"
"234067","AAC-212","2019/09/05 20:19:41","新北市永和區保平路268巷21號","121.508085","25.005735","6500400","永和區"
"234003","AAC-295","2019/09/05 20:19:49","新北市永和區自強街16號","121.51513","25.0080616666667","6500400","永和區"
"243012","AAD-798","2019/09/05 20:19:36","新北市泰山區楓江路175-1號","121.440378333333","25.0668416666667","6501600","泰山區"
"243010","297-R6","2019/09/05 20:19:49","新北市泰山區明志路二段273巷16弄2號","121.427901666667","25.0473033333333","6501600","泰山區"
"243014","KEA-2801","2019/09/05 20:19:47","新北市泰山區泰林路二段262號","121.431651666667","25.0623733333333","6501600","泰山區"
"243016","421-VK","2019/09/05 20:19:40","新北市泰山區明志路二段383號","121.425008333333","25.04378","6501600","泰山區"
"243009","KEA-2215","2019/09/05 20:19:45","新北市泰山區福泰街12號","121.43284","25.060235","6501600","泰山區"
"243011","KEA-2216","2019/09/05 20:19:41","新北市泰山區德安街26-1號","121.418486666667","25.0313466666667","6501600","泰山區"
"243013","646-TV","2019/09/05 20:19:53","新北市泰山區民國街40號","121.425808333333","25.0434433333333","6501600","泰山區"
"243015","680-BX","2019/09/05 20:19:34","新北市泰山區明志路一段286號","121.431938333333","25.0599133333333","6501600","泰山區"
"222003","436-BY","2019/09/05 20:19:52","新北市深坑區文化街92號","121.617358333333","25.0018533333333","6501800","深坑區"
"222002","659-BX","2019/09/05 20:19:52","新北市深坑區萬福路75巷48號","121.598195","25.009945","6501800","深坑區"
"231061","002-UM","2019/09/05 20:19:53","新北市新店區安興路33-1號","121.515825","24.9704233333333","6500600","新店區"
"231058","0293-UT","2019/09/05 20:19:40","新北市新店區薏仁坑路自強巷6號","121.496481666667","24.9584716666667","6500600","新店區"
"231044","046-UY","2019/09/05 20:19:36","新北市新店區北新路三段89號","121.541585","24.9817","6500600","新店區"
"231060","106-UY","2019/09/05 20:19:37","新北市新店區安康路三段578-1號","121.48104","24.948715","6500600","新店區"
"231051","107-UY","2019/09/05 20:19:49","新北市新店區中央六街117號","121.525168333333","24.9775083333333","6500600","新店區"
"231049","108-UY","2019/09/05 20:19:42","新北市新店區北新路二段59巷1號","121.5425","24.9728916666667","6500600","新店區"
"231065","110-UY","2019/09/05 20:19:42","新北市新店區安祥路102巷32號","121.484135","24.9639066666667","6500600","新店區"
"231068","187-VK","2019/09/05 20:19:40","新北市新店區寶安街31號","121.541936666667","24.98235","6500600","新店區"
"231062","256-BX","2019/09/05 20:19:53","新北市新店區安泰路7巷16號","121.485688333333","24.95096","6500600","新店區"
"231054","260-TV","2019/09/05 20:19:51","新北市新店區檳榔路109號","121.544546666667","24.961585","6500600","新店區"
"231042","268-BY","2019/09/05 20:19:39","新北市新店區寶橋路78巷19號","121.54745","24.974825","6500600","新店區"
"231064","278-BY","2019/09/05 20:19:39","新北市新店區安業街33號","121.517941666667","24.976925","6500600","新店區"
"231050","AAD-862","2019/09/05 20:19:45","新北市新店區博愛街17號","121.541225","24.97352","6500600","新店區"
"231045","355-BY","2019/09/05 20:19:49","新北市新店區北宜路一段35號","121.538263333333","24.9576966666667","6500600","新店區"
"231055","4716-K9","2019/09/05 20:19:51","新北市新店區北新路一段297巷31號","121.54038","24.9681866666667","6500600","新店區"
"231056","4715-K9","2019/09/05 20:19:38","新北市新店區中正路336號","121.536676666667","24.974975","6500600","新店區"
"231067","4772-VM","2019/09/05 20:19:44","新北市新店區安康路一段351-1號","121.51977","24.9639416666667","6500600","新店區"
"231052","515-UM","2019/09/05 20:19:47","新北市新店區松林路5號","121.546946666667","24.9114766666667","6500600","新店區"
"231063","616-UM","2019/09/05 20:19:51","新北市新店區車子路1-1號","121.504735","24.9577966666667","6500600","新店區"
"231041","618-UM","2019/09/05 20:19:40","新北市新店區民權路48-1號","121.539565","24.982965","6500600","新店區"
"231047","KED-0819","2019/09/05 20:19:33","新北市新店區寶橋路88號","121.546826666667","24.9758966666667","6500600","新店區"
"231057","720-UM","2019/09/05 20:19:48","新北市新店區花園七路一段1號","121.554665","24.934905","6500600","新店區"
"231059","897-TW","2019/09/05 20:19:35","新北市新店區安德街60巷27號","121.511108333333","24.9632466666667","6500600","新店區"
"231040","898-TW","2019/09/05 20:19:48","新北市新店區中正路110號","121.54303","24.97066","6500600","新店區"
"231043","899-TW","2019/09/05 20:19:39","新北市新店區建國路133號","121.539336666667","24.978185","6500600","新店區"
"231066","AKT-0513","2019/09/05 20:19:52","新北市新店區安德街60巷19-1號","121.5104","24.9632666666667","6500600","新店區"
"241011","013-R5","2019/09/05 20:19:47","新北市三重區龍門路230號","121.500471666667","25.073565","6500200","三重區"
"241028","022-UY","2019/09/05 20:19:38","新北市三重區大同南路75號","121.496026666667","25.059575","6500200","三重區"
"241008","059-VK","2019/09/05 20:19:50","新北市三重區永福街160號","121.480523333333","25.0745383333333","6500200","三重區"
"241031","061-VK","2019/09/05 20:19:31","新北市三重區三寧街15號","121.489406666667","25.05978","6500200","三重區"
"241015","062-VK","2019/09/05 20:19:40","新北市三重區重新路一段128號","121.500241666667","25.0628483333333","6500200","三重區"
"241017","063-VK","2019/09/05 20:19:40","新北市三重區大智街100號","121.493196666667","25.06648","6500200","三重區"
"241024","065-VK","2019/09/05 20:19:45","新北市三重區中正北路260號","121.481275","25.0682566666667","6500200","三重區"
"241007","066-VK","2019/09/05 20:19:52","新北市三重區溪尾街108巷58號","121.487071666667","25.07809","6500200","三重區"
"241002","090-VK","2019/09/05 20:19:45","新北市三重區仁義街101巷38號","121.499065","25.08075","6500200","三重區"
"241003","091-VK","2019/09/05 20:19:38","新北市三重區富華街56號","121.490341666667","25.0830166666667","6500200","三重區"
"241006","742-BX","2019/09/05 20:19:54","新北市三重區車路頭街135-1號","121.484255","25.076025","6500200","三重區"
"241016","266-UM","2019/09/05 20:19:43","新北市三重區大同北路97號","121.494546666667","25.063695","6500200","三重區"
"241009","267-UM","2019/09/05 20:19:31","新北市三重區三和路四段177-1號","121.482638333333","25.0788733333333","6500200","三重區"
"241018","268-UM","2019/09/05 20:19:32","新北市三重區雙園街140號","121.493831666667","25.0672416666667","6500200","三重區"
"241032","269-UM","2019/09/05 20:19:42","新北市三重區捷運路19巷6弄21號","121.484258333333","25.05695","6500200","三重區"
"241013","270-UM","2019/09/05 20:19:42","新北市三重區三和路三段167巷48號","121.49352","25.074595","6500200","三重區"
"241025","271-UM","2019/09/05 20:19:43","新北市三重區自由街17巷20號","121.479993333333","25.0669483333333","6500200","三重區"
"241030","KED-0822","2019/09/05 20:19:34","新北市三重區集美街89巷23號","121.488333333333","25.052665","6500200","三重區"
"241035","462-BY","2019/09/05 20:19:37","新北市三重區文化北路31號","121.499415","25.0640066666667","6500200","三重區"
"241004","475-VK","2019/09/05 20:19:45","新北市三重區仁愛街390號","121.490848333333","25.08084","6500200","三重區"
"241020","478-VK","2019/09/05 20:19:37","新北市三重區三和路三段170巷20號","121.492021666667","25.0728366666667","6500200","三重區"
"241026","480-VK","2019/09/05 20:19:34","新北市三重區重新路一段12號","121.504021666667","25.06374","6500200","三重區"
"241014","543-UM","2019/09/05 20:19:40","新北市三重區長榮路129號","121.503856666667","25.0694266666667","6500200","三重區"
"241023","545-UM","2019/09/05 20:19:42","新北市三重區忠孝路三段84巷1號","121.480343333333","25.0647516666667","6500200","三重區"
"241001","547-UM","2019/09/05 20:19:40","新北市三重區自強路四段3巷54號","121.490528333333","25.0766766666667","6500200","三重區"
"241019","KEA-2593","2019/09/05 20:19:37","新北市三重區大智街151號","121.490333333333","25.0714633333333","6500200","三重區"
"241005","AAD-863","2019/09/05 20:19:50","新北市三重區碧華街386號","121.49139","25.0846233333333","6500200","三重區"
"241022","KED-0820","2019/09/05 20:19:43","新北市三重區新北大道一段56號","121.487483333333","25.0614516666667","6500200","三重區"
"241012","941-UM","2019/09/05 20:19:53","新北市三重區河邊北街379-1號","121.501705","25.076525","6500200","三重區"
"241029","942-UM","2019/09/05 20:19:34","新北市三重區集美街225號","121.492006666667","25.055195","6500200","三重區"
"241033","AAC-255","2019/09/05 20:19:41","新北市三重區五谷王北街50巷21號","121.475493333333","25.0514683333333","6500200","三重區"
"235066","003-UY","2019/09/05 20:19:47","新北市中和區保平路326巷3號","121.507093333333","25.0043683333333","6500300","中和區"
"235039","097-UM","2019/09/05 20:19:45","新北市中和區大勇街29巷12-2號","121.515856666667","24.9945433333333","6500300","中和區"
"235065","098-UM","2019/09/05 20:19:48","新北市中和區福美路312巷8號","121.496621666667","25.0052116666667","6500300","中和區"
"235040","150-BY","2019/09/05 20:19:33","新北市中和區安平路38號","121.509916666667","24.9949933333333","6500300","中和區"
"235055","183-VK","2019/09/05 20:19:37","新北市八里區荖阡坑路16-8號","121.3986","25.1388233333333","6500300","中和區"
"247016","KEA-2869","2019/09/05 20:19:44","新北市蘆洲區光華路132巷39號","121.465806666667","25.0838166666667","6501400","蘆洲區"
"247010","KED-0682","2019/09/05 20:19:45","新北市蘆洲區信義路253號","121.479041666667","25.0845966666667","6501400","蘆洲區"
"235050","4979-A6","2019/09/05 20:19:52","新北市中和區景平路221巷10號","121.510085","24.9922666666667","6500300","中和區"
"235069","4980-A6","2019/09/05 20:19:36","新北市中和區圓通路196號","121.49632","24.9945316666667","6500300","中和區"
"235059","AAC-215","2019/09/05 20:19:46","新北市中和區圓通路294-4號","121.48874","24.9891216666667","6500300","中和區"
"247006","893-R6","2019/09/05 20:19:50","新北市蘆洲區九芎街153巷4號","121.465211666667","25.0789866666667","6501400","蘆洲區"
"247012","337-TH","2019/09/05 20:19:51","新北市蘆洲區中興街46號","121.481375","25.0871966666667","6501400","蘆洲區"
"247004","336-TH","2019/09/05 20:19:45","新北市蘆洲區永康街1巷12號","121.459776666667","25.0852516666667","6501400","蘆洲區"
"247024","057-VK","2019/09/05 20:19:43","新北市蘆洲區光榮路120巷8弄39號","121.464536666667","25.08799","6501400","蘆洲區"
"247014","056-VK","2019/09/05 20:19:53","新北市蘆洲區中山二路137巷15號","121.472178333333","25.0811616666667","6501400","蘆洲區"
"247022","007-UY","2019/09/05 20:19:46","新北市蘆洲區三民路251號","121.468488333333","25.0893416666667","6501400","蘆洲區"
"247008","002-UY","2019/09/05 20:19:39","新北市蘆洲區集賢路245號","121.481631666667","25.0849483333333","6501400","蘆洲區"
"247002","001-UY","2019/09/05 20:19:51","新北市蘆洲區長安街331巷20號","121.456466666667","25.0866033333333","6501400","蘆洲區"
"222001","KEA-2212","2019/09/05 20:19:41","新北市深坑區北深路三段243巷14號","121.599126666667","25.0039183333333","6501800","深坑區"
"251001","011-UM","2019/09/05 20:19:53","新北市淡水區淡金路二段15號","121.446321666667","25.18918","6501000","淡水區"
"251002","012-UM","2019/09/05 20:19:53","新北市淡水區中正路129號","121.439348333333","25.17037","6501000","淡水區"
"251015","KEA-2871","2019/09/05 20:19:35","新北市淡水區埤島79號","121.44957","25.189905","6501000","淡水區"
"251016","179-VK","2019/09/05 20:19:42","新北市淡水區番子田18號","121.457418333333","25.229135","6501000","淡水區"
"251013","180-VK","2019/09/05 20:19:47","新北市淡水區相公山1-5號","121.474286666667","25.2066716666667","6501000","淡水區"
"251008","181-VK","2019/09/05 20:19:52","新北市淡水區淡海路150巷13號","121.421891666667","25.1845216666667","6501000","淡水區"
"251010","413-VK","2019/09/05 20:19:48","新北市淡水區新民街一段132號","121.42784","25.188865","6501000","淡水區"
"251012","441-VK","2019/09/05 20:19:42","新北市淡水區淡金路三段352號","121.449261666667","25.2089883333333","6501000","淡水區"
"251006","561-UM","2019/09/05 20:19:34","新北市淡水區北新路141巷80弄24號","121.448073333333","25.180275","6501000","淡水區"
"251009","575-R6","2019/09/05 20:19:43","新北市淡水區中山路171號","121.441108333333","25.17386","6501000","淡水區"
"251014","577-R6","2019/09/05 20:19:37","新北市淡水區石頭厝2號","121.458278333333","25.2356316666667","6501000","淡水區"
"251011","650-BX","2019/09/05 20:19:45","新北市淡水區下圭柔山91-3號","121.431031666667","25.2099033333333","6501000","淡水區"
"251003","673-BX","2019/09/05 20:19:37","新北市淡水區中山北路一段196號","121.44449","25.1793466666667","6501000","淡水區"
"207003","550-UM","2019/09/05 20:19:39","新北市萬里區野柳里八斗60號","121.66979","25.20256","6502800","萬里區"
"207004","291-VK","2019/09/05 20:19:42","新北市萬里區北基里仁四街2號","121.682076666667","25.1753383333333","6502800","萬里區"
"252002","178-VK","2019/09/05 20:19:38","新北市三芝區中正路一段57號","121.503435","25.25796","6502100","三芝區"
"237006","5529-G3","2019/09/05 20:19:37","新北市三峽區中正路二段41號","121.366708333333","24.9187333333333","6500900","三峽區"
"237004","078-UY","2019/09/05 20:19:49","新北市三峽區介壽路一段1號","121.375255","24.9339983333333","6500900","三峽區"
"236030","253-BX","2019/09/05 20:19:43","新北市土城區中央路一段45巷2弄1號","121.448511666667","24.99028","6501300","土城區"
"236026","269-VK","2019/09/05 20:19:43","新北市土城區中央路一段249巷22號","121.446383333333","24.98539","6501300","土城區"
"236014","270-VK","2019/09/05 20:19:44","新北市板橋區信義路26巷12號","121.45612","24.9953083333333","6501300","土城區"
"247018","KED-0683","2019/09/05 20:19:32","新北市蘆洲區民族路394號","121.475048333333","25.0913183333333","6501400","蘆洲區"
"236070","KEA-2877","2019/09/05 20:19:35","新北市土城區中山路34號","121.425001666667","24.9639816666667","6501300","土城區"
"252001","KED-0821","2019/09/05 20:19:43","新北市三芝區中山路一段31號","121.50062","25.258055","6502100","三芝區"
"236059","912-UM","2019/09/05 20:19:48","新北市土城區大安路101-5號","121.433396666667","24.9685533333333","6501300","土城區"
"242042","AAC-296","2019/09/05 20:19:36","新北市新莊區壽山路73號","121.40956","25.0326833333333","6500500","新莊區"
"242061","986-R7","2019/09/05 20:19:41","新北市新莊區瓊林路206-6號","121.435368333333","25.02225","6500500","新莊區"
"242004","751-BX","2019/09/05 20:19:52","新北市新莊區頭前路2巷8號","121.46845","25.0529183333333","6500500","新莊區"
"242029","615-BX","2019/09/05 20:19:49","新北市新莊區中華路二段181號","121.45251","25.0522033333333","6500500","新莊區"
"242027","613-BX","2019/09/05 20:19:36","新北市新莊區幸福路700號","121.449973333333","25.04925","6500500","新莊區"
"242058","612-BX","2019/09/05 20:19:48","新北市新莊區龍安路278巷10號","121.422016666667","25.0188183333333","6500500","新莊區"
"242048","566-BX","2019/09/05 20:19:42","新北市新莊區四維路212巷18弄2號","121.421158333333","25.02061","6500500","新莊區"
"242053","497-BY","2019/09/05 20:19:52","新北市新莊區民安西路261巷22號","121.426898333333","25.0130366666667","6500500","新莊區"
"242002","441-UM","2019/09/05 20:19:38","新北市新莊區化成路35號","121.46512","25.04421","6500500","新莊區"
"242007","440-UM","2019/09/05 20:19:34","新北市新莊區福壽街142巷38號","121.459243333333","25.051865","6500500","新莊區"
"242044","415-TV","2019/09/05 20:19:43","新北市新莊區中正路895-1號","121.412311666667","25.02205","6500500","新莊區"
"242013","413-TV","2019/09/05 20:19:45","新北市新莊區幸福路710巷5弄16號","121.44917","25.0497383333333","6500500","新莊區"
"242051","400-BY","2019/09/05 20:19:45","新北市新莊區民安西路212巷2弄5號","121.425481666667","25.0150416666667","6500500","新莊區"
"242025","362-BY","2019/09/05 20:19:51","新北市新莊區五工二路70巷21號","121.460885","25.0664783333333","6500500","新莊區"
"242023","353-BY","2019/09/05 20:19:52","新北市新莊區化成路710號","121.465751666667","25.0567133333333","6500500","新莊區"
"242015","132-UY","2019/09/05 20:19:38","新北市新莊區中和街50號","121.448108333333","25.0445016666667","6500500","新莊區"
"242039","135-UY","2019/09/05 20:19:49","新北市新莊區成功街54號","121.424593333333","25.0197733333333","6500500","新莊區"
"242056","172-VK","2019/09/05 20:19:37","新北市新莊區新莊路649巷24號","121.444976666667","25.03219","6500500","新莊區"
"242017","173-VK","2019/09/05 20:19:40","新北市新莊區中港一街22號","121.451341666667","25.0456333333333","6500500","新莊區"
"242031","175-VK","2019/09/05 20:19:54","新北市新莊區義豐街7號","121.441005","25.034615","6500500","新莊區"
"242021","346-TH","2019/09/05 20:19:36","新北市新莊區復興路一段3號","121.445563333333","25.0414666666667","6500500","新莊區"
"242036","348-TH","2019/09/05 20:19:44","新北市新莊區建安街62巷22號","121.426783333333","25.0252983333333","6500500","新莊區"
"242009","349-TH","2019/09/05 20:19:48","新北市新莊區昌平街9號","121.454913333333","25.05171","6500500","新莊區"
"242034","350-TH","2019/09/05 20:19:37","新北市新莊區新泰路199巷6號","121.44669","25.038115","6500500","新莊區"
"239006","891-R6","2019/09/05 20:19:39","新北市鶯歌區文化路115巷23號","121.357811666667","24.9551083333333","6500800","鶯歌區"
"221008","489-VK","2019/09/05 20:19:48","台北市內湖區康樂街206-3號","121.623575","25.0791016666667","6501100","汐止區"
"221036","130-UY","2019/09/05 20:19:39","新北市汐止區福安街59巷12號","121.664476666667","25.06381","6501100","汐止區"
"221015","131-UY","2019/09/05 20:19:48","新北市汐止區建成路160巷16號","121.661898333333","25.073985","6501100","汐止區"
"221010","269-BY","2019/09/05 20:19:48","新北市汐止區八連路一段203號","121.641085","25.0808916666667","6501100","汐止區"
"221012","278-VK","2019/09/05 20:19:49","新北市汐止區汐平路一段42號","121.682381666667","25.0705116666667","6501100","汐止區"
"221023","279-VK","2019/09/05 20:19:42","新北市汐止區明峰街298巷7弄2號","121.624896666667","25.0690933333333","6501100","汐止區"
"221032","280-BY","2019/09/05 20:19:49","新北市汐止區弘道街45號","121.618156666667","25.0485683333333","6501100","汐止區"
"221029","298-VK","2019/09/05 20:19:49","新北市汐止區樟樹一路99巷7弄4號","121.641021666667","25.0635566666667","6501100","汐止區"
"221021","299-VK","2019/09/05 20:19:34","新北市汐止區水源路一段268號","121.654065","25.058805","6501100","汐止區"
"221031","353-TW","2019/09/05 20:19:54","新北市汐止區原興路72號","121.632308333333","25.06593","6501100","汐止區"
"221025","567-BX","2019/09/05 20:19:35","新北市汐止區水源路二段30號","121.654763333333","25.0573083333333","6501100","汐止區"
"221035","622-UM","2019/09/05 20:19:52","新北市汐止區長江街57巷22號","121.655968333333","25.07239","6501100","汐止區"
"221038","646-BX","2019/09/05 20:19:35","新北市汐止區忠孝東路456號","121.666205","25.0729333333333","6501100","汐止區"
"221033","647-BX","2019/09/05 20:19:38","新北市汐止區東勢街201巷104號","121.633538333333","25.0428983333333","6501100","汐止區"
"221002","707-TV","2019/09/05 20:19:32","新北市汐止區福德一路86巷25號","121.637596666667","25.068815","6501100","汐止區"
"221018","753-BX","2019/09/05 20:19:44","新北市汐止區茄安路25號","121.67326","25.0680183333333","6501100","汐止區"
"220079","145-BY","2019/09/05 20:19:51","新北市板橋區中正路191號","121.45639","25.016975","6500100","板橋區"
"220080","200-UY","2019/09/05 20:19:50","新北市板橋區大觀路二段力行2巷65號","121.445891666667","24.9989816666667","6500100","板橋區"
"220083","286-VK","2019/09/05 20:19:44","新北市板橋區大觀路一段38巷156弄147號","121.443861666667","25.0090166666667","6500100","板橋區"
"220081","287-VK","2019/09/05 20:19:45","新北市板橋區僑中一街102巷5弄15號","121.446041666667","25.0126816666667","6500100","板橋區"
"220061","293-UM","2019/09/05 20:19:35","新北市板橋區文華街28號","121.45719","25.0008233333333","6500100","板橋區"
"220084","296-UM","2019/09/05 20:19:44","新北市新莊區三和路12-21號","121.442283333333","25.0381816666667","6500100","板橋區"
"242046","281-VK","2019/09/05 20:19:49","新北市新莊區中正路新生巷47號","121.417486666667","25.0231083333333","6500500","新莊區"
"242011","280-VK","2019/09/05 20:19:44","新北市新莊區中信街37巷2弄2號","121.450311666667","25.05059","6500500","新莊區"
"220103","561-BX","2019/09/05 20:19:47","新北市板橋區漢生東路73巷28號","121.467243333333","25.01698","6500100","板橋區"
"220054","741-BX","2019/09/05 20:19:33","新北市板橋區實踐路93巷24號","121.464948333333","25.0054016666667","6500100","板橋區"
"220055","827-TW","2019/09/05 20:19:55","新北市板橋區仁愛路62巷15弄1號","121.46002","24.9985416666667","6500100","板橋區"
"220074","895-R6","2019/09/05 20:19:45","新北市板橋區南雅南路一段7巷22弄8號","121.455746666667","25.0046133333333","6500100","板橋區"
"235068","KEA-2873","2019/09/05 20:19:26","新北市中和區福美路260號","121.498221666667","25.0051266666667","6500300","中和區"
