"lineid","car","time","location","longitude","latitude","cityid","cityname"
"241011","013-R5","2019/09/05 22:19:46","新北市三重區介壽路39巷160號","121.502063333333","25.07069","6500200","三重區"
"241017","063-VK","2019/09/05 22:17:20","新北市八里區荖阡坑路28-2號","121.402936666667","25.1278633333333","6500200","三重區"
"251004","009-UM","2019/09/05 22:19:42","新北市淡水區民族路33號","121.462291666667","25.135815","6501000","淡水區"
"251008","181-VK","2019/09/05 22:19:52","新北市淡水區學府路104號","121.449876666667","25.1717766666667","6501000","淡水區"
"251010","413-VK","2019/09/05 22:19:48","新北市淡水區沙崙路200號","121.424655","25.1838766666667","6501000","淡水區"
"251007","442-VK","2019/09/05 22:19:50","新北市淡水區北新路180號","121.44936","25.17863","6501000","淡水區"
"251011","650-BX","2019/09/05 22:19:45","新北市淡水區水碓街7號","121.443148333333","25.1771183333333","6501000","淡水區"
