"lineid","car","time","location","longitude","latitude","cityid","cityname"
"241011","013-R5","2019/09/05 22:29:47","新北市三重區環河南路243號","121.492133333333","25.050795","6500200","三重區"
"241017","063-VK","2019/09/05 22:29:39","新北市五股區中興路三段2巷10號","121.448868333333","25.0811966666667","6500200","三重區"
"251004","009-UM","2019/09/05 22:29:42","新北市淡水區民族路33號","121.462285","25.1358166666667","6501000","淡水區"
"251008","181-VK","2019/09/05 22:29:32","新北市淡水區學府路104號","121.449871666667","25.1717816666667","6501000","淡水區"
"251010","413-VK","2019/09/05 22:29:48","新北市淡水區新民街一段117號","121.428006666667","25.1877783333333","6501000","淡水區"
"251007","442-VK","2019/09/05 22:29:50","新北市淡水區北新路180號","121.449366666667","25.17861","6501000","淡水區"
"251011","650-BX","2019/09/05 22:29:45","新北市淡水區水碓街7號","121.443171666667","25.1771183333333","6501000","淡水區"
