"lineid","car","time","location","longitude","latitude","cityid","cityname"
"232019","290-BY","2019/09/06 06:39:44","新北市坪林區北宜路八段553號","121.716095","24.91111","6502000","坪林區"
"232008","291-BY","2019/09/06 06:39:36","新北市坪林區北宜路八段558號","121.71823","24.9092816666667","6502000","坪林區"
"232015","705-BZ","2019/09/06 06:39:38","新北市坪林區北宜路八段558號","121.717898333333","24.9091283333333","6502000","坪林區"
"232003","758-BX","2019/09/06 06:39:44","新北市坪林區北宜路八段553號","121.717125","24.9108316666667","6502000","坪林區"
"231052","512-UM","2019/09/06 06:39:44","新北市新店區新和街33號","121.518963333333","24.9847266666667","6500600","新店區"
"226005","5620-A6","2019/09/06 06:39:40","新北市平溪區石底里公園街18-3號","121.733466666667","25.0255833333333","6502400","平溪區"
"223006","022-BY","2019/09/06 06:39:47","新北市石碇區楓子林55-5號","121.642791666667","25.0082933333333","6501900","石碇區"
"223002","KEA-2673","2019/09/06 06:39:44","新北市石碇區石碇東街139號","121.659091666667","24.9895","6501900","石碇區"
"223003","205-TH","2019/09/06 06:39:38","新北市石碇區湳窟26號","121.661791666667","24.9916666666667","6501900","石碇區"
"223008","406-TH","2019/09/06 06:39:41","新北市石碇區碇坪路一段139號","121.67541","24.9801316666667","6501900","石碇區"
"223001","592-UM","2019/09/06 06:39:51","新北市石碇區碇坪路一段186號","121.667646666667","24.98421","6501900","石碇區"
"223007","661-BX","2019/09/06 06:39:48","新北市石碇區石崁1號","121.651706666667","25.0021666666667","6501900","石碇區"
"227003","282-VK","2019/09/06 06:39:50","新北市雙溪區牡丹里聖南8號","121.859405","25.0521016666667","6502500","雙溪區"
