"lineid","car","time","location","longitude","latitude","cityid","cityname"
"232017","290-BY","2019/11/25 07:43:42","新北市坪林區乾溪1-6號","121.739675","24.9772933333333","6502000","坪林區"
"232005","291-BY","2019/11/25 07:43:53","新北市坪林區魚堀49號","121.701435","24.9299316666667","6502000","坪林區"
"232010","375-UM","2019/11/25 07:43:47","新北市坪林區磨壁潭10-1號","121.723491666667","24.9380483333333","6502000","坪林區"
"232012","705-BZ","2019/11/25 07:43:49","新北市坪林區金瓜寮14號","121.682756666667","24.9177183333333","6502000","坪林區"
"232001","758-BX","2019/11/25 07:43:53","新北市坪林區上坑子口18號","121.701811666667","24.9528633333333","6502000","坪林區"
"244006","080-UY","2019/11/25 07:43:55","新北市林口區粉寮69號","121.404998333333","25.09086","6501700","林口區"
"244001","248-BX","2019/11/25 07:43:38","新北市林口區頂福里50號","121.342176666667","25.0961633333333","6501700","林口區"
"244008","656-BX","2019/11/25 07:43:40","新北市林口區粉寮69號","121.405015","25.0908733333333","6501700","林口區"
"222004","289-BY","2019/11/25 07:43:51","新北市深坑區文化街39巷13號","121.61894","25.0010583333333","6501800","深坑區"
"223003","205-TH","2019/11/25 07:43:46","新北市石碇區蛇舌子8-3號","121.662278333333","24.9705383333333","6501900","石碇區"
"223008","406-TH","2019/11/25 07:40:55","新北市石碇區靜安路一段337號","121.698763333333","25.014565","6501900","石碇區"
"223001","592-UM","2019/11/25 07:43:54","新北市石碇區橫坪5號","121.663518333333","24.9703583333333","6501900","石碇區"
"223004","660-BX","2019/11/25 07:43:49","新北市石碇區八分寮49-1號","121.642698333333","25.0142616666667","6501900","石碇區"
"223007","661-BX","2019/11/25 07:43:42","新北市石碇區靜安路一段337號","121.698941666667","25.0147383333333","6501900","石碇區"
"227003","030-BX","2019/11/25 07:43:49","新北市雙溪區雙溪里太平路43號","121.86477","25.0355833333333","6502500","雙溪區"
"252006","073-UM","2019/11/25 07:43:55","新北市三芝區古庄里古庄81-3號","121.488901666667","25.269225","6502100","三芝區"
"252004","249-BX","2019/11/25 07:43:36","新北市三芝區店子里菜公坑99-3號","121.51279","25.2061066666667","6502100","三芝區"
"237013","760-BX","2019/11/25 07:43:41","新北市三峽區五寮136號","121.356681666667","24.8597966666667","6500900","三峽區"
"242040","AAC-296","2019/11/25 07:43:52","新北市新莊區新泰路357巷3弄57號","121.442158333333","25.0394533333333","6500500","新莊區"
"242059","986-R7","2019/11/25 07:43:41","新北市新莊區新泰路357巷3弄57號","121.44211","25.0391966666667","6500500","新莊區"
"242003","751-BX","2019/11/25 07:43:57","新北市新莊區三和路12-14號","121.442128333333","25.0372066666667","6500500","新莊區"
"242028","615-BX","2019/11/25 07:43:49","新北市新莊區幸福路768號","121.447061666667","25.0492933333333","6500500","新莊區"
"242026","613-BX","2019/11/25 07:43:52","新北市泰山區磚雅厝3號","121.442325","25.0416733333333","6500500","新莊區"
"242057","612-BX","2019/11/25 07:43:53","新北市新莊區新泰路357巷3弄57號","121.442093333333","25.039125","6500500","新莊區"
"242052","497-BY","2019/11/25 07:43:37","新北市新莊區中正路384號","121.441991666667","25.03477","6500500","新莊區"
"242012","442-UM","2019/11/25 07:43:37","新北市新莊區三和路12-21號","121.442021666667","25.038795","6500500","新莊區"
"242001","441-UM","2019/11/25 07:43:39","新北市新莊區中正路384號","121.442043333333","25.0348816666667","6500500","新莊區"
"242049","400-BY","2019/11/25 07:43:55","新北市新莊區新泰路357巷3號","121.442183333333","25.0415416666667","6500500","新莊區"
"242024","362-BY","2019/11/25 07:43:50","新北市新莊區新泰路415-1號","121.442411666667","25.0446566666667","6500500","新莊區"
"242022","353-BY","2019/11/25 07:43:39","新北市新莊區新泰路255巷83號","121.442296666667","25.0389583333333","6500500","新莊區"
"242038","135-UY","2019/11/25 07:43:36","新北市新莊區中正路384號","121.442028333333","25.0350316666667","6500500","新莊區"
"242016","173-VK","2019/11/25 07:43:44","新北市新莊區三和路12-21號","121.44205","25.0386166666667","6500500","新莊區"
"242030","175-VK","2019/11/25 07:43:39","新北市新莊區三和路12-21號","121.441908333333","25.0386133333333","6500500","新莊區"
"242043","176-VK","2019/11/25 07:43:51","新北市新莊區中正路471號","121.441935","25.03403","6500500","新莊區"
"242020","KED-0687","2019/11/25 07:43:55","新北市新莊區新泰路255巷83號","121.442248333333","25.0391166666667","6500500","新莊區"
"242006","346-TH","2019/11/25 07:43:53","新北市新莊區三和路12-21號","121.441953333333","25.0381866666667","6500500","新莊區"
"242047","347-TH","2019/11/25 07:43:49","新北市新莊區中正路619號","121.431723333333","25.03181","6500500","新莊區"
"242035","348-TH","2019/11/25 07:43:52","新北市新莊區中正路384號","121.441953333333","25.0347783333333","6500500","新莊區"
"242008","349-TH","2019/11/25 07:43:48","新北市新莊區三和路12-21號","121.442183333333","25.0383333333333","6500500","新莊區"
"242033","350-TH","2019/11/25 07:43:47","新北市新莊區新莊路751巷126號","121.442185","25.029435","6500500","新莊區"
"242018","351-TH","2019/11/25 07:43:35","新北市新莊區新泰路357巷3弄57號","121.442091666667","25.0394983333333","6500500","新莊區"
"242045","281-VK","2019/11/25 07:43:55","新北市新莊區中正路384號","121.442011666667","25.0347133333333","6500500","新莊區"
"242010","280-VK","2019/11/25 07:43:51","新北市新莊區三和路12-21號","121.442","25.0382783333333","6500500","新莊區"
