"lineid","car","time","location","longitude","latitude","cityid","cityname"
"231007","189-VK","2019/11/01 09:43:47","新北市新店區新潭路三段215巷25號","121.508153333333","24.9041016666667","6500600","新店區"
"231009","192-VK","2019/11/01 09:43:13","新北市新店區小坑一路21-1號","121.530865","24.91206","6500600","新店區"
"241026","265-UM","2019/11/01 09:30:35","新北市三重區中正南路287號","121.493555","25.05154","6500200","三重區"
"227003","282-VK","2019/11/01 09:42:02","新北市雙溪區泰平里烏山路40-1號","121.834418333333","24.933825","6502500","雙溪區"
"237013","760-BX","2019/11/01 09:43:42","新北市三峽區安坑7號","121.439958333333","24.9264383333333","6500900","三峽區"
