"lineid","car","time","location","longitude","latitude","cityid","cityname"
"234044","148-BY","2019/11/01 13:29:22","新北市永和區秀朗路二段190號","121.5264","25.00069","6500400","永和區"
"234078","298-R6","2019/11/01 13:29:25","新北市永和區福和路5-2號","121.524848333333","25.008705","6500400","永和區"
"234036","336-UY","2019/11/01 13:29:23","新北市永和區民樂街33巷2號","121.527616666667","25.0011716666667","6500400","永和區"
"234062","337-UY","2019/11/01 13:29:26","新北市永和區中正路368巷1弄88號","121.520551666667","25.0007433333333","6500400","永和區"
"234084","338-UY","2019/11/01 13:29:27","新北市永和區林森路35號","121.525795","25.0050033333333","6500400","永和區"
"234068","552-UM","2019/11/01 13:29:17","新北市永和區警光街2號","121.520153333333","25.0096233333333","6500400","永和區"
"234048","553-UM","2019/11/01 13:29:27","新北市永和區信義路120號","121.512421666667","25.014715","6500400","永和區"
"234015","745-BX","2019/11/01 13:29:24","新北市永和區環河西路一段1號","121.515328333333","25.01798","6500400","永和區"
"234028","746-BX","2019/11/01 13:29:29","新北市永和區民權路47號","121.520023333333","24.99718","6500400","永和區"
"234052","KEA-2590","2019/11/01 13:29:22","新北市永和區復興街21號","121.516155","25.0130216666667","6500400","永和區"
"234005","KED-0605","2019/11/01 13:29:21","新北市永和區中山路一段203號","121.508933333333","25.008645","6500400","永和區"
"234012","KEA-2591","2019/11/01 13:29:21","新北市永和區中山路一段184巷9弄19號","121.5083","25.0091166666667","6500400","永和區"
"234060","AAD-866","2019/11/01 13:29:25","新北市永和區永貞路137號","121.516531666667","25.0041666666667","6500400","永和區"
"234040","862-TW","2019/11/01 13:29:21","新北市永和區中和路519巷7號","121.51066","25.002965","6500400","永和區"
"234025","9371-KE","2019/11/01 13:29:15","新北市永和區中正路649號","121.515146666667","25.0102033333333","6500400","永和區"
"234010","9373-KE","2019/11/01 13:29:08","新北市永和區仁愛路141巷30弄12號","121.511916666667","25.011445","6500400","永和區"
"248019","KED-0813","2019/11/01 13:29:09","新北市五股區天乙路118號","121.446961666667","25.1134516666667","6501500","五股區"
"234022","9380-KE","2019/11/01 13:29:23","新北市永和區竹林路91巷70號","121.522083333333","25.01368","6500400","永和區"
"234076","969-R7","2019/11/01 13:29:24","新北市永和區智光街43號","121.517678333333","24.9985433333333","6500400","永和區"
"234072","AAC-211","2019/11/01 13:29:04","新北市永和區光復街27號","121.516581666667","25.01757","6500400","永和區"
"234066","AAC-212","2019/11/01 13:29:15","新北市永和區保平路174巷2號","121.510865","25.0067466666667","6500400","永和區"
"234001","AAC-295","2019/11/01 13:29:15","新北市永和區永和路一段107號","121.513858333333","25.0079966666667","6500400","永和區"
"244004","248-BX","2019/11/01 13:29:24","新北市林口區頂福41號","121.346265","25.0912833333333","6501700","林口區"
"243010","297-R6","2019/11/01 13:29:17","新北市泰山區自強路11-1號","121.41654","25.0608233333333","6501600","泰山區"
"231003","001-UM","2019/11/01 13:29:23","新北市新店區中興路二段203號","121.548088333333","24.9741466666667","6500600","新店區"
"231030","002-UM","2019/11/01 13:29:15","新北市新店區安華路28-1號","121.519866666667","24.9607316666667","6500600","新店區"
"231024","0291-UT","2019/11/01 13:29:27","新北市新店區北新路二段59巷1號","121.542415","24.9728683333333","6500600","新店區"
"231005","046-UY","2019/11/01 13:29:20","新北市新店區力行路11巷57號","121.538573333333","24.961745","6500600","新店區"
"231029","106-UY","2019/11/01 13:29:10","新北市新店區安華路30巷12-1號","121.51813","24.9580866666667","6500600","新店區"
"231018","107-UY","2019/11/01 13:29:23","新北市新店區中央路81號","121.532311666667","24.9766233333333","6500600","新店區"
"231013","108-UY","2019/11/01 13:29:21","新北市新店區環河路114巷4-1號","121.536966666667","24.9647","6500600","新店區"
"231036","110-UY","2019/11/01 13:29:30","新北市新店區安祥路190巷15號","121.477986666667","24.9561","6500600","新店區"
"231032","256-BX","2019/11/01 13:29:13","新北市新店區安豐路57-2號","121.499321666667","24.9543966666667","6500600","新店區"
"231023","260-TV","2019/11/01 13:29:11","新北市新店區北新路一段51號","121.53821","24.9596516666667","6500600","新店區"
"231035","278-BY","2019/11/01 13:29:09","新北市新店區安一路一段1-1號","121.519776666667","24.9615816666667","6500600","新店區"
"231016","AAD-862","2019/11/01 13:29:22","新北市新店區北宜路一段164號","121.540385","24.9533766666667","6500600","新店區"
"231006","355-BY","2019/11/01 13:29:17","新北市新店區安一路一段1-1號","121.519101666667","24.96101","6500600","新店區"
"231038","3712-VJ","2019/11/01 13:29:12","新北市新店區安華路3號","121.518578333333","24.960665","6500600","新店區"
"231027","3713-VJ","2019/11/01 13:29:13","新北市新店區環河路19巷15號","121.537608333333","24.9601133333333","6500600","新店區"
"231025","4715-K9","2019/11/01 13:29:17","新北市新店區中央七街61巷30號","121.52956","24.9757116666667","6500600","新店區"
"231022","513-UM","2019/11/01 13:29:23","新北市新店區安康路一段61號","121.530581666667","24.9610183333333","6500600","新店區"
"231034","616-UM","2019/11/01 13:29:21","新北市新店區安華路28-1號","121.519613333333","24.960765","6500600","新店區"
"231002","619-UM","2019/11/01 13:29:27","新北市新店區安康路一段355號","121.519746666667","24.9629383333333","6500600","新店區"
"231012","KED-0819","2019/11/01 13:29:15","新北市新店區安康路一段228號","121.523173333333","24.9636416666667","6500600","新店區"
"231010","719-UM","2019/11/01 13:29:21","新北市新店區自由街9號","121.53548","24.9750166666667","6500600","新店區"
"231026","720-UM","2019/11/01 13:29:26","新北市新店區安一路一段1-1號","121.519176666667","24.9614583333333","6500600","新店區"
"231028","897-TW","2019/11/01 13:29:22","新北市新店區安華路28-1號","121.519665","24.960825","6500600","新店區"
"231001","898-TW","2019/11/01 13:29:08","新北市新店區安康路一段355號","121.519971666667","24.9636866666667","6500600","新店區"
"231004","899-TW","2019/11/01 13:29:24","新北市新店區安一路一段1-1號","121.519773333333","24.9614366666667","6500600","新店區"
"231037","AKT-0513","2019/11/01 13:29:26","新北市新店區薏仁坑路31號","121.494276666667","24.96196","6500600","新店區"
"235030","003-UY","2019/11/01 13:29:23","新北市中和區中山路二段110號","121.502988333333","25.0038816666667","6500300","中和區"
"235028","005-UY","2019/11/01 13:29:10","新北市中和區連城路109巷22號","121.496788333333","24.9987333333333","6500300","中和區"
"235027","006-UY","2019/11/01 13:29:23","新北市中和區連城路347巷1弄1號","121.488288333333","24.995765","6500300","中和區"
"235020","096-UM","2019/11/01 13:29:24","新北市中和區中山路二段586-2號","121.482311666667","25.0054066666667","6500300","中和區"
"235003","097-UM","2019/11/01 13:29:27","新北市中和區大仁街19巷8號","121.517333333333","24.9933516666667","6500300","中和區"
"235029","098-UM","2019/11/01 13:29:14","新北市中和區中山路二段64巷12號","121.503498333333","25.005145","6500300","中和區"
"235004","150-BY","2019/11/01 13:29:11","新北市中和區安平路59號","121.50957","24.9950083333333","6500300","中和區"
"235022","151-BY","2019/11/01 13:29:20","新北市中和區圓通路369巷39-30號","121.48975","24.9858783333333","6500300","中和區"
"235019","183-VK","2019/11/01 13:29:10","新北市中和區莒光路120巷58號","121.471618333333","25.0007316666667","6500300","中和區"
"235002","185-VK","2019/11/01 13:29:23","新北市中和區立人街1號","121.521916666667","24.9938466666667","6500300","中和區"
"235031","255-BX","2019/11/01 13:29:11","新北市中和區新生街220巷15弄8號","121.482801666667","24.9980833333333","6500300","中和區"
"235008","293-VK","2019/11/01 13:29:16","新北市中和區復興路299號","121.501565","24.9902683333333","6500300","中和區"
"235036","301-VK","2019/11/01 13:29:14","新北市中和區板南路335號","121.494215","24.9976983333333","6500300","中和區"
"235007","352-BY","2019/11/01 13:29:10","新北市中和區景平路257號","121.508555","24.99279","6500300","中和區"
"235006","KEA-2878","2019/11/01 13:29:29","新北市中和區秀朗路三段150巷16號","121.523483333333","24.9910216666667","6500300","中和區"
"235014","4979-A6","2019/11/01 13:29:26","新北市中和區景新街362巷5號","121.51201","24.9901083333333","6500300","中和區"
"235033","4980-A6","2019/11/01 13:29:24","新北市中和區景平路511號","121.49934","24.9986183333333","6500300","中和區"
"235034","558-UM","2019/11/01 13:29:25","新北市中和區南山路24號","121.502033333333","24.998185","6500300","中和區"
"235009","565-BX","2019/11/01 13:29:27","新北市中和區南山路236巷1號","121.506113333333","24.9889816666667","6500300","中和區"
"235024","KED-0823","2019/11/01 13:29:16","新北市中和區中山路三段105號","121.475033333333","25.0061616666667","6500300","中和區"
"235018","640-BX","2019/11/01 13:29:25","新北市中和區民享街32巷19號","121.47261","25.003115","6500300","中和區"
"235035","647-TV","2019/11/01 13:29:23","新北市中和區環中路120號","121.482025","25.0124533333333","6500300","中和區"
"235011","732-UM","2019/11/01 13:29:27","新北市中和區南山路493號","121.507956666667","24.98792","6500300","中和區"
"235010","733-UM","2019/11/01 13:29:25","新北市中和區捷運路16-2號","121.50877","24.9900383333333","6500300","中和區"
"235026","800-TS","2019/11/01 13:29:25","新北市中和區中山路二段308號","121.495746666667","25.0024716666667","6500300","中和區"
"235021","801-TS","2019/11/01 13:29:17","新北市中和區民安街66號","121.479021666667","25.00105","6500300","中和區"
"235005","802-TS","2019/11/01 13:29:25","新北市中和區中和路320號","121.509736666667","25.0006666666667","6500300","中和區"
"235016","805-TS","2019/11/01 13:29:11","新北市中和區興南路二段133號","121.50521","24.9841166666667","6500300","中和區"
"235012","896-TW","2019/11/01 13:29:26","新北市中和區中正路748號","121.485718333333","24.9985133333333","6500300","中和區"
"235017","900-TW","2019/11/01 13:29:25","新北市中和區連城路607號","121.478188333333","24.9931866666667","6500300","中和區"
"235015","157-BY","2019/11/01 13:29:22","新北市中和區興南路二段114巷19號","121.503798333333","24.9844516666667","6500300","中和區"
"235001","AAC-213","2019/11/01 13:29:14","新北市中和區景德街52號","121.517573333333","24.9915616666667","6500300","中和區"
"235023","AAC-215","2019/11/01 13:29:13","新北市中和區和城路一段271巷1號","121.485385","24.9919983333333","6500300","中和區"
"220104","015-TV","2019/11/01 13:29:15","新北市板橋區南雅南路二段1-1號","121.454825","25.0039183333333","6500100","板橋區"
"220013","072-UY","2019/11/01 13:29:19","新北市板橋區合宜路41-3號","121.446571666667","24.9969916666667","6500100","板橋區"
"235013","251-BX","2019/11/01 13:29:09","新北市中和區景安路123號","121.505733333333","24.9962216666667","6500300","中和區"
"207002","749-BX","2019/11/01 13:29:28","新北市萬里區崁腳里崁腳路166號","121.645103333333","25.1558633333333","6502800","萬里區"
"207001","662-BX","2019/11/01 13:28:06","新北市萬里區龜吼里石角路19-1號","121.684056666667","25.191805","6502800","萬里區"
"220004","276-BY","2019/11/01 13:29:21","新北市板橋區華東街1-9號","121.448105","24.9949283333333","6500100","板橋區"
"220019","283-VK","2019/11/01 13:29:17","新北市板橋區華東街1-9號","121.4481","24.9948666666667","6500100","板橋區"
"220029","287-VK","2019/11/01 13:29:24","新北市板橋區華東街1-10號","121.448263333333","24.9950233333333","6500100","板橋區"
"220011","609-BX","2019/11/01 13:28:54","新北市板橋區民生路二段161巷1號","121.47001","25.0201333333333","6500100","板橋區"
"220025","687-BX","2019/11/01 13:29:27","新北市板橋區大觀路二段265巷7-7號","121.443963333333","24.9946283333333","6500100","板橋區"
"220022","895-R6","2019/11/01 13:29:23","新北市板橋區華東街1-10號","121.448575","24.99491","6500100","板橋區"
"220021","985-R7","2019/11/01 13:29:18","新北市板橋區四川路二段140巷18號","121.449396666667","24.99333","6500100","板橋區"
"220046","AAC-210","2019/11/01 13:29:20","新北市板橋區民生路二段161巷5號","121.470096666667","25.0196716666667","6500100","板橋區"
"220012","AAC-253","2019/11/01 13:29:12","新北市板橋區南雅南路二段120-24號","121.451735","24.998845","6500100","板橋區"
"235032","KEA-2873","2019/11/01 13:29:27","新北市中和區中正路273-5號","121.495598333333","24.9933516666667","6500300","中和區"
"235025","KEA-2875","2019/11/01 13:29:23","新北市中和區民享街92巷15號","121.474243333333","24.9997283333333","6500300","中和區"
