"lineid","car","time","location","longitude","latitude","cityid","cityname"
"234044","148-BY","2019/11/01 13:59:15","新北市永和區成功路一段20號","121.527003333333","25.0050883333333","6500400","永和區"
"234078","298-R6","2019/11/01 13:59:25","新北市永和區永利路81巷26號","121.522336666667","25.0037583333333","6500400","永和區"
"234036","336-UY","2019/11/01 13:59:10","新北市永和區成功路二段141號","121.526626666667","24.9978566666667","6500400","永和區"
"234062","337-UY","2019/11/01 13:59:26","新北市永和區中正路412巷20弄10號","121.518778333333","25.0016133333333","6500400","永和區"
"234084","338-UY","2019/11/01 13:59:18","新北市永和區福和路130號","121.521973333333","25.0078533333333","6500400","永和區"
"234068","552-UM","2019/11/01 13:59:15","新北市永和區國光路14號","121.519155","25.0084566666667","6500400","永和區"
"234048","553-UM","2019/11/01 13:59:27","新北市永和區保安路264號","121.505938333333","25.0123316666667","6500400","永和區"
"234015","745-BX","2019/11/01 13:59:24","新北市永和區文化路11號","121.51517","25.0150333333333","6500400","永和區"
"234028","746-BX","2019/11/01 13:59:28","新北市永和區民權路49巷7號","121.520471666667","24.9972283333333","6500400","永和區"
"234052","KEA-2590","2019/11/01 13:59:21","新北市永和區竹林路39巷46號","121.520261666667","25.0151783333333","6500400","永和區"
"234005","KED-0605","2019/11/01 13:59:21","新北市中和區中和路332號","121.509948333333","25.0012866666667","6500400","永和區"
"234012","KEA-2591","2019/11/01 13:59:21","新北市永和區保生路55號","121.504738333333","25.0106416666667","6500400","永和區"
"234060","AAD-866","2019/11/01 13:59:25","新北市永和區中正路151巷8弄1號","121.5159","24.9986633333333","6500400","永和區"
"234040","862-TW","2019/11/01 13:59:20","新北市永和區中和路335巷18弄30號","121.508098333333","25.000465","6500400","永和區"
"234025","9371-KE","2019/11/01 13:59:15","新北市永和區自由街58號","121.513843333333","25.0060716666667","6500400","永和區"
"234010","9373-KE","2019/11/01 13:59:27","新北市永和區仁愛路352巷110號","121.500675","25.0083816666667","6500400","永和區"
"248019","KED-0813","2019/11/01 13:57:42","新北市五股區凌雲路三段59-6號","121.424971666667","25.12499","6501500","五股區"
"234022","9380-KE","2019/11/01 13:59:23","新北市永和區復興街19巷5號","121.51601","25.0130966666667","6500400","永和區"
"234076","969-R7","2019/11/01 13:59:27","新北市永和區民族街43巷3號","121.518665","24.9984616666667","6500400","永和區"
"234072","AAC-211","2019/11/01 13:59:24","新北市永和區豫溪街136巷1號","121.521271666667","25.01038","6500400","永和區"
"234066","AAC-212","2019/11/01 13:59:15","新北市永和區永貞路313號","121.510083333333","25.006555","6500400","永和區"
"234001","AAC-295","2019/11/01 13:59:19","新北市永和區福和路318號","121.515738333333","25.00727","6500400","永和區"
"244004","248-BX","2019/11/01 13:59:24","新北市林口區南勢里31號","121.352155","25.0704933333333","6501700","林口區"
"243010","297-R6","2019/11/01 13:59:17","新北市泰山區黎明路2-7號","121.420381666667","25.0631966666667","6501600","泰山區"
"231003","001-UM","2019/11/01 13:59:23","新北市新店區新店路262-12號","121.537953333333","24.9584066666667","6500600","新店區"
"231030","002-UM","2019/11/01 13:59:15","新北市新店區安康路一段361號","121.518205","24.9640283333333","6500600","新店區"
"231024","0291-UT","2019/11/01 13:59:12","新北市新店區力行路14巷12號","121.539226666667","24.965125","6500600","新店區"
"231005","046-UY","2019/11/01 13:59:20","新北市新店區寶中路49-1號","121.546045","24.9797383333333","6500600","新店區"
"231029","106-UY","2019/11/01 13:59:10","新北市新店區安和路一段1號","121.516788333333","24.9638416666667","6500600","新店區"
"231018","107-UY","2019/11/01 13:59:23","新北市新店區中央路125號","121.530693333333","24.9741916666667","6500600","新店區"
"231013","108-UY","2019/11/01 13:59:21","新北市新店區明德路66號","121.541586666667","24.9796083333333","6500600","新店區"
"231036","110-UY","2019/11/01 13:59:10","新北市新店區安祥路109巷3弄98號","121.479083333333","24.9606183333333","6500600","新店區"
"231032","256-BX","2019/11/01 13:59:13","新北市新店區莒光路44巷21弄11-6號","121.518548333333","24.952565","6500600","新店區"
"231023","260-TV","2019/11/01 13:59:11","新北市新店區文中路40號","121.539705","24.9565616666667","6500600","新店區"
"231035","278-BY","2019/11/01 13:59:09","新北市新店區安和路二段115號","121.518685","24.9704216666667","6500600","新店區"
"231016","AAD-862","2019/11/01 13:59:22","新北市新店區北宜路二段116巷2號","121.556756666667","24.95361","6500600","新店區"
"231006","355-BY","2019/11/01 13:59:24","新北市新店區北宜路二段50號","121.5488","24.9513666666667","6500600","新店區"
"231038","3712-VJ","2019/11/01 13:59:12","新北市新店區安華路30巷1號","121.519531666667","24.9593266666667","6500600","新店區"
"231027","3713-VJ","2019/11/01 13:59:13","新北市新店區北宜路一段39巷20號","121.538795","24.95828","6500600","新店區"
"231025","4715-K9","2019/11/01 13:59:14","新北市新店區中正路304號","121.537473333333","24.9745516666667","6500600","新店區"
"231022","513-UM","2019/11/01 13:59:23","新北市新店區屈尺路75號","121.545581666667","24.922705","6500600","新店區"
"231034","616-UM","2019/11/01 13:59:21","新北市新店區達觀路43號","121.503108333333","24.937775","6500600","新店區"
"231002","619-UM","2019/11/01 13:59:27","新北市新店區中正路656號","121.534008333333","24.98942","6500600","新店區"
"231012","KED-0819","2019/11/01 13:59:15","新北市新店區中興路二段57巷15號","121.545721666667","24.97075","6500600","新店區"
"231010","719-UM","2019/11/01 13:59:21","新北市新店區安康路一段351-1號","121.519658333333","24.96369","6500600","新店區"
"231026","720-UM","2019/11/01 13:59:26","新北市新店區福園街8巷16號","121.532523333333","24.973545","6500600","新店區"
"231028","897-TW","2019/11/01 13:59:22","新北市新店區安和路三段20號","121.517936666667","24.9812283333333","6500600","新店區"
"231001","898-TW","2019/11/01 13:59:08","新北市新店區三民路47號","121.537033333333","24.97089","6500600","新店區"
"231004","899-TW","2019/11/01 13:59:24","新北市新店區北新路二段102號","121.543005","24.9736283333333","6500600","新店區"
"231037","AKT-0513","2019/11/01 13:59:26","新北市新店區安康路三段456號","121.484343333333","24.9510933333333","6500600","新店區"
"235030","003-UY","2019/11/01 13:59:23","新北市中和區光華街54號","121.505246666667","25.0037766666667","6500300","中和區"
"235028","005-UY","2019/11/01 13:59:09","新北市中和區景平路597號","121.497171666667","25.0007","6500300","中和區"
"235027","006-UY","2019/11/01 13:59:23","新北市中和區連城路397號","121.486341666667","24.9961816666667","6500300","中和區"
"235020","096-UM","2019/11/01 13:59:24","新北市板橋區三民路二段228號","121.478768333333","25.0113866666667","6500300","中和區"
"235003","097-UM","2019/11/01 13:59:19","新北市中和區秀朗路三段179號","121.524553333333","24.9908533333333","6500300","中和區"
"235029","098-UM","2019/11/01 13:59:14","新北市中和區勝利路35巷1弄36號","121.500526666667","25.0078316666667","6500300","中和區"
"235004","150-BY","2019/11/01 13:59:11","新北市中和區宜安路119巷2號","121.509866666667","24.997715","6500300","中和區"
"235022","151-BY","2019/11/01 13:59:00","新北市中和區連城路469巷22弄2號","121.48328","24.9951066666667","6500300","中和區"
"235019","183-VK","2019/11/01 13:59:10","新北市中和區德光路72號","121.469245","25.003775","6500300","中和區"
"235002","185-VK","2019/11/01 13:59:23","新北市中和區立人街24-4號","121.518951666667","24.99418","6500300","中和區"
"235031","255-BX","2019/11/01 13:59:11","新北市中和區中正路683號","121.485078333333","24.9978566666667","6500300","中和區"
"235008","293-VK","2019/11/01 13:59:16","新北市中和區中興街180巷12號","121.498801666667","24.9904283333333","6500300","中和區"
"235036","301-VK","2019/11/01 13:59:14","新北市中和區中山路二段120號","121.502693333333","25.0036083333333","6500300","中和區"
"235007","352-BY","2019/11/01 13:59:10","新北市中和區成功路70號","121.525943333333","24.99195","6500300","中和區"
"235006","KEA-2878","2019/11/01 13:59:09","新北市中和區自立路161號","121.522923333333","24.992605","6500300","中和區"
"247015","KEA-2869","2019/11/01 13:59:27","新北市蘆洲區光華路48號","121.468686666667","25.0831866666667","6501400","蘆洲區"
"247009","KED-0682","2019/11/01 13:59:27","新北市蘆洲區集賢路406號","121.480095","25.0819316666667","6501400","蘆洲區"
"235014","4979-A6","2019/11/01 13:59:26","新北市中和區華新街46號","121.507828333333","24.984135","6500300","中和區"
"235033","4980-A6","2019/11/01 13:59:27","新北市中和區中和路217巷16號","121.504676666667","25.0004683333333","6500300","中和區"
"235034","558-UM","2019/11/01 13:59:25","新北市中和區景平路605號","121.496758333333","25.00145","6500300","中和區"
"235009","565-BX","2019/11/01 13:59:27","新北市中和區景新街467巷36號","121.515463333333","24.9885783333333","6500300","中和區"
"235018","640-BX","2019/11/01 13:59:25","新北市中和區國光街109巷29號","121.469393333333","24.999335","6500300","中和區"
"235035","647-TV","2019/11/01 13:59:22","新北市中和區立德街32號","121.489005","25.0071716666667","6500300","中和區"
"235011","732-UM","2019/11/01 13:59:27","新北市中和區興南路二段94號","121.505241666667","24.984245","6500300","中和區"
"235010","733-UM","2019/11/01 13:59:25","新北市中和區興南路二段31巷19號","121.508125","24.9851183333333","6500300","中和區"
"235026","800-TS","2019/11/01 13:59:25","新北市中和區中山路二段380巷16號","121.490825","25.0050433333333","6500300","中和區"
"235021","801-TS","2019/11/01 13:59:17","新北市中和區民利街50號","121.479315","24.9988716666667","6500300","中和區"
"235005","802-TS","2019/11/01 13:59:25","新北市中和區永貞路239巷20號","121.51256","25.003175","6500300","中和區"
"235016","805-TS","2019/11/01 13:59:11","新北市中和區興南路二段261巷6-12號","121.50276","24.979635","6500300","中和區"
"235012","896-TW","2019/11/01 13:59:25","新北市中和區華新街46號","121.50796","24.9841866666667","6500300","中和區"
"235017","900-TW","2019/11/01 13:59:25","新北市中和區和平路210號","121.46396","24.9961033333333","6500300","中和區"
"235015","157-BY","2019/11/01 13:59:14","新北市中和區忠孝街19巷47號","121.509396666667","24.985265","6500300","中和區"
"235001","AAC-213","2019/11/01 13:59:14","新北市中和區秀朗路三段58-3號","121.525688333333","24.9951733333333","6500300","中和區"
"235023","AAC-215","2019/11/01 13:59:13","新北市中和區圓通路369巷10號","121.490588333333","24.9882466666667","6500300","中和區"
"220104","015-TV","2019/11/01 13:59:26","新北市板橋區中正路341巷33號","121.454193333333","25.0198133333333","6500100","板橋區"
"220013","072-UY","2019/11/01 13:59:18","新北市板橋區漢生東路93巷35號","121.468235","25.017525","6500100","板橋區"
"220034","073-UY","2019/11/01 13:59:18","新北市板橋區民權路209-1號","121.457816666667","25.0148033333333","6500100","板橋區"
"220105","075-UY","2019/11/01 13:59:26","新北市板橋區雙十路三段12號","121.471823333333","25.0306133333333","6500100","板橋區"
"220017","AAD-861","2019/11/01 13:59:20","新北市板橋區四川路一段102號","121.459675","25.0047366666667","6500100","板橋區"
"247005","893-R6","2019/11/01 13:59:19","新北市蘆洲區中山一路312號","121.469296666667","25.0772683333333","6501400","蘆洲區"
"247019","546-UM","2019/11/01 13:59:17","新北市蘆洲區民族路422巷82弄2號","121.473598333333","25.0937283333333","6501400","蘆洲區"
"247003","341-TH","2019/11/01 13:59:24","新北市蘆洲區長安街100號","121.461815","25.0812183333333","6501400","蘆洲區"
"247013","056-VK","2019/11/01 13:59:09","新北市蘆洲區保和街87號","121.468853333333","25.08602","6501400","蘆洲區"
"247017","053-VK","2019/11/01 13:59:21","新北市蘆洲區民族路257巷2號","121.4764","25.090345","6501400","蘆洲區"
"247021","007-UY","2019/11/01 13:59:22","新北市蘆洲區中正路263巷2號","121.467296666667","25.08761","6501400","蘆洲區"
"247007","002-UY","2019/11/01 13:59:18","新北市蘆洲區重陽一街1號","121.481878333333","25.0813466666667","6501400","蘆洲區"
"247001","001-UY","2019/11/01 13:59:27","新北市蘆洲區三民路603號","121.460703333333","25.0936366666667","6501400","蘆洲區"
"235013","251-BX","2019/11/01 13:59:29","新北市中和區明仁街4號","121.505876666667","24.9954866666667","6500300","中和區"
"207002","749-BX","2019/11/01 13:59:08","新北市萬里區溪底里溪底路9-1號","121.618721666667","25.1489","6502800","萬里區"
"207001","662-BX","2019/11/01 13:59:26","新北市萬里區磺潭里清水1號","121.639755","25.2023416666667","6502800","萬里區"
"236040","KED-0685","2019/11/01 13:59:22","新北市土城區城林路6巷80號","121.438433333333","24.9797483333333","6501300","土城區"
"220038","KED-0812","2019/11/01 13:59:27","新北市板橋區文化路二段239號","121.47113","25.02859","6500100","板橋區"
"236077","166-UM","2019/11/01 13:59:12","新北市土城區永寧路32巷10弄23號","121.428885","24.96105","6501300","土城區"
"236029","253-BX","2019/11/01 13:57:46","新北市土城區中央路二段280號","121.440731666667","24.974035","6501300","土城區"
"236024","269-VK","2019/11/01 13:59:25","新北市土城區中央路三段42號","121.437551666667","24.9681133333333","6501300","土城區"
"236013","270-VK","2019/11/01 13:59:22","新北市土城區城林路6巷80號","121.43845","24.9799916666667","6501300","土城區"
"236032","271-VK","2019/11/01 13:59:21","新北市土城區中央路二段280號","121.440718333333","24.97401","6501300","土城區"
"247011","KED-0683","2019/11/01 13:59:15","新北市蘆洲區中興街24號","121.480683333333","25.0868966666667","6501400","蘆洲區"
"236067","KEA-2877","2019/11/01 13:59:17","新北市土城區和平路54號","121.445196666667","24.968955","6501300","土城區"
"236016","401-BY","2019/11/01 13:59:13","新北市土城區城林路6巷80號","121.43854","24.9797533333333","6501300","土城區"
"236057","912-UM","2019/11/01 13:59:28","新北市土城區中央路三段244巷5號","121.427796666667","24.9642933333333","6501300","土城區"
"236045","913-UM","2019/11/01 13:59:14","新北市土城區中華路一段301號","121.43988","24.9793666666667","6501300","土城區"
"236060","915-UM","2019/11/01 13:59:25","新北市土城區員福街52號","121.440343333333","24.9791466666667","6501300","土城區"
"236054","AAC-216","2019/11/01 13:59:17","新北市土城區中華路二段189號","121.43832","24.97454","6501300","土城區"
"220027","145-BY","2019/11/01 13:59:12","新北市板橋區大仁街96號","121.45351","25.0161433333333","6500100","板橋區"
"220028","200-UY","2019/11/01 13:59:28","新北市板橋區大觀路二段265巷1弄2號","121.442953333333","24.998695","6500100","板橋區"
"220040","267-BY","2019/11/01 13:59:28","新北市板橋區大同街26巷14號","121.478135","25.0268983333333","6500100","板橋區"
"220004","276-BY","2019/11/01 13:59:21","新北市板橋區信義路148號","121.458906666667","24.9917783333333","6500100","板橋區"
"220020","277-BY","2019/11/01 13:59:16","新北市板橋區大觀路三段50巷53號","121.432006666667","24.99595","6500100","板橋區"
"220043","283-UM","2019/11/01 13:59:17","新北市板橋區光武街163號","121.46529","25.0298116666667","6500100","板橋區"
"220019","283-VK","2019/11/01 13:59:17","新北市板橋區重慶路245巷62號","121.465418333333","25.000945","6500100","板橋區"
"220050","285-UM","2019/11/01 13:59:19","新北市板橋區莊敬路220巷3號","121.47257","25.021155","6500100","板橋區"
"220001","285-VK","2019/11/01 13:59:16","新北市板橋區太和街5巷2號","121.473673333333","25.02004","6500100","板橋區"
"220107","286-VK","2019/11/01 13:59:16","新北市新莊區瓊林南路77-39號","121.438305","25.0137833333333","6500100","板橋區"
"220029","287-VK","2019/11/01 13:59:24","新北市板橋區光華街35號","121.453748333333","25.0127783333333","6500100","板橋區"
"220039","288-VK","2019/11/01 13:59:13","新北市板橋區裕民街5-1號","121.462433333333","25.0291816666667","6500100","板橋區"
"220009","293-UM","2019/11/01 13:59:18","新北市板橋區懷仁街85巷6號","121.47773","25.018565","6500100","板橋區"
"220047","295-UM","2019/11/01 13:59:23","新北市板橋區文化路二段4號","121.46875","25.02396","6500100","板橋區"
"220032","296-UM","2019/11/01 13:59:20","新北市板橋區篤行路一段16號","121.4313","24.9954733333333","6500100","板橋區"
"220023","303-R5","2019/11/01 13:59:14","新北市板橋區館前西路213巷26號","121.454078333333","25.00796","6500100","板橋區"
"220010","305-R5","2019/11/01 13:59:28","新北市板橋區三民路二段253-1號","121.478956666667","25.011675","6500100","板橋區"
"220041","307-R5","2019/11/01 13:59:14","新北市板橋區文化路二段225巷60弄52號","121.469175","25.0296333333333","6500100","板橋區"
"220037","491-VK","2019/11/01 13:59:16","新北市板橋區莒光路165巷42-1號","121.474351666667","25.0251266666667","6500100","板橋區"
"220052","561-BX","2019/11/01 13:59:26","新北市板橋區介壽街84巷29號","121.469423333333","25.0178833333333","6500100","板橋區"
"220011","609-BX","2019/11/01 13:59:15","新北市板橋區中山路二段307號","121.478815","25.0184416666667","6500100","板橋區"
"220005","686-BX","2019/11/01 13:59:18","新北市板橋區重慶路342號","121.464113333333","24.9974383333333","6500100","板橋區"
"220025","687-BX","2019/11/01 13:59:27","新北市板橋區大觀路二段174巷137號","121.441221666667","25.0020833333333","6500100","板橋區"
"220042","689-BX","2019/11/01 13:59:20","新北市板橋區民生路三段213號","121.464855","25.0281083333333","6500100","板橋區"
"220002","741-BX","2019/11/01 13:59:28","新北市板橋區成都街60號","121.462918333333","25.0050483333333","6500100","板橋區"
"220051","KEA-2699","2019/11/01 13:59:19","新北市板橋區萬板路818巷9號","121.48301","25.02673","6500100","板橋區"
"220003","827-TW","2019/11/01 13:59:17","新北市板橋區民安街18號","121.46674","25.0115116666667","6500100","板橋區"
"220014","829-TW","2019/11/01 13:59:21","新北市板橋區三民路二段正隆巷35號","121.477143333333","25.013355","6500100","板橋區"
"220016","831-TW","2019/11/01 13:59:27","新北市板橋區中山路二段443巷74號","121.480898333333","25.0221283333333","6500100","板橋區"
"220030","833-TW","2019/11/01 13:59:25","新北市板橋區篤行路三段77號","121.427073333333","24.9852","6500100","板橋區"
"220022","895-R6","2019/11/01 13:59:23","新北市板橋區林園街7-1號","121.454108333333","25.0092066666667","6500100","板橋區"
"220021","985-R7","2019/11/01 13:59:18","新北市板橋區中正路31號","121.456266666667","25.0128516666667","6500100","板橋區"
"220046","AAC-210","2019/11/01 13:59:20","新北市板橋區新海路135巷33號","121.459961666667","25.022875","6500100","板橋區"
"220012","AAC-253","2019/11/01 13:59:14","新北市板橋區板新路9號","121.475328333333","25.012395","6500100","板橋區"
"235032","KEA-2873","2019/11/01 13:59:27","新北市中和區景平路545巷1弄13號","121.498765","24.9988633333333","6500300","中和區"
"235025","KEA-2875","2019/11/01 13:59:08","新北市中和區員山路394巷12弄6號","121.481213333333","25.0042083333333","6500300","中和區"
