"lineid","car","time","location","longitude","latitude","cityid","cityname"
"234044","148-BY","2019/11/01 14:13:15","新北市永和區得和路322號","121.522811666667","24.9995266666667","6500400","永和區"
"234078","298-R6","2019/11/01 14:13:25","新北市永和區國中路104巷2弄2號","121.524321666667","25.006655","6500400","永和區"
"234036","336-UY","2019/11/01 14:13:10","新北市永和區成功路一段93巷23弄13號","121.528545","25.0034416666667","6500400","永和區"
"234062","337-UY","2019/11/01 14:13:26","新北市永和區得和路261號","121.521405","24.999895","6500400","永和區"
"234084","338-UY","2019/11/01 14:13:30","新北市永和區中正路625號","121.515698333333","25.0098666666667","6500400","永和區"
"234068","552-UM","2019/11/01 14:13:15","新北市永和區永亨路31號","121.51973","25.0061483333333","6500400","永和區"
"234048","553-UM","2019/11/01 14:13:07","新北市永和區環河西路二段39號","121.507333333333","25.0156133333333","6500400","永和區"
"234028","746-BX","2019/11/01 14:13:28","新北市永和區民權路47號","121.519926666667","24.9971233333333","6500400","永和區"
"234052","KEA-2590","2019/11/01 14:13:21","新北市永和區永和路二段304號","121.516318333333","25.0159166666667","6500400","永和區"
"234005","KED-0605","2019/11/01 14:13:21","新北市永和區永貞路368號","121.510048333333","25.0067366666667","6500400","永和區"
"234012","KEA-2591","2019/11/01 14:13:01","新北市永和區保生路32號","121.506375","25.0079166666667","6500400","永和區"
"234060","AAD-866","2019/11/01 14:13:25","新北市永和區安樂路168號","121.514781666667","25.0006683333333","6500400","永和區"
"234040","862-TW","2019/11/01 14:13:15","新北市中和區中安街168號","121.510865","24.9998983333333","6500400","永和區"
"234025","9371-KE","2019/11/01 14:13:15","新北市永和區安樂路198號","121.515218333333","25.0016616666667","6500400","永和區"
"248019","KED-0813","2019/11/01 13:57:42","新北市五股區凌雲路三段59-6號","121.424971666667","25.12499","6501500","五股區"
"234022","9380-KE","2019/11/01 14:13:23","新北市永和區竹林路25巷23號","121.518186666667","25.0150516666667","6500400","永和區"
"234076","969-R7","2019/11/01 14:13:23","新北市永和區民族街81巷3號","121.51881","24.9966033333333","6500400","永和區"
"234072","AAC-211","2019/11/01 14:13:24","新北市永和區福和路26號","121.523933333333","25.0083583333333","6500400","永和區"
"234066","AAC-212","2019/11/01 14:13:15","新北市永和區保平路268巷16號","121.507865","25.0060683333333","6500400","永和區"
"234001","AAC-295","2019/11/01 14:13:15","新北市永和區中正路609巷1號","121.516191666667","25.0095033333333","6500400","永和區"
"244004","248-BX","2019/11/01 14:13:24","新北市林口區南勢里34-8號","121.352355","25.07028","6501700","林口區"
"231003","001-UM","2019/11/01 14:13:23","新北市新店區中興路一段171號","121.542838333333","24.96453","6500600","新店區"
"231030","002-UM","2019/11/01 14:13:15","新北市新店區安興路3巷2號","121.515083333333","24.967545","6500600","新店區"
"231005","046-UY","2019/11/01 14:13:20","","121.54195","24.9856483333333","6500600","新店區"
"231029","106-UY","2019/11/01 14:13:10","新北市新店區安康路二段204號","121.510296666667","24.9595016666667","6500600","新店區"
"231018","107-UY","2019/11/01 14:13:23","新北市新店區中央四街83號","121.526146666667","24.975935","6500600","新店區"
"231013","108-UY","2019/11/01 14:13:21","新北市新店區大豐路29號","121.540701666667","24.980055","6500600","新店區"
"231036","110-UY","2019/11/01 14:13:21","新北市新店區安祥路109巷90弄68號","121.476168333333","24.9586483333333","6500600","新店區"
"231032","256-BX","2019/11/01 14:13:13","新北市新店區永業路9號","121.533571666667","24.955845","6500600","新店區"
"231023","260-TV","2019/11/01 14:13:11","新北市新店區文中路51號","121.539728333333","24.9566633333333","6500600","新店區"
"231035","278-BY","2019/11/01 14:13:09","新北市新店區安和路二段115號","121.518683333333","24.9704083333333","6500600","新店區"
"231016","AAD-862","2019/11/01 14:13:22","新北市新店區北宜路二段230號","121.559848333333","24.9543966666667","6500600","新店區"
"231006","355-BY","2019/11/01 14:13:17","新北市新店區北宜路二段269號","121.554698333333","24.9536083333333","6500600","新店區"
"231038","3712-VJ","2019/11/01 14:13:12","新北市新店區安康路一段11號","121.533593333333","24.96043","6500600","新店區"
"231027","3713-VJ","2019/11/01 14:13:13","新北市新店區光明街22號","121.5382","24.958735","6500600","新店區"
"231025","4715-K9","2019/11/01 14:13:14","新北市新店區民族路161號","121.537665","24.9767116666667","6500600","新店區"
"231022","513-UM","2019/11/01 14:13:23","新北市新店區屈尺路22號","121.548591666667","24.9226","6500600","新店區"
"231034","616-UM","2019/11/01 14:13:20","新北市新店區車子路11號","121.503086666667","24.9520616666667","6500600","新店區"
"231002","619-UM","2019/11/01 14:13:07","新北市新店區中正路487號","121.533871666667","24.982065","6500600","新店區"
"231012","KED-0819","2019/11/01 14:13:15","新北市新店區中興路一段282-5號","121.546166666667","24.9681783333333","6500600","新店區"
"231026","720-UM","2019/11/01 14:13:26","新北市新店區安一路一段1-1號","121.519556666667","24.9611733333333","6500600","新店區"
"231028","897-TW","2019/11/01 14:13:22","新北市新店區安業街15號","121.516575","24.9785316666667","6500600","新店區"
"231001","898-TW","2019/11/01 14:13:08","新北市新店區中華路52號","121.539598333333","24.9684966666667","6500600","新店區"
"231004","899-TW","2019/11/01 14:13:24","新北市新店區北新路二段82號","121.543135","24.9727466666667","6500600","新店區"
"231037","AKT-0513","2019/11/01 14:13:26","新北市新店區安康路二段416號","121.496568333333","24.955185","6500600","新店區"
"235030","003-UY","2019/11/01 14:13:23","新北市中和區中和路102號","121.50268","24.9996483333333","6500300","中和區"
"235028","005-UY","2019/11/01 14:13:09","新北市中和區南山路81巷53號","121.503925","24.9981733333333","6500300","中和區"
"235027","006-UY","2019/11/01 14:13:23","新北市中和區連勝街126號","121.494451666667","24.9964266666667","6500300","中和區"
"235020","096-UM","2019/11/01 14:13:24","新北市中和區員山路573號","121.479496666667","25.0078683333333","6500300","中和區"
"235003","097-UM","2019/11/01 14:13:19","新北市中和區秀峰街119巷8弄1號","121.519366666667","24.9897716666667","6500300","中和區"
"235029","098-UM","2019/11/01 14:13:14","新北市中和區中山路二段64巷14弄26號","121.50389","25.0062833333333","6500300","中和區"
"235004","150-BY","2019/11/01 14:13:11","新北市中和區宜安路121號","121.510075","24.9979366666667","6500300","中和區"
"235022","151-BY","2019/11/01 14:13:21","新北市中和區連城路372-3號","121.481573333333","24.99527","6500300","中和區"
"235019","183-VK","2019/11/01 14:13:10","新北市中和區中山路三段181巷30號","121.473098333333","25.0050116666667","6500300","中和區"
"235002","185-VK","2019/11/01 14:13:23","新北市中和區大仁街10巷8-2號","121.518218333333","24.9925633333333","6500300","中和區"
"235031","255-BX","2019/11/01 14:13:11","新北市中和區連城路286號","121.484271666667","24.9962783333333","6500300","中和區"
"235008","293-VK","2019/11/01 14:13:16","新北市中和區中興街266巷1號","121.498421666667","24.9875616666667","6500300","中和區"
"235036","301-VK","2019/11/01 14:13:14","新北市中和區景平路762號","121.496336666667","25.0048533333333","6500300","中和區"
"235007","352-BY","2019/11/01 14:13:30","新北市中和區景平路296號","121.512846666667","24.992585","6500300","中和區"
"235006","KEA-2878","2019/11/01 14:13:09","新北市永和區民有街1號","121.515833333333","24.9972733333333","6500300","中和區"
"247015","KEA-2869","2019/11/01 14:13:27","新北市蘆洲區光華路68號","121.468091666667","25.0829116666667","6501400","蘆洲區"
"247009","KED-0682","2019/11/01 14:13:27","新北市蘆洲區信義路158號","121.479465","25.0835583333333","6501400","蘆洲區"
"235014","4979-A6","2019/11/01 14:13:25","新北市中和區復興路280巷36弄10號","121.501583333333","24.992235","6500300","中和區"
"235033","4980-A6","2019/11/01 14:13:24","新北市中和區景平路736巷1弄5號","121.49729","25.004025","6500300","中和區"
"235034","558-UM","2019/11/01 14:13:25","新北市中和區景平路634-8號","121.49899","24.99919","6500300","中和區"
"235009","565-BX","2019/11/01 14:13:27","新北市中和區景新街383巷38號","121.513815","24.99074","6500300","中和區"
"235024","KED-0823","2019/11/01 14:13:13","新北市中和區員山路314巷7弄8號","121.482123333333","25.0032316666667","6500300","中和區"
"235018","640-BX","2019/11/01 14:13:25","新北市中和區國光街129號","121.469135","25.0010983333333","6500300","中和區"
"235035","647-TV","2019/11/01 14:13:22","新北市中和區中山路二段478號","121.488071666667","25.0049683333333","6500300","中和區"
"235011","732-UM","2019/11/01 14:13:27","新北市中和區興南路一段56巷30號","121.510215","24.991405","6500300","中和區"
"235010","733-UM","2019/11/01 14:13:25","新北市中和區華新街97號","121.508648333333","24.98294","6500300","中和區"
"235026","800-TS","2019/11/01 14:13:25","新北市中和區中山路二段526巷19號","121.485743333333","25.0056016666667","6500300","中和區"
"235021","801-TS","2019/11/01 14:13:17","新北市中和區中山路三段37巷33號","121.479621666667","25.0048933333333","6500300","中和區"
"235005","802-TS","2019/11/01 14:13:25","新北市中和區中安街178巷13弄13號","121.510756666667","24.998725","6500300","中和區"
"235016","805-TS","2019/11/01 14:13:11","新北市中和區興南路二段142巷17弄47號","121.502823333333","24.9826766666667","6500300","中和區"
"235012","896-TW","2019/11/01 14:13:25","新北市中和區華新街109巷22號","121.508368333333","24.980585","6500300","中和區"
"235017","900-TW","2019/11/01 14:13:25","新北市中和區華安街17巷27號","121.467353333333","24.9982733333333","6500300","中和區"
"235015","157-BY","2019/11/01 14:13:14","新北市中和區景平路239巷33弄33號","121.509608333333","24.9915483333333","6500300","中和區"
"235001","AAC-213","2019/11/01 14:13:15","新北市中和區秀朗路三段10巷14弄108號","121.522863333333","24.996655","6500300","中和區"
"235023","AAC-215","2019/11/01 14:13:16","新北市中和區錦和路201號","121.490816666667","24.9904833333333","6500300","中和區"
"220104","015-TV","2019/11/01 14:13:15","新北市板橋區中正路360巷53號","121.456281666667","25.0229033333333","6500100","板橋區"
"220013","072-UY","2019/11/01 14:13:18","新北市板橋區陽明街116號","121.463946666667","25.023915","6500100","板橋區"
"220034","073-UY","2019/11/01 14:13:09","新北市板橋區中正路236巷65號","121.458533333333","25.0195633333333","6500100","板橋區"
"220105","075-UY","2019/11/01 14:13:13","新北市板橋區江寧路三段85巷13-2號","121.472215","25.0331283333333","6500100","板橋區"
"220017","AAD-861","2019/11/01 14:13:20","新北市板橋區稚暉街62號","121.457081666667","25.00404","6500100","板橋區"
"247005","893-R6","2019/11/01 14:13:19","新北市蘆洲區九芎街15巷1號","121.468153333333","25.07833","6501400","蘆洲區"
"247003","341-TH","2019/11/01 14:13:24","新北市蘆洲區長安街162巷5號","121.459816666667","25.0832883333333","6501400","蘆洲區"
"247023","057-VK","2019/11/01 14:13:13","新北市蘆洲區光榮路67號","121.461326666667","25.0884383333333","6501400","蘆洲區"
"247013","056-VK","2019/11/01 14:13:09","新北市蘆洲區三民路33號","121.47544","25.0828766666667","6501400","蘆洲區"
"247017","053-VK","2019/11/01 14:13:21","新北市蘆洲區民族路278-1號","121.478428333333","25.0893183333333","6501400","蘆洲區"
"247021","007-UY","2019/11/01 14:13:16","新北市蘆洲區仁愛街264號","121.465165","25.0927666666667","6501400","蘆洲區"
"247007","002-UY","2019/11/01 14:13:18","新北市蘆洲區中山一路234號","121.47282","25.080265","6501400","蘆洲區"
"247001","001-UY","2019/11/01 14:13:27","新北市蘆洲區長榮路526號","121.459655","25.0903216666667","6501400","蘆洲區"
"235013","251-BX","2019/11/01 14:13:09","新北市中和區景新街228-6號","121.508188333333","24.9942233333333","6500300","中和區"
"207002","749-BX","2019/11/01 14:13:28","新北市萬里區溪底里溪底路23號","121.61152","25.14813","6502800","萬里區"
"207001","662-BX","2019/11/01 14:13:26","新北市萬里區磺潭里清水18號","121.637871666667","25.19753","6502800","萬里區"
"236040","KED-0685","2019/11/01 14:13:22","新北市土城區裕生路71號","121.447066666667","24.9846933333333","6501300","土城區"
"220038","KED-0812","2019/11/01 14:13:07","新北市板橋區國光路200號","121.461648333333","25.0184633333333","6500100","板橋區"
"236077","166-UM","2019/11/01 14:13:20","新北市土城區永寧路11號","121.430478333333","24.9641233333333","6501300","土城區"
"236029","253-BX","2019/11/01 14:13:24","新北市土城區中央路二段237號","121.440255","24.97212","6501300","土城區"
"236024","269-VK","2019/11/01 14:13:25","新北市土城區承天路65號","121.439663333333","24.9636066666667","6501300","土城區"
"236013","270-VK","2019/11/01 14:13:22","新北市土城區青雲路39巷7號","121.460338333333","24.9875566666667","6501300","土城區"
"236032","271-VK","2019/11/01 14:13:21","新北市土城區青雲路451巷2弄2號","121.459013333333","24.97459","6501300","土城區"
"247011","KED-0683","2019/11/01 14:13:15","新北市蘆洲區信義路300號","121.477535","25.0876","6501400","蘆洲區"
"236067","KEA-2877","2019/11/01 14:13:17","新北市土城區明德路一段365-1號","121.453348333333","24.9793166666667","6501300","土城區"
"236016","401-BY","2019/11/01 14:13:13","新北市土城區明德路一段103號","121.465611666667","24.9826916666667","6501300","土城區"
"236057","912-UM","2019/11/01 14:13:28","新北市土城區中央路四段251號","121.413206666667","24.954755","6501300","土城區"
"236045","913-UM","2019/11/01 14:13:14","新北市土城區明德路一段365-1號","121.453566666667","24.9790866666667","6501300","土城區"
"236060","915-UM","2019/11/01 14:13:25","新北市土城區金城路三段177號","121.469408333333","24.9886583333333","6501300","土城區"
"236054","AAC-216","2019/11/01 14:13:17","新北市土城區中華路二段189號","121.438561666667","24.974455","6501300","土城區"
"220027","145-BY","2019/11/01 14:13:12","新北市板橋區民權路202巷6弄2號","121.460025","25.0145883333333","6500100","板橋區"
"220028","200-UY","2019/11/01 14:13:28","新北市板橋區大觀路二段3巷3號","121.447488333333","25.003805","6500100","板橋區"
"220040","267-BY","2019/11/01 14:13:28","新北市板橋區八德路二段62號","121.482041666667","25.0271833333333","6500100","板橋區"
"220004","276-BY","2019/11/01 14:13:21","新北市土城區青雲路13號","121.460466666667","24.9892616666667","6500100","板橋區"
"220020","277-BY","2019/11/01 14:13:12","新北市板橋區金門街370號","121.427108333333","24.9839633333333","6500100","板橋區"
"220043","283-UM","2019/11/01 14:13:17","新北市板橋區吳鳳路17巷26弄24號","121.466986666667","25.02968","6500100","板橋區"
"220019","283-VK","2019/11/01 14:13:25","新北市板橋區重慶路327巷19弄1號","121.464605","24.9987216666667","6500100","板橋區"
"220050","285-UM","2019/11/01 14:13:12","新北市板橋區縣民大道三段121巷13號","121.476683333333","25.0231766666667","6500100","板橋區"
"220001","285-VK","2019/11/01 14:13:16","新北市板橋區永豐街148號","121.478156666667","25.021155","6500100","板橋區"
"220107","286-VK","2019/11/01 14:13:16","新北市新莊區瓊林南路73-4號","121.436715","25.0158666666667","6500100","板橋區"
"220029","287-VK","2019/11/01 14:13:24","新北市板橋區南雅西路一段88號","121.453305","25.0058333333333","6500100","板橋區"
"220039","288-VK","2019/11/01 14:13:13","新北市板橋區裕民街80號","121.460688333333","25.0282683333333","6500100","板橋區"
"220009","293-UM","2019/11/01 14:13:18","新北市板橋區中山路二段291-16號","121.478551666667","25.0183233333333","6500100","板橋區"
"220047","295-UM","2019/11/01 14:13:23","新北市板橋區四維路112巷31號","121.465341666667","25.0258033333333","6500100","板橋區"
"220032","296-UM","2019/11/01 14:13:20","新北市板橋區溪北路73巷5號","121.428348333333","24.9899","6500100","板橋區"
"220023","303-R5","2019/11/01 14:13:14","新北市板橋區館前西路146號","121.45618","25.008035","6500100","板橋區"
"220010","305-R5","2019/11/01 14:13:28","新北市板橋區三民路二段居仁巷1弄24號","121.480041666667","25.0135983333333","6500100","板橋區"
"220041","307-R5","2019/11/01 14:13:16","新北市板橋區光武街4巷14號","121.468268333333","25.025825","6500100","板橋區"
"220037","491-VK","2019/11/01 14:13:16","新北市板橋區雙十路二段239號","121.472728333333","25.0289033333333","6500100","板橋區"
"220052","561-BX","2019/11/01 14:13:26","新北市板橋區文化路一段270巷1號","121.467485","25.0207483333333","6500100","板橋區"
"220011","609-BX","2019/11/01 14:13:21","新北市板橋區三民路二段243號","121.479116666667","25.012585","6500100","板橋區"
"220005","686-BX","2019/11/01 14:13:18","新北市板橋區五權街3-4號","121.463828333333","24.994665","6500100","板橋區"
"220025","687-BX","2019/11/01 14:13:29","新北市板橋區龍興街6號","121.442743333333","24.9995766666667","6500100","板橋區"
"220042","689-BX","2019/11/01 14:13:28","新北市板橋區新海路5-1號","121.462715","25.0204516666667","6500100","板橋區"
"220002","741-BX","2019/11/01 14:13:18","新北市板橋區四川路一段168號","121.459936666667","25.0031133333333","6500100","板橋區"
"220051","KEA-2699","2019/11/01 14:13:19","新北市板橋區松柏街1巷33號","121.473346666667","25.03007","6500100","板橋區"
"220003","827-TW","2019/11/01 14:13:17","新北市板橋區新民街6巷16號","121.465033333333","25.010175","6500100","板橋區"
"220014","829-TW","2019/11/01 14:13:21","新北市板橋區中山路二段90巷43弄2號","121.47645","25.014735","6500100","板橋區"
"220016","831-TW","2019/11/01 14:13:14","新北市板橋區三民路一段1巷39號","121.480336666667","25.0248283333333","6500100","板橋區"
"220030","833-TW","2019/11/01 14:13:25","新北市板橋區溪崑二街57號","121.42825","24.9907483333333","6500100","板橋區"
"220022","895-R6","2019/11/01 14:13:23","新北市板橋區後菜園街47號","121.456105","25.0099833333333","6500100","板橋區"
"220021","985-R7","2019/11/01 14:13:17","新北市板橋區中正路187號","121.456413333333","25.016865","6500100","板橋區"
"220046","AAC-210","2019/11/01 14:13:20","新北市板橋區新海路137號","121.460296666667","25.0235816666667","6500100","板橋區"
"220012","AAC-253","2019/11/01 14:13:12","新北市板橋區中山路一段74號","121.461711666667","25.010015","6500100","板橋區"
"235032","KEA-2873","2019/11/01 14:12:57","新北市中和區景平路493-6號","121.499926666667","24.9978516666667","6500300","中和區"
"235025","KEA-2875","2019/11/01 14:13:07","新北市中和區員山路259號","121.481261666667","24.998955","6500300","中和區"
