"lineid","car","time","location","longitude","latitude","cityid","cityname"
"234062","337-UY","2019/11/01 14:43:26","新北市永和區保順路8號","121.50313","25.01202","6500400","永和區"
"234068","552-UM","2019/11/01 14:43:15","新北市板橋區文化路二段652號","121.480146666667","25.0418766666667","6500400","永和區"
"234040","862-TW","2019/11/01 14:43:15","新北市中和區永和路226號","121.490971666667","25.0090016666667","6500400","永和區"
"234025","9371-KE","2019/11/01 14:43:15","新北市永和區雙和街7巷7-1號","121.509505","25.0014866666667","6500400","永和區"
"244004","248-BX","2019/11/01 14:43:24","新北市林口區南勢里34-8號","121.352405","25.07027","6501700","林口區"
"231003","001-UM","2019/11/01 14:43:23","新北市新店區中正路2號","121.545841666667","24.9692933333333","6500600","新店區"
"231030","002-UM","2019/11/01 14:43:15","新北市新店區安民街189號","121.516868333333","24.9710016666667","6500600","新店區"
"231024","0291-UT","2019/11/01 14:43:12","新北市新店區中華路83巷45號","121.538505","24.9677733333333","6500600","新店區"
"231005","046-UY","2019/11/01 14:43:20","新北市新店區復興路44-1號","121.538606666667","24.98682","6500600","新店區"
"231029","106-UY","2019/11/01 14:43:30","新北市新店區安康路三段440-1號","121.484943333333","24.9514266666667","6500600","新店區"
"231018","107-UY","2019/11/01 14:43:23","新北市新店區中央一街20-1號","121.528366666667","24.9731066666667","6500600","新店區"
"231013","108-UY","2019/11/01 14:43:21","新北市新店區北新路二段139巷12弄20號","121.542151666667","24.9761116666667","6500600","新店區"
"231036","110-UY","2019/11/01 14:43:10","新北市新店區安祥路104巷6弄46號","121.48339","24.9635966666667","6500600","新店區"
"231032","256-BX","2019/11/01 14:43:10","新北市新店區光華街38巷11號","121.515793333333","24.970195","6500600","新店區"
"231023","260-TV","2019/11/01 14:43:11","新北市新店區檳榔路105號","121.544536666667","24.96182","6500600","新店區"
"231035","278-BY","2019/11/01 14:43:28","新北市新店區安和路一段53號","121.517526666667","24.9660833333333","6500600","新店區"
"231016","AAD-862","2019/11/01 14:43:22","新北市新店區北宜路三段327-1號","121.607576666667","24.9581866666667","6500600","新店區"
"231006","355-BY","2019/11/01 14:43:17","新北市新店區北宜路二段103號","121.550356666667","24.9525116666667","6500600","新店區"
"231038","3712-VJ","2019/11/01 14:43:12","新北市新店區安華路28-1號","121.519498333333","24.96086","6500600","新店區"
"231027","3713-VJ","2019/11/01 14:43:17","新北市新店區中正路102巷8弄6號","121.543656666667","24.971195","6500600","新店區"
"231022","513-UM","2019/11/01 14:42:09","新北市新店區桂山路173巷6-2號","121.57011","24.885595","6500600","新店區"
"231034","616-UM","2019/11/01 14:43:21","新北市新店區車子路10-4號","121.504721666667","24.9545416666667","6500600","新店區"
"231002","619-UM","2019/11/01 14:43:27","新北市新店區民權路178號","121.534801666667","24.9828283333333","6500600","新店區"
"231012","KED-0819","2019/11/01 14:43:15","新北市新店區寶橋路75號","121.545595","24.9750933333333","6500600","新店區"
"231028","897-TW","2019/11/01 14:43:22","新北市新店區安德街39號","121.511481666667","24.9625366666667","6500600","新店區"
"231001","898-TW","2019/11/01 14:43:08","新北市新店區北新路一段146號","121.543013333333","24.970505","6500600","新店區"
"231004","899-TW","2019/11/01 14:43:24","新北市新店區民族路162號","121.537551666667","24.9767733333333","6500600","新店區"
"231037","AKT-0513","2019/11/01 14:43:26","新北市新店區柴埕路55號","121.51369","24.96524","6500600","新店區"
"235030","003-UY","2019/11/01 14:43:23","新北市中和區中和路196巷9弄7號","121.50554","24.9991933333333","6500300","中和區"
"235027","006-UY","2019/11/01 14:43:23","新北市中和區連城路263巷11弄1號","121.492411666667","24.9954016666667","6500300","中和區"
"235020","096-UM","2019/11/01 14:43:24","新北市中和區民富街4號","121.477028333333","25.005975","6500300","中和區"
"235003","097-UM","2019/11/01 14:43:21","新北市永和區安樂路78號","121.514548333333","24.9984983333333","6500300","中和區"
"235029","098-UM","2019/11/01 14:43:14","新北市中和區永和路90巷4弄2號","121.497506666667","25.00601","6500300","中和區"
"235004","150-BY","2019/11/01 14:43:11","新北市中和區安平路38號","121.509721666667","24.9949466666667","6500300","中和區"
"235019","183-VK","2019/11/01 14:43:29","新北市中和區民享街97巷15號","121.475515","24.9999616666667","6500300","中和區"
"235002","185-VK","2019/11/01 14:43:23","新北市中和區自強路1號","121.51993","24.993945","6500300","中和區"
"235031","255-BX","2019/11/01 14:43:11","新北市中和區新生街172號","121.4837","25.0000416666667","6500300","中和區"
"235008","293-VK","2019/11/01 14:43:16","新北市中和區南山路291號","121.50442","24.9920666666667","6500300","中和區"
"235036","301-VK","2019/11/01 14:43:14","新北市中和區保平路362巷11號","121.505798333333","25.00405","6500300","中和區"
"235007","352-BY","2019/11/01 14:43:10","新北市中和區安和路91號","121.50742","24.99561","6500300","中和區"
"235006","KEA-2878","2019/11/01 14:43:29","新北市中和區宜安路81號","121.510956666667","24.9973883333333","6500300","中和區"
"247015","KEA-2869","2019/11/01 14:43:27","新北市蘆洲區正和街96巷56號","121.467378333333","25.0817733333333","6501400","蘆洲區"
"235034","558-UM","2019/11/01 14:43:25","新北市中和區圓通路172號","121.49719","24.9945916666667","6500300","中和區"
"235018","640-BX","2019/11/01 14:43:25","新北市中和區民治街32巷10號","121.474633333333","25.0035966666667","6500300","中和區"
"235035","647-TV","2019/11/01 14:43:25","新北市中和區建一路148號","121.488048333333","24.9986933333333","6500300","中和區"
"235011","732-UM","2019/11/01 14:43:27","新北市中和區和平街134號","121.506531666667","24.9917633333333","6500300","中和區"
"235010","733-UM","2019/11/01 14:43:25","新北市中和區仁愛街108號","121.511636666667","24.9870466666667","6500300","中和區"
"235005","802-TS","2019/11/01 14:43:25","新北市中和區宜安路116號","121.510405","24.9981283333333","6500300","中和區"
"235016","805-TS","2019/11/01 14:43:18","新北市中和區華新街30巷16號","121.506883333333","24.9843883333333","6500300","中和區"
"235012","896-TW","2019/11/01 14:43:25","新北市中和區忠孝街137號","121.512813333333","24.9882883333333","6500300","中和區"
"235017","900-TW","2019/11/01 14:43:25","新北市中和區國光街171巷6號","121.467525","25.0014883333333","6500300","中和區"
"235015","157-BY","2019/11/01 14:43:14","新北市中和區復興路301巷16號","121.50144","24.9896083333333","6500300","中和區"
"235001","AAC-213","2019/11/01 14:43:24","新北市中和區秀朗路三段128巷1弄22號","121.523708333333","24.9916016666667","6500300","中和區"
"235023","AAC-215","2019/11/01 14:43:13","新北市中和區圓通路305巷18號","121.494955","24.9890766666667","6500300","中和區"
"220104","015-TV","2019/11/01 14:43:15","新北市板橋區新生街98巷20號","121.459076666667","25.0217016666667","6500100","板橋區"
"220013","072-UY","2019/11/01 14:43:15","新北市板橋區民族路222巷15號","121.468746666667","25.0067366666667","6500100","板橋區"
"220034","073-UY","2019/11/01 14:43:29","新北市板橋區國光路173巷3弄2號","121.460315","25.0188933333333","6500100","板橋區"
"220105","075-UY","2019/11/01 14:43:21","新北市板橋區民治街57巷32-1號","121.480255","25.0343433333333","6500100","板橋區"
"220017","AAD-861","2019/11/01 14:43:20","新北市板橋區大明街18-9號","121.458716666667","25.0027516666667","6500100","板橋區"
"247005","893-R6","2019/11/01 14:43:19","新北市蘆洲區中華街41號","121.462961666667","25.08125","6501400","蘆洲區"
"247019","546-UM","2019/11/01 14:43:18","新北市蘆洲區民義街84號","121.473513333333","25.0903833333333","6501400","蘆洲區"
"247023","057-VK","2019/11/01 14:43:13","新北市蘆洲區正和街63巷5號","121.469158333333","25.0808716666667","6501400","蘆洲區"
"247013","056-VK","2019/11/01 14:43:09","新北市蘆洲區成功路136號","121.471996666667","25.08281","6501400","蘆洲區"
"247017","053-VK","2019/11/01 14:43:21","新北市蘆洲區民族路408巷22號","121.475011666667","25.092355","6501400","蘆洲區"
"247007","002-UY","2019/11/01 14:43:21","新北市蘆洲區信義路3號","121.473633333333","25.07919","6501400","蘆洲區"
"247001","001-UY","2019/11/01 14:43:27","新北市蘆洲區長安街250號","121.457703333333","25.0862866666667","6501400","蘆洲區"
"235013","251-BX","2019/11/01 14:43:29","新北市中和區中正路60號","121.501496666667","24.9937433333333","6500300","中和區"
"207002","749-BX","2019/11/01 14:43:28","新北市萬里區崁腳里崁腳路73號","121.64757","25.1596333333333","6502800","萬里區"
"207001","662-BX","2019/11/01 14:43:26","新北市萬里區雙興里豐稟路22-1號","121.640343333333","25.185855","6502800","萬里區"
"236040","KED-0685","2019/11/01 14:43:22","新北市土城區裕民路92巷24弄2號","121.449586666667","24.98611","6501300","土城區"
"220038","KED-0812","2019/11/01 14:43:30","新北市板橋區龍泉街55巷36號","121.457848333333","25.0248133333333","6500100","板橋區"
"236077","166-UM","2019/11/01 14:43:12","新北市土城區中央路四段165巷55號","121.416758333333","24.956","6501300","土城區"
"236029","253-BX","2019/11/01 14:43:24","新北市土城區中央路三段57號","121.439113333333","24.969465","6501300","土城區"
"236024","269-VK","2019/11/01 14:43:25","新北市土城區和平路12號","121.44279","24.973965","6501300","土城區"
"236013","270-VK","2019/11/01 14:43:22","新北市土城區清水路278巷13號","121.462706666667","24.982825","6501300","土城區"
"236032","271-VK","2019/11/01 14:43:21","新北市土城區明德路一段221巷5號","121.46371","24.9781033333333","6501300","土城區"
"247011","KED-0683","2019/11/01 14:43:15","新北市蘆洲區復興路357號","121.487723333333","25.0926116666667","6501400","蘆洲區"
"236067","KEA-2877","2019/11/01 14:43:17","新北市土城區永豐路211-2號","121.4746","24.9763233333333","6501300","土城區"
"236016","401-BY","2019/11/01 14:43:24","新北市土城區延安街39巷1號","121.468248333333","24.9838533333333","6501300","土城區"
"236057","912-UM","2019/11/01 14:43:26","新北市土城區中央路三段93號","121.437306666667","24.967495","6501300","土城區"
"236045","913-UM","2019/11/01 14:43:15","新北市土城區青雲路107-1號","121.459111666667","24.985515","6501300","土城區"
"236060","915-UM","2019/11/01 14:43:28","新北市土城區延壽路13巷18號","121.470591666667","24.99086","6501300","土城區"
"236054","AAC-216","2019/11/01 14:43:17","新北市土城區學府路一段202號","121.452556666667","24.9856433333333","6501300","土城區"
"220027","145-BY","2019/11/01 14:43:12","新北市板橋區民權路202巷13弄34號","121.45869","25.0163","6500100","板橋區"
"220028","200-UY","2019/11/01 14:43:27","新北市板橋區大觀路二段153巷46弄10號","121.449031666667","24.99972","6500100","板橋區"
"220040","267-BY","2019/11/01 14:43:14","新北市板橋區懷德街127巷17號","121.479321666667","25.031185","6500100","板橋區"
"220004","276-BY","2019/11/01 14:43:21","新北市板橋區干城路159號","121.46074","24.9919983333333","6500100","板橋區"
"220020","277-BY","2019/11/01 14:43:28","新北市板橋區金門街215巷45號","121.433533333333","24.98956","6500100","板橋區"
"220043","283-UM","2019/11/01 14:43:17","新北市板橋區陽明街289號","121.461886666667","25.0265116666667","6500100","板橋區"
"220019","283-VK","2019/11/01 14:43:16","新北市板橋區四川路一段479號","121.457113333333","24.997365","6500100","板橋區"
"220050","285-UM","2019/11/01 14:43:12","新北市板橋區八德路三段33巷17-1號","121.473846666667","25.0214466666667","6500100","板橋區"
"220001","285-VK","2019/11/01 14:43:16","新北市板橋區民享街67號","121.47636","25.0154766666667","6500100","板橋區"
"220107","286-VK","2019/11/01 14:43:16","新北市新莊區瓊林南路187巷67號","121.435565","25.0088883333333","6500100","板橋區"
"220029","287-VK","2019/11/01 14:43:24","新北市板橋區大觀路一段29巷95-10號","121.45059","25.0058516666667","6500100","板橋區"
"220039","288-VK","2019/11/01 14:43:27","新北市板橋區文德路55號","121.4614","25.023725","6500100","板橋區"
"220009","293-UM","2019/11/01 14:43:22","新北市板橋區觀光街33巷17號","121.471051666667","25.01582","6500100","板橋區"
"220047","295-UM","2019/11/01 14:43:24","新北市板橋區四維路269巷29號","121.462011666667","25.0277333333333","6500100","板橋區"
"220032","296-UM","2019/11/01 14:43:20","新北市板橋區溪北路15號","121.426893333333","24.9904083333333","6500100","板橋區"
"220023","303-R5","2019/11/01 14:43:19","新北市板橋區中正路305巷18號","121.454618333333","25.019135","6500100","板橋區"
"220010","305-R5","2019/11/01 14:43:28","新北市板橋區中山路二段416巷38弄27號","121.481841666667","25.0194583333333","6500100","板橋區"
"220041","307-R5","2019/11/01 14:43:13","新北市板橋區裕民街133巷3號","121.459246666667","25.027045","6500100","板橋區"
"220037","491-VK","2019/11/01 14:43:16","新北市板橋區仁化街159號","121.47776","25.0333516666667","6500100","板橋區"
"220052","561-BX","2019/11/01 14:43:26","新北市板橋區文化路一段435巷31弄1號","121.466826666667","25.0229983333333","6500100","板橋區"
"220011","609-BX","2019/11/01 14:43:15","新北市板橋區中山路二段553巷4弄7號","121.483433333333","25.022745","6500100","板橋區"
"220005","686-BX","2019/11/01 14:43:18","新北市板橋區廣權路9號","121.460685","24.9912916666667","6500100","板橋區"
"220025","687-BX","2019/11/01 14:43:07","新北市板橋區僑中二街82號","121.446538333333","25.0098683333333","6500100","板橋區"
"220042","689-BX","2019/11/01 14:43:07","新北市板橋區長江路二段59號","121.464658333333","25.0313916666667","6500100","板橋區"
"220002","741-BX","2019/11/01 14:43:18","新北市板橋區忠孝路忠義巷15弄113號","121.465188333333","25.006215","6500100","板橋區"
"220051","KEA-2699","2019/11/01 14:43:19","新北市板橋區仁化街56號","121.475706666667","25.0315966666667","6500100","板橋區"
"220003","827-TW","2019/11/01 14:43:17","新北市板橋區國慶路149巷1弄2號","121.461275","24.9966433333333","6500100","板橋區"
"220014","829-TW","2019/11/01 14:43:25","新北市板橋區長安街259巷1號","121.47313","25.0105033333333","6500100","板橋區"
"220016","831-TW","2019/11/01 14:43:15","新北市板橋區中山路二段412巷37號","121.48396","25.0196016666667","6500100","板橋區"
"220030","833-TW","2019/11/01 14:43:25","新北市板橋區金門街118-3號","121.432978333333","24.9917166666667","6500100","板橋區"
"220022","895-R6","2019/11/01 14:43:25","新北市板橋區大東街12號","121.456591666667","25.00921","6500100","板橋區"
"220021","985-R7","2019/11/01 14:43:18","新北市板橋區中正路328-1號","121.454576666667","25.0213416666667","6500100","板橋區"
"220046","AAC-210","2019/11/01 14:43:14","新北市板橋區光正街40號","121.461853333333","25.017285","6500100","板橋區"
"220012","AAC-253","2019/11/01 14:43:16","新北市板橋區實踐路21號","121.463581666667","25.007335","6500100","板橋區"
"235032","KEA-2873","2019/11/01 14:43:27","新北市中和區中山路二段259號","121.497091666667","25.0023983333333","6500300","中和區"
