"lineid","car","time","location","longitude","latitude","cityid","cityname"
"249005","172-UM","2019/11/01 16:59:23","新北市八里區渡船頭1號","121.434031666667","25.1519033333333","6502300","八里區"
"249004","303-UY","2019/11/01 16:59:18","新北市八里區觀海大道271號","121.414445","25.1614933333333","6502300","八里區"
"249002","305-UY","2019/11/01 16:57:44","新北市八里區牛寮埔28-5號","121.4324","25.14337","6502300","八里區"
"249003","593-UM","2019/11/01 16:59:20","新北市八里區中山路二段283號","121.401565","25.1486983333333","6502300","八里區"
"244007","080-UY","2019/11/01 16:59:12","新北市林口區中湖8鄰50號","121.376553333333","25.091125","6501700","林口區"
"244025","837-TS","2019/11/01 16:59:13","新北市林口區粉寮69號","121.405081666667","25.0908216666667","6501700","林口區"
"244021","838-TS","2019/11/01 16:59:08","新北市林口區粉寮一街79號","121.404383333333","25.08632","6501700","林口區"
"231046","719-UM","2019/11/01 16:59:26","新北市新店區灣潭路15-2號","121.54241","24.94218","6500600","新店區"
"241011","013-R5","2019/11/01 16:59:10","新北市三重區龍門路177號","121.499381666667","25.0730233333333","6500200","三重區"
"241028","022-UY","2019/11/01 16:59:28","新北市三重區中正南路41巷1號","121.493891666667","25.0599033333333","6500200","三重區"
"241008","059-VK","2019/11/01 16:59:18","新北市三重區永福街179巷9號","121.478486666667","25.075015","6500200","三重區"
"241023","060-VK","2019/11/01 16:59:15","新北市三重區忠孝路三段126號","121.480301666667","25.0637316666667","6500200","三重區"
"241031","061-VK","2019/11/01 16:59:09","新北市三重區三寧街32號","121.48982","25.06009","6500200","三重區"
"241015","062-VK","2019/11/01 16:59:14","新北市三重區中央北路97號","121.500361666667","25.06716","6500200","三重區"
"241017","063-VK","2019/11/01 16:59:14","新北市三重區國隆路12巷1號","121.492873333333","25.06387","6500200","三重區"
"241007","066-VK","2019/11/01 16:59:23","新北市三重區三和路四段145巷213號","121.488751666667","25.0794466666667","6500200","三重區"
"241002","090-VK","2019/11/01 16:59:29","新北市三重區仁義街101巷2號","121.497711666667","25.0799333333333","6500200","三重區"
"241003","091-VK","2019/11/01 16:59:24","新北市三重區五華街141巷58號","121.493558333333","25.086805","6500200","三重區"
"241006","262-UM","2019/11/01 16:59:28","新北市三重區三和路四段274巷18號","121.484703333333","25.0768716666667","6500200","三重區"
"241016","266-UM","2019/11/01 16:59:27","新北市三重區大同北路124-1號","121.493021666667","25.0643633333333","6500200","三重區"
"241009","267-UM","2019/11/01 16:59:23","新北市三重區仁美街108巷22號","121.484843333333","25.080525","6500200","三重區"
"241018","268-UM","2019/11/01 16:59:24","新北市三重區民生東街40號","121.493255","25.0691316666667","6500200","三重區"
"241032","269-UM","2019/11/01 16:59:22","新北市三重區新北大道一段35巷22號","121.485963333333","25.060565","6500200","三重區"
"241013","270-UM","2019/11/01 16:59:12","新北市三重區仁福街64巷1號","121.497868333333","25.0747866666667","6500200","三重區"
"241025","271-UM","2019/11/01 16:59:24","新北市三重區中正北路357號","121.472711666667","25.071675","6500200","三重區"
"241030","KED-0822","2019/11/01 16:59:15","新北市三重區成功路21號","121.490171666667","25.0504666666667","6500200","三重區"
"241004","475-VK","2019/11/01 16:59:17","新北市三重區五華街106號","121.492463333333","25.0825033333333","6500200","三重區"
"241020","478-VK","2019/11/01 16:59:25","新北市三重區自強路三段72號","121.486763333333","25.073575","6500200","三重區"
"241026","480-VK","2019/11/01 16:59:18","新北市三重區光興街21號","121.499893333333","25.0603666666667","6500200","三重區"
"241014","543-UM","2019/11/01 16:59:13","新北市三重區介壽路32號","121.500903333333","25.07062","6500200","三重區"
"241001","547-UM","2019/11/01 16:59:21","新北市三重區仁愛街208號","121.493765","25.0776066666667","6500200","三重區"
"241019","KEA-2593","2019/11/01 16:59:25","新北市三重區自強路二段74巷19號","121.487986666667","25.069935","6500200","三重區"
"241005","AAD-863","2019/11/01 16:59:21","新北市三重區永安北路二段25巷1號","121.482096666667","25.0816466666667","6500200","三重區"
"241012","743-BX","2019/11/01 16:59:26","新北市三重區仁壽街122號","121.499346666667","25.0742516666667","6500200","三重區"
"241022","KED-0820","2019/11/01 16:59:20","新北市三重區中華路121號","121.483618333333","25.0638216666667","6500200","三重區"
"241029","942-UM","2019/11/01 16:59:09","新北市三重區中正南路181號","121.49367","25.0552866666667","6500200","三重區"
"241033","AAC-255","2019/11/01 16:59:30","新北市三重區中興北街271號","121.469103333333","25.06064","6500200","三重區"
"247016","KEA-2869","2019/11/01 16:59:29","新北市蘆洲區中正路67號","121.470315","25.0826533333333","6501400","蘆洲區"
"247010","KED-0682","2019/11/01 16:59:27","新北市蘆洲區信義路176號","121.479213333333","25.0840083333333","6501400","蘆洲區"
"247006","893-R6","2019/11/01 16:59:17","新北市蘆洲區長安街99巷13號","121.461213333333","25.08023","6501400","蘆洲區"
"247020","546-UM","2019/11/01 16:59:24","新北市蘆洲區民族路422巷82弄14號","121.47396","25.0939383333333","6501400","蘆洲區"
"247004","341-TH","2019/11/01 16:59:26","新北市蘆洲區長安街108巷3號","121.461023333333","25.0817616666667","6501400","蘆洲區"
"247024","057-VK","2019/11/01 16:59:18","新北市蘆洲區長興路255號","121.46049","25.08753","6501400","蘆洲區"
"247014","056-VK","2019/11/01 16:59:12","新北市蘆洲區三民路1號","121.475956666667","25.08178","6501400","蘆洲區"
"247018","053-VK","2019/11/01 16:59:13","新北市蘆洲區民族路306號","121.47748","25.0899666666667","6501400","蘆洲區"
"247022","007-UY","2019/11/01 16:59:15","新北市蘆洲區三民路128巷140號","121.468463333333","25.092415","6501400","蘆洲區"
"247008","002-UY","2019/11/01 16:59:12","新北市蘆洲區中山一路197巷22號","121.474938333333","25.0799783333333","6501400","蘆洲區"
"247002","001-UY","2019/11/01 16:59:18","新北市蘆洲區永平街1號","121.459203333333","25.0905016666667","6501400","蘆洲區"
"228002","663-BX","2019/11/01 16:59:17","新北市貢寮區貢寮里朝陽街142號","121.90492","25.0235066666667","6502600","貢寮區"
"228001","670-TC","2019/11/01 16:59:22","新北市貢寮區貢寮里朝陽街1-2號","121.912266666667","25.0212816666667","6502600","貢寮區"
"228003","828-UM","2019/11/01 16:59:26","新北市貢寮區福隆里興隆街15號","121.94388","25.0165216666667","6502600","貢寮區"
"224006","676-BX","2019/11/01 16:59:19","新北市瑞芳區大寮路356號","121.785455","25.1028116666667","6501200","瑞芳區"
"224007","285-BY","2019/11/01 16:59:10","新北市瑞芳區粗坑口路9號","121.761541666667","25.0988283333333","6501200","瑞芳區"
"224009","275-VK","2019/11/01 16:59:19","新北市瑞芳區明燈路一段1號","121.826565","25.10935","6501200","瑞芳區"
"224008","273-VK","2019/11/01 16:59:12","新北市瑞芳區明燈路一段267號","121.816715","25.1085566666667","6501200","瑞芳區"
"224005","271-BY","2019/11/01 16:59:18","新北市瑞芳區鼻頭路237號","121.913478333333","25.123975","6501200","瑞芳區"
"227001","642-TC","2019/11/01 16:59:11","新北市雙溪區三貂里政光路6-5號","121.851436666667","25.0718516666667","6502500","雙溪區"
"227002","400-TW","2019/11/01 16:59:21","新北市雙溪區上林里內平林80號","121.828353333333","25.0278483333333","6502500","雙溪區"
"251004","009-UM","2019/11/01 16:59:16","新北市淡水區中山路50號","121.444001666667","25.1703083333333","6501000","淡水區"
"251008","181-VK","2019/11/01 16:59:20","新北市淡水區樹梅坑9號","121.472766666667","25.1427416666667","6501000","淡水區"
"251012","441-VK","2019/11/01 16:59:18","新北市淡水區中正路二段31號","121.419273333333","25.1817616666667","6501000","淡水區"
"251007","442-VK","2019/11/01 16:59:10","新北市淡水區中正東路40號","121.450001666667","25.16525","6501000","淡水區"
"251005","443-VK","2019/11/01 16:59:19","新北市淡水區文化路63號","121.438173333333","25.1728833333333","6501000","淡水區"
"251011","650-BX","2019/11/01 16:59:10","新北市淡水區坪頂路49號","121.45781","25.1625533333333","6501000","淡水區"
"252002","178-VK","2019/11/01 16:59:24","新北市三芝區忠孝街1-17號","121.505576666667","25.2537933333333","6502100","三芝區"
"233002","762-BX","2019/11/01 16:59:14","新北市烏來區環山路86號","121.54858","24.8636266666667","6502900","烏來區"
"247012","KED-0683","2019/11/01 16:59:23","新北市蘆洲區信義路359號","121.477533333333","25.0875316666667","6501400","蘆洲區"
"252001","KED-0821","2019/11/01 16:59:12","新北市三芝區淡金路二段76-1號","121.503835","25.2608516666667","6502100","三芝區"
"242041","AAC-296","2019/11/01 16:59:11","新北市新莊區新泰路357巷3弄57號","121.442096666667","25.0396516666667","6500500","新莊區"
"242005","751-BX","2019/11/01 16:59:11","新北市新莊區新泰路255巷83號","121.442165","25.0387833333333","6500500","新莊區"
"242058","612-BX","2019/11/01 16:59:22","新北市新莊區新泰路357巷3弄57號","121.442296666667","25.0393716666667","6500500","新莊區"
"242023","353-BY","2019/11/01 16:59:16","新北市新莊區新泰路357巷3弄57號","121.441935","25.03917","6500500","新莊區"
"242021","KED-0687","2019/11/01 16:59:20","新北市新莊區三和路12-21號","121.442221666667","25.0381133333333","6500500","新莊區"
"242037","348-TH","2019/11/01 16:59:27","新北市新莊區三和路12-21號","121.441995","25.0388166666667","6500500","新莊區"
"242034","350-TH","2019/11/01 16:59:25","新北市新莊區三和路18-23號","121.441751666667","25.038875","6500500","新莊區"
"242019","351-TH","2019/11/01 16:59:13","新北市新莊區新泰路357巷3弄57號","121.441955","25.0395233333333","6500500","新莊區"
"238023","601-UM","2019/11/01 16:59:08","新北市樹林區福德街3號","121.401628333333","24.975585","6500700","樹林區"
"238018","KEA-2217","2019/11/01 16:59:12","新北市樹林區育德街78-1號","121.388065","24.9681233333333","6500700","樹林區"
"238017","283-BY","2019/11/01 16:59:16","新北市樹林區八德街842-1號","121.392178333333","24.9686083333333","6500700","樹林區"
"238014","282-BY","2019/11/01 16:59:30","新北市樹林區八德街828-11號","121.39268","24.9686316666667","6500700","樹林區"
"239007","AAC-297","2019/11/01 16:59:11","新北市鶯歌區二甲路13-16號","121.345048333333","24.9352216666667","6500800","鶯歌區"
"239006","891-R6","2019/11/01 16:59:14","新北市鶯歌區二甲路12-2號","121.34566","24.9348033333333","6500800","鶯歌區"
"239008","527-UM","2019/11/01 16:59:14","新北市鶯歌區二甲路13-16號","121.345063333333","24.9351233333333","6500800","鶯歌區"
"233001","KEA-2870","2019/11/01 16:59:22","新北市烏來區環山路40號","121.548698333333","24.8638816666667","6502900","烏來區"
"242046","281-VK","2019/11/01 16:59:24","新北市新莊區三和路12-21號","121.44224","25.0384366666667","6500500","新莊區"
"242011","280-VK","2019/11/01 16:59:29","新北市新莊區三和路12-21號","121.441975","25.03824","6500500","新莊區"
