"lineid","car","time","location","longitude","latitude","cityid","cityname"
"249005","172-UM","2019/11/01 17:13:22","新北市八里區華富山13-5號","121.416266666667","25.136365","6502300","八里區"
"249001","173-UM","2019/11/01 17:13:26","新北市八里區中華路二段165巷17號","121.40856","25.150465","6502300","八里區"
"249004","303-UY","2019/11/01 17:13:18","新北市八里區文化街50號","121.423068333333","25.1598883333333","6502300","八里區"
"249002","305-UY","2019/11/01 17:13:24","新北市八里區龍米路二段147巷6號","121.442408333333","25.1502","6502300","八里區"
"249003","593-UM","2019/11/01 17:13:23","新北市八里區中山路二段435號","121.39688","25.14598","6502300","八里區"
"244007","080-UY","2019/11/01 17:13:12","新北市林口區湖子15-3號","121.386041666667","25.0907383333333","6501700","林口區"
"244019","402-UM","2019/11/01 17:13:29","新北市林口區文化二路一段354-1號","121.373205","25.0755533333333","6501700","林口區"
"244013","KEA-2802","2019/11/01 17:13:29","新北市林口區粉寮69號","121.404855","25.090855","6501700","林口區"
"244023","483-VK","2019/11/01 17:13:14","新北市林口區仁愛路一段641號","121.388818333333","25.076615","6501700","林口區"
"244017","485-VK","2019/11/01 17:13:08","新北市林口區粉寮69號","121.405006666667","25.090865","6501700","林口區"
"244009","656-BX","2019/11/01 17:13:10","新北市林口區松柏路72號","121.379375","25.0916283333333","6501700","林口區"
"244025","837-TS","2019/11/01 17:13:13","新北市林口區中山路492號","121.379911666667","25.0824733333333","6501700","林口區"
"244021","838-TS","2019/11/01 17:12:08","新北市林口區粉寮路二段457-21號","121.404146666667","25.0991666666667","6501700","林口區"
"231046","719-UM","2019/11/01 17:00:05","新北市新店區灣潭路15-2號","121.542435","24.9432266666667","6500600","新店區"
"241011","013-R5","2019/11/01 17:13:10","新北市三重區河邊北街100巷23號","121.502971666667","25.0702583333333","6500200","三重區"
"241028","022-UY","2019/11/01 17:13:08","新北市三重區仁化商場3號","121.493518333333","25.0595416666667","6500200","三重區"
"241008","059-VK","2019/11/01 17:13:18","新北市三重區永福街172號","121.481016666667","25.0744983333333","6500200","三重區"
"241023","060-VK","2019/11/01 17:13:15","新北市三重區忠孝路三段126號","121.480298333333","25.06374","6500200","三重區"
"241015","062-VK","2019/11/01 17:13:14","新北市三重區中央北路89巷7號","121.500845","25.0669333333333","6500200","三重區"
"241017","063-VK","2019/11/01 17:13:14","新北市三重區中正北路25巷25弄3號","121.493303333333","25.0626683333333","6500200","三重區"
"241007","066-VK","2019/11/01 17:13:23","新北市三重區三和路四段163巷1號","121.48356","25.0786283333333","6500200","三重區"
"241002","090-VK","2019/11/01 17:13:08","新北市三重區自強路五段54號","121.493535","25.0812716666667","6500200","三重區"
"241003","091-VK","2019/11/01 17:13:24","新北市三重區富福街72號","121.492275","25.0847883333333","6500200","三重區"
"241006","262-UM","2019/11/01 17:13:21","新北市三重區車路頭街129號","121.484228333333","25.0757383333333","6500200","三重區"
"241016","266-UM","2019/11/01 17:13:27","新北市三重區大同北路103號","121.494235","25.064075","6500200","三重區"
"241009","267-UM","2019/11/01 17:13:23","新北市三重區仁愛街654號","121.482716666667","25.0804283333333","6500200","三重區"
"241018","268-UM","2019/11/01 17:13:24","新北市三重區安慶街139號","121.494566666667","25.068925","6500200","三重區"
"241032","269-UM","2019/11/01 17:13:14","新北市三重區興華街90號","121.484218333333","25.0597533333333","6500200","三重區"
"241013","270-UM","2019/11/01 17:13:12","新北市三重區仁愛街106號","121.495285","25.0741633333333","6500200","三重區"
"241025","271-UM","2019/11/01 17:13:24","新北市三重區中正北路560巷13號","121.470886666667","25.0714083333333","6500200","三重區"
"241030","KED-0822","2019/11/01 17:13:15","新北市三重區集成路31號","121.488986666667","25.0524833333333","6500200","三重區"
"241004","475-VK","2019/11/01 17:13:17","新北市三重區五華街110巷17弄7號","121.490853333333","25.08252","6500200","三重區"
"241020","478-VK","2019/11/01 17:13:17","新北市三重區自強路三段9號","121.487283333333","25.07193","6500200","三重區"
"241026","480-VK","2019/11/01 17:13:18","新北市三重區和平街20號","121.500893333333","25.0625616666667","6500200","三重區"
"241014","543-UM","2019/11/01 17:13:27","新北市三重區長榮路9號","121.500358333333","25.0685066666667","6500200","三重區"
"241001","547-UM","2019/11/01 17:13:21","新北市三重區仁愛街269巷30號","121.493875","25.079325","6500200","三重區"
"241019","KEA-2593","2019/11/01 17:13:25","新北市三重區自強路二段74巷37號","121.48744","25.0695666666667","6500200","三重區"
"241005","AAD-863","2019/11/01 17:13:13","新北市三重區永安北路二段5巷30號","121.482683333333","25.081255","6500200","三重區"
"241012","743-BX","2019/11/01 17:13:26","新北市三重區仁興街31巷36號","121.500111666667","25.0756283333333","6500200","三重區"
"241022","KED-0820","2019/11/01 17:13:20","新北市三重區中正北路118巷6號","121.485511666667","25.0649933333333","6500200","三重區"
"241029","942-UM","2019/11/01 17:13:29","新北市三重區重新路四段2號","121.489308333333","25.0582216666667","6500200","三重區"
"241033","AAC-255","2019/11/01 17:13:10","新北市三重區中興北街219號","121.46898","25.0584533333333","6500200","三重區"
"247016","KEA-2869","2019/11/01 17:13:09","新北市蘆洲區光華路72號","121.467936666667","25.08277","6501400","蘆洲區"
"247010","KED-0682","2019/11/01 17:13:27","新北市蘆洲區鷺江街26號","121.478163333333","25.08246","6501400","蘆洲區"
"247006","893-R6","2019/11/01 17:13:17","新北市蘆洲區長安街108巷12號","121.46166","25.082185","6501400","蘆洲區"
"247020","546-UM","2019/11/01 17:13:24","新北市蘆洲區民族路436巷5號","121.472936666667","25.0928783333333","6501400","蘆洲區"
"247004","341-TH","2019/11/01 17:13:26","新北市蘆洲區長安街207巷17號","121.459501666667","25.08178","6501400","蘆洲區"
"247024","057-VK","2019/11/01 17:13:18","新北市蘆洲區長榮路66號","121.462491666667","25.0834533333333","6501400","蘆洲區"
"247014","056-VK","2019/11/01 17:13:12","新北市蘆洲區成功路158巷2號","121.471818333333","25.0834066666667","6501400","蘆洲區"
"247018","053-VK","2019/11/01 17:13:13","新北市蘆洲區復興路112號","121.476135","25.0872416666667","6501400","蘆洲區"
"247022","007-UY","2019/11/01 17:13:15","新北市蘆洲區三民路128巷34號","121.471176666667","25.0885183333333","6501400","蘆洲區"
"247008","002-UY","2019/11/01 17:13:12","新北市蘆洲區信義路30巷124號","121.475186666667","25.0768583333333","6501400","蘆洲區"
"247002","001-UY","2019/11/01 17:13:27","新北市蘆洲區永樂街38巷19弄18號","121.457326666667","25.0892116666667","6501400","蘆洲區"
"228002","663-BX","2019/11/01 17:13:18","新北市貢寮區龍崗里嵩陽街38號","121.909028333333","25.0164833333333","6502600","貢寮區"
"228001","670-TC","2019/11/01 17:13:22","新北市貢寮區仁理村尖山腳街6號","121.92579","25.04834","6502600","貢寮區"
"228003","828-UM","2019/11/01 17:13:20","新北市貢寮區福隆里東興街42號","121.948851666667","25.0179533333333","6502600","貢寮區"
"224006","676-BX","2019/11/01 17:13:19","新北市瑞芳區大寮路63巷11號","121.780365","25.095445","6501200","瑞芳區"
"224009","275-VK","2019/11/01 17:13:19","新北市瑞芳區街頂巷36號","121.843506666667","25.1104766666667","6501200","瑞芳區"
"224008","273-VK","2019/11/01 17:13:12","新北市瑞芳區侯硐路65號","121.829565","25.088825","6501200","瑞芳區"
"224005","271-BY","2019/11/01 17:13:18","新北市瑞芳區鼻頭路247號","121.912685","25.1239533333333","6501200","瑞芳區"
"227001","642-TC","2019/11/01 17:13:11","新北市雙溪區三貂里定福路2號","121.851021666667","25.06674","6502500","雙溪區"
"227002","400-TW","2019/11/01 17:13:21","新北市雙溪區平林里梅竹蹊65號","121.847813333333","25.0314116666667","6502500","雙溪區"
"251004","009-UM","2019/11/01 17:13:19","新北市淡水區中正東路二段88巷15號","121.459038333333","25.150505","6501000","淡水區"
"251008","181-VK","2019/11/01 17:13:20","新北市淡水區民生路169號","121.469708333333","25.1421983333333","6501000","淡水區"
"251010","413-VK","2019/11/01 17:13:11","新北市淡水區中正路二段31號","121.419458333333","25.1815483333333","6501000","淡水區"
"251012","441-VK","2019/11/01 17:13:18","新北市淡水區中山北路一段158號","121.444196666667","25.177875","6501000","淡水區"
"251007","442-VK","2019/11/01 17:13:10","新北市淡水區民生路60號","121.462103333333","25.137965","6501000","淡水區"
"251005","443-VK","2019/11/01 17:13:19","新北市淡水區鄧公路19-1號","121.450253333333","25.1699516666667","6501000","淡水區"
"251006","561-UM","2019/11/01 17:13:23","新北市淡水區真理街6號","121.438405","25.1744866666667","6501000","淡水區"
"251009","575-R6","2019/11/01 17:13:15","新北市淡水區中正路342號","121.434985","25.17369","6501000","淡水區"
"251011","650-BX","2019/11/01 17:13:10","新北市淡水區坪頂路50號","121.457863333333","25.162505","6501000","淡水區"
"251003","766-UM","2019/11/01 17:13:26","新北市淡水區中正路二段31號","121.419456666667","25.18167","6501000","淡水區"
"252002","178-VK","2019/11/01 17:13:24","新北市三芝區忠孝街1-14號","121.505506666667","25.253915","6502100","三芝區"
"233002","762-BX","2019/11/01 17:13:14","新北市烏來區環山路171號","121.548911666667","24.8567733333333","6502900","烏來區"
"247012","KED-0683","2019/11/01 17:13:23","新北市蘆洲區民族路153巷11號","121.479131666667","25.0874616666667","6501400","蘆洲區"
"252001","KED-0821","2019/11/01 17:13:12","新北市三芝區埔頭里埔頭18-2號","121.493593333333","25.2601","6502100","三芝區"
"242041","AAC-296","2019/11/01 17:13:11","新北市新莊區新泰路357巷1弄28號","121.442568333333","25.040595","6500500","新莊區"
"242005","751-BX","2019/11/01 17:13:11","新北市新莊區三和路12-21號","121.442208333333","25.0386133333333","6500500","新莊區"
"242027","705-TV","2019/11/01 17:13:28","新北市新莊區三和路12-17號","121.442181666667","25.0375","6500500","新莊區"
"242029","615-BX","2019/11/01 17:13:10","新北市新莊區幸福路819號","121.445396666667","25.04898","6500500","新莊區"
"242058","612-BX","2019/11/01 17:13:22","新北市新莊區新泰路357巷3弄57號","121.442168333333","25.0391916666667","6500500","新莊區"
"242048","566-BX","2019/11/01 17:13:11","新北市新莊區福營路351號","121.424493333333","25.0282333333333","6500500","新莊區"
"242054","497-BY","2019/11/01 17:13:28","新北市新莊區中正路384號","121.441995","25.0350133333333","6500500","新莊區"
"242002","441-UM","2019/11/01 17:13:24","新北市新莊區瓊泰路63巷19號","121.442156666667","25.0286716666667","6500500","新莊區"
"242007","440-UM","2019/11/01 17:13:18","新北市新莊區三和路12-21號","121.44221","25.038515","6500500","新莊區"
"242044","415-TV","2019/11/01 17:13:29","新北市新莊區中正路535-3號","121.437926666667","25.0331933333333","6500500","新莊區"
"242013","413-TV","2019/11/01 17:13:27","新北市新莊區新泰路357巷3弄57號","121.44205","25.039385","6500500","新莊區"
"242050","400-BY","2019/11/01 17:13:26","新北市新莊區中正路400號","121.441858333333","25.03429","6500500","新莊區"
"242025","362-BY","2019/11/01 17:13:30","新北市新莊區新泰路357巷3弄7號","121.442493333333","25.0410433333333","6500500","新莊區"
"242023","353-BY","2019/11/01 17:13:16","新北市新莊區新泰路357巷3弄19號","121.442543333333","25.0407916666667","6500500","新莊區"
"242039","135-UY","2019/11/01 17:13:12","新北市新莊區新樹路13號","121.44073","25.0330316666667","6500500","新莊區"
"242056","172-VK","2019/11/01 17:13:28","新北市新莊區三和路10-2號","121.44187","25.0354433333333","6500500","新莊區"
"242017","173-VK","2019/11/01 17:13:12","新北市新莊區三和路12-21號","121.442001666667","25.0387033333333","6500500","新莊區"
"242032","175-VK","2019/11/01 17:13:22","新北市新莊區三和路12-21號","121.44201","25.0386283333333","6500500","新莊區"
"242021","KED-0687","2019/11/01 17:13:00","新北市新莊區三和路12-21號","121.442265","25.0380433333333","6500500","新莊區"
"242037","348-TH","2019/11/01 17:13:27","新北市泰山區磚雅厝3號","121.442115","25.04165","6500500","新莊區"
"242009","349-TH","2019/11/01 17:12:01","新北市新莊區三和路12-21號","121.44191","25.038705","6500500","新莊區"
"242034","350-TH","2019/11/01 17:13:25","新北市新莊區瓊林路52號","121.445728333333","25.0287366666667","6500500","新莊區"
"242019","351-TH","2019/11/01 17:13:13","新北市新莊區新泰路255巷83號","121.442555","25.0393816666667","6500500","新莊區"
"238023","601-UM","2019/11/01 17:13:26","新北市樹林區保安街一段346號","121.417855","24.998165","6500700","樹林區"
"238019","599-UM","2019/11/01 17:13:26","新北市樹林區八德街828-8號","121.392826666667","24.9685783333333","6500700","樹林區"
"238018","KEA-2217","2019/11/01 17:13:12","新北市樹林區博愛街233號","121.424168333333","24.9854233333333","6500700","樹林區"
"238022","KEA-2213","2019/11/01 17:13:28","新北市樹林區忠孝街31號","121.423746666667","24.9821933333333","6500700","樹林區"
"238017","283-BY","2019/11/01 17:13:16","新北市樹林區保安街二段65號","121.416023333333","25.00052","6500700","樹林區"
"238014","282-BY","2019/11/01 17:13:10","新北市樹林區長壽街70巷19-1號","121.421833333333","24.9947316666667","6500700","樹林區"
"238020","268-VK","2019/11/01 17:13:20","新北市樹林區千歲街101-2號","121.428491666667","25.000905","6500700","樹林區"
"238016","169-UY","2019/11/01 17:13:30","新北市樹林區八德街1號","121.417545","24.9849933333333","6500700","樹林區"
"239007","AAC-297","2019/11/01 17:13:18","新北市鶯歌區信義街64號","121.353385","24.9545866666667","6500800","鶯歌區"
"239006","891-R6","2019/11/01 17:13:14","新北市鶯歌區德昌二街121號","121.333091666667","24.9567033333333","6500800","鶯歌區"
"239008","527-UM","2019/11/01 17:13:14","新北市鶯歌區文化路136巷52號","121.351068333333","24.9505233333333","6500800","鶯歌區"
"239005","526-UM","2019/11/01 17:13:23","新北市鶯歌區鶯桃路379號","121.333718333333","24.9633816666667","6500800","鶯歌區"
"239001","417-VK","2019/11/01 17:13:15","新北市鶯歌區尖山路140巷12弄1號","121.346333333333","24.949445","6500800","鶯歌區"
"239003","360-BY","2019/11/01 17:13:29","新北市鶯歌區德昌二街70巷32弄83號","121.329893333333","24.95771","6500800","鶯歌區"
"239002","359-BY","2019/11/01 17:13:16","新北市鶯歌區建國路255號","121.347848333333","24.953405","6500800","鶯歌區"
"239004","193-VK","2019/11/01 17:13:23","新北市鶯歌區文化路537號","121.353051666667","24.9479283333333","6500800","鶯歌區"
"233001","KEA-2870","2019/11/01 17:13:22","新北市烏來區溫泉街116號","121.551531666667","24.8600983333333","6502900","烏來區"
"242046","281-VK","2019/11/01 17:13:24","新北市新莊區新樹路69號","121.438985","25.0299716666667","6500500","新莊區"
"242011","280-VK","2019/11/01 17:13:29","新北市新莊區三和路12-21號","121.441953333333","25.03828","6500500","新莊區"
