"lineid","car","time","location","longitude","latitude","cityid","cityname"
"234042","862-TW","2019/11/01 17:40:46","新北市永和區福和路1號","121.526083333333","25.009795","6500400","永和區"
"234026","9371-KE","2019/11/01 17:43:27","新北市永和區永和路一段147-1號","121.514195","25.0091433333333","6500400","永和區"
"249005","172-UM","2019/11/01 17:43:22","新北市八里區荖阡坑路34-1號","121.402761666667","25.129765","6502300","八里區"
"249001","173-UM","2019/11/01 17:43:26","新北市八里區龍米路二段153-8號","121.440151666667","25.1535316666667","6502300","八里區"
"249004","303-UY","2019/11/01 17:43:18","新北市八里區中華路一段88號","121.420641666667","25.157675","6502300","八里區"
"249002","305-UY","2019/11/01 17:43:24","新北市八里區龍形二街17號","121.450611666667","25.1315283333333","6502300","八里區"
"249003","593-UM","2019/11/01 17:43:20","新北市八里區中山路二段212號","121.405388333333","25.1518466666667","6502300","八里區"
"232011","375-UM","2019/11/01 17:43:16","新北市坪林區北宜路八段103號","121.706095","24.9348433333333","6502000","坪林區"
"244007","080-UY","2019/11/01 17:43:12","新北市林口區林口路135號","121.38865","25.0811633333333","6501700","林口區"
"244019","402-UM","2019/11/01 17:43:09","新北市林口區忠孝路542巷11弄6號","121.373366666667","25.0670566666667","6501700","林口區"
"244013","KEA-2802","2019/11/01 17:43:29","新北市林口區中山路151號","121.386828333333","25.0792383333333","6501700","林口區"
"244023","483-VK","2019/11/01 17:43:14","新北市林口區興林路366號","121.38898","25.0691783333333","6501700","林口區"
"244017","485-VK","2019/11/01 17:43:28","新北市林口區文化二路一段250號","121.370616666667","25.07324","6501700","林口區"
"244009","656-BX","2019/11/01 17:43:10","新北市林口區林口路297巷5號","121.385655","25.084645","6501700","林口區"
"244011","701-TV","2019/11/01 17:43:26","新北市林口區中正路246號","121.389915","25.077705","6501700","林口區"
"244025","837-TS","2019/11/01 17:43:13","新北市林口區文化三路一段181號","121.362185","25.0701066666667","6501700","林口區"
"244021","838-TS","2019/11/01 17:43:27","新北市林口區仁愛路一段123巷15號","121.398033333333","25.070615","6501700","林口區"
"243010","297-R6","2019/11/01 17:43:15","新北市泰山區黎明路25號","121.421906666667","25.0609883333333","6501600","泰山區"
"222003","436-BY","2019/11/01 17:43:14","新北市深坑區北深路二段116號","121.616731666667","25.0032183333333","6501800","深坑區"
"241015","062-VK","2019/11/01 17:43:14","新北市三重區新北大道一段7號","121.489766666667","25.0613116666667","6500200","三重區"
"241007","066-VK","2019/11/01 17:43:23","新北市三重區三和路四段145巷188號","121.48891","25.0797516666667","6500200","三重區"
"241016","266-UM","2019/11/01 17:43:07","新北市三重區新北大道一段7號","121.489573333333","25.0613866666667","6500200","三重區"
"241014","543-UM","2019/11/01 17:43:13","新北市三重區龍濱路283巷8號","121.501188333333","25.0736516666667","6500200","三重區"
"241019","KEA-2593","2019/11/01 17:43:24","新北市三重區自強路二段74巷25號","121.48776","25.069615","6500200","三重區"
"241033","AAC-255","2019/11/01 17:43:30","新北市三重區光復路一段11號","121.472123333333","25.0471616666667","6500200","三重區"
"247016","KEA-2869","2019/11/01 17:43:29","新北市蘆洲區中正路185巷31弄14號","121.466533333333","25.0839166666667","6501400","蘆洲區"
"247010","KED-0682","2019/11/01 17:43:27","新北市蘆洲區民族路58號","121.47713","25.08463","6501400","蘆洲區"
"235045","565-BX","2019/11/01 17:43:22","新北市中和區員山路36巷13號","121.484163333333","24.990945","6500300","中和區"
"247006","893-R6","2019/11/01 17:43:17","新北市蘆洲區長安街23巷15號","121.463603333333","25.0786516666667","6501400","蘆洲區"
"247020","546-UM","2019/11/01 17:43:24","新北市蘆洲區民義街101巷11號","121.473271666667","25.0911216666667","6501400","蘆洲區"
"247004","341-TH","2019/11/01 17:43:26","新北市蘆洲區長安街172巷11號","121.459593333333","25.0835833333333","6501400","蘆洲區"
"247024","057-VK","2019/11/01 17:43:18","新北市蘆洲區光榮路101巷28號","121.464018333333","25.0902183333333","6501400","蘆洲區"
"247014","056-VK","2019/11/01 17:43:12","新北市蘆洲區中正路36號","121.471128333333","25.0823933333333","6501400","蘆洲區"
"247018","053-VK","2019/11/01 17:43:13","新北市蘆洲區民權路60號","121.475305","25.08705","6501400","蘆洲區"
"247022","007-UY","2019/11/01 17:43:15","新北市蘆洲區中正路264巷21號","121.466021666667","25.0900883333333","6501400","蘆洲區"
"247008","002-UY","2019/11/01 17:43:12","新北市蘆洲區和平路29巷6號","121.471926666667","25.0788483333333","6501400","蘆洲區"
"247002","001-UY","2019/11/01 17:43:13","新北市蘆洲區永平街32巷11弄10號","121.458621666667","25.0914733333333","6501400","蘆洲區"
"228002","663-BX","2019/11/01 17:43:17","新北市貢寮區福隆里外隆林街14-1號","121.959131666667","25.00363","6502600","貢寮區"
"228001","670-TC","2019/11/01 17:43:22","新北市貢寮區真理里新港街26巷28-6號","121.927801666667","25.05544","6502600","貢寮區"
"228003","828-UM","2019/11/01 17:43:20","新北市貢寮區真理里延平街42號","121.924578333333","25.0567116666667","6502600","貢寮區"
"224006","676-BX","2019/11/01 17:43:19","新北市瑞芳區傑魚坑路165號","121.789716666667","25.109545","6501200","瑞芳區"
"224009","275-VK","2019/11/01 17:43:19","新北市瑞芳區山尖路215-1號","121.84884","25.1124783333333","6501200","瑞芳區"
"224008","273-VK","2019/11/01 17:43:13","新北市瑞芳區明燈路一段18巷6-1號","121.822718333333","25.10761","6501200","瑞芳區"
"224005","271-BY","2019/11/01 17:43:18","新北市瑞芳區海濱路38-1號","121.831015","25.1234666666667","6501200","瑞芳區"
"227001","642-TC","2019/11/01 17:22:40","新北市雙溪區三貂里定福路1-2號","121.850728333333","25.0633816666667","6502500","雙溪區"
"227002","400-TW","2019/11/01 17:43:21","新北市雙溪區共和里東榮街52號","121.866293333333","25.0336766666667","6502500","雙溪區"
"253006","295-VK","2019/11/01 17:43:20","新北市石門區中央路6號","121.5666","25.2913533333333","6502200","石門區"
"251004","009-UM","2019/11/01 17:43:14","新北市淡水區民權路39號","121.459331666667","25.14109","6501000","淡水區"
"251008","181-VK","2019/11/01 17:43:20","新北市淡水區八勢路一段123巷14號","121.46675","25.15755","6501000","淡水區"
"251010","413-VK","2019/11/01 17:43:11","新北市淡水區淡海路280巷33弄34-2號","121.418721666667","25.1886033333333","6501000","淡水區"
"251012","441-VK","2019/11/01 17:43:18","新北市淡水區淡金路一段571號","121.45282","25.1806366666667","6501000","淡水區"
"251007","442-VK","2019/11/01 17:43:30","新北市淡水區民生路52巷23號","121.462826666667","25.1377266666667","6501000","淡水區"
"251005","443-VK","2019/11/01 17:43:19","新北市淡水區鄧公路35巷2號","121.451581666667","25.1713466666667","6501000","淡水區"
"251006","561-UM","2019/11/01 17:43:23","新北市淡水區大信街24巷2號","121.441921666667","25.1766583333333","6501000","淡水區"
"251009","575-R6","2019/11/01 17:43:15","新北市淡水區中正路38-1號","121.443725","25.1692666666667","6501000","淡水區"
"251011","650-BX","2019/11/01 17:43:10","新北市淡水區小坪頂85號","121.485246666667","25.159705","6501000","淡水區"
"251002","672-BX","2019/11/01 17:43:26","新北市淡水區中山路141號","121.440768333333","25.1717166666667","6501000","淡水區"
"251003","766-UM","2019/11/01 17:43:26","新北市淡水區大仁街69號","121.442995","25.176295","6501000","淡水區"
"207003","681-TV","2019/11/01 17:43:16","新北市萬里區龜吼里漁澳路26號","121.685926666667","25.19505","6502800","萬里區"
"207004","291-VK","2019/11/01 17:43:15","新北市萬里區中幅里中福路8-1號","121.685855","25.1645366666667","6502800","萬里區"
"252002","178-VK","2019/11/01 17:43:24","新北市三芝區智成街73號","121.504518333333","25.2560466666667","6502100","三芝區"
"237004","KEA-2597","2019/11/01 17:43:27","新北市三峽區中山路459巷90-1號","121.354705","24.9360866666667","6500900","三峽區"
"237013","252-BX","2019/11/01 17:43:23","新北市三峽區安溪路309巷7號","121.373396666667","24.9333833333333","6500900","三峽區"
"237014","433-BY","2019/11/01 17:43:21","新北市三峽區中山路240號","121.362391666667","24.9373983333333","6500900","三峽區"
"237011","KEA-2596","2019/11/01 17:43:18","新北市三峽區大智路2號","121.360483333333","24.9370016666667","6500900","三峽區"
"237010","706-TV","2019/11/01 17:43:24","新北市三峽區中山路127號","121.365385","24.936","6500900","三峽區"
"237005","AKY-6261","2019/11/01 17:43:09","新北市三峽區中山路459巷135號","121.348613333333","24.9329833333333","6500900","三峽區"
"236079","166-UM","2019/11/01 17:40:40","新北市土城區中央路二段280號","121.440616666667","24.9740383333333","6501300","土城區"
"236030","253-BX","2019/11/01 17:43:16","新北市土城區城林路6巷80號","121.438681666667","24.979675","6501300","土城區"
"236014","270-VK","2019/11/01 17:43:14","新北市土城區城林路6巷80號","121.438441666667","24.9795966666667","6501300","土城區"
"236039","271-VK","2019/11/01 17:43:30","新北市土城區城林路6巷80號","121.438396666667","24.9798183333333","6501300","土城區"
"247012","KED-0683","2019/11/01 17:43:23","新北市蘆洲區復興路60巷1弄21號","121.47545","25.086435","6501400","蘆洲區"
"252001","KED-0821","2019/11/01 17:43:12","新北市三芝區中山路一段12號","121.50081","25.2584866666667","6502100","三芝區"
"236020","401-BY","2019/11/01 17:43:09","新北市土城區城林路6巷80號","121.438641666667","24.9797466666667","6501300","土城區"
"242041","AAC-296","2019/11/01 17:43:11","新北市新莊區中正路514號","121.429736666667","25.03529","6500500","新莊區"
"242060","986-R7","2019/11/01 17:43:28","新北市新莊區瓊林南路75號","121.434843333333","25.014515","6500500","新莊區"
"242005","751-BX","2019/11/01 17:43:31","新北市新莊區自立街216號","121.457143333333","25.045395","6500500","新莊區"
"242027","705-TV","2019/11/01 17:43:29","新北市新莊區福壽街87號","121.458133333333","25.0501583333333","6500500","新莊區"
"242029","615-BX","2019/11/01 17:43:30","新北市新莊區復興路一段107號","121.449236666667","25.0429716666667","6500500","新莊區"
"242058","612-BX","2019/11/01 17:43:22","新北市新莊區中正路654號","121.421248333333","25.0285616666667","6500500","新莊區"
"242048","566-BX","2019/11/01 17:43:31","新北市新莊區萬安街121號","121.420693333333","25.0224883333333","6500500","新莊區"
"242054","497-BY","2019/11/01 17:43:28","新北市新莊區新樹路699巷16號","121.432513333333","25.0018966666667","6500500","新莊區"
"242002","441-UM","2019/11/01 17:43:24","新北市新莊區新莊路328號","121.450556666667","25.0336383333333","6500500","新莊區"
"242007","440-UM","2019/11/01 17:43:18","新北市新莊區福樂街118巷5號","121.457251666667","25.0480516666667","6500500","新莊區"
"242044","415-TV","2019/11/01 17:43:24","新北市新莊區中正路871巷23號","121.419316666667","25.0266433333333","6500500","新莊區"
"242013","413-TV","2019/11/01 17:43:26","新北市新莊區中誠街144號","121.448716666667","25.0476216666667","6500500","新莊區"
"242050","400-BY","2019/11/01 17:43:26","新北市新莊區西盛街313號","121.428095","25.0152066666667","6500500","新莊區"
"242025","362-BY","2019/11/01 17:43:10","新北市新莊區思源路269號","121.460188333333","25.047765","6500500","新莊區"
"242023","353-BY","2019/11/01 17:43:16","新北市新莊區民樂街67號","121.457893333333","25.0418366666667","6500500","新莊區"
"242015","132-UY","2019/11/01 17:43:31","新北市新莊區新泰路400號","121.443863333333","25.0436983333333","6500500","新莊區"
"242039","135-UY","2019/11/01 17:43:24","新北市新莊區民安路143號","121.425251666667","25.0239333333333","6500500","新莊區"
"242056","172-VK","2019/11/01 17:43:28","新北市新莊區瓊林路38-9號","121.44809","25.030305","6500500","新莊區"
"242017","173-VK","2019/11/01 17:43:12","新北市新莊區復興路一段107號","121.449208333333","25.0429833333333","6500500","新莊區"
"242032","175-VK","2019/11/01 17:43:24","新北市新莊區新泰路349號","121.44464","25.0422516666667","6500500","新莊區"
"242021","KED-0687","2019/11/01 17:43:20","新北市新莊區中華路一段120號","121.452458333333","25.040645","6500500","新莊區"
"242037","348-TH","2019/11/01 17:43:26","新北市新莊區建福路69巷43號","121.428775","25.027615","6500500","新莊區"
"242009","349-TH","2019/11/01 17:43:21","新北市新莊區昌明街30巷19號","121.456691666667","25.053565","6500500","新莊區"
"242034","350-TH","2019/11/01 17:43:25","新北市新莊區新莊路546號","121.44517","25.0329283333333","6500500","新莊區"
"242019","351-TH","2019/11/01 17:43:13","新北市新莊區中港路203號","121.454885","25.041915","6500500","新莊區"
"238015","755-BX","2019/11/01 17:43:09","新北市樹林區長壽街70巷1弄4號","121.421038333333","24.9947516666667","6500700","樹林區"
"238023","601-UM","2019/11/01 17:43:26","新北市樹林區福興街3巷11號","121.404808333333","25.0168383333333","6500700","樹林區"
"238019","599-UM","2019/11/01 17:43:26","新北市樹林區中華路82號","121.419","24.98131","6500700","樹林區"
"238024","5061-A6","2019/11/01 17:43:15","新北市樹林區中山路三段204號","121.38731","24.968425","6500700","樹林區"
"238018","KEA-2217","2019/11/01 17:43:12","新北市樹林區博愛街24號","121.42746","24.9927616666667","6500700","樹林區"
"238022","KEA-2213","2019/11/01 17:43:07","新北市樹林區太元街29號","121.41835","24.97976","6500700","樹林區"
"238021","KEA-2539","2019/11/01 17:43:11","新北市樹林區柑園街一段73號","121.401975","24.960265","6500700","樹林區"
"238025","303-VK","2019/11/01 17:43:30","新北市樹林區保安街三段55-1號","121.412565","25.011575","6500700","樹林區"
"238017","283-BY","2019/11/01 17:43:16","新北市樹林區三德街24-2號","121.414171666667","25.0130166666667","6500700","樹林區"
"238014","282-BY","2019/11/01 17:43:10","新北市樹林區大安路179號","121.421203333333","24.9962566666667","6500700","樹林區"
"238020","268-VK","2019/11/01 17:43:20","新北市樹林區俊英街118號","121.427476666667","25.00566","6500700","樹林區"
"238026","172-UY","2019/11/01 17:43:26","新北市樹林區新興街19巷36弄25號","121.402636666667","24.9729783333333","6500700","樹林區"
"238016","169-UY","2019/11/01 17:43:16","新北市樹林區復興路260號","121.418236666667","24.9888516666667","6500700","樹林區"
"239007","AAC-297","2019/11/01 17:42:51","新北市鶯歌區永明街77號","121.341896666667","24.9557866666667","6500800","鶯歌區"
"239006","891-R6","2019/11/01 17:43:14","新北市鶯歌區永和街153號","121.3345","24.969305","6500800","鶯歌區"
"239008","527-UM","2019/11/01 17:43:14","新北市鶯歌區大湖路590巷1號","121.335806666667","24.9739166666667","6500800","鶯歌區"
"239005","526-UM","2019/11/01 17:43:23","新北市鶯歌區福隆二街73號","121.324","24.9715066666667","6500800","鶯歌區"
"239001","417-VK","2019/11/01 17:43:15","新北市鶯歌區中正三路281號","121.33202","24.9377583333333","6500800","鶯歌區"
"239003","360-BY","2019/11/01 17:43:29","新北市鶯歌區鶯桃路206巷42-1號","121.337931666667","24.959985","6500800","鶯歌區"
"239002","359-BY","2019/11/01 17:43:16","新北市鶯歌區南雅路499號","121.345126666667","24.9542416666667","6500800","鶯歌區"
"239004","193-VK","2019/11/01 17:43:22","新北市鶯歌區三鶯路15號","121.356316666667","24.9413583333333","6500800","鶯歌區"
"221008","489-VK","2019/11/01 17:43:25","新北市汐止區康寧街901號","121.651438333333","25.0750583333333","6501100","汐止區"
"221010","269-BY","2019/11/01 17:43:21","新北市汐止區汐萬路一段418巷40號","121.650743333333","25.0788433333333","6501100","汐止區"
"221029","298-VK","2019/11/01 17:43:14","新北市汐止區康寧街901號","121.651696666667","25.0749533333333","6501100","汐止區"
"233001","KEA-2870","2019/11/01 17:43:22","新北市烏來區信福路2巷2號","121.534483333333","24.8389666666667","6502900","烏來區"
"242046","281-VK","2019/11/01 17:43:24","新北市新莊區中正路589號","121.434143333333","25.0323083333333","6500500","新莊區"
"242011","280-VK","2019/11/01 17:43:09","新北市新莊區中港路649號","121.451015","25.0550383333333","6500500","新莊區"
