"lineid","car","time","location","longitude","latitude","cityid","cityname"
"234042","862-TW","2019/11/01 17:40:46","新北市永和區福和路1號","121.526083333333","25.009795","6500400","永和區"
"234026","9371-KE","2019/11/01 17:59:27","新北市永和區永和路一段41號","121.512798333333","25.006225","6500400","永和區"
"249005","172-UM","2019/11/01 17:59:22","新北市八里區荖阡坑路20-9號","121.398568333333","25.1371516666667","6502300","八里區"
"249001","173-UM","2019/11/01 17:59:26","新北市八里區龍米路二段30號","121.44865","25.1400366666667","6502300","八里區"
"249004","303-UY","2019/11/01 17:59:18","新北市八里區龍米路三段15號","121.428106666667","25.1588433333333","6502300","八里區"
"249002","305-UY","2019/11/01 17:59:24","新北市八里區龍形五街5號","121.450386666667","25.13357","6502300","八里區"
"249003","593-UM","2019/11/01 17:59:20","新北市八里區中華路二段203號","121.40533","25.1494683333333","6502300","八里區"
"248008","KED-0815","2019/11/01 17:59:25","新北市五股區中興路二段150號","121.458691666667","25.078455","6501500","五股區"
"248018","KED-0813","2019/11/01 17:59:25","新北市五股區中興路二段57-6號","121.46039","25.0752966666667","6501500","五股區"
"248004","677-BX","2019/11/01 17:59:22","新北市五股區中興路二段103巷14號","121.45846","25.0762766666667","6501500","五股區"
"232011","375-UM","2019/11/01 17:59:16","新北市坪林區北宜路八段229號","121.709048333333","24.935005","6502000","坪林區"
"244007","080-UY","2019/11/01 17:59:12","新北市林口區林口路124巷10弄1號","121.389083333333","25.081775","6501700","林口區"
"244019","402-UM","2019/11/01 17:59:09","新北市林口區文化一路一段100巷8弄6號","121.373555","25.0704716666667","6501700","林口區"
"244013","KEA-2802","2019/11/01 17:59:09","新北市林口區中山路23-1號","121.395931666667","25.0783616666667","6501700","林口區"
"244023","483-VK","2019/11/01 17:59:14","新北市林口區東湖一街71號","121.385343333333","25.07258","6501700","林口區"
"244017","485-VK","2019/11/01 17:59:28","新北市林口區忠孝路372號","121.369276666667","25.07136","6501700","林口區"
"244009","656-BX","2019/11/01 17:59:10","新北市林口區竹林路614號","121.38645","25.0825","6501700","林口區"
"244011","701-TV","2019/11/01 17:59:26","新北市林口區中正路30巷6號","121.395901666667","25.0776866666667","6501700","林口區"
"244025","837-TS","2019/11/01 17:59:13","新北市林口區八德路408號","121.35771","25.0659416666667","6501700","林口區"
"244021","838-TS","2019/11/01 17:59:27","新北市林口區仁愛路一段215號","121.39823","25.074665","6501700","林口區"
"243010","297-R6","2019/11/01 17:44:52","新北市泰山區黎明路25號","121.421901666667","25.0609333333333","6501600","泰山區"
"222003","436-BY","2019/11/01 17:59:14","新北市深坑區炮子崙23號","121.60723","24.990955","6501800","深坑區"
"222002","659-BX","2019/11/01 17:59:13","新北市深坑區文化街96號","121.61713","25.001925","6501800","深坑區"
"231040","898-TW","2019/11/01 17:59:21","新北市新店區安華路28-1號","121.519491666667","24.960935","6500600","新店區"
"241007","066-VK","2019/11/01 17:59:23","新北市三重區溪尾街56號","121.490548333333","25.0775616666667","6500200","三重區"
"241016","266-UM","2019/11/01 17:59:27","新北市五股區孝義路11號","121.451593333333","25.1065766666667","6500200","三重區"
"241033","AAC-255","2019/11/01 17:59:10","新北市三重區光復路一段62號","121.472018333333","25.04891","6500200","三重區"
"235064","005-UY","2019/11/01 17:59:28","新北市中和區中正路275號","121.495441666667","24.99378","6500300","中和區"
"235063","006-UY","2019/11/01 17:59:16","新北市中和區員山路36巷16-3號","121.484906666667","24.9912833333333","6500300","中和區"
"235065","098-UM","2019/11/01 17:59:14","新北市中和區中山路二段441號","121.48456","25.0045233333333","6500300","中和區"
"235058","151-BY","2019/11/01 17:59:16","新北市中和區圓通路367巷4號","121.491358333333","24.9893366666667","6500300","中和區"
"235038","185-VK","2019/11/01 17:59:09","新北市中和區景平路291號","121.50723","24.9931033333333","6500300","中和區"
"235044","293-VK","2019/11/01 17:59:19","新北市中和區員山路36巷16-3號","121.48507","24.9913116666667","6500300","中和區"
"235042","KEA-2878","2019/11/01 17:59:15","新北市中和區中正路637巷52弄1號","121.485508333333","24.99338","6500300","中和區"
"247016","KEA-2869","2019/11/01 17:59:29","新北市蘆洲區光華路110巷32號","121.466145","25.0841816666667","6501400","蘆洲區"
"235045","565-BX","2019/11/01 17:59:22","新北市中和區員山路36巷16-3號","121.484821666667","24.9912933333333","6500300","中和區"
"235062","800-TS","2019/11/01 17:59:30","新北市中和區民樂路77號","121.48449","25.001335","6500300","中和區"
"235052","805-TS","2019/11/01 17:59:28","新北市中和區員山路36巷16-3號","121.484956666667","24.99152","6500300","中和區"
"235051","157-BY","2019/11/01 17:59:21","新北市中和區員山路36巷16-3號","121.485063333333","24.9915","6500300","中和區"
"235037","AAC-213","2019/11/01 17:59:01","新北市中和區景平路155號","121.513551666667","24.99215","6500300","中和區"
"247006","893-R6","2019/11/01 17:59:17","新北市蘆洲區中華街31號","121.46326","25.0815216666667","6501400","蘆洲區"
"247014","056-VK","2019/11/01 17:59:12","新北市蘆洲區三民路125號","121.47229","25.0862733333333","6501400","蘆洲區"
"247018","053-VK","2019/11/01 17:59:13","新北市蘆洲區中興街152號","121.48189","25.0901516666667","6501400","蘆洲區"
"247008","002-UY","2019/11/01 17:59:18","新北市蘆洲區成功路31號","121.473061666667","25.079685","6501400","蘆洲區"
"247002","001-UY","2019/11/01 17:59:13","新北市蘆洲區永平街32巷57弄12號","121.459325","25.0930716666667","6501400","蘆洲區"
"228002","663-BX","2019/11/01 17:59:17","新北市貢寮區福連里香蘭街3-4號","121.971851666667","25.02452","6502600","貢寮區"
"228001","670-TC","2019/11/01 17:59:22","新北市貢寮區仁理村仁愛路106巷36號","121.929301666667","25.0540483333333","6502600","貢寮區"
"228003","828-UM","2019/11/01 17:59:20","新北市貢寮區真理里美艷山街6-2號","121.928856666667","25.0607583333333","6502600","貢寮區"
"224006","676-BX","2019/11/01 17:59:19","新北市瑞芳區傑魚坑路183號","121.788576666667","25.1082283333333","6501200","瑞芳區"
"224007","285-BY","2019/11/01 17:59:10","新北市瑞芳區大寮路84號","121.780346666667","25.1011633333333","6501200","瑞芳區"
"224009","275-VK","2019/11/01 17:59:19","新北市瑞芳區山尖路189號","121.850978333333","25.1126616666667","6501200","瑞芳區"
"224008","273-VK","2019/11/01 17:59:12","新北市瑞芳區明燈路一段45巷100號","121.821196666667","25.1040116666667","6501200","瑞芳區"
"224005","271-BY","2019/11/01 17:58:57","新北市瑞芳區深澳路133-1號","121.819888333333","25.13287","6501200","瑞芳區"
"227002","400-TW","2019/11/01 17:59:21","新北市雙溪區共和里東榮街52號","121.866305","25.0336533333333","6502500","雙溪區"
"253005","032-BX","2019/11/01 17:59:24","新北市石門區中山路62-11號","121.567536666667","25.2897016666667","6502200","石門區"
"253006","295-VK","2019/11/01 17:59:20","新北市石門區大丘田45-2號","121.549821666667","25.2748383333333","6502200","石門區"
"222001","KEA-2212","2019/11/01 17:59:30","新北市深坑區北深路二段220號","121.612441666667","25.0013283333333","6501800","深坑區"
"208002","KEA-2872","2019/11/01 17:59:19","新北市金山區三界壇路93-1號","121.62443","25.22876","6502700","金山區"
"208003","665-BX","2019/11/01 17:59:12","新北市金山區磺港里磺港路202-1號","121.645133333333","25.227505","6502700","金山區"
"251004","009-UM","2019/11/01 17:59:14","新北市淡水區民權路187巷34號","121.460543333333","25.1334533333333","6501000","淡水區"
"251008","181-VK","2019/11/01 17:59:20","新北市淡水區八勢一街77號","121.461423333333","25.1549983333333","6501000","淡水區"
"251010","413-VK","2019/11/01 17:59:11","新北市淡水區中正路一段132巷20號","121.422823333333","25.1798683333333","6501000","淡水區"
"251012","441-VK","2019/11/01 17:59:18","新北市淡水區北新路三段38巷7號","121.48444","25.18698","6501000","淡水區"
"251007","442-VK","2019/11/01 17:59:10","新北市淡水區民權路13-5號","121.459743333333","25.1420516666667","6501000","淡水區"
"251005","443-VK","2019/11/01 17:59:19","新北市淡水區英專路133號","121.446423333333","25.1727083333333","6501000","淡水區"
"251006","561-UM","2019/11/01 17:59:26","新北市淡水區新生街17號","121.438885","25.173345","6501000","淡水區"
"251009","575-R6","2019/11/01 17:59:15","新北市淡水區中山路108巷16號","121.442121666667","25.17115","6501000","淡水區"
"251011","650-BX","2019/11/01 17:52:30","新北市淡水區吳(仔)厝10-3號","121.481873333333","25.1491683333333","6501000","淡水區"
"251002","672-BX","2019/11/01 17:59:26","新北市淡水區鼻頭街18-5號","121.44681","25.1667183333333","6501000","淡水區"
"251003","766-UM","2019/11/01 17:59:26","新北市淡水區大忠街45號","121.444703333333","25.1763566666667","6501000","淡水區"
"207003","681-TV","2019/11/01 17:59:11","新北市萬里區野柳里東澳路66號","121.69273","25.2009566666667","6502800","萬里區"
"207004","291-VK","2019/11/01 17:59:14","新北市萬里區萬里里瑪鋉路5號","121.686073333333","25.174935","6502800","萬里區"
"252002","178-VK","2019/11/01 17:59:24","新北市三芝區中山路二段39號","121.50294","25.2551683333333","6502100","三芝區"
"208001","170-UY","2019/11/01 17:59:23","新北市金山區磺港里磺港路160號","121.644776666667","25.2257216666667","6502700","金山區"
"237004","KEA-2597","2019/11/01 17:59:27","新北市三峽區中正路二段168號","121.366","24.9153383333333","6500900","三峽區"
"237007","153-BY","2019/11/01 17:59:13","新北市三峽區中園街126-14號","121.367046666667","24.9213166666667","6500900","三峽區"
"237009","210-TH","2019/11/01 17:59:14","新北市三峽區大勇路36巷13號","121.366041666667","24.9370033333333","6500900","三峽區"
"237013","252-BX","2019/11/01 17:59:22","新北市三峽區長泰街70-2號","121.376768333333","24.933565","6500900","三峽區"
"237012","275-BY","2019/11/01 17:59:27","新北市三峽區民生街21號","121.376175","24.9365416666667","6500900","三峽區"
"237008","302-VK","2019/11/01 17:59:21","新北市三峽區白雞38-6號","121.374203333333","24.912365","6500900","三峽區"
"237014","433-BY","2019/11/01 17:59:20","新北市三峽區和平街36巷7弄9號","121.3709","24.9376883333333","6500900","三峽區"
"237006","5529-G3","2019/11/01 17:59:27","新北市三峽區介壽路二段138巷1弄42-3號","121.398021666667","24.9327983333333","6500900","三峽區"
"237011","KEA-2596","2019/11/01 17:59:18","新北市三峽區中正路一段55號","121.375401666667","24.9303383333333","6500900","三峽區"
"237015","649-BX","2019/11/01 17:59:25","新北市三峽區紫微路139號","121.407458333333","24.91141","6500900","三峽區"
"237010","706-TV","2019/11/01 17:59:13","新北市三峽區民權街162號","121.368023333333","24.9305816666667","6500900","三峽區"
"237005","AKY-6261","2019/11/01 17:59:29","新北市三峽區復興路239-2號","121.368171666667","24.938405","6500900","三峽區"
"236042","KED-0685","2019/11/01 17:59:11","新北市土城區城林路6巷80號","121.438473333333","24.9796116666667","6501300","土城區"
"233002","762-BX","2019/11/01 17:59:14","新北市烏來區烏來街137號","121.551561666667","24.8627016666667","6502900","烏來區"
"236079","166-UM","2019/11/01 17:59:14","新北市土城區永寧路32巷10弄25號","121.428825","24.9610633333333","6501300","土城區"
"236030","253-BX","2019/11/01 17:59:16","新北市土城區城林路6巷80號","121.438681666667","24.979675","6501300","土城區"
"236026","269-VK","2019/11/01 17:59:21","新北市土城區中央路三段92-2號","121.43595","24.9666583333333","6501300","土城區"
"236014","270-VK","2019/11/01 17:59:14","新北市土城區中華路二段2號","121.438851666667","24.9798566666667","6501300","土城區"
"236039","271-VK","2019/11/01 17:59:10","新北市土城區城林路6巷80號","121.43842","24.97976","6501300","土城區"
"247012","KED-0683","2019/11/01 17:59:23","新北市蘆洲區民族路226號","121.479585","25.08801","6501400","蘆洲區"
"236069","KEA-2877","2019/11/01 17:59:12","新北市土城區員福街16號","121.441616666667","24.978595","6501300","土城區"
"252001","KED-0821","2019/11/01 17:59:12","新北市三芝區中興街二段2號","121.498305","25.2566716666667","6502100","三芝區"
"236020","401-BY","2019/11/01 17:59:09","新北市土城區城林路6巷80號","121.438656666667","24.9797466666667","6501300","土城區"
"236059","912-UM","2019/11/01 17:59:11","新北市土城區中央路三段250號","121.427673333333","24.9642533333333","6501300","土城區"
"236048","913-UM","2019/11/01 17:58:24","新北市土城區中央路二段280號","121.440636666667","24.974065","6501300","土城區"
"236063","915-UM","2019/11/01 17:59:25","新北市土城區城林路6巷80號","121.438595","24.9799733333333","6501300","土城區"
"236055","AAC-216","2019/11/01 17:59:16","新北市土城區水源街28號","121.440958333333","24.9755283333333","6501300","土城區"
"242041","AAC-296","2019/11/01 17:59:11","新北市新莊區丹鳳街40號","121.421605","25.0296616666667","6500500","新莊區"
"242060","986-R7","2019/11/01 17:59:28","新北市新莊區新樹路595號","121.433063333333","25.0064783333333","6500500","新莊區"
"242005","751-BX","2019/11/01 17:59:10","新北市新莊區思源路177巷31號","121.459225","25.0466516666667","6500500","新莊區"
"242027","705-TV","2019/11/01 17:59:29","新北市新莊區福壽街171號","121.457993333333","25.0538416666667","6500500","新莊區"
"242029","615-BX","2019/11/01 17:59:30","新北市新莊區中平路110巷4-1號","121.445463333333","25.0459966666667","6500500","新莊區"
"242058","612-BX","2019/11/01 17:59:22","新北市新莊區雙鳳路134巷8號","121.412771666667","25.0281116666667","6500500","新莊區"
"242048","566-BX","2019/11/01 17:59:11","新北市新莊區萬安街28號","121.42134","25.0244133333333","6500500","新莊區"
"242054","497-BY","2019/11/01 17:59:28","新北市新莊區光華街5號","121.428746666667","25.0106133333333","6500500","新莊區"
"242002","441-UM","2019/11/01 17:59:27","新北市新莊區中正路149號","121.45623","25.03681","6500500","新莊區"
"242007","440-UM","2019/11/01 17:59:18","新北市新莊區自信街65巷5號","121.45543","25.0486466666667","6500500","新莊區"
"242044","415-TV","2019/11/01 17:59:09","新北市新莊區中正路855巷6號","121.419658333333","25.0274066666667","6500500","新莊區"
"242013","413-TV","2019/11/01 17:59:26","新北市新莊區中和街125巷3號","121.447088333333","25.048595","6500500","新莊區"
"242050","400-BY","2019/11/01 17:59:26","新北市新莊區民本街53巷13號","121.428646666667","25.0181466666667","6500500","新莊區"
"242025","362-BY","2019/11/01 17:59:10","新北市三重區中山路279號","121.471448333333","25.06155","6500500","新莊區"
"242023","353-BY","2019/11/01 17:59:16","新北市新莊區福壽街51號","121.458243333333","25.04892","6500500","新莊區"
"242015","132-UY","2019/11/01 17:59:18","新北市新莊區中平路87巷3號","121.444535","25.0457316666667","6500500","新莊區"
"242039","135-UY","2019/11/01 17:59:24","新北市新莊區民安西路38巷36號","121.426275","25.0202","6500500","新莊區"
"242056","172-VK","2019/11/01 17:59:28","新北市新莊區豐年街124巷18號","121.445525","25.02989","6500500","新莊區"
"242017","173-VK","2019/11/01 17:59:22","新北市新莊區中和街60巷7號","121.448325","25.0447716666667","6500500","新莊區"
"242032","175-VK","2019/11/01 17:59:22","新北市新莊區新泰路305巷15號","121.444681666667","25.04093","6500500","新莊區"
"242021","KED-0687","2019/11/01 17:59:23","新北市新莊區中正路217號","121.451075","25.0357566666667","6500500","新莊區"
"242037","348-TH","2019/11/01 17:59:27","新北市新莊區建福路29號","121.426343333333","25.0287833333333","6500500","新莊區"
"242009","349-TH","2019/11/01 17:59:27","新北市新莊區中原路191號","121.452393333333","25.0541683333333","6500500","新莊區"
"242034","350-TH","2019/11/01 17:59:25","新北市新莊區福海街8號","121.445285","25.0334383333333","6500500","新莊區"
"242019","351-TH","2019/11/01 17:59:13","新北市新莊區明中街20號","121.457386666667","25.039335","6500500","新莊區"
"238015","755-BX","2019/11/01 17:59:14","新北市樹林區大安路455號","121.414815","24.9878666666667","6500700","樹林區"
"238023","601-UM","2019/11/01 17:59:26","新北市樹林區龍興街46巷7號","121.402703333333","25.0154116666667","6500700","樹林區"
"238019","599-UM","2019/11/01 17:59:26","新北市樹林區太平路150巷1號","121.418561666667","24.97777","6500700","樹林區"
"238018","KEA-2217","2019/11/01 17:59:12","新北市樹林區中正路7-1號","121.43023","24.9976","6500700","樹林區"
"238022","KEA-2213","2019/11/01 17:59:27","新北市樹林區太平路150巷7號","121.418111666667","24.977765","6500700","樹林區"
"238021","KEA-2539","2019/11/01 17:59:11","新北市樹林區柑園街一段277號","121.393698333333","24.95634","6500700","樹林區"
"238025","303-VK","2019/11/01 17:59:30","新北市樹林區三俊街111號","121.417175","25.0155233333333","6500700","樹林區"
"238017","283-BY","2019/11/01 17:59:16","新北市樹林區三俊街2號","121.410803333333","25.015065","6500700","樹林區"
"238014","282-BY","2019/11/01 17:59:10","新北市樹林區潭興街22號","121.425153333333","24.9988966666667","6500700","樹林區"
"238020","268-VK","2019/11/01 17:59:20","新北市樹林區三俊街199巷20弄1-1號","121.420508333333","25.0177233333333","6500700","樹林區"
"238026","172-UY","2019/11/01 17:59:26","新北市樹林區中洲街51巷4號","121.396693333333","24.970995","6500700","樹林區"
"238016","169-UY","2019/11/01 17:59:09","新北市樹林區啟智街151巷1-3號","121.416698333333","24.9879016666667","6500700","樹林區"
"239007","AAC-297","2019/11/01 17:59:11","新北市鶯歌區鶯桃路120巷2號","121.338623333333","24.9547916666667","6500800","鶯歌區"
"239006","891-R6","2019/11/01 17:59:14","新北市鶯歌區鶯桃路455巷4弄2號","121.332023333333","24.9651183333333","6500800","鶯歌區"
"239008","527-UM","2019/11/01 17:59:14","新北市鶯歌區大湖路700巷24號","121.333291666667","24.976695","6500800","鶯歌區"
"239005","526-UM","2019/11/01 17:59:24","新北市鶯歌區鳳吉五街3號","121.326436666667","24.97216","6500800","鶯歌區"
"239001","417-VK","2019/11/01 17:59:15","新北市鶯歌區中正三路408號","121.325565","24.9346316666667","6500800","鶯歌區"
"239003","360-BY","2019/11/01 17:59:09","新北市鶯歌區永吉街15號","121.336063333333","24.9578083333333","6500800","鶯歌區"
"239002","359-BY","2019/11/01 17:59:16","新北市鶯歌區光明街126號","121.345453333333","24.9558316666667","6500800","鶯歌區"
"239004","193-VK","2019/11/01 17:59:23","新北市鶯歌區尖山路88號","121.348681666667","24.9494716666667","6500800","鶯歌區"
"221008","489-VK","2019/11/01 17:59:25","新北市汐止區康寧街753巷2弄8號","121.639263333333","25.07392","6501100","汐止區"
"221010","269-BY","2019/11/01 17:59:21","新北市汐止區汐萬路二段247號","121.646426666667","25.088265","6501100","汐止區"
"221023","279-VK","2019/11/01 17:59:16","新北市汐止區明峰街59號","121.632753333333","25.07132","6501100","汐止區"
"221029","298-VK","2019/11/01 17:59:14","新北市汐止區樟樹二路336號","121.641473333333","25.0704666666667","6501100","汐止區"
"221031","353-TW","2019/11/01 17:59:27","新北市汐止區中興路96巷1-3號","121.635268333333","25.0624916666667","6501100","汐止區"
"221035","622-UM","2019/11/01 17:59:07","新北市汐止區汐萬路一段310號","121.650263333333","25.0747066666667","6501100","汐止區"
"221025","623-UM","2019/11/01 17:59:26","新北市汐止區仁愛路13號","121.65915","25.0639466666667","6501100","汐止區"
"221038","646-BX","2019/11/01 17:59:25","新北市汐止區新台五路一段145號","121.653283333333","25.0621116666667","6501100","汐止區"
"221033","647-BX","2019/11/01 17:59:11","新北市汐止區合順街21號","121.620151666667","25.0431683333333","6501100","汐止區"
"221002","707-TV","2019/11/01 17:59:21","新北市汐止區工建路205號","121.63584","25.061795","6501100","汐止區"
"221018","753-BX","2019/11/01 17:59:26","新北市汐止區忠孝東路339巷10號","121.664225","25.070225","6501100","汐止區"
"233001","KEA-2870","2019/11/01 17:59:21","新北市烏來區西羅岸路22號","121.549333333333","24.867355","6502900","烏來區"
"224002","257-TC","2019/11/01 17:59:26","新北市瑞芳區三爪子坑路32巷138號","121.809673333333","25.1059166666667","6501200","瑞芳區"
"242046","281-VK","2019/11/01 17:59:24","新北市新莊區福營路165巷36號","121.4329","25.0298","6500500","新莊區"
"242011","280-VK","2019/11/01 17:59:29","新北市新莊區中港路中慶巷14號","121.45058","25.0538166666667","6500500","新莊區"
"235061","KEA-2875","2019/11/01 17:59:05","新北市中和區員山路109號","121.48084","24.9946483333333","6500300","中和區"
