"lineid","car","time","location","longitude","latitude","cityid","cityname"
"234046","148-BY","2019/11/01 18:29:22","新北市永和區豫溪街217巷1號","121.524801666667","25.00941","6500400","永和區"
"234081","298-R6","2019/11/01 18:29:14","新北市永和區福和路1號","121.525143333333","25.0089066666667","6500400","永和區"
"234086","338-UY","2019/11/01 18:29:18","新北市永和區福和路1號","121.526373333333","25.0098416666667","6500400","永和區"
"234017","745-BX","2019/11/01 18:29:29","新北市永和區福和路1號","121.52628","25.0095966666667","6500400","永和區"
"234007","KED-0605","2019/11/01 18:29:19","新北市永和區環河西路二段217巷5號","121.50163","25.0098866666667","6500400","永和區"
"234042","862-TW","2019/11/01 18:29:19","新北市永和區福和路1號","121.52615","25.0098366666667","6500400","永和區"
"234026","9371-KE","2019/11/01 18:29:07","新北市永和區永貞路415號","121.507255","25.0093716666667","6500400","永和區"
"234011","9373-KE","2019/11/01 18:29:20","新北市永和區保福路二段165號","121.509048333333","25.014935","6500400","永和區"
"249005","172-UM","2019/11/01 18:29:22","新北市八里區中華路三段145巷9號","121.3923","25.1331683333333","6502300","八里區"
"249001","173-UM","2019/11/01 18:29:26","新北市八里區龍米路一段198號","121.45203","25.1277016666667","6502300","八里區"
"249004","303-UY","2019/11/01 18:29:18","新北市八里區忠孝路70號","121.42631","25.1603366666667","6502300","八里區"
"249002","305-UY","2019/11/01 18:29:24","新北市八里區龍形三街6巷5號","121.45004","25.1323183333333","6502300","八里區"
"249003","593-UM","2019/11/01 18:20:03","新北市八里區博物館路10-1號","121.415113333333","25.16396","6502300","八里區"
"248016","026-BX","2019/11/01 18:29:31","新北市五股區凌雲路一段83巷10弄7號","121.450198333333","25.1010583333333","6501500","五股區"
"248008","KED-0815","2019/11/01 18:29:25","新北市五股區更洲路32巷8弄17號","121.459538333333","25.0795083333333","6501500","五股區"
"248018","KED-0813","2019/11/01 18:29:25","新北市五股區御史路300號","121.417806666667","25.10814","6501500","五股區"
"248012","247-BX","2019/11/01 18:29:26","新北市五股區御成路2號","121.441905","25.0907816666667","6501500","五股區"
"248014","261-SL","2019/11/01 18:29:29","新北市五股區自強路90巷51號","121.43142","25.07136","6501500","五股區"
"248010","272-BY","2019/11/01 18:29:25","新北市五股區成泰路一段139巷2弄1號","121.435058333333","25.0729533333333","6501500","五股區"
"248004","677-BX","2019/11/01 18:29:21","新北市五股區工商路140-2號","121.434053333333","25.0870766666667","6501500","五股區"
"248002","678-BX","2019/11/01 18:29:22","新北市五股區西雲路142-1號","121.445843333333","25.0943233333333","6501500","五股區"
"234077","969-R7","2019/11/01 18:29:14","新北市永和區福和路1號","121.526303333333","25.00969","6500400","永和區"
"232011","375-UM","2019/11/01 18:29:16","新北市坪林區坪雙路一段41號","121.711678333333","24.94244","6502000","坪林區"
"244007","080-UY","2019/11/01 18:29:12","新北市林口區中湖62號","121.384761666667","25.100815","6501700","林口區"
"244019","402-UM","2019/11/01 18:29:09","新北市林口區忠孝路696號","121.37944","25.0685533333333","6501700","林口區"
"244013","KEA-2802","2019/11/01 18:29:09","新北市林口區中山路262-1號","121.384645","25.079885","6501700","林口區"
"244023","483-VK","2019/11/01 18:29:14","新北市林口區仁愛路二段62巷37號","121.383883333333","25.0762083333333","6501700","林口區"
"244017","485-VK","2019/11/01 18:29:28","新北市林口區文化二路一段2-1號","121.364146666667","25.065875","6501700","林口區"
"244009","656-BX","2019/11/01 18:29:10","新北市林口區竹林路276巷1號","121.390065","25.08154","6501700","林口區"
"244011","701-TV","2019/11/01 18:29:26","新北市林口區興林路17巷5弄1號","121.390516666667","25.0769883333333","6501700","林口區"
"244025","837-TS","2019/11/01 18:29:13","新北市林口區源泉街68號","121.356875","25.0729833333333","6501700","林口區"
"244021","838-TS","2019/11/01 18:29:27","新北市林口區自強二街10號","121.397576666667","25.0783","6501700","林口區"
"243010","297-R6","2019/11/01 18:29:21","新北市泰山區黎明路25號","121.422018333333","25.0608833333333","6501600","泰山區"
"222003","436-BY","2019/11/01 18:29:13","新北市深坑區文山路一段28-1號","121.630825","25.0053583333333","6501800","深坑區"
"222002","659-BX","2019/11/01 18:29:12","新北市深坑區雲鄉路214號","121.622","24.9978983333333","6501800","深坑區"
"231042","001-UM","2019/11/01 18:29:29","新北市新店區安華路28-1號","121.519491666667","24.9607616666667","6500600","新店區"
"231055","0291-UT","2019/11/01 18:29:22","新北市新店區北新路一段150號","121.54252","24.9706133333333","6500600","新店區"
"231058","0293-UT","2019/11/01 18:29:15","新北市新店區環河路19巷7弄2號","121.537726666667","24.9605283333333","6500600","新店區"
"231044","046-UY","2019/11/01 18:29:13","新北市新店區安華路28-1號","121.519538333333","24.9608616666667","6500600","新店區"
"231060","106-UY","2019/11/01 18:29:17","新北市新店區安華路28-1號","121.5197","24.9608116666667","6500600","新店區"
"231051","107-UY","2019/11/01 18:29:11","新北市新店區安華路28-1號","121.519316666667","24.960795","6500600","新店區"
"231065","110-UY","2019/11/01 18:29:27","新北市新店區安一路一段1-1號","121.51926","24.961255","6500600","新店區"
"231062","256-BX","2019/11/01 18:29:30","新北市新店區安一路一段1-1號","121.519736666667","24.96107","6500600","新店區"
"231054","260-TV","2019/11/01 18:29:14","新北市新店區安一路一段1-1號","121.519391666667","24.9611916666667","6500600","新店區"
"231064","278-BY","2019/11/01 18:29:22","新北市新店區安一路一段1-1號","121.519755","24.9611316666667","6500600","新店區"
"231050","AAD-862","2019/11/01 18:29:09","新北市新店區安華路28-1號","121.519723333333","24.9609266666667","6500600","新店區"
"231045","355-BY","2019/11/01 18:29:11","新北市新店區安華路28-1號","121.519351666667","24.9609416666667","6500600","新店區"
"231056","4715-K9","2019/11/01 18:29:16","新北市新店區中正路420號","121.534308333333","24.9778733333333","6500600","新店區"
"231053","513-UM","2019/11/01 18:29:25","新北市新店區新烏路一段12號","121.546896666667","24.9514516666667","6500600","新店區"
"231063","616-UM","2019/11/01 18:29:12","新北市新店區安華路1-1號","121.519436666667","24.960405","6500600","新店區"
"231048","KED-0819","2019/11/01 18:29:27","新北市新店區安華路28-1號","121.519791666667","24.9610583333333","6500600","新店區"
"231057","720-UM","2019/11/01 18:29:22","新北市新店區安一路一段1-1號","121.518803333333","24.9612783333333","6500600","新店區"
"231059","897-TW","2019/11/01 18:29:27","新北市新店區安華路28-1號","121.519695","24.9606633333333","6500600","新店區"
"231040","898-TW","2019/11/01 18:29:21","新北市新店區安華路28-1號","121.51944","24.9608283333333","6500600","新店區"
"231043","899-TW","2019/11/01 18:29:26","新北市新店區安華路1-1號","121.519111666667","24.9605366666667","6500600","新店區"
"235066","003-UY","2019/11/01 18:29:13","新北市中和區中山路二段120號","121.502716666667","25.0038583333333","6500300","中和區"
"235064","005-UY","2019/11/01 18:29:28","新北市中和區連城路109巷30號","121.496958333333","24.998285","6500300","中和區"
"235063","006-UY","2019/11/01 18:29:16","新北市中和區連城路401號","121.486226666667","24.9959833333333","6500300","中和區"
"235056","096-UM","2019/11/01 18:29:15","新北市中和區員山路611巷5弄1號","121.477928333333","25.0111933333333","6500300","中和區"
"235039","097-UM","2019/11/01 18:29:11","新北市中和區安平路154號","121.512523333333","24.99839","6500300","中和區"
"235065","098-UM","2019/11/01 18:29:14","新北市中和區莊敬路49巷20弄22號","121.502701666667","25.00582","6500300","中和區"
"235040","150-BY","2019/11/01 18:29:17","新北市中和區安平路59號","121.509501666667","24.995155","6500300","中和區"
"235058","151-BY","2019/11/01 18:29:16","新北市中和區圓通路369巷30弄14號","121.489231666667","24.9849233333333","6500300","中和區"
"235055","183-VK","2019/11/01 18:29:18","新北市中和區民生街72號","121.468573333333","25.0048533333333","6500300","中和區"
"235038","185-VK","2019/11/01 18:29:09","新北市中和區立人街33-3號","121.520903333333","24.994185","6500300","中和區"
"235067","255-BX","2019/11/01 18:29:18","新北市中和區新生街37號","121.483288333333","25.0033916666667","6500300","中和區"
"235044","293-VK","2019/11/01 18:29:19","新北市中和區復興路301巷2弄1號","121.501435","24.9898216666667","6500300","中和區"
"235072","301-VK","2019/11/01 18:29:25","新北市中和區連城路14號","121.498888333333","25.00219","6500300","中和區"
"235043","352-BY","2019/11/01 18:29:13","新北市中和區景平路275號","121.507903333333","24.9929816666667","6500300","中和區"
"235042","KEA-2878","2019/11/01 18:29:15","新北市中和區景平路38號","121.523085","24.9907483333333","6500300","中和區"
"235050","4979-A6","2019/11/01 18:29:12","新北市中和區景新街362巷10號","121.511963333333","24.9901566666667","6500300","中和區"
"235069","4980-A6","2019/11/01 18:29:22","新北市中和區連城路99巷26號","121.496853333333","24.999095","6500300","中和區"
"235070","558-UM","2019/11/01 18:29:16","新北市中和區景新街129號","121.505848333333","24.9972883333333","6500300","中和區"
"235045","565-BX","2019/11/01 18:29:22","新北市中和區南山路236巷26號","121.505581666667","24.988795","6500300","中和區"
"235060","KED-0823","2019/11/01 18:29:20","新北市中和區中山路二段579號","121.480415","25.0057916666667","6500300","中和區"
"235018","640-BX","2019/11/01 18:29:15","新北市中和區民享街32巷13號","121.472998333333","25.003165","6500300","中和區"
"235047","732-UM","2019/11/01 18:29:11","新北市中和區南山路479號","121.507896666667","24.9882716666667","6500300","中和區"
"235046","733-UM","2019/11/01 18:29:15","新北市中和區興南路一段71號","121.510053333333","24.9893183333333","6500300","中和區"
"235062","800-TS","2019/11/01 18:29:10","新北市中和區中山路二段312巷19號","121.49563","25.0035733333333","6500300","中和區"
"235057","801-TS","2019/11/01 18:29:17","新北市中和區員山路327巷40號","121.480566666667","25.0017316666667","6500300","中和區"
"235041","802-TS","2019/11/01 18:29:22","新北市中和區景安路36號","121.507136666667","24.99823","6500300","中和區"
"235052","805-TS","2019/11/01 18:29:08","新北市中和區興南路二段96號","121.50511","24.9841433333333","6500300","中和區"
"235048","896-TW","2019/11/01 18:29:12","新北市中和區中正路161巷4號","121.498531666667","24.9934533333333","6500300","中和區"
"235053","900-TW","2019/11/01 18:29:21","新北市中和區連城路506號","121.477516666667","24.992405","6500300","中和區"
"235051","157-BY","2019/11/01 18:29:21","新北市中和區興南路二段110號","121.50456","24.9840816666667","6500300","中和區"
"235037","AAC-213","2019/11/01 18:29:21","新北市中和區景新街383巷50號","121.514513333333","24.9908833333333","6500300","中和區"
"235059","AAC-215","2019/11/01 18:29:14","新北市中和區員山路36巷16-3號","121.484985","24.9912883333333","6500300","中和區"
"220035","015-TV","2019/11/01 18:29:10","新北市板橋區南雅南路二段100號","121.453513333333","25.0011266666667","6500100","板橋區"
"220065","072-UY","2019/11/01 18:29:22","新北市板橋區南雅南路二段88號","121.453661666667","25.0014866666667","6500100","板橋區"
"220069","AAD-861","2019/11/01 18:29:14","新北市板橋區華東街1-10號","121.448446666667","24.9950216666667","6500100","板橋區"
"226004","312-R5","2019/11/01 18:29:25","新北市平溪區石底里石底街93-1號","121.733041666667","25.0231933333333","6502400","平溪區"
"235049","251-BX","2019/11/01 18:29:26","新北市中和區景安路120巷3號","121.505253333333","24.99476","6500300","中和區"
"228002","663-BX","2019/11/01 18:29:17","新北市貢寮區福連里香蘭街9號","121.977718333333","25.0238216666667","6502600","貢寮區"
"228001","670-TC","2019/11/01 18:29:22","新北市貢寮區仁理村仁義街2號","121.923653333333","25.0521383333333","6502600","貢寮區"
"228003","828-UM","2019/11/01 18:29:20","新北市貢寮區和美里和美街42號","121.913555","25.0909533333333","6502600","貢寮區"
"224010","AGQ-8101","2019/11/01 18:29:19","新北市瑞芳區基山街31巷20號","121.846015","25.11005","6501200","瑞芳區"
"224006","676-BX","2019/11/01 18:29:19","新北市瑞芳區明燈路二段66號","121.809383333333","25.1074116666667","6501200","瑞芳區"
"224007","285-BY","2019/11/01 18:29:10","新北市瑞芳區大埔路有勝二村1號","121.76423","25.1003166666667","6501200","瑞芳區"
"224009","275-VK","2019/11/01 18:29:19","新北市瑞芳區五號路308號","121.856821666667","25.1114416666667","6501200","瑞芳區"
"224008","273-VK","2019/11/01 18:29:12","新北市瑞芳區岳王路1巷27號","121.806","25.1105016666667","6501200","瑞芳區"
"224005","271-BY","2019/11/01 18:29:17","新北市瑞芳區建基路一段44-6號","121.8193","25.1237066666667","6501200","瑞芳區"
"227001","642-TC","2019/11/01 18:29:17","新北市雙溪區牡丹里牡丹147號","121.851441666667","25.0589333333333","6502500","雙溪區"
"227002","400-TW","2019/11/01 18:29:21","新北市雙溪區魚行里新店47號","121.869845","25.0310333333333","6502500","雙溪區"
"253005","032-BX","2019/11/01 18:29:24","新北市石門區老崩山2號","121.553426666667","25.2915283333333","6502200","石門區"
"253006","295-VK","2019/11/01 18:29:20","新北市石門區公地20號","121.545771666667","25.2902066666667","6502200","石門區"
"222001","KEA-2212","2019/11/01 18:29:19","新北市深坑區北深路一段185號","121.632115","25.01054","6501800","深坑區"
"208002","KEA-2872","2019/11/01 18:29:16","新北市金山區民生路202號","121.644441666667","25.222325","6502700","金山區"
"208003","665-BX","2019/11/01 18:29:12","新北市金山區中山路245號","121.63721","25.2219633333333","6502700","金山區"
"251004","009-UM","2019/11/01 18:29:14","新北市淡水區民族路33號","121.46226","25.13584","6501000","淡水區"
"251001","011-UM","2019/11/01 18:29:15","新北市淡水區自強路122-9號","121.464663333333","25.1332566666667","6501000","淡水區"
"251008","181-VK","2019/11/01 18:29:20","新北市淡水區北投子87-3號","121.46899","25.1786916666667","6501000","淡水區"
"251010","413-VK","2019/11/01 18:29:11","新北市淡水區沙崙路181巷1號","121.4241","25.18418","6501000","淡水區"
"251012","441-VK","2019/11/01 18:29:18","新北市淡水區北新路一段163號","121.45892","25.1822733333333","6501000","淡水區"
"251005","443-VK","2019/11/01 18:29:19","新北市淡水區中正東路35巷10號","121.44638","25.1685583333333","6501000","淡水區"
"251006","561-UM","2019/11/01 18:29:22","新北市淡水區新生街51巷26號","121.440678333333","25.1756316666667","6501000","淡水區"
"251011","650-BX","2019/11/01 18:29:30","新北市淡水區坪頂路50號","121.457991666667","25.162505","6501000","淡水區"
"251002","672-BX","2019/11/01 18:29:26","新北市淡水區竿蓁二街17號","121.453188333333","25.1629333333333","6501000","淡水區"
"251003","766-UM","2019/11/01 18:29:26","新北市淡水區北新路169巷12號","121.449666666667","25.1802416666667","6501000","淡水區"
"207003","681-TV","2019/11/01 18:29:11","新北市萬里區野柳里港東新村1號","121.686143333333","25.2030383333333","6502800","萬里區"
"207004","291-VK","2019/11/01 18:29:14","新北市萬里區中幅里中福路58-14號","121.67961","25.171715","6502800","萬里區"
"252002","178-VK","2019/11/01 18:29:23","新北市三芝區中山路二段39號","121.502946666667","25.255155","6502100","三芝區"
"252003","249-BX","2019/11/01 18:29:10","新北市三芝區後厝里北勢子44-3號","121.470585","25.2516183333333","6502100","三芝區"
"208001","170-UY","2019/11/01 18:29:23","新北市金山區文化一路10號","121.636803333333","25.2245816666667","6502700","金山區"
"237004","KEA-2597","2019/11/01 18:29:27","新北市三峽區五寮22號","121.374811666667","24.8703316666667","6500900","三峽區"
"237007","153-BY","2019/11/01 18:29:22","新北市三峽區中正路三段170巷1號","121.352581666667","24.9038216666667","6500900","三峽區"
"237009","210-TH","2019/11/01 18:29:14","新北市三峽區大同路287號","121.365711666667","24.925255","6500900","三峽區"
"237013","252-BX","2019/11/01 18:29:22","新北市三峽區光明路69巷25號","121.376598333333","24.9291266666667","6500900","三峽區"
"237012","275-BY","2019/11/01 18:29:27","新北市三峽區三樹路250號","121.379323333333","24.94319","6500900","三峽區"
"237008","302-VK","2019/11/01 18:29:21","新北市三峽區白雞67-1號","121.398185","24.9115733333333","6500900","三峽區"
"237014","433-BY","2019/11/01 18:29:20","新北市三峽區信義街2號","121.370668333333","24.936105","6500900","三峽區"
"237006","5529-G3","2019/11/01 18:29:11","新北市三峽區溪東路473巷6號","121.413936666667","24.9283333333333","6500900","三峽區"
"237011","KEA-2596","2019/11/01 18:29:18","新北市三峽區溪東路218巷24弄2號","121.406863333333","24.93043","6500900","三峽區"
"237015","649-BX","2019/11/01 18:29:25","新北市三峽區竹崙路111號","121.433471666667","24.9128566666667","6500900","三峽區"
"237010","706-TV","2019/11/01 18:29:24","新北市三峽區復興路489號","121.361038333333","24.9383316666667","6500900","三峽區"
"237005","AKY-6261","2019/11/01 18:29:29","新北市三峽區清水街351號","121.370018333333","24.9328383333333","6500900","三峽區"
"236042","KED-0685","2019/11/01 18:29:25","新北市土城區學成路91巷3號","121.450518333333","24.987715","6501300","土城區"
"236079","166-UM","2019/11/01 18:29:14","新北市土城區大暖路61-2號","121.422056666667","24.9582433333333","6501300","土城區"
"236030","253-BX","2019/11/01 18:29:16","新北市土城區水源街46號","121.440625","24.975865","6501300","土城區"
"236026","269-VK","2019/11/01 18:29:21","新北市土城區南天母路135巷20號","121.448628333333","24.9546733333333","6501300","土城區"
"236014","270-VK","2019/11/01 18:29:14","新北市土城區青雲路39巷7號","121.460368333333","24.98754","6501300","土城區"
"236039","271-VK","2019/11/01 18:29:10","新北市土城區青雲路409號","121.45884","24.9758066666667","6501300","土城區"
"236069","KEA-2877","2019/11/01 18:29:22","新北市土城區永豐路255巷21弄2-1號","121.475035","24.973505","6501300","土城區"
"252001","KED-0821","2019/11/01 18:29:31","新北市三芝區中興街二段6號","121.498465","25.2563833333333","6502100","三芝區"
"236020","401-BY","2019/11/01 18:29:29","新北市土城區永豐路202巷5-2號","121.466351666667","24.9832833333333","6501300","土城區"
"236059","912-UM","2019/11/01 18:29:18","新北市土城區中央路四段71號","121.417321666667","24.9582766666667","6501300","土城區"
"236048","913-UM","2019/11/01 18:29:16","新北市土城區青雲路461號","121.458721666667","24.9743466666667","6501300","土城區"
"236063","915-UM","2019/11/01 18:29:25","新北市中和區民享街492號","121.469653333333","24.9922183333333","6501300","土城區"
"236055","AAC-216","2019/11/01 18:29:16","新北市土城區中華路一段247號","121.44097","24.9817016666667","6501300","土城區"
"242041","AAC-296","2019/11/01 18:29:11","新北市新莊區天祥街92巷6號","121.415413333333","25.0297983333333","6500500","新莊區"
"242060","986-R7","2019/11/01 18:29:28","新北市新莊區新樹路69-4號","121.438733333333","25.0297283333333","6500500","新莊區"
"242058","612-BX","2019/11/01 18:29:22","新北市新莊區中正路891-46號","121.41362","25.0227833333333","6500500","新莊區"
"242054","497-BY","2019/11/01 18:29:28","新北市樹林區樹新路120巷12號","121.430268333333","24.997195","6500500","新莊區"
"242002","441-UM","2019/11/01 18:29:23","新北市新莊區瓊林路46-6號","121.447183333333","25.0293483333333","6500500","新莊區"
"242044","415-TV","2019/11/01 18:29:09","新北市新莊區新北大道七段339號","121.412976666667","25.0276","6500500","新莊區"
"242025","362-BY","2019/11/01 18:29:10","新北市新莊區五權一路12巷16號","121.457395","25.0645733333333","6500500","新莊區"
"242056","172-VK","2019/11/01 18:29:07","新北市新莊區瓊泰路77巷15號","121.44243","25.0288833333333","6500500","新莊區"
"242032","175-VK","2019/11/01 18:29:22","新北市新莊區新泰路357巷3弄1號","121.442358333333","25.0414133333333","6500500","新莊區"
"242009","349-TH","2019/11/01 18:29:21","新北市新莊區中華路二段41號","121.453411666667","25.0466766666667","6500500","新莊區"
"238015","755-BX","2019/11/01 18:29:16","新北市樹林區備內街109號","121.406328333333","24.9895416666667","6500700","樹林區"
"238023","601-UM","2019/11/01 18:29:26","新北市樹林區三福街114號","121.406405","25.016365","6500700","樹林區"
"238019","599-UM","2019/11/01 18:29:28","新北市樹林區國凱街112號","121.421983333333","24.979685","6500700","樹林區"
"238024","5061-A6","2019/11/01 18:29:15","新北市樹林區育英街1號","121.422723333333","24.9890283333333","6500700","樹林區"
"238018","KEA-2217","2019/11/01 18:29:12","新北市樹林區樹新路95號","121.42806","24.995315","6500700","樹林區"
"238025","303-VK","2019/11/01 18:29:10","新北市樹林區保安街一段92號","121.42416","24.994705","6500700","樹林區"
"238017","283-BY","2019/11/01 18:29:16","新北市樹林區光興街42號","121.410551666667","25.002785","6500700","樹林區"
"238014","282-BY","2019/11/01 18:29:30","新北市樹林區大安路111巷41號","121.423271666667","24.9976283333333","6500700","樹林區"
"238020","268-VK","2019/11/01 18:29:20","新北市樹林區中正路698號","121.409325","25.01741","6500700","樹林區"
"238026","172-UY","2019/11/01 18:29:26","新北市樹林區佳園路一段75巷84號","121.396036666667","24.9701516666667","6500700","樹林區"
"238016","169-UY","2019/11/01 18:29:09","新北市樹林區中山路二段34號","121.417385","24.9851416666667","6500700","樹林區"
"239007","AAC-297","2019/11/01 18:29:11","新北市鶯歌區尖山埔路2-2號","121.349903333333","24.9511566666667","6500800","鶯歌區"
"239006","891-R6","2019/11/01 18:29:23","新北市鶯歌區鶯桃路296巷46-1號","121.335718333333","24.9613116666667","6500800","鶯歌區"
"239008","527-UM","2019/11/01 18:29:13","新北市鶯歌區國際一路179號","121.336271666667","24.9765666666667","6500800","鶯歌區"
"239005","526-UM","2019/11/01 18:29:23","新北市鶯歌區鶯桃路668巷73號","121.329933333333","24.97178","6500800","鶯歌區"
"239001","417-VK","2019/11/01 18:29:15","新北市鶯歌區國中街197號","121.338196666667","24.939155","6500800","鶯歌區"
"239003","360-BY","2019/11/01 18:29:09","新北市鶯歌區福安街58號","121.33559","24.965165","6500800","鶯歌區"
"239002","359-BY","2019/11/01 18:29:16","新北市鶯歌區中山路134號","121.350011666667","24.957025","6500800","鶯歌區"
"239004","193-VK","2019/11/01 18:29:22","新北市鶯歌區尖山路173巷1號","121.344983333333","24.947515","6500800","鶯歌區"
"221036","130-UY","2019/11/01 18:29:28","新北市汐止區大同路三段143號","121.669313333333","25.077695","6501100","汐止區"
"221015","131-UY","2019/11/01 18:29:19","新北市汐止區鄉長路二段23巷3號","121.667318333333","25.0824816666667","6501100","汐止區"
"221010","269-BY","2019/11/01 18:29:21","新北市汐止區汐萬路35號","121.644296666667","25.09119","6501100","汐止區"
"221012","278-VK","2019/11/01 18:29:22","新北市汐止區保長路35巷11號","121.673073333333","25.0798733333333","6501100","汐止區"
"221023","279-VK","2019/11/01 18:29:16","新北市汐止區康寧街474巷7-2號","121.632271666667","25.067955","6501100","汐止區"
"221032","280-BY","2019/11/01 18:29:18","新北市汐止區民權街二段109巷36號","121.62008","25.04611","6501100","汐止區"
"221027","281-BY","2019/11/01 18:29:15","新北市汐止區和平街57號","121.661811666667","25.0707583333333","6501100","汐止區"
"221029","298-VK","2019/11/01 18:29:14","新北市汐止區樟樹二路330巷68號","121.64291","25.0698566666667","6501100","汐止區"
"221021","299-VK","2019/11/01 18:29:23","新北市汐止區連興街120號","121.65369","25.0623216666667","6501100","汐止區"
"221031","353-TW","2019/11/01 18:29:27","新北市汐止區大同路一段211號","121.633646666667","25.0576916666667","6501100","汐止區"
"221035","622-UM","2019/11/01 18:29:27","新北市汐止區大同路二段341-1號","121.655903333333","25.066935","6501100","汐止區"
"221025","623-UM","2019/11/01 18:29:26","新北市汐止區仁愛路116號","121.662756666667","25.06368","6501100","汐止區"
"221038","646-BX","2019/11/01 18:29:25","新北市汐止區秀峰路57號","121.659983333333","25.0651483333333","6501100","汐止區"
"221033","647-BX","2019/11/01 18:29:26","新北市汐止區宜興街22號","121.621528333333","25.041655","6501100","汐止區"
"221002","707-TV","2019/11/01 18:29:21","新北市汐止區福德一路151號","121.636546666667","25.0666366666667","6501100","汐止區"
"221018","753-BX","2019/11/01 18:29:26","新北市汐止區茄苳路142號","121.668826666667","25.06997","6501100","汐止區"
"220079","145-BY","2019/11/01 18:29:20","新北市板橋區華東街1-10號","121.44833","24.9950716666667","6500100","板橋區"
"220080","200-UY","2019/11/01 18:29:14","新北市板橋區華東街1-9號","121.448148333333","24.99486","6500100","板橋區"
"224002","257-TC","2019/11/01 18:29:26","新北市瑞芳區國中新村34號","121.816515","25.1078783333333","6501200","瑞芳區"
"220056","276-BY","2019/11/01 18:29:18","新北市板橋區華東街1-9號","121.448071666667","24.99491","6500100","板橋區"
"220094","283-UM","2019/11/01 18:29:23","新北市板橋區民生路二段161巷3號","121.469971666667","25.0197366666667","6500100","板橋區"
"220090","288-VK","2019/11/01 18:29:15","新北市板橋區民生路二段120號","121.470333333333","25.019645","6500100","板橋區"
"220084","296-UM","2019/11/01 18:29:24","新北市板橋區華東街1-9號","121.448138333333","24.9949566666667","6500100","板橋區"
"242046","281-VK","2019/11/01 18:29:24","新北市新莊區中正路831-14號","121.420856666667","25.02763","6500500","新莊區"
"242011","280-VK","2019/11/01 18:29:09","新北市新莊區中榮街84號","121.448011666667","25.0526733333333","6500500","新莊區"
"220057","686-BX","2019/11/01 18:29:16","新北市板橋區華東街1-10號","121.448706666667","24.994745","6500100","板橋區"
"220054","741-BX","2019/11/01 18:29:18","新北市板橋區華東街1-9號","121.448105","24.994925","6500100","板橋區"
"220055","827-TW","2019/11/01 18:29:23","新北市板橋區四川路二段140巷16弄13號","121.448831666667","24.9935016666667","6500100","板橋區"
"220074","895-R6","2019/11/01 18:29:11","新北市板橋區華東街1-9號","121.448188333333","24.9949683333333","6500100","板橋區"
"220097","AAC-210","2019/11/01 18:29:29","新北市板橋區民生路二段120號","121.47048","25.019705","6500100","板橋區"
"220064","AAC-253","2019/11/01 18:29:20","新北市板橋區華東街330號","121.453223333333","25.00364","6500100","板橋區"
"235068","KEA-2873","2019/11/01 18:29:29","新北市中和區圓通路284號","121.491441666667","24.9905783333333","6500300","中和區"
"235061","KEA-2875","2019/11/01 18:29:05","新北市中和區民享街95號","121.474781666667","25.0003516666667","6500300","中和區"
