"lineid","car","time","location","longitude","latitude","cityid","cityname"
"234046","148-BY","2019/11/01 18:43:42","新北市永和區永元路40巷45號","121.523846666667","25.000615","6500400","永和區"
"234081","298-R6","2019/11/01 18:43:54","新北市永和區林森路85號","121.523808333333","25.00383","6500400","永和區"
"234064","337-UY","2019/11/01 18:43:55","新北市永和區福和路1號","121.526696666667","25.010105","6500400","永和區"
"234086","338-UY","2019/11/01 18:43:58","新北市永和區中正路3-1號","121.513948333333","24.9954233333333","6500400","永和區"
"234050","553-UM","2019/11/01 18:43:58","新北市永和區福和路1號","121.525491666667","25.00952","6500400","永和區"
"234017","745-BX","2019/11/01 18:43:49","新北市永和區環河西路一段1號","121.515351666667","25.0180316666667","6500400","永和區"
"234030","746-BX","2019/11/01 18:43:58","新北市永和區得和路321號","121.523316666667","24.9996166666667","6500400","永和區"
"234007","KED-0605","2019/11/01 18:43:39","新北市永和區文化路170號","121.511796666667","25.0155016666667","6500400","永和區"
"234013","KEA-2591","2019/11/01 18:43:50","新北市永和區保福路二段111號","121.509975","25.01339","6500400","永和區"
"234061","AAD-866","2019/11/01 18:43:54","新北市永和區福和路99號","121.521911666667","25.0077983333333","6500400","永和區"
"234042","862-TW","2019/11/01 18:43:39","新北市永和區中和路573號","121.511696666667","25.00347","6500400","永和區"
"234026","9371-KE","2019/11/01 18:43:47","新北市永和區自由街58號","121.513741666667","25.005865","6500400","永和區"
"234011","9373-KE","2019/11/01 18:43:40","新北市永和區仁愛路87號","121.513085","25.0131866666667","6500400","永和區"
"249005","172-UM","2019/11/01 18:43:42","新北市八里區長道坑7-3號","121.393273333333","25.1238616666667","6502300","八里區"
"249001","173-UM","2019/11/01 18:43:46","新北市八里區龍米路一段206號","121.451965","25.1282283333333","6502300","八里區"
"249004","303-UY","2019/11/01 18:43:47","新北市八里區中山路一段178號","121.416923333333","25.1593466666667","6502300","八里區"
"249002","305-UY","2019/11/01 18:43:44","新北市八里區頂寮二街138號","121.449315","25.12943","6502300","八里區"
"249003","593-UM","2019/11/01 18:20:03","新北市八里區博物館路10-1號","121.415113333333","25.16396","6502300","八里區"
"248016","026-BX","2019/11/01 18:43:51","新北市五股區凌雲路一段149巷13-1號","121.448606666667","25.1008516666667","6501500","五股區"
"248008","KED-0815","2019/11/01 18:43:45","新北市五股區中興路一段151巷9號","121.465235","25.0727383333333","6501500","五股區"
"248018","KED-0813","2019/11/01 18:43:45","新北市五股區民義路二段48巷5-10號","121.414001666667","25.1032616666667","6501500","五股區"
"248012","247-BX","2019/11/01 18:43:58","新北市五股區成泰路二段147巷34-22號","121.436791666667","25.0894683333333","6501500","五股區"
"248014","261-SL","2019/11/01 18:43:58","新北市五股區民義路一段5號","121.437205","25.0832283333333","6501500","五股區"
"248010","272-BY","2019/11/01 18:43:45","新北市五股區水碓三路143號","121.431723333333","25.0736683333333","6501500","五股區"
"248004","677-BX","2019/11/01 18:43:52","新北市五股區民義路二段5號","121.421173333333","25.0962083333333","6501500","五股區"
"248002","678-BX","2019/11/01 18:43:39","新北市五股區西雲路272號","121.44932","25.0976916666667","6501500","五股區"
"234023","9380-KE","2019/11/01 18:43:42","新北市永和區豫溪街217巷19號","121.524343333333","25.0097783333333","6500400","永和區"
"234077","969-R7","2019/11/01 18:43:54","新北市永和區中正路96號","121.514073333333","24.9955166666667","6500400","永和區"
"234067","AAC-212","2019/11/01 18:43:45","新北市中和區永貞路274-5號","121.513285","25.0038333333333","6500400","永和區"
"234003","AAC-295","2019/11/01 18:43:40","新北市永和區福和路47-1號","121.523261666667","25.007975","6500400","永和區"
"232011","375-UM","2019/11/01 18:43:56","新北市坪林區坪雙路一段41號","121.711671666667","24.9424383333333","6502000","坪林區"
"244007","080-UY","2019/11/01 18:43:52","新北市林口區太平嶺26號","121.376966666667","25.11802","6501700","林口區"
"244019","402-UM","2019/11/01 18:43:49","新北市林口區麗園二街87號","121.382678333333","25.0667783333333","6501700","林口區"
"244013","KEA-2802","2019/11/01 18:43:49","新北市林口區文化一路一段100巷10弄16號","121.37481","25.071255","6501700","林口區"
"244023","483-VK","2019/11/01 18:43:54","新北市林口區文化二路二段107號","121.378271666667","25.0807966666667","6501700","林口區"
"244017","485-VK","2019/11/01 18:43:48","新北市林口區文化二路一段68巷18-2號","121.366088333333","25.067765","6501700","林口區"
"244009","656-BX","2019/11/01 18:43:50","新北市林口區竹林路366巷13號","121.392566666667","25.0847233333333","6501700","林口區"
"244011","701-TV","2019/11/01 18:43:46","新北市林口區中正路57巷7弄2號","121.395278333333","25.0766416666667","6501700","林口區"
"244025","837-TS","2019/11/01 18:43:56","新北市林口區南勢五街61號","121.357138333333","25.0751016666667","6501700","林口區"
"244021","838-TS","2019/11/01 18:43:47","新北市林口區工六路100號","121.401316666667","25.0765916666667","6501700","林口區"
"243010","297-R6","2019/11/01 18:43:41","新北市泰山區辭修路48號","121.428581666667","25.0571083333333","6501600","泰山區"
"243016","421-VK","2019/11/01 18:43:43","新北市泰山區明志路二段135號","121.42766","25.0507716666667","6501600","泰山區"
"222003","436-BY","2019/11/01 18:43:53","新北市深坑區翠谷街17巷42弄2號","121.625335","25.010145","6501800","深坑區"
"222002","659-BX","2019/11/01 18:43:52","新北市深坑區文山路一段62巷10號","121.621763333333","25.0008883333333","6501800","深坑區"
"231042","001-UM","2019/11/01 18:43:48","新北市新店區安華路28-1號","121.5195","24.96078","6500600","新店區"
"231061","002-UM","2019/11/01 18:43:46","新北市新店區安華路28-1號","121.51979","24.960745","6500600","新店區"
"231055","0291-UT","2019/11/01 18:43:42","新北市新店區華興街19號","121.537686666667","24.9693683333333","6500600","新店區"
"231058","0293-UT","2019/11/01 18:43:35","新北市新店區新店後街6號","121.537851666667","24.9529616666667","6500600","新店區"
"231044","046-UY","2019/11/01 18:43:53","新北市新店區安華路28-1號","121.519346666667","24.9608516666667","6500600","新店區"
"231060","106-UY","2019/11/01 18:43:57","新北市新店區安華路28-1號","121.519731666667","24.96087","6500600","新店區"
"231051","107-UY","2019/11/01 18:43:51","新北市新店區中央路81號","121.532255","24.9766283333333","6500600","新店區"
"231049","108-UY","2019/11/01 18:43:39","新北市新店區秀山路66號","121.530685","24.960995","6500600","新店區"
"231065","110-UY","2019/11/01 18:43:47","新北市新店區車子路115-11號","121.506645","24.9546416666667","6500600","新店區"
"231062","256-BX","2019/11/01 18:43:50","新北市新店區安一路一段1-1號","121.51973","24.9610916666667","6500600","新店區"
"231054","260-TV","2019/11/01 18:43:54","新北市新店區安一路一段1-1號","121.519268333333","24.9612483333333","6500600","新店區"
"231064","278-BY","2019/11/01 18:43:42","新北市新店區安一路一段1-1號","121.519753333333","24.9611566666667","6500600","新店區"
"231050","AAD-862","2019/11/01 18:43:49","新北市新店區安華路28-1號","121.51979","24.96104","6500600","新店區"
"231045","355-BY","2019/11/01 18:43:52","新北市新店區安華路28-1號","121.519286666667","24.96093","6500600","新店區"
"231056","4715-K9","2019/11/01 18:43:56","新北市新店區大豐路68巷40號","121.538246666667","24.9803183333333","6500600","新店區"
"231053","513-UM","2019/11/01 18:43:45","新北市新店區永興路34號","121.543653333333","24.9387933333333","6500600","新店區"
"231063","616-UM","2019/11/01 18:43:52","新北市新店區安華路28-1號","121.519606666667","24.9605833333333","6500600","新店區"
"231048","KED-0819","2019/11/01 18:43:47","新北市新店區安康路一段240-1號","121.521848333333","24.9637716666667","6500600","新店區"
"231046","719-UM","2019/11/01 18:43:46","新北市新店區直潭二街1號","121.535423333333","24.9431266666667","6500600","新店區"
"231057","720-UM","2019/11/01 18:43:42","新北市新店區新烏路一段171號","121.545146666667","24.934305","6500600","新店區"
"231059","897-TW","2019/11/01 18:43:47","新北市新店區安華路28-1號","121.519806666667","24.96062","6500600","新店區"
"231040","898-TW","2019/11/01 18:43:41","新北市新店區安康路一段299-1號","121.522223333333","24.9636166666667","6500600","新店區"
"231043","899-TW","2019/11/01 18:39:26","新北市新店區安華路3號","121.51915","24.9601533333333","6500600","新店區"
"231066","AKT-0513","2019/11/01 18:43:52","新北市新店區安華路28-1號","121.519568333333","24.9607066666667","6500600","新店區"
"241035","462-BY","2019/11/01 18:44:00","新北市三重區重新路四段121號","121.484861666667","25.0519483333333","6500200","三重區"
"235066","003-UY","2019/11/01 18:43:53","新北市中和區水源路34巷21弄1號","121.504718333333","25.0029883333333","6500300","中和區"
"235064","005-UY","2019/11/01 18:43:48","新北市中和區泰和街36號","121.499395","25.0001516666667","6500300","中和區"
"235063","006-UY","2019/11/01 18:43:56","新北市中和區連城路258-9號","121.487201666667","24.9963983333333","6500300","中和區"
"235056","096-UM","2019/11/01 18:43:55","新北市中和區員山路492號","121.479758333333","25.0070233333333","6500300","中和區"
"235039","097-UM","2019/11/01 18:43:51","新北市中和區安樂路143巷7號","121.514043333333","24.9970416666667","6500300","中和區"
"235065","098-UM","2019/11/01 18:43:54","新北市中和區中山路二段2巷45弄2號","121.502278333333","25.0071366666667","6500300","中和區"
"235040","150-BY","2019/11/01 18:43:57","新北市中和區保健路106巷6弄19號","121.511213333333","24.995805","6500300","中和區"
"235058","151-BY","2019/11/01 18:43:56","新北市中和區連城路428巷7-3號","121.479918333333","24.9953566666667","6500300","中和區"
"235055","183-VK","2019/11/01 18:43:58","新北市中和區民生街85巷4弄2號","121.46904","25.0043666666667","6500300","中和區"
"235038","185-VK","2019/11/01 18:43:48","新北市中和區立人街65號","121.52005","24.9942266666667","6500300","中和區"
"235067","255-BX","2019/11/01 18:43:58","新北市中和區中正路861巷1號","121.484563333333","25.003245","6500300","中和區"
"235044","293-VK","2019/11/01 18:43:59","新北市中和區中興街115巷11號","121.500536666667","24.99205","6500300","中和區"
"235072","301-VK","2019/11/01 18:43:45","新北市中和區中山路二段78號","121.503633333333","25.0044016666667","6500300","中和區"
"235043","352-BY","2019/11/01 18:43:53","新北市中和區景平路59-10號","121.521238333333","24.9906583333333","6500300","中和區"
"235042","KEA-2878","2019/11/01 18:43:55","新北市中和區成功路84號","121.525883333333","24.9915933333333","6500300","中和區"
"235050","4979-A6","2019/11/01 18:43:52","新北市中和區景新街496巷30弄28號","121.512715","24.9855966666667","6500300","中和區"
"235069","4980-A6","2019/11/01 18:43:42","新北市中和區南山路24號","121.502031666667","24.9982933333333","6500300","中和區"
"235070","558-UM","2019/11/01 18:43:56","新北市中和區中和路170號","121.504598333333","24.9997333333333","6500300","中和區"
"235045","565-BX","2019/11/01 18:43:42","新北市中和區興南路一段20-2號","121.511313333333","24.9911583333333","6500300","中和區"
"235060","KED-0823","2019/11/01 18:43:56","新北市中和區民生街2-1號","121.471188333333","25.0065033333333","6500300","中和區"
"235018","640-BX","2019/11/01 18:43:55","新北市中和區中山路三段147號","121.47371","25.0061216666667","6500300","中和區"
"235047","732-UM","2019/11/01 18:43:50","新北市中和區興南路二段34巷75號","121.505055","24.9849666666667","6500300","中和區"
"235046","733-UM","2019/11/01 18:43:55","新北市中和區仁愛街36巷30號","121.51099","24.9868833333333","6500300","中和區"
"235062","800-TS","2019/11/01 18:43:50","新北市中和區中山路二段356號","121.492835","25.00288","6500300","中和區"
"235057","801-TS","2019/11/01 18:43:56","新北市中和區民利街13號","121.480543333333","24.999105","6500300","中和區"
"235041","802-TS","2019/11/01 18:43:43","新北市中和區中安街232號","121.512341666667","24.9986216666667","6500300","中和區"
"235052","805-TS","2019/11/01 18:43:48","新北市中和區興南路三段46號","121.495271666667","24.9763766666667","6500300","中和區"
"235048","896-TW","2019/11/01 18:43:52","新北市中和區南山路499號","121.507963333333","24.9877233333333","6500300","中和區"
"235053","900-TW","2019/11/01 18:43:55","新北市中和區華福街3號","121.46528","24.997065","6500300","中和區"
"235051","157-BY","2019/11/01 18:43:41","新北市中和區忠孝街106巷39號","121.513538333333","24.984285","6500300","中和區"
"235037","AAC-213","2019/11/01 18:43:41","新北市中和區自立路141巷36號","121.524001666667","24.9937916666667","6500300","中和區"
"235059","AAC-215","2019/11/01 18:43:54","新北市中和區錦和路408號","121.491121666667","24.9897683333333","6500300","中和區"
"220035","015-TV","2019/11/01 18:43:50","新北市板橋區南雅西路二段301巷6號","121.451841666667","25.01591","6500100","板橋區"
"220065","072-UY","2019/11/01 18:43:57","新北市板橋區成都街18號","121.460746666667","25.0047916666667","6500100","板橋區"
"220086","073-UY","2019/11/01 18:43:49","新北市板橋區南雅南路二段116號","121.453226666667","25.0002816666667","6500100","板橋區"
"220106","075-UY","2019/11/01 18:43:53","新北市板橋區民生路二段120號","121.47069","25.01954","6500100","板橋區"
"220069","AAD-861","2019/11/01 18:43:54","新北市板橋區南雅南路一段1巷35號","121.45771","25.0064283333333","6500100","板橋區"
"226004","312-R5","2019/11/01 18:43:45","新北市平溪區平溪里三坑路49-1號","121.731191666667","25.034025","6502400","平溪區"
"235049","251-BX","2019/11/01 18:43:46","新北市中和區景安路132巷10號","121.504571666667","24.9943083333333","6500300","中和區"
"228002","663-BX","2019/11/01 18:43:57","新北市貢寮區福隆里東興街6-11號","121.95075","25.021085","6502600","貢寮區"
"228001","670-TC","2019/11/01 18:43:42","新北市貢寮區仁理村保健街69號","121.923728333333","25.05162","6502600","貢寮區"
"228003","828-UM","2019/11/01 18:43:39","新北市貢寮區和美里龍洞街1-5號","121.919205","25.1123933333333","6502600","貢寮區"
"224010","AGQ-8101","2019/11/01 18:43:42","新北市瑞芳區基山街6-2號","121.845388333333","25.1092466666667","6501200","瑞芳區"
"224006","676-BX","2019/11/01 18:43:59","新北市瑞芳區中正路80-2號","121.805463333333","25.10766","6501200","瑞芳區"
"224007","285-BY","2019/11/01 18:43:50","新北市瑞芳區大埔路東泰新村2號","121.761461666667","25.1012466666667","6501200","瑞芳區"
"224009","275-VK","2019/11/01 18:43:59","新北市瑞芳區祈堂路53-1號","121.859551666667","25.11045","6501200","瑞芳區"
"224008","273-VK","2019/11/01 18:43:52","新北市瑞芳區裕民新城2號","121.801885","25.11199","6501200","瑞芳區"
"224005","271-BY","2019/11/01 18:43:57","新北市瑞芳區瑞濱路30號","121.82645","25.1215316666667","6501200","瑞芳區"
"227001","642-TC","2019/11/01 18:43:57","新北市雙溪區牡丹里下坑11號","121.850998333333","25.0561683333333","6502500","雙溪區"
"227002","400-TW","2019/11/01 18:43:41","新北市雙溪區魚行里坤溪3-5號","121.876185","25.0208233333333","6502500","雙溪區"
"253005","032-BX","2019/11/01 18:43:44","新北市石門區中山路28-3號","121.565803333333","25.2898733333333","6502200","石門區"
"253006","295-VK","2019/11/01 18:43:50","新北市石門區下員坑30號","121.520188333333","25.2828133333333","6502200","石門區"
"222001","KEA-2212","2019/11/01 18:43:59","新北市深坑區松柏街35號","121.638605","25.0115083333333","6501800","深坑區"
"208002","KEA-2872","2019/11/01 18:43:56","新北市金山區信義路66號","121.635691666667","25.218935","6502700","金山區"
"208003","665-BX","2019/11/01 18:43:52","新北市金山區中山路340號","121.633531666667","25.22529","6502700","金山區"
"251004","009-UM","2019/11/01 18:43:54","新北市淡水區八勢二街51巷2號","121.460746666667","25.1491566666667","6501000","淡水區"
"251001","011-UM","2019/11/01 18:43:55","新北市淡水區自強路166號","121.465518333333","25.1341033333333","6501000","淡水區"
"251008","181-VK","2019/11/01 18:43:40","新北市淡水區淡金路二段599號","121.446773333333","25.192105","6501000","淡水區"
"251010","413-VK","2019/11/01 18:43:51","新北市淡水區沙崙路129號","121.422588333333","25.1823666666667","6501000","淡水區"
"251012","441-VK","2019/11/01 18:43:57","新北市淡水區北新路138號","121.448511666667","25.17844","6501000","淡水區"
"251006","561-UM","2019/11/01 18:43:42","新北市淡水區崁頂61號","121.440858333333","25.1998383333333","6501000","淡水區"
"251011","650-BX","2019/11/01 18:43:50","新北市淡水區平遠街1-4號","121.448033333333","25.16767","6501000","淡水區"
"251002","672-BX","2019/11/01 18:43:45","新北市淡水區中正東路71號","121.447258333333","25.1675083333333","6501000","淡水區"
"251003","766-UM","2019/11/01 18:43:46","新北市淡水區北新路69巷26號","121.446686666667","25.1801033333333","6501000","淡水區"
"207003","681-TV","2019/11/01 18:43:51","新北市萬里區野柳里港東路74-4號","121.688933333333","25.2051583333333","6502800","萬里區"
"207004","291-VK","2019/11/01 18:43:54","新北市萬里區萬里里獅頭路22-1號","121.692938333333","25.1781083333333","6502800","萬里區"
"252002","178-VK","2019/11/01 18:43:43","新北市三芝區中正路一段118號","121.50492","25.25624","6502100","三芝區"
"252003","249-BX","2019/11/01 18:43:50","新北市三芝區後厝里大片頭85-9號","121.45871","25.24394","6502100","三芝區"
"208001","170-UY","2019/11/01 18:43:43","新北市金山區文化三路66巷1號","121.63416","25.2256066666667","6502700","金山區"
"237004","KEA-2597","2019/11/01 18:43:47","新北市三峽區有木2-2號","121.417216666667","24.8657516666667","6500900","三峽區"
"237007","153-BY","2019/11/01 18:43:53","新北市三峽區中正路二段421號","121.363048333333","24.90683","6500900","三峽區"
"237009","210-TH","2019/11/01 18:43:54","新北市三峽區仁愛街6號","121.368445","24.933895","6500900","三峽區"
"237013","252-BX","2019/11/01 18:43:43","新北市三峽區光明路69巷24號","121.37664","24.9290883333333","6500900","三峽區"
"237012","275-BY","2019/11/01 18:43:46","新北市三峽區三樹路340號","121.383951666667","24.94331","6500900","三峽區"
"237008","302-VK","2019/11/01 18:44:01","新北市三峽區白雞28-1號","121.37015","24.9122083333333","6500900","三峽區"
"237014","433-BY","2019/11/01 18:44:00","新北市三峽區復興路480巷53號","121.361255","24.9405366666667","6500900","三峽區"
"237006","5529-G3","2019/11/01 18:43:51","新北市三峽區溪東路301號","121.40942","24.9310683333333","6500900","三峽區"
"237011","KEA-2596","2019/11/01 18:43:58","新北市三峽區溪東路345號","121.411215","24.9296666666667","6500900","三峽區"
"237015","649-BX","2019/11/01 18:43:45","新北市三峽區安坑12-3號","121.442438333333","24.9262716666667","6500900","三峽區"
"237010","706-TV","2019/11/01 18:43:53","新北市三峽區復興路487號","121.361298333333","24.9384566666667","6500900","三峽區"
"237005","AKY-6261","2019/11/01 18:43:49","新北市三峽區民生街116號","121.372845","24.9352983333333","6500900","三峽區"
"236042","KED-0685","2019/11/01 18:43:50","新北市土城區裕民路92巷25弄2號","121.449578333333","24.9859333333333","6501300","土城區"
"220093","KED-0812","2019/11/01 18:43:39","新北市板橋區文化路二段16-2號","121.46889","25.0243566666667","6500100","板橋區"
"236079","166-UM","2019/11/01 18:43:54","新北市土城區中央路四段185巷23號","121.415611666667","24.955835","6501300","土城區"
"236030","253-BX","2019/11/01 18:43:56","新北市土城區中央路二段388號","121.439758333333","24.9710716666667","6501300","土城區"
"236026","269-VK","2019/11/01 18:43:41","新北市土城區和平路53號","121.443755","24.97177","6501300","土城區"
"236014","270-VK","2019/11/01 18:43:54","新北市土城區清水路278巷26號","121.462665","24.9827583333333","6501300","土城區"
"236039","271-VK","2019/11/01 18:43:51","新北市土城區明德路一段195巷2弄17號","121.46344","24.9781766666667","6501300","土城區"
"236069","KEA-2877","2019/11/01 18:43:52","新北市土城區永豐路157巷29弄6-1號","121.468263333333","24.981445","6501300","土城區"
"252001","KED-0821","2019/11/01 18:43:52","新北市三芝區中正路三段17號","121.50292","25.2534283333333","6502100","三芝區"
"236020","401-BY","2019/11/01 18:43:49","新北市土城區延吉街253巷30號","121.467968333333","24.9836533333333","6501300","土城區"
"236059","912-UM","2019/11/01 18:43:51","新北市土城區承天路2號","121.435105","24.96585","6501300","土城區"
"236048","913-UM","2019/11/01 18:43:56","新北市土城區青雲路107-1號","121.45915","24.9855183333333","6501300","土城區"
"236063","915-UM","2019/11/01 18:43:47","新北市土城區延壽路55巷9弄2號","121.469465","24.9916316666667","6501300","土城區"
"236055","AAC-216","2019/11/01 18:43:56","新北市土城區裕民路145-1號","121.451793333333","24.9862183333333","6501300","土城區"
"242060","986-R7","2019/11/01 18:43:48","新北市新莊區富國路176巷5號","121.424151666667","25.024125","6500500","新莊區"
"242058","612-BX","2019/11/01 18:43:42","新北市泰山區新北大道六段379號","121.422055","25.0325816666667","6500500","新莊區"
"238015","755-BX","2019/11/01 18:31:25","新北市樹林區備內街121號","121.405995","24.98934","6500700","樹林區"
"238023","601-UM","2019/11/01 18:43:46","新北市樹林區三福街114號","121.406396666667","25.016355","6500700","樹林區"
"238024","5061-A6","2019/11/01 18:43:55","新北市樹林區福順街75號","121.41628","24.9780616666667","6500700","樹林區"
"238018","KEA-2217","2019/11/01 18:43:52","新北市樹林區鎮前街221號","121.421278333333","24.98662","6500700","樹林區"
"238022","KEA-2213","2019/11/01 18:43:47","新北市樹林區中華路393號","121.411371666667","24.980455","6500700","樹林區"
"238017","283-BY","2019/11/01 18:43:56","新北市樹林區光興街50號","121.40984","25.0027566666667","6500700","樹林區"
"238014","282-BY","2019/11/01 18:43:49","新北市樹林區大安路111巷25號","121.42326","24.9976583333333","6500700","樹林區"
"238020","268-VK","2019/11/01 18:43:40","新北市樹林區俊安街22號","121.419473333333","25.0139383333333","6500700","樹林區"
"238026","172-UY","2019/11/01 18:43:46","新北市樹林區育德街121巷7號","121.388873333333","24.968075","6500700","樹林區"
"238016","169-UY","2019/11/01 18:43:49","新北市樹林區中山路一段412號","121.417398333333","24.985135","6500700","樹林區"
"239007","AAC-297","2019/11/01 18:43:51","新北市鶯歌區中正一路460號","121.36425","24.9563783333333","6500800","鶯歌區"
"239006","891-R6","2019/11/01 18:43:54","新北市鶯歌區鶯桃路296巷95號","121.336528333333","24.9617266666667","6500800","鶯歌區"
"239008","527-UM","2019/11/01 18:43:53","新北市鶯歌區國際一路179號","121.33626","24.97655","6500800","鶯歌區"
"239005","526-UM","2019/11/01 18:43:43","新北市鶯歌區鶯桃路668巷52弄6號","121.329458333333","24.9705583333333","6500800","鶯歌區"
"239001","417-VK","2019/11/01 18:43:55","新北市鶯歌區國中街197號","121.338211666667","24.939155","6500800","鶯歌區"
"239003","360-BY","2019/11/01 18:43:49","新北市鶯歌區福安街7巷1-1號","121.334675","24.964505","6500800","鶯歌區"
"239002","359-BY","2019/11/01 18:43:56","新北市鶯歌區國慶街35號","121.349538333333","24.9559633333333","6500800","鶯歌區"
"239004","193-VK","2019/11/01 18:43:42","新北市鶯歌區尖山路302巷18號","121.341625","24.94327","6500800","鶯歌區"
"221036","130-UY","2019/11/01 18:43:48","新北市汐止區長興街一段50號","121.670568333333","25.0793583333333","6501100","汐止區"
"221015","131-UY","2019/11/01 18:43:59","新北市汐止區鄉友街42號","121.668981666667","25.0815183333333","6501100","汐止區"
"221010","269-BY","2019/11/01 18:43:42","新北市汐止區汐萬路三段282號","121.641173333333","25.108535","6501100","汐止區"
"221012","278-VK","2019/11/01 18:43:42","新北市汐止區保長路147巷2號","121.677006666667","25.07653","6501100","汐止區"
"221032","280-BY","2019/11/01 18:43:57","新北市汐止區民權街二段79號","121.61914","25.0479266666667","6501100","汐止區"
"221029","298-VK","2019/11/01 18:43:54","新北市汐止區樟樹一路95號","121.64197","25.063535","6501100","汐止區"
"221021","299-VK","2019/11/01 18:43:43","新北市汐止區復興路71號","121.65737","25.0619866666667","6501100","汐止區"
"221031","353-TW","2019/11/01 18:43:47","新北市汐止區大同路一段233-1號","121.634423333333","25.0575733333333","6501100","汐止區"
"221035","622-UM","2019/11/01 18:43:47","新北市汐止區大同路二段179號","121.652","25.0642166666667","6501100","汐止區"
"221025","623-UM","2019/11/01 18:43:46","新北市汐止區仁愛路119巷3號","121.662548333333","25.063765","6501100","汐止區"
"221002","707-TV","2019/11/01 18:43:41","新北市汐止區大同路一段239號","121.635141666667","25.0579466666667","6501100","汐止區"
"221018","753-BX","2019/11/01 18:43:46","新北市汐止區茄苳路247號","121.671675","25.06836","6501100","汐止區"
"220079","145-BY","2019/11/01 18:43:41","新北市板橋區南雅西路二段121號","121.452436666667","25.0109783333333","6500100","板橋區"
"220080","200-UY","2019/11/01 18:43:54","新北市板橋區大觀路二段265巷130弄32號","121.441021666667","24.99659","6500100","板橋區"
"224002","257-TC","2019/11/01 18:43:46","新北市瑞芳區靜安路四段36號","121.793075","25.10064","6501200","瑞芳區"
"220056","276-BY","2019/11/01 18:43:58","新北市板橋區縣民大道一段114號","121.457275","25.0060066666667","6500100","板橋區"
"220072","277-BY","2019/11/01 18:43:50","新北市板橋區大觀路二段443-2號","121.43907","24.99519","6500100","板橋區"
"220094","283-UM","2019/11/01 18:43:43","新北市板橋區民生路二段89-6號","121.470738333333","25.0190316666667","6500100","板橋區"
"220071","283-VK","2019/11/01 18:43:56","新北市板橋區四川路一段387號","121.45813","24.9993766666667","6500100","板橋區"
"220053","285-VK","2019/11/01 18:43:50","新北市板橋區民生路二段80號","121.471781666667","25.0183233333333","6500100","板橋區"
"220083","286-VK","2019/11/01 18:43:49","新北市板橋區大觀路二段20-2號","121.446471666667","25.0033083333333","6500100","板橋區"
"220081","287-VK","2019/11/01 18:43:40","新北市板橋區大觀路二段153巷46弄1號","121.448531666667","24.9986616666667","6500100","板橋區"
"220090","288-VK","2019/11/01 18:43:55","新北市板橋區民生路三段105號","121.466508333333","25.0251516666667","6500100","板橋區"
"220061","293-UM","2019/11/01 18:43:46","新北市板橋區縣民大道三段32號","121.471725","25.0188066666667","6500100","板橋區"
"220084","296-UM","2019/11/01 18:43:54","新北市板橋區大觀路二段148巷25號","121.441845","25.0001766666667","6500100","板橋區"
"220075","303-R5","2019/11/01 18:43:43","新北市板橋區華東街272號","121.452636666667","25.0018816666667","6500100","板橋區"
"220062","305-R5","2019/11/01 18:43:45","新北市板橋區民生路二段15號","121.472593333333","25.0161133333333","6500100","板橋區"
"220092","307-R5","2019/11/01 18:43:53","新北市板橋區漢生東路21-1號","121.465043333333","25.017195","6500100","板橋區"
"220088","491-VK","2019/11/01 18:44:01","新北市板橋區民生路二段148號","121.471351666667","25.0198466666667","6500100","板橋區"
"220103","561-BX","2019/11/01 18:43:58","新北市板橋區民生路二段121號","121.470736666667","25.0182383333333","6500100","板橋區"
"220063","609-BX","2019/11/01 18:43:50","新北市板橋區民生路一段68號","121.473766666667","25.015055","6500100","板橋區"
"220057","686-BX","2019/11/01 18:43:56","新北市板橋區館前西路5號","121.459101666667","25.0070633333333","6500100","板橋區"
"220077","687-BX","2019/11/01 18:43:58","新北市板橋區大觀路二段170號","121.441078333333","24.9986066666667","6500100","板橋區"
"220093","689-BX","2019/11/01 18:43:57","新北市板橋區民生路二段161巷1號","121.470118333333","25.0199516666667","6500100","板橋區"
"220054","741-BX","2019/11/01 18:43:58","新北市板橋區縣民大道一段64巷2號","121.455168333333","25.0041116666667","6500100","板橋區"
"220102","KEA-2699","2019/11/01 18:43:46","新北市板橋區民生路二段161巷1號","121.470141666667","25.020025","6500100","板橋區"
"220055","827-TW","2019/11/01 18:43:59","新北市板橋區忠孝路105號","121.462636666667","25.0023616666667","6500100","板橋區"
"220067","829-TW","2019/11/01 18:43:42","新北市板橋區民生路一段57號","121.475228333333","25.0130516666667","6500100","板橋區"
"220068","831-TW","2019/11/01 18:43:48","新北市板橋區莒光路167-4號","121.474195","25.0236816666667","6500100","板橋區"
"220082","833-TW","2019/11/01 18:43:39","新北市板橋區篤行路一段10號","121.43209","24.9954933333333","6500100","板橋區"
"220074","895-R6","2019/11/01 18:43:51","新北市板橋區南雅南路一段131號","121.455063333333","25.0044583333333","6500100","板橋區"
"220073","985-R7","2019/11/01 18:43:59","新北市板橋區貴興路7號","121.457728333333","25.0044266666667","6500100","板橋區"
"220097","AAC-210","2019/11/01 18:43:50","新北市板橋區民生路三段107號","121.466465","25.0252633333333","6500100","板橋區"
"220064","AAC-253","2019/11/01 18:43:54","新北市板橋區中山路二段27號","121.472648333333","25.0153083333333","6500100","板橋區"
"235068","KEA-2873","2019/11/01 18:43:59","新北市中和區中正路211巷13弄5號","121.497118333333","24.9931016666667","6500300","中和區"
"235061","KEA-2875","2019/11/01 18:43:35","新北市中和區民治街136號","121.4752","25.002075","6500300","中和區"
