"lineid","car","time","location","longitude","latitude","cityid","cityname"
"234046","148-BY","2019/11/01 19:43:41","新北市永和區永利路167號","121.525238333333","25.00357","6500400","永和區"
"234081","298-R6","2019/11/01 19:43:54","新北市永和區林森路52號","121.52454","25.004455","6500400","永和區"
"234038","336-UY","2019/11/01 19:43:54","新北市永和區民樂街41巷13號","121.528363333333","25.00006","6500400","永和區"
"234064","337-UY","2019/11/01 19:43:55","新北市永和區秀朗路一段192巷6弄14號","121.5191","25.0022783333333","6500400","永和區"
"234086","338-UY","2019/11/01 19:43:38","新北市永和區林森路65號","121.524185","25.0041716666667","6500400","永和區"
"234070","552-UM","2019/11/01 19:43:46","新北市永和區永和路二段243號","121.515706666667","25.0146966666667","6500400","永和區"
"234050","553-UM","2019/11/01 19:43:52","新北市永和區保安路2號","121.510828333333","25.0173766666667","6500400","永和區"
"234017","745-BX","2019/11/01 19:43:49","新北市永和區永和路二段405巷6號","121.51527","25.017445","6500400","永和區"
"234030","746-BX","2019/11/01 19:43:38","新北市永和區民生路47巷58號","121.525678333333","24.9978183333333","6500400","永和區"
"234054","KEA-2590","2019/11/01 19:43:53","新北市永和區竹林路39巷26號","121.519083333333","25.0148216666667","6500400","永和區"
"234007","KED-0605","2019/11/01 19:43:39","新北市永和區中和路373號","121.508313333333","24.9997933333333","6500400","永和區"
"234013","KEA-2591","2019/11/01 19:43:50","新北市永和區仁愛路253號","121.508561666667","25.0116233333333","6500400","永和區"
"234061","AAD-866","2019/11/01 19:43:34","新北市永和區中正路324號","121.517475","24.9994983333333","6500400","永和區"
"234042","862-TW","2019/11/01 19:43:39","新北市永和區中和路305巷16弄1號","121.507396666667","25.0014183333333","6500400","永和區"
"234026","9371-KE","2019/11/01 19:43:47","新北市永和區雙和街7巷8號","121.509486666667","25.0015183333333","6500400","永和區"
"234011","9373-KE","2019/11/01 19:43:40","新北市永和區仁愛路352巷94號","121.501168333333","25.00805","6500400","永和區"
"249004","303-UY","2019/11/01 19:43:36","新北市八里區中山路一段268巷5弄11號","121.41423","25.1602483333333","6502300","八里區"
"249002","305-UY","2019/11/01 19:43:44","新北市八里區頂寮二街33-1號","121.450311666667","25.1251933333333","6502300","八里區"
"249003","593-UM","2019/11/01 19:43:50","新北市八里區中華路二段540號","121.39904","25.1456983333333","6502300","八里區"
"248016","026-BX","2019/11/01 19:43:51","新北市五股區成泰路三段544-18號","121.452776666667","25.1034816666667","6501500","五股區"
"248008","KED-0815","2019/11/01 19:43:45","新北市五股區四維路118巷10弄1號","121.468836666667","25.0742966666667","6501500","五股區"
"248018","KED-0813","2019/11/01 19:43:45","新北市五股區外寮路1-1號","121.425825","25.0768083333333","6501500","五股區"
"248012","247-BX","2019/11/01 19:43:53","新北市五股區蓬萊路10-2號","121.435236666667","25.0795566666667","6501500","五股區"
"248014","261-SL","2019/11/01 19:43:39","新北市五股區五福路32巷7號","121.434458333333","25.08935","6501500","五股區"
"248010","272-BY","2019/11/01 19:43:45","新北市五股區登林路76-6號","121.430471666667","25.069545","6501500","五股區"
"248004","677-BX","2019/11/01 19:43:41","新北市五股區成泰路一段149-7號","121.435306666667","25.0737916666667","6501500","五股區"
"248002","678-BX","2019/11/01 19:43:39","新北市五股區成泰路三段577巷13號","121.45167","25.1027466666667","6501500","五股區"
"234023","9380-KE","2019/11/01 19:43:42","新北市永和區中山路一段77號","121.512325","25.010705","6500400","永和區"
"234077","969-R7","2019/11/01 19:43:54","新北市永和區民權路29巷2號","121.520301666667","24.997705","6500400","永和區"
"234074","AAC-211","2019/11/01 19:43:50","新北市永和區豫溪街160巷17號","121.523325","25.0091166666667","6500400","永和區"
"234067","AAC-212","2019/11/01 19:43:45","新北市永和區中山路一段145號","121.510303333333","25.009575","6500400","永和區"
"234003","AAC-295","2019/11/01 19:43:40","新北市永和區永和路一段93號","121.513351666667","25.0075483333333","6500400","永和區"
"244023","483-VK","2019/11/01 19:43:54","新北市林口區文林四街66號","121.373873333333","25.0848316666667","6501700","林口區"
"243012","AAD-798","2019/11/01 19:43:53","新北市泰山區仁愛路100巷77號","121.433893333333","25.0543583333333","6501600","泰山區"
"243010","297-R6","2019/11/01 19:18:01","新北市泰山區明志路一段488號","121.430485","25.05451","6501600","泰山區"
"243016","421-VK","2019/11/01 19:43:43","新北市泰山區明志路三段480號","121.421021666667","25.0314833333333","6501600","泰山區"
"243011","KEA-2216","2019/11/01 19:43:54","新北市泰山區明志路三段196巷21弄20號","121.422788333333","25.0386016666667","6501600","泰山區"
"243015","680-BX","2019/11/01 19:43:42","新北市泰山區明志路二段237巷19號","121.427918333333","25.0479916666667","6501600","泰山區"
"222003","436-BY","2019/11/01 19:43:53","新北市深坑區深南路51-1號","121.621186666667","25.0098766666667","6501800","深坑區"
"222002","659-BX","2019/11/01 19:43:52","新北市深坑區北深路一段177號","121.632621666667","25.01086","6501800","深坑區"
"231042","001-UM","2019/11/01 19:43:48","新北市新店區中興路一段258號","121.544718333333","24.9669983333333","6500600","新店區"
"231061","002-UM","2019/11/01 19:43:47","新北市新店區安民街141號","121.516468333333","24.9695166666667","6500600","新店區"
"231055","0291-UT","2019/11/01 19:43:42","新北市新店區中華路83巷67號","121.538203333333","24.967265","6500600","新店區"
"231058","0293-UT","2019/11/01 19:43:35","新北市新店區中正路102巷8弄2號","121.543348333333","24.9710283333333","6500600","新店區"
"231044","046-UY","2019/11/01 19:43:53","新北市新店區北新路三段2號","121.542426666667","24.978905","6500600","新店區"
"231060","106-UY","2019/11/01 19:43:37","新北市新店區安康路二段159巷2號","121.510296666667","24.959325","6500600","新店區"
"231051","107-UY","2019/11/01 19:43:51","新北市新店區中央四街22號","121.529088333333","24.9741333333333","6500600","新店區"
"231049","108-UY","2019/11/01 19:43:39","新北市新店區民權路100-1號","121.536143333333","24.9833","6500600","新店區"
"231065","110-UY","2019/11/01 19:43:50","新北市新店區安祥路109巷112號","121.477011666667","24.958615","6500600","新店區"
"231062","256-BX","2019/11/01 19:43:50","新北市新店區碧潭路60-1號","121.534496666667","24.956855","6500600","新店區"
"231054","260-TV","2019/11/01 19:43:54","新北市新店區文中路45號","121.539478333333","24.9567516666667","6500600","新店區"
"231064","278-BY","2019/11/01 19:43:22","新北市新店區安和路二段115號","121.51867","24.970415","6500600","新店區"
"231050","AAD-862","2019/11/01 19:43:49","新北市新店區郵政路101號","121.554325","24.9512","6500600","新店區"
"231045","355-BY","2019/11/01 19:43:52","新北市新店區北宜路二段148號","121.557545","24.9538966666667","6500600","新店區"
"231067","4772-VM","2019/11/01 19:43:37","新北市新店區精忠路10-1號","121.53254","24.959115","6500600","新店區"
"231053","513-UM","2019/11/01 19:43:45","新北市新店區新烏路二段489號","121.552236666667","24.9086766666667","6500600","新店區"
"231063","616-UM","2019/11/01 19:43:52","新北市新店區車子路121號","121.505325","24.9507066666667","6500600","新店區"
"231041","619-UM","2019/11/01 19:43:52","新北市新店區中正路472號","121.533865","24.9807783333333","6500600","新店區"
"231048","KED-0819","2019/11/01 19:43:47","新北市新店區五峰路61巷13號","121.549448333333","24.969515","6500600","新店區"
"231046","719-UM","2019/11/01 19:43:46","新北市新店區三民路84巷10號","121.534788333333","24.9729916666667","6500600","新店區"
"231057","720-UM","2019/11/01 19:43:42","新北市新店區百齡一路10號","121.553841666667","24.9323633333333","6500600","新店區"
"231059","897-TW","2019/11/01 19:43:27","新北市新店區安和路三段47號","121.517998333333","24.9826016666667","6500600","新店區"
"231040","898-TW","2019/11/01 19:43:41","新北市新店區中正路75巷71號","121.543146666667","24.9688233333333","6500600","新店區"
"231043","899-TW","2019/11/01 19:43:46","新北市新店區中正路249號","121.539015","24.9734066666667","6500600","新店區"
"231066","AKT-0513","2019/11/01 19:43:52","新北市新店區安康路三段242-1號","121.487886666667","24.9517633333333","6500600","新店區"
"241028","022-UY","2019/11/01 19:43:39","新北市三重區中正南路188號","121.493898333333","25.056095","6500200","三重區"
"241008","059-VK","2019/11/01 19:43:41","新北市三重區永福街111巷15號","121.478863333333","25.07767","6500200","三重區"
"241023","060-VK","2019/11/01 19:43:46","新北市三重區頂崁街168號","121.477635","25.06589","6500200","三重區"
"241031","061-VK","2019/11/01 19:43:49","新北市三重區重新路四段101號","121.485615","25.0545466666667","6500200","三重區"
"241015","062-VK","2019/11/01 19:43:38","新北市三重區三和路一段53號","121.502826666667","25.0654583333333","6500200","三重區"
"241017","063-VK","2019/11/01 19:43:34","新北市三重區重陽路三段5巷8弄31號","121.490296666667","25.0661883333333","6500200","三重區"
"241007","066-VK","2019/11/01 19:43:55","新北市三重區三和路四段137號","121.48447","25.078025","6500200","三重區"
"241006","262-UM","2019/11/01 19:43:37","新北市三重區永福街281-3號","121.48281","25.0743716666667","6500200","三重區"
"241016","266-UM","2019/11/01 19:43:47","新北市三重區正義北路16巷28號","121.49662","25.0628466666667","6500200","三重區"
"241009","267-UM","2019/11/01 19:43:47","新北市三重區三和路四段400巷2號","121.48113","25.0794166666667","6500200","三重區"
"241032","269-UM","2019/11/01 19:43:49","新北市三重區重陽路一段60巷18號","121.485918333333","25.058165","6500200","三重區"
"241013","270-UM","2019/11/01 19:43:46","新北市三重區仁福街64巷39號","121.497463333333","25.075965","6500200","三重區"
"241025","271-UM","2019/11/01 19:43:43","新北市三重區頂崁街210巷16號","121.476448333333","25.0677716666667","6500200","三重區"
"241030","KED-0822","2019/11/01 19:43:55","新北市三重區環河南路228號","121.492235","25.0515416666667","6500200","三重區"
"241035","462-BY","2019/11/01 19:43:40","新北市三重區文化北路33-5號","121.499281666667","25.06439","6500200","三重區"
"241004","475-VK","2019/11/01 19:43:37","新北市三重區五華街74號","121.493358333333","25.0820483333333","6500200","三重區"
"241020","478-VK","2019/11/01 19:43:35","新北市三重區後竹圍街52號","121.490766666667","25.0733333333333","6500200","三重區"
"241026","480-VK","2019/11/01 19:43:45","新北市三重區文化南路42號","121.500396666667","25.06007","6500200","三重區"
"241014","543-UM","2019/11/01 19:43:45","新北市三重區龍濱路19號","121.503013333333","25.0677916666667","6500200","三重區"
"241001","547-UM","2019/11/01 19:43:36","新北市三重區仁愛街327巷57號","121.493575","25.08027","6500200","三重區"
"241019","KEA-2593","2019/11/01 19:43:45","新北市三重區安慶街361巷1號","121.487591666667","25.0676116666667","6500200","三重區"
"241005","AAD-863","2019/11/01 19:43:53","新北市三重區溪尾街325巷26號","121.488653333333","25.0836966666667","6500200","三重區"
"241012","743-BX","2019/11/01 19:43:45","新北市三重區仁興街28巷36號","121.498503333333","25.0751566666667","6500200","三重區"
"241029","942-UM","2019/11/01 19:43:52","新北市三重區光明路67號","121.49186","25.0574433333333","6500200","三重區"
"235066","003-UY","2019/11/01 19:43:53","新北市中和區景新街73巷6號","121.505396666667","24.9987383333333","6500300","中和區"
"235063","006-UY","2019/11/01 19:43:56","新北市中和區連城路263巷23號","121.492686666667","24.9947983333333","6500300","中和區"
"235056","096-UM","2019/11/01 19:43:35","新北市中和區中山路三段134號","121.473928333333","25.0064","6500300","中和區"
"235039","097-UM","2019/11/01 19:43:51","新北市中和區景平路172號","121.517065","24.99263","6500300","中和區"
"235065","098-UM","2019/11/01 19:43:34","新北市中和區福祥路72號","121.4994","25.0053266666667","6500300","中和區"
"235040","150-BY","2019/11/01 19:43:37","新北市中和區安平路59號","121.50962","24.9949283333333","6500300","中和區"
"235058","151-BY","2019/11/01 19:43:36","新北市中和區員山路146巷17號","121.482306666667","24.9968233333333","6500300","中和區"
"235055","183-VK","2019/11/01 19:43:38","新北市中和區德光路27巷9號","121.471","25.0035983333333","6500300","中和區"
"235038","185-VK","2019/11/01 19:43:48","新北市中和區自強路21號","121.52054","24.9931816666667","6500300","中和區"
"235067","255-BX","2019/11/01 19:43:50","新北市中和區新生街186巷1弄17號","121.483436666667","24.9990166666667","6500300","中和區"
"235044","293-VK","2019/11/01 19:43:39","新北市中和區捷運路58-3號","121.507278333333","24.9908","6500300","中和區"
"235072","301-VK","2019/11/01 19:43:45","新北市中和區中正路432巷32號","121.490996666667","24.9958066666667","6500300","中和區"
"235043","352-BY","2019/11/01 19:43:53","新北市中和區華新街232巷8號","121.505858333333","24.9820316666667","6500300","中和區"
"235042","KEA-2878","2019/11/01 19:43:35","新北市中和區保健路2巷20號","121.507275","24.997735","6500300","中和區"
"235020","4978-A6","2019/11/01 19:43:51","新北市中和區連城路139巷66號","121.496738333333","24.99673","6500300","中和區"
"235070","558-UM","2019/11/01 19:43:56","新北市中和區圓通路233號","121.4962","24.9941216666667","6500300","中和區"
"235071","647-TV","2019/11/01 19:43:40","新北市中和區中山路二段441號","121.48465","25.0047416666667","6500300","中和區"
"235047","732-UM","2019/11/01 19:43:50","新北市中和區和平街28號","121.509636666667","24.990175","6500300","中和區"
"235046","733-UM","2019/11/01 19:43:35","新北市中和區仁愛街69號","121.511481666667","24.9875166666667","6500300","中和區"
"235057","801-TS","2019/11/01 19:43:37","新北市中和區中山路二段437號","121.484663333333","25.0048666666667","6500300","中和區"
"235041","802-TS","2019/11/01 19:43:42","新北市中和區中安街16號","121.513518333333","25.0032016666667","6500300","中和區"
"235052","805-TS","2019/11/01 19:43:48","新北市中和區興南路二段79巷7號","121.506731666667","24.9847033333333","6500300","中和區"
"235048","896-TW","2019/11/01 19:43:52","新北市中和區興南路一段152號","121.508228333333","24.98697","6500300","中和區"
"235053","900-TW","2019/11/01 19:43:40","新北市中和區國光街140號","121.46843","25.0013283333333","6500300","中和區"
"235051","157-BY","2019/11/01 19:43:41","新北市中和區中興街127號","121.499965","24.991715","6500300","中和區"
"235037","AAC-213","2019/11/01 19:43:41","新北市中和區自立路60號","121.523653333333","24.9915616666667","6500300","中和區"
"235059","AAC-215","2019/11/01 19:43:34","新北市中和區圓通路305巷15弄2號","121.494298333333","24.9894866666667","6500300","中和區"
"220035","015-TV","2019/11/01 19:43:50","新北市板橋區新生街89巷34號","121.456828333333","25.0227683333333","6500100","板橋區"
"220065","072-UY","2019/11/01 19:43:49","新北市板橋區國泰街38巷2弄9號","121.468313333333","25.0067183333333","6500100","板橋區"
"220086","073-UY","2019/11/01 19:43:50","新北市板橋區中正路236巷112號","121.459148333333","25.0195483333333","6500100","板橋區"
"220106","075-UY","2019/11/01 19:43:45","新北市板橋區民治街71巷36號","121.480565","25.0327966666667","6500100","板橋區"
"220069","AAD-861","2019/11/01 19:43:54","新北市板橋區貴興路119巷1弄1號","121.455685","25.0022733333333","6500100","板橋區"
"247018","500-BY","2019/11/01 19:43:43","新北市蘆洲區民族路282號","121.478183333333","25.089415","6501400","蘆洲區"
"247004","341-TH","2019/11/01 19:43:33","新北市蘆洲區中原路21巷7弄40號","121.461868333333","25.0829483333333","6501400","蘆洲區"
"247002","001-UY","2019/11/01 19:43:56","新北市蘆洲區長榮路665號","121.460116666667","25.0915166666667","6501400","蘆洲區"
"226004","312-R5","2019/11/01 19:43:45","新北市平溪區十分里十分街60號","121.775676666667","25.0415583333333","6502400","平溪區"
"235049","251-BX","2019/11/01 19:43:55","新北市中和區景平路385巷12號","121.502133333333","24.994475","6500300","中和區"
"228001","670-TC","2019/11/01 19:43:42","新北市貢寮區真理里新港街60號","121.926615","25.0559516666667","6502600","貢寮區"
"228003","828-UM","2019/11/01 19:43:39","新北市貢寮區真理里美艷山街15-3號","121.923736666667","25.0680016666667","6502600","貢寮區"
"224010","AGQ-8101","2019/11/01 19:43:38","新北市瑞芳區輕便路308號","121.843036666667","25.1084416666667","6501200","瑞芳區"
"227001","642-TC","2019/11/01 19:43:37","新北市雙溪區新基里中華路44號","121.865926666667","25.0373866666667","6502500","雙溪區"
"227002","400-TW","2019/11/01 19:43:41","新北市雙溪區雙溪里內挖路36號","121.86322","25.0367183333333","6502500","雙溪區"
"222001","KEA-2212","2019/11/01 19:43:39","新北市深坑區北深路三段16號","121.609608333333","25.0011516666667","6501800","深坑區"
"208002","KEA-2872","2019/11/01 19:43:36","新北市金山區中華路366-1號","121.633251666667","25.224495","6502700","金山區"
"208003","665-BX","2019/11/01 19:43:52","新北市金山區海興路38號","121.630981666667","25.2384983333333","6502700","金山區"
"251001","011-UM","2019/11/01 19:43:55","新北市淡水區中正東路二段85號","121.459523333333","25.1534533333333","6501000","淡水區"
"251008","181-VK","2019/11/01 19:43:40","新北市淡水區中正路一段62巷13號","121.425906666667","25.1774016666667","6501000","淡水區"
"251007","442-VK","2019/11/01 19:43:50","新北市淡水區中正東路一段105巷5號","121.453271666667","25.1607233333333","6501000","淡水區"
"251005","443-VK","2019/11/01 19:43:39","新北市淡水區原德路77號","121.442475","25.1724683333333","6501000","淡水區"
"251006","561-UM","2019/11/01 19:43:42","新北市淡水區中山北路一段207巷71號","121.441538333333","25.179215","6501000","淡水區"
"251009","575-R6","2019/11/01 19:43:36","新北市淡水區中山北路一段160號","121.444121666667","25.178315","6501000","淡水區"
"251011","650-BX","2019/11/01 19:43:54","新北市淡水區八勢路6號","121.462461666667","25.150265","6501000","淡水區"
"207003","681-TV","2019/11/01 19:43:51","新北市萬里區大鵬里下社12號","121.648038333333","25.2179116666667","6502800","萬里區"
"207004","291-VK","2019/11/01 19:43:54","新北市萬里區萬里里瑪鋉路21號","121.687458333333","25.1754533333333","6502800","萬里區"
"252002","178-VK","2019/11/01 19:43:43","新北市三芝區三民街31號","121.504566666667","25.2586016666667","6502100","三芝區"
"208001","170-UY","2019/11/01 19:43:43","新北市金山區重和里六股林口38-1號","121.603186666667","25.218755","6502700","金山區"
"237004","KEA-2597","2019/11/01 19:43:47","新北市三峽區金敏16號","121.390295","24.874595","6500900","三峽區"
"237007","153-BY","2019/11/01 19:43:53","新北市三峽區二鬮路136巷24弄1號","121.356023333333","24.9099933333333","6500900","三峽區"
"237009","210-TH","2019/11/01 19:43:54","新北市三峽區中園街109號","121.367751666667","24.9245666666667","6500900","三峽區"
"237013","252-BX","2019/11/01 19:43:42","新北市三峽區橫溪路96號","121.397915","24.9354383333333","6500900","三峽區"
"237012","275-BY","2019/11/01 19:43:46","新北市三峽區光明路39-1號","121.374373333333","24.9299833333333","6500900","三峽區"
"237008","302-VK","2019/11/01 19:43:41","新北市三峽區中正路一段292巷23號","121.370493333333","24.92593","6500900","三峽區"
"237014","433-BY","2019/11/01 19:43:40","新北市三峽區嘉添87號","121.36877","24.9098866666667","6500900","三峽區"
"237006","5529-G3","2019/11/01 19:43:51","新北市三峽區中正路一段336巷15弄2號","121.36995","24.9249533333333","6500900","三峽區"
"237011","KEA-2596","2019/11/01 19:43:38","新北市三峽區中正路一段410號","121.370738333333","24.9226233333333","6500900","三峽區"
"237015","649-BX","2019/11/01 19:43:45","新北市三峽區成福路3號","121.41682","24.9282016666667","6500900","三峽區"
"237010","706-TV","2019/11/01 19:43:53","新北市三峽區復興路36-8號","121.373868333333","24.9365833333333","6500900","三峽區"
"237005","AKY-6261","2019/11/01 19:43:49","新北市三峽區文化路137號","121.369795","24.9355616666667","6500900","三峽區"
"236042","KED-0685","2019/11/01 19:43:50","新北市土城區裕民路285號","121.456058333333","24.9815883333333","6501300","土城區"
"220089","KED-0812","2019/11/01 19:43:50","新北市板橋區新海路378號","121.459213333333","25.02591","6500100","板橋區"
"236079","166-UM","2019/11/01 19:43:54","新北市土城區溪頭路62號","121.411741666667","24.9551883333333","6501300","土城區"
"236030","253-BX","2019/11/01 19:43:56","新北市土城區中央路一段290號","121.443301666667","24.9824","6501300","土城區"
"236039","271-VK","2019/11/01 19:43:50","新北市土城區仁愛路48-1號","121.46192","24.979145","6501300","土城區"
"236069","KEA-2877","2019/11/01 19:43:52","新北市土城區金城路一段131號","121.444868333333","24.9736883333333","6501300","土城區"
"252001","KED-0821","2019/11/01 19:43:51","新北市三芝區公正街66號","121.499791666667","25.2574766666667","6502100","三芝區"
"236020","401-BY","2019/11/01 19:43:49","新北市土城區明峰街83號","121.46896","24.9873716666667","6501300","土城區"
"236059","912-UM","2019/11/01 19:43:51","新北市土城區中央路一段248-2號","121.444501666667","24.9846883333333","6501300","土城區"
"236048","913-UM","2019/11/01 19:43:36","新北市土城區明德路一段253號","121.46245","24.9780083333333","6501300","土城區"
"236063","915-UM","2019/11/01 19:43:48","新北市土城區延和路105巷4弄2號","121.46751","24.9906633333333","6501300","土城區"
"236055","AAC-216","2019/11/01 19:43:37","新北市土城區延和路70號","121.465953333333","24.98919","6501300","土城區"
"242005","751-BX","2019/11/01 19:43:50","新北市新莊區復興路三段24號","121.46098","25.0440833333333","6500500","新莊區"
"242048","566-BX","2019/11/01 19:43:51","新北市新莊區民安路49號","121.423913333333","25.0261583333333","6500500","新莊區"
"242013","413-TV","2019/11/01 19:43:52","新北市新莊區中泰街102號","121.448968333333","25.0466966666667","6500500","新莊區"
"242039","135-UY","2019/11/01 19:43:36","新北市新莊區民安路421號","121.43326","25.0227683333333","6500500","新莊區"
"242032","175-VK","2019/11/01 19:43:43","新北市新莊區公園一路126號","121.445738333333","25.0380783333333","6500500","新莊區"
"242037","348-TH","2019/11/01 19:43:43","新北市新莊區建安街101巷2弄1號","121.426845","25.02397","6500500","新莊區"
"242034","350-TH","2019/11/01 19:43:45","新北市新莊區中正路346號","121.44423","25.0345483333333","6500500","新莊區"
"242019","351-TH","2019/11/01 19:43:46","新北市新莊區新泰路381巷38號","121.442361666667","25.0436183333333","6500500","新莊區"
"238015","755-BX","2019/11/01 19:43:49","新北市樹林區日新街83號","121.42172","24.9904333333333","6500700","樹林區"
"238023","601-UM","2019/11/01 19:43:46","新北市樹林區三福街114號","121.406625","25.0163233333333","6500700","樹林區"
"238019","599-UM","2019/11/01 19:43:46","新北市樹林區八德街1號","121.417528333333","24.984785","6500700","樹林區"
"238024","5061-A6","2019/11/01 19:43:41","新北市樹林區山佳街19號","121.393811666667","24.97278","6500700","樹林區"
"238022","KEA-2213","2019/11/01 19:43:54","新北市樹林區國凱街48-1號","121.420318333333","24.9787783333333","6500700","樹林區"
"238021","KEA-2539","2019/11/01 19:43:43","新北市樹林區佳園路三段101巷120-1號","121.397071666667","24.9504316666667","6500700","樹林區"
"238025","303-VK","2019/11/01 19:43:50","新北市樹林區中山路一段147號","121.422233333333","24.98935","6500700","樹林區"
"238017","283-BY","2019/11/01 19:43:56","新北市樹林區保安街二段165號","121.415238333333","25.002885","6500700","樹林區"
"238014","282-BY","2019/11/01 19:43:49","新北市樹林區千歲街30巷8號","121.42601","24.9962833333333","6500700","樹林區"
"238020","268-VK","2019/11/01 19:43:40","新北市樹林區太平路247巷30號","121.422253333333","24.974755","6500700","樹林區"
"238026","172-UY","2019/11/01 19:43:46","新北市樹林區佳園路二段15巷9弄7號","121.39386","24.963345","6500700","樹林區"
"239007","AAC-297","2019/11/01 19:43:51","新北市鶯歌區大湖路326巷35號","121.346221666667","24.96994","6500800","鶯歌區"
"239006","891-R6","2019/11/01 19:43:54","新北市鶯歌區文化路115巷23號","121.357771666667","24.955055","6500800","鶯歌區"
"239008","527-UM","2019/11/01 19:43:53","新北市鶯歌區國際二路2巷4號","121.339043333333","24.9729283333333","6500800","鶯歌區"
"239005","526-UM","2019/11/01 19:43:43","新北市鶯歌區東湖路11號","121.351866666667","24.9721383333333","6500800","鶯歌區"
"239001","417-VK","2019/11/01 19:43:35","新北市鶯歌區鶯桃路69-1號","121.340881666667","24.9530666666667","6500800","鶯歌區"
"239003","360-BY","2019/11/01 19:43:49","新北市鶯歌區重慶街10巷2號","121.351901666667","24.95273","6500800","鶯歌區"
"239002","359-BY","2019/11/01 19:43:36","新北市鶯歌區大湖路185巷22號","121.342618333333","24.97045","6500800","鶯歌區"
"239004","193-VK","2019/11/01 19:43:42","新北市鶯歌區二甲路55-25號","121.338283333333","24.9297266666667","6500800","鶯歌區"
"221008","489-VK","2019/11/01 19:43:52","新北市汐止區康寧街61巷63號","121.619995","25.06773","6501100","汐止區"
"221010","269-BY","2019/11/01 19:43:41","新北市汐止區汐萬路一段312號","121.650503333333","25.075355","6501100","汐止區"
"221012","278-VK","2019/11/01 19:43:42","新北市汐止區大同路三段318號","121.67901","25.0711133333333","6501100","汐止區"
"221023","279-VK","2019/11/01 19:43:45","新北市汐止區中興路250號","121.629061666667","25.068665","6501100","汐止區"
"221027","281-BY","2019/11/01 19:43:55","新北市汐止區忠孝東路9號","121.658293333333","25.0659083333333","6501100","汐止區"
"221021","299-VK","2019/11/01 19:43:43","新北市汐止區新興路85巷2號","121.658053333333","25.0614066666667","6501100","汐止區"
"221031","353-TW","2019/11/01 19:43:46","新北市汐止區康寧街901號","121.650786666667","25.0753066666667","6501100","汐止區"
"221025","623-UM","2019/11/01 19:43:46","新北市汐止區福安街20巷16號","121.662175","25.064685","6501100","汐止區"
"221038","646-BX","2019/11/01 19:43:51","新北市汐止區忠孝東路295號","121.664185","25.06885","6501100","汐止區"
"221033","647-BX","2019/11/01 19:43:50","新北市汐止區芳園街66號","121.625531666667","25.0389583333333","6501100","汐止區"
"220079","145-BY","2019/11/01 19:43:41","新北市板橋區民權路312號","121.45722","25.016365","6500100","板橋區"
"220080","200-UY","2019/11/01 19:43:53","新北市板橋區大觀路二段37巷280號","121.449771666667","25.0009666666667","6500100","板橋區"
"224002","257-TC","2019/11/01 19:43:52","新北市瑞芳區三爪子坑路13巷281-17號","121.815245","25.1061783333333","6501200","瑞芳區"
"220091","267-BY","2019/11/01 19:43:42","新北市板橋區懷德街127巷26-2號","121.479741666667","25.0311633333333","6500100","板橋區"
"220056","276-BY","2019/11/01 19:43:38","新北市板橋區四川路一段487號","121.457286666667","24.9970466666667","6500100","板橋區"
"220072","277-BY","2019/11/01 19:43:50","新北市板橋區金門街151巷40弄15號","121.433425","24.9895733333333","6500100","板橋區"
"220094","283-UM","2019/11/01 19:43:51","新北市板橋區陽明街281號","121.46193","25.026205","6500100","板橋區"
"220071","283-VK","2019/11/01 19:43:56","新北市板橋區和平路174巷1弄2號","121.464168333333","24.9950466666667","6500100","板橋區"
"220101","285-UM","2019/11/01 19:43:57","新北市板橋區莒光路180巷17號","121.473403333333","25.022825","6500100","板橋區"
"220053","285-VK","2019/11/01 19:43:50","新北市板橋區中山路二段60巷1弄14號","121.474771666667","25.0155366666667","6500100","板橋區"
"220083","286-VK","2019/11/01 19:43:43","新北市板橋區龍興街61號","121.443098333333","25.001245","6500100","板橋區"
"220081","287-VK","2019/11/01 19:43:40","新北市板橋區大觀路一段29巷131弄33-16號","121.45033","25.0041583333333","6500100","板橋區"
"220090","288-VK","2019/11/01 19:43:34","新北市板橋區英士路192號","121.45799","25.0236416666667","6500100","板橋區"
"220061","293-UM","2019/11/01 19:43:46","新北市板橋區觀光街21號","121.471408333333","25.0161816666667","6500100","板橋區"
"220098","295-UM","2019/11/01 19:43:44","新北市板橋區四維路269巷25號","121.462185","25.0278733333333","6500100","板橋區"
"220084","296-UM","2019/11/01 19:43:52","新北市板橋區滿平二街2巷1弄2號","121.425268333333","24.9861433333333","6500100","板橋區"
"220075","303-R5","2019/11/01 19:43:43","新北市板橋區中正路253巷27號","121.454135","25.01767","6500100","板橋區"
"220062","305-R5","2019/11/01 19:43:45","新北市板橋區中山路二段416巷54弄11號","121.482381666667","25.019285","6500100","板橋區"
"220092","307-R5","2019/11/01 19:43:52","新北市板橋區幸福路32巷2弄27號","121.460993333333","25.0217833333333","6500100","板橋區"
"220088","491-VK","2019/11/01 19:43:41","新北市板橋區文聖街147號","121.478578333333","25.0281033333333","6500100","板橋區"
"220103","561-BX","2019/11/01 19:43:54","新北市板橋區陽明街29巷1弄24號","121.464091666667","25.0221816666667","6500100","板橋區"
"220063","609-BX","2019/11/01 19:43:50","新北市板橋區三民路一段131號","121.479393333333","25.0205433333333","6500100","板橋區"
"220057","686-BX","2019/11/01 19:43:56","新北市板橋區信義路19號","121.4569","24.9966316666667","6500100","板橋區"
"220077","687-BX","2019/11/01 19:43:54","新北市板橋區僑中二街104巷1號","121.44592","25.0078183333333","6500100","板橋區"
"220093","689-BX","2019/11/01 19:43:45","新北市板橋區長江路三段68號","121.473898333333","25.0340766666667","6500100","板橋區"
"220054","741-BX","2019/11/01 19:43:37","新北市中和區德光路135號","121.467593333333","25.002995","6500100","板橋區"
"220102","KEA-2699","2019/11/01 19:43:46","新北市板橋區仁化街42巷26號","121.475645","25.0308816666667","6500100","板橋區"
"220055","827-TW","2019/11/01 19:43:46","新北市板橋區國慶路149巷13弄11號","121.46053","24.99704","6500100","板橋區"
"220067","829-TW","2019/11/01 19:43:42","新北市板橋區長安街140號","121.472745","25.0100633333333","6500100","板橋區"
"220068","831-TW","2019/11/01 19:43:48","新北市板橋區中山路二段416巷47弄32號","121.483768333333","25.0194583333333","6500100","板橋區"
"220082","833-TW","2019/11/01 19:43:39","新北市板橋區篤行路一段37號","121.432108333333","24.9939116666667","6500100","板橋區"
"220074","895-R6","2019/11/01 19:43:51","新北市板橋區大東街55號","121.456521666667","25.0082316666667","6500100","板橋區"
"220073","985-R7","2019/11/01 19:43:39","新北市板橋區國光路51號","121.458038333333","25.0179633333333","6500100","板橋區"
"220097","AAC-210","2019/11/01 19:43:50","新北市板橋區光正街11-1號","121.462753333333","25.017125","6500100","板橋區"
"220064","AAC-253","2019/11/01 19:43:55","新北市板橋區實踐路102號","121.464131666667","25.0048366666667","6500100","板橋區"
"235068","KEA-2873","2019/11/01 19:43:29","新北市中和區中山路二段136巷3弄8號","121.501171666667","25.0039466666667","6500300","中和區"
"235061","KEA-2875","2019/11/01 19:43:35","新北市中和區員山路263號","121.481276666667","24.9992733333333","6500300","中和區"
