"lineid","car","time","location","longitude","latitude","cityid","cityname"
"231042","001-UM","2019/11/01 20:59:48","新北市新店區寶興路60巷3號","121.549895","24.9718483333333","6500600","新店區"
"231061","002-UM","2019/11/01 20:59:52","新北市新店區永安街58-2號","121.51875","24.9869033333333","6500600","新店區"
"231060","106-UY","2019/11/01 20:59:37","新北市新店區安康路三段535號","121.480233333333","24.94796","6500600","新店區"
"231051","107-UY","2019/11/01 20:59:51","新北市新店區中正路663巷7弄15號","121.532978333333","24.9901266666667","6500600","新店區"
"231065","110-UY","2019/11/01 20:59:47","新北市新店區安祥路67巷50弄36號","121.484161666667","24.9589233333333","6500600","新店區"
"231068","187-VK","2019/11/01 20:59:39","新北市新店區寶中路45-3號","121.545021666667","24.9788916666667","6500600","新店區"
"231062","256-BX","2019/11/01 20:59:50","新北市新店區雙城路36號","121.49203","24.95024","6500600","新店區"
"231054","260-TV","2019/11/01 20:59:34","新北市新店區大新街7巷26號","121.544136666667","24.9678633333333","6500600","新店區"
"231064","278-BY","2019/11/01 20:59:42","新北市新店區薏仁坑路6號","121.50054","24.9580933333333","6500600","新店區"
"231050","AAD-862","2019/11/01 20:59:49","新北市新店區三民路20巷3號","121.537345","24.9708483333333","6500600","新店區"
"231063","616-UM","2019/11/01 20:59:52","新北市新店區玫瑰路58巷3號","121.495355","24.9465766666667","6500600","新店區"
"231059","897-TW","2019/11/01 20:59:47","新北市新店區僑信路74巷2號","121.499413333333","24.9486416666667","6500600","新店區"
"231040","898-TW","2019/11/01 20:59:41","新北市新店區中正路137號","121.541741666667","24.971515","6500600","新店區"
"231043","899-TW","2019/11/01 20:59:46","新北市新店區安和路三段4巷3號","121.519858333333","24.9809366666667","6500600","新店區"
"231066","AKT-0513","2019/11/01 20:59:52","新北市新店區安康路二段58巷3號","121.514816666667","24.9641633333333","6500600","新店區"
"241011","013-R5","2019/11/01 20:59:50","新北市三重區秀江街117號","121.49974","25.0723","6500200","三重區"
"241028","022-UY","2019/11/01 20:59:39","新北市三重區正義南路60-1號","121.49828","25.0606383333333","6500200","三重區"
"241008","059-VK","2019/11/01 20:59:41","新北市三重區車路頭街140號","121.484138333333","25.075685","6500200","三重區"
"241023","060-VK","2019/11/01 20:59:46","新北市三重區洛陽街45巷11號","121.482341666667","25.0637316666667","6500200","三重區"
"241031","061-VK","2019/11/01 20:59:49","新北市三重區重陽路一段113巷2弄2號","121.487556666667","25.0598783333333","6500200","三重區"
"241015","062-VK","2019/11/01 20:59:38","新北市三重區福德北路48號","121.502","25.0656116666667","6500200","三重區"
"241017","063-VK","2019/11/01 20:59:33","新北市三重區國隆路28號","121.492373333333","25.064305","6500200","三重區"
"241024","065-VK","2019/11/01 20:59:49","新北市三重區國道路一段58巷20號","121.481273333333","25.0720166666667","6500200","三重區"
"241007","066-VK","2019/11/01 20:59:55","新北市三重區三和路四段145巷85號","121.486423333333","25.078695","6500200","三重區"
"241002","090-VK","2019/11/01 20:59:48","新北市三重區五華街1巷2號","121.49554","25.07977","6500200","三重區"
"241003","091-VK","2019/11/01 20:59:36","新北市三重區進安街196號","121.493663333333","25.0862466666667","6500200","三重區"
"241006","262-UM","2019/11/01 20:59:37","新北市三重區永福街62-3號","121.480896666667","25.0778433333333","6500200","三重區"
"241016","266-UM","2019/11/01 20:59:27","新北市三重區信義西街118號","121.495688333333","25.0640916666667","6500200","三重區"
"241009","267-UM","2019/11/01 20:59:42","新北市三重區車路頭街129號","121.484236666667","25.0758","6500200","三重區"
"241018","268-UM","2019/11/01 20:59:43","新北市三重區安慶街151號","121.494391666667","25.06879","6500200","三重區"
"241032","269-UM","2019/11/01 20:59:49","新北市三重區興華街130號","121.483336666667","25.05975","6500200","三重區"
"241013","270-UM","2019/11/01 20:59:46","新北市三重區仁愛街129巷2號","121.495653333333","25.0749766666667","6500200","三重區"
"241025","271-UM","2019/11/01 20:59:43","新北市三重區貴陽街14號","121.484205","25.0618366666667","6500200","三重區"
"241030","KED-0822","2019/11/01 20:59:55","新北市三重區中正南路269號","121.492975","25.0525883333333","6500200","三重區"
"241004","475-VK","2019/11/01 20:59:37","新北市三重區仁愛街423-1號","121.490405","25.081435","6500200","三重區"
"241020","478-VK","2019/11/01 20:59:55","新北市三重區忠孝路二段34號","121.48581","25.070945","6500200","三重區"
"241026","480-VK","2019/11/01 20:59:45","新北市三重區大同南路210號","121.496718333333","25.0564266666667","6500200","三重區"
"241014","543-UM","2019/11/01 20:59:53","新北市三重區長榮路75號","121.502541666667","25.0690783333333","6500200","三重區"
"241001","547-UM","2019/11/01 20:59:36","新北市三重區自強路三段87巷14號","121.488163333333","25.0749783333333","6500200","三重區"
"241019","KEA-2593","2019/11/01 20:59:44","新北市三重區自強路二段74巷21號","121.487965","25.069875","6500200","三重區"
"241005","AAD-863","2019/11/01 20:59:53","新北市三重區三信路182號","121.4881","25.0862016666667","6500200","三重區"
"241012","743-BX","2019/11/01 20:59:45","新北市三重區仁信街27號","121.501263333333","25.0755083333333","6500200","三重區"
"241022","KED-0820","2019/11/01 20:59:39","新北市三重區中正北路20巷12號","121.487995","25.0624616666667","6500200","三重區"
"241029","942-UM","2019/11/01 20:59:52","新北市三重區正義南路111號","121.498223333333","25.058555","6500200","三重區"
"241033","AAC-255","2019/11/01 20:59:55","新北市三重區光復路二段49號","121.4721","25.0558266666667","6500200","三重區"
"235055","183-VK","2019/11/01 20:59:38","新北市板橋區民生路二段56-3號","121.472101666667","25.0172816666667","6500300","中和區"
"247016","KEA-2869","2019/11/01 20:59:36","新北市蘆洲區正和街94號","121.468136666667","25.0807983333333","6501400","蘆洲區"
"247010","KED-0682","2019/11/01 20:59:24","新北市蘆洲區鷺江街70號","121.477041666667","25.0837516666667","6501400","蘆洲區"
"247006","893-R6","2019/11/01 20:59:43","新北市蘆洲區永安南路二段16巷8號","121.467778333333","25.0771516666667","6501400","蘆洲區"
"247020","546-UM","2019/11/01 20:59:38","新北市蘆洲區民族路371號","121.471118333333","25.0912983333333","6501400","蘆洲區"
"247018","500-BY","2019/11/01 20:59:43","新北市蘆洲區民權路120號","121.473466666667","25.0885266666667","6501400","蘆洲區"
"247004","341-TH","2019/11/01 20:59:52","新北市蘆洲區永安南路二段268號","121.458618333333","25.0806966666667","6501400","蘆洲區"
"247024","057-VK","2019/11/01 20:59:43","新北市蘆洲區長興路213號","121.461153333333","25.08635","6501400","蘆洲區"
"247014","056-VK","2019/11/01 20:59:54","新北市蘆洲區得勝街50-3號","121.47288","25.0834933333333","6501400","蘆洲區"
"247008","002-UY","2019/11/01 20:59:46","新北市蘆洲區民生街76號","121.47276","25.0790983333333","6501400","蘆洲區"
"247002","001-UY","2019/11/01 20:59:36","新北市蘆洲區永樂街38巷57弄1-1號","121.45829","25.08986","6501400","蘆洲區"
"251001","011-UM","2019/11/01 20:59:55","新北市淡水區新市一路三段59號","121.446098333333","25.1835116666667","6501000","淡水區"
"251008","181-VK","2019/11/01 20:59:40","新北市淡水區淡金路二段201號","121.447986666667","25.1838483333333","6501000","淡水區"
"251010","413-VK","2019/11/01 20:59:51","新北市淡水區中正路一段116-3號","121.423848333333","25.17864","6501000","淡水區"
"251012","441-VK","2019/11/01 20:59:37","新北市淡水區淡金路五段72號","121.454676666667","25.233625","6501000","淡水區"
"251007","442-VK","2019/11/01 20:59:50","新北市淡水區仁愛街2巷7號","121.446071666667","25.1705716666667","6501000","淡水區"
"251005","443-VK","2019/11/01 20:59:39","新北市淡水區學府路51巷2弄6號","121.447793333333","25.16968","6501000","淡水區"
"251011","650-BX","2019/11/01 20:59:54","新北市淡水區新春街2號","121.436285","25.1809016666667","6501000","淡水區"
"251002","672-BX","2019/11/01 20:59:45","新北市淡水區英專路78號","121.445758333333","25.1713183333333","6501000","淡水區"
"251003","766-UM","2019/11/01 20:59:46","新北市淡水區新春街125巷5號","121.44148","25.1823366666667","6501000","淡水區"
"247012","KED-0683","2019/11/01 20:59:47","新北市蘆洲區民權路6號","121.476991666667","25.0854766666667","6501400","蘆洲區"
"242050","400-BY","2019/11/01 20:59:48","新北市新莊區新樹路279號","121.434128333333","25.0206533333333","6500500","新莊區"
"242025","362-BY","2019/11/01 20:59:37","新北市八里區中山路三段409號","121.368808333333","25.13419","6500500","新莊區"
"242037","348-TH","2019/11/01 20:59:43","新北市新莊區中環路一段299號","121.442001666667","25.0324266666667","6500500","新莊區"
"242009","349-TH","2019/11/01 20:59:41","新北市新莊區中正路61巷10號","121.462378333333","25.03897","6500500","新莊區"
"242034","350-TH","2019/11/01 20:59:45","新北市新莊區建中街90巷16號","121.446855","25.0378433333333","6500500","新莊區"
"221035","622-UM","2019/11/01 20:59:47","新北市汐止區汐萬路一段115巷1號","121.654645","25.07005","6501100","汐止區"
