"lineid","car","time","location","longitude","latitude","cityid","cityname"
"232018","290-BY","2019/07/18 06:49:12","新北市坪林區北宜路八段363號","121.70984","24.9329716666667","6502000","坪林區"
"232007","291-BY","2019/07/18 06:49:16","新北市坪林區北宜路八段373號","121.708451666667","24.93003","6502000","坪林區"
"232010","375-UM","2019/07/18 06:49:25","新北市坪林區九芎林19-5號","121.708505","24.928215","6502000","坪林區"
"232014","705-BZ","2019/07/18 06:49:27","新北市坪林區魚堀55-4號","121.708311666667","24.9286866666667","6502000","坪林區"
"232001","758-BX","2019/07/18 06:49:08","新北市坪林區北宜路八段422號","121.708681666667","24.926445","6502000","坪林區"
"244004","248-BX","2019/07/18 06:49:20","新北市林口區粉寮路二段160巷28號","121.405143333333","25.0907766666667","6501700","林口區"
"223002","KEA-2673","2019/07/18 06:49:15","新北市石碇區四分子路小粗坑巷7號","121.651778333333","24.9639966666667","6501900","石碇區"
"223003","205-TH","2019/07/18 06:49:11","新北市石碇區湳窟37-1號","121.662758333333","24.9947566666667","6501900","石碇區"
"223008","406-TH","2019/07/18 06:49:09","新北市石碇區雙溪84-1號","121.661306666667","25.00897","6501900","石碇區"
"223001","592-UM","2019/07/18 06:49:10","新北市石碇區湳窟37-1號","121.662833333333","24.9962316666667","6501900","石碇區"
"223004","660-BX","2019/07/18 06:49:16","新北市石碇區碇坪路一段57號","121.659696666667","24.991595","6501900","石碇區"
"223007","661-BX","2019/07/18 06:49:26","新北市石碇區雙溪84-1號","121.66133","25.0089066666667","6501900","石碇區"
"227005","282-VK","2019/07/18 06:49:24","新北市雙溪區新基里自強路5號","121.866381666667","25.03905","6502500","雙溪區"
"252007","AAC-283","2019/07/18 06:49:14","新北市三芝區埔坪里埔頭坑41號","121.504556666667","25.2645916666667","6502100","三芝區"
"226005","ANY-2373","2019/07/18 06:49:25","新北市平溪區石底里公園街18-3號","121.733293333333","25.0258","6502400","平溪區"
