"lineid","car","time","location","longitude","latitude","cityid","cityname"
"234026","9371-KE","2019/12/10 17:43:16","新北市永和區永和路一段202號","121.514253333333","25.0092233333333","6500400","永和區"
"249005","172-UM","2019/12/10 17:43:12","新北市八里區荖阡坑路34-1號","121.402778333333","25.12978","6502300","八里區"
"249001","173-UM","2019/12/10 17:43:10","新北市八里區龍米路二段153-8號","121.440138333333","25.1535116666667","6502300","八里區"
"249004","303-UY","2019/12/10 17:43:27","新北市八里區中華路一段81巷28號","121.419411666667","25.15445","6502300","八里區"
"249002","305-UY","2019/12/10 17:43:15","新北市八里區石壁腳19號","121.441748333333","25.135355","6502300","八里區"
"249003","593-UM","2019/12/10 17:43:19","新北市八里區中山路二段212號","121.405423333333","25.1518816666667","6502300","八里區"
"232011","375-UM","2019/12/10 17:43:27","新北市坪林區北宜路八段67號","121.705161666667","24.9352816666667","6502000","坪林區"
"244007","080-UY","2019/12/10 17:43:21","新北市林口區佳林路1號","121.387321666667","25.0824816666667","6501700","林口區"
"244013","KEA-2802","2019/12/10 17:43:14","新北市林口區中山路151號","121.386828333333","25.0792116666667","6501700","林口區"
"244023","483-VK","2019/12/10 17:43:22","新北市林口區東明二街71號","121.389671666667","25.0695016666667","6501700","林口區"
"244017","485-VK","2019/12/10 17:43:10","新北市林口區文化二路一段260巷9-1號","121.371105","25.07274","6501700","林口區"
"244009","657-BX","2019/12/10 17:43:29","新北市林口區寶林路40-1號","121.385475","25.0843983333333","6501700","林口區"
"244011","701-TV","2019/12/10 17:43:21","新北市林口區中正路268號","121.389281666667","25.0777133333333","6501700","林口區"
"244025","837-TS","2019/12/10 17:42:00","新北市林口區文化三路一段181號","121.362063333333","25.069545","6501700","林口區"
"244021","838-TS","2019/12/10 17:43:24","新北市林口區仁愛路一段61巷13號","121.398136666667","25.0695666666667","6501700","林口區"
"222003","436-BY","2019/12/10 17:43:21","新北市深坑區北深路二段130號","121.615925","25.0028916666667","6501800","深坑區"
"222002","659-BX","2019/12/10 17:43:25","新北市深坑區平埔街22巷17弄1號","121.614856666667","25.000845","6501800","深坑區"
"231046","719-UM","2019/12/10 17:43:16","新北市新店區直潭路92-1號","121.530941666667","24.9375433333333","6500600","新店區"
"241024","065-VK","2019/12/10 17:43:24","新北市三重區力行路二段11號","121.482198333333","25.0721683333333","6500200","三重區"
"241007","066-VK","2019/12/10 17:43:28","新北市五股區中興路二段88號","121.461141666667","25.0787016666667","6500200","三重區"
"241016","266-UM","2019/12/10 17:43:24","新北市三重區新北大道一段7號","121.489936666667","25.0613833333333","6500200","三重區"
"241033","AAC-255","2019/12/10 17:43:13","新北市三重區光復路一段13號","121.472031666667","25.047215","6500200","三重區"
"247016","KEA-2869","2019/12/10 17:43:27","新北市蘆洲區光華路90號","121.467553333333","25.0828083333333","6501400","蘆洲區"
"247010","KED-0682","2019/12/10 17:43:16","新北市蘆洲區民族路46號","121.476871666667","25.0844966666667","6501400","蘆洲區"
"235054","640-BX","2019/12/10 17:43:12","新北市中和區員山路36巷16-2號","121.485373333333","24.991555","6500300","中和區"
"235047","732-UM","2019/12/10 17:43:27","新北市中和區員山路36巷13號","121.484335","24.9906916666667","6500300","中和區"
"235057","801-TS","2019/12/10 17:43:26","新北市中和區員山路36巷16-3號","121.485091666667","24.99144","6500300","中和區"
"247020","546-UM","2019/12/10 17:43:26","新北市蘆洲區民義街101巷17-1號","121.472938333333","25.0913183333333","6501400","蘆洲區"
"247012","341-TH","2019/12/10 17:43:10","新北市蘆洲區復興路60巷1弄24號","121.47559","25.0863783333333","6501400","蘆洲區"
"247004","336-TH","2019/12/10 17:43:26","新北市蘆洲區長安街170號","121.45919","25.0833416666667","6501400","蘆洲區"
"247024","057-VK","2019/12/10 17:43:16","新北市蘆洲區光榮路101巷38號","121.463691666667","25.0904466666667","6501400","蘆洲區"
"247014","056-VK","2019/12/10 17:43:10","新北市蘆洲區中正路31號","121.471231666667","25.0821766666667","6501400","蘆洲區"
"247022","007-UY","2019/12/10 17:43:21","新北市蘆洲區民族路568號","121.467333333333","25.088785","6501400","蘆洲區"
"247008","002-UY","2019/12/10 17:43:23","新北市蘆洲區和平路29巷4號","121.471955","25.0789133333333","6501400","蘆洲區"
"247002","001-UY","2019/12/10 17:43:18","新北市蘆洲區永平街32巷11弄13號","121.458441666667","25.0915016666667","6501400","蘆洲區"
"228001","212-TW","2019/12/10 17:43:23","新北市貢寮區真理里新港街26巷28-6號","121.927675","25.0554083333333","6502600","貢寮區"
"228002","663-BX","2019/12/10 17:43:10","新北市貢寮區福隆里外隆林街15號","121.958735","25.003645","6502600","貢寮區"
"228003","828-UM","2019/12/10 17:43:11","新北市貢寮區真理里大澳街1號","121.924805","25.0556333333333","6502600","貢寮區"
"224006","676-BX","2019/12/10 17:43:20","新北市瑞芳區傑魚坑路183號","121.788488333333","25.1083116666667","6501200","瑞芳區"
"224009","275-VK","2019/12/10 17:43:24","新北市瑞芳區山尖路172-1號","121.84833","25.1120433333333","6501200","瑞芳區"
"224008","273-VK","2019/12/10 17:43:28","新北市瑞芳區明燈路一段18巷16號","121.822633333333","25.107665","6501200","瑞芳區"
"224005","271-BY","2019/12/10 17:43:22","新北市瑞芳區海濱路37-1號","121.830991666667","25.1236316666667","6501200","瑞芳區"
"227002","642-TC","2019/12/10 17:22:09","","121.866156666667","25.03372","6502500","雙溪區"
"227001","400-TW","2019/12/10 17:43:21","新北市雙溪區三貂里政光路3-1號","121.850803333333","25.06337","6502500","雙溪區"
"251004","009-UM","2019/12/10 17:43:26","新北市淡水區民權路39號","121.459346666667","25.1410783333333","6501000","淡水區"
"251005","010-UM","2019/12/10 17:43:14","新北市淡水區鄧公路33巷1號","121.451385","25.1712316666667","6501000","淡水區"
"251002","012-UM","2019/12/10 17:43:10","新北市淡水區重建街87號","121.439895","25.1724133333333","6501000","淡水區"
"251015","KEA-2871","2019/12/10 17:43:25","新北市淡水區糞箕湖9-1號","121.485291666667","25.17085","6501000","淡水區"
"251016","180-VK","2019/12/10 17:43:08","新北市淡水區埤島39-15號","121.452761666667","25.195885","6501000","淡水區"
"251008","181-VK","2019/12/10 17:43:24","新北市淡水區八勢路一段123巷5弄3號","121.466611666667","25.1565066666667","6501000","淡水區"
"251013","182-VK","2019/12/10 17:43:30","新北市淡水區社厝坑3-9號","121.474735","25.1899916666667","6501000","淡水區"
"251010","413-VK","2019/12/10 17:43:24","新北市淡水區淡海路292號","121.419035","25.1888916666667","6501000","淡水區"
"251012","441-VK","2019/12/10 17:43:23","新北市淡水區北新路一段15號","121.453968333333","25.1810033333333","6501000","淡水區"
"251007","442-VK","2019/12/10 17:43:11","新北市淡水區民生路52巷31號","121.463108333333","25.1377983333333","6501000","淡水區"
"251006","561-UM","2019/12/10 17:43:13","新北市淡水區大信街13-3號","121.441853333333","25.176665","6501000","淡水區"
"251009","575-R6","2019/12/10 17:43:30","新北市淡水區中正路36號","121.443791666667","25.1692566666667","6501000","淡水區"
"251014","577-R6","2019/12/10 17:43:18","新北市淡水區公埔子16-6號","121.481031666667","25.224605","6501000","淡水區"
"251011","650-BX","2019/12/10 17:43:24","新北市淡水區坪頂路712號","121.482511666667","25.1584733333333","6501000","淡水區"
"251003","673-BX","2019/12/10 17:43:15","新北市淡水區中山北路一段99號","121.442421666667","25.1764816666667","6501000","淡水區"
"207003","681-TV","2019/12/10 17:43:16","","121.686226666667","25.1947133333333","6502800","萬里區"
"207004","291-VK","2019/12/10 17:43:14","新北市萬里區中幅里中福路8-1號","121.685521666667","25.1647483333333","6502800","萬里區"
"252001","292-VK","2019/12/10 17:43:31","新北市三芝區中山路一段16號","121.50116","25.2581416666667","6502100","三芝區"
"237004","KEA-2597","2019/12/10 17:43:03","新北市三峽區中山路459巷66號","121.355218333333","24.936275","6500900","三峽區"
"237009","210-TH","2019/12/10 17:43:09","新北市三峽區中山路321-2號","121.361038333333","24.9379033333333","6500900","三峽區"
"237013","252-BX","2019/12/10 17:43:18","新北市三峽區安溪路309巷9號","121.373436666667","24.9333133333333","6500900","三峽區"
"237012","275-BY","2019/12/10 17:43:29","新北市三峽區中山路365-1號","121.357973333333","24.9366966666667","6500900","三峽區"
"237011","KEA-2596","2019/12/10 17:43:17","新北市三峽區大智路69號","121.360491666667","24.9357916666667","6500900","三峽區"
"237010","706-TV","2019/12/10 17:43:15","新北市三峽區中山路130號","121.365405","24.9360433333333","6500900","三峽區"
"237005","AKY-6261","2019/12/10 17:43:08","新北市三峽區中山路459巷135號","121.3486","24.933005","6500900","三峽區"
"236042","KED-0685","2019/12/10 17:43:25","新北市土城區城林路6巷80號","121.43855","24.97956","6501300","土城區"
"233002","762-BX","2019/12/10 17:43:30","新北市烏來區烏來街3-2號","121.551211666667","24.8653383333333","6502900","烏來區"
"236079","166-UM","2019/12/10 17:43:27","新北市土城區中華路二段136號","121.437525","24.97298","6501300","土城區"
"236030","253-BX","2019/12/10 17:43:25","新北市土城區城林路6巷80號","121.438685","24.9796033333333","6501300","土城區"
"236014","270-VK","2019/12/10 17:43:16","新北市土城區城林路6巷80號","121.43846","24.9795783333333","6501300","土城區"
"236038","271-VK","2019/12/10 17:43:20","新北市土城區城林路6巷80號","121.438373333333","24.9798033333333","6501300","土城區"
"247006","KED-0683","2019/12/10 17:43:21","新北市蘆洲區長安街23巷5號","121.46376","25.078765","6501400","蘆洲區"
"236070","KEA-2877","2019/12/10 17:43:29","新北市土城區學府路二段156-1號","121.446341666667","24.978105","6501300","土城區"
"252002","KED-0821","2019/12/10 17:43:26","新北市三芝區中正路二段1號","121.504798333333","25.2556966666667","6502100","三芝區"
"236021","401-BY","2019/12/10 17:43:10","新北市土城區中華路二段2號","121.438846666667","24.9796583333333","6501300","土城區"
"236049","913-UM","2019/12/10 17:43:15","新北市土城區城林路6巷80號","121.438548333333","24.9796766666667","6501300","土城區"
"242061","986-R7","2019/12/10 17:43:11","新北市新莊區瓊林南路35-1號","121.435531666667","25.01658","6500500","新莊區"
"242005","751-BX","2019/12/10 17:43:11","新北市新莊區自立街216號","121.457153333333","25.045365","6500500","新莊區"
"242029","615-BX","2019/12/10 17:43:17","新北市新莊區復興路一段83號","121.448358333333","25.0426433333333","6500500","新莊區"
"242027","613-BX","2019/12/10 17:43:27","新北市新莊區福壽街95號","121.458065","25.0504316666667","6500500","新莊區"
"242058","612-BX","2019/12/10 17:43:20","新北市新莊區中正路582號","121.427411666667","25.03052","6500500","新莊區"
"242048","566-BX","2019/12/10 17:43:26","新北市新莊區萬安街113號","121.420801666667","25.02276","6500500","新莊區"
"242054","497-BY","2019/12/10 17:43:21","新北市新莊區新樹路697號","121.432256666667","25.0023316666667","6500500","新莊區"
"242042","442-UM","2019/12/10 17:43:16","新北市新莊區中正路514號","121.429735","25.0352383333333","6500500","新莊區"
"242039","441-UM","2019/12/10 17:43:20","新北市新莊區民安西路3號","121.426763333333","25.0219766666667","6500500","新莊區"
"242044","415-TV","2019/12/10 17:43:10","新北市新莊區中正路871巷14號","121.418996666667","25.026645","6500500","新莊區"
"242013","413-TV","2019/12/10 17:43:24","新北市新莊區幸福路715巷21號","121.448661666667","25.04859","6500500","新莊區"
"242051","400-BY","2019/12/10 17:43:26","新北市新莊區西盛街199-1號","121.42808","25.0169566666667","6500500","新莊區"
"242025","362-BY","2019/12/10 17:43:15","新北市新莊區思源路118號","121.460123333333","25.046895","6500500","新莊區"
"242023","353-BY","2019/12/10 17:43:16","新北市新莊區民樂街66號","121.457966666667","25.042105","6500500","新莊區"
"242015","KEE-1025","2019/12/10 17:43:15","新北市新莊區新泰路319號","121.445126666667","25.0414666666667","6500500","新莊區"
"242056","172-VK","2019/12/10 17:43:23","新北市新莊區瓊林路13-3號","121.448873333333","25.03101","6500500","新莊區"
"242017","173-VK","2019/12/10 17:43:18","新北市新莊區復興路一段149巷21弄1號","121.450225","25.0440633333333","6500500","新莊區"
"242032","175-VK","2019/12/10 17:43:23","新北市新莊區新泰路368號","121.444401666667","25.042705","6500500","新莊區"
"242021","KED-0687","2019/12/10 17:43:22","新北市新莊區中華路一段118號","121.452571666667","25.0406083333333","6500500","新莊區"
"242007","346-TH","2019/12/10 17:43:15","新北市新莊區福樂街118巷5號","121.457246666667","25.04805","6500500","新莊區"
"242002","347-TH","2019/12/10 17:43:13","新北市新莊區新莊路421號","121.450546666667","25.0335833333333","6500500","新莊區"
"242037","348-TH","2019/12/10 17:43:27","新北市新莊區建福路69巷43號","121.42881","25.027535","6500500","新莊區"
"242009","349-TH","2019/12/10 17:43:27","新北市新莊區昌明街14巷6弄1號","121.45745","25.0530183333333","6500500","新莊區"
"242034","350-TH","2019/12/10 17:43:10","新北市新莊區新莊路588號","121.444146666667","25.0329116666667","6500500","新莊區"
"242019","351-TH","2019/12/10 17:43:23","新北市新莊區中港路223號","121.454726666667","25.0424733333333","6500500","新莊區"
"238015","755-BX","2019/12/10 17:43:28","新北市樹林區樹德街136巷20號","121.419725","24.9939983333333","6500700","樹林區"
"238023","601-UM","2019/12/10 17:43:22","新北市樹林區福興街3號","121.404473333333","25.0171183333333","6500700","樹林區"
"238014","571-TV","2019/12/10 17:43:19","新北市樹林區太平路89號","121.419073333333","24.9813866666667","6500700","樹林區"
"238024","5061-A6","2019/12/10 17:43:22","新北市樹林區八德街437-1號","121.40596","24.969415","6500700","樹林區"
"238018","KEA-2217","2019/12/10 17:43:21","新北市樹林區鎮前街6號","121.42633","24.9935116666667","6500700","樹林區"
"238022","KEA-2213","2019/12/10 17:43:26","新北市樹林區太元街33號","121.418436666667","24.9796583333333","6500700","樹林區"
"238021","KEA-2539","2019/12/10 17:43:21","新北市樹林區柑園街一段56號","121.403231666667","24.9602283333333","6500700","樹林區"
"238025","303-VK","2019/12/10 17:43:27","新北市樹林區保安街三段71-3號","121.412691666667","25.01232","6500700","樹林區"
"238017","283-BY","2019/12/10 17:43:25","新北市樹林區三德街32號","121.414646666667","25.0131533333333","6500700","樹林區"
"238014","282-BY","2019/12/10 17:43:11","新北市樹林區保安街一段308號","121.418713333333","24.9974833333333","6500700","樹林區"
"238020","268-VK","2019/12/10 17:43:16","新北市樹林區俊英街116巷4號","121.42777","25.005765","6500700","樹林區"
"238026","172-UY","2019/12/10 17:43:27","新北市樹林區新興街19巷36弄29號","121.40257","24.9729233333333","6500700","樹林區"
"238016","169-UY","2019/12/10 17:43:11","新北市樹林區啟智街129-10號","121.417591666667","24.98876","6500700","樹林區"
"239007","AAC-297","2019/12/10 17:43:28","新北市鶯歌區鶯桃路168號","121.337236666667","24.9552833333333","6500800","鶯歌區"
"239006","891-R6","2019/12/10 17:43:17","新北市鶯歌區鶯桃路451-1號","121.332193333333","24.9655433333333","6500800","鶯歌區"
"239008","527-UM","2019/12/10 17:43:22","新北市鶯歌區大湖路732巷33號","121.333183333333","24.9782383333333","6500800","鶯歌區"
"239005","526-UM","2019/12/10 17:43:20","新北市鶯歌區鳳吉四街17號","121.326575","24.9727583333333","6500800","鶯歌區"
"239001","417-VK","2019/12/10 17:43:19","新北市鶯歌區中正三路215號","121.335086666667","24.9392666666667","6500800","鶯歌區"
"239003","360-BY","2019/12/10 17:43:17","新北市鶯歌區德昌街1號","121.334055","24.9607883333333","6500800","鶯歌區"
"239002","359-BY","2019/12/10 17:43:28","新北市鶯歌區育樂街51號","121.343508333333","24.9550766666667","6500800","鶯歌區"
"239004","193-VK","2019/12/10 17:43:13","新北市鶯歌區三鶯路111號","121.35954","24.9442583333333","6500800","鶯歌區"
"221008","489-VK","2019/12/10 17:43:16","新北市汐止區康寧街901號","121.651438333333","25.075005","6501100","汐止區"
"244019","KED-0667","2019/12/10 17:43:17","新北市林口區忠孝路542巷11弄9-2號","121.373546666667","25.0670783333333","6501700","林口區"
"221010","269-BY","2019/12/10 17:43:13","新北市汐止區汐萬路一段418巷46號","121.6511","25.0791116666667","6501100","汐止區"
"221029","298-VK","2019/12/10 17:43:23","新北市汐止區康寧街901號","121.651728333333","25.0749633333333","6501100","汐止區"
"233001","KEA-2870","2019/12/10 17:43:23","新北市烏來區娃娃谷15-2號","121.526476666667","24.8377966666667","6502900","烏來區"
"242046","281-VK","2019/12/10 17:43:09","新北市新莊區福營路103號","121.43385","25.0322616666667","6500500","新莊區"
"242011","280-VK","2019/12/10 17:43:24","新北市新莊區中港路622號","121.451043333333","25.0549533333333","6500500","新莊區"
