"lineid","car","time","location","longitude","latitude","cityid","cityname"
"234007","KED-0605","2019/12/10 18:13:08","新北市永和區保生路55-6號","121.503481666667","25.01227","6500400","永和區"
"234026","9371-KE","2019/12/10 18:13:26","新北市永和區大新街19巷2號","121.51499","25.008825","6500400","永和區"
"249005","172-UM","2019/12/10 18:13:12","新北市八里區荖阡坑路15號","121.401538333333","25.1400266666667","6502300","八里區"
"249001","173-UM","2019/12/10 18:13:31","新北市八里區龍米路一段245號","121.451095","25.1333183333333","6502300","八里區"
"249004","303-UY","2019/12/10 18:13:27","新北市八里區龍米路二段200巷3號","121.433721666667","25.1587716666667","6502300","八里區"
"249002","305-UY","2019/12/10 18:13:15","新北市八里區龍形一街3號","121.450711666667","25.1306416666667","6502300","八里區"
"248014","025-BX","2019/12/10 18:13:23","新北市五股區成泰路一段132號","121.435081666667","25.0754033333333","6501500","五股區"
"248016","026-BX","2019/12/10 18:13:24","新北市五股區成泰路三段221巷14號","121.445783333333","25.0934233333333","6501500","五股區"
"248006","077-UY","2019/12/10 18:13:22","新北市五股區中興路一段181號","121.46436","25.0738716666667","6501500","五股區"
"248008","KED-0815","2019/12/10 18:13:24","新北市五股區更洲路32巷15弄9號","121.458211666667","25.0804933333333","6501500","五股區"
"248020","KED-0813","2019/12/10 18:13:22","新北市五股區成泰路三段544-1號","121.453756666667","25.1025266666667","6501500","五股區"
"248010","272-BY","2019/12/10 18:13:27","新北市五股區成泰路一段219-19號","121.43456","25.07774","6501500","五股區"
"248004","677-BX","2019/12/10 18:13:22","新北市五股區成泰路二段156號","121.438301666667","25.0841383333333","6501500","五股區"
"248002","682-TV","2019/12/10 18:13:16","新北市五股區新五路三段1號","121.444418333333","25.0889116666667","6501500","五股區"
"232011","375-UM","2019/12/10 18:13:27","新北市坪林區下坑子口5-9號","121.713296666667","24.942305","6502000","坪林區"
"244007","080-UY","2019/12/10 18:13:21","新北市林口區竹林路548號","121.387578333333","25.08471","6501700","林口區"
"244013","KEA-2802","2019/12/10 18:13:14","新北市林口區佳林路101巷34號","121.386978333333","25.080015","6501700","林口區"
"244023","483-VK","2019/12/10 18:13:22","新北市林口區東湖路153巷135號","121.382236666667","25.0735616666667","6501700","林口區"
"244017","485-VK","2019/12/10 18:13:29","新北市林口區八德路20巷1號","121.368258333333","25.0671516666667","6501700","林口區"
"244009","657-BX","2019/12/10 18:13:29","新北市林口區文林二街16號","121.376761666667","25.0887666666667","6501700","林口區"
"244011","701-TV","2019/12/10 18:13:21","新北市林口區仁愛路一段292號","121.392743333333","25.0764366666667","6501700","林口區"
"244025","837-TS","2019/12/10 18:13:20","新北市林口區文化北路一段299巷17-10號","121.359496666667","25.0730033333333","6501700","林口區"
"244021","838-TS","2019/12/10 18:13:24","新北市林口區自強一街48號","121.399318333333","25.0774566666667","6501700","林口區"
"208001","267-VK","2019/12/10 18:13:09","新北市金山區磺港里磺港路76號","121.647576666667","25.2267016666667","6502700","金山區"
"222003","436-BY","2019/12/10 18:13:21","新北市深坑區文山路二段7號","121.622855","25.0003266666667","6501800","深坑區"
"222002","659-BX","2019/12/10 18:13:27","新北市深坑區文化街8號","121.620451666667","25.0012933333333","6501800","深坑區"
"231045","001-UM","2019/12/10 18:13:22","新北市新店區安華路28-1號","121.519495","24.9607866666667","6500600","新店區"
"231043","047-UY","2019/12/10 18:13:26","新北市新店區安華路28-1號","121.519301666667","24.960895","6500600","新店區"
"231060","106-UY","2019/12/10 18:13:25","新北市新店區安華路28-1號","121.519725","24.96081","6500600","新店區"
"221031","KEA-2785","2019/12/10 18:13:21","新北市汐止區中興路181巷16弄12號","121.62956","25.0667316666667","6501100","汐止區"
"231062","256-BX","2019/12/10 18:13:24","新北市新店區安一路一段1-1號","121.519676666667","24.96111","6500600","新店區"
"231054","260-TV","2019/12/10 18:13:19","新北市新店區安一路一段1-1號","121.519306666667","24.9611683333333","6500600","新店區"
"231042","268-BY","2019/12/10 18:13:26","新北市新店區安一路一段1-1號","121.519615","24.96132","6500600","新店區"
"231064","278-BY","2019/12/10 18:13:23","新北市新店區安華路28-1號","121.519795","24.9610516666667","6500600","新店區"
"231058","3713-VJ","2019/12/10 18:13:10","新北市新店區安華路1-1號","121.519348333333","24.9604816666667","6500600","新店區"
"231055","4716-K9","2019/12/10 18:13:19","新北市新店區安華路28-1號","121.519558333333","24.9606866666667","6500600","新店區"
"231056","4715-K9","2019/12/10 18:13:27","新北市新店區安康路一段24巷2號","121.532881666667","24.9603616666667","6500600","新店區"
"231040","617-UM","2019/12/10 18:13:09","新北市新店區安華路28-1號","121.519331666667","24.9608766666667","6500600","新店區"
"231063","641-BX","2019/12/10 18:13:27","新北市新店區安華路1-1號","121.51947","24.9604266666667","6500600","新店區"
"231046","719-UM","2019/12/10 18:13:16","新北市新店區直潭七街60號","121.532238333333","24.93993","6500600","新店區"
"231057","720-UM","2019/12/10 18:13:14","新北市新店區安一路一段1-1號","121.519158333333","24.9613033333333","6500600","新店區"
"241033","AAC-255","2019/12/10 18:13:13","新北市三重區光復路一段47號","121.472116666667","25.0485916666667","6500200","三重區"
"235064","005-UY","2019/12/10 18:13:12","新北市中和區圓通路145巷9弄2號","121.498086666667","24.995015","6500300","中和區"
"235063","006-UY","2019/12/10 18:13:18","新北市中和區中正路545巷1號","121.487268333333","24.9938716666667","6500300","中和區"
"235056","096-UM","2019/12/10 18:13:28","新北市中和區新生街232號","121.483825","24.9981433333333","6500300","中和區"
"235039","097-UM","2019/12/10 18:13:21","新北市中和區中正路256號","121.495491666667","24.99402","6500300","中和區"
"235065","098-UM","2019/12/10 18:13:12","新北市中和區莊敬路49巷18號","121.501668333333","25.0061633333333","6500300","中和區"
"235058","151-BY","2019/12/10 18:13:20","新北市中和區圓通路371號","121.490823333333","24.989495","6500300","中和區"
"235055","183-VK","2019/12/10 18:13:25","新北市中和區新生街251號","121.48382","24.99862","6500300","中和區"
"235038","185-VK","2019/12/10 18:13:20","新北市中和區大智街26號","121.520873333333","24.992005","6500300","中和區"
"235072","301-VK","2019/12/10 18:13:25","新北市中和區錦和路97號","121.490018333333","24.9955083333333","6500300","中和區"
"235043","352-BY","2019/12/10 18:13:17","新北市中和區景平路381號","121.503786666667","24.9934","6500300","中和區"
"235042","KEA-2878","2019/12/10 18:13:19","新北市中和區景平路159巷33號","121.513045","24.99098","6500300","中和區"
"235050","4979-A6","2019/12/10 18:13:28","新北市中和區錦和路350-1號","121.490906666667","24.9935966666667","6500300","中和區"
"235069","4980-A6","2019/12/10 18:13:21","新北市中和區建八路174號","121.490683333333","24.99845","6500300","中和區"
"235070","558-UM","2019/12/10 18:13:24","新北市中和區景平路435號","121.501028333333","24.995765","6500300","中和區"
"235045","565-BX","2019/12/10 18:13:17","新北市中和區景安路200巷6弄2號","121.503291666667","24.9916533333333","6500300","中和區"
"235060","KED-0823","2019/12/10 18:13:19","新北市中和區員山路389號","121.481261666667","25.002735","6500300","中和區"
"235054","640-BX","2019/12/10 18:13:14","新北市中和區民享街86巷25號","121.473106666667","25.000525","6500300","中和區"
"235047","732-UM","2019/12/10 18:13:27","新北市中和區南山路479號","121.507986666667","24.9882766666667","6500300","中和區"
"235062","800-TS","2019/12/10 18:13:20","新北市中和區中山路二段312巷45弄47號","121.495046666667","25.0050533333333","6500300","中和區"
"235057","801-TS","2019/12/10 18:13:26","新北市中和區民享街97巷19號","121.475411666667","24.999565","6500300","中和區"
"235041","802-TS","2019/12/10 18:13:17","新北市中和區和城路一段271巷1號","121.485348333333","24.99201","6500300","中和區"
"235052","805-TS","2019/12/10 18:13:14","新北市中和區南山路252號","121.507811666667","24.9888416666667","6500300","中和區"
"235051","157-BY","2019/12/10 18:13:20","新北市中和區信義街63號","121.51159","24.98816","6500300","中和區"
"235037","AAC-213","2019/12/10 18:13:21","新北市中和區景新街383巷50號","121.514546666667","24.9908083333333","6500300","中和區"
"226004","312-R5","2019/12/10 18:13:25","新北市平溪區靜安路二段30號","121.712536666667","25.0192316666667","6502400","平溪區"
"228001","212-TW","2019/12/10 18:13:23","新北市貢寮區真理里新港街26巷55弄2-1號","121.927366666667","25.05284","6502600","貢寮區"
"228002","663-BX","2019/12/10 18:13:31","新北市貢寮區福連里馬崗街6-1號","122.00158","25.0138216666667","6502600","貢寮區"
"228003","828-UM","2019/12/10 18:13:31","新北市貢寮區真理里美艷山街26號","121.926358333333","25.06546","6502600","貢寮區"
"224006","676-BX","2019/12/10 18:13:26","新北市瑞芳區三爪子坑路198號","121.806351666667","25.1053133333333","6501200","瑞芳區"
"224007","285-BY","2019/12/10 18:13:27","新北市瑞芳區頂埔巷1弄2號","121.766075","25.1024533333333","6501200","瑞芳區"
"224009","275-VK","2019/12/10 18:13:24","新北市瑞芳區新山路43號","121.855925","25.108335","6501200","瑞芳區"
"224008","273-VK","2019/12/10 18:13:28","新北市瑞芳區三爪子坑路91巷1號","121.811665","25.1073216666667","6501200","瑞芳區"
"224005","271-BY","2019/12/10 18:13:27","新北市瑞芳區建基路二段110號","121.811801666667","25.1326316666667","6501200","瑞芳區"
"227002","642-TC","2019/12/10 18:13:24","新北市雙溪區雙溪里太平路3號","121.864028333333","25.0351183333333","6502500","雙溪區"
"227001","400-TW","2019/12/10 18:13:21","新北市雙溪區三貂里政光路3號","121.851565","25.0629733333333","6502500","雙溪區"
"253005","032-BX","2019/12/10 18:13:14","新北市石門區中央路37-2號","121.568281666667","25.295015","6502200","石門區"
"253006","295-VK","2019/12/10 18:13:27","新北市石門區老梅路52巷21號","121.546373333333","25.2885666666667","6502200","石門區"
"222001","KEA-2212","2019/12/10 18:13:11","新北市深坑區北深路二段115號","121.616921666667","25.0032316666667","6501800","深坑區"
"208002","KEA-2872","2019/12/10 18:13:27","新北市金山區海興路82號","121.630826666667","25.2354166666667","6502700","金山區"
"208003","665-BX","2019/12/10 18:13:22","新北市金山區民生路58號","121.648911666667","25.22392","6502700","金山區"
"251004","009-UM","2019/12/10 18:13:26","新北市淡水區民族路110巷12弄1號","121.461913333333","25.13551","6501000","淡水區"
"251005","010-UM","2019/12/10 18:13:14","新北市淡水區水源街一段118號","121.447116666667","25.171815","6501000","淡水區"
"251001","011-UM","2019/12/10 18:13:22","新北市淡水區自立路1巷29號","121.462286666667","25.1294616666667","6501000","淡水區"
"251002","012-UM","2019/12/10 18:13:10","新北市淡水區中正東路一段87號","121.453233333333","25.1617733333333","6501000","淡水區"
"251015","KEA-2871","2019/12/10 18:13:25","新北市淡水區興福寮88巷1號","121.485366666667","25.1649083333333","6501000","淡水區"
"251016","180-VK","2019/12/10 18:13:29","新北市淡水區淡金路三段70巷1號","121.448306666667","25.20037","6501000","淡水區"
"251008","181-VK","2019/12/10 18:13:24","新北市淡水區淡金路2號","121.457905","25.1587333333333","6501000","淡水區"
"251013","182-VK","2019/12/10 18:13:10","新北市淡水區破瓦厝子1-8號","121.475515","25.1981","6501000","淡水區"
"251010","413-VK","2019/12/10 18:13:24","新北市淡水區中正路二段54號","121.419216666667","25.1838433333333","6501000","淡水區"
"251012","441-VK","2019/12/10 18:13:14","新北市淡水區北新路三段159號","121.489133333333","25.190455","6501000","淡水區"
"251006","561-UM","2019/12/10 18:13:13","新北市淡水區真理街3巷26-1號","121.438045","25.1766616666667","6501000","淡水區"
"251014","577-R6","2019/12/10 18:13:26","新北市淡水區北勢子2號","121.486003333333","25.223205","6501000","淡水區"
"251011","650-BX","2019/12/10 18:13:24","新北市淡水區小坪頂22-2號","121.484556666667","25.1574","6501000","淡水區"
"251003","673-BX","2019/12/10 18:13:15","新北市淡水區北新路182巷43號","121.448166666667","25.17747","6501000","淡水區"
"207003","681-TV","2019/12/10 18:13:16","新北市萬里區野柳里港東路74-6號","121.688986666667","25.2050733333333","6502800","萬里區"
"207004","291-VK","2019/12/10 18:13:13","新北市萬里區中幅里中福路106號","121.676838333333","25.169305","6502800","萬里區"
"252003","249-BX","2019/12/10 18:13:26","新北市三芝區古庄里四棧橋18-3號","121.490085","25.26095","6502100","三芝區"
"252001","292-VK","2019/12/10 18:13:11","新北市三芝區中興街二段2號","121.498393333333","25.256625","6502100","三芝區"
"237004","KEA-2597","2019/12/10 18:13:23","新北市三峽區大埔1-3號","121.37474","24.8904133333333","6500900","三峽區"
"237007","153-BY","2019/12/10 18:13:11","新北市三峽區中正路二段418-5號","121.364698333333","24.907965","6500900","三峽區"
"237009","210-TH","2019/12/10 18:13:29","新北市三峽區大仁路26號","121.366228333333","24.9376233333333","6500900","三峽區"
"237013","252-BX","2019/12/10 18:13:18","新北市三峽區長泰街33巷14弄9號","121.377186666667","24.9317916666667","6500900","三峽區"
"237012","275-BY","2019/12/10 18:13:29","新北市三峽區民生街1巷5-89號","121.378911666667","24.935645","6500900","三峽區"
"237008","302-VK","2019/12/10 18:13:24","新北市三峽區白雞64-9號","121.384473333333","24.912505","6500900","三峽區"
"237014","433-BY","2019/12/10 18:13:20","新北市三峽區國光街69號","121.374205","24.9384116666667","6500900","三峽區"
"237006","5529-G3","2019/12/10 18:13:26","新北市三峽區溪東路178巷13弄12號","121.406208333333","24.9321733333333","6500900","三峽區"
"237011","KEA-2596","2019/12/10 18:13:17","新北市三峽區介壽路一段316號","121.380593333333","24.9302","6500900","三峽區"
"237015","649-BX","2019/12/10 18:13:18","新北市三峽區紫新路48號","121.422138333333","24.9219466666667","6500900","三峽區"
"237010","706-TV","2019/12/10 18:13:15","新北市三峽區中園街3號","121.3686","24.9274933333333","6500900","三峽區"
"237005","AKY-6261","2019/12/10 18:13:28","新北市三峽區忠孝街25-5號","121.37121","24.9342633333333","6500900","三峽區"
"236042","KED-0685","2019/12/10 18:13:25","新北市土城區裕生路86巷2號","121.447288333333","24.9851066666667","6501300","土城區"
"233002","762-BX","2019/12/10 18:13:30","新北市烏來區紅河12-1號","121.539095","24.884245","6502900","烏來區"
"236079","166-UM","2019/12/10 18:13:27","新北市土城區永安街53號","121.432775","24.9641583333333","6501300","土城區"
"236030","253-BX","2019/12/10 18:13:05","新北市土城區中華路二段2號","121.439425","24.9795683333333","6501300","土城區"
"236026","269-VK","2019/12/10 18:13:27","新北市土城區承天路18號","121.43941","24.963655","6501300","土城區"
"236014","270-VK","2019/12/10 18:13:16","新北市土城區學府路一段72號","121.456733333333","24.98824","6501300","土城區"
"236038","271-VK","2019/12/10 18:13:20","新北市土城區青雲路453號","121.458878333333","24.9746266666667","6501300","土城區"
"236070","KEA-2877","2019/12/10 18:13:29","新北市土城區青雲路503號","121.458786666667","24.9733333333333","6501300","土城區"
"252002","KED-0821","2019/12/10 18:13:26","新北市三芝區中山路二段38號","121.502971666667","25.2551833333333","6502100","三芝區"
"236021","401-BY","2019/12/10 18:13:10","新北市土城區明德路一段385-1號","121.452691666667","24.979715","6501300","土城區"
"236059","912-UM","2019/12/10 18:13:10","新北市土城區中央路四段272號","121.414636666667","24.95656","6501300","土城區"
"236049","913-UM","2019/12/10 18:13:15","新北市土城區明德路一段365-1號","121.453546666667","24.97904","6501300","土城區"
"236063","915-UM","2019/12/10 18:13:26","新北市土城區金城路二段240號","121.456736666667","24.9830466666667","6501300","土城區"
"236055","AAC-216","2019/12/10 18:13:12","新北市土城區中華路二段92號","121.43826","24.97475","6501300","土城區"
"242061","986-R7","2019/12/10 18:13:25","新北市新莊區新樹路262號","121.432761666667","25.0146933333333","6500500","新莊區"
"242005","751-BX","2019/12/10 18:13:31","新北市新莊區自立街98號","121.454958333333","25.045335","6500500","新莊區"
"242029","615-BX","2019/12/10 18:13:17","新北市新莊區幸福路908號","121.44292","25.0489483333333","6500500","新莊區"
"242027","613-BX","2019/12/10 18:13:27","新北市新莊區幸福路513號","121.455651666667","25.0492816666667","6500500","新莊區"
"242058","612-BX","2019/12/10 18:13:20","新北市新莊區雙鳳路134巷6號","121.412831666667","25.0281416666667","6500500","新莊區"
"242048","566-BX","2019/12/10 18:13:26","新北市新莊區富國路156號","121.423295","25.0249883333333","6500500","新莊區"
"242054","497-BY","2019/12/10 18:13:21","新北市新莊區民安西路327巷6弄2號","121.42812","25.0115983333333","6500500","新莊區"
"242042","442-UM","2019/12/10 18:13:16","新北市新莊區天祥街78號","121.415698333333","25.029355","6500500","新莊區"
"242039","441-UM","2019/12/10 18:13:20","新北市新莊區新樹路206巷64號","121.432563333333","25.0218416666667","6500500","新莊區"
"242044","415-TV","2019/12/10 18:13:30","新北市新莊區雙鳳路163巷2號","121.41277","25.0268766666667","6500500","新莊區"
"242013","413-TV","2019/12/10 18:13:24","新北市新莊區環河路455號","121.440513333333","25.02121","6500500","新莊區"
"242051","400-BY","2019/12/10 18:13:26","新北市新莊區民本街11巷26號","121.428921666667","25.0202266666667","6500500","新莊區"
"242025","362-BY","2019/12/10 18:13:15","新北市新莊區五權一路7-4號","121.45857","25.066725","6500500","新莊區"
"242015","KEE-1025","2019/12/10 18:13:15","新北市新莊區中平路152巷46號","121.446675","25.0473866666667","6500500","新莊區"
"242056","172-VK","2019/12/10 18:13:23","新北市新莊區豐年街55-5號","121.446505","25.0309983333333","6500500","新莊區"
"242032","175-VK","2019/12/10 18:13:23","新北市新莊區新泰路277巷17號","121.44508","25.0403183333333","6500500","新莊區"
"242021","KED-0687","2019/12/10 18:13:32","新北市新莊區新興街37巷2號","121.450696666667","25.0379316666667","6500500","新莊區"
"242007","346-TH","2019/12/10 18:13:27","新北市新莊區自立街77號","121.454388333333","25.045425","6500500","新莊區"
"242002","347-TH","2019/12/10 18:13:13","新北市新莊區新莊路60號","121.45778","25.0367833333333","6500500","新莊區"
"242037","348-TH","2019/12/10 18:13:24","新北市新莊區後港一路37號","121.425463333333","25.02616","6500500","新莊區"
"242009","349-TH","2019/12/10 18:13:27","新北市新莊區中華路二段210巷7號","121.45346","25.0526166666667","6500500","新莊區"
"242019","351-TH","2019/12/10 18:13:23","新北市新莊區中港路132巷10號","121.455821666667","25.0406316666667","6500500","新莊區"
"238015","755-BX","2019/12/10 18:13:27","新北市樹林區大安路323巷10弄10號","121.41736","24.99114","6500700","樹林區"
"238023","601-UM","2019/12/10 18:13:20","新北市樹林區忠義街25號","121.409628333333","25.0148766666667","6500700","樹林區"
"238014","571-TV","2019/12/10 18:13:19","新北市樹林區忠孝街67巷46號","121.425498333333","24.9817833333333","6500700","樹林區"
"238018","KEA-2217","2019/12/10 18:13:21","新北市板橋區大觀路三段240號","121.429235","24.992605","6500700","樹林區"
"238022","KEA-2213","2019/12/10 18:13:26","新北市樹林區太順街111號","121.414621666667","24.9769666666667","6500700","樹林區"
"238025","303-VK","2019/12/10 18:13:27","新北市樹林區保安街二段101號","121.415723333333","25.0013033333333","6500700","樹林區"
"238017","283-BY","2019/12/10 18:13:25","新北市樹林區中正路683號","121.411895","25.013545","6500700","樹林區"
"238014","282-BY","2019/12/10 18:13:10","新北市樹林區潭興街93號","121.424808333333","24.99859","6500700","樹林區"
"238020","268-VK","2019/12/10 18:13:16","新北市樹林區三俊街135巷52號","121.418733333333","25.017225","6500700","樹林區"
"238026","172-UY","2019/12/10 18:13:27","新北市樹林區育德街12號","121.391016666667","24.9702816666667","6500700","樹林區"
"238016","169-UY","2019/12/10 18:13:11","新北市樹林區文化街18號","121.419631666667","24.9875133333333","6500700","樹林區"
"239007","AAC-297","2019/12/10 18:13:28","新北市鶯歌區育英街100號","121.347355","24.951745","6500800","鶯歌區"
"239006","891-R6","2019/12/10 18:13:17","新北市鶯歌區鶯桃路457號","121.332036666667","24.9656266666667","6500800","鶯歌區"
"239008","527-UM","2019/12/10 18:13:22","新北市鶯歌區朝陽街63巷3弄1號","121.338605","24.9782866666667","6500800","鶯歌區"
"239005","526-UM","2019/12/10 18:13:19","新北市鶯歌區鶯桃路668巷73號","121.329956666667","24.9718133333333","6500800","鶯歌區"
"239001","417-VK","2019/12/10 18:13:19","新北市鶯歌區中正三路191號","121.335701666667","24.93947","6500800","鶯歌區"
"239003","360-BY","2019/12/10 18:12:57","新北市鶯歌區永吉街7巷1號","121.336778333333","24.958645","6500800","鶯歌區"
"239002","359-BY","2019/12/10 18:13:28","新北市鶯歌區中山路164號","121.34893","24.95711","6500800","鶯歌區"
"239004","193-VK","2019/12/10 18:13:13","新北市鶯歌區尖山路88號","121.348635","24.94948","6500800","鶯歌區"
"221008","489-VK","2019/12/10 18:13:16","新北市汐止區康寧街307巷1弄10號","121.626781666667","25.068275","6501100","汐止區"
"221036","130-UY","2019/12/10 18:13:16","新北市汐止區大同路三段116號","121.672046666667","25.0767566666667","6501100","汐止區"
"221015","131-UY","2019/12/10 18:13:14","新北市汐止區長江街347號","121.667368333333","25.0820316666667","6501100","汐止區"
"244019","KED-0667","2019/12/10 18:13:17","新北市林口區忠孝路569巷6號","121.373905","25.068645","6501700","林口區"
"221010","269-BY","2019/12/10 18:13:13","新北市汐止區汐萬路二段275巷3弄1號","121.64526","25.0887483333333","6501100","汐止區"
"221018","277-VK","2019/12/10 18:13:25","新北市汐止區忠孝東路384號","121.66556","25.0701733333333","6501100","汐止區"
"221012","278-VK","2019/12/10 18:13:16","新北市汐止區保一街35巷4號","121.674831666667","25.0803883333333","6501100","汐止區"
"221023","279-VK","2019/12/10 18:13:11","新北市汐止區民族五街76號","121.627736666667","25.07019","6501100","汐止區"
"221027","281-BY","2019/12/10 18:13:18","新北市汐止區和平街6巷8-1號","121.663481666667","25.0715116666667","6501100","汐止區"
"221029","298-VK","2019/12/10 18:13:23","新北市汐止區樟樹二路318號","121.641398333333","25.069975","6501100","汐止區"
"221021","299-VK","2019/12/10 18:13:13","新北市汐止區復興路5號","121.655893333333","25.06442","6501100","汐止區"
"221032","567-BX","2019/12/10 18:13:14","新北市汐止區橫科路73巷31號","121.619378333333","25.0512216666667","6501100","汐止區"
"221035","622-UM","2019/12/10 18:13:09","新北市汐止區新江北路30巷15號","121.652488333333","25.06957","6501100","汐止區"
"221025","623-UM","2019/12/10 18:13:13","新北市汐止區秀峰路160號","121.6603","25.0621516666667","6501100","汐止區"
"221038","646-BX","2019/12/10 18:13:28","新北市汐止區仁愛路59號","121.660546666667","25.0629116666667","6501100","汐止區"
"221002","707-TV","2019/12/10 18:13:24","新北市汐止區福德一路201巷32號","121.635871666667","25.0649516666667","6501100","汐止區"
"233001","KEA-2870","2019/12/10 18:13:22","新北市烏來區新烏路五段62號","121.547505","24.8731366666667","6502900","烏來區"
"224002","257-TC","2019/12/10 18:13:15","新北市瑞芳區三爪子坑路149巷20號","121.811326666667","25.1065266666667","6501200","瑞芳區"
"242046","281-VK","2019/12/10 18:13:29","新北市新莊區福營路226號","121.427215","25.0293383333333","6500500","新莊區"
"242011","280-VK","2019/12/10 18:13:24","新北市新莊區中榮街72-1號","121.44823","25.0527183333333","6500500","新莊區"
"235061","KEA-2875","2019/12/10 18:13:08","新北市中和區莒光路177巷6號","121.473231666667","24.9991783333333","6500300","中和區"
