"lineid","car","time","location","longitude","latitude","cityid","cityname"
"234046","148-BY","2019/12/10 18:43:29","新北市永和區永元路40巷45號","121.523895","25.0006283333333","6500400","永和區"
"234081","298-R6","2019/12/10 18:43:25","新北市永和區林森路77號","121.523985","25.0039116666667","6500400","永和區"
"234064","337-UY","2019/12/10 18:43:17","新北市永和區福和路1號","121.526546666667","25.0100766666667","6500400","永和區"
"234086","338-UY","2019/12/10 18:43:11","新北市永和區中正路40號","121.512978333333","24.99438","6500400","永和區"
"234017","745-BX","2019/12/10 18:43:15","新北市永和區環河東路二段92號","121.524471666667","25.0106466666667","6500400","永和區"
"234030","746-BX","2019/12/10 18:43:16","新北市永和區得和路324號","121.5232","24.99961","6500400","永和區"
"234007","KED-0605","2019/12/10 18:43:28","新北市永和區文化路168號","121.5121","25.0154033333333","6500400","永和區"
"234013","KEA-2591","2019/12/10 18:43:10","新北市永和區保福路二段105號","121.51018","25.0133416666667","6500400","永和區"
"234061","AAD-866","2019/12/10 18:43:28","新北市永和區福和路47-1號","121.523306666667","25.0080033333333","6500400","永和區"
"234042","862-TW","2019/12/10 18:43:17","新北市永和區福和路290號","121.517386666667","25.007495","6500400","永和區"
"234026","9371-KE","2019/12/10 18:43:16","新北市永和區自由街58號","121.513885","25.0059833333333","6500400","永和區"
"234011","9373-KE","2019/12/10 18:43:19","新北市永和區仁愛路31巷1號","121.514323333333","25.01309","6500400","永和區"
"249005","172-UM","2019/12/10 18:43:12","新北市八里區長道坑2號","121.392933333333","25.1243816666667","6502300","八里區"
"249001","173-UM","2019/12/10 18:43:10","新北市八里區龍米路一段263-2號","121.449781666667","25.1369233333333","6502300","八里區"
"249004","303-UY","2019/12/10 18:43:27","新北市八里區中山路一段126-1號","121.418523333333","25.1596433333333","6502300","八里區"
"249002","305-UY","2019/12/10 18:43:15","新北市八里區頂寮二街138號","121.449318333333","25.1294416666667","6502300","八里區"
"248014","025-BX","2019/12/10 18:43:23","新北市五股區民義路一段109-5號","121.433908333333","25.0862033333333","6501500","五股區"
"248016","026-BX","2019/12/10 18:43:24","新北市五股區凌雲路一段133巷27-3號","121.448636666667","25.1008316666667","6501500","五股區"
"248008","KED-0815","2019/12/10 18:43:24","新北市五股區中興路一段149號","121.465111666667","25.0735166666667","6501500","五股區"
"248020","KED-0813","2019/12/10 18:41:02","新北市五股區孝義路108-1號","121.44181","25.119995","6501500","五股區"
"248012","247-BX","2019/12/10 18:43:22","新北市五股區成泰路三段2巷3號","121.440963333333","25.0863433333333","6501500","五股區"
"248010","272-BY","2019/12/10 18:43:27","新北市五股區水碓九路75號","121.430195","25.0733216666667","6501500","五股區"
"248004","677-BX","2019/12/10 18:43:22","新北市五股區民義路二段42-3號","121.416218333333","25.0997016666667","6501500","五股區"
"248002","682-TV","2019/12/10 18:43:16","新北市五股區西雲路205號","121.44858","25.096525","6501500","五股區"
"234023","9380-KE","2019/12/10 18:43:19","新北市永和區豫溪街217巷1號","121.524675","25.0091883333333","6500400","永和區"
"234077","969-R7","2019/12/10 18:43:18","新北市永和區中正路170號","121.51516","24.9968283333333","6500400","永和區"
"234067","AAC-212","2019/12/10 18:43:22","新北市永和區永貞路175號","121.515111666667","25.0039383333333","6500400","永和區"
"234003","AAC-295","2019/12/10 18:43:20","新北市永和區福和路64號","121.523386666667","25.00808","6500400","永和區"
"232011","375-UM","2019/12/10 18:43:27","新北市坪林區坪雙路一段41號","121.711661666667","24.9424466666667","6502000","坪林區"
"244007","080-UY","2019/12/10 18:43:21","新北市林口區太平里12-3號","121.378583333333","25.1146083333333","6501700","林口區"
"244013","KEA-2802","2019/12/10 18:43:14","新北市林口區麗園一街6巷5-3號","121.375361666667","25.0703816666667","6501700","林口區"
"244023","483-VK","2019/12/10 18:43:22","新北市林口區文化二路二段72號","121.378616666667","25.0803433333333","6501700","林口區"
"244017","485-VK","2019/12/10 18:43:09","新北市林口區文化二路一段20巷25弄13號","121.365455","25.0672866666667","6501700","林口區"
"244009","657-BX","2019/12/10 18:43:29","新北市林口區竹林路366巷5號","121.392281666667","25.084755","6501700","林口區"
"244011","701-TV","2019/12/10 18:43:21","新北市林口區中正路41巷9號","121.395718333333","25.076765","6501700","林口區"
"244025","837-TS","2019/12/10 18:43:20","新北市林口區南勢六街248號","121.355961666667","25.074815","6501700","林口區"
"244021","838-TS","2019/12/10 18:43:24","新北市林口區工六路86號","121.400765","25.07708","6501700","林口區"
"208001","267-VK","2019/12/10 18:43:08","新北市金山區文化三路64號","121.634163333333","25.225565","6502700","金山區"
"243016","421-VK","2019/12/10 18:43:14","新北市泰山區泰林路二段290號","121.431078333333","25.0626966666667","6501600","泰山區"
"243015","680-BX","2019/12/10 18:43:31","新北市泰山區泰林路二段366號","121.428598333333","25.06378","6501600","泰山區"
"222003","436-BY","2019/12/10 18:43:21","新北市深坑區翠谷街17巷36號","121.62552","25.0099183333333","6501800","深坑區"
"222002","659-BX","2019/12/10 18:43:20","新北市深坑區文山路一段69號","121.626998333333","25.00192","6501800","深坑區"
"231045","001-UM","2019/12/10 18:43:22","新北市新店區安華路28-1號","121.519455","24.9607916666667","6500600","新店區"
"231061","002-UM","2019/12/10 18:43:17","新北市新店區安華路28-1號","121.519553333333","24.9608333333333","6500600","新店區"
"231043","047-UY","2019/12/10 18:43:26","新北市新店區安華路28-1號","121.519161666667","24.960895","6500600","新店區"
"231060","106-UY","2019/12/10 18:43:25","新北市新店區安華路28-1號","121.519675","24.9607866666667","6500600","新店區"
"231051","107-UY","2019/12/10 18:43:27","新北市新店區中央路81號","121.532375","24.976645","6500600","新店區"
"231049","108-UY","2019/12/10 18:43:18","新北市新店區安康路一段94號","121.527738333333","24.9621333333333","6500600","新店區"
"231065","110-UY","2019/12/10 18:43:21","新北市新店區安忠路57巷13號","121.513723333333","24.95755","6500600","新店區"
"231050","KEA-2219","2019/12/10 18:43:12","新北市新店區安一路一段1-1號","121.519686666667","24.9612733333333","6500600","新店區"
"221031","KEA-2785","2019/12/10 18:43:21","新北市汐止區大同路一段312號","121.63727","25.05879","6501100","汐止區"
"231062","256-BX","2019/12/10 18:43:24","新北市新店區安一路一段1-1號","121.519761666667","24.96107","6500600","新店區"
"231054","260-TV","2019/12/10 18:43:19","新北市新店區安一路一段1-1號","121.519161666667","24.961295","6500600","新店區"
"231042","268-BY","2019/12/10 18:43:26","新北市新店區安一路一段1-1號","121.51966","24.9613416666667","6500600","新店區"
"231064","278-BY","2019/12/10 18:43:23","新北市新店區安一路一段1-1號","121.519691666667","24.9610816666667","6500600","新店區"
"231058","3713-VJ","2019/12/10 18:43:30","新北市新店區國校路76-1號","121.538575","24.953115","6500600","新店區"
"231055","4716-K9","2019/12/10 18:43:18","新北市新店區華興街26號","121.537523333333","24.9691616666667","6500600","新店區"
"231056","4715-K9","2019/12/10 18:43:27","新北市新店區大豐路71號","121.539281666667","24.9794983333333","6500600","新店區"
"231053","513-UM","2019/12/10 18:43:19","新北市新店區永興路34號","121.543585","24.938805","6500600","新店區"
"231040","617-UM","2019/12/10 18:43:29","新北市新店區安華路28-1號","121.519358333333","24.960895","6500600","新店區"
"231041","619-UM","2019/12/10 18:43:17","新北市新店區安華路28-1號","121.519478333333","24.9609683333333","6500600","新店區"
"231063","641-BX","2019/12/10 18:43:27","新北市新店區安華路1-1號","121.5195","24.9604966666667","6500600","新店區"
"231048","718-UY","2019/12/10 18:43:19","新北市新店區安一路一段1-1號","121.519605","24.9611133333333","6500600","新店區"
"231046","719-UM","2019/12/10 18:43:16","新北市新店區直潭二街1號","121.535405","24.9431416666667","6500600","新店區"
"231057","720-UM","2019/12/10 18:43:14","新北市新店區新烏路一段17巷4號","121.546293333333","24.9508966666667","6500600","新店區"
"231059","897-TW","2019/12/10 18:43:25","新北市新店區安華路28-1號","121.519476666667","24.9607366666667","6500600","新店區"
"231066","AKT-0513","2019/12/10 18:43:27","新北市新店區安忠路57巷11弄14號","121.515446666667","24.9579316666667","6500600","新店區"
"241035","462-BY","2019/12/10 18:43:17","新北市三重區重新路四段121號","121.484793333333","25.051925","6500200","三重區"
"235066","003-UY","2019/12/10 18:43:14","新北市中和區光華街62號","121.505616666667","25.003605","6500300","中和區"
"235064","005-UY","2019/12/10 18:43:12","新北市中和區中和路42號","121.500035","25.001065","6500300","中和區"
"235063","006-UY","2019/12/10 18:43:18","新北市中和區錦和路111號","121.49036","24.995175","6500300","中和區"
"235056","096-UM","2019/12/10 18:43:28","新北市中和區員山路506巷2號","121.479303333333","25.0084683333333","6500300","中和區"
"235039","097-UM","2019/12/10 18:43:21","新北市中和區安樂路143巷23號","121.513523333333","24.9970433333333","6500300","中和區"
"235065","098-UM","2019/12/10 18:43:24","新北市中和區中山路二段2巷81弄11號","121.500701666667","25.0072266666667","6500300","中和區"
"235004","150-BY","2019/12/10 18:43:16","新北市中和區保健路106巷12弄16號","121.511136666667","24.9957616666667","6500300","中和區"
"235058","151-BY","2019/12/10 18:43:20","新北市中和區連城路559號","121.479895","24.9947566666667","6500300","中和區"
"235055","183-VK","2019/12/10 18:43:25","新北市中和區民生街85巷1弄1號","121.46892","25.0046816666667","6500300","中和區"
"235038","185-VK","2019/12/10 18:43:20","新北市中和區立人街14巷10號","121.519511666667","24.9951283333333","6500300","中和區"
"235067","255-BX","2019/12/10 18:43:11","新北市中和區中正路853號","121.484606666667","25.00298","6500300","中和區"
"235044","293-VK","2019/12/10 18:43:24","新北市中和區復興路280巷28號","121.501776666667","24.9917266666667","6500300","中和區"
"235072","301-VK","2019/12/10 18:43:25","新北市中和區中山路二段102號","121.503288333333","25.0041333333333","6500300","中和區"
"235043","352-BY","2019/12/10 18:43:17","新北市中和區景平路27號","121.522311666667","24.99061","6500300","中和區"
"235042","KEA-2878","2019/12/10 18:43:19","新北市中和區秀朗路三段135巷7弄7號","121.525655","24.9919883333333","6500300","中和區"
"235050","4979-A6","2019/12/10 18:43:28","新北市中和區景新街496巷30弄18號","121.512943333333","24.9855733333333","6500300","中和區"
"235069","4980-A6","2019/12/10 18:43:22","新北市中和區連城路65巷6號","121.497763333333","25.0009533333333","6500300","中和區"
"235070","558-UM","2019/12/10 18:43:18","新北市中和區安和路195號","121.505963333333","24.998325","6500300","中和區"
"235045","565-BX","2019/12/10 18:43:17","新北市中和區捷運路3號","121.509393333333","24.9894683333333","6500300","中和區"
"235060","KED-0823","2019/12/10 18:43:19","新北市中和區民治街9巷2號","121.475133333333","25.0044416666667","6500300","中和區"
"235054","640-BX","2019/12/10 18:43:11","新北市中和區民享街35巷3號","121.47447","25.0040166666667","6500300","中和區"
"235047","732-UM","2019/12/10 18:43:27","新北市中和區興南路二段74巷10號","121.50517","24.9849066666667","6500300","中和區"
"235046","733-UM","2019/12/10 18:43:22","新北市中和區仁愛街36巷46號","121.511365","24.9862266666667","6500300","中和區"
"235062","800-TS","2019/12/10 18:43:20","新北市中和區中山路二段390號","121.490438333333","25.0037183333333","6500300","中和區"
"235057","801-TS","2019/12/10 18:43:26","新北市中和區民安街25巷12弄28號","121.479565","24.9996083333333","6500300","中和區"
"235041","802-TS","2019/12/10 18:43:17","新北市中和區中安街178巷13弄13號","121.51072","24.9987016666667","6500300","中和區"
"235052","805-TS","2019/12/10 18:43:14","新北市中和區興南路三段99號","121.488975","24.9727316666667","6500300","中和區"
"235048","896-TW","2019/12/10 18:43:13","新北市中和區南山路300號","121.507858333333","24.98707","6500300","中和區"
"235053","900-TW","2019/12/10 18:43:25","新北市中和區華順街105號","121.465346666667","24.99738","6500300","中和區"
"235059","911-UM","2019/12/10 18:43:13","新北市中和區圓通路371號","121.490771666667","24.989465","6500300","中和區"
"235051","157-BY","2019/12/10 18:43:20","新北市中和區華新街109巷16號","121.50876","24.9811266666667","6500300","中和區"
"235037","AAC-213","2019/12/10 18:43:21","新北市中和區秀朗路三段128巷25弄5號","121.524043333333","24.9938683333333","6500300","中和區"
"220054","015-TV","2019/12/10 18:43:24","新北市板橋區南雅南路二段4巷6號","121.454025","25.0037283333333","6500100","板橋區"
"220086","073-UY","2019/12/10 18:43:16","新北市板橋區南雅西路二段145巷3號","121.451696666667","25.0115083333333","6500100","板橋區"
"220106","075-UY","2019/12/10 18:43:21","新北市板橋區文化路二段10號","121.468726666667","25.0241316666667","6500100","板橋區"
"220069","AAD-861","2019/12/10 18:43:21","新北市板橋區四川路一段74號","121.45943","25.0053066666667","6500100","板橋區"
"226004","312-R5","2019/12/10 18:43:25","新北市平溪區平溪里三坑路19號","121.734683333333","25.0281866666667","6502400","平溪區"
"235049","251-BX","2019/12/10 18:43:22","新北市中和區明義街16號","121.50452","24.9949133333333","6500300","中和區"
"228001","212-TW","2019/12/10 18:43:23","新北市貢寮區仁理村研海街12-1號","121.92377","25.0516416666667","6502600","貢寮區"
"228002","663-BX","2019/12/10 18:43:11","新北市貢寮區福隆里東興街6-11號","121.950738333333","25.0210816666667","6502600","貢寮區"
"228003","828-UM","2019/12/10 18:43:11","新北市貢寮區和美里龍洞街1-5號","121.919195","25.1124033333333","6502600","貢寮區"
"224010","AGQ-8101","2019/12/10 18:43:22","新北市瑞芳區基山街27號","121.845408333333","25.1092733333333","6501200","瑞芳區"
"224006","676-BX","2019/12/10 18:43:25","新北市瑞芳區中正路100號","121.80514","25.1077266666667","6501200","瑞芳區"
"224007","285-BY","2019/12/10 18:43:27","新北市瑞芳區大埔路146號","121.761806666667","25.1009866666667","6501200","瑞芳區"
"224009","275-VK","2019/12/10 18:43:24","新北市瑞芳區祈堂路53-1號","121.859571666667","25.1104583333333","6501200","瑞芳區"
"224008","273-VK","2019/12/10 18:43:28","新北市瑞芳區逢甲路274號","121.804748333333","25.11082","6501200","瑞芳區"
"224005","271-BY","2019/12/10 18:43:22","新北市瑞芳區瑞濱路1-4號","121.827793333333","25.121565","6501200","瑞芳區"
"227002","642-TC","2019/12/10 18:43:24","新北市雙溪區魚行里坤溪3-5號","121.876158333333","25.02083","6502500","雙溪區"
"227001","400-TW","2019/12/10 18:43:21","新北市雙溪區牡丹里下坑11號","121.850975","25.05617","6502500","雙溪區"
"253005","032-BX","2019/12/10 18:43:14","新北市石門區中山路28-1號","121.565786666667","25.290065","6502200","石門區"
"253006","295-VK","2019/12/10 18:43:26","新北市石門區下員坑33-6號","121.518273333333","25.2828866666667","6502200","石門區"
"222001","KEA-2212","2019/12/10 18:43:27","新北市深坑區松柏街43巷1號","121.638716666667","25.0118316666667","6501800","深坑區"
"208002","KEA-2872","2019/12/10 18:43:27","新北市金山區仁愛路35-1號","121.636248333333","25.2193083333333","6502700","金山區"
"208003","665-BX","2019/12/10 18:43:22","新北市金山區中山路346號","121.633436666667","25.225335","6502700","金山區"
"251001","011-UM","2019/12/10 18:43:14","新北市淡水區自強路419號","121.465573333333","25.1342033333333","6501000","淡水區"
"251002","012-UM","2019/12/10 18:43:17","新北市淡水區中正東路77號","121.447513333333","25.1673533333333","6501000","淡水區"
"251015","KEA-2871","2019/12/10 18:43:25","新北市淡水區興福寮66巷28號","121.48606","25.162435","6501000","淡水區"
"251016","180-VK","2019/12/10 18:43:08","新北市淡水區下圭柔山84號","121.437716666667","25.2058433333333","6501000","淡水區"
"251008","181-VK","2019/12/10 18:43:24","新北市淡水區北投子79-2號","121.460198333333","25.178505","6501000","淡水區"
"251013","182-VK","2019/12/10 18:43:22","新北市淡水區雲廣坑5-1號","121.474235","25.2130316666667","6501000","淡水區"
"251010","413-VK","2019/12/10 18:43:28","新北市淡水區沙崙路116號","121.423135","25.1827066666667","6501000","淡水區"
"251012","441-VK","2019/12/10 18:43:14","新北市淡水區北新路121號","121.449021666667","25.1786433333333","6501000","淡水區"
"251006","561-UM","2019/12/10 18:43:13","新北市淡水區崁頂37-6號","121.439636666667","25.19511","6501000","淡水區"
"251014","577-R6","2019/12/10 18:43:18","新北市淡水區崙頂12-8號","121.49556","25.21722","6501000","淡水區"
"251011","650-BX","2019/12/10 18:43:24","新北市淡水區學府路32巷87號","121.44812","25.16773","6501000","淡水區"
"251003","673-BX","2019/12/10 18:43:15","新北市淡水區北新路69巷26號","121.44659","25.1800783333333","6501000","淡水區"
"207003","681-TV","2019/12/10 18:43:16","新北市萬里區野柳里港東路153號","121.689318333333","25.2051033333333","6502800","萬里區"
"207004","291-VK","2019/12/10 18:43:13","新北市萬里區萬里里獅頭路23號","121.693578333333","25.178265","6502800","萬里區"
"252003","249-BX","2019/12/10 18:43:26","新北市三芝區後厝里大片頭85-9號","121.458715","25.2439516666667","6502100","三芝區"
"252001","292-VK","2019/12/10 18:43:31","新北市三芝區中正路三段20號","121.50268","25.25307","6502100","三芝區"
"237004","KEA-2597","2019/12/10 18:43:23","新北市三峽區插角123號","121.409881666667","24.8706133333333","6500900","三峽區"
"237007","153-BY","2019/12/10 18:43:11","新北市三峽區柑樹路6巷6號","121.3614","24.9038333333333","6500900","三峽區"
"237009","210-TH","2019/12/10 18:43:29","新北市三峽區民權街219號","121.36776","24.9283116666667","6500900","三峽區"
"237013","252-BX","2019/12/10 18:43:18","新北市三峽區光明路69巷24號","121.376625","24.929115","6500900","三峽區"
"237012","275-BY","2019/12/10 18:43:09","新北市三峽區三樹路340號","121.383951666667","24.9433333333333","6500900","三峽區"
"237008","302-VK","2019/12/10 18:43:24","新北市三峽區白雞33-26號","121.37048","24.9126983333333","6500900","三峽區"
"237014","433-BY","2019/12/10 18:43:19","新北市三峽區復興路480巷52-1號","121.361976666667","24.9411616666667","6500900","三峽區"
"237006","5529-G3","2019/12/10 18:43:26","新北市三峽區溪東路315巷67號","121.412028333333","24.9310766666667","6500900","三峽區"
"237011","KEA-2596","2019/12/10 18:43:17","新北市三峽區溪東路367號","121.4117","24.9293033333333","6500900","三峽區"
"237015","649-BX","2019/12/10 18:43:18","新北市三峽區安坑1-12號","121.438615","24.9264616666667","6500900","三峽區"
"237010","706-TV","2019/12/10 18:43:15","新北市三峽區復興路487號","121.361298333333","24.9384533333333","6500900","三峽區"
"237005","AKY-6261","2019/12/10 18:43:28","新北市三峽區文化路39號","121.372588333333","24.9360816666667","6500900","三峽區"
"236042","KED-0685","2019/12/10 18:43:25","新北市土城區裕民路92巷21弄2號","121.44991","24.9864316666667","6501300","土城區"
"236079","166-UM","2019/12/10 18:43:27","新北市土城區頂埔街95-1號","121.418003333333","24.959805","6501300","土城區"
"236030","253-BX","2019/12/10 18:43:25","新北市土城區中華路二段187號","121.438375","24.9746683333333","6501300","土城區"
"236026","269-VK","2019/12/10 18:43:28","新北市土城區和平路53號","121.443811666667","24.9717383333333","6501300","土城區"
"236014","270-VK","2019/12/10 18:43:16","新北市土城區清水路276號","121.462061666667","24.98341","6501300","土城區"
"236038","271-VK","2019/12/10 18:43:20","新北市土城區明德路一段247巷21號","121.463046666667","24.97736","6501300","土城區"
"236070","KEA-2877","2019/12/10 18:43:29","新北市土城區永豐路157巷29弄6-1號","121.468261666667","24.9814583333333","6501300","土城區"
"252002","KED-0821","2019/12/10 18:43:26","新北市三芝區民生街13號","121.503625","25.2572016666667","6502100","三芝區"
"236021","401-BY","2019/12/10 18:43:30","新北市土城區延吉街253巷30號","121.467966666667","24.9836933333333","6501300","土城區"
"236059","912-UM","2019/12/10 18:43:30","新北市土城區中央路三段119-1號","121.434186666667","24.96556","6501300","土城區"
"236049","913-UM","2019/12/10 18:43:15","新北市土城區金城路二段340號","121.460041666667","24.98476","6501300","土城區"
"236063","915-UM","2019/12/10 18:43:26","新北市土城區延和路125巷39號","121.469206666667","24.9912666666667","6501300","土城區"
"236055","AAC-216","2019/12/10 18:43:13","新北市土城區裕民路131號","121.451425","24.9864983333333","6501300","土城區"
"242061","986-R7","2019/12/10 18:43:11","新北市新莊區富國路176巷1號","121.424245","25.0244116666667","6500500","新莊區"
"242058","612-BX","2019/12/10 18:43:20","新北市新莊區中正路891-17號","121.412918333333","25.022395","6500500","新莊區"
"242044","415-TV","2019/12/10 18:43:23","新北市新莊區中正路新旺巷6號","121.415535","25.023345","6500500","新莊區"
"238023","601-UM","2019/12/10 18:43:20","新北市樹林區三福街114號","121.406455","25.0163233333333","6500700","樹林區"
"238014","571-TV","2019/12/10 18:43:19","新北市樹林區中華路190-16號","121.411786666667","24.9806216666667","6500700","樹林區"
"238024","5061-A6","2019/12/10 18:43:22","新北市樹林區太順街79巷17號","121.41723","24.9781083333333","6500700","樹林區"
"238018","KEA-2217","2019/12/10 18:43:21","新北市樹林區鎮前街163號","121.422515","24.9875266666667","6500700","樹林區"
"238017","283-BY","2019/12/10 18:43:25","新北市樹林區光興街50號","121.409865","25.0026816666667","6500700","樹林區"
"238014","282-BY","2019/12/10 18:43:31","新北市樹林區大安路111巷25號","121.423166666667","24.9976116666667","6500700","樹林區"
"238020","268-VK","2019/12/10 18:43:16","新北市樹林區俊安街13號","121.419745","25.0139316666667","6500700","樹林區"
"238026","172-UY","2019/12/10 18:43:27","新北市樹林區育德街78-1號","121.387958333333","24.9680966666667","6500700","樹林區"
"238016","169-UY","2019/12/10 18:43:31","新北市樹林區中山路一段412號","121.417416666667","24.9851516666667","6500700","樹林區"
"239007","AAC-297","2019/12/10 18:43:28","新北市鶯歌區中正一路460號","121.36446","24.9565933333333","6500800","鶯歌區"
"239006","891-R6","2019/12/10 18:43:17","新北市鶯歌區中正一路221號","121.3541","24.9570883333333","6500800","鶯歌區"
"239008","527-UM","2019/12/10 18:43:22","新北市鶯歌區朝陽街1號","121.336285","24.9765816666667","6500800","鶯歌區"
"239005","526-UM","2019/12/10 18:43:19","新北市鶯歌區鳳吉三街15號","121.326676666667","24.97339","6500800","鶯歌區"
"239001","417-VK","2019/12/10 18:43:19","新北市鶯歌區國中街197號","121.338218333333","24.9391466666667","6500800","鶯歌區"
"239003","360-BY","2019/12/10 18:43:17","新北市鶯歌區福安街58號","121.335585","24.9652466666667","6500800","鶯歌區"
"239002","359-BY","2019/12/10 18:43:08","新北市鶯歌區文化路307號","121.35249","24.9524116666667","6500800","鶯歌區"
"239004","193-VK","2019/12/10 18:43:28","新北市鶯歌區尖山路323號","121.341858333333","24.944365","6500800","鶯歌區"
"221036","130-UY","2019/12/10 18:43:16","新北市汐止區長興街一段50號","121.670618333333","25.079295","6501100","汐止區"
"221015","131-UY","2019/12/10 18:43:14","新北市汐止區鄉友街30號","121.668791666667","25.081255","6501100","汐止區"
"244019","KED-0667","2019/12/10 18:43:17","新北市林口區麗園二街85號","121.38237","25.067485","6501700","林口區"
"221010","269-BY","2019/12/10 18:43:13","新北市汐止區汐萬路三段235號","121.643586666667","25.1052383333333","6501100","汐止區"
"221018","277-VK","2019/12/10 18:43:25","新北市汐止區茄苳路224巷3弄23號","121.671291666667","25.06806","6501100","汐止區"
"221012","278-VK","2019/12/10 18:43:16","新北市汐止區保長路147巷2號","121.677033333333","25.07662","6501100","汐止區"
"221029","298-VK","2019/12/10 18:43:23","新北市汐止區樟樹一路122號","121.642083333333","25.06429","6501100","汐止區"
"221021","299-VK","2019/12/10 18:43:13","新北市汐止區復興路67號","121.657205","25.06212","6501100","汐止區"
"221032","567-BX","2019/12/10 18:43:14","新北市汐止區福山街56巷19號","121.618026666667","25.045645","6501100","汐止區"
"221035","622-UM","2019/12/10 18:43:09","新北市汐止區大同路二段169巷32號","121.650786666667","25.0651683333333","6501100","汐止區"
"221025","623-UM","2019/12/10 18:43:13","新北市汐止區仁愛路121巷1號","121.662766666667","25.0637866666667","6501100","汐止區"
"221002","707-TV","2019/12/10 18:43:24","新北市汐止區大同路一段169號","121.632761666667","25.0567016666667","6501100","汐止區"
"220079","145-BY","2019/12/10 18:43:10","新北市板橋區南雅西路二段93號","121.452623333333","25.0104116666667","6500100","板橋區"
"220080","200-UY","2019/12/10 18:43:25","新北市板橋區大觀路二段265巷76弄37號","121.440983333333","24.9967033333333","6500100","板橋區"
"220082","610-BX","2019/12/10 18:43:31","新北市板橋區篤行路二段52號","121.431733333333","24.9925633333333","6500100","板橋區"
"224002","257-TC","2019/12/10 18:43:15","新北市瑞芳區中山路318號","121.796836666667","25.1100033333333","6501200","瑞芳區"
"220056","276-BY","2019/12/10 18:43:25","新北市板橋區四川路一段146號","121.459945","25.0035866666667","6500100","板橋區"
"220072","277-BY","2019/12/10 18:43:14","新北市板橋區金門街31巷42號","121.434131666667","24.9935683333333","6500100","板橋區"
"220094","283-UM","2019/12/10 18:42:59","新北市板橋區民生路二段161巷1號","121.470065","25.0201533333333","6500100","板橋區"
"220071","283-VK","2019/12/10 18:43:27","新北市板橋區四川路一段467號","121.45739","24.997815","6500100","板橋區"
"220083","286-VK","2019/12/10 18:43:10","新北市板橋區大觀路二段22巷2號","121.446431666667","25.0034216666667","6500100","板橋區"
"220081","287-VK","2019/12/10 18:43:11","新北市板橋區館前西路168-1號","121.451955","25.0085866666667","6500100","板橋區"
"220090","288-VK","2019/12/10 18:43:14","新北市板橋區民生路三段64號","121.466763333333","25.02543","6500100","板橋區"
"220061","293-UM","2019/12/10 18:43:16","新北市板橋區民生路二段89-4號","121.471091666667","25.018345","6500100","板橋區"
"220092","295-UM","2019/12/10 18:43:17","新北市板橋區漢生東路25號","121.46519","25.0171183333333","6500100","板橋區"
"220084","296-UM","2019/12/10 18:43:26","新北市板橋區大觀路二段148巷68號","121.441785","25.0007966666667","6500100","板橋區"
"220075","303-R5","2019/12/10 18:43:20","新北市板橋區南雅西路一段39巷29號","121.452813333333","25.0039233333333","6500100","板橋區"
"220062","305-R5","2019/12/10 18:43:11","新北市板橋區民生路二段161巷5號","121.470203333333","25.01969","6500100","板橋區"
"220065","461-BY","2019/12/10 18:43:25","新北市板橋區成都街47號","121.461371666667","25.0049383333333","6500100","板橋區"
"220089","487-VK","2019/12/10 18:43:23","新北市板橋區民生路二段250號","121.468425","25.0232233333333","6500100","板橋區"
"220088","491-VK","2019/12/10 18:43:21","新北市板橋區民生路二段148號","121.471333333333","25.0198216666667","6500100","板橋區"
"220035","560-BX","2019/12/10 18:43:19","新北市板橋區南雅西路二段130號","121.452026666667","25.0126466666667","6500100","板橋區"
"220103","561-BX","2019/12/10 18:43:24","新北市板橋區民生路二段89-4號","121.471051666667","25.0183633333333","6500100","板橋區"
"220063","609-BX","2019/12/10 18:43:27","新北市板橋區民生路一段135號","121.473633333333","25.0150566666667","6500100","板橋區"
"220091","637-BX","2019/12/10 18:43:24","新北市板橋區民生路二段89-6號","121.47084","25.019215","6500100","板橋區"
"220057","686-BX","2019/12/10 18:43:20","新北市板橋區館前東路53號","121.461283333333","25.007385","6500100","板橋區"
"220077","687-BX","2019/12/10 18:43:11","新北市板橋區大觀路二段431-1號","121.441226666667","24.9951266666667","6500100","板橋區"
"220093","689-BX","2019/12/10 18:43:24","新北市板橋區民生路二段161巷1號","121.47004","25.0202183333333","6500100","板橋區"
"220102","KEA-2699","2019/12/10 18:43:24","新北市板橋區民生路二段120號","121.470471666667","25.01959","6500100","板橋區"
"220055","827-TW","2019/12/10 18:43:22","新北市板橋區忠孝路99號","121.46242","25.0023383333333","6500100","板橋區"
"220067","829-TW","2019/12/10 18:43:22","新北市板橋區民生路一段63號","121.475101666667","25.013195","6500100","板橋區"
"220068","830-TW","2019/12/10 18:43:12","新北市板橋區萬板路76號","121.472748333333","25.0233883333333","6500100","板橋區"
"220074","895-R6","2019/12/10 18:43:10","新北市板橋區南雅東路1號","121.45553","25.005545","6500100","板橋區"
"220073","985-R7","2019/12/10 18:43:15","新北市板橋區貴興路8號","121.457671666667","25.004455","6500100","板橋區"
"220097","AAC-210","2019/12/10 18:43:22","新北市板橋區民生路二段56-6號","121.470925","25.019205","6500100","板橋區"
"220064","AAC-253","2019/12/10 18:43:24","新北市板橋區中山路一段279號","121.46955","25.0137783333333","6500100","板橋區"
"235061","KEA-2875","2019/12/10 18:43:17","新北市中和區民治街132巷10號","121.474853333333","25.0024033333333","6500300","中和區"
"235068","KEA-2876","2019/12/10 18:43:12","新北市中和區中正路215號","121.496658333333","24.9936916666667","6500300","中和區"
