"lineid","car","time","location","longitude","latitude","cityid","cityname"
"234046","148-BY","2019/12/10 19:13:29","新北市永和區秀朗路二段148巷3弄2號","121.525391666667","25.0010666666667","6500400","永和區"
"234081","298-R6","2019/12/10 19:13:22","新北市永和區永貞路39巷6弄2號","121.521761666667","25.0065533333333","6500400","永和區"
"234038","336-UY","2019/12/10 19:13:12","新北市永和區環河東路四段84號","121.52821","24.99778","6500400","永和區"
"234064","337-UY","2019/12/10 19:13:17","新北市永和區永元路95巷1號","121.52244","25.00194","6500400","永和區"
"234086","338-UY","2019/12/10 19:13:11","新北市永和區永利路4巷6號","121.517445","25.0052433333333","6500400","永和區"
"234070","552-UM","2019/12/10 19:13:30","新北市永和區豫溪街137-1號","121.519876666667","25.0103733333333","6500400","永和區"
"234017","745-BX","2019/12/10 19:13:15","新北市永和區文化路90巷31號","121.513025","25.0165683333333","6500400","永和區"
"234030","746-BX","2019/12/10 19:13:16","新北市永和區厚德街68號","121.524025","24.9989066666667","6500400","永和區"
"234054","KEA-2590","2019/12/10 19:13:26","新北市永和區中興街107號","121.51813","25.0120566666667","6500400","永和區"
"234007","KED-0605","2019/12/10 19:13:28","新北市中和區中山路二段65號","121.504083333333","25.0046766666667","6500400","永和區"
"234013","KEA-2591","2019/12/10 19:13:10","新北市永和區保福路二段20號","121.510995","25.0114766666667","6500400","永和區"
"234061","AAD-866","2019/12/10 19:13:28","新北市永和區秀朗路一段92號","121.516138333333","25.004935","6500400","永和區"
"234042","862-TW","2019/12/10 19:13:17","新北市永和區保平路203巷23號","121.509156666667","25.0047216666667","6500400","永和區"
"234050","863-TW","2019/12/10 19:13:24","新北市永和區保福路二段105號","121.510325","25.0133633333333","6500400","永和區"
"234026","9371-KE","2019/12/10 19:13:16","新北市永和區安樂路198巷4弄2號","121.515578333333","25.0019866666667","6500400","永和區"
"234011","9373-KE","2019/12/10 19:13:19","新北市永和區仁愛路141巷21號","121.512218333333","25.0115683333333","6500400","永和區"
"249001","173-UM","2019/12/10 19:13:24","新北市八里區大崁腳48-53號","121.424948333333","25.159235","6502300","八里區"
"248008","KED-0815","2019/12/10 19:13:24","新北市五股區中興路一段118巷19號","121.465921666667","25.0744183333333","6501500","五股區"
"248020","KED-0813","2019/12/10 19:13:22","新北市五股區凌雲路三段57號","121.425281666667","25.124985","6501500","五股區"
"248010","272-BY","2019/12/10 19:13:28","新北市五股區水碓一路23號","121.430575","25.07126","6501500","五股區"
"248004","677-BX","2019/12/10 19:13:22","新北市五股區五福路62號","121.433206666667","25.0897216666667","6501500","五股區"
"234023","9380-KE","2019/12/10 19:13:19","新北市永和區竹林路124巷31號","121.518371666667","25.0112366666667","6500400","永和區"
"234077","969-R7","2019/12/10 19:13:18","新北市永和區民族街41巷23號","121.519478333333","24.9989266666667","6500400","永和區"
"234074","AAC-211","2019/12/10 19:13:29","新北市永和區竹林路133-3號","121.52018","25.0108","6500400","永和區"
"234067","AAC-212","2019/12/10 19:13:22","新北市永和區保平路18巷5號","121.512191666667","25.0078166666667","6500400","永和區"
"234003","AAC-295","2019/12/10 19:13:20","新北市永和區永平路150號","121.511385","25.0087283333333","6500400","永和區"
"244023","483-VK","2019/12/10 19:13:22","新北市林口區文林六街62巷24號","121.37183","25.0817983333333","6501700","林口區"
"244025","837-TS","2019/12/10 19:13:19","新北市林口區文化三路一段447巷29號","121.367466666667","25.07496","6501700","林口區"
"208001","267-VK","2019/12/10 19:13:15","新北市金山區慈護街24號","121.639393333333","25.2201833333333","6502700","金山區"
"243012","AAD-798","2019/12/10 19:13:15","新北市泰山區辭修路36巷8弄5號","121.427863333333","25.0585983333333","6501600","泰山區"
"243010","297-R6","2019/12/10 19:13:17","新北市泰山區明志路一段458巷6號","121.430141666667","25.0557883333333","6501600","泰山區"
"243014","KEA-2801","2019/12/10 19:13:16","新北市泰山區泰林路二段330號","121.429951666667","25.0631983333333","6501600","泰山區"
"243016","421-VK","2019/12/10 19:13:14","新北市泰山區明志路三段52號","121.424908333333","25.0422983333333","6501600","泰山區"
"243009","KEA-2215","2019/12/10 19:13:28","新北市泰山區楓樹街15巷3號","121.434973333333","25.06301","6501600","泰山區"
"243011","KEA-2216","2019/12/10 19:13:21","新北市泰山區明志路二段364號","121.425705","25.0450466666667","6501600","泰山區"
"243013","646-TV","2019/12/10 19:13:23","新北市泰山區台麗街21號","121.424736666667","25.0381616666667","6501600","泰山區"
"243015","680-BX","2019/12/10 19:13:10","新北市泰山區明志路一段509號","121.430531666667","25.0544133333333","6501600","泰山區"
"222003","436-BY","2019/12/10 19:13:21","新北市深坑區深南路204號","121.626643333333","25.0160616666667","6501800","深坑區"
"222002","659-BX","2019/12/10 19:13:20","新北市深坑區紅葉街22號","121.632705","25.0134133333333","6501800","深坑區"
"231045","001-UM","2019/12/10 19:13:28","新北市新店區北宜路一段164號","121.540436666667","24.9533583333333","6500600","新店區"
"231061","002-UM","2019/12/10 19:13:17","新北市新店區安康路一段70號","121.528536666667","24.961785","6500600","新店區"
"231044","046-UY","2019/12/10 19:13:13","新北市新店區中興路三段182號","121.54407","24.9813666666667","6500600","新店區"
"231043","047-UY","2019/12/10 19:13:26","新北市新店區寶橋路69-1號","121.545376666667","24.9750466666667","6500600","新店區"
"231060","106-UY","2019/12/10 19:13:25","新北市新店區安康路二段216號","121.509848333333","24.9593666666667","6500600","新店區"
"231051","107-UY","2019/12/10 19:13:27","新北市新店區中正路382巷25號","121.535595","24.9783933333333","6500600","新店區"
"231049","108-UY","2019/12/10 19:13:18","新北市新店區北新路三段65巷11號","121.541153333333","24.9810466666667","6500600","新店區"
"231065","110-UY","2019/12/10 19:13:21","新北市新店區安祥路110巷61號","121.473796666667","24.9568833333333","6500600","新店區"
"231050","KEA-2219","2019/12/10 19:13:12","新北市新店區竹林路2巷29弄3號","121.550203333333","24.9504166666667","6500600","新店區"
"221031","KEA-2785","2019/12/10 19:13:21","新北市汐止區福德三路133號","121.633215","25.0674866666667","6501100","汐止區"
"231062","256-BX","2019/12/10 19:13:24","新北市新店區安和路二段88號","121.518753333333","24.96873","6500600","新店區"
"231054","260-TV","2019/12/10 19:13:19","新北市新店區新店路228號","121.537176666667","24.9567233333333","6500600","新店區"
"231042","268-BY","2019/12/10 19:13:26","新北市新店區中興路一段81號","121.540818333333","24.961855","6500600","新店區"
"231064","278-BY","2019/12/10 19:13:23","新北市新店區安忠路102巷2號","121.510816666667","24.956415","6500600","新店區"
"231058","3713-VJ","2019/12/10 19:13:30","新北市新店區檳榔路50號","121.541808333333","24.963405","6500600","新店區"
"231055","4716-K9","2019/12/10 19:13:18","新北市新店區溪園路365-5號","121.522948333333","24.9803116666667","6500600","新店區"
"231056","4715-K9","2019/12/10 19:13:27","新北市新店區安民街115巷16號","121.515135","24.96818","6500600","新店區"
"231067","4772-VM","2019/12/10 19:13:21","新北市新店區安康路一段207巷6弄8號","121.52548","24.962735","6500600","新店區"
"231053","513-UM","2019/12/10 19:13:19","新北市新店區屈尺路75號","121.545578333333","24.922695","6500600","新店區"
"231040","617-UM","2019/12/10 19:13:29","新北市新店區三民路155-1號","121.533845","24.9734133333333","6500600","新店區"
"231041","619-UM","2019/12/10 19:13:24","新北市新店區溪園路383號","121.523341666667","24.979485","6500600","新店區"
"231063","641-BX","2019/12/10 19:13:27","新北市新店區車子路162號","121.504525","24.94648","6500600","新店區"
"231048","718-UY","2019/12/10 19:13:19","新北市新店區德正街27巷19號","121.54527","24.97157","6500600","新店區"
"231046","719-UM","2019/12/10 19:13:16","新北市新店區華城路12-1號","121.529201666667","24.9578233333333","6500600","新店區"
"231057","720-UM","2019/12/10 19:13:14","新北市新店區百齡一路12號","121.55302","24.932475","6500600","新店區"
"231059","897-TW","2019/12/10 19:13:25","新北市新店區安和路二段3-5號","121.518116666667","24.9673133333333","6500600","新店區"
"231066","AKT-0513","2019/12/10 19:13:27","新北市新店區安祥路35-2號","121.490741666667","24.9568133333333","6500600","新店區"
"241031","061-VK","2019/12/10 19:13:21","新北市三重區捷運路22巷10號","121.485206666667","25.0555583333333","6500200","三重區"
"241035","462-BY","2019/12/10 19:13:17","新北市三重區重陽路三段5巷34號","121.491546666667","25.0651633333333","6500200","三重區"
"241020","478-VK","2019/12/10 19:13:15","新北市三重區後竹圍街128號","121.488171666667","25.0726066666667","6500200","三重區"
"241026","480-VK","2019/12/10 19:13:14","新北市三重區中正南路201號","121.493431666667","25.0541533333333","6500200","三重區"
"241022","KED-0820","2019/12/10 19:13:24","新北市三重區中正北路111-1號","121.485511666667","25.065495","6500200","三重區"
"241029","942-UM","2019/12/10 19:13:18","新北市三重區中正南路199號","121.493403333333","25.0544966666667","6500200","三重區"
"235066","003-UY","2019/12/10 19:13:14","新北市中和區廣福路66號","121.503481666667","25.0017","6500300","中和區"
"235064","005-UY","2019/12/10 19:13:12","新北市中和區中和路33號","121.50003","25.00164","6500300","中和區"
"235063","006-UY","2019/12/10 19:13:19","","121.494956666667","24.994555","6500300","中和區"
"235056","096-UM","2019/12/10 19:13:28","新北市中和區員山路529號","121.479658333333","25.0069283333333","6500300","中和區"
"235039","097-UM","2019/12/10 19:13:21","新北市中和區景平路3號","121.52368","24.9902733333333","6500300","中和區"
"235065","098-UM","2019/12/10 19:13:12","新北市中和區中山路二段116巷3弄9號","121.502266666667","25.004025","6500300","中和區"
"235004","150-BY","2019/12/10 19:13:16","新北市中和區保健路48巷39號","121.509623333333","24.99636","6500300","中和區"
"235058","151-BY","2019/12/10 19:13:23","新北市中和區連城路523巷13弄1號","121.481696666667","24.9938366666667","6500300","中和區"
"235055","183-VK","2019/12/10 19:13:25","新北市中和區莒光路36號","121.472215","25.0038416666667","6500300","中和區"
"235038","185-VK","2019/12/10 19:13:20","新北市中和區大仁街10巷42號","121.519121666667","24.9924833333333","6500300","中和區"
"235067","255-BX","2019/12/10 19:13:31","新北市中和區中正路741號","121.484826666667","24.999425","6500300","中和區"
"235044","293-VK","2019/12/10 19:13:24","新北市中和區中興街262號","121.499006666667","24.987545","6500300","中和區"
"235072","301-VK","2019/12/10 19:13:25","新北市中和區永和路6號","121.499915","25.00291","6500300","中和區"
"235043","352-BY","2019/12/10 19:13:17","新北市中和區景平路408-2號","121.5085","24.9931766666667","6500300","中和區"
"235042","KEA-2878","2019/12/10 19:13:19","新北市永和區民有街28號","121.516876666667","24.99629","6500300","中和區"
"235050","4979-A6","2019/12/10 19:13:28","新北市中和區復興路280巷36弄10號","121.501673333333","24.9921483333333","6500300","中和區"
"235069","4980-A6","2019/12/10 19:13:21","新北市中和區中山路二段181巷22號","121.501103333333","25.0019566666667","6500300","中和區"
"235070","558-UM","2019/12/10 19:13:18","新北市中和區景平路632號","121.500185","24.997935","6500300","中和區"
"235045","565-BX","2019/12/10 19:13:17","新北市中和區景新街423巷33弄41號","121.5137","24.9901216666667","6500300","中和區"
"235060","KED-0823","2019/12/10 19:13:19","新北市中和區新生街112巷27號","121.482496666667","25.002915","6500300","中和區"
"235054","640-BX","2019/12/10 19:13:11","新北市中和區國光街112巷13弄1號","121.469666666667","25.0018766666667","6500300","中和區"
"235071","647-TV","2019/12/10 19:13:24","新北市中和區連城路340巷1號","121.482888333333","24.9958116666667","6500300","中和區"
"235047","732-UM","2019/12/10 19:13:27","新北市中和區和平街38巷27號","121.509546666667","24.9912","6500300","中和區"
"235046","733-UM","2019/12/10 19:13:22","新北市中和區華新街115號","121.507243333333","24.9821266666667","6500300","中和區"
"235057","801-TS","2019/12/10 19:13:26","新北市中和區員山路469巷1號","121.480341666667","25.0045366666667","6500300","中和區"
"235041","802-TS","2019/12/10 19:13:17","新北市中和區中和路302-1號","121.508655","24.9999233333333","6500300","中和區"
"235052","805-TS","2019/12/10 19:13:14","新北市中和區興南路二段242巷18號","121.502321666667","24.9832266666667","6500300","中和區"
"235048","896-TW","2019/12/10 19:13:13","新北市中和區忠孝街39-13號","121.512068333333","24.9843433333333","6500300","中和區"
"235053","900-TW","2019/12/10 19:13:25","新北市中和區華安街30巷16-1號","121.466913333333","24.997375","6500300","中和區"
"235059","911-UM","2019/12/10 19:13:13","新北市中和區圓通路286巷10號","121.491535","24.99118","6500300","中和區"
"235051","157-BY","2019/12/10 19:13:20","新北市中和區和平街2巷1號","121.510091666667","24.9902566666667","6500300","中和區"
"235037","AAC-213","2019/12/10 19:13:21","新北市中和區秀朗路三段10巷14弄108號","121.522976666667","24.99667","6500300","中和區"
"220054","015-TV","2019/12/10 19:13:24","新北市板橋區重慶路69巷1號","121.46217","25.0070133333333","6500100","板橋區"
"220086","073-UY","2019/12/10 19:13:16","新北市板橋區幸福路70巷3號","121.46057","25.0201116666667","6500100","板橋區"
"220106","075-UY","2019/12/10 19:13:21","新北市板橋區江寧路三段123巷4號","121.473235","25.0332883333333","6500100","板橋區"
"220069","AAD-861","2019/12/10 19:13:30","新北市板橋區大明街20巷29弄5-1號","121.458371666667","25.0034966666667","6500100","板橋區"
"226004","312-R5","2019/12/10 19:13:25","新北市平溪區望古里灰3號","121.760366666667","25.0311083333333","6502400","平溪區"
"235049","251-BX","2019/12/10 19:13:22","新北市中和區景新街229號","121.507996666667","24.9946483333333","6500300","中和區"
"228001","212-TW","2019/12/10 19:13:23","新北市貢寮區真理里新港街10號","121.925405","25.0542816666667","6502600","貢寮區"
"228002","663-BX","2019/12/10 19:13:10","新北市貢寮區福隆里興隆街36號","121.941218333333","25.017355","6502600","貢寮區"
"228003","828-UM","2019/12/10 19:13:11","新北市貢寮區和美里和美街21-1號","121.912458333333","25.0824816666667","6502600","貢寮區"
"224008","273-VK","2019/12/10 19:13:27","新北市瑞芳區明燈路三段151號","121.803031666667","25.1096783333333","6501200","瑞芳區"
"227002","642-TC","2019/12/10 19:13:24","新北市雙溪區平林里梅竹蹊56-4號","121.860706666667","25.0366683333333","6502500","雙溪區"
"227001","400-TW","2019/12/10 19:13:21","新北市雙溪區牡丹里中正路35號","121.864618333333","25.03837","6502500","雙溪區"
"253005","032-BX","2019/12/10 19:13:14","新北市石門區阿里荖33-1號","121.606686666667","25.2809","6502200","石門區"
"253006","295-VK","2019/12/10 19:13:26","新北市石門區崁子腳27號","121.535936666667","25.2909516666667","6502200","石門區"
"222001","KEA-2212","2019/12/10 19:13:17","新北市深坑區北深路二段48號","121.619486666667","25.00427","6501800","深坑區"
"208002","KEA-2872","2019/12/10 19:13:27","新北市金山區環金路376巷1號","121.632036666667","25.22222","6502700","金山區"
"208003","665-BX","2019/12/10 19:13:22","新北市金山區中山路158號","121.638501666667","25.2208716666667","6502700","金山區"
"251001","011-UM","2019/12/10 19:13:14","新北市淡水區民權路92巷35-1號","121.46208","25.1268016666667","6501000","淡水區"
"251002","012-UM","2019/12/10 19:13:30","新北市淡水區中山路88號","121.442796666667","25.1705116666667","6501000","淡水區"
"251015","KEA-2871","2019/12/10 19:13:25","新北市淡水區南勢埔20號","121.482396666667","25.1784616666667","6501000","淡水區"
"251016","180-VK","2019/12/10 19:13:28","新北市淡水區下圭柔山119-51號","121.450783333333","25.2084166666667","6501000","淡水區"
"251013","182-VK","2019/12/10 19:13:30","新北市淡水區安子內12號","121.481096666667","25.2193783333333","6501000","淡水區"
"251010","413-VK","2019/12/10 19:13:30","新北市淡水區沙崙路23號","121.42139","25.181425","6501000","淡水區"
"251007","442-VK","2019/12/10 19:13:11","新北市淡水區民生路145巷58號","121.468023333333","25.1387783333333","6501000","淡水區"
"251009","575-R6","2019/12/10 19:13:10","新北市淡水區清水街232號","121.440211666667","25.1717","6501000","淡水區"
"251014","577-R6","2019/12/10 19:13:18","新北市淡水區小中寮19-7號","121.484745","25.229645","6501000","淡水區"
"251003","673-BX","2019/12/10 19:13:15","新北市淡水區重建街224號","121.441458333333","25.1748133333333","6501000","淡水區"
"207003","681-TV","2019/12/10 19:13:16","新北市萬里區大鵬里萬里加投19-12號","121.650165","25.2095783333333","6502800","萬里區"
"207004","291-VK","2019/12/10 19:13:14","新北市萬里區萬里里瑪鋉下街2號","121.691013333333","25.17817","6502800","萬里區"
"252001","292-VK","2019/12/10 19:13:20","新北市三芝區長勤街10號","121.501438333333","25.2558533333333","6502100","三芝區"
"237004","KEA-2597","2019/12/10 19:13:23","新北市三峽區有木206號","121.439091666667","24.8515866666667","6500900","三峽區"
"237007","153-BY","2019/12/10 19:13:11","新北市三峽區麻園36-12號","121.363703333333","24.920175","6500900","三峽區"
"237009","210-TH","2019/12/10 19:13:29","新北市三峽區民生街121號","121.373436666667","24.935225","6500900","三峽區"
"237013","252-BX","2019/12/10 19:13:17","新北市三峽區大同路39巷33號","121.377941666667","24.9275416666667","6500900","三峽區"
"237012","275-BY","2019/12/10 19:13:09","新北市三峽區三樹路222巷236弄69-3號","121.394548333333","24.9433483333333","6500900","三峽區"
"237008","302-VK","2019/12/10 19:13:24","新北市三峽區永安街183號","121.373253333333","24.9267583333333","6500900","三峽區"
"237014","433-BY","2019/12/10 19:13:19","新北市三峽區中山路194號","121.363538333333","24.9369316666667","6500900","三峽區"
"237006","5529-G3","2019/12/10 19:13:26","新北市三峽區橫溪路120巷6號","121.398358333333","24.9354283333333","6500900","三峽區"
"237011","KEA-2596","2019/12/10 19:13:17","新北市三峽區介壽路三段107號","121.395503333333","24.93925","6500900","三峽區"
"237015","649-BX","2019/12/10 19:13:18","新北市三峽區安坑48-1號","121.45858","24.9322433333333","6500900","三峽區"
"237010","706-TV","2019/12/10 19:13:15","新北市三峽區國光街54號","121.374528333333","24.93807","6500900","三峽區"
"237005","AKY-6261","2019/12/10 19:13:08","新北市三峽區隆恩街245號","121.357623333333","24.9408816666667","6500900","三峽區"
"236079","166-UM","2019/12/10 19:13:27","新北市土城區龍泉路38-2號","121.412115","24.94575","6501300","土城區"
"236026","269-VK","2019/12/10 19:13:27","新北市土城區中正路11巷5號","121.44289","24.97554","6501300","土城區"
"236014","270-VK","2019/12/10 19:13:16","新北市土城區學府路一段23巷25弄32號","121.457295","24.9861783333333","6501300","土城區"
"247011","KED-0683","2019/12/10 19:10:22","新北市五股區中興路三段163號","121.448966666667","25.080945","6501400","蘆洲區"
"236070","KEA-2877","2019/12/10 19:13:09","新北市土城區中央路一段249巷24號","121.446406666667","24.9853616666667","6501300","土城區"
"252002","KED-0821","2019/12/10 19:13:26","新北市三芝區淡金路二段18-1號","121.502666666667","25.2595133333333","6502100","三芝區"
"236021","401-BY","2019/12/10 19:13:30","新北市土城區延峰街16號","121.468741666667","24.9862816666667","6501300","土城區"
"236059","912-UM","2019/12/10 19:13:10","新北市土城區中央路三段38號","121.438515","24.96887","6501300","土城區"
"236049","913-UM","2019/12/10 19:13:15","新北市土城區明德路一段365-1號","121.453666666667","24.9791066666667","6501300","土城區"
"238015","755-BX","2019/12/10 19:13:17","新北市樹林區備內街105號","121.406973333333","24.9895833333333","6500700","樹林區"
"238023","601-UM","2019/12/10 19:13:20","新北市樹林區三興路49號","121.395586666667","25.0143833333333","6500700","樹林區"
"238014","571-TV","2019/12/10 19:13:19","新北市樹林區東榮街91巷1弄2號","121.416248333333","24.9822766666667","6500700","樹林區"
"238021","KEA-2539","2019/12/10 19:13:27","新北市樹林區柑園街二段303巷13號","121.371675","24.950065","6500700","樹林區"
"238025","303-VK","2019/12/10 19:13:27","新北市樹林區中山路三段309號","121.391196666667","24.9717516666667","6500700","樹林區"
"238017","283-BY","2019/12/10 19:13:25","新北市樹林區光興街50號","121.40985","25.0026916666667","6500700","樹林區"
"238014","282-BY","2019/12/10 19:13:10","新北市樹林區千歲街63-8號","121.4267","24.9983166666667","6500700","樹林區"
"238020","268-VK","2019/12/10 19:13:16","新北市樹林區俊英街133巷4號","121.423968333333","25.0114033333333","6500700","樹林區"
"238026","172-UY","2019/12/10 19:13:27","新北市樹林區佳園路一段39-1號","121.393315","24.9708383333333","6500700","樹林區"
"238016","169-UY","2019/12/10 19:13:31","新北市樹林區文化街26號","121.41942","24.987675","6500700","樹林區"
"239007","AAC-297","2019/12/10 19:13:28","新北市鶯歌區中正一路269巷40號","121.355545","24.9596166666667","6500800","鶯歌區"
"239006","891-R6","2019/12/10 19:13:15","新北市鶯歌區鶯桃路296巷94弄31號","121.337646666667","24.961605","6500800","鶯歌區"
"239008","527-UM","2019/12/10 19:13:22","新北市鶯歌區國際二路70巷5號","121.335081666667","24.9764716666667","6500800","鶯歌區"
"239005","526-UM","2019/12/10 19:13:19","新北市鶯歌區大湖路361巷26號","121.330483333333","24.9779716666667","6500800","鶯歌區"
"239001","417-VK","2019/12/10 19:13:19","新北市鶯歌區永明街60巷52號","121.340663333333","24.95502","6500800","鶯歌區"
"239003","360-BY","2019/12/10 19:13:17","新北市鶯歌區鶯桃路605號","121.32924","24.9690983333333","6500800","鶯歌區"
"239002","359-BY","2019/12/10 19:13:28","新北市鶯歌區中正一路351號","121.357661666667","24.9570516666667","6500800","鶯歌區"
"239004","193-VK","2019/12/10 19:13:13","新北市鶯歌區中正三路228號","121.331323333333","24.93742","6500800","鶯歌區"
"221008","489-VK","2019/12/10 19:13:32","新北市汐止區康寧街374號","121.628961666667","25.0676933333333","6501100","汐止區"
"221036","130-UY","2019/12/10 19:13:16","新北市汐止區忠孝東路287號","121.663958333333","25.0687266666667","6501100","汐止區"
"221032","567-BX","2019/12/10 19:13:14","新北市汐止區橫科路367巷26號","121.623383333333","25.04829","6501100","汐止區"
"221035","622-UM","2019/12/10 19:13:30","新北市汐止區汐萬路一段115巷1號","121.65438","25.07058","6501100","汐止區"
"221002","707-TV","2019/12/10 19:13:24","新北市汐止區大同路一段321號","121.637993333333","25.059165","6501100","汐止區"
"220079","145-BY","2019/12/10 19:13:30","新北市板橋區民權路200號","121.459056666667","25.01381","6500100","板橋區"
"220080","200-UY","2019/12/10 19:13:25","新北市板橋區大觀路二段7巷80號","121.449645","25.0030666666667","6500100","板橋區"
"220082","610-BX","2019/12/10 19:13:10","新北市板橋區溪崑二街89號","121.427275","24.9895383333333","6500100","板橋區"
"220101","245-BX","2019/12/10 19:13:23","新北市板橋區縣民大道三段121巷2號","121.47702","25.0229016666667","6500100","板橋區"
"220056","276-BY","2019/12/10 19:13:25","新北市板橋區信義路182號","121.459441666667","24.99146","6500100","板橋區"
"220072","277-BY","2019/12/10 19:13:20","新北市板橋區金門街260巷9號","121.429475","24.9867483333333","6500100","板橋區"
"220094","283-UM","2019/12/10 19:13:19","新北市板橋區光武街110巷20弄2號","121.466753333333","25.0296283333333","6500100","板橋區"
"220071","283-VK","2019/12/10 19:13:27","新北市板橋區和平路239號","121.465313333333","24.998655","6500100","板橋區"
"220053","285-VK","2019/12/10 19:13:24","新北市板橋區富山街53巷27號","121.477583333333","25.0210966666667","6500100","板橋區"
"220083","286-VK","2019/12/10 19:13:10","新北市板橋區大觀路二段174巷179弄19號","121.441328333333","25.004265","6500100","板橋區"
"220081","287-VK","2019/12/10 19:13:11","新北市板橋區南雅西路二段5號","121.453028333333","25.0091416666667","6500100","板橋區"
"220090","288-VK","2019/12/10 19:13:14","新北市板橋區長江路一段106巷11號","121.460038333333","25.0290666666667","6500100","板橋區"
"220061","293-UM","2019/12/10 19:13:16","新北市板橋區中山路二段318巷20弄39號","121.48119","25.018875","6500100","板橋區"
"220092","295-UM","2019/12/10 19:13:17","新北市板橋區文化路二段125巷15號","121.469496666667","25.0271316666667","6500100","板橋區"
"220084","296-UM","2019/12/10 19:13:26","新北市板橋區溪崑二街56巷20號","121.42797","24.9912116666667","6500100","板橋區"
"220075","303-R5","2019/12/10 19:13:20","新北市板橋區南雅南路一段4巷10號","121.45488","25.0053516666667","6500100","板橋區"
"220062","305-R5","2019/12/10 19:13:11","新北市板橋區三民路二段居仁巷2弄25號","121.47999","25.013035","6500100","板橋區"
"220098","317-R6","2019/12/10 19:13:26","新北市板橋區四維路103巷5號","121.46528","25.0244133333333","6500100","板橋區"
"220065","461-BY","2019/12/10 19:13:25","新北市板橋區民族路151巷51號","121.469136666667","25.0082833333333","6500100","板橋區"
"220089","487-VK","2019/12/10 19:13:23","新北市板橋區漢生西路89巷5弄1號","121.46089","25.0194683333333","6500100","板橋區"
"220088","491-VK","2019/12/10 19:13:21","新北市板橋區雙十路一段1號","121.478296666667","25.0239183333333","6500100","板橋區"
"220035","560-BX","2019/12/10 19:13:26","新北市板橋區中正路326巷6弄2號","121.454835","25.0218216666667","6500100","板橋區"
"220103","561-BX","2019/12/10 19:13:24","新北市板橋區介壽街1號","121.466855","25.0206066666667","6500100","板橋區"
"220063","609-BX","2019/12/10 19:13:22","新北市板橋區三民路二段38號","121.479251666667","25.0178033333333","6500100","板橋區"
"220091","637-BX","2019/12/10 19:13:24","新北市板橋區萬板路476號","121.479916666667","25.0259833333333","6500100","板橋區"
"220057","686-BX","2019/12/10 19:13:20","新北市中和區和平路200巷11號","121.464625","24.995525","6500100","板橋區"
"220077","687-BX","2019/12/10 19:13:11","新北市板橋區大觀路二段145號","121.445623333333","25.001015","6500100","板橋區"
"220093","689-BX","2019/12/10 19:13:24","新北市板橋區漢生西路113號","121.462701666667","25.0202616666667","6500100","板橋區"
"220102","KEA-2699","2019/12/10 19:13:24","新北市板橋區松柏街1巷22弄2號","121.47359","25.0303416666667","6500100","板橋區"
"220055","827-TW","2019/12/10 19:13:22","新北市板橋區新民街37號","121.463848333333","25.01053","6500100","板橋區"
"220067","829-TW","2019/12/10 19:13:26","新北市板橋區長安街138巷1弄61號","121.474361666667","25.010625","6500100","板橋區"
"220068","830-TW","2019/12/10 19:13:23","新北市板橋區翠華街6巷16號","121.481038333333","25.0242833333333","6500100","板橋區"
"220074","895-R6","2019/12/10 19:13:10","新北市板橋區中正路自強新村43-2號","121.454903333333","25.0138416666667","6500100","板橋區"
"220073","985-R7","2019/12/10 19:13:16","新北市板橋區中正路370號","121.454503333333","25.024385","6500100","板橋區"
"220097","AAC-210","2019/12/10 19:13:22","新北市板橋區幸福路60巷58號","121.4597","25.0220683333333","6500100","板橋區"
"220064","AAC-253","2019/12/10 19:13:24","新北市板橋區縣民大道二段62號","121.462818333333","25.012485","6500100","板橋區"
"235061","KEA-2875","2019/12/10 19:13:08","新北市中和區連城路456巷11號","121.47853","24.9952416666667","6500300","中和區"
"235068","KEA-2876","2019/12/10 19:13:12","新北市中和區圓通路158巷1弄9號","121.497211666667","24.9960583333333","6500300","中和區"
