"lineid","car","time","location","longitude","latitude","cityid","cityname"
"251004","009-UM","2019/12/10 21:59:16","新北市淡水區民權路233號","121.460983333333","25.1289883333333","6501000","淡水區"
"251005","010-UM","2019/12/10 21:59:14","新北市淡水區鄧公路30巷2弄61號","121.454273333333","25.1692866666667","6501000","淡水區"
"251008","181-VK","2019/12/10 21:59:24","新北市淡水區水源街一段83巷149-15號","121.44843","25.1734516666667","6501000","淡水區"
"251010","413-VK","2019/12/10 21:59:24","新北市淡水區中正路二段211號","121.426183333333","25.1890966666667","6501000","淡水區"
"251007","442-VK","2019/12/10 21:59:31","新北市淡水區北新路184巷19號","121.450253333333","25.178055","6501000","淡水區"
"251006","561-UM","2019/12/10 21:42:08","新北市淡水區中正路11巷3號","121.437905","25.1707516666667","6501000","淡水區"
"251009","575-R6","2019/12/10 21:59:30","新北市淡水區民權路103號","121.460298333333","25.1378283333333","6501000","淡水區"
"251011","650-BX","2019/12/10 21:59:27","新北市淡水區中山北路一段129號","121.442888333333","25.1769683333333","6501000","淡水區"
"251003","673-BX","2019/12/10 21:59:15","新北市淡水區新春街83號","121.438835","25.1825466666667","6501000","淡水區"
