"lineid","car","time","location","longitude","latitude","cityid","cityname"
"251004","009-UM","2019/12/10 22:13:16","新北市淡水區民族路33號","121.462185","25.1357766666667","6501000","淡水區"
"251008","181-VK","2019/12/10 22:13:24","新北市淡水區學府路104號","121.449871666667","25.17182","6501000","淡水區"
"251010","413-VK","2019/12/10 22:13:24","新北市淡水區沙崙路200號","121.424655","25.1838816666667","6501000","淡水區"
"251007","442-VK","2019/12/10 22:13:11","新北市淡水區北新路180號","121.449486666667","25.178685","6501000","淡水區"
"251011","650-BX","2019/12/10 22:13:27","新北市淡水區水碓街7號","121.443175","25.17709","6501000","淡水區"
