"lineid","car","time","location","longitude","latitude","cityid","cityname"
"232017","290-BY","2019/08/26 07:29:30","新北市坪林區樟空子6號","121.726045","24.96939","6502000","坪林區"
"232005","291-BY","2019/08/26 07:29:47","新北市坪林區魚堀33-9號","121.697873333333","24.925625","6502000","坪林區"
"232010","375-UM","2019/08/26 07:29:41","新北市坪林區北宜路八段301號","121.711136666667","24.9337483333333","6502000","坪林區"
"232012","705-BZ","2019/08/26 07:29:34","新北市坪林區幼瀨1號","121.68193","24.9251383333333","6502000","坪林區"
"232001","758-BX","2019/08/26 07:29:42","新北市坪林區樹梅嶺9號","121.69595","24.9596366666667","6502000","坪林區"
"244001","248-BX","2019/08/26 07:29:40","新北市林口區頂福里67-1號","121.338646666667","25.0911","6501700","林口區"
"222004","289-BY","2019/08/26 07:29:46","新北市深坑區深坑街75號","121.614661666667","25.00124","6501800","深坑區"
"226005","5620-A6","2019/08/26 07:29:38","新北市平溪區白石里中埔227-1號","121.721893333333","25.0209","6502400","平溪區"
"226001","7418-A5","2019/08/26 07:21:32","新北市平溪區望古里灰4-2號","121.763613333333","25.029115","6502400","平溪區"
"226003","AGD-0702","2019/08/26 07:27:16","新北市平溪區嶺腳里嶺腳寮85號","121.748536666667","25.0351083333333","6502400","平溪區"
"223003","205-TH","2019/08/26 07:29:38","新北市石碇區中楒子腳2-3號","121.6375","24.9725016666667","6501900","石碇區"
"223008","406-TH","2019/08/26 07:29:34","新北市石碇區番子坑36號","121.678036666667","25.0100616666667","6501900","石碇區"
"223001","592-UM","2019/08/26 07:29:44","新北市石碇區中楒子腳2-15號","121.638633333333","24.9734816666667","6501900","石碇區"
"223004","660-BX","2019/08/26 07:29:32","新北市石碇區新興坑31號","121.6477","25.0161083333333","6501900","石碇區"
"223007","661-BX","2019/08/26 07:29:45","新北市石碇區大溪墘15號","121.69341","25.0083433333333","6501900","石碇區"
"227004","282-VK","2019/08/26 07:29:39","新北市雙溪區新基里自強路5號","121.866376666667","25.0390566666667","6502500","雙溪區"
"252006","073-UM","2019/08/26 07:29:38","新北市三芝區古庄里四棧橋20號","121.488723333333","25.2613766666667","6502100","三芝區"
"252004","249-BX","2019/08/26 07:29:45","新北市三芝區興華里楓子林53-6號","121.501435","25.213005","6502100","三芝區"
"237014","760-BX","2019/08/26 07:29:45","新北市三峽區大埔路68號","121.366351666667","24.90767","6500900","三峽區"
"242030","AAC-296","2019/08/26 07:29:31","新北市新莊區新泰路357巷3弄57號","121.442276666667","25.0394916666667","6500500","新莊區"
"242059","986-R7","2019/08/26 07:29:40","新北市新莊區新泰路357巷3弄57號","121.442021666667","25.0390716666667","6500500","新莊區"
"242001","751-BX","2019/08/26 07:29:32","新北市新莊區三和路12-21號","121.442073333333","25.0385616666667","6500500","新莊區"
"242026","613-BX","2019/08/26 07:29:42","新北市新莊區新泰路255巷83號","121.442128333333","25.03898","6500500","新莊區"
"242038","442-UM","2019/08/26 07:29:33","新北市新莊區新泰路255巷83號","121.442053333333","25.038945","6500500","新莊區"
"242010","413-TV","2019/08/26 07:29:30","新北市新莊區新泰路357巷3弄57號","121.442075","25.0394983333333","6500500","新莊區"
"242047","400-BY","2019/08/26 07:29:33","新北市新莊區新泰路357巷3弄57號","121.442255","25.0393766666667","6500500","新莊區"
"242024","362-BY","2019/08/26 07:29:40","新北市新莊區三和路18-25號","121.441783333333","25.0390916666667","6500500","新莊區"
"242020","175-VK","2019/08/26 07:29:39","新北市新莊區三和路12-21號","121.442073333333","25.0386383333333","6500500","新莊區"
"242018","346-TH","2019/08/26 07:29:36","新北市新莊區三和路12-21號","121.442185","25.0379716666667","6500500","新莊區"
"242016","351-TH","2019/08/26 07:29:44","新北市新莊區新泰路357巷3弄57號","121.442048333333","25.039585","6500500","新莊區"
"242008","280-VK","2019/08/26 07:29:46","新北市新莊區三和路12-21號","121.441746666667","25.0379883333333","6500500","新莊區"
