"lineid","car","time","location","longitude","latitude","cityid","cityname"
"249001","759-BX","2019/12/05 09:59:24","","121.44616","25.1445133333333","6502300","八里區"
"248010","682-TV","2019/12/05 09:59:16","","121.45868","25.0760266666667","6501500","五股區"
"244022","483-VK","2019/12/05 09:59:30","","121.371493333333","25.0798483333333","6501700","林口區"
"222006","289-BY","2019/12/05 09:59:20","","121.617685","24.9889616666667","6501800","深坑區"
"231069","189-VK","2019/12/05 09:59:25","","121.50444","24.9099116666667","6500600","新店區"
"231008","192-VK","2019/12/05 09:51:53","","121.52822","24.9051733333333","6500600","新店區"
"252004","249-BX","2019/12/05 09:59:23","","121.512825","25.2298183333333","6502100","三芝區"
"252007","AAC-283","2019/12/05 09:59:22","","121.504585","25.2762483333333","6502100","三芝區"
"237013","760-BX","2019/12/05 09:59:22","","121.348856666667","24.933095","6500900","三峽區"
"242059","986-R7","2019/12/05 09:59:29","","121.430956666667","25.0203383333333","6500500","新莊區"
"242026","613-BX","2019/12/05 09:59:26","","121.442223333333","25.0416133333333","6500500","新莊區"
"242043","415-TV","2019/12/05 09:59:24","","121.417001666667","25.021535","6500500","新莊區"
"244018","KED-0667","2019/12/05 09:59:30","","121.380841666667","25.0688883333333","6501700","林口區"
