"lineid","car","time","location","longitude","latitude","cityid","cityname"
"244022","483-VK","2019/12/05 10:13:30","","121.370315","25.0782716666667","6501700","林口區"
"222006","289-BY","2019/12/05 10:13:20","","121.615486666667","24.9753116666667","6501800","深坑區"
"231069","189-VK","2019/12/05 10:13:25","","121.515683333333","24.9243866666667","6500600","新店區"
"231008","192-VK","2019/12/05 10:13:33","","121.544336666667","24.9038433333333","6500600","新店區"
"252007","AAC-283","2019/12/05 10:13:22","","121.494163333333","25.2699533333333","6502100","三芝區"
"237013","760-BX","2019/12/05 10:08:10","","121.348821666667","24.9331083333333","6500900","三峽區"
"244018","KED-0667","2019/12/05 10:13:30","","121.37512","25.0774983333333","6501700","林口區"
