"lineid","car","time","location","longitude","latitude","cityid","cityname"
"244022","483-VK","2019/12/05 10:29:30","","121.370311666667","25.0822533333333","6501700","林口區"
"222006","289-BY","2019/12/05 10:29:20","","121.619875","24.99177","6501800","深坑區"
"231069","189-VK","2019/12/05 10:29:26","","121.529196666667","24.9295033333333","6500600","新店區"
"231008","192-VK","2019/12/05 10:16:33","","121.539351666667","24.89992","6500600","新店區"
"252007","AAC-283","2019/12/05 10:29:21","","121.501968333333","25.2674116666667","6502100","三芝區"
"237013","760-BX","2019/12/05 10:08:10","","121.348821666667","24.9331083333333","6500900","三峽區"
