"lineid","car","time","location","longitude","latitude","cityid","cityname"
"234007","KED-0605","2019/12/05 18:13:22","新北市永和區仁愛路306巷35弄2號","121.50204","25.008685","6500400","永和區"
"234026","9371-KE","2019/12/05 18:13:33","新北市永和區自強街8巷5弄1號","121.514835","25.0076916666667","6500400","永和區"
"249005","172-UM","2019/12/05 18:13:25","新北市八里區荖阡坑路15-40號","121.401703333333","25.139895","6502300","八里區"
"249001","173-UM","2019/12/05 18:13:23","新北市八里區龍米路一段406號","121.451141666667","25.1333016666667","6502300","八里區"
"249004","303-UY","2019/12/05 18:13:27","新北市八里區龍米路二段200巷3號","121.433708333333","25.1587766666667","6502300","八里區"
"249002","305-UY","2019/12/05 18:13:22","新北市八里區龍米路一段386巷2號","121.451858333333","25.1319566666667","6502300","八里區"
"249003","593-UM","2019/12/05 18:13:27","新北市八里區中山路三段380號","121.370006666667","25.136855","6502300","八里區"
"248014","025-BX","2019/12/05 18:13:31","新北市五股區成泰路一段191號","121.434871666667","25.0765383333333","6501500","五股區"
"248016","026-BX","2019/12/05 18:13:29","新北市五股區成泰路三段146號","121.444358333333","25.089995","6501500","五股區"
"248006","077-UY","2019/12/05 18:13:21","新北市五股區中興路一段152號","121.46454","25.0738216666667","6501500","五股區"
"248008","KED-0815","2019/12/05 18:13:19","新北市五股區更洲路32巷15弄9號","121.458393333333","25.0804216666667","6501500","五股區"
"248020","KED-0813","2019/12/05 18:13:18","新北市五股區成泰路三段544-1號","121.454153333333","25.10231","6501500","五股區"
"248010","272-BY","2019/12/05 18:13:23","新北市五股區成泰路一段219-19號","121.434615","25.07772","6501500","五股區"
"248004","677-BX","2019/12/05 18:13:25","新北市五股區中興路四段57號","121.43804","25.0829266666667","6501500","五股區"
"248002","678-BX","2019/12/05 18:13:30","新北市五股區成泰路三段74號","121.444318333333","25.0897766666667","6501500","五股區"
"232011","375-UM","2019/12/05 18:13:33","新北市坪林區坪雙路一段21號","121.712705","24.9415516666667","6502000","坪林區"
"244007","080-UY","2019/12/05 18:13:18","新北市林口區湖子17-2號","121.384738333333","25.0907333333333","6501700","林口區"
"244013","KEA-2802","2019/12/05 18:13:32","新北市林口區佳林路101巷15號","121.386986666667","25.0800433333333","6501700","林口區"
"244023","483-VK","2019/12/05 18:13:18","新北市林口區東湖路153巷135號","121.382211666667","25.0735366666667","6501700","林口區"
"244017","485-VK","2019/12/05 18:13:26","新北市林口區公園路42號","121.367443333333","25.0683466666667","6501700","林口區"
"244009","656-BX","2019/12/05 18:13:34","新北市林口區文化三路二段291-11號","121.378096666667","25.0865783333333","6501700","林口區"
"244011","701-TV","2019/12/05 18:13:17","新北市林口區新寮1-65號","121.392776666667","25.0764933333333","6501700","林口區"
"244025","837-TS","2019/12/05 18:13:17","新北市林口區文化北路一段290號","121.360618333333","25.0724916666667","6501700","林口區"
"244021","838-TS","2019/12/05 18:13:14","新北市林口區自強五街25號","121.400468333333","25.0756566666667","6501700","林口區"
"208001","267-VK","2019/12/05 18:13:31","新北市金山區磺港里磺港路73號","121.647531666667","25.227075","6502700","金山區"
"222003","436-BY","2019/12/05 18:13:35","新北市深坑區文山路二段31號","121.616611666667","24.9988283333333","6501800","深坑區"
"222002","659-BX","2019/12/05 18:13:22","新北市深坑區文化街13號","121.620301666667","25.0013216666667","6501800","深坑區"
"231058","0293-UT","2019/12/05 18:13:32","新北市新店區安華路1-1號","121.519628333333","24.96049","6500600","新店區"
"231050","KEA-2219","2019/12/05 18:13:31","新北市新店區安一路一段1-1號","121.519825","24.9612083333333","6500600","新店區"
"221031","KEA-2785","2019/12/05 18:13:35","新北市汐止區中興路181巷24弄14號","121.629243333333","25.0666866666667","6501100","汐止區"
"231054","260-TV","2019/12/05 18:13:34","新北市新店區安一路一段1-1號","121.519226666667","24.9612116666667","6500600","新店區"
"231042","268-BY","2019/12/05 18:13:35","新北市新店區安一路一段1-1號","121.519686666667","24.961265","6500600","新店區"
"231064","278-BY","2019/12/05 18:13:29","新北市新店區安華路28-1號","121.519771666667","24.96105","6500600","新店區"
"231045","355-BY","2019/12/05 18:13:22","新北市新店區安一路一段1-1號","121.519131666667","24.9609883333333","6500600","新店區"
"231055","4716-K9","2019/12/05 18:13:24","新北市新店區安華路28-1號","121.519558333333","24.9606633333333","6500600","新店區"
"231056","4715-K9","2019/12/05 18:13:25","新北市新店區秀山路70號","121.5311","24.9609433333333","6500600","新店區"
"231052","513-UM","2019/12/05 18:13:31","新北市新店區安一路一段1-1號","121.519715","24.9611766666667","6500600","新店區"
"231063","641-BX","2019/12/05 18:13:35","新北市新店區安華路28-1號","121.519496666667","24.960615","6500600","新店區"
"231047","KED-0819","2019/12/05 18:13:32","新北市新店區安一路一段1-1號","121.519676666667","24.96115","6500600","新店區"
"231046","719-UM","2019/12/05 18:13:27","新北市新店區直潭七街60號","121.532263333333","24.93983","6500600","新店區"
"231057","720-UM","2019/12/05 18:13:34","新北市新店區安一路一段1-1號","121.519173333333","24.96122","6500600","新店區"
"231043","899-TW","2019/12/05 18:13:19","新北市新店區安華路28-1號","121.519301666667","24.9607766666667","6500600","新店區"
"231066","AKT-0513","2019/12/05 18:13:36","新北市新店區安華路1-1號","121.51944","24.9604716666667","6500600","新店區"
"241033","AAC-255","2019/12/05 18:13:20","新北市新莊區化成路352巷35號","121.467255","25.0492466666667","6500200","三重區"
"235064","005-UY","2019/12/05 18:13:33","新北市中和區中正路166-1號","121.498295","24.9938483333333","6500300","中和區"
"235063","006-UY","2019/12/05 18:13:25","新北市中和區中正路589巷1號","121.48584","24.9942916666667","6500300","中和區"
"235056","096-UM","2019/12/05 18:13:36","新北市中和區新生街249號","121.483846666667","24.998685","6500300","中和區"
"235039","097-UM","2019/12/05 18:13:22","新北市中和區錦和路350-1號","121.49084","24.9935983333333","6500300","中和區"
"235065","098-UM","2019/12/05 18:13:30","新北市中和區中山路二段2巷45弄1號","121.502365","25.0069066666667","6500300","中和區"
"235058","151-BY","2019/12/05 18:13:15","新北市中和區圓通路320號","121.487278333333","24.9882766666667","6500300","中和區"
"235055","183-VK","2019/12/05 18:13:31","新北市中和區員山路266巷35號","121.482756666667","25.001875","6500300","中和區"
"235038","185-VK","2019/12/05 18:13:26","新北市中和區大智街57號","121.521203333333","24.9920733333333","6500300","中和區"
"235072","301-VK","2019/12/05 18:13:17","新北市中和區錦和路103號","121.490091666667","24.9953183333333","6500300","中和區"
"235043","352-BY","2019/12/05 18:13:15","新北市中和區景平路381號","121.50376","24.99337","6500300","中和區"
"235042","KEA-2878","2019/12/05 18:13:29","新北市中和區景平路155巷2弄2號","121.513236666667","24.992335","6500300","中和區"
"235050","4979-A6","2019/12/05 18:13:24","新北市中和區中正路19號","121.502836666667","24.9935","6500300","中和區"
"235069","4980-A6","2019/12/05 18:13:20","新北市中和區建八路1號","121.485521666667","24.9986566666667","6500300","中和區"
"235070","558-UM","2019/12/05 18:13:23","新北市中和區圓通路176-1號","121.497115","24.9944866666667","6500300","中和區"
"235045","565-BX","2019/12/05 18:13:18","新北市中和區景安路200巷1弄1號","121.503886666667","24.9913916666667","6500300","中和區"
"235060","KED-0823","2019/12/05 18:13:34","新北市中和區員山路145號","121.481081666667","24.996225","6500300","中和區"
"235054","640-BX","2019/12/05 18:13:21","新北市中和區民享街93號","121.474686666667","25.0005783333333","6500300","中和區"
"235047","732-UM","2019/12/05 18:13:31","新北市中和區南山路479號","121.507858333333","24.9883233333333","6500300","中和區"
"235062","800-TS","2019/12/05 18:13:32","新北市中和區景平路989巷2號","121.495836666667","25.0056083333333","6500300","中和區"
"235057","801-TS","2019/12/05 18:13:33","新北市中和區民享街97巷19號","121.47539","24.9995866666667","6500300","中和區"
"235041","802-TS","2019/12/05 18:13:32","新北市中和區中正路637巷52弄1號","121.485638333333","24.9937016666667","6500300","中和區"
"235052","805-TS","2019/12/05 18:13:19","新北市中和區中正路19號","121.502931666667","24.9935133333333","6500300","中和區"
"235048","896-TW","2019/12/05 18:13:21","新北市中和區員山路36巷16-2號","121.485283333333","24.9916766666667","6500300","中和區"
"235051","157-BY","2019/12/05 18:13:05","新北市中和區信義街59號","121.511463333333","24.9884266666667","6500300","中和區"
"235037","AAC-213","2019/12/05 18:13:21","新北市中和區景平路151巷37號","121.514575","24.990755","6500300","中和區"
"235059","AAC-215","2019/12/05 18:13:25","新北市中和區員山路36巷16-3號","121.484968333333","24.9912966666667","6500300","中和區"
"226004","312-R5","2019/12/05 18:13:31","新北市平溪區薯榔里薯榔寮28號","121.713701666667","25.0195533333333","6502400","平溪區"
"228003","097-TW","2019/12/05 18:13:35","新北市貢寮區真理里美艷山街22-2號","121.927046666667","25.0648083333333","6502600","貢寮區"
"228001","212-TW","2019/12/05 18:13:32","新北市貢寮區真理里新港街26巷55弄2-1號","121.927408333333","25.052885","6502600","貢寮區"
"228002","663-BX","2019/12/05 18:13:27","新北市貢寮區福連里馬崗街25-2號","122.003688333333","25.0134966666667","6502600","貢寮區"
"224006","676-BX","2019/12/05 18:13:28","新北市瑞芳區三爪子坑路216號","121.805946666667","25.1054983333333","6501200","瑞芳區"
"224007","285-BY","2019/12/05 18:13:35","新北市瑞芳區頂埔巷51-3號","121.767881666667","25.1056033333333","6501200","瑞芳區"
"224009","275-VK","2019/12/05 18:13:20","新北市瑞芳區新山路43號","121.855926666667","25.10832","6501200","瑞芳區"
"224008","273-VK","2019/12/05 18:13:26","新北市瑞芳區三爪子坑路3號","121.814401666667","25.1079116666667","6501200","瑞芳區"
"224005","271-BY","2019/12/05 18:13:24","新北市瑞芳區建基路二段109號","121.805516666667","25.1340116666667","6501200","瑞芳區"
"227002","642-TC","2019/12/05 18:13:27","新北市雙溪區雙溪里太平路1號","121.863805","25.0350483333333","6502500","雙溪區"
"227001","400-TW","2019/12/05 18:13:23","新北市雙溪區三貂里政光路3號","121.851771666667","25.0628366666667","6502500","雙溪區"
"253005","032-BX","2019/12/05 18:13:28","新北市石門區中央路37-2號","121.568533333333","25.2946983333333","6502200","石門區"
"253006","295-VK","2019/12/05 18:13:34","新北市石門區老梅路52巷21號","121.546423333333","25.2885566666667","6502200","石門區"
"222001","KEA-2212","2019/12/05 18:13:36","新北市深坑區北深路二段104號","121.616943333333","25.0032783333333","6501800","深坑區"
"208002","KEA-2872","2019/12/05 18:13:27","新北市金山區半嶺1號","121.619101666667","25.2334366666667","6502700","金山區"
"208003","665-BX","2019/12/05 18:13:25","新北市金山區民生路20號","121.649175","25.2242633333333","6502700","金山區"
"251004","009-UM","2019/12/05 18:13:26","新北市淡水區民族路110巷19號","121.461783333333","25.135285","6501000","淡水區"
"251005","010-UM","2019/12/05 18:13:31","新北市淡水區水源街一段120號","121.447278333333","25.17175","6501000","淡水區"
"251002","012-UM","2019/12/05 18:13:27","新北市淡水區中正東路一段68號","121.452833333333","25.1617816666667","6501000","淡水區"
"251015","KEA-2871","2019/12/05 18:13:25","新北市淡水區興福寮88巷1號","121.485341666667","25.1647383333333","6501000","淡水區"
"251016","180-VK","2019/12/05 18:13:21","新北市淡水區淡金路三段70巷1號","121.448256666667","25.2001683333333","6501000","淡水區"
"251008","181-VK","2019/12/05 18:13:20","新北市淡水區中正東路二段7號","121.458025","25.1587","6501000","淡水區"
"251013","182-VK","2019/12/05 18:13:21","新北市淡水區破瓦厝子1-12號","121.475895","25.19876","6501000","淡水區"
"251010","413-VK","2019/12/05 18:13:20","新北市淡水區中正路二段52號","121.4198","25.1832933333333","6501000","淡水區"
"251012","441-VK","2019/12/05 18:13:31","新北市淡水區北新路三段165號","121.4895","25.1905683333333","6501000","淡水區"
"251001","559-UM","2019/12/05 18:13:27","新北市淡水區自立路8號","121.462746666667","25.1296366666667","6501000","淡水區"
"251006","561-UM","2019/12/05 18:13:21","新北市淡水區真理街3巷24-1號","121.437821666667","25.176495","6501000","淡水區"
"251011","650-BX","2019/12/05 18:13:30","新北市淡水區小坪頂22號","121.48477","25.15694","6501000","淡水區"
"251003","673-BX","2019/12/05 18:13:17","新北市淡水區北新路182巷58號","121.44837","25.1774366666667","6501000","淡水區"
"207003","681-TV","2019/12/05 18:13:18","新北市萬里區野柳里港東路74-4號","121.688913333333","25.2050783333333","6502800","萬里區"
"207004","291-VK","2019/12/05 18:13:29","新北市萬里區中幅里中福路162號","121.673321666667","25.1661316666667","6502800","萬里區"
"252003","249-BX","2019/12/05 18:13:17","新北市三芝區埔頭里埔頭23號","121.490545","25.26076","6502100","三芝區"
"252001","292-VK","2019/12/05 18:13:34","新北市三芝區中興街二段2號","121.498405","25.2566166666667","6502100","三芝區"
"237007","153-BY","2019/12/05 18:13:13","新北市三峽區中正路二段377號","121.365206666667","24.9083816666667","6500900","三峽區"
"237009","210-TH","2019/12/05 18:13:23","新北市三峽區大仁路53號","121.365368333333","24.9374616666667","6500900","三峽區"
"237013","252-BX","2019/12/05 18:13:34","新北市三峽區長泰街20號","121.378815","24.9316683333333","6500900","三峽區"
"237012","275-BY","2019/12/05 18:13:15","新北市三峽區民生街1巷5-79號","121.378103333333","24.9346833333333","6500900","三峽區"
"237008","302-VK","2019/12/05 18:13:19","新北市三峽區白雞64-10號","121.383475","24.9123066666667","6500900","三峽區"
"237014","433-BY","2019/12/05 18:13:22","新北市三峽區國光街73號","121.374085","24.9382466666667","6500900","三峽區"
"237006","5529-G3","2019/12/05 18:13:30","新北市三峽區溪東路178巷13弄12號","121.406246666667","24.932155","6500900","三峽區"
"237011","KEA-2596","2019/12/05 18:13:18","新北市三峽區介壽路一段286號","121.379803333333","24.9302133333333","6500900","三峽區"
"237015","649-BX","2019/12/05 18:13:17","新北市三峽區紫新路21號","121.42319","24.9208566666667","6500900","三峽區"
"237010","706-TV","2019/12/05 18:13:30","新北市三峽區民族街79號","121.369521666667","24.92935","6500900","三峽區"
"237005","AKY-6261","2019/12/05 18:13:27","新北市三峽區忠孝街17號","121.370876666667","24.9342816666667","6500900","三峽區"
"236042","KED-0685","2019/12/05 18:13:31","新北市土城區裕生路94號","121.447228333333","24.9848733333333","6501300","土城區"
"236078","166-UM","2019/12/05 18:13:32","新北市土城區永安街117號","121.429535","24.9641983333333","6501300","土城區"
"236030","253-BX","2019/12/05 18:13:20","新北市土城區員福街38號","121.440938333333","24.9788633333333","6501300","土城區"
"236026","269-VK","2019/12/05 18:13:20","新北市土城區承天路26號","121.439543333333","24.963255","6501300","土城區"
"236038","271-VK","2019/12/05 18:13:26","新北市土城區青雲路453號","121.458941666667","24.9746216666667","6501300","土城區"
"236070","KEA-2877","2019/12/05 18:13:31","新北市土城區明德路一段323號","121.458998333333","24.977065","6501300","土城區"
"252002","KED-0821","2019/12/05 18:13:35","新北市三芝區中山路二段40號","121.503003333333","25.2550966666667","6502100","三芝區"
"236021","401-BY","2019/12/05 18:13:28","新北市土城區金城路二段56號","121.451968333333","24.9793883333333","6501300","土城區"
"236014","752-BX","2019/12/05 18:13:17","新北市土城區學府路一段76號","121.456565","24.98816","6501300","土城區"
"236059","912-UM","2019/12/05 18:13:25","新北市土城區中央路四段161號","121.41513","24.956855","6501300","土城區"
"236049","913-UM","2019/12/05 18:13:29","新北市土城區明德路一段365-1號","121.453566666667","24.979045","6501300","土城區"
"236063","915-UM","2019/12/05 18:13:14","新北市土城區金城路二段260號","121.457803333333","24.9837333333333","6501300","土城區"
"236055","AAC-216","2019/12/05 18:13:26","新北市土城區中華路二段92號","121.438275","24.974735","6501300","土城區"
"242061","986-R7","2019/12/05 18:13:20","新北市新莊區新樹路399號","121.432856666667","25.0161633333333","6500500","新莊區"
"242004","751-BX","2019/12/05 18:13:14","新北市新莊區自由街46號","121.455888333333","25.0459916666667","6500500","新莊區"
"242029","615-BX","2019/12/05 18:13:36","新北市新莊區幸福路874號","121.443111666667","25.049","6500500","新莊區"
"242027","613-BX","2019/12/05 18:13:14","新北市新莊區幸福路73號","121.456935","25.0493566666667","6500500","新莊區"
"242058","612-BX","2019/12/05 18:13:33","新北市新莊區雙鳳路134巷6號","121.41285","25.0281733333333","6500500","新莊區"
"242048","566-BX","2019/12/05 18:13:28","新北市新莊區富國路124號","121.422321666667","25.0251683333333","6500500","新莊區"
"242042","442-UM","2019/12/05 18:13:33","新北市新莊區中正路692-8號","121.419901666667","25.0286066666667","6500500","新莊區"
"242044","415-TV","2019/12/05 18:13:32","新北市新莊區雙鳳路86號","121.414831666667","25.0277633333333","6500500","新莊區"
"242013","413-TV","2019/12/05 18:13:36","新北市新莊區瓊林路108號","121.442221666667","25.0263233333333","6500500","新莊區"
"242025","362-BY","2019/12/05 18:13:24","新北市新莊區五工路70-1號","121.457746666667","25.0636166666667","6500500","新莊區"
"242015","132-UY","2019/12/05 18:13:31","新北市新莊區中和街59巷10弄9號","121.446786666667","25.0472633333333","6500500","新莊區"
"242039","135-UY","2019/12/05 18:13:24","新北市新莊區民安東路176號","121.433008333333","25.0204416666667","6500500","新莊區"
"242056","172-VK","2019/12/05 18:13:21","新北市新莊區豐年街豐2巷42號","121.447743333333","25.0307683333333","6500500","新莊區"
"242031","175-VK","2019/12/05 18:13:27","新北市新莊區新泰路275號","121.445713333333","25.0403983333333","6500500","新莊區"
"242053","176-VK","2019/12/05 18:13:29","新北市新莊區西盛街429巷25號","121.428078333333","25.011585","6500500","新莊區"
"242021","KED-0687","2019/12/05 18:13:20","新北市新莊區新興街106號","121.450626666667","25.0390066666667","6500500","新莊區"
"242007","346-TH","2019/12/05 18:13:31","新北市新莊區自立街75號","121.454128333333","25.045405","6500500","新莊區"
"242002","347-TH","2019/12/05 18:13:34","新北市新莊區新莊路60號","121.457766666667","25.03678","6500500","新莊區"
"242036","348-TH","2019/12/05 18:13:26","新北市新莊區後港一路49巷1弄1號","121.425905","25.0265416666667","6500500","新莊區"
"242009","349-TH","2019/12/05 18:13:20","新北市新莊區昌平街71巷13號","121.453691666667","25.05341","6500500","新莊區"
"242019","351-TH","2019/12/05 18:13:20","新北市新莊區中港路126號","121.455373333333","25.04048","6500500","新莊區"
"238015","755-BX","2019/12/05 18:13:33","新北市樹林區文化街112巷2號","121.416975","24.9901066666667","6500700","樹林區"
"238023","601-UM","2019/12/05 18:13:31","新北市樹林區忠義街25號","121.409611666667","25.01494","6500700","樹林區"
"238019","599-UM","2019/12/05 18:13:33","新北市樹林區忠孝街101巷1號","121.424661666667","24.981015","6500700","樹林區"
"238018","KEA-2217","2019/12/05 18:13:29","新北市樹林區博愛一街10號","121.42526","24.9910616666667","6500700","樹林區"
"238025","303-VK","2019/12/05 18:13:25","新北市樹林區保安街一段328號","121.418246666667","24.99772","6500700","樹林區"
"238017","283-BY","2019/12/05 18:13:24","新北市樹林區中正路644號","121.409906666667","25.0163033333333","6500700","樹林區"
"238014","282-BY","2019/12/05 18:13:33","新北市樹林區潭興街93號","121.42482","24.9985766666667","6500700","樹林區"
"238020","268-VK","2019/12/05 18:13:30","新北市樹林區三龍街94巷31號","121.414541666667","25.0171216666667","6500700","樹林區"
"238026","172-UY","2019/12/05 18:13:32","新北市樹林區佳園路一段80巷3-1號","121.392745","24.969505","6500700","樹林區"
"238016","169-UY","2019/12/05 18:13:33","新北市樹林區啟智街187巷23號","121.415776666667","24.9871466666667","6500700","樹林區"
"239007","AAC-297","2019/12/05 18:13:15","新北市鶯歌區尖山埔路165巷3弄1號","121.346303333333","24.9503633333333","6500800","鶯歌區"
"239006","891-R6","2019/12/05 18:13:18","新北市鶯歌區鶯桃路455巷10弄12號","121.331145","24.9641566666667","6500800","鶯歌區"
"239008","527-UM","2019/12/05 18:13:27","新北市鶯歌區朝陽街61巷1號","121.33824","24.9784283333333","6500800","鶯歌區"
"239005","526-UM","2019/12/05 18:13:22","新北市鶯歌區鶯桃路668巷74-1號","121.330021666667","24.9718516666667","6500800","鶯歌區"
"239001","417-VK","2019/12/05 18:13:25","新北市鶯歌區中正三路322號","121.32813","24.935335","6500800","鶯歌區"
"239003","360-BY","2019/12/05 18:13:22","新北市鶯歌區永吉街9巷1號","121.336513333333","24.9583316666667","6500800","鶯歌區"
"239002","359-BY","2019/12/05 18:13:29","新北市鶯歌區中山路249巷12號","121.34703","24.9565566666667","6500800","鶯歌區"
"221008","489-VK","2019/12/05 18:13:30","新北市汐止區康寧街315號","121.627038333333","25.0679483333333","6501100","汐止區"
"221036","130-UY","2019/12/05 18:13:22","新北市汐止區大同路三段116號","121.67207","25.0767616666667","6501100","汐止區"
"221015","131-UY","2019/12/05 18:13:20","新北市汐止區長江街327號","121.666651666667","25.0817033333333","6501100","汐止區"
"244019","KED-0667","2019/12/05 18:13:22","新北市林口區忠孝路584號","121.375436666667","25.0681833333333","6501700","林口區"
"221010","269-BY","2019/12/05 18:13:20","新北市汐止區汐萬路二段275巷1弄2號","121.645566666667","25.0888566666667","6501100","汐止區"
"221018","277-VK","2019/12/05 18:13:27","新北市汐止區忠孝東路384號","121.665563333333","25.07013","6501100","汐止區"
"221012","278-VK","2019/12/05 18:13:16","新北市汐止區保一街35巷4號","121.67483","25.0803566666667","6501100","汐止區"
"221023","279-VK","2019/12/05 18:13:25","新北市汐止區中興路293號","121.627991666667","25.0700516666667","6501100","汐止區"
"221032","280-BY","2019/12/05 18:13:30","新北市汐止區橫科路73巷2-2號","121.619385","25.0506633333333","6501100","汐止區"
"221027","281-BY","2019/12/05 18:13:31","新北市汐止區和平街6巷1弄2號","121.663423333333","25.071205","6501100","汐止區"
"221029","298-VK","2019/12/05 18:13:15","新北市汐止區樟樹二路322號","121.641441666667","25.0700283333333","6501100","汐止區"
"221021","299-VK","2019/12/05 18:13:24","新北市汐止區龍安路16號","121.65587","25.0642483333333","6501100","汐止區"
"221035","622-UM","2019/12/05 18:13:30","新北市汐止區汐萬路一段115巷50號","121.652873333333","25.070035","6501100","汐止區"
"221025","623-UM","2019/12/05 18:13:23","新北市汐止區勤進路8號","121.659835","25.0616816666667","6501100","汐止區"
"221038","646-BX","2019/12/05 18:13:26","新北市汐止區環山路3-2號","121.658143333333","25.06022","6501100","汐止區"
"221033","647-BX","2019/12/05 18:13:17","新北市汐止區宜興街40巷22弄2號","121.62253","25.0411733333333","6501100","汐止區"
"221002","707-TV","2019/12/05 18:13:20","新北市汐止區福德一路201巷10號","121.63558","25.065375","6501100","汐止區"
"233001","KEA-2870","2019/12/05 18:13:32","新北市烏來區新烏路五段69號","121.547178333333","24.8745883333333","6502900","烏來區"
"220080","200-UY","2019/12/05 18:13:15","新北市板橋區華東街1-9號","121.44812","24.9948966666667","6500100","板橋區"
"220082","610-BX","2019/12/05 18:13:30","新北市板橋區溪城路90-2號","121.428936666667","24.9797233333333","6500100","板橋區"
"224002","257-TC","2019/12/05 18:13:25","新北市瑞芳區三爪子坑路149巷22-14號","121.811618333333","25.1059316666667","6501200","瑞芳區"
"242046","281-VK","2019/12/05 18:13:30","新北市新莊區福營路357號","121.42424","25.0280366666667","6500500","新莊區"
"242011","280-VK","2019/12/05 18:13:17","新北市新莊區中信街97號","121.447766666667","25.0534583333333","6500500","新莊區"
"235061","KEA-2875","2019/12/05 18:13:12","新北市中和區國光街116號","121.46979","25.0008483333333","6500300","中和區"
