"lineid","car","time","location","longitude","latitude","cityid","cityname"
"234046","148-BY","2019/12/05 18:29:17","新北市永和區福和路1號","121.52571","25.0094733333333","6500400","永和區"
"234081","298-R6","2019/12/05 18:29:18","新北市永和區福和路1號","121.526495","25.0098966666667","6500400","永和區"
"234086","338-UY","2019/12/05 18:29:32","新北市永和區環河東路二段92號","121.52441","25.0106283333333","6500400","永和區"
"234007","KED-0605","2019/12/05 18:29:22","新北市永和區環河西路二段9-1號","121.508531666667","25.016515","6500400","永和區"
"234013","KEA-2591","2019/12/05 18:29:29","新北市永和區福和路1號","121.525663333333","25.0094633333333","6500400","永和區"
"234026","9371-KE","2019/12/05 18:29:33","新北市永和區永貞路417巷31號","121.505785","25.0090083333333","6500400","永和區"
"234011","9373-KE","2019/12/05 18:29:37","新北市永和區保福路二段158巷1號","121.509115","25.0150583333333","6500400","永和區"
"249005","172-UM","2019/12/05 18:29:25","新北市八里區長坑口47-1號","121.389211666667","25.1339566666667","6502300","八里區"
"249001","173-UM","2019/12/05 18:29:23","新北市八里區龍米路一段103號","121.453013333333","25.125215","6502300","八里區"
"249004","303-UY","2019/12/05 18:29:27","新北市八里區忠孝路81號","121.425248333333","25.1604716666667","6502300","八里區"
"249002","305-UY","2019/12/05 18:29:22","新北市八里區龍形二街48號","121.450431666667","25.1329533333333","6502300","八里區"
"249003","593-UM","2019/12/05 18:29:27","新北市八里區博物館路157號","121.40716","25.157915","6502300","八里區"
"248014","025-BX","2019/12/05 18:29:31","新北市五股區自強路95號","121.432335","25.071365","6501500","五股區"
"248016","026-BX","2019/12/05 18:29:29","新北市五股區凌雲路一段83巷10弄7號","121.450326666667","25.1011233333333","6501500","五股區"
"248008","KED-0815","2019/12/05 18:29:19","新北市五股區更洲路32巷8弄14號","121.459253333333","25.07962","6501500","五股區"
"248020","KED-0813","2019/12/05 18:29:18","新北市五股區孝義路64號","121.45395","25.1121883333333","6501500","五股區"
"248012","247-BX","2019/12/05 18:29:30","新北市五股區御成路108號","121.44161","25.0934833333333","6501500","五股區"
"248010","272-BY","2019/12/05 18:29:22","新北市五股區成泰路一段110-7號","121.435575","25.0724016666667","6501500","五股區"
"248004","677-BX","2019/12/05 18:29:25","新北市五股區民義路一段198號","121.432565","25.08811","6501500","五股區"
"248002","678-BX","2019/12/05 18:29:29","新北市五股區西雲路116-6號","121.444723333333","25.0935716666667","6501500","五股區"
"234077","969-R7","2019/12/05 18:29:32","新北市永和區福和路1號","121.526281666667","25.0096683333333","6500400","永和區"
"234003","AAC-295","2019/12/05 18:29:19","新北市永和區福和路1號","121.52657","25.0098066666667","6500400","永和區"
"232011","375-UM","2019/12/05 18:29:33","新北市坪林區坪雙路一段41號","121.711733333333","24.9424516666667","6502000","坪林區"
"244007","080-UY","2019/12/05 18:29:18","新北市林口區後湖56號","121.38434","25.1012616666667","6501700","林口區"
"244013","KEA-2802","2019/12/05 18:29:32","新北市林口區中正路494號","121.382373333333","25.0773583333333","6501700","林口區"
"244023","483-VK","2019/12/05 18:29:18","新北市林口區仁愛路二段90號","121.383976666667","25.075215","6501700","林口區"
"244017","485-VK","2019/12/05 18:29:26","新北市林口區文化二路一段98號","121.366786666667","25.070055","6501700","林口區"
"244009","656-BX","2019/12/05 18:29:14","新北市林口區竹林路330巷10號","121.39177","25.083075","6501700","林口區"
"244011","701-TV","2019/12/05 18:29:17","新北市林口區興林路15號","121.390008333333","25.077015","6501700","林口區"
"244025","837-TS","2019/12/05 18:29:17","新北市林口區南勢四街82巷8號","121.355135","25.07075","6501700","林口區"
"244021","838-TS","2019/12/05 18:29:34","新北市林口區自強四街11號","121.399193333333","25.0766266666667","6501700","林口區"
"208001","267-VK","2019/12/05 18:29:30","新北市金山區文化二路4號","121.636875","25.2245833333333","6502700","金山區"
"222003","436-BY","2019/12/05 18:29:15","新北市深坑區文山路一段28-1號","121.630786666667","25.0053833333333","6501800","深坑區"
"222002","659-BX","2019/12/05 18:29:22","新北市深坑區雲鄉路107號","121.623263333333","24.998325","6501800","深坑區"
"231061","002-UM","2019/12/05 18:29:29","新北市新店區安華路28-1號","121.519633333333","24.9607866666667","6500600","新店區"
"231058","0293-UT","2019/12/05 18:29:32","新北市新店區環河路1-6號","121.53821","24.9612916666667","6500600","新店區"
"231044","046-UY","2019/12/05 18:29:22","新北市新店區安華路28-1號","121.519271666667","24.9607066666667","6500600","新店區"
"231060","106-UY","2019/12/05 18:29:17","新北市新店區安華路28-1號","121.51956","24.9607466666667","6500600","新店區"
"231051","107-UY","2019/12/05 18:29:20","新北市新店區安一路一段1-1號","121.519531666667","24.961105","6500600","新店區"
"231065","110-UY","2019/12/05 18:29:17","新北市新店區安一路一段1-1號","121.519361666667","24.96112","6500600","新店區"
"231050","KEA-2219","2019/12/05 18:29:31","新北市新店區安一路一段1-1號","121.519943333333","24.961185","6500600","新店區"
"221031","KEA-2785","2019/12/05 18:29:15","新北市汐止區中興路142號","121.632806666667","25.064385","6501100","汐止區"
"231054","260-TV","2019/12/05 18:29:14","新北市新店區安一路一段1-1號","121.519175","24.961245","6500600","新店區"
"231042","268-BY","2019/12/05 18:29:16","新北市新店區安一路一段1-1號","121.519695","24.9612916666667","6500600","新店區"
"231064","278-BY","2019/12/05 18:29:29","新北市新店區安一路一段1-1號","121.51971","24.9610816666667","6500600","新店區"
"231045","355-BY","2019/12/05 18:29:22","新北市新店區安華路28-1號","121.519023333333","24.9609466666667","6500600","新店區"
"231055","4716-K9","2019/12/05 18:29:24","新北市新店區中正路128巷6號","121.542395","24.9716216666667","6500600","新店區"
"231056","4715-K9","2019/12/05 18:29:25","新北市新店區二十張路105巷22號","121.536886666667","24.978955","6500600","新店區"
"231052","513-UM","2019/12/05 18:29:32","新北市新店區新烏路一段24號","121.546386666667","24.9510466666667","6500600","新店區"
"231041","619-UM","2019/12/05 18:29:26","新北市新店區安華路28-1號","121.51937","24.96075","6500600","新店區"
"231063","641-BX","2019/12/05 18:29:15","新北市新店區安華路1-1號","121.519528333333","24.9604366666667","6500600","新店區"
"231047","KED-0819","2019/12/05 18:29:32","新北市新店區安一路一段1-1號","121.51969","24.9611916666667","6500600","新店區"
"231046","719-UM","2019/12/05 18:29:27","新北市新店區直潭七街60號","121.532276666667","24.9398283333333","6500600","新店區"
"231057","720-UM","2019/12/05 18:29:34","新北市新店區安一路一段1-1號","121.51925","24.9611816666667","6500600","新店區"
"231059","897-TW","2019/12/05 18:29:31","新北市新店區安華路28-1號","121.519661666667","24.9606033333333","6500600","新店區"
"231043","899-TW","2019/12/05 18:29:19","新北市新店區安一路一段1-1號","121.51899","24.9609683333333","6500600","新店區"
"231066","AKT-0513","2019/12/05 18:29:16","新北市新店區安華路1-1號","121.51936","24.9605166666667","6500600","新店區"
"235066","003-UY","2019/12/05 18:29:17","新北市中和區中山路二段120號","121.502693333333","25.0037133333333","6500300","中和區"
"235064","005-UY","2019/12/05 18:29:33","新北市中和區連城路137號","121.495871666667","24.9987283333333","6500300","中和區"
"235063","006-UY","2019/12/05 18:29:25","新北市中和區中正路700號","121.486108333333","24.9963366666667","6500300","中和區"
"235056","096-UM","2019/12/05 18:29:16","新北市中和區員山路611巷5弄3號","121.478006666667","25.0111883333333","6500300","中和區"
"235039","097-UM","2019/12/05 18:29:22","新北市中和區安平路160號","121.512653333333","24.998555","6500300","中和區"
"235065","098-UM","2019/12/05 18:29:30","新北市中和區莊敬路49巷20弄22號","121.50276","25.0058716666667","6500300","中和區"
"235040","150-BY","2019/12/05 18:29:16","新北市中和區保健路50巷68號","121.509206666667","24.9951433333333","6500300","中和區"
"235058","151-BY","2019/12/05 18:29:15","新北市中和區圓通路369巷30弄100號","121.487996666667","24.9845883333333","6500300","中和區"
"235055","183-VK","2019/12/05 18:29:31","新北市中和區中山路三段229巷59號","121.468948333333","25.005265","6500300","中和區"
"235038","185-VK","2019/12/05 18:29:26","新北市中和區立人街51號","121.5205","24.9942433333333","6500300","中和區"
"235067","255-BX","2019/12/05 18:29:31","新北市中和區新生街44號","121.483213333333","25.003325","6500300","中和區"
"235044","293-VK","2019/12/05 18:29:25","新北市中和區復興路305號","121.501351666667","24.9902533333333","6500300","中和區"
"235072","301-VK","2019/12/05 18:29:17","新北市中和區連城路125號","121.496103333333","24.99914","6500300","中和區"
"235043","352-BY","2019/12/05 18:29:35","新北市中和區景平路253號","121.508813333333","24.9928916666667","6500300","中和區"
"235042","KEA-2878","2019/12/05 18:29:29","新北市中和區自立路56巷5號","121.52325","24.99177","6500300","中和區"
"235050","4979-A6","2019/12/05 18:29:24","新北市中和區景新街362巷3號","121.512018333333","24.9901366666667","6500300","中和區"
"235069","4980-A6","2019/12/05 18:29:31","新北市中和區連城路127巷1號","121.496278333333","24.999035","6500300","中和區"
"235070","558-UM","2019/12/05 18:29:23","新北市中和區景新街129號","121.505846666667","24.9973166666667","6500300","中和區"
"235045","565-BX","2019/12/05 18:29:18","新北市中和區復興路47號","121.504748333333","24.9899416666667","6500300","中和區"
"235060","KED-0823","2019/12/05 18:29:33","新北市中和區中山路二段579號","121.480411666667","25.0057483333333","6500300","中和區"
"235054","640-BX","2019/12/05 18:29:21","新北市中和區莒光路95號","121.47232","25.0030666666667","6500300","中和區"
"235047","732-UM","2019/12/05 18:29:31","新北市中和區南山路479號","121.508045","24.9882783333333","6500300","中和區"
"235062","800-TS","2019/12/05 18:29:26","新北市中和區中山路二段312巷6號","121.495653333333","25.0027466666667","6500300","中和區"
"235057","801-TS","2019/12/05 18:29:33","新北市中和區員山路327巷20號","121.480811666667","25.0013983333333","6500300","中和區"
"235041","802-TS","2019/12/05 18:29:32","新北市中和區景安路45號","121.507413333333","24.9984566666667","6500300","中和區"
"235052","805-TS","2019/12/05 18:29:19","新北市中和區興南路二段133號","121.505235","24.984145","6500300","中和區"
"235048","896-TW","2019/12/05 18:29:21","新北市中和區中正路57號","121.50166","24.9934566666667","6500300","中和區"
"235046","911-UM","2019/12/05 18:29:34","新北市中和區仁愛街95號","121.511815","24.986775","6500300","中和區"
"235051","157-BY","2019/12/05 18:29:25","新北市中和區興南路二段142巷18-9號","121.502723333333","24.9842933333333","6500300","中和區"
"235037","AAC-213","2019/12/05 18:29:00","新北市中和區景德街95號","121.515835","24.9914083333333","6500300","中和區"
"235059","AAC-215","2019/12/05 18:29:25","新北市中和區員山路36巷16-3號","121.485071666667","24.9911633333333","6500300","中和區"
"220065","072-UY","2019/12/05 18:29:20","新北市板橋區南雅南路二段11-1號","121.454201666667","25.0026166666667","6500100","板橋區"
"220086","073-UY","2019/12/05 18:29:17","新北市板橋區華東街1-10號","121.44827","24.9950783333333","6500100","板橋區"
"226004","312-R5","2019/12/05 18:29:31","新北市平溪區靜安路二段295號","121.73267","25.0229866666667","6502400","平溪區"
"235049","251-BX","2019/12/05 18:29:26","新北市中和區景安路163號","121.505311666667","24.9946333333333","6500300","中和區"
"228003","097-TW","2019/12/05 18:29:15","新北市貢寮區和美里和美街37號","121.912265","25.087825","6502600","貢寮區"
"228001","212-TW","2019/12/05 18:29:32","新北市貢寮區仁理村仁和路110號","121.922906666667","25.0508333333333","6502600","貢寮區"
"228002","663-BX","2019/12/05 18:29:27","新北市貢寮區福連里香蘭街11號","121.978238333333","25.0237866666667","6502600","貢寮區"
"224006","676-BX","2019/12/05 18:29:28","新北市瑞芳區明燈路二段79號","121.810441666667","25.108265","6501200","瑞芳區"
"224007","285-BY","2019/12/05 18:29:18","新北市瑞芳區大埔路國宅新村32號","121.764385","25.09999","6501200","瑞芳區"
"224009","275-VK","2019/12/05 18:29:20","新北市瑞芳區五號路308號","121.85685","25.1114583333333","6501200","瑞芳區"
"224008","273-VK","2019/12/05 18:29:26","新北市瑞芳區岳王路1巷13號","121.806253333333","25.11043","6501200","瑞芳區"
"224005","271-BY","2019/12/05 18:29:29","新北市瑞芳區建基路一段4-2號","121.820688333333","25.1212933333333","6501200","瑞芳區"
"227002","642-TC","2019/12/05 18:29:27","新北市雙溪區魚行里坤溪22號","121.870358333333","25.0290266666667","6502500","雙溪區"
"227001","400-TW","2019/12/05 18:29:23","新北市雙溪區牡丹里牡丹155號","121.851583333333","25.0588883333333","6502500","雙溪區"
"253005","032-BX","2019/12/05 18:29:28","新北市石門區老崩山10-4號","121.552741666667","25.29114","6502200","石門區"
"253006","295-VK","2019/12/05 18:29:14","新北市石門區公地20號","121.54581","25.2902216666667","6502200","石門區"
"222001","KEA-2212","2019/12/05 18:29:16","新北市深坑區北深路一段185號","121.63172","25.01038","6501800","深坑區"
"208002","KEA-2872","2019/12/05 18:29:27","新北市金山區磺港里青年路1號","121.64128","25.2251433333333","6502700","金山區"
"208003","665-BX","2019/12/05 18:29:28","新北市金山區金包里街舊市場1號","121.638025","25.221435","6502700","金山區"
"251004","009-UM","2019/12/05 18:29:26","新北市淡水區民族路31巷25號","121.462186666667","25.1364516666667","6501000","淡水區"
"251005","010-UM","2019/12/05 18:29:31","新北市淡水區中正東路35巷13號","121.446513333333","25.1687066666667","6501000","淡水區"
"251002","012-UM","2019/12/05 18:29:27","新北市淡水區竿蓁二街24號","121.453576666667","25.16276","6501000","淡水區"
"251015","KEA-2871","2019/12/05 18:29:25","新北市淡水區興福寮88巷216號","121.485918333333","25.1665966666667","6501000","淡水區"
"251016","180-VK","2019/12/05 18:29:21","新北市淡水區下圭柔山114號","121.446111666667","25.2111583333333","6501000","淡水區"
"251008","181-VK","2019/12/05 18:29:20","新北市淡水區水源街二段346巷1弄1號","121.464363333333","25.1755183333333","6501000","淡水區"
"251013","182-VK","2019/12/05 18:29:19","新北市淡水區椿子林19-3號","121.480246666667","25.203215","6501000","淡水區"
"251010","413-VK","2019/12/05 18:29:20","新北市淡水區沙崙路181巷2-2號","121.424193333333","25.1841833333333","6501000","淡水區"
"251012","441-VK","2019/12/05 18:29:31","新北市淡水區北新路一段128號","121.458405","25.1822966666667","6501000","淡水區"
"251001","559-UM","2019/12/05 18:29:27","新北市淡水區自強路120-2號","121.464238333333","25.13296","6501000","淡水區"
"251006","561-UM","2019/12/05 18:29:21","新北市淡水區新民街28號","121.439611666667","25.1757683333333","6501000","淡水區"
"251011","650-BX","2019/12/05 18:29:30","新北市淡水區坪頂路103號","121.463668333333","25.1624083333333","6501000","淡水區"
"251003","673-BX","2019/12/05 18:29:17","新北市淡水區北新路169巷16號","121.449808333333","25.1801733333333","6501000","淡水區"
"207003","681-TV","2019/12/05 18:29:25","新北市萬里區野柳里港東路6-1號","121.686563333333","25.203185","6502800","萬里區"
"207004","291-VK","2019/12/05 18:29:29","新北市萬里區萬里里瑪鋉路218號","121.689201666667","25.1801366666667","6502800","萬里區"
"252003","249-BX","2019/12/05 18:29:17","新北市三芝區後厝里北勢子43號","121.471775","25.2524616666667","6502100","三芝區"
"252001","292-VK","2019/12/05 18:29:34","新北市三芝區中興街二段2號","121.49837","25.2566183333333","6502100","三芝區"
"237007","153-BY","2019/12/05 18:29:33","新北市三峽區中正路三段170巷34號","121.352828333333","24.9045783333333","6500900","三峽區"
"237009","210-TH","2019/12/05 18:29:23","新北市三峽區民族街129號","121.369196666667","24.9283783333333","6500900","三峽區"
"237013","252-BX","2019/12/05 18:29:14","新北市三峽區永安街9巷20號","121.376928333333","24.9299533333333","6500900","三峽區"
"237012","275-BY","2019/12/05 18:29:35","新北市三峽區三樹路168巷30號","121.379516666667","24.9405766666667","6500900","三峽區"
"237008","302-VK","2019/12/05 18:29:19","新北市三峽區白雞129-1號","121.397155","24.907385","6500900","三峽區"
"237014","433-BY","2019/12/05 18:29:22","新北市三峽區文化路2號","121.373395","24.9354733333333","6500900","三峽區"
"237006","5529-G3","2019/12/05 18:29:30","新北市三峽區溪東路218巷25號","121.407108333333","24.9304216666667","6500900","三峽區"
"237011","KEA-2596","2019/12/05 18:29:18","新北市三峽區溪東路218巷32號","121.407001666667","24.930025","6500900","三峽區"
"237015","649-BX","2019/12/05 18:29:17","新北市三峽區竹崙路111號","121.433386666667","24.91187","6500900","三峽區"
"237010","706-TV","2019/12/05 18:29:30","新北市三峽區復興路489號","121.361246666667","24.9384216666667","6500900","三峽區"
"237004","756-BX","2019/12/05 18:29:31","新北市三峽區五寮68號","121.366533333333","24.8645733333333","6500900","三峽區"
"237005","AKY-6261","2019/12/05 18:29:27","新北市三峽區清水街366號","121.36971","24.931545","6500900","三峽區"
"236042","KED-0685","2019/12/05 18:29:31","新北市土城區學成路91巷3號","121.450438333333","24.98776","6501300","土城區"
"236078","166-UM","2019/12/05 18:29:32","新北市土城區大暖路61-2號","121.422028333333","24.95827","6501300","土城區"
"236030","253-BX","2019/12/05 18:29:20","新北市土城區福仁街30巷10號","121.43942","24.9758983333333","6501300","土城區"
"236026","269-VK","2019/12/05 18:29:34","新北市土城區南天母路111巷4號","121.448241666667","24.95462","6501300","土城區"
"236038","271-VK","2019/12/05 18:29:26","新北市土城區青雲路449號","121.458803333333","24.9751283333333","6501300","土城區"
"236070","KEA-2877","2019/12/05 18:29:31","新北市土城區永豐路255巷27弄1號","121.475923333333","24.9728783333333","6501300","土城區"
"252002","KED-0821","2019/12/05 18:29:15","新北市三芝區中山路二段38號","121.503011666667","25.2551433333333","6502100","三芝區"
"236021","401-BY","2019/12/05 18:29:28","新北市土城區明德路一段93巷6號","121.46614","24.9833083333333","6501300","土城區"
"236014","752-BX","2019/12/05 18:29:36","新北市土城區青雲路39巷7號","121.460336666667","24.9873816666667","6501300","土城區"
"236059","912-UM","2019/12/05 18:29:18","新北市土城區中央路四段232號","121.415448333333","24.9571266666667","6501300","土城區"
"236049","913-UM","2019/12/05 18:29:29","新北市土城區青雲路457號","121.45863","24.9744233333333","6501300","土城區"
"236063","915-UM","2019/12/05 18:29:14","新北市土城區延壽路118-2號","121.469186666667","24.9940133333333","6501300","土城區"
"236055","AAC-216","2019/12/05 18:29:26","新北市土城區中華路二段67號","121.439413333333","24.9784583333333","6501300","土城區"
"242061","986-R7","2019/12/05 18:29:20","新北市新莊區新樹路79號","121.43777","25.027515","6500500","新莊區"
"242027","613-BX","2019/12/05 18:29:34","新北市新莊區幸福路823號","121.445278333333","25.04896","6500500","新莊區"
"242058","612-BX","2019/12/05 18:29:33","新北市新莊區新北大道七段556號","121.412113333333","25.0286916666667","6500500","新莊區"
"242042","442-UM","2019/12/05 18:29:33","新北市新莊區天祥街79號","121.415608333333","25.02936","6500500","新莊區"
"242044","415-TV","2019/12/05 18:29:32","新北市新莊區天泉二街26巷2號","121.414555","25.0255683333333","6500500","新莊區"
"242025","362-BY","2019/12/05 18:29:29","新北市新莊區五工三路94巷2號","121.458331666667","25.0654833333333","6500500","新莊區"
"242056","172-VK","2019/12/05 18:29:21","新北市新莊區瓊泰路77巷15號","121.442603333333","25.02894","6500500","新莊區"
"242053","176-VK","2019/12/05 18:29:29","新北市樹林區樹新路120巷18號","121.430565","24.9968083333333","6500500","新莊區"
"242009","349-TH","2019/12/05 18:29:17","新北市新莊區中華路二段39號","121.453436666667","25.04653","6500500","新莊區"
"238015","755-BX","2019/12/05 18:29:33","新北市樹林區備內街162號","121.406173333333","24.9896383333333","6500700","樹林區"
"238023","601-UM","2019/12/05 18:29:31","新北市樹林區三福街114號","121.406456666667","25.01636","6500700","樹林區"
"238019","599-UM","2019/12/05 18:29:32","新北市樹林區中華路176號","121.414021666667","24.980345","6500700","樹林區"
"238024","5061-A6","2019/12/05 18:29:29","新北市樹林區育英街2巷1-2號","121.423021666667","24.9889683333333","6500700","樹林區"
"238018","KEA-2217","2019/12/05 18:29:29","新北市樹林區樹新路95號","121.428123333333","24.9953283333333","6500700","樹林區"
"238017","283-BY","2019/12/05 18:29:30","新北市樹林區保安街二段211號","121.413291666667","25.00401","6500700","樹林區"
"238020","268-VK","2019/12/05 18:29:26","新北市樹林區三龍街28-3號","121.411493333333","25.0179","6500700","樹林區"
"238026","172-UY","2019/12/05 18:28:36","新北市樹林區八德街800號","121.395221666667","24.9688516666667","6500700","樹林區"
"238016","169-UY","2019/12/05 18:29:33","新北市樹林區中山路二段78號","121.415148333333","24.9838","6500700","樹林區"
"239007","AAC-297","2019/12/05 18:29:35","新北市鶯歌區重慶街63-1號","121.349638333333","24.9517083333333","6500800","鶯歌區"
"239006","891-R6","2019/12/05 18:29:18","新北市鶯歌區德昌街140巷28號","121.33233","24.9614033333333","6500800","鶯歌區"
"239008","527-UM","2019/12/05 18:29:27","新北市鶯歌區朝陽街1號","121.33631","24.9765916666667","6500800","鶯歌區"
"239005","526-UM","2019/12/05 18:29:22","新北市鶯歌區鶯桃路668巷73號","121.330006666667","24.9718633333333","6500800","鶯歌區"
"239001","417-VK","2019/12/05 18:29:25","新北市鶯歌區國中街91號","121.341911666667","24.9417633333333","6500800","鶯歌區"
"239003","360-BY","2019/12/05 18:29:02","新北市鶯歌區福安街58號","121.3356","24.96517","6500800","鶯歌區"
"239002","359-BY","2019/12/05 18:29:23","新北市鶯歌區中正一路371號","121.358148333333","24.957055","6500800","鶯歌區"
"221036","130-UY","2019/12/05 18:29:21","新北市汐止區大同路三段143號","121.66936","25.0777283333333","6501100","汐止區"
"221015","131-UY","2019/12/05 18:29:20","新北市汐止區鄉長路二段33號","121.667863333333","25.0833333333333","6501100","汐止區"
"244019","KED-0667","2019/12/05 18:29:22","新北市林口區麗園二街36巷1號","121.380405","25.069145","6501700","林口區"
"221010","269-BY","2019/12/05 18:29:20","新北市汐止區汐萬路35號","121.644371666667","25.091415","6501100","汐止區"
"221018","277-VK","2019/12/05 18:29:27","新北市汐止區茄苳路120巷4號","121.667633333333","25.0699733333333","6501100","汐止區"
"221012","278-VK","2019/12/05 18:29:16","新北市汐止區保長路35巷20號","121.673278333333","25.080035","6501100","汐止區"
"221023","279-VK","2019/12/05 18:29:25","新北市汐止區康寧街434號","121.631021666667","25.0681483333333","6501100","汐止區"
"221032","280-BY","2019/12/05 18:29:30","新北市汐止區民權街二段79號","121.619171666667","25.0481183333333","6501100","汐止區"
"221027","281-BY","2019/12/05 18:29:31","新北市汐止區和平街80號","121.66154","25.0707816666667","6501100","汐止區"
"221021","299-VK","2019/12/05 18:29:36","新北市汐止區連興街120號","121.653701666667","25.0624966666667","6501100","汐止區"
"221035","622-UM","2019/12/05 18:29:30","新北市汐止區大同路二段189號","121.652201666667","25.0644566666667","6501100","汐止區"
"221025","623-UM","2019/12/05 18:29:22","新北市汐止區仁愛路112號","121.662583333333","25.06357","6501100","汐止區"
"221038","646-BX","2019/12/05 18:29:27","新北市汐止區忠孝東路295號","121.664151666667","25.06893","6501100","汐止區"
"221033","647-BX","2019/12/05 18:29:37","新北市汐止區宜興街48號","121.62239","25.0422933333333","6501100","汐止區"
"221002","707-TV","2019/12/05 18:29:20","新北市汐止區福德一路145號","121.636711666667","25.0668033333333","6501100","汐止區"
"220079","145-BY","2019/12/05 18:29:19","新北市板橋區華東街1-10號","121.44841","24.99508","6500100","板橋區"
"220080","200-UY","2019/12/05 18:29:15","新北市板橋區華東街1-9號","121.448181666667","24.994905","6500100","板橋區"
"220082","610-BX","2019/12/05 18:29:30","新北市樹林區中華路1號","121.424893333333","24.98356","6500100","板橋區"
"220084","256-TC","2019/12/05 18:29:16","新北市板橋區華東街1-9號","121.44815","24.9949783333333","6500100","板橋區"
"224002","257-TC","2019/12/05 18:29:25","新北市瑞芳區正貿新村15號","121.813601666667","25.1059616666667","6501200","瑞芳區"
"220056","276-BY","2019/12/05 18:29:21","新北市板橋區四川路二段130巷25弄10號","121.448868333333","24.99466","6500100","板橋區"
"220094","283-UM","2019/12/05 18:29:14","新北市板橋區民生路二段161巷3號","121.470028333333","25.019775","6500100","板橋區"
"220071","283-VK","2019/12/05 18:29:26","新北市板橋區華東街1-9號","121.448136666667","24.9948966666667","6500100","板橋區"
"220081","287-VK","2019/12/05 18:29:30","新北市板橋區華東街1-10號","121.448283333333","24.9949933333333","6500100","板橋區"
"242046","281-VK","2019/12/05 18:29:30","新北市新莊區中正路803巷44號","121.421778333333","25.02775","6500500","新莊區"
"242011","280-VK","2019/12/05 18:29:37","新北市新莊區中港路615巷8號","121.450938333333","25.0534733333333","6500500","新莊區"
"220035","560-BX","2019/12/05 18:29:16","新北市板橋區南雅南路二段144巷2號","121.451471666667","24.9961533333333","6500100","板橋區"
"220057","686-BX","2019/12/05 18:29:19","新北市板橋區華東街1-10號","121.448626666667","24.99481","6500100","板橋區"
"220077","687-BX","2019/12/05 18:29:17","新北市板橋區華東街1-10號","121.448343333333","24.994935","6500100","板橋區"
"220055","827-TW","2019/12/05 18:29:23","新北市板橋區四川路二段29號","121.45444","24.9955566666667","6500100","板橋區"
"220073","985-R7","2019/12/05 18:29:19","新北市板橋區四川路二段140巷16弄13號","121.448613333333","24.9935716666667","6500100","板橋區"
"220064","AAC-253","2019/12/05 18:29:29","新北市板橋區南雅南路二段4巷2號","121.454221666667","25.0037716666667","6500100","板橋區"
"235061","KEA-2875","2019/12/05 18:29:24","新北市中和區民享街92巷20號","121.474216666667","24.9997983333333","6500300","中和區"
"235068","KEA-2876","2019/12/05 18:29:29","新北市中和區圓通路273號","121.49568","24.9931216666667","6500300","中和區"
