"lineid","car","time","location","longitude","latitude","cityid","cityname"
"234046","148-BY","2019/12/05 20:13:17","新北市永和區得和路275號","121.522356666667","24.9997266666667","6500400","永和區"
"234081","298-R6","2019/12/05 20:13:28","新北市永和區國中路109巷1弄2號","121.524001666667","25.005745","6500400","永和區"
"234038","336-UY","2019/12/05 20:13:25","新北市永和區成功路一段47巷15號","121.527596666667","25.00402","6500400","永和區"
"234064","337-UY","2019/12/05 20:13:34","新北市永和區得和路251號","121.520995","24.9999166666667","6500400","永和區"
"234086","338-UY","2019/12/05 20:13:32","新北市永和區福和路149號","121.520598333333","25.007695","6500400","永和區"
"234070","552-UM","2019/12/05 20:13:26","新北市永和區永貞路10巷8號","121.520463333333","25.0072516666667","6500400","永和區"
"234017","745-BX","2019/12/05 20:13:20","新北市永和區文化路7號","121.51545","25.0149883333333","6500400","永和區"
"234030","746-BX","2019/12/05 20:13:20","新北市永和區民族街81巷28號","121.519018333333","24.9966066666667","6500400","永和區"
"234054","KEA-2590","2019/12/05 20:13:32","新北市永和區博愛街14號","121.516965","25.0158016666667","6500400","永和區"
"234007","KED-0605","2019/12/05 20:13:22","新北市永和區環河西路二段217巷5號","121.501696666667","25.00991","6500400","永和區"
"234013","KEA-2591","2019/12/05 20:13:29","新北市永和區中山路一段214號","121.508216666667","25.0085533333333","6500400","永和區"
"234061","AAD-866","2019/12/05 20:13:26","新北市永和區安樂路58巷16號","121.515376666667","24.9982183333333","6500400","永和區"
"234042","862-TW","2019/12/05 20:13:21","新北市永和區雙和街24號","121.508925","25.0022833333333","6500400","永和區"
"234050","863-TW","2019/12/05 20:13:29","新北市永和區環河西路二段103號","121.50641","25.01474","6500400","永和區"
"234026","9371-KE","2019/12/05 20:13:12","新北市永和區保生路55-1號","121.50455","25.010885","6500400","永和區"
"249005","172-UM","2019/12/05 20:13:25","新北市八里區下罟子54-12號","121.388006666667","25.1401783333333","6502300","八里區"
"249001","173-UM","2019/12/05 20:13:28","新北市八里區中華路二段346號","121.402743333333","25.1474983333333","6502300","八里區"
"249004","303-UY","2019/12/05 20:13:27","新北市八里區中山路一段398巷51弄1號","121.411148333333","25.1589683333333","6502300","八里區"
"249002","305-UY","2019/12/05 20:13:22","新北市八里區龍米路一段51號","121.456495","25.1193016666667","6502300","八里區"
"249003","593-UM","2019/12/05 20:13:30","新北市八里區中山路二段447巷16號","121.396908333333","25.14546","6502300","八里區"
"248016","026-BX","2019/12/05 20:13:29","新北市五股區凌雲路一段158巷50弄19號","121.44782","25.1043883333333","6501500","五股區"
"248012","247-BX","2019/12/05 20:13:30","新北市五股區六合街116號","121.430468333333","25.0908583333333","6501500","五股區"
"248010","272-BY","2019/12/05 20:13:22","新北市五股區成泰路一段7巷20號","121.433098333333","25.0668866666667","6501500","五股區"
"248004","677-BX","2019/12/05 20:13:28","新北市五股區中興路四段31號","121.438508333333","25.0827466666667","6501500","五股區"
"248002","678-BX","2019/12/05 20:13:32","新北市五股區成泰路三段229號","121.446303333333","25.0932133333333","6501500","五股區"
"234023","9380-KE","2019/12/05 20:13:34","新北市永和區中正路605號","121.516446666667","25.0097083333333","6500400","永和區"
"234077","969-R7","2019/12/05 20:13:32","新北市永和區民享街12號","121.515255","24.9952433333333","6500400","永和區"
"234074","AAC-211","2019/12/05 20:13:36","新北市永和區竹林路179巷38號","121.522075","25.0100266666667","6500400","永和區"
"234067","AAC-212","2019/12/05 20:13:23","新北市永和區保平路236巷12弄4號","121.508715","25.0064733333333","6500400","永和區"
"234003","AAC-295","2019/12/05 20:13:34","新北市永和區自強街33號","121.515666666667","25.0081133333333","6500400","永和區"
"243012","AAD-798","2019/12/05 20:13:21","新北市泰山區楓江路58-1號","121.436438333333","25.0629483333333","6501600","泰山區"
"243010","297-R6","2019/12/05 20:03:03","新北市泰山區中華街18巷1號","121.427358333333","25.05186","6501600","泰山區"
"243014","KEA-2801","2019/12/05 20:12:36","新北市泰山區明志路一段2號","121.433481666667","25.0661066666667","6501600","泰山區"
"243016","421-VK","2019/12/05 20:13:19","新北市泰山區明志路三段189號","121.424293333333","25.0388866666667","6501600","泰山區"
"243015","539-UM","2019/12/05 20:13:19","新北市泰山區明志路一段452號","121.430693333333","25.0558416666667","6501600","泰山區"
"243009","KEA-2215","2019/12/05 20:13:28","新北市泰山區泰林路二段116巷2弄2號","121.434858333333","25.0593816666667","6501600","泰山區"
"243011","KEA-2216","2019/12/05 20:13:17","新北市泰山區壽山路134巷1號","121.41741","25.0302616666667","6501600","泰山區"
"243013","646-TV","2019/12/05 20:13:31","新北市泰山區明志路三段74巷7號","121.424471666667","25.0416083333333","6501600","泰山區"
"222003","436-BY","2019/12/05 20:13:15","新北市深坑區埔新街99號","121.619225","25.0022483333333","6501800","深坑區"
"222002","659-BX","2019/12/05 20:13:22","新北市深坑區北深路三段158巷36號","121.60148","25.004645","6501800","深坑區"
"231061","002-UM","2019/12/05 20:13:29","新北市新店區安民街155號","121.51662","24.96989","6500600","新店區"
"231058","0293-UT","2019/12/05 20:13:32","新北市新店區薏仁坑路自強巷1號","121.497461666667","24.9577916666667","6500600","新店區"
"231044","046-UY","2019/12/05 20:13:22","新北市新店區寶慶街66號","121.541958333333","24.9868766666667","6500600","新店區"
"231060","106-UY","2019/12/05 20:13:19","新北市新店區安康路三段450號","121.484576666667","24.9512633333333","6500600","新店區"
"231051","107-UY","2019/12/05 20:13:19","新北市新店區中央路196號","121.530811666667","24.9746166666667","6500600","新店區"
"231049","108-UY","2019/12/05 20:13:22","新北市新店區北新路二段97巷12號","121.54217","24.97446","6500600","新店區"
"231065","110-UY","2019/12/05 20:13:17","新北市新店區安祥路106巷141號","121.473291666667","24.9587083333333","6500600","新店區"
"231068","187-VK","2019/12/05 20:13:19","新北市新店區中興路三段200號","121.543901666667","24.98191","6500600","新店區"
"231050","KEA-2219","2019/12/05 20:13:31","新北市新店區北新路一段331號","121.54182","24.96853","6500600","新店區"
"221031","KEA-2785","2019/12/05 20:13:15","新北市汐止區中興路144號","121.632683333333","25.064415","6501100","汐止區"
"231062","256-BX","2019/12/05 20:13:28","新北市新店區安康路一段302-6號","121.51801","24.9641","6500600","新店區"
"231054","260-TV","2019/12/05 20:13:22","新北市新店區檳榔路174號","121.544253333333","24.961825","6500600","新店區"
"231042","268-BY","2019/12/05 20:13:24","新北市新店區中興路二段100巷2號","121.547351666667","24.9712966666667","6500600","新店區"
"231064","278-BY","2019/12/05 20:13:29","新北市新店區吉安街2號","121.517431666667","24.96565","6500600","新店區"
"231045","355-BY","2019/12/05 20:13:22","新北市新店區北宜路一段154號","121.540295","24.9536733333333","6500600","新店區"
"231055","4716-K9","2019/12/05 20:13:24","新北市新店區中華路42巷30號","121.541045","24.9689483333333","6500600","新店區"
"231056","4715-K9","2019/12/05 20:13:25","新北市新店區中正路328巷43號","121.537923333333","24.9763616666667","6500600","新店區"
"231067","4772-VM","2019/12/05 20:13:28","新北市新店區溪洲路56號","121.532695","24.9615383333333","6500600","新店區"
"231052","513-UM","2019/12/05 20:13:32","新北市新店區新烏路三段108號","121.55315","24.9035633333333","6500600","新店區"
"231041","619-UM","2019/12/05 20:13:27","新北市新店區民權路132號","121.534846666667","24.98285","6500600","新店區"
"231063","641-BX","2019/12/05 20:13:15","新北市新店區黎明路11號","121.502041666667","24.9497933333333","6500600","新店區"
"231047","KED-0819","2019/12/05 20:13:32","新北市新店區永華街4號","121.543231666667","24.976685","6500600","新店區"
"231057","720-UM","2019/12/05 20:13:14","新北市新店區花園一路二段31號","121.552253333333","24.933035","6500600","新店區"
"231059","897-TW","2019/12/05 20:13:31","新北市新店區安德街42號","121.5113","24.9626033333333","6500600","新店區"
"231040","898-TW","2019/12/05 20:13:11","新北市新店區中正路106號","121.543108333333","24.9706083333333","6500600","新店區"
"231043","899-TW","2019/12/05 20:13:19","新北市新店區建國路133號","121.5393","24.97822","6500600","新店區"
"231066","AKT-0513","2019/12/05 20:13:16","新北市新店區安興路20號","121.515021666667","24.96592","6500600","新店區"
"241011","013-R5","2019/12/05 20:13:32","新北市三重區龍濱路190號","121.501091666667","25.0732366666667","6500200","三重區"
"241028","022-UY","2019/12/05 20:13:31","新北市三重區大同南路162號","121.49664","25.05741","6500200","三重區"
"241008","059-VK","2019/12/05 20:13:24","新北市三重區永福街211巷2弄2號","121.479905","25.0742066666667","6500200","三重區"
"241031","061-VK","2019/12/05 20:13:23","新北市三重區三寧街18號","121.48927","25.0598683333333","6500200","三重區"
"241015","062-VK","2019/12/05 20:13:24","新北市三重區福德北路9號","121.502505","25.0641733333333","6500200","三重區"
"241017","063-VK","2019/12/05 20:13:23","新北市三重區大同北路221巷18號","121.492138333333","25.0664416666667","6500200","三重區"
"241024","065-VK","2019/12/05 20:13:17","新北市三重區中正北路165巷25號","121.479455","25.0705783333333","6500200","三重區"
"241007","066-VK","2019/12/05 20:13:16","新北市三重區三和路四段115號","121.485391666667","25.0775983333333","6500200","三重區"
"241002","090-VK","2019/12/05 20:13:32","新北市三重區仁義街225巷40號","121.497635","25.0829866666667","6500200","三重區"
"241003","091-VK","2019/12/05 20:13:15","新北市三重區仁愛街476號","121.48963","25.082415","6500200","三重區"
"241005","742-BX","2019/12/05 20:13:32","新北市三重區碧華街322號","121.490041666667","25.0837233333333","6500200","三重區"
"241006","262-UM","2019/12/05 20:13:19","新北市三重區車路頭街139巷14號","121.484356666667","25.07621","6500200","三重區"
"241016","266-UM","2019/12/05 20:13:23","新北市三重區大同北路97-2號","121.494475","25.0637083333333","6500200","三重區"
"241009","267-UM","2019/12/05 20:13:32","新北市三重區三和路四段382巷95號","121.480356666667","25.0782433333333","6500200","三重區"
"241018","268-UM","2019/12/05 20:13:21","新北市三重區正義北路250號","121.495886666667","25.068355","6500200","三重區"
"241013","270-UM","2019/12/05 20:13:32","新北市三重區溪尾街1號","121.491963333333","25.0741066666667","6500200","三重區"
"241035","KEA-2210","2019/12/05 20:13:19","新北市三重區大榮街53號","121.499191666667","25.0635833333333","6500200","三重區"
"241030","KED-0822","2019/12/05 20:13:26","新北市三重區集美街75巷4號","121.488381666667","25.0533316666667","6500200","三重區"
"241004","475-VK","2019/12/05 20:13:27","新北市三重區溪尾街104號","121.489545","25.0787316666667","6500200","三重區"
"241020","478-VK","2019/12/05 20:13:27","新北市三重區重陽路四段158號","121.493186666667","25.0720766666667","6500200","三重區"
"241026","480-VK","2019/12/05 20:13:13","新北市三重區中央南路62-1號","121.501428333333","25.0613","6500200","三重區"
"241014","543-UM","2019/12/05 20:13:26","新北市三重區長壽街120巷43號","121.502108333333","25.0695966666667","6500200","三重區"
"241023","545-UM","2019/12/05 20:13:29","新北市三重區頂崁街217巷4弄1號","121.477706666667","25.06778","6500200","三重區"
"241001","547-UM","2019/12/05 20:13:32","新北市三重區自強路四段3巷18號","121.48935","25.076265","6500200","三重區"
"241019","KEA-2593","2019/12/05 20:13:27","新北市三重區大智街190號","121.490638333333","25.0707816666667","6500200","三重區"
"241012","743-BX","2019/12/05 20:13:35","新北市三重區河邊北街262號","121.501673333333","25.076455","6500200","三重區"
"241022","KED-0820","2019/12/05 20:13:28","新北市三重區中正北路28號","121.488155","25.063575","6500200","三重區"
"241025","KED-0670","2019/12/05 20:13:21","新北市三重區中正北路312巷2號","121.47925","25.0688316666667","6500200","三重區"
"241029","942-UM","2019/12/05 20:13:15","新北市三重區中寮街49號","121.492796666667","25.0585916666667","6500200","三重區"
"241033","AAC-255","2019/12/05 20:13:13","新北市三重區光復路一段61巷31弄2號","121.474891666667","25.0492666666667","6500200","三重區"
"235066","003-UY","2019/12/05 20:13:17","新北市中和區水源路118號","121.506928333333","25.00349","6500300","中和區"
"235039","097-UM","2019/12/05 20:13:21","新北市中和區立人街14巷40弄1號","121.518955","24.9955866666667","6500300","中和區"
"235065","098-UM","2019/12/05 20:13:30","新北市中和區永和路128巷28號","121.497625","25.0068866666667","6500300","中和區"
"235040","150-BY","2019/12/05 20:13:16","新北市中和區保健路39巷9號","121.50911","24.99791","6500300","中和區"
"235055","183-VK","2019/12/05 20:13:30","新北市三重區後埔街61-1號","121.479578333333","25.047505","6500300","中和區"
"235044","293-VK","2019/12/05 20:13:25","新北市中和區復興路335號","121.500235","24.9902483333333","6500300","中和區"
"247016","KEA-2869","2019/12/05 20:13:25","新北市蘆洲區光華路150巷19號","121.4652","25.0831966666667","6501400","蘆洲區"
"247010","KED-0682","2019/12/05 20:13:23","新北市蘆洲區信義路188巷2弄3號","121.479668333333","25.084325","6501400","蘆洲區"
"235050","4979-A6","2019/12/05 20:13:24","新北市中和區景新街296號","121.511266666667","24.9920566666667","6500300","中和區"
"235069","4980-A6","2019/12/05 20:13:31","新北市中和區南山路37巷14號","121.5029","24.9986883333333","6500300","中和區"
"235059","AAC-215","2019/12/05 20:13:25","新北市中和區錦和路408號","121.491181666667","24.9896","6500300","中和區"
"220054","015-TV","2019/12/05 20:13:13","新北市板橋區忠孝路201巷95號","121.464566666667","25.0048666666667","6500100","板橋區"
"220065","072-UY","2019/12/05 20:13:20","新北市板橋區縣民大道三段52巷2號","121.472093333333","25.019105","6500100","板橋區"
"247006","893-R6","2019/12/05 20:13:25","新北市蘆洲區永安南路二段16巷16號","121.468073333333","25.0777133333333","6501400","蘆洲區"
"247020","546-UM","2019/12/05 20:13:33","新北市蘆洲區民義街98號","121.473741666667","25.0906116666667","6501400","蘆洲區"
"247004","336-TH","2019/12/05 20:13:26","新北市蘆洲區永安南路二段328巷17弄5號","121.456351666667","25.0839016666667","6501400","蘆洲區"
"247024","057-VK","2019/12/05 20:13:19","新北市蘆洲區光明路88巷26號","121.463265","25.0870233333333","6501400","蘆洲區"
"247014","056-VK","2019/12/05 20:13:29","新北市蘆洲區中山二路239號","121.47014","25.0800166666667","6501400","蘆洲區"
"247018","053-VK","2019/12/05 20:13:31","新北市蘆洲區民族路301號","121.474995","25.0912233333333","6501400","蘆洲區"
"247022","007-UY","2019/12/05 20:13:30","新北市蘆洲區中正路202號","121.466696666667","25.08836","6501400","蘆洲區"
"247002","001-UY","2019/12/05 20:13:28","新北市蘆洲區長安街240號","121.457633333333","25.0858633333333","6501400","蘆洲區"
"222001","KEA-2212","2019/12/05 20:13:16","新北市深坑區北深路三段236號","121.600491666667","25.004265","6501800","深坑區"
"251004","009-UM","2019/12/05 20:13:26","新北市淡水區民族路31巷39號","121.462015","25.1366633333333","6501000","淡水區"
"251002","012-UM","2019/12/05 20:13:27","新北市淡水區中正路312號","121.437156666667","25.1724133333333","6501000","淡水區"
"251015","KEA-2871","2019/12/05 20:13:25","新北市淡水區商工路382號","121.469521666667","25.1855383333333","6501000","淡水區"
"251016","180-VK","2019/12/05 20:13:21","新北市淡水區番子田21號","121.45832","25.2280583333333","6501000","淡水區"
"251008","181-VK","2019/12/05 20:13:20","新北市淡水區淡海路72巷28弄9號","121.42529","25.1822983333333","6501000","淡水區"
"251013","182-VK","2019/12/05 20:13:19","新北市淡水區奎柔山路762號","121.474955","25.20363","6501000","淡水區"
"251010","413-VK","2019/12/05 20:13:20","新北市淡水區濱海路三段150號","121.424885","25.1914683333333","6501000","淡水區"
"251012","441-VK","2019/12/05 20:13:31","新北市淡水區淡金路三段266號","121.448896666667","25.2067233333333","6501000","淡水區"
"251001","559-UM","2019/12/05 20:13:27","新北市淡水區淡金路二段15號","121.446115","25.1892033333333","6501000","淡水區"
"251006","561-UM","2019/12/05 20:13:21","新北市淡水區北新路141巷2弄1號","121.449286666667","25.179235","6501000","淡水區"
"251011","650-BX","2019/12/05 20:13:31","新北市淡水區崁頂75-2號","121.436361666667","25.2036366666667","6501000","淡水區"
"251003","673-BX","2019/12/05 20:13:17","新北市淡水區中山北路一段249號","121.444675","25.1803733333333","6501000","淡水區"
"207003","681-TV","2019/12/05 20:13:18","新北市萬里區大鵬里萬里加投80號","121.646355","25.2124733333333","6502800","萬里區"
"207004","291-VK","2019/12/05 20:13:29","新北市萬里區北基里仁四街23號","121.681475","25.176085","6502800","萬里區"
"252001","292-VK","2019/12/05 20:13:14","新北市三芝區中山路一段9巷16號","121.499836666667","25.2586716666667","6502100","三芝區"
"237012","275-BY","2019/12/05 20:13:15","新北市三峽區中正路一段216巷10號","121.371525","24.92801","6500900","三峽區"
"237014","433-BY","2019/12/05 20:13:22","新北市三峽區介壽路一段58號","121.376146666667","24.93151","6500900","三峽區"
"237006","5529-G3","2019/12/05 20:13:30","新北市三峽區嘉添181-1號","121.370055","24.9114116666667","6500900","三峽區"
"237004","756-BX","2019/12/05 20:13:31","新北市三峽區中山路96號","121.366531666667","24.9353666666667","6500900","三峽區"
"237005","AKY-6261","2019/12/05 20:13:27","新北市三峽區三樹路98巷102-5號","121.386776666667","24.93951","6500900","三峽區"
"236030","253-BX","2019/12/05 20:13:19","新北市土城區中央路一段143巷11號","121.447313333333","24.98777","6501300","土城區"
"236026","269-VK","2019/12/05 20:13:20","新北市土城區裕生路67巷8弄1號","121.448065","24.9843383333333","6501300","土城區"
"236038","271-VK","2019/12/05 20:13:34","新北市土城區延吉街312號","121.463895","24.9839766666667","6501300","土城區"
"247012","KED-0683","2019/12/05 20:13:26","新北市蘆洲區中興街15巷39號","121.479848333333","25.0883466666667","6501400","蘆洲區"
"236070","KEA-2877","2019/12/05 20:13:31","新北市土城區大安路22號","121.432775","24.96626","6501300","土城區"
"252002","KED-0821","2019/12/05 20:13:15","新北市三芝區利民街2號","121.503143333333","25.2592516666667","6502100","三芝區"
"236021","401-BY","2019/12/05 20:13:28","新北市土城區金城路三段206巷1號","121.471495","24.989685","6501300","土城區"
"236014","752-BX","2019/12/05 20:13:16","新北市土城區廣明街41巷6號","121.454768333333","24.9929216666667","6501300","土城區"
"236059","912-UM","2019/12/05 20:13:21","新北市土城區中央路三段38號","121.438408333333","24.9689016666667","6501300","土城區"
"242061","986-R7","2019/12/05 20:06:59","新北市新莊區瓊泰路7-1號","121.444731666667","25.0283316666667","6500500","新莊區"
"242004","751-BX","2019/12/05 20:13:19","新北市新莊區頭興街5巷1號","121.46314","25.0535366666667","6500500","新莊區"
"242029","615-BX","2019/12/05 20:13:30","新北市新莊區中原路319號","121.446483333333","25.0544233333333","6500500","新莊區"
"242027","613-BX","2019/12/05 20:13:22","新北市新莊區立信三街12巷14號","121.444161666667","25.0511166666667","6500500","新莊區"
"242058","612-BX","2019/12/05 20:13:30","新北市新莊區八德街151號","121.423511666667","25.0196633333333","6500500","新莊區"
"242048","566-BX","2019/12/05 20:13:26","新北市新莊區四維路152巷32號","121.421886666667","25.022465","6500500","新莊區"
"242042","442-UM","2019/12/05 20:13:33","新北市新莊區青山路一段179號","121.400373333333","25.0302133333333","6500500","新莊區"
"242044","415-TV","2019/12/05 20:13:34","桃園市龜山區萬壽路一段21巷12號","121.410618333333","25.0201566666667","6500500","新莊區"
"242013","413-TV","2019/12/05 20:13:18","新北市新莊區幸福路710巷8號","121.449838333333","25.0496016666667","6500500","新莊區"
"242051","400-BY","2019/12/05 20:13:18","新北市新莊區民安西路170號","121.426053333333","25.0159683333333","6500500","新莊區"
"242025","362-BY","2019/12/05 20:13:27","新北市新莊區五工路68巷11號","121.458486666667","25.0639933333333","6500500","新莊區"
"242023","353-BY","2019/12/05 20:13:19","新北市新莊區化成路604號","121.46618","25.0545666666667","6500500","新莊區"
"242015","132-UY","2019/12/05 20:13:22","新北市新莊區中平路26巷44號","121.446833333333","25.0432966666667","6500500","新莊區"
"242039","135-UY","2019/12/05 20:13:21","新北市新莊區龍安路481號","121.425601666667","25.0182083333333","6500500","新莊區"
"242017","173-VK","2019/12/05 20:13:20","新北市新莊區中港路360-15號","121.452418333333","25.0471083333333","6500500","新莊區"
"242031","175-VK","2019/12/05 20:13:25","新北市新莊區三泰路3號","121.440548333333","25.0340266666667","6500500","新莊區"
"242053","176-VK","2019/12/05 20:13:29","新北市新莊區民安西路301號","121.42669","25.011715","6500500","新莊區"
"242021","KED-0687","2019/12/05 20:13:20","新北市新莊區建中街28號","121.449036666667","25.0375","6500500","新莊區"
"242007","346-TH","2019/12/05 20:13:31","新北市新莊區福壽街164巷19號","121.459296666667","25.0528566666667","6500500","新莊區"
"242002","347-TH","2019/12/05 20:13:14","新北市新莊區中正路121-1號","121.459906666667","25.0385366666667","6500500","新莊區"
"242036","348-TH","2019/12/05 20:13:30","新北市新莊區建安街27號","121.428886666667","25.0258633333333","6500500","新莊區"
"242009","349-TH","2019/12/05 20:13:16","新北市新莊區昌平街1號","121.454878333333","25.0513833333333","6500500","新莊區"
"242034","350-TH","2019/12/05 20:13:29","新北市新莊區華興街48號","121.445996666667","25.036235","6500500","新莊區"
"242019","351-TH","2019/12/05 20:13:24","新北市新莊區民樂街66號","121.457975","25.0421483333333","6500500","新莊區"
"221008","489-VK","2019/12/05 20:13:29","台北市內湖區康樂街145號","121.619268333333","25.0716933333333","6501100","汐止區"
"221036","130-UY","2019/12/05 20:13:21","新北市汐止區新台五路二段15號","121.662418333333","25.066065","6501100","汐止區"
"221015","131-UY","2019/12/05 20:13:20","新北市汐止區建成路37巷1號","121.663735","25.0727333333333","6501100","汐止區"
"221010","269-BY","2019/12/05 20:13:20","新北市汐止區連峰街225巷25號","121.644021666667","25.08098","6501100","汐止區"
"221018","277-VK","2019/12/05 20:13:27","新北市汐止區茄興街12號","121.673495","25.06711","6501100","汐止區"
"221012","278-VK","2019/12/05 20:13:16","新北市汐止區大同路三段439號","121.678315","25.0712816666667","6501100","汐止區"
"221023","279-VK","2019/12/05 20:13:31","新北市汐止區明峰街298巷1-1號","121.625211666667","25.0680083333333","6501100","汐止區"
"221032","280-BY","2019/12/05 20:13:32","新北市汐止區弘道街8巷1弄1號","121.61703","25.048395","6501100","汐止區"
"221027","281-BY","2019/12/05 20:13:30","新北市汐止區大同路二段513號","121.661363333333","25.0689333333333","6501100","汐止區"
"221029","298-VK","2019/12/05 20:13:15","新北市汐止區樟樹一路123巷17號","121.641293333333","25.064645","6501100","汐止區"
"221021","299-VK","2019/12/05 20:13:21","新北市汐止區水源路一段258號","121.65415","25.05979","6501100","汐止區"
"221035","622-UM","2019/12/05 20:13:30","新北市汐止區長江街43號","121.655726666667","25.0712433333333","6501100","汐止區"
"221025","623-UM","2019/12/05 20:13:22","新北市汐止區秀峰路60號","121.659738333333","25.06474","6501100","汐止區"
"221038","646-BX","2019/12/05 20:13:26","新北市汐止區忠孝東路480號","121.666351666667","25.073735","6501100","汐止區"
"221033","647-BX","2019/12/05 20:13:17","新北市汐止區東勢街201巷104號","121.633553333333","25.04289","6501100","汐止區"
"220079","145-BY","2019/12/05 20:13:19","新北市板橋區建國街77號","121.459303333333","25.0174","6500100","板橋區"
"220080","200-UY","2019/12/05 20:13:15","新北市板橋區大觀路二段187巷5號","121.445188333333","24.9997066666667","6500100","板橋區"
"224002","257-TC","2019/12/05 20:13:25","新北市瑞芳區蛇子形路7號","121.825981666667","25.1049316666667","6501200","瑞芳區"
"220083","286-VK","2019/12/05 20:13:27","新北市板橋區僑中二街88巷19號","121.44538","25.0094583333333","6500100","板橋區"
"220081","287-VK","2019/12/05 20:13:30","新北市板橋區僑中一街124巷20弄36號","121.447606666667","25.0138633333333","6500100","板橋區"
"220061","293-UM","2019/12/05 20:13:25","新北市板橋區文華街28號","121.457225","25.0008516666667","6500100","板橋區"
"242046","281-VK","2019/12/05 20:13:32","新北市新莊區裕民街85巷14號","121.419123333333","25.0234133333333","6500500","新莊區"
"220075","303-R5","2019/12/05 20:13:27","新北市板橋區金華街21巷1號","121.455645","25.0204383333333","6500100","板橋區"
"242011","280-VK","2019/12/05 20:13:17","新北市新莊區中信街53號","121.449683333333","25.05073","6500500","新莊區"
"220035","560-BX","2019/12/05 20:13:20","新北市板橋區新生街55號","121.457335","25.02103","6500100","板橋區"
"220103","561-BX","2019/12/05 20:13:22","新北市板橋區漢生東路23巷56弄1號","121.466208333333","25.01829","6500100","板橋區"
"220077","687-BX","2019/12/05 20:13:17","新北市板橋區僑中一街124巷18弄1號","121.44613","25.0137966666667","6500100","板橋區"
"220055","827-TW","2019/12/05 20:13:23","新北市板橋區仁愛路86巷22-1號","121.460866666667","24.9986066666667","6500100","板橋區"
"220106","829-TW","2019/12/05 20:13:33","新北市五股區中興路三段163號","121.449043333333","25.080455","6500100","板橋區"
"220074","895-R6","2019/12/05 20:13:19","新北市板橋區館前西路66號","121.457668333333","25.0070133333333","6500100","板橋區"
"235068","KEA-2876","2019/12/05 20:13:29","新北市中和區景平路736巷5弄3號","121.49736","25.0034233333333","6500300","中和區"
