"lineid","car","time","location","longitude","latitude","cityid","cityname"
"231061","002-UM","2019/12/05 20:59:29","新北市新店區永安街72號","121.51984","24.9866316666667","6500600","新店區"
"231060","106-UY","2019/12/05 20:59:28","新北市新店區安康路三段525巷43號","121.48166","24.94474","6500600","新店區"
"231051","107-UY","2019/12/05 20:59:19","新北市新店區中正路663巷1弄2號","121.532981666667","24.9900666666667","6500600","新店區"
"231049","108-UY","2019/12/05 20:59:22","新北市新店區薏仁坑路2-1號","121.500616666667","24.9580433333333","6500600","新店區"
"231065","110-UY","2019/12/05 20:59:17","新北市新店區安祥路67巷50弄15號","121.484205","24.958865","6500600","新店區"
"231068","187-VK","2019/12/05 20:58:59","新北市新店區寶中路67號","121.547288333333","24.9804783333333","6500600","新店區"
"231050","KEA-2219","2019/12/05 20:59:31","新北市新店區三民路75巷5弄2號","121.535581666667","24.9706533333333","6500600","新店區"
"231062","256-BX","2019/12/05 20:59:28","新北市新店區裕合街55號","121.489036666667","24.9497133333333","6500600","新店區"
"231054","260-TV","2019/12/05 20:59:14","新北市新店區大新街7巷36號","121.544228333333","24.9678","6500600","新店區"
"231042","268-BY","2019/12/05 20:59:15","新北市新店區寶興路60巷3號","121.549873333333","24.9718616666667","6500600","新店區"
"231064","278-BY","2019/12/05 20:59:09","新北市新店區柴埕路100-2號","121.503196666667","24.9594016666667","6500600","新店區"
"231063","641-BX","2019/12/05 20:59:15","新北市新店區玫瑰路47巷1號","121.496333333333","24.9488683333333","6500600","新店區"
"231047","KED-0819","2019/12/05 20:59:31","新北市新店區文化路21巷2號","121.54336","24.979725","6500600","新店區"
"231059","897-TW","2019/12/05 20:59:31","新北市新店區僑信路72號","121.49948","24.9487283333333","6500600","新店區"
"231040","898-TW","2019/12/05 20:59:31","新北市新店區中正路135號","121.541775","24.9714183333333","6500600","新店區"
"231043","899-TW","2019/12/05 20:59:19","新北市新店區安興路33-2號","121.516143333333","24.97057","6500600","新店區"
"231066","AKT-0513","2019/12/05 20:59:15","新北市新店區安康路二段320巷15弄2號","121.504631666667","24.959845","6500600","新店區"
"241011","013-R5","2019/12/05 20:59:32","新北市三重區秀江街117號","121.499723333333","25.0722266666667","6500200","三重區"
"241028","022-UY","2019/12/05 20:59:31","新北市三重區正義南路60-1號","121.498281666667","25.0606183333333","6500200","三重區"
"241008","059-VK","2019/12/05 20:59:24","新北市三重區車路頭街135-1號","121.484265","25.0759516666667","6500200","三重區"
"241031","061-VK","2019/12/05 20:59:23","新北市三重區重陽路一段113巷2弄4號","121.487421666667","25.0600233333333","6500200","三重區"
"241015","062-VK","2019/12/05 20:59:04","新北市三重區福德北路61號","121.50219","25.0655033333333","6500200","三重區"
"241017","063-VK","2019/12/05 20:59:24","新北市三重區大同北路128-1號","121.49254","25.0645066666667","6500200","三重區"
"241024","065-VK","2019/12/05 20:59:17","新北市三重區國道路一段58巷15號","121.481443333333","25.0720833333333","6500200","三重區"
"241007","066-VK","2019/12/05 20:59:16","新北市三重區慈愛街9號","121.485035","25.0786383333333","6500200","三重區"
"241002","090-VK","2019/12/05 20:59:32","新北市三重區五華街9-2號","121.495323333333","25.080065","6500200","三重區"
"241003","091-VK","2019/12/05 20:59:15","新北市三重區仁義街286號","121.493663333333","25.0861716666667","6500200","三重區"
"241005","742-BX","2019/12/05 20:59:32","新北市三重區五華街163號","121.490443333333","25.0851083333333","6500200","三重區"
"241006","262-UM","2019/12/05 20:59:19","新北市三重區永福街249號","121.481103333333","25.0742633333333","6500200","三重區"
"241016","266-UM","2019/12/05 20:57:42","新北市三重區自強路一段184號","121.494906666667","25.0663166666667","6500200","三重區"
"241009","267-UM","2019/12/05 20:59:13","新北市三重區車路頭街128號","121.484143333333","25.0754416666667","6500200","三重區"
"241018","268-UM","2019/12/05 20:59:30","新北市三重區安慶街149巷7號","121.49436","25.0690666666667","6500200","三重區"
"241013","270-UM","2019/12/05 20:59:32","新北市三重區仁賢街12-1號","121.49568","25.07486","6500200","三重區"
"241030","KED-0822","2019/12/05 20:59:26","新北市三重區中正南路269號","121.493225","25.0522933333333","6500200","三重區"
"241004","475-VK","2019/12/05 20:59:27","新北市三重區仁愛街420號","121.4904","25.0814016666667","6500200","三重區"
"241020","478-VK","2019/12/05 20:59:27","新北市三重區忠孝路二段34號","121.485751666667","25.071045","6500200","三重區"
"241026","480-VK","2019/12/05 20:59:32","新北市三重區福德南路154號","121.500623333333","25.0585033333333","6500200","三重區"
"241014","543-UM","2019/12/05 20:58:26","新北市三重區長壽街120巷19弄1號","121.502218333333","25.069145","6500200","三重區"
"241023","545-UM","2019/12/05 20:59:29","新北市三重區洛陽街45巷11號","121.482365","25.0637666666667","6500200","三重區"
"241001","547-UM","2019/12/05 20:59:32","新北市三重區自強路三段87巷35號","121.488846666667","25.0750933333333","6500200","三重區"
"241019","KEA-2593","2019/12/05 20:59:27","新北市三重區自強路二段74巷19號","121.487983333333","25.06991","6500200","三重區"
"241012","743-BX","2019/12/05 20:59:15","新北市三重區龍門路274巷45號","121.501153333333","25.075565","6500200","三重區"
"241022","KED-0820","2019/12/05 20:59:28","新北市三重區中正北路20巷12號","121.487986666667","25.06254","6500200","三重區"
"241025","KED-0670","2019/12/05 20:59:21","新北市三重區貴陽街18-1號","121.484191666667","25.061915","6500200","三重區"
"241029","942-UM","2019/12/05 20:59:15","新北市三重區正義南路111號","121.498225","25.058555","6500200","三重區"
"241033","AAC-255","2019/12/05 20:59:33","新北市三重區光復路二段73號","121.472083333333","25.05692","6500200","三重區"
"235055","183-VK","2019/12/05 20:59:30","新北市五股區凌雲路三段32號","121.43121","25.1080483333333","6500300","中和區"
"247016","KEA-2869","2019/12/05 20:59:25","新北市蘆洲區正和街79號","121.46839","25.080845","6501400","蘆洲區"
"247010","KED-0682","2019/12/05 20:59:23","新北市蘆洲區鷺江街76號","121.477021666667","25.0837983333333","6501400","蘆洲區"
"235069","4980-A6","2019/12/05 20:59:31","新北市中和區員山路351-1號","121.481026666667","25.0018","6500300","中和區"
"247006","893-R6","2019/12/05 20:59:25","新北市蘆洲區永安南路二段16巷8號","121.467881666667","25.0772033333333","6501400","蘆洲區"
"247020","546-UM","2019/12/05 20:59:13","新北市蘆洲區民族路371號","121.47113","25.0912533333333","6501400","蘆洲區"
"247004","336-TH","2019/12/05 20:59:19","新北市蘆洲區永安南路二段270號","121.458355","25.080805","6501400","蘆洲區"
"247024","057-VK","2019/12/05 20:59:19","新北市蘆洲區長興路213號","121.46111","25.0863933333333","6501400","蘆洲區"
"247014","056-VK","2019/12/05 20:59:29","新北市蘆洲區中山二路46巷25弄1號","121.474825","25.0824","6501400","蘆洲區"
"247018","053-VK","2019/12/05 20:59:31","新北市蘆洲區民權路132-2號","121.47331","25.0886816666667","6501400","蘆洲區"
"247008","002-UY","2019/12/05 20:59:13","新北市蘆洲區民生街76號","121.472876666667","25.0790216666667","6501400","蘆洲區"
"247002","001-UY","2019/12/05 20:59:28","新北市蘆洲區永樂街38巷65號","121.45854","25.0903733333333","6501400","蘆洲區"
"251005","010-UM","2019/12/05 20:59:31","新北市淡水區學府路51巷2弄4號","121.447856666667","25.16958","6501000","淡水區"
"251002","012-UM","2019/12/05 20:59:27","新北市淡水區英專路59號","121.445616666667","25.1710533333333","6501000","淡水區"
"251015","KEA-2871","2019/12/05 20:59:25","新北市淡水區淡金路四段542巷17號","121.452863333333","25.2270483333333","6501000","淡水區"
"251016","180-VK","2019/12/05 20:59:21","新北市淡水區牛埔子11-1號","121.450143333333","25.2184466666667","6501000","淡水區"
"251013","182-VK","2019/12/05 20:59:19","新北市淡水區番子厝13號","121.46136","25.2014416666667","6501000","淡水區"
"251010","413-VK","2019/12/05 20:59:20","新北市淡水區淡海路22號","121.424013333333","25.1786333333333","6501000","淡水區"
"251012","441-VK","2019/12/05 20:59:31","新北市淡水區淡金路五段98號","121.456286666667","25.2361416666667","6501000","淡水區"
"251007","442-VK","2019/12/05 20:59:33","新北市淡水區仁愛街2巷10號","121.446311666667","25.1707466666667","6501000","淡水區"
"251001","559-UM","2019/12/05 20:59:27","新北市淡水區北投子14-5號","121.448971666667","25.1832883333333","6501000","淡水區"
"251006","561-UM","2019/12/05 20:58:45","新北市淡水區中正路二段31號","121.419218333333","25.181865","6501000","淡水區"
"251011","650-BX","2019/12/05 20:59:31","新北市淡水區新民街103號","121.436035","25.1809716666667","6501000","淡水區"
"251003","673-BX","2019/12/05 20:59:17","新北市淡水區新春街119號","121.441403333333","25.1821033333333","6501000","淡水區"
"247012","KED-0683","2019/12/05 20:59:26","新北市蘆洲區民權路6號","121.477","25.0854333333333","6501400","蘆洲區"
"242025","362-BY","2019/12/05 20:59:27","新北市八里區下罟子17號","121.380481666667","25.1435433333333","6500500","新莊區"
"242036","348-TH","2019/12/05 20:59:30","新北市新莊區新莊路773號","121.441941666667","25.0324766666667","6500500","新莊區"
"242009","349-TH","2019/12/05 20:59:16","新北市新莊區思源路41號","121.460063333333","25.0398116666667","6500500","新莊區"
"220081","287-VK","2019/12/05 20:57:30","新北市樹林區八德街65-2號","121.40041","24.9693166666667","6500100","板橋區"
