"lineid","car","time","location","longitude","latitude","cityid","cityname"
"244002","248-BX","2019/09/03 07:59:43","新北市林口區下福里56-6號","121.309966666667","25.1145966666667","6501700","林口區"
"222005","289-BY","2019/09/03 07:59:29","新北市深坑區文化街45號","121.616951666667","25.0017283333333","6501800","深坑區"
"231009","515-UM","2019/09/03 07:59:36","新北市新店區行政街14巷1號","121.543223333333","24.9661116666667","6500600","新店區"
"226005","5620-A6","2019/09/03 07:59:39","新北市平溪區靜安路三段86號","121.76955","25.034395","6502400","平溪區"
"226002","7418-A5","2019/09/03 07:59:25","新北市平溪區靜安路三段386號","121.781935","25.0471583333333","6502400","平溪區"
"226006","AGD-0702","2019/09/03 07:59:37","新北市平溪區靜安路三段442號","121.787273333333","25.0549633333333","6502400","平溪區"
"223003","205-TH","2019/09/03 07:51:37","新北市石碇區樟空子10-1號","121.666841666667","24.9632266666667","6501900","石碇區"
"223008","406-TH","2019/09/03 07:42:42","新北市石碇區靜安路一段337號","121.69886","25.0146166666667","6501900","石碇區"
"223001","592-UM","2019/09/03 07:59:46","新北市石碇區橫坪1號","121.669416666667","24.9684433333333","6501900","石碇區"
"223004","660-BX","2019/09/03 07:59:43","新北市深坑區文山路一段8號","121.64415","25.008625","6501900","石碇區"
"223007","661-BX","2019/09/03 07:43:02","新北市石碇區靜安路一段337號","121.69878","25.0145733333333","6501900","石碇區"
"227004","282-VK","2019/09/03 07:59:45","新北市雙溪區平林里梅竹蹊16號","121.86202","25.0359583333333","6502500","雙溪區"
"252004","249-BX","2019/09/03 07:59:34","新北市三芝區興華里車埕36-21號","121.505795","25.1929966666667","6502100","三芝區"
"252007","AAC-283","2019/09/03 07:59:25","新北市三芝區後厝里土地公坑999號","121.464571666667","25.24873","6502100","三芝區"
"237014","760-BX","2019/09/03 07:59:34","新北市三峽區紫微路139號","121.406175","24.91119","6500900","三峽區"
