"lineid","car","time","location","longitude","latitude","cityid","cityname"
"231009","515-UM","2019/09/03 09:59:36","新北市新店區小坑一路22號","121.532538333333","24.9136","6500600","新店區"
"227004","282-VK","2019/09/03 09:51:45","新北市雙溪區長源里柑腳58-1號","121.794066666667","25.00663","6502500","雙溪區"
"227006","030-BX","2019/09/03 09:59:33","新北市雙溪區泰平里烏山路15號","121.795786666667","24.9499366666667","6502500","雙溪區"
"252004","249-BX","2019/09/03 09:59:34","新北市三芝區福德里埔尾38號","121.510431666667","25.2347183333333","6502100","三芝區"
"252007","AAC-283","2019/09/03 09:59:45","新北市三芝區新庄里番社后43號","121.505466666667","25.271755","6502100","三芝區"
"237014","760-BX","2019/09/03 09:59:34","新北市三峽區安坑2號","121.437665","24.9268766666667","6500900","三峽區"
