"lineid","car","time","location","longitude","latitude","cityid","cityname"
"231009","515-UM","2019/09/03 10:18:15","新北市新店區成功路126號","121.533791666667","24.8947083333333","6500600","新店區"
"241002","090-VK","2019/09/03 10:19:31","新北市三重區成功路187號","121.485371666667","25.0524533333333","6500200","三重區"
"227004","282-VK","2019/09/03 10:19:25","新北市雙溪區長源里盤山坑2-1號","121.786198333333","25.002425","6502500","雙溪區"
"227006","030-BX","2019/09/03 10:19:33","新北市雙溪區泰平里烏山路13-1號","121.793885","24.9496716666667","6502500","雙溪區"
"252007","AAC-283","2019/09/03 10:19:45","新北市三芝區埔頭里埔頭49號","121.501315","25.2623783333333","6502100","三芝區"
"237014","760-BX","2019/09/03 10:19:34","新北市三峽區隆恩街188號","121.361376666667","24.9425216666667","6500900","三峽區"
