"lineid","car","time","location","longitude","latitude","cityid","cityname"
"234044","148-BY","2019/09/03 12:59:45","新北市永和區得和路373巷31弄9號","121.524636666667","25.0006766666667","6500400","永和區"
"234078","298-R6","2019/09/03 12:59:36","新北市永和區永亨路61號","121.521078333333","25.006045","6500400","永和區"
"234036","336-UY","2019/09/03 12:59:42","新北市永和區成功路二段207號","121.526598333333","24.9959316666667","6500400","永和區"
"234062","337-UY","2019/09/03 12:59:42","新北市永和區秀朗路一段160號","121.518401666667","25.00336","6500400","永和區"
"234084","338-UY","2019/09/03 12:59:30","新北市永和區永寧街125號","121.518101666667","25.0054616666667","6500400","永和區"
"234068","552-UM","2019/09/03 12:59:35","新北市永和區中興街84巷1號","121.518508333333","25.0119316666667","6500400","永和區"
"234015","745-BX","2019/09/03 12:59:28","新北市永和區永和路二段299號","121.516113333333","25.0161183333333","6500400","永和區"
"234028","746-BX","2019/09/03 12:59:42","新北市永和區秀朗路二段289號","121.526205","24.9980816666667","6500400","永和區"
"234052","KEA-2590","2019/09/03 12:59:37","新北市永和區竹林路64號","121.518271666667","25.01348","6500400","永和區"
"234005","KED-0605","2019/09/03 12:59:33","新北市永和區中山路一段30號","121.513658333333","25.0105616666667","6500400","永和區"
"234012","KEA-2591","2019/09/03 12:59:41","新北市永和區中山路一段60巷8號","121.5131","25.011085","6500400","永和區"
"234060","AAD-866","2019/09/03 12:59:29","新北市永和區福和路309巷1號","121.516276666667","25.006995","6500400","永和區"
"234040","862-TW","2019/09/03 12:59:43","新北市永和區永貞路267號","121.511851666667","25.004775","6500400","永和區"
"234048","863-TW","2019/09/03 12:59:33","新北市永和區文化路194號","121.510766666667","25.016265","6500400","永和區"
"234025","9371-KE","2019/09/03 12:59:40","新北市永和區水源街2巷8弄3號","121.51248","25.0055583333333","6500400","永和區"
"234010","9373-KE","2019/09/03 12:59:33","新北市永和區文化路9巷22弄77號","121.513786666667","25.01432","6500400","永和區"
"248017","KED-0813","2019/09/03 12:59:27","新北市五股區中興路二段63巷17號","121.460266666667","25.0753216666667","6501500","五股區"
"234022","9380-KE","2019/09/03 12:59:38","新北市永和區竹林路75巷15-1號","121.519648333333","25.0136783333333","6500400","永和區"
"234076","969-R7","2019/09/03 12:59:42","新北市永和區民享街11號","121.515283333333","24.9953733333333","6500400","永和區"
"234066","AAC-212","2019/09/03 12:59:38","新北市永和區自由街47號","121.514033333333","25.0059566666667","6500400","永和區"
"234001","AAC-295","2019/09/03 12:59:31","新北市永和區永平路38號","121.513045","25.0088216666667","6500400","永和區"
"231005","046-UY","2019/09/03 12:59:31","新北市新店區安華路1-1號","121.519195","24.9605316666667","6500600","新店區"
"231003","047-UY","2019/09/03 12:59:31","新北市新店區安一路一段1-1號","121.519801666667","24.9613583333333","6500600","新店區"
"231029","106-UY","2019/09/03 12:59:46","新北市新店區安華路28-1號","121.519571666667","24.9607766666667","6500600","新店區"
"231018","107-UY","2019/09/03 12:59:30","新北市新店區安一路一段1-1號","121.519123333333","24.961375","6500600","新店區"
"231036","110-UY","2019/09/03 12:59:42","新北市新店區安一路一段1-1號","121.518873333333","24.9613766666667","6500600","新店區"
"231023","260-TV","2019/09/03 12:59:44","新北市新店區安一路一段1-1號","121.519123333333","24.9613533333333","6500600","新店區"
"231035","278-BY","2019/09/03 12:59:25","新北市新店區安一路一段1-1號","121.519723333333","24.961155","6500600","新店區"
"231015","AAD-862","2019/09/03 12:59:42","新北市新店區安一路一段1-1號","121.51963","24.9612233333333","6500600","新店區"
"231024","4716-K9","2019/09/03 12:59:38","新北市新店區安華路28-1號","121.519798333333","24.960595","6500600","新店區"
"231025","4715-K9","2019/09/03 12:59:25","新北市新店區安華路1-1號","121.519253333333","24.9604016666667","6500600","新店區"
"231020","515-UM","2019/09/03 12:59:42","新北市新店區安一路一段1-1號","121.519106666667","24.961265","6500600","新店區"
"231001","617-UM","2019/09/03 12:59:30","新北市新店區安華路28-1號","121.519416666667","24.9606566666667","6500600","新店區"
"231002","619-UM","2019/09/03 12:59:37","新北市新店區安華路28-1號","121.519506666667","24.960765","6500600","新店區"
"231012","KED-0819","2019/09/03 12:59:44","新北市新店區安一路一段1-1號","121.519673333333","24.9612566666667","6500600","新店區"
"231010","719-UM","2019/09/03 12:59:31","新北市新店區安一路一段1-1號","121.51926","24.9611066666667","6500600","新店區"
"231026","720-UM","2019/09/03 12:59:42","新北市新店區安一路一段1-1號","121.518995","24.9612766666667","6500600","新店區"
"235066","003-UY","2019/09/03 12:59:41","新北市中和區員山路36巷16-3號","121.485023333333","24.9912333333333","6500300","中和區"
"235027","006-UY","2019/09/03 12:59:41","新北市中和區員山路36巷16-2號","121.48523","24.9913316666667","6500300","中和區"
"235029","098-UM","2019/09/03 12:59:43","新北市中和區橋和路274號","121.496001666667","25.00669","6500300","中和區"
"235022","151-BY","2019/09/03 12:59:38","新北市中和區圓通路367巷33弄33號","121.494606666667","24.98544","6500300","中和區"
"235002","185-VK","2019/09/03 12:59:45","新北市中和區秀朗路三段10巷14弄26-6號","121.52498","24.9971166666667","6500300","中和區"
"235031","255-BX","2019/09/03 12:59:25","新北市中和區中山路二段550號","121.483875","25.0053466666667","6500300","中和區"
"235006","KEA-2878","2019/09/03 12:59:31","新北市中和區員山路36巷16-2號","121.48536","24.9916533333333","6500300","中和區"
"235001","565-BX","2019/09/03 12:59:41","新北市中和區員山路36巷13號","121.484368333333","24.9913566666667","6500300","中和區"
"235035","783-BX","2019/09/03 12:59:29","新北市中和區新生街288號","121.483661666667","24.99656","6500300","中和區"
"235026","800-TS","2019/09/03 12:59:36","新北市中和區連城路287號","121.490266666667","24.9963233333333","6500300","中和區"
"235021","801-TS","2019/09/03 12:59:39","新北市中和區員山路36巷16-3號","121.485151666667","24.9913966666667","6500300","中和區"
"235012","896-TW","2019/09/03 12:59:31","新北市中和區員山路36巷16-2號","121.48531","24.991565","6500300","中和區"
"235028","911-UM","2019/09/03 12:59:41","新北市中和區中正路275號","121.495503333333","24.993745","6500300","中和區"
"235015","157-BY","2019/09/03 12:59:25","新北市中和區員山路36巷13號","121.484051666667","24.9908983333333","6500300","中和區"
"235001","AAC-213","2019/09/03 12:59:41","新北市中和區景平路288號","121.513323333333","24.9925566666667","6500300","中和區"
"228005","097-TW","2019/09/03 12:59:28","新北市貢寮區福隆里桂安街18號","121.95763","25.0196616666667","6502600","貢寮區"
"228004","212-TW","2019/09/03 12:59:37","新北市貢寮區吉林里內寮街57號","121.886663333333","24.987025","6502600","貢寮區"
"207002","749-BX","2019/09/03 12:59:38","新北市萬里區雙興里大坪路1-1號","121.63885","25.16547","6502800","萬里區"
"207001","662-BX","2019/09/03 12:59:41","新北市萬里區萬里里獅頭路22-1號","121.693061666667","25.1782733333333","6502800","萬里區"
"252005","AAC-283","2019/09/03 12:59:30","新北市三芝區埔坪里埔頭坑41號","121.504635","25.26356","6502100","三芝區"
"221029","298-VK","2019/09/03 12:59:35","新北市汐止區康寧街901號","121.651686666667","25.0749616666667","6501100","汐止區"
"235032","KEA-2873","2019/09/03 12:59:43","新北市中和區員山路36巷16-3號","121.484991666667","24.991305","6500300","中和區"
"235025","KEA-2875","2019/09/03 12:59:34","新北市中和區員山路36巷16-2號","121.485121666667","24.9917283333333","6500300","中和區"
