"lineid","car","time","location","longitude","latitude","cityid","cityname"
"231030","002-UM","2019/09/03 15:49:30","新北市新店區永安街43號","121.517806666667","24.98675","6500600","新店區"
"231003","047-UY","2019/09/03 15:49:31","新北市新店區寶興路60巷4號","121.549733333333","24.9719433333333","6500600","新店區"
"231018","107-UY","2019/09/03 15:49:30","新北市新店區中正路663巷7弄15號","121.53293","24.99013","6500600","新店區"
"231013","108-UY","2019/09/03 15:49:40","新北市新店區華潭街31號","121.529973333333","24.9546783333333","6500600","新店區"
"231039","187-VK","2019/09/03 15:49:31","新北市新店區安平路53-2號","121.520418333333","24.96611","6500600","新店區"
"231032","256-BX","2019/09/03 15:49:42","新北市新店區雙城路137號","121.4944","24.9451133333333","6500600","新店區"
"231023","260-TV","2019/09/03 15:49:44","新北市新店區安康路一段258號","121.520286666667","24.9639983333333","6500600","新店區"
"231035","278-BY","2019/09/03 15:49:45","新北市新店區安民街365巷8號","121.516121666667","24.97574","6500600","新店區"
"231015","AAD-862","2019/09/03 15:49:42","新北市新店區中華路83號","121.539495","24.9685966666667","6500600","新店區"
"231020","515-UM","2019/09/03 15:49:41","新北市新店區新烏路一段85巷2-1號","121.548588333333","24.9422916666667","6500600","新店區"
"231034","616-UM","2019/09/03 15:49:41","新北市新店區吉祥街3巷1號","121.497193333333","24.9481766666667","6500600","新店區"
"231026","720-UM","2019/09/03 15:49:40","新北市新店區中正路485號","121.533861666667","24.9819","6500600","新店區"
"231037","AKT-0513","2019/09/03 15:49:40","新北市新店區安興路69-1號","121.51572","24.974885","6500600","新店區"
"241011","013-R5","2019/09/03 15:49:41","新北市三重區文化北路135號","121.497728333333","25.0690966666667","6500200","三重區"
"241028","022-UY","2019/09/03 15:49:30","新北市三重區中正南路47號","121.494015","25.059615","6500200","三重區"
"241015","062-VK","2019/09/03 15:49:43","新北市三重區重新路四段121號","121.4852","25.0519083333333","6500200","三重區"
"241017","063-VK","2019/09/03 15:49:28","新北市三重區大仁街38號","121.491585","25.0643433333333","6500200","三重區"
"241024","065-VK","2019/09/03 15:49:34","新北市三重區重新路四段121號","121.484723333333","25.0525483333333","6500200","三重區"
"241007","066-VK","2019/09/03 15:49:48","新北市三重區三和路四段101巷18號","121.48871","25.0770466666667","6500200","三重區"
"241002","090-VK","2019/09/03 15:49:32","新北市三重區重新路四段121號","121.484783333333","25.0518766666667","6500200","三重區"
"241016","266-UM","2019/09/03 15:49:34","新北市三重區重新路四段121號","121.485101666667","25.0519433333333","6500200","三重區"
"241009","267-UM","2019/09/03 15:49:30","新北市三重區忠孝路三段1號","121.481851666667","25.0677316666667","6500200","三重區"
"241018","268-UM","2019/09/03 15:49:32","新北市三重區重新路四段121號","121.485365","25.05203","6500200","三重區"
"241032","269-UM","2019/09/03 15:49:26","新北市三重區三陽路100巷3弄13號","121.483058333333","25.058145","6500200","三重區"
"241013","270-UM","2019/09/03 15:49:37","新北市三重區三和路三段44號","121.495758333333","25.07087","6500200","三重區"
"241020","478-VK","2019/09/03 15:49:27","新北市三重區忠孝路二段63號","121.484981666667","25.0705566666667","6500200","三重區"
"241026","480-VK","2019/09/03 15:49:27","新北市三重區重新路四段121號","121.484833333333","25.0525066666667","6500200","三重區"
"241014","543-UM","2019/09/03 15:49:28","新北市三重區重新路四段121號","121.485093333333","25.0517783333333","6500200","三重區"
"241005","AAD-863","2019/09/03 15:49:28","新北市三重區重新路四段121號","121.484645","25.052195","6500200","三重區"
"241022","KED-0820","2019/09/03 15:49:32","新北市三重區新北大道一段250號","121.479866666667","25.061385","6500200","三重區"
"241023","887-TS","2019/09/03 15:49:46","新北市三重區忠孝路三段84巷3號","121.480663333333","25.0645866666667","6500200","三重區"
"241012","941-UM","2019/09/03 15:49:29","新北市三重區正義北路107巷68號","121.498593333333","25.0659733333333","6500200","三重區"
"241029","942-UM","2019/09/03 15:49:34","新北市三重區大同南路159-1號","121.49689","25.0556466666667","6500200","三重區"
"241033","AAC-255","2019/09/03 15:49:39","新北市三重區五谷王北街46-5號","121.474241666667","25.0506266666667","6500200","三重區"
"235033","4980-A6","2019/09/03 15:49:39","新北市中和區連城路523巷11弄28號","121.482436666667","24.99403","6500300","中和區"
"235023","AAC-215","2019/09/03 15:49:35","新北市中和區員山路47號","121.481348333333","24.99263","6500300","中和區"
"220013","072-UY","2019/09/03 15:49:36","新北市樹林區八德街648號","121.396728333333","24.9691383333333","6500100","板橋區"
"220034","073-UY","2019/09/03 15:49:29","新北市樹林區中山路三段202-1號","121.38571","24.9683333333333","6500100","板橋區"
"224007","285-BY","2019/09/03 15:49:34","新北市瑞芳區大寮路356-1號","121.78481","25.1032483333333","6501200","瑞芳區"
"224005","271-BY","2019/09/03 15:49:43","新北市瑞芳區明燈路二段66號","121.809405","25.107545","6501200","瑞芳區"
"227001","642-TC","2019/09/03 15:49:44","新北市雙溪區三港里雙澳路12號","121.869473333333","25.0483183333333","6502500","雙溪區"
"227002","400-TW","2019/09/03 15:49:36","新北市雙溪區平林里外平林46號","121.850846666667","25.0357016666667","6502500","雙溪區"
"236074","166-UM","2019/09/03 15:49:32","新北市土城區民權街17號","121.413965","24.96367","6501300","土城區"
"236024","269-VK","2019/09/03 15:49:33","新北市土城區裕生路82巷4號","121.447223333333","24.985765","6501300","土城區"
"236013","270-VK","2019/09/03 15:49:46","新北市土城區廣明街23巷19號","121.45502","24.9922183333333","6501300","土城區"
"236065","KEA-2877","2019/09/03 15:49:46","新北市土城區大安路37-1號","121.432746666667","24.9661333333333","6501300","土城區"
"236057","912-UM","2019/09/03 15:49:26","新北市土城區中央路二段133號","121.442108333333","24.9771583333333","6501300","土城區"
"236054","AAC-216","2019/09/03 15:49:41","新北市土城區中華路一段301號","121.439791666667","24.9797683333333","6501300","土城區"
"235026","KEA-2876","2019/09/03 15:49:46","新北市中和區建八路140號","121.489611666667","24.99858","6500300","中和區"
