"lineid","car","time","location","longitude","latitude","cityid","cityname"
"249002","305-UY","2019/09/03 16:29:42","新北市八里區忠孝路272-1號","121.420265","25.1611133333333","6502300","八里區"
"249003","593-UM","2019/09/03 16:29:06","新北市八里區中華路二段39號","121.411556666667","25.1529866666667","6502300","八里區"
"231046","719-UM","2019/09/03 16:29:39","新北市新店區灣潭路3-3號","121.538243333333","24.950795","6500600","新店區"
"241011","013-R5","2019/09/03 16:29:41","新北市三重區龍濱路269號","121.501368333333","25.0728716666667","6500200","三重區"
"241028","022-UY","2019/09/03 16:29:30","新北市三重區泉州街44-1號","121.494651666667","25.0553316666667","6500200","三重區"
"241008","059-VK","2019/09/03 16:29:31","新北市三重區力行路二段136巷45弄10號","121.479121666667","25.0753283333333","6500200","三重區"
"241031","061-VK","2019/09/03 16:29:24","新北市三重區重陽路一段68號","121.486598333333","25.05844","6500200","三重區"
"241015","062-VK","2019/09/03 16:29:43","新北市三重區信義街73號","121.501621666667","25.0651016666667","6500200","三重區"
"241017","063-VK","2019/09/03 16:29:28","新北市三重區大同北路91號","121.49479","25.0636233333333","6500200","三重區"
"241024","065-VK","2019/09/03 16:29:34","新北市三重區中正北路193巷37號","121.47587","25.070865","6500200","三重區"
"241007","066-VK","2019/09/03 16:29:37","新北市三重區三和路四段181巷159號","121.486211666667","25.0799916666667","6500200","三重區"
"241002","090-VK","2019/09/03 16:29:32","新北市三重區五華街39號","121.494523333333","25.08099","6500200","三重區"
"241003","091-VK","2019/09/03 16:29:28","新北市三重區五華街57巷32號","121.49389","25.0831983333333","6500200","三重區"
"241004","742-BX","2019/09/03 16:29:31","新北市三重區仁愛街377巷19號","121.492475","25.080795","6500200","三重區"
"241006","262-UM","2019/09/03 16:29:24","新北市三重區永福街28號","121.482446666667","25.0780783333333","6500200","三重區"
"241016","266-UM","2019/09/03 16:29:34","新北市三重區大智街21號","121.494253333333","25.065755","6500200","三重區"
"241009","267-UM","2019/09/03 16:29:30","新北市三重區三和路四段191巷70號","121.48399","25.0796716666667","6500200","三重區"
"241018","268-UM","2019/09/03 16:29:32","新北市三重區重陽路四段126巷8號","121.492151666667","25.0709783333333","6500200","三重區"
"241032","269-UM","2019/09/03 16:29:26","新北市三重區三陽路116巷4號","121.48305","25.05818","6500200","三重區"
"241013","270-UM","2019/09/03 16:29:37","新北市三重區三和路三段103號","121.494475","25.072475","6500200","三重區"
"241025","271-UM","2019/09/03 16:29:32","新北市三重區中正北路560巷100弄17號","121.472658333333","25.068675","6500200","三重區"
"241030","KED-0822","2019/09/03 16:29:45","新北市三重區成功路91號","121.4882","25.0513233333333","6500200","三重區"
"241020","478-VK","2019/09/03 16:29:27","新北市三重區車路頭街49號","121.483983333333","25.0721083333333","6500200","三重區"
"241026","480-VK","2019/09/03 16:29:47","新北市三重區光興街1號","121.500316666667","25.060405","6500200","三重區"
"241014","543-UM","2019/09/03 16:29:28","新北市三重區河邊北街82號","121.504315","25.0689533333333","6500200","三重區"
"241001","547-UM","2019/09/03 16:29:43","新北市三重區福隆路47號","121.490813333333","25.07764","6500200","三重區"
"241019","KEA-2593","2019/09/03 16:29:45","新北市三重區重陽路三段89號","121.490055","25.0676533333333","6500200","三重區"
"241005","AAD-863","2019/09/03 16:29:28","新北市三重區仁華街107號","121.48631","25.0829466666667","6500200","三重區"
"241022","KED-0820","2019/09/03 16:29:31","新北市三重區重陽路二段1號","121.486875","25.0616266666667","6500200","三重區"
"241023","887-TS","2019/09/03 16:29:26","新北市三重區忠孝路三段50巷84號","121.483015","25.0644683333333","6500200","三重區"
"241012","941-UM","2019/09/03 16:29:29","新北市三重區河邊北街353號","121.502111666667","25.07564","6500200","三重區"
"241029","942-UM","2019/09/03 16:29:34","新北市三重區集美街192號","121.490748333333","25.0535983333333","6500200","三重區"
"241033","AAC-255","2019/09/03 16:29:39","新北市三重區光復路一段61巷24弄15-2號","121.474045","25.05042","6500200","三重區"
"235064","911-UM","2019/09/03 16:29:35","新北市中和區員山路36巷16-3號","121.485005","24.9913766666667","6500300","中和區"
"247014","056-VK","2019/09/03 16:29:26","新北市五股區中興路三段163號","121.44934","25.0807466666667","6501400","蘆洲區"
"224007","285-BY","2019/09/03 16:29:37","新北市瑞芳區瑞竹路69-1號","121.763958333333","25.1029083333333","6501200","瑞芳區"
"224009","275-VK","2019/09/03 16:25:34","新北市瑞芳區民權街3-1號","121.80931","25.1083083333333","6501200","瑞芳區"
"224005","271-BY","2019/09/03 16:29:42","新北市瑞芳區連福新城123-3號","121.821281666667","25.1194683333333","6501200","瑞芳區"
"227001","642-TC","2019/09/03 16:29:44","新北市雙溪區牡丹里五分11號","121.865243333333","25.04781","6502500","雙溪區"
"227002","400-TW","2019/09/03 16:29:36","新北市雙溪區外柑里外柑腳38號","121.80891","25.0181566666667","6502500","雙溪區"
"251015","KEA-2871","2019/09/03 16:29:37","新北市淡水區中正路二段31號","121.419538333333","25.18174","6501000","淡水區"
"251016","179-VK","2019/09/03 16:29:34","新北市淡水區中正路二段12號","121.420286666667","25.1805016666667","6501000","淡水區"
"251013","180-VK","2019/09/03 16:29:31","新北市淡水區北新路三段171-1號","121.491878333333","25.1914983333333","6501000","淡水區"
"251008","181-VK","2019/09/03 16:29:39","新北市淡水區中正東路二段37號","121.459193333333","25.1562183333333","6501000","淡水區"
"251014","577-R6","2019/09/03 16:29:32","新北市淡水區下圭柔山431-1號","121.449933333333","25.2104933333333","6501000","淡水區"
"252001","KED-0821","2019/09/03 16:29:43","新北市三芝區埔坪里埔頭坑41號","121.504658333333","25.26461","6502100","三芝區"
"235062","KEA-2876","2019/09/03 16:29:32","新北市中和區員山路36巷16-2號","121.48515","24.99148","6500300","中和區"
