"lineid","car","time","location","longitude","latitude","cityid","cityname"
"249005","172-UM","2019/09/03 17:09:28","新北市八里區華富山8號","121.420888333333","25.141215","6502300","八里區"
"249001","173-UM","2019/09/03 17:09:35","新北市八里區中華路二段201-1號","121.405263333333","25.1494066666667","6502300","八里區"
"249004","303-UY","2019/09/03 17:09:26","新北市八里區忠孝路133號","121.42413","25.160725","6502300","八里區"
"249002","305-UY","2019/09/03 17:09:42","新北市八里區米倉18號","121.44008","25.1500433333333","6502300","八里區"
"249003","593-UM","2019/09/03 17:09:46","新北市八里區中山路二段405號","121.397861666667","25.1466483333333","6502300","八里區"
"244007","080-UY","2019/09/03 17:09:23","新北市林口區菁埔4-3號","121.379238333333","25.0959833333333","6501700","林口區"
"244019","402-UM","2019/09/03 17:09:43","新北市林口區公園路223巷1號","121.373948333333","25.0748766666667","6501700","林口區"
"244013","KEA-2802","2019/09/03 17:09:33","新北市林口區粉寮69號","121.404815","25.0907816666667","6501700","林口區"
"244017","485-VK","2019/09/03 17:09:43","新北市林口區粉寮69號","121.40508","25.090835","6501700","林口區"
"244009","656-BX","2019/09/03 17:09:41","新北市林口區中華路555號","121.38238","25.0915866666667","6501700","林口區"
"244011","701-TV","2019/09/03 17:09:29","新北市林口區中山路1號","121.396998333333","25.0779333333333","6501700","林口區"
"244025","837-TS","2019/09/03 17:09:34","新北市林口區林口路50號","121.390533333333","25.0789183333333","6501700","林口區"
"244021","838-TS","2019/09/03 17:09:37","新北市林口區粉寮路二段457號","121.40452","25.0984883333333","6501700","林口區"
"231046","719-UM","2019/09/03 17:07:19","新北市新店區新潭路一段1-1號","121.523813333333","24.9452383333333","6500600","新店區"
"241011","013-R5","2019/09/03 17:09:41","新北市三重區河邊北街110巷5號","121.503695","25.0710716666667","6500200","三重區"
"241028","022-UY","2019/09/03 17:09:30","新北市三重區重新路三段108號","121.492311666667","25.0603716666667","6500200","三重區"
"241008","059-VK","2019/09/03 17:09:31","新北市三重區力行路二段138-1號","121.482363333333","25.0757383333333","6500200","三重區"
"241031","061-VK","2019/09/03 17:09:45","新北市三重區重陽路一段113巷1弄1號","121.487278333333","25.0598866666667","6500200","三重區"
"241015","062-VK","2019/09/03 17:09:43","新北市三重區長生街25號","121.499533333333","25.0663866666667","6500200","三重區"
"241017","063-VK","2019/09/03 17:09:28","新北市三重區國隆路25號","121.493135","25.0641166666667","6500200","三重區"
"241024","065-VK","2019/09/03 17:09:34","新北市三重區大勇街82巷13號","121.479603333333","25.07172","6500200","三重區"
"241007","066-VK","2019/09/03 17:09:37","新北市三重區三和路四段153號","121.483963333333","25.0782266666667","6500200","三重區"
"241002","090-VK","2019/09/03 17:09:32","新北市三重區自強路五段29號","121.493448333333","25.0809483333333","6500200","三重區"
"241003","091-VK","2019/09/03 17:09:28","新北市三重區富福街102號","121.493235","25.0854633333333","6500200","三重區"
"241004","742-BX","2019/09/03 17:09:31","新北市三重區五華街122巷13號","121.491245","25.08292","6500200","三重區"
"241006","262-UM","2019/09/03 17:09:44","新北市三重區力行路二段123巷14號","121.483795","25.07648","6500200","三重區"
"241016","266-UM","2019/09/03 17:09:34","新北市三重區大同北路54巷5號","121.493976666667","25.0634366666667","6500200","三重區"
"241009","267-UM","2019/09/03 17:09:30","新北市三重區仁愛街668號","121.482371666667","25.0802666666667","6500200","三重區"
"241018","268-UM","2019/09/03 17:09:32","新北市三重區六張街128號","121.491943333333","25.06965","6500200","三重區"
"241032","269-UM","2019/09/03 17:09:26","新北市三重區三陽路13巷10號","121.486011666667","25.0594933333333","6500200","三重區"
"241013","270-UM","2019/09/03 17:09:37","新北市三重區仁福街23號","121.496258333333","25.0743716666667","6500200","三重區"
"241025","271-UM","2019/09/03 17:09:32","新北市三重區中正北路560巷89號","121.470953333333","25.068625","6500200","三重區"
"241030","KED-0822","2019/09/03 17:09:25","新北市三重區集成路31號","121.489001666667","25.0524966666667","6500200","三重區"
"241020","478-VK","2019/09/03 17:09:27","新北市三重區自強路三段18號","121.486931666667","25.0721966666667","6500200","三重區"
"241026","480-VK","2019/09/03 17:09:47","新北市三重區重新路一段51-1號","121.50191","25.063845","6500200","三重區"
"241014","543-UM","2019/09/03 17:09:28","新北市三重區龍濱路189號","121.50203","25.0710016666667","6500200","三重區"
"241001","547-UM","2019/09/03 17:09:43","新北市三重區仁愛街269巷6-1號","121.493328333333","25.0789183333333","6500200","三重區"
"241019","KEA-2593","2019/09/03 17:09:45","新北市三重區三張街120號","121.487215","25.0697766666667","6500200","三重區"
"241005","AAD-863","2019/09/03 17:09:28","新北市三重區永安北路二段25巷60號","121.483518333333","25.0821733333333","6500200","三重區"
"241022","KED-0820","2019/09/03 17:09:31","新北市三重區重陽路二段34巷66號","121.485011666667","25.064055","6500200","三重區"
"241023","887-TS","2019/09/03 17:09:46","新北市三重區忠孝路三段84巷1號","121.48032","25.0646283333333","6500200","三重區"
"241012","941-UM","2019/09/03 17:09:29","新北市三重區龍門路274巷31號","121.501298333333","25.0750733333333","6500200","三重區"
"241029","942-UM","2019/09/03 17:09:34","新北市三重區重新路四段65號","121.487255","25.057025","6500200","三重區"
"241033","AAC-255","2019/09/03 17:09:39","新北市三重區中興北街271號","121.469131666667","25.0606066666667","6500200","三重區"
"247016","KEA-2869","2019/09/03 17:09:41","新北市蘆洲區光華路73巷29號","121.468701666667","25.0819466666667","6501400","蘆洲區"
"247010","KED-0682","2019/09/03 17:09:32","新北市蘆洲區民族路22號","121.476075","25.0841483333333","6501400","蘆洲區"
"235064","911-UM","2019/09/03 17:09:46","新北市中和區員山路36巷16-3號","121.485143333333","24.991225","6500300","中和區"
"247006","893-R6","2019/09/03 17:09:29","新北市蘆洲區中華街6巷28號","121.462811666667","25.0821533333333","6501400","蘆洲區"
"247020","546-UM","2019/09/03 17:09:30","新北市蘆洲區仁愛街42-8號","121.472686666667","25.0938316666667","6501400","蘆洲區"
"247012","337-TH","2019/09/03 17:09:30","新北市蘆洲區信義路268號","121.478213333333","25.0869066666667","6501400","蘆洲區"
"247004","336-TH","2019/09/03 17:09:43","新北市蘆洲區長安街193巷14號","121.459806666667","25.0816333333333","6501400","蘆洲區"
"247024","057-VK","2019/09/03 17:09:42","新北市蘆洲區長興路15號","121.464126666667","25.0829566666667","6501400","蘆洲區"
"247014","056-VK","2019/09/03 17:09:26","新北市蘆洲區中央路37巷15-11號","121.473276666667","25.0825916666667","6501400","蘆洲區"
"247018","053-VK","2019/09/03 17:09:41","新北市蘆洲區民族路278-1號","121.478393333333","25.0893433333333","6501400","蘆洲區"
"247022","007-UY","2019/09/03 17:09:31","新北市蘆洲區民族路377號","121.470068333333","25.090455","6501400","蘆洲區"
"247008","002-UY","2019/09/03 17:09:34","新北市蘆洲區信義路30巷15號","121.474496666667","25.0787083333333","6501400","蘆洲區"
"247002","001-UY","2019/09/03 17:09:25","新北市蘆洲區永樂街104號","121.456118333333","25.088755","6501400","蘆洲區"
"228003","097-TW","2019/09/03 17:09:30","新北市貢寮區福隆里東興街6-3號","121.951561666667","25.019995","6502600","貢寮區"
"228001","212-TW","2019/09/03 17:09:31","新北市貢寮區仁理村研海街45號","121.926903333333","25.0395816666667","6502600","貢寮區"
"228002","663-BX","2019/09/03 17:09:35","新北市貢寮區龍崗里泮宮路33號","121.907876666667","25.017555","6502600","貢寮區"
"224006","676-BX","2019/09/03 17:09:39","新北市瑞芳區楓子瀨路112-1號","121.778551666667","25.099345","6501200","瑞芳區"
"224009","275-VK","2019/09/03 17:09:40","新北市瑞芳區輕便路136號","121.842955","25.1141016666667","6501200","瑞芳區"
"224008","273-VK","2019/09/03 17:09:44","新北市瑞芳區侯硐路105號","121.83049","25.0893316666667","6501200","瑞芳區"
"224005","271-BY","2019/09/03 17:09:42","新北市瑞芳區鼻頭路127號","121.916686666667","25.1218333333333","6501200","瑞芳區"
"227001","642-TC","2019/09/03 17:08:04","新北市雙溪區三貂里政光路13-5號","121.850761666667","25.0702116666667","6502500","雙溪區"
"227002","400-TW","2019/09/03 17:09:36","新北市雙溪區上林里內平林12號","121.837256666667","25.0299383333333","6502500","雙溪區"
"251004","009-UM","2019/09/03 17:09:40","新北市淡水區中正東路一段125號","121.45498","25.15939","6501000","淡水區"
"251015","KEA-2871","2019/09/03 17:09:37","新北市淡水區學府路102巷30號","121.4519","25.17159","6501000","淡水區"
"251016","179-VK","2019/09/03 17:09:35","新北市淡水區鄒厝崙1-8號","121.474678333333","25.1868016666667","6501000","淡水區"
"251013","180-VK","2019/09/03 17:09:37","新北市淡水區桂花樹1號","121.482861666667","25.1966333333333","6501000","淡水區"
"251008","181-VK","2019/09/03 17:09:39","新北市淡水區樹梅坑6-10號","121.47311","25.1460533333333","6501000","淡水區"
"251010","413-VK","2019/09/03 17:09:43","新北市淡水區中正路二段31號","121.419163333333","25.1819616666667","6501000","淡水區"
"251012","441-VK","2019/09/03 17:09:29","新北市淡水區水碓街37號","121.443616666667","25.1776766666667","6501000","淡水區"
"251007","442-VK","2019/09/03 17:09:29","新北市淡水區民權路20號","121.459876666667","25.1378883333333","6501000","淡水區"
"251005","443-VK","2019/09/03 17:09:38","新北市淡水區鄧公路19-1號","121.45027","25.1699383333333","6501000","淡水區"
"251006","561-UM","2019/09/03 17:09:39","新北市淡水區真理街6號","121.438426666667","25.1745133333333","6501000","淡水區"
"251009","575-R6","2019/09/03 17:09:33","新北市淡水區中正路一段87巷1號","121.421773333333","25.1790566666667","6501000","淡水區"
"251014","577-R6","2019/09/03 17:09:32","新北市淡水區八里堆8-3號","121.46128","25.2244666666667","6501000","淡水區"
"251011","650-BX","2019/09/03 17:09:39","新北市淡水區坪頂路49號","121.457886666667","25.1625783333333","6501000","淡水區"
"252002","178-VK","2019/09/03 17:09:38","新北市三芝區忠孝街1-14號","121.505536666667","25.2539316666667","6502100","三芝區"
"233002","762-BX","2019/09/03 17:09:27","新北市烏來區野要街30-1號","121.54837","24.854015","6502900","烏來區"
"252001","KED-0821","2019/09/03 17:09:44","新北市三芝區埔頭里埔頭37號","121.49844","25.2602733333333","6502100","三芝區"
"242042","AAC-296","2019/09/03 17:09:45","新北市新莊區新泰路357巷3弄55號","121.442441666667","25.0398466666667","6500500","新莊區"
"242061","986-R7","2019/09/03 17:09:44","新北市新莊區新泰路357巷3弄57號","121.442483333333","25.0395766666667","6500500","新莊區"
"242005","751-BX","2019/09/03 17:09:42","新北市新莊區三和路12-21號","121.442301666667","25.0386166666667","6500500","新莊區"
"242027","613-BX","2019/09/03 17:09:44","新北市新莊區新泰路357巷1弄57號","121.4425","25.0394933333333","6500500","新莊區"
"242058","612-BX","2019/09/03 17:09:46","新北市新莊區新泰路357巷3弄57號","121.442358333333","25.0394133333333","6500500","新莊區"
"242048","566-BX","2019/09/03 17:09:32","新北市新莊區中正路481號","121.441206666667","25.0337766666667","6500500","新莊區"
"242054","497-BY","2019/09/03 17:09:38","新北市新莊區新泰路357巷3弄53號","121.442401666667","25.0398716666667","6500500","新莊區"
"242034","442-UM","2019/09/03 17:09:34","新北市新莊區三和路12-21號","121.442283333333","25.0385366666667","6500500","新莊區"
"242002","441-UM","2019/09/03 17:09:32","新北市泰山區信華一街3號","121.441318333333","25.0435566666667","6500500","新莊區"
"242007","440-UM","2019/09/03 17:09:37","新北市新莊區新泰路255巷83號","121.442351666667","25.038935","6500500","新莊區"
"242044","415-TV","2019/09/03 17:09:43","新北市新莊區中正路535-3號","121.438251666667","25.03324","6500500","新莊區"
"242013","413-TV","2019/09/03 17:09:42","新北市新莊區新泰路357巷3弄57號","121.44185","25.0394366666667","6500500","新莊區"
"242051","400-BY","2019/09/03 17:09:38","新北市泰山區磚雅厝3號","121.442173333333","25.0416033333333","6500500","新莊區"
"242025","362-BY","2019/09/03 17:09:37","新北市新莊區新泰路255巷83號","121.44203","25.0389033333333","6500500","新莊區"
"242023","353-BY","2019/09/03 17:09:25","新北市新莊區新泰路357巷3弄57號","121.442025","25.0391866666667","6500500","新莊區"
"242015","132-UY","2019/09/03 16:55:10","","121.441973333333","25.0388","6500500","新莊區"
"242056","172-VK","2019/09/03 17:09:34","新北市新莊區新泰路413巷22號","121.442401666667","25.0444233333333","6500500","新莊區"
"242017","173-VK","2019/09/03 17:09:39","新北市新莊區三和路12-21號","121.44206","25.03868","6500500","新莊區"
"242032","175-VK","2019/09/03 17:09:25","新北市新莊區三和路12-21號","121.442026666667","25.0386166666667","6500500","新莊區"
"242021","346-TH","2019/09/03 17:09:43","新北市新莊區三和路12-21號","121.442308333333","25.0382","6500500","新莊區"
"242037","348-TH","2019/09/03 17:09:32","新北市新莊區新泰路381巷41號","121.442085","25.0434916666667","6500500","新莊區"
"242009","349-TH","2019/09/03 17:09:33","新北市新莊區三和路12-21號","121.442368333333","25.0384883333333","6500500","新莊區"
"242019","351-TH","2019/09/03 17:09:43","新北市新莊區新泰路357巷3弄57號","121.44192","25.0394716666667","6500500","新莊區"
"238019","599-UM","2019/09/03 17:09:37","新北市樹林區育德街78號","121.387876666667","24.968355","6500700","樹林區"
"238023","571-TV","2019/09/03 17:09:25","新北市樹林區中山路二段191號","121.403438333333","24.9786466666667","6500700","樹林區"
"238018","KEA-2217","2019/09/03 17:09:34","新北市樹林區水源街81號","121.426251666667","24.9791833333333","6500700","樹林區"
"238017","283-BY","2019/09/03 17:09:41","新北市樹林區光武街2-1號","121.41526","25.004","6500700","樹林區"
"238020","268-VK","2019/09/03 17:09:34","新北市樹林區千歲街101-2號","121.428526666667","25.00089","6500700","樹林區"
"238016","169-UY","2019/09/03 17:09:46","新北市樹林區八德街1號","121.417586666667","24.985005","6500700","樹林區"
"239007","AAC-297","2019/09/03 17:09:41","新北市鶯歌區信義街58號","121.353436666667","24.95506","6500800","鶯歌區"
"239006","891-R6","2019/09/03 17:09:38","新北市鶯歌區八德路2巷37弄1號","121.336868333333","24.94658","6500800","鶯歌區"
"239008","527-UM","2019/09/03 17:09:45","新北市鶯歌區尖山路103號","121.34822","24.949105","6500800","鶯歌區"
"239005","526-UM","2019/09/03 17:09:32","新北市鶯歌區德昌街1-1號","121.333866666667","24.96076","6500800","鶯歌區"
"239001","417-VK","2019/09/03 17:09:40","新北市鶯歌區尖山路140巷6弄1號","121.346491666667","24.9490033333333","6500800","鶯歌區"
"239004","193-VK","2019/09/03 17:09:43","新北市鶯歌區文化路324巷8弄8號","121.349798333333","24.9451266666667","6500800","鶯歌區"
"233001","KEA-2870","2019/09/03 17:09:43","新北市烏來區溫泉街106號","121.55156","24.8605816666667","6502900","烏來區"
"242046","281-VK","2019/09/03 17:09:36","新北市泰山區磚雅厝3號","121.44222","25.041605","6500500","新莊區"
"242011","280-VK","2019/09/03 17:09:35","新北市新莊區三和路12-21號","121.44208","25.038215","6500500","新莊區"
"235062","KEA-2876","2019/09/03 17:09:25","新北市中和區員山路36巷16-3號","121.484963333333","24.9914366666667","6500300","中和區"
