"lineid","car","time","location","longitude","latitude","cityid","cityname"
"234026","9371-KE","2019/09/03 17:59:32","新北市永和區水源街2巷20號","121.512205","25.0056983333333","6500400","永和區"
"234011","9373-KE","2019/09/03 17:50:00","新北市永和區福和路1號","121.525643333333","25.0092483333333","6500400","永和區"
"249005","172-UM","2019/09/03 17:59:28","新北市八里區荖阡坑路24-11號","121.39863","25.1381583333333","6502300","八里區"
"249001","173-UM","2019/09/03 17:59:35","新北市八里區龍米路二段35號","121.448401666667","25.1399283333333","6502300","八里區"
"249004","303-UY","2019/09/03 17:59:26","新北市八里區龍米路二段140巷26號","121.437775","25.1548966666667","6502300","八里區"
"249002","305-UY","2019/09/03 17:59:42","新北市八里區龍形五街15號","121.450061666667","25.1334233333333","6502300","八里區"
"249003","593-UM","2019/09/03 17:59:26","新北市八里區中華路二段201號","121.405518333333","25.1496366666667","6502300","八里區"
"248008","KED-0815","2019/09/03 17:59:42","新北市五股區中興路二段150號","121.458616666667","25.0785316666667","6501500","五股區"
"248020","KED-0813","2019/09/03 17:59:43","新北市五股區中興路二段63巷17號","121.460276666667","25.075245","6501500","五股區"
"248004","677-BX","2019/09/03 17:59:28","新北市五股區更洲路70號","121.453426666667","25.0785933333333","6501500","五股區"
"248002","678-BX","2019/09/03 17:59:37","新北市五股區中興路二段83巷26-6號","121.460023333333","25.0752633333333","6501500","五股區"
"232011","375-UM","2019/09/03 17:59:36","新北市坪林區北宜路八段167號","121.707603333333","24.93462","6502000","坪林區"
"244007","080-UY","2019/09/03 17:59:44","新北市林口區林口路124巷10弄22號","121.38923","25.0814633333333","6501700","林口區"
"244019","402-UM","2019/09/03 17:59:43","新北市林口區文化一路一段120號","121.374145","25.0718383333333","6501700","林口區"
"244013","KEA-2802","2019/09/03 17:59:33","新北市林口區中山路52號","121.394996666667","25.0785133333333","6501700","林口區"
"244023","483-VK","2019/09/03 17:59:30","新北市林口區東湖路117巷22號","121.383313333333","25.0724616666667","6501700","林口區"
"244017","485-VK","2019/09/03 17:59:43","","121.370748333333","25.069345","6501700","林口區"
"244009","656-BX","2019/09/03 17:59:41","新北市林口區佳林路56巷4號","121.385726666667","25.0818366666667","6501700","林口區"
"244011","701-TV","2019/09/03 17:59:29","新北市林口區中正路59號","121.395336666667","25.077435","6501700","林口區"
"244025","837-TS","2019/09/03 17:59:34","新北市林口區三民路26-1號","121.35862","25.067535","6501700","林口區"
"244021","838-TS","2019/09/03 17:59:37","新北市林口區新寮27號","121.397096666667","25.0677633333333","6501700","林口區"
"222003","436-BY","2019/09/03 17:59:31","新北市深坑區炮子崙23號","121.607208333333","24.990875","6501800","深坑區"
"222002","659-BX","2019/09/03 17:59:37","新北市深坑區文化街110號","121.61621","25.0018566666667","6501800","深坑區"
"241024","065-VK","2019/09/03 17:59:34","新北市三重區大勇街32號","121.481818333333","25.071785","6500200","三重區"
"241016","266-UM","2019/09/03 17:59:34","新北市三重區光復路二段178-1號","121.47201","25.0624083333333","6500200","三重區"
"241033","AAC-255","2019/09/03 17:59:39","新北市三重區光復路一段54巷1號","121.472036666667","25.048655","6500200","三重區"
"235063","006-UY","2019/09/03 17:59:25","新北市中和區員山路36巷16-3號","121.485071666667","24.9913866666667","6500300","中和區"
"235065","098-UM","2019/09/03 17:59:38","新北市中和區中山路二段375號","121.487385","25.00485","6500300","中和區"
"235058","151-BY","2019/09/03 17:59:41","新北市中和區圓通路367巷7號","121.492203333333","24.98797","6500300","中和區"
"235038","185-VK","2019/09/03 17:59:37","新北市中和區中正路271-1號","121.495733333333","24.99363","6500300","中和區"
"247016","KEA-2869","2019/09/03 17:59:41","新北市蘆洲區光華路132巷43號","121.465923333333","25.0839183333333","6501400","蘆洲區"
"235070","558-UM","2019/09/03 17:59:36","新北市中和區錦和路350-1號","121.490306666667","24.99339","6500300","中和區"
"235045","565-BX","2019/09/03 17:59:41","新北市中和區員山路36巷16-2號","121.485343333333","24.9917533333333","6500300","中和區"
"235054","640-BX","2019/09/03 17:59:33","新北市中和區員山路72號","121.481001666667","24.9935933333333","6500300","中和區"
"235057","801-TS","2019/09/03 17:59:43","新北市中和區員山路36巷16-8號","121.485476666667","24.9922883333333","6500300","中和區"
"235052","805-TS","2019/09/03 17:59:41","新北市中和區員山路36巷16-3號","121.485085","24.9914566666667","6500300","中和區"
"235053","900-TW","2019/09/03 17:59:29","新北市中和區員山路36巷16-2號","121.485148333333","24.9915066666667","6500300","中和區"
"235064","911-UM","2019/09/03 17:59:46","新北市中和區錦和路350-1號","121.490436666667","24.9935583333333","6500300","中和區"
"235051","157-BY","2019/09/03 17:59:32","新北市中和區員山路36巷16-2號","121.485353333333","24.991735","6500300","中和區"
"235037","AAC-213","2019/09/03 17:59:45","新北市中和區景平路145號","121.51407","24.99209","6500300","中和區"
"247006","893-R6","2019/09/03 17:59:36","新北市蘆洲區中華街6號","121.46352","25.08165","6501400","蘆洲區"
"247020","546-UM","2019/09/03 17:59:30","新北市蘆洲區民權路121巷16弄1號","121.471316666667","25.0892666666667","6501400","蘆洲區"
"247012","337-TH","2019/09/03 17:59:30","新北市蘆洲區民族路167巷15號","121.47822","25.08831","6501400","蘆洲區"
"247014","056-VK","2019/09/03 17:59:46","新北市蘆洲區忠孝路108號","121.471395","25.0863766666667","6501400","蘆洲區"
"247002","001-UY","2019/09/03 17:59:25","新北市蘆洲區永平街32巷57弄15號","121.4592","25.09306","6501400","蘆洲區"
"228003","097-TW","2019/09/03 17:59:30","新北市貢寮區真理里美艷山街6-2號","121.928908333333","25.060755","6502600","貢寮區"
"228001","212-TW","2019/09/03 17:59:42","新北市貢寮區真理里新港街26巷53號","121.92805","25.05358","6502600","貢寮區"
"228002","663-BX","2019/09/03 17:59:35","新北市貢寮區福連里香蘭街2-1號","121.969411666667","25.0235883333333","6502600","貢寮區"
"224006","676-BX","2019/09/03 17:59:39","新北市瑞芳區大寮路356-1號","121.784878333333","25.1032366666667","6501200","瑞芳區"
"224002","639-TC","2019/09/03 17:59:34","新北市瑞芳區三爪子坑路127號","121.810321666667","25.1068766666667","6501200","瑞芳區"
"224009","275-VK","2019/09/03 17:59:40","新北市瑞芳區山尖路49號","121.85227","25.1149266666667","6501200","瑞芳區"
"224008","273-VK","2019/09/03 17:59:44","新北市瑞芳區明燈路一段45巷100號","121.821236666667","25.10402","6501200","瑞芳區"
"224005","271-BY","2019/09/03 17:59:42","新北市瑞芳區深澳路185號","121.820645","25.1336633333333","6501200","瑞芳區"
"227002","400-TW","2019/09/03 17:59:36","新北市雙溪區共和里東榮街29號","121.866131666667","25.0336183333333","6502500","雙溪區"
"253005","032-BX","2019/09/03 17:59:33","新北市石門區中山路62-11號","121.567553333333","25.28966","6502200","石門區"
"253006","295-VK","2019/09/03 17:59:37","新北市石門區大丘田45-2號","121.549833333333","25.2748816666667","6502200","石門區"
"222001","KEA-2212","2019/09/03 17:59:35","新北市深坑區北深路二段222號","121.612151666667","25.00145","6501800","深坑區"
"208002","KEA-2872","2019/09/03 17:59:45","新北市金山區三界壇路91-1號","121.62487","25.228645","6502700","金山區"
"208003","665-BX","2019/09/03 17:59:44","新北市金山區磺港里磺港路202-1號","121.645171666667","25.2274583333333","6502700","金山區"
"251004","009-UM","2019/09/03 17:59:27","新北市淡水區民權路187號","121.459568333333","25.13357","6501000","淡水區"
"251015","KEA-2871","2019/09/03 17:59:37","新北市淡水區興福寮31-1號","121.489041666667","25.1620033333333","6501000","淡水區"
"251016","179-VK","2019/09/03 17:59:40","新北市淡水區淡金路三段36號","121.448065","25.198985","6501000","淡水區"
"251013","180-VK","2019/09/03 17:59:31","新北市淡水區泉洲厝31號","121.479576666667","25.1909866666667","6501000","淡水區"
"251008","181-VK","2019/09/03 17:59:40","新北市淡水區八勢一街32巷1號","121.461878333333","25.1556783333333","6501000","淡水區"
"251010","413-VK","2019/09/03 17:59:43","新北市淡水區中正路一段87巷1號","121.421886666667","25.1792116666667","6501000","淡水區"
"251012","441-VK","2019/09/03 17:59:29","新北市淡水區北新路三段16-7號","121.483535","25.1860133333333","6501000","淡水區"
"251005","443-VK","2019/09/03 17:59:38","新北市淡水區英專路130號","121.44643","25.172655","6501000","淡水區"
"251001","559-UM","2019/09/03 17:57:41","新北市淡水區民權路92巷35-1號","121.46243","25.1262333333333","6501000","淡水區"
"251006","561-UM","2019/09/03 17:59:39","新北市淡水區真理街1-1號","121.438158333333","25.1730666666667","6501000","淡水區"
"251009","575-R6","2019/09/03 17:59:33","新北市淡水區中山路108巷16號","121.442181666667","25.17108","6501000","淡水區"
"251014","577-R6","2019/09/03 17:59:32","新北市淡水區公埔子16-6號","121.480971666667","25.22445","6501000","淡水區"
"251011","650-BX","2019/09/03 17:54:59","新北市淡水區吳(仔)厝9-1號","121.479611666667","25.14669","6501000","淡水區"
"251002","672-BX","2019/09/03 17:59:42","新北市淡水區鼻頭街18-1號","121.446875","25.1667016666667","6501000","淡水區"
"251003","673-BX","2019/09/03 17:59:36","新北市淡水區大忠街47號","121.444668333333","25.176415","6501000","淡水區"
"207003","681-TV","2019/09/03 17:59:38","新北市萬里區野柳里東澳路66號","121.692833333333","25.200975","6502800","萬里區"
"207004","291-VK","2019/09/03 17:59:41","新北市萬里區萬里里瑪鋉路5號","121.686133333333","25.1749633333333","6502800","萬里區"
"252002","178-VK","2019/09/03 17:59:38","新北市三芝區中山路二段39號","121.502945","25.2551616666667","6502100","三芝區"
"208001","170-UY","2019/09/03 17:59:26","新北市金山區磺港里磺港路247號","121.643783333333","25.22502","6502700","金山區"
"237004","KEA-2597","2019/09/03 17:59:42","新北市三峽區中正路二段167號","121.36602","24.9149533333333","6500900","三峽區"
"237007","153-BY","2019/09/03 17:59:43","新北市三峽區中園街149-2號","121.367298333333","24.9229416666667","6500900","三峽區"
"237009","210-TH","2019/09/03 17:59:35","新北市三峽區中山路106巷16-1號","121.366121666667","24.9363216666667","6500900","三峽區"
"237013","252-BX","2019/09/03 17:59:36","新北市三峽區長泰街70-2號","121.376756666667","24.9335616666667","6500900","三峽區"
"237012","275-BY","2019/09/03 17:59:40","新北市三峽區民生街29號","121.37581","24.9364133333333","6500900","三峽區"
"237008","302-VK","2019/09/03 17:59:43","新北市三峽區白雞33-27號","121.371578333333","24.912065","6500900","三峽區"
"237014","433-BY","2019/09/03 17:59:37","新北市三峽區和平街36巷7弄3號","121.370808333333","24.9373333333333","6500900","三峽區"
"237006","5529-G3","2019/09/03 17:59:36","新北市三峽區介壽路二段136巷120弄2-1號","121.392375","24.93223","6500900","三峽區"
"237011","KEA-2596","2019/09/03 17:59:27","新北市三峽區光明路48號","121.3747","24.9296666666667","6500900","三峽區"
"237015","649-BX","2019/09/03 17:59:30","新北市三峽區紫微路79-1號","121.410065","24.9134683333333","6500900","三峽區"
"237010","706-TV","2019/09/03 17:59:35","新北市三峽區中山路62號","121.368095","24.9345166666667","6500900","三峽區"
"237005","AKY-6261","2019/09/03 17:59:47","新北市三峽區和平街89巷14號","121.369653333333","24.93757","6500900","三峽區"
"236042","KED-0685","2019/09/03 17:59:35","新北市土城區城林路6巷80號","121.438488333333","24.9797116666667","6501300","土城區"
"233002","762-BX","2019/09/03 17:59:27","新北市烏來區烏來街111號","121.551471666667","24.8635","6502900","烏來區"
"236079","166-UM","2019/09/03 17:59:50","新北市土城區永寧路32巷10弄23號","121.428873333333","24.9610583333333","6501300","土城區"
"236014","270-VK","2019/09/03 17:59:30","新北市土城區城林路6巷80號","121.438506666667","24.9796483333333","6501300","土城區"
"236038","271-VK","2019/09/03 17:59:40","新北市土城區城林路6巷80號","121.438421666667","24.97954","6501300","土城區"
"236070","KEA-2877","2019/09/03 17:59:39","新北市土城區青雲路474-2號","121.463868333333","24.966235","6501300","土城區"
"252001","KED-0821","2019/09/03 17:59:43","新北市三芝區中興街二段2號","121.498336666667","25.256555","6502100","三芝區"
"236021","401-BY","2019/09/03 17:59:42","新北市土城區城林路6巷80號","121.43863","24.9797033333333","6501300","土城區"
"236030","752-BX","2019/09/03 17:59:27","新北市土城區城林路6巷80號","121.438685","24.97974","6501300","土城區"
"236059","912-UM","2019/09/03 17:59:43","新北市土城區中央路三段260號","121.42725","24.964055","6501300","土城區"
"236049","913-UM","2019/09/03 17:59:36","新北市土城區城林路6巷80號","121.43856","24.9796","6501300","土城區"
"236063","915-UM","2019/09/03 17:59:33","新北市土城區中華路二段2號","121.43906","24.97974","6501300","土城區"
"236055","AAC-216","2019/09/03 17:59:45","新北市土城區城林路6巷80號","121.438593333333","24.9796083333333","6501300","土城區"
"242042","AAC-296","2019/09/03 17:59:25","新北市新莊區中正路614巷2弄1號","121.426058333333","25.0303033333333","6500500","新莊區"
"242061","986-R7","2019/09/03 17:59:44","新北市新莊區新樹路579號","121.432938333333","25.0069266666667","6500500","新莊區"
"242005","751-BX","2019/09/03 17:59:42","新北市新莊區思源路177巷48號","121.459235","25.0466833333333","6500500","新莊區"
"242029","615-BX","2019/09/03 17:59:35","新北市新莊區中平路110巷13號","121.445785","25.046045","6500500","新莊區"
"242027","613-BX","2019/09/03 17:59:44","新北市新莊區中原路1號","121.459476666667","25.0543833333333","6500500","新莊區"
"242058","612-BX","2019/09/03 17:59:45","新北市新莊區新北大道七段357號","121.412415","25.0271716666667","6500500","新莊區"
"242048","566-BX","2019/09/03 17:59:32","新北市新莊區萬安街47巷9號","121.42233","25.0244","6500500","新莊區"
"242054","497-BY","2019/09/03 17:59:38","新北市新莊區民安西路468-1號","121.431653333333","25.00787","6500500","新莊區"
"242034","442-UM","2019/09/03 17:59:36","新北市新莊區福海街18號","121.44526","25.0338816666667","6500500","新莊區"
"242002","441-UM","2019/09/03 17:59:41","新北市新莊區中正路159-2號","121.455548333333","25.036765","6500500","新莊區"
"242007","440-UM","2019/09/03 17:59:36","新北市新莊區自信街69號","121.455576666667","25.0482466666667","6500500","新莊區"
"242044","415-TV","2019/09/03 17:59:43","新北市新莊區雙鳳路73巷1號","121.41498","25.0275633333333","6500500","新莊區"
"242013","413-TV","2019/09/03 17:59:42","新北市新莊區中和街125巷1號","121.447156666667","25.0485416666667","6500500","新莊區"
"242051","400-BY","2019/09/03 17:59:38","新北市新莊區西盛街153巷6號","121.428641666667","25.0180033333333","6500500","新莊區"
"242025","362-BY","2019/09/03 17:59:37","新北市新莊區化成路531巷50號","121.46201","25.06357","6500500","新莊區"
"242023","353-BY","2019/09/03 17:59:45","新北市新莊區福壽街52號","121.458308333333","25.048725","6500500","新莊區"
"242015","132-UY","2019/09/03 17:59:30","新北市新莊區中平路87巷3號","121.444396666667","25.0458183333333","6500500","新莊區"
"242039","135-UY","2019/09/03 17:59:35","新北市新莊區民安西路4號","121.426351666667","25.021805","6500500","新莊區"
"242056","172-VK","2019/09/03 17:59:34","新北市新莊區豐年街122-3號","121.446491666667","25.029855","6500500","新莊區"
"242017","173-VK","2019/09/03 17:59:39","新北市新莊區中和街60巷35號","121.449446666667","25.04496","6500500","新莊區"
"242032","175-VK","2019/09/03 17:59:45","新北市新莊區新泰路305巷1號","121.445226666667","25.0409283333333","6500500","新莊區"
"242021","346-TH","2019/09/03 17:59:42","新北市新莊區中正路174號","121.4503","25.0357983333333","6500500","新莊區"
"242037","348-TH","2019/09/03 17:59:32","新北市新莊區中正路683號","121.42608","25.03","6500500","新莊區"
"242009","349-TH","2019/09/03 17:59:33","新北市新莊區中華路二段227號","121.452273333333","25.0532583333333","6500500","新莊區"
"242019","351-TH","2019/09/03 17:59:43","新北市新莊區明中街47巷15號","121.456983333333","25.0386983333333","6500500","新莊區"
"238015","755-BX","2019/09/03 17:59:27","新北市樹林區文德街4巷22號","121.419558333333","24.991955","6500700","樹林區"
"238019","599-UM","2019/09/03 17:59:38","新北市樹林區太元街62號","121.4186","24.979255","6500700","樹林區"
"238023","571-TV","2019/09/03 17:59:45","新北市樹林區福興街31號","121.404233333333","25.015675","6500700","樹林區"
"238018","KEA-2217","2019/09/03 17:59:34","新北市樹林區中正路7-1號","121.430236666667","24.9975916666667","6500700","樹林區"
"238022","KEA-2213","2019/09/03 17:59:37","新北市樹林區太順街60號","121.41794","24.9792983333333","6500700","樹林區"
"238021","KEA-2539","2019/09/03 17:59:41","新北市樹林區柑園街一段68號","121.402188333333","24.9602716666667","6500700","樹林區"
"238025","303-VK","2019/09/03 17:59:30","新北市樹林區三俊街47號","121.4127","25.0157033333333","6500700","樹林區"
"238017","283-BY","2019/09/03 17:59:37","新北市樹林區中正路464號","121.412808333333","25.012685","6500700","樹林區"
"238014","282-BY","2019/09/03 17:59:43","新北市樹林區大安路41號","121.424061666667","24.9994716666667","6500700","樹林區"
"238020","268-VK","2019/09/03 17:59:34","新北市樹林區三俊街199巷10-4號","121.420153333333","25.01625","6500700","樹林區"
"238026","172-UY","2019/09/03 17:59:32","新北市樹林區中洲街30巷13弄41號","121.39824","24.9724283333333","6500700","樹林區"
"238016","169-UY","2019/09/03 17:59:46","新北市樹林區啟智街139號","121.416803333333","24.98814","6500700","樹林區"
"239007","AAC-297","2019/09/03 17:59:41","新北市鶯歌區鶯桃路94巷33-2號","121.341988333333","24.954865","6500800","鶯歌區"
"239006","891-R6","2019/09/03 17:59:38","新北市鶯歌區鶯桃路413巷78弄2號","121.329781666667","24.96315","6500800","鶯歌區"
"239008","527-UM","2019/09/03 17:59:45","新北市鶯歌區國際一路108巷1號","121.335335","24.9770966666667","6500800","鶯歌區"
"239005","526-UM","2019/09/03 17:59:32","新北市鶯歌區鶯桃路658巷149-5號","121.332638333333","24.9736666666667","6500800","鶯歌區"
"239001","417-VK","2019/09/03 17:59:40","新北市鶯歌區中正三路215號","121.335283333333","24.9392933333333","6500800","鶯歌區"
"239003","360-BY","2019/09/03 17:59:28","新北市鶯歌區永吉街11巷1號","121.336386666667","24.958185","6500800","鶯歌區"
"239002","359-BY","2019/09/03 17:59:30","新北市鶯歌區國華路56號","121.342788333333","24.9553983333333","6500800","鶯歌區"
"221008","489-VK","2019/09/03 17:59:27","新北市汐止區康寧街815巷1號","121.641095","25.07504","6501100","汐止區"
"221010","269-BY","2019/09/03 17:59:38","新北市汐止區汐萬路二段247號","121.646461666667","25.0882433333333","6501100","汐止區"
"221023","279-VK","2019/09/03 17:59:33","新北市汐止區民族二街36號","121.634831666667","25.0705666666667","6501100","汐止區"
"221029","298-VK","2019/09/03 17:59:33","新北市汐止區樟樹二路330巷4號","121.641693333333","25.07014","6501100","汐止區"
"221031","353-TW","2019/09/03 17:59:35","新北市汐止區中興路96巷1-3號","121.635231666667","25.0624783333333","6501100","汐止區"
"221035","622-UM","2019/09/03 17:59:34","新北市汐止區汐萬路一段211巷15號","121.651356666667","25.07171","6501100","汐止區"
"221025","623-UM","2019/09/03 17:59:42","新北市汐止區新台五路一段266號","121.659141666667","25.0637566666667","6501100","汐止區"
"221038","646-BX","2019/09/03 17:59:36","新北市汐止區連興街73號","121.653878333333","25.0628166666667","6501100","汐止區"
"221033","647-BX","2019/09/03 17:59:33","新北市汐止區合順街15號","121.61994","25.043135","6501100","汐止區"
"221002","707-TV","2019/09/03 17:59:33","新北市汐止區樟樹二路251巷46號","121.64045","25.0670766666667","6501100","汐止區"
"221018","753-BX","2019/09/03 17:59:39","新北市汐止區忠孝東路337號","121.66509","25.0700216666667","6501100","汐止區"
"242046","281-VK","2019/09/03 17:59:46","新北市新莊區福營路189號","121.431271666667","25.0307333333333","6500500","新莊區"
"242011","280-VK","2019/09/03 17:59:35","新北市新莊區富貴路161號","121.45005","25.0569683333333","6500500","新莊區"
"235061","KEA-2875","2019/09/03 17:59:45","新北市中和區員山路82巷10弄7號","121.48149","24.9935716666667","6500300","中和區"
"235062","KEA-2876","2019/09/03 17:59:27","新北市中和區新生街290號","121.483591666667","24.9963516666667","6500300","中和區"
