"lineid","car","time","location","longitude","latitude","cityid","cityname"
"234046","148-BY","2019/09/03 18:29:37","新北市永和區福和路1號","121.525728333333","25.009425","6500400","永和區"
"234081","298-R6","2019/09/03 18:29:41","新北市永和區福和路8巷1號","121.52502","25.009015","6500400","永和區"
"234086","338-UY","2019/09/03 18:29:32","新北市永和區福和路1號","121.526405","25.0098166666667","6500400","永和區"
"234017","745-BX","2019/09/03 18:29:36","新北市永和區福和路1號","121.526301666667","25.009615","6500400","永和區"
"234026","9371-KE","2019/09/03 18:29:37","新北市永和區保生路48巷1號","121.50583","25.00881","6500400","永和區"
"234011","9373-KE","2019/09/03 18:29:41","新北市永和區文化路198號","121.510601666667","25.0163166666667","6500400","永和區"
"249005","172-UM","2019/09/03 18:29:28","新北市八里區長坑口47-1號","121.389218333333","25.1339666666667","6502300","八里區"
"249001","173-UM","2019/09/03 18:29:35","新北市八里區龍米路一段109號","121.45282","25.1255683333333","6502300","八里區"
"249004","303-UY","2019/09/03 18:29:32","新北市八里區忠孝路81號","121.425175","25.1605","6502300","八里區"
"249002","305-UY","2019/09/03 18:29:42","新北市八里區龍形三街6巷5號","121.44992","25.132415","6502300","八里區"
"249003","593-UM","2019/09/03 18:18:41","新北市八里區博物館路10-1號","121.415088333333","25.1639633333333","6502300","八里區"
"248016","026-BX","2019/09/03 18:29:46","新北市五股區凌雲路一段83巷20號","121.45013","25.100605","6501500","五股區"
"248008","KED-0815","2019/09/03 18:29:42","新北市五股區中興路二段78-5號","121.461355","25.0786083333333","6501500","五股區"
"248020","KED-0813","2019/09/03 18:29:43","新北市五股區孝義路55巷3號","121.451305","25.11193","6501500","五股區"
"248012","247-BX","2019/09/03 18:29:48","新北市五股區御成路140號","121.441011666667","25.0943","6501500","五股區"
"248014","261-SL","2019/09/03 18:29:36","新北市五股區明德路7巷35號","121.434663333333","25.070815","6501500","五股區"
"248004","677-BX","2019/09/03 18:29:28","新北市五股區民義路一段181號","121.432385","25.0882","6501500","五股區"
"248002","678-BX","2019/09/03 18:29:37","新北市五股區西雲路115號","121.444116666667","25.0930983333333","6501500","五股區"
"248010","682-TV","2019/09/03 18:29:37","新北市五股區成泰路一段167號","121.435236666667","25.0744766666667","6501500","五股區"
"232011","375-UM","2019/09/03 18:29:36","新北市坪林區坪雙路一段41號","121.711731666667","24.94242","6502000","坪林區"
"244007","080-UY","2019/09/03 18:29:44","新北市林口區中湖62號","121.384803333333","25.100935","6501700","林口區"
"244019","402-UM","2019/09/03 18:29:42","新北市林口區忠孝路648號","121.379135","25.0685166666667","6501700","林口區"
"244013","KEA-2802","2019/09/03 18:29:33","新北市林口區中正路493號","121.383585","25.0777033333333","6501700","林口區"
"244023","483-VK","2019/09/03 18:29:30","新北市林口區信義路100號","121.380988333333","25.07916","6501700","林口區"
"244017","485-VK","2019/09/03 18:29:43","新北市林口區文化二路一段86號","121.366348333333","25.06967","6501700","林口區"
"244009","656-BX","2019/09/03 18:29:41","新北市林口區文化二路二段369號","121.38068","25.0870916666667","6501700","林口區"
"244011","701-TV","2019/09/03 18:29:29","新北市林口區興林路17巷5弄2號","121.39057","25.0770166666667","6501700","林口區"
"244025","837-TS","2019/09/03 18:29:34","新北市林口區南勢六街81巷16號","121.354363333333","25.0720366666667","6501700","林口區"
"244021","838-TS","2019/09/03 18:29:37","新北市林口區自強二街65號","121.399625","25.07689","6501700","林口區"
"222003","436-BY","2019/09/03 18:29:31","新北市深坑區北深路一段288號","121.62817","25.0076616666667","6501800","深坑區"
"222002","659-BX","2019/09/03 18:29:37","新北市深坑區雲鄉路103號","121.623161666667","24.9984383333333","6501800","深坑區"
"231058","0293-UT","2019/09/03 18:29:43","新北市新店區環河路19巷13號","121.537673333333","24.9604466666667","6500600","新店區"
"231044","046-UY","2019/09/03 18:29:43","新北市新店區安華路28-1號","121.519403333333","24.9607583333333","6500600","新店區"
"231042","047-UY","2019/09/03 18:29:40","新北市新店區安一路一段1-1號","121.519945","24.9613066666667","6500600","新店區"
"231060","106-UY","2019/09/03 18:29:36","新北市新店區安華路28-1號","121.51957","24.9608033333333","6500600","新店區"
"231051","107-UY","2019/09/03 18:29:39","新北市新店區安康路一段355-3號","121.519763333333","24.9622133333333","6500600","新店區"
"231065","110-UY","2019/09/03 18:29:28","新北市新店區安一路一段1-1號","121.519345","24.9611533333333","6500600","新店區"
"231062","256-BX","2019/09/03 18:29:40","新北市新店區安一路一段1-1號","121.519736666667","24.9611666666667","6500600","新店區"
"231054","260-TV","2019/09/03 18:29:36","新北市新店區安一路一段1-1號","121.519378333333","24.9611616666667","6500600","新店區"
"231064","278-BY","2019/09/03 18:29:37","新北市新店區安一路一段1-1號","121.519631666667","24.9611066666667","6500600","新店區"
"231050","AAD-862","2019/09/03 18:29:35","新北市新店區安華路28-1號","121.519825","24.9610016666667","6500600","新店區"
"231045","355-BY","2019/09/03 18:29:31","新北市新店區安華路28-1號","121.51912","24.9606983333333","6500600","新店區"
"231055","4716-K9","2019/09/03 18:29:43","新北市新店區中正路128巷10號","121.542421666667","24.9717916666667","6500600","新店區"
"231056","4715-K9","2019/09/03 18:29:34","新北市新店區二十張路129巷5弄5號","121.536683333333","24.9788616666667","6500600","新店區"
"231053","515-UM","2019/09/03 18:29:36","新北市新店區北宜路一段256號","121.545526666667","24.9527983333333","6500600","新店區"
"231063","616-UM","2019/09/03 18:29:33","新北市新店區安華路1-1號","121.519408333333","24.9605216666667","6500600","新店區"
"231040","617-UM","2019/09/03 18:29:37","新北市新店區安華路28-1號","121.519383333333","24.9608516666667","6500600","新店區"
"231041","619-UM","2019/09/03 18:29:32","新北市新店區安華路28-1號","121.519675","24.9606866666667","6500600","新店區"
"231057","720-UM","2019/09/03 18:29:41","新北市新店區安一路一段1-1號","121.518898333333","24.9611083333333","6500600","新店區"
"231059","897-TW","2019/09/03 18:29:33","新北市新店區安華路28-1號","121.519925","24.9607416666667","6500600","新店區"
"231043","899-TW","2019/09/03 18:29:45","新北市新店區安華路28-1號","121.519171666667","24.96079","6500600","新店區"
"231066","AKT-0513","2019/09/03 18:29:40","新北市新店區安華路28-1號","121.519488333333","24.9605266666667","6500600","新店區"
"235066","003-UY","2019/09/03 18:29:30","新北市中和區中山路二段120號","121.502695","25.0037716666667","6500300","中和區"
"235063","006-UY","2019/09/03 18:29:25","新北市中和區連城路405號","121.486046666667","24.99614","6500300","中和區"
"235056","096-UM","2019/09/03 18:29:44","新北市中和區員山路611巷5弄1號","121.477926666667","25.0112216666667","6500300","中和區"
"235039","097-UM","2019/09/03 18:29:46","新北市中和區安平路186號","121.513003333333","24.9990583333333","6500300","中和區"
"235065","098-UM","2019/09/03 18:29:38","新北市中和區中山路二段64巷22號","121.503021666667","25.00598","6500300","中和區"
"235058","151-BY","2019/09/03 18:29:41","新北市中和區圓通路369巷30弄14號","121.489238333333","24.9849716666667","6500300","中和區"
"235055","183-VK","2019/09/03 18:29:35","新北市中和區中山路三段209號","121.471843333333","25.0062833333333","6500300","中和區"
"235038","185-VK","2019/09/03 18:29:37","新北市中和區立人街1號","121.521958333333","24.9939316666667","6500300","中和區"
"235049","186-VK","2019/09/03 18:29:45","新北市中和區景安路114號","121.505368333333","24.9951516666667","6500300","中和區"
"235067","255-BX","2019/09/03 18:29:37","新北市中和區新生街28號","121.483198333333","25.003915","6500300","中和區"
"235072","301-VK","2019/09/03 18:29:45","新北市中和區連城路133號","121.496026666667","24.9990433333333","6500300","中和區"
"235043","352-BY","2019/09/03 18:29:25","新北市中和區景平路263-1號","121.508348333333","24.99291","6500300","中和區"
"235042","KEA-2878","2019/09/03 18:29:38","新北市中和區自立路191號","121.524128333333","24.9914333333333","6500300","中和區"
"235050","4979-A6","2019/09/03 18:29:42","新北市中和區景新街362巷5號","121.511993333333","24.9901166666667","6500300","中和區"
"235069","4980-A6","2019/09/03 18:29:42","新北市中和區連城路103號","121.496401666667","24.9997016666667","6500300","中和區"
"235070","558-UM","2019/09/03 18:29:16","新北市中和區景新街133號","121.505946666667","24.997215","6500300","中和區"
"235045","565-BX","2019/09/03 18:29:40","新北市中和區復興路1號","121.506343333333","24.9896633333333","6500300","中和區"
"235060","KED-0823","2019/09/03 18:29:32","新北市中和區中山路二段652號","121.480648333333","25.0058116666667","6500300","中和區"
"235054","640-BX","2019/09/03 18:29:33","新北市中和區民享街86巷25號","121.473183333333","25.0005383333333","6500300","中和區"
"235047","732-UM","2019/09/03 18:29:38","新北市中和區南山路493號","121.507955","24.98785","6500300","中和區"
"235046","733-UM","2019/09/03 18:29:28","新北市中和區捷運路125號","121.507253333333","24.9906416666667","6500300","中和區"
"235057","801-TS","2019/09/03 18:29:43","新北市中和區民安街2巷18號","121.48021","25.0016966666667","6500300","中和區"
"235052","805-TS","2019/09/03 18:29:41","新北市中和區興南路二段130號","121.504408333333","24.9834833333333","6500300","中和區"
"235048","896-TW","2019/09/03 18:29:40","新北市中和區中正路63號","121.501353333333","24.99339","6500300","中和區"
"235053","900-TW","2019/09/03 18:29:29","新北市中和區員山路82巷6-3號","121.481271666667","24.9935533333333","6500300","中和區"
"235064","911-UM","2019/09/03 18:29:26","新北市中和區連勝街50號","121.497758333333","24.997265","6500300","中和區"
"235051","157-BY","2019/09/03 18:29:37","新北市中和區興南路二段142巷25弄34號","121.502493333333","24.9843833333333","6500300","中和區"
"235037","AAC-213","2019/09/03 18:29:45","新北市中和區景德街68號","121.516985","24.9915633333333","6500300","中和區"
"235059","AAC-215","2019/09/03 18:29:28","新北市中和區員山路36巷16-3號","121.485095","24.99131","6500300","中和區"
"220065","072-UY","2019/09/03 18:29:44","新北市板橋區南雅南路二段11-5號","121.454086666667","25.0022366666667","6500100","板橋區"
"220086","073-UY","2019/09/03 18:29:40","新北市板橋區華東街1-10號","121.448273333333","24.9950316666667","6500100","板橋區"
"220069","AAD-861","2019/09/03 18:29:34","新北市板橋區華東街1-10號","121.448373333333","24.995025","6500100","板橋區"
"226004","312-R5","2019/09/03 18:29:31","新北市平溪區靜安路二段300號","121.735946666667","25.0239133333333","6502400","平溪區"
"228003","097-TW","2019/09/03 18:29:30","新北市貢寮區和美里和美街56號","121.914901666667","25.0777133333333","6502600","貢寮區"
"228001","212-TW","2019/09/03 18:29:37","新北市貢寮區仁理村仁和路11號","121.923153333333","25.0518816666667","6502600","貢寮區"
"228002","663-BX","2019/09/03 18:29:35","新北市貢寮區福連里福連街37號","121.988721666667","25.0108966666667","6502600","貢寮區"
"224010","AGQ-8101","2019/09/03 18:29:44","新北市瑞芳區烏勢巷111號","121.846198333333","25.1085033333333","6501200","瑞芳區"
"224006","676-BX","2019/09/03 18:29:42","新北市瑞芳區明燈路二段55號","121.811065","25.10813","6501200","瑞芳區"
"224002","639-TC","2019/09/03 18:29:34","新北市瑞芳區三爪子坑路29巷35號","121.813763333333","25.10661","6501200","瑞芳區"
"224007","285-BY","2019/09/03 18:29:34","新北市瑞芳區大埔路吉慶公園城32號","121.764345","25.099785","6501200","瑞芳區"
"224009","275-VK","2019/09/03 18:29:40","新北市瑞芳區五號路308號","121.85689","25.1114466666667","6501200","瑞芳區"
"224008","273-VK","2019/09/03 18:29:44","新北市瑞芳區逢甲路216號","121.806551666667","25.1102433333333","6501200","瑞芳區"
"224005","271-BY","2019/09/03 18:29:43","新北市瑞芳區建基路一段4-2號","121.820696666667","25.1212866666667","6501200","瑞芳區"
"227001","642-TC","2019/09/03 18:29:40","新北市雙溪區牡丹里牡丹39號","121.852541666667","25.0583466666667","6502500","雙溪區"
"227002","400-TW","2019/09/03 18:29:35","新北市雙溪區魚行里坤溪21-1號","121.870473333333","25.02811","6502500","雙溪區"
"253005","032-BX","2019/09/03 18:29:33","新北市石門區老崩山11-4號","121.552188333333","25.2908283333333","6502200","石門區"
"253006","295-VK","2019/09/03 18:29:37","新北市石門區公地20號","121.54579","25.29029","6502200","石門區"
"222001","KEA-2212","2019/09/03 18:29:35","新北市深坑區北深路一段177號","121.632306666667","25.01065","6501800","深坑區"
"208003","665-BX","2019/09/03 18:29:44","新北市金山區中山路154號","121.638741666667","25.2207683333333","6502700","金山區"
"251004","009-UM","2019/09/03 18:29:47","新北市淡水區民族路31巷31號","121.462335","25.1366016666667","6501000","淡水區"
"251015","KEA-2871","2019/09/03 18:29:37","新北市淡水區興福寮88巷216號","121.485983333333","25.1666116666667","6501000","淡水區"
"251016","179-VK","2019/09/03 18:29:34","新北市淡水區下圭柔山106號","121.443523333333","25.20942","6501000","淡水區"
"251013","180-VK","2019/09/03 18:29:31","新北市淡水區椿子林20-1號","121.481638333333","25.203945","6501000","淡水區"
"251008","181-VK","2019/09/03 18:29:39","新北市淡水區水源街二段346巷1弄1號","121.464433333333","25.1754866666667","6501000","淡水區"
"251010","413-VK","2019/09/03 18:29:43","新北市淡水區沙崙路181巷1號","121.424133333333","25.1841716666667","6501000","淡水區"
"251012","441-VK","2019/09/03 18:29:31","新北市淡水區北新路一段165號","121.458998333333","25.1822766666667","6501000","淡水區"
"251005","443-VK","2019/09/03 18:29:38","新北市淡水區中正東路35巷10號","121.446393333333","25.1685383333333","6501000","淡水區"
"251001","559-UM","2019/09/03 18:29:41","新北市淡水區自強路381號","121.464678333333","25.1335533333333","6501000","淡水區"
"251006","561-UM","2019/09/03 18:29:38","新北市淡水區新生街51巷39號","121.440925","25.1760233333333","6501000","淡水區"
"251014","577-R6","2019/09/03 18:29:32","新北市淡水區南平20號","121.49444","25.2164266666667","6501000","淡水區"
"251011","650-BX","2019/09/03 18:29:39","新北市淡水區坪頂路51巷2號","121.45809","25.1626033333333","6501000","淡水區"
"251002","672-BX","2019/09/03 18:29:42","新北市淡水區竿蓁二街36巷2號","121.453986666667","25.1629083333333","6501000","淡水區"
"251003","673-BX","2019/09/03 18:29:36","新北市淡水區北新路169巷12號","121.449696666667","25.1803383333333","6501000","淡水區"
"207003","681-TV","2019/09/03 18:29:38","新北市萬里區野柳里港東路6號","121.686485","25.2031483333333","6502800","萬里區"
"207004","291-VK","2019/09/03 18:29:41","新北市萬里區萬里里瑪鋉路12-4號","121.687806666667","25.175685","6502800","萬里區"
"252002","178-VK","2019/09/03 18:29:38","新北市三芝區中山路二段37號","121.50292","25.2551883333333","6502100","三芝區"
"252003","249-BX","2019/09/03 18:29:32","新北市三芝區後厝里北勢子41-2號","121.471998333333","25.2526166666667","6502100","三芝區"
"208001","170-UY","2019/09/03 18:29:46","新北市金山區溫泉路21巷1號","121.637785","25.2227933333333","6502700","金山區"
"237004","KEA-2597","2019/09/03 18:29:42","新北市三峽區五寮6號","121.375958333333","24.871575","6500900","三峽區"
"237007","153-BY","2019/09/03 18:29:43","新北市三峽區中正路三段170巷34號","121.352736666667","24.9046783333333","6500900","三峽區"
"237009","210-TH","2019/09/03 18:29:35","新北市三峽區大同路249號","121.366645","24.926075","6500900","三峽區"
"237013","252-BX","2019/09/03 18:29:36","新北市三峽區光明路69巷25號","121.376686666667","24.929265","6500900","三峽區"
"237012","275-BY","2019/09/03 18:29:40","新北市三峽區三樹路214巷13號","121.380033333333","24.9415066666667","6500900","三峽區"
"237008","302-VK","2019/09/03 18:29:43","新北市三峽區白雞127號","121.39412","24.90927","6500900","三峽區"
"237014","433-BY","2019/09/03 18:29:36","新北市三峽區和平街71號","121.370116666667","24.9370783333333","6500900","三峽區"
"237006","5529-G3","2019/09/03 18:29:36","新北市三峽區溪東路473巷2號","121.413883333333","24.9282316666667","6500900","三峽區"
"237011","KEA-2596","2019/09/03 18:29:27","新北市三峽區溪東路222號","121.407873333333","24.9319566666667","6500900","三峽區"
"237015","649-BX","2019/09/03 18:29:30","新北市三峽區竹崙路111號","121.433411666667","24.91149","6500900","三峽區"
"237010","706-TV","2019/09/03 18:29:43","新北市三峽區復興路489號","121.361038333333","24.9383233333333","6500900","三峽區"
"237005","AKY-6261","2019/09/03 18:29:27","新北市三峽區秀川街42號","121.371598333333","24.93398","6500900","三峽區"
"236042","KED-0685","2019/09/03 18:29:44","新北市土城區學成路91巷1號","121.450631666667","24.9879333333333","6501300","土城區"
"236079","166-UM","2019/09/03 18:29:30","新北市土城區中央路四段27巷10弄2號","121.424695","24.9618733333333","6501300","土城區"
"236026","269-VK","2019/09/03 18:29:42","新北市土城區南天母路135巷14號","121.448155","24.954585","6501300","土城區"
"236014","270-VK","2019/09/03 18:29:30","新北市土城區青雲路39巷7號","121.460343333333","24.9874066666667","6501300","土城區"
"236038","271-VK","2019/09/03 18:29:40","新北市土城區青雲路449號","121.458813333333","24.9750033333333","6501300","土城區"
"236070","KEA-2877","2019/09/03 18:29:39","新北市土城區永豐路255巷27弄35號","121.476541666667","24.9735283333333","6501300","土城區"
"252001","KED-0821","2019/09/03 18:29:43","新北市三芝區中興街二段24號","121.498861666667","25.255805","6502100","三芝區"
"236021","401-BY","2019/09/03 18:29:42","新北市土城區永豐路202巷14號","121.466155","24.9834066666667","6501300","土城區"
"236030","752-BX","2019/09/03 18:29:47","新北市土城區水源街73號","121.439585","24.9763633333333","6501300","土城區"
"236059","912-UM","2019/09/03 18:29:43","新北市土城區中央路四段29號","121.424023333333","24.96228","6501300","土城區"
"236049","913-UM","2019/09/03 18:29:36","新北市土城區青雲路480號","121.458748333333","24.97321","6501300","土城區"
"236063","915-UM","2019/09/03 18:29:33","新北市土城區延壽路77巷6弄9號","121.468485","24.9927016666667","6501300","土城區"
"236055","AAC-216","2019/09/03 18:29:25","新北市土城區福祥街101巷1號","121.44101","24.981755","6501300","土城區"
"242042","AAC-296","2019/09/03 18:29:45","新北市新莊區天祥街71巷16號","121.415391666667","25.02847","6500500","新莊區"
"242061","986-R7","2019/09/03 18:29:43","新北市新莊區後港一路160號","121.430748333333","25.0276183333333","6500500","新莊區"
"242027","613-BX","2019/09/03 18:29:44","新北市新莊區幸福路914號","121.442643333333","25.0489866666667","6500500","新莊區"
"242058","612-BX","2019/09/03 18:29:45","桃園市龜山區萬壽路一段78號","121.40827","25.0191383333333","6500500","新莊區"
"242054","497-BY","2019/09/03 18:29:38","新北市新莊區民安西路410巷12弄4號","121.427866666667","25.0090966666667","6500500","新莊區"
"242034","442-UM","2019/09/03 18:29:34","新北市板橋區大觀路三段2巷31號","121.435226666667","24.9967133333333","6500500","新莊區"
"242002","441-UM","2019/09/03 18:29:32","新北市新莊區瓊林路47-1號","121.445726666667","25.028265","6500500","新莊區"
"242044","415-TV","2019/09/03 18:29:43","新北市新莊區新北大道七段339號","121.41282","25.0276083333333","6500500","新莊區"
"242013","413-TV","2019/09/03 18:29:42","新北市樹林區中山路三段212號","121.382535","24.96614","6500500","新莊區"
"242025","362-BY","2019/09/03 18:29:37","新北市新莊區五工五路15號","121.45474","25.06217","6500500","新莊區"
"242009","349-TH","2019/09/03 18:29:33","新北市新莊區中正路100號","121.454655","25.0365883333333","6500500","新莊區"
"238015","755-BX","2019/09/03 18:29:48","新北市樹林區復興路360號","121.415718333333","24.9862","6500700","樹林區"
"238019","599-UM","2019/09/03 18:29:37","新北市樹林區國凱街136巷21號","121.423656666667","24.9796766666667","6500700","樹林區"
"238023","571-TV","2019/09/03 18:29:25","新北市樹林區三福街114號","121.406501666667","25.01626","6500700","樹林區"
"238024","5061-A6","2019/09/03 18:29:44","新北市樹林區育英街2巷52號","121.423598333333","24.9905483333333","6500700","樹林區"
"238018","KEA-2217","2019/09/03 18:29:34","新北市樹林區樹新路36-4號","121.428121666667","24.99515","6500700","樹林區"
"238025","303-VK","2019/09/03 18:29:30","新北市樹林區保安街一段120號","121.423435","24.9949533333333","6500700","樹林區"
"238017","283-BY","2019/09/03 18:29:37","新北市樹林區光榮街3巷1號","121.413078333333","25.00396","6500700","樹林區"
"238014","282-BY","2019/09/03 18:29:43","新北市樹林區大安路111巷41號","121.423245","24.9975","6500700","樹林區"
"238020","268-VK","2019/09/03 18:29:34","新北市樹林區三俊街43號","121.412505","25.0157","6500700","樹林區"
"238026","172-UY","2019/09/03 18:29:32","新北市樹林區中洲街52號","121.396883333333","24.9708683333333","6500700","樹林區"
"238016","169-UY","2019/09/03 18:29:46","新北市樹林區中山路一段412號","121.417466666667","24.98519","6500700","樹林區"
"239007","AAC-297","2019/09/03 18:29:40","新北市鶯歌區建國路278號","121.347","24.95337","6500800","鶯歌區"
"239006","891-R6","2019/09/03 18:29:38","新北市鶯歌區鶯桃路268巷18號","121.336","24.960445","6500800","鶯歌區"
"239008","527-UM","2019/09/03 18:29:45","新北市鶯歌區朝陽街4號","121.336261666667","24.9766016666667","6500800","鶯歌區"
"239005","526-UM","2019/09/03 18:29:32","新北市鶯歌區鳳吉二街148號","121.328623333333","24.97499","6500800","鶯歌區"
"239001","417-VK","2019/09/03 18:29:39","新北市鶯歌區國中街178號","121.338298333333","24.939195","6500800","鶯歌區"
"239003","360-BY","2019/09/03 18:29:48","新北市鶯歌區福安街58號","121.335568333333","24.965185","6500800","鶯歌區"
"239002","359-BY","2019/09/03 18:29:30","新北市鶯歌區國慶街186號","121.351375","24.9526133333333","6500800","鶯歌區"
"239004","193-VK","2019/09/03 18:29:43","新北市鶯歌區尖山路卓厝巷1-3號","121.341715","24.94611","6500800","鶯歌區"
"221036","130-UY","2019/09/03 18:29:26","新北市汐止區大同路三段143號","121.669366666667","25.07775","6501100","汐止區"
"221015","131-UY","2019/09/03 18:29:46","新北市汐止區鄉長路二段25號","121.66812","25.0827066666667","6501100","汐止區"
"221010","269-BY","2019/09/03 18:29:38","新北市汐止區汐萬路二段345號","121.644545","25.090785","6501100","汐止區"
"221012","278-VK","2019/09/03 18:29:31","新北市汐止區保長路35巷13號","121.67323","25.0801016666667","6501100","汐止區"
"221023","279-VK","2019/09/03 18:29:33","新北市汐止區康寧街474巷9號","121.632231666667","25.0678083333333","6501100","汐止區"
"221032","280-BY","2019/09/03 18:29:27","新北市汐止區民權街二段97巷10-1號","121.619233333333","25.0468283333333","6501100","汐止區"
"221027","281-BY","2019/09/03 18:29:48","新北市汐止區和平街84號","121.661461666667","25.07075","6501100","汐止區"
"221021","299-VK","2019/09/03 18:29:38","新北市汐止區連興街120號","121.653651666667","25.0625483333333","6501100","汐止區"
"221031","353-TW","2019/09/03 18:29:35","新北市汐止區光復街7巷3號","121.639321666667","25.0587783333333","6501100","汐止區"
"221035","622-UM","2019/09/03 18:29:34","新北市汐止區大同路二段187巷4弄1號","121.652353333333","25.0651233333333","6501100","汐止區"
"221025","623-UM","2019/09/03 18:29:32","新北市汐止區仁愛路116號","121.66277","25.0636583333333","6501100","汐止區"
"221038","646-BX","2019/09/03 18:29:39","新北市汐止區忠孝東路302號","121.66422","25.0687366666667","6501100","汐止區"
"221033","647-BX","2019/09/03 18:29:33","新北市汐止區宜興街64號","121.622633333333","25.0425316666667","6501100","汐止區"
"221002","707-TV","2019/09/03 18:29:33","新北市汐止區福德一路145號","121.63666","25.0668366666667","6501100","汐止區"
"221018","753-BX","2019/09/03 18:29:39","新北市汐止區茄苳路128巷2號","121.668243333333","25.0702366666667","6501100","汐止區"
"220056","276-BY","2019/09/03 18:29:46","新北市板橋區華東街1-9號","121.448125","24.99492","6500100","板橋區"
"220081","287-VK","2019/09/03 18:29:42","新北市板橋區華東街1-10號","121.448316666667","24.9949816666667","6500100","板橋區"
"220084","296-UM","2019/09/03 18:29:33","新北市板橋區華東街1-9號","121.448163333333","24.9949383333333","6500100","板橋區"
"242046","281-VK","2019/09/03 18:29:45","新北市新莊區中正路803巷45號","121.42217","25.027905","6500500","新莊區"
"242011","280-VK","2019/09/03 18:29:35","新北市新莊區中信街74號","121.448051666667","25.0525033333333","6500500","新莊區"
"220035","560-BX","2019/09/03 18:29:30","新北市板橋區南雅南路二段11-4號","121.454005","25.00244","6500100","板橋區"
"220057","686-BX","2019/09/03 18:29:25","新北市板橋區華東街1-10號","121.448688333333","24.9947683333333","6500100","板橋區"
"220077","687-BX","2019/09/03 18:29:35","新北市板橋區華東街1-10號","121.448341666667","24.9949783333333","6500100","板橋區"
"220054","741-BX","2019/09/03 18:29:33","新北市板橋區華東街1-9號","121.448195","24.9949316666667","6500100","板橋區"
"220055","827-TW","2019/09/03 18:29:31","新北市板橋區四川路二段140巷16弄28號","121.44874","24.99451","6500100","板橋區"
"220073","985-R7","2019/09/03 18:29:39","新北市板橋區四川路二段140巷18號","121.449398333333","24.99337","6500100","板橋區"
"220064","AAC-253","2019/09/03 18:29:36","新北市板橋區華東街262號","121.452581666667","25.0009383333333","6500100","板橋區"
"235068","KEA-2873","2019/09/03 18:29:40","新北市中和區中正路271-5號","121.495893333333","24.9933433333333","6500300","中和區"
"235061","KEA-2875","2019/09/03 18:29:15","新北市中和區民享街90巷16號","121.473896666667","25.0001683333333","6500300","中和區"
"235062","KEA-2876","2019/09/03 18:29:26","新北市中和區中山路二段312巷6號","121.495681666667","25.0027783333333","6500300","中和區"
