"lineid","car","time","location","longitude","latitude","cityid","cityname"
"234046","148-BY","2019/09/03 20:09:37","新北市永和區得和路415號","121.52562","24.9992516666667","6500400","永和區"
"234081","298-R6","2019/09/03 20:09:41","新北市永和區國中路12號","121.524303333333","25.00488","6500400","永和區"
"234038","336-UY","2019/09/03 20:09:36","新北市永和區成功路一段76號","121.526606666667","25.0033566666667","6500400","永和區"
"234064","337-UY","2019/09/03 20:09:38","新北市永和區永利路152號","121.522421666667","25.00276","6500400","永和區"
"234086","338-UY","2019/09/03 20:09:32","新北市永和區中正路620號","121.517073333333","25.0078216666667","6500400","永和區"
"234070","552-UM","2019/09/03 20:09:42","新北市永和區永貞路10巷14號","121.520158333333","25.00731","6500400","永和區"
"234017","745-BX","2019/09/03 20:09:44","新北市永和區文化路115號","121.512725","25.0152383333333","6500400","永和區"
"234030","746-BX","2019/09/03 20:09:26","新北市永和區民權路49巷5弄19號","121.520898333333","24.99765","6500400","永和區"
"234054","KEA-2590","2019/09/03 20:09:29","新北市永和區博愛街20巷2號","121.517795","25.01583","6500400","永和區"
"234007","KED-0605","2019/09/03 20:09:43","新北市永和區環河西路二段229巷5號","121.501511666667","25.0098766666667","6500400","永和區"
"234013","KEA-2591","2019/09/03 20:09:37","新北市永和區保順路11號","121.504735","25.0094833333333","6500400","永和區"
"234061","AAD-866","2019/09/03 20:09:39","新北市永和區安樂路58巷16號","121.515245","24.9980516666667","6500400","永和區"
"234042","862-TW","2019/09/03 20:09:41","新北市永和區雙和街14號","121.509536666667","25.0020966666667","6500400","永和區"
"234050","863-TW","2019/09/03 20:09:41","新北市永和區環河西路二段151號","121.505636666667","25.0139983333333","6500400","永和區"
"249005","172-UM","2019/09/03 20:09:28","新北市八里區下罟子58-8號","121.38767","25.1377983333333","6502300","八里區"
"249001","173-UM","2019/09/03 20:09:44","新北市八里區中華路二段326號","121.403288333333","25.1479283333333","6502300","八里區"
"249004","303-UY","2019/09/03 20:09:29","新北市八里區中山路一段217巷6號","121.411458333333","25.15761","6502300","八里區"
"249002","305-UY","2019/09/03 20:09:42","新北市五股區成泰路四段43-1號","121.455996666667","25.110745","6502300","八里區"
"249003","593-UM","2019/09/03 20:09:27","新北市八里區中山路二段540巷9弄2號","121.396841666667","25.1470933333333","6502300","八里區"
"248016","026-BX","2019/09/03 20:09:39","新北市五股區成泰路三段577巷80弄72號","121.448951666667","25.1047933333333","6501500","五股區"
"248008","KED-0815","2019/09/03 20:09:42","新北市三重區中正北路598巷4號","121.469726666667","25.0718566666667","6501500","五股區"
"248020","KED-0813","2019/09/03 20:09:43","新北市五股區凌雲路二段42號","121.439801666667","25.102685","6501500","五股區"
"248012","247-BX","2019/09/03 20:09:28","新北市五股區六合街70號","121.431846666667","25.0901383333333","6501500","五股區"
"248004","677-BX","2019/09/03 20:09:28","新北市五股區成泰路二段24號","121.43698","25.0810466666667","6501500","五股區"
"248002","678-BX","2019/09/03 20:09:37","新北市五股區成泰路三段369-1號","121.448823333333","25.0960483333333","6501500","五股區"
"248010","682-TV","2019/09/03 20:09:38","新北市五股區成泰路一段7巷38號","121.432566666667","25.0670966666667","6501500","五股區"
"234023","9380-KE","2019/09/03 20:09:45","新北市永和區中正路662巷27號","121.517735","25.0088666666667","6500400","永和區"
"234077","969-R7","2019/09/03 20:09:28","新北市永和區民有街24巷17號","121.516315","24.99577","6500400","永和區"
"234074","AAC-211","2019/09/03 20:09:40","新北市永和區豫溪街159-1號","121.521425","25.0104033333333","6500400","永和區"
"234067","AAC-212","2019/09/03 20:09:34","新北市永和區保平路214巷12弄1號","121.508968333333","25.0067716666667","6500400","永和區"
"234003","AAC-295","2019/09/03 20:09:28","新北市永和區中正路605號","121.51633","25.0097383333333","6500400","永和區"
"243012","AAD-798","2019/09/03 20:09:38","新北市泰山區楓江路21號","121.43409","25.06245","6501600","泰山區"
"243010","297-R6","2019/09/03 20:09:47","新北市泰山區明志路二段136巷22號","121.426275","25.051805","6501600","泰山區"
"243014","KEA-2801","2019/09/03 20:09:47","新北市泰山區明志路一段30號","121.433481666667","25.065425","6501600","泰山區"
"243016","421-VK","2019/09/03 20:09:33","新北市泰山區明志路三段405號","121.421243333333","25.0340383333333","6501600","泰山區"
"243009","KEA-2215","2019/09/03 20:09:29","新北市泰山區泰林路二段116巷4弄1號","121.435176666667","25.0595616666667","6501600","泰山區"
"243011","KEA-2216","2019/09/03 20:09:45","新北市新莊區丹鳳街36號","121.421586666667","25.02958","6501600","泰山區"
"243015","680-BX","2019/09/03 20:09:38","新北市泰山區明志路二段52號","121.429206666667","25.0528933333333","6501600","泰山區"
"222003","436-BY","2019/09/03 20:09:31","新北市深坑區埔新街62號","121.620096666667","25.0025266666667","6501800","深坑區"
"222002","659-BX","2019/09/03 20:09:37","新北市深坑區北深路三段158巷28號","121.601883333333","25.004225","6501800","深坑區"
"231061","002-UM","2019/09/03 20:09:41","新北市新店區安民街133巷15號","121.515778333333","24.9692483333333","6500600","新店區"
"231044","046-UY","2019/09/03 20:09:43","新北市新店區寶慶街66號","121.542003333333","24.9869016666667","6500600","新店區"
"231042","047-UY","2019/09/03 20:09:39","新北市新店區中興路二段89號","121.547063333333","24.9714483333333","6500600","新店區"
"231060","106-UY","2019/09/03 20:09:33","新北市新店區安康路三段237-1號","121.487443333333","24.951755","6500600","新店區"
"231051","107-UY","2019/09/03 20:09:39","新北市新店區中央路192號","121.530883333333","24.97476","6500600","新店區"
"231049","108-UY","2019/09/03 20:09:43","新北市新店區北新路二段139巷12弄1號","121.542106666667","24.975975","6500600","新店區"
"231065","110-UY","2019/09/03 20:09:28","新北市新店區安祥路106巷149號","121.473435","24.9588916666667","6500600","新店區"
"231068","187-VK","2019/09/03 20:09:34","新北市新店區中興路三段200號","121.5439","24.981925","6500600","新店區"
"231062","256-BX","2019/09/03 20:09:42","新北市新店區華潭街26巷1弄1號","121.529448333333","24.9537016666667","6500600","新店區"
"231054","260-TV","2019/09/03 20:09:36","新北市新店區檳榔路40號","121.54153","24.9637233333333","6500600","新店區"
"231064","278-BY","2019/09/03 20:09:37","新北市新店區安德街2號","121.512296666667","24.9628066666667","6500600","新店區"
"231050","AAD-862","2019/09/03 20:09:35","新北市新店區北新路一段303號","121.541458333333","24.9674016666667","6500600","新店區"
"231045","355-BY","2019/09/03 20:09:31","新北市新店區北宜路二段55號","121.549018333333","24.9514833333333","6500600","新店區"
"231055","4716-K9","2019/09/03 20:09:31","新北市新店區中華路48巷33號","121.541323333333","24.969505","6500600","新店區"
"231056","4715-K9","2019/09/03 20:09:34","新北市新店區中正路328巷1號","121.537081666667","24.9751566666667","6500600","新店區"
"231067","4772-VM","2019/09/03 20:09:39","新北市新店區溪洲路6巷88號","121.533163333333","24.9639633333333","6500600","新店區"
"231053","515-UM","2019/09/03 20:09:35","新北市新店區新烏路三段寶島巷2弄3號","121.552008333333","24.8986866666667","6500600","新店區"
"231063","616-UM","2019/09/03 20:09:32","新北市新店區黎明路53巷1號","121.50236","24.9487","6500600","新店區"
"231040","617-UM","2019/09/03 20:09:38","新北市新店區中正路86號","121.543648333333","24.9704533333333","6500600","新店區"
"231041","619-UM","2019/09/03 20:09:36","新北市新店區中正路407號","121.53429","24.977605","6500600","新店區"
"231048","KED-0819","2019/09/03 20:09:41","新北市新店區寶橋路69-1號","121.545415","24.9749883333333","6500600","新店區"
"231057","720-UM","2019/09/03 20:09:41","新北市新店區百齡一路12號","121.553065","24.93247","6500600","新店區"
"231059","897-TW","2019/09/03 20:09:41","新北市新店區安成街6號","121.510815","24.9602833333333","6500600","新店區"
"231043","899-TW","2019/09/03 20:09:25","新北市新店區民族路172號","121.537203333333","24.9764433333333","6500600","新店區"
"231066","AKT-0513","2019/09/03 20:09:40","新北市新店區安興路20號","121.515006666667","24.9659783333333","6500600","新店區"
"241011","013-R5","2019/09/03 20:09:41","新北市三重區三和路三段47巷19號","121.496256666667","25.0718033333333","6500200","三重區"
"241028","022-UY","2019/09/03 20:09:34","新北市三重區仁化街107號","121.494421666667","25.0580183333333","6500200","三重區"
"241008","059-VK","2019/09/03 20:09:29","新北市三重區永福街193號","121.47926","25.0747433333333","6500200","三重區"
"241031","061-VK","2019/09/03 20:09:24","新北市三重區過圳街9-1號","121.488846666667","25.0603666666667","6500200","三重區"
"241015","062-VK","2019/09/03 20:09:25","新北市三重區福德北路24號","121.502228333333","25.0648966666667","6500200","三重區"
"241017","063-VK","2019/09/03 20:09:28","新北市三重區自強路一段236號","121.493128333333","25.0669683333333","6500200","三重區"
"241024","065-VK","2019/09/03 20:09:39","新北市三重區中正北路314號","121.479303333333","25.0691733333333","6500200","三重區"
"241007","066-VK","2019/09/03 20:09:35","新北市三重區三和路四段111號","121.485921666667","25.07727","6500200","三重區"
"241002","090-VK","2019/09/03 20:09:32","新北市三重區仁忠街47號","121.495158333333","25.081545","6500200","三重區"
"241003","091-VK","2019/09/03 20:09:44","新北市三重區仁愛街443號","121.490175","25.0821366666667","6500200","三重區"
"241004","742-BX","2019/09/03 20:09:35","新北市三重區仁愛街425巷2號","121.490528333333","25.0816883333333","6500200","三重區"
"241006","262-UM","2019/09/03 20:09:44","新北市三重區力行路二段121號","121.483075","25.0764983333333","6500200","三重區"
"241016","266-UM","2019/09/03 20:09:34","新北市三重區大同北路54巷5號","121.494036666667","25.0633433333333","6500200","三重區"
"241009","267-UM","2019/09/03 20:09:30","新北市三重區三和路四段382巷75號","121.480716666667","25.0784116666667","6500200","三重區"
"241018","268-UM","2019/09/03 20:09:39","新北市三重區正義北路256巷91號","121.493931666667","25.0680166666667","6500200","三重區"
"241032","269-UM","2019/09/03 20:09:41","新北市三重區捷運路61號","121.483518333333","25.0555933333333","6500200","三重區"
"241013","270-UM","2019/09/03 20:09:37","新北市三重區三和路三段151巷37號","121.49364","25.074265","6500200","三重區"
"241025","271-UM","2019/09/03 20:09:43","新北市三重區中正北路253號","121.475343333333","25.0707283333333","6500200","三重區"
"241030","KED-0822","2019/09/03 20:09:45","新北市三重區成功路145巷33號","121.487731666667","25.0531833333333","6500200","三重區"
"241035","462-BY","2019/09/03 20:09:31","新北市三重區文化北路8號","121.499295","25.0635783333333","6500200","三重區"
"241020","478-VK","2019/09/03 20:09:29","新北市三重區三和路三段186-2號","121.492025","25.0735183333333","6500200","三重區"
"241026","480-VK","2019/09/03 20:09:33","新北市三重區福德南路65巷2號","121.502413333333","25.060385","6500200","三重區"
"241014","543-UM","2019/09/03 20:09:27","新北市三重區長樂街84號","121.501203333333","25.0694716666667","6500200","三重區"
"241001","547-UM","2019/09/03 20:09:31","新北市三重區三和路四段91號","121.488785","25.0756316666667","6500200","三重區"
"241005","AAD-863","2019/09/03 20:09:28","新北市三重區溪尾街267號","121.487706666667","25.082055","6500200","三重區"
"241022","KED-0820","2019/09/03 20:09:25","新北市三重區重陽路二段12號","121.486825","25.0620733333333","6500200","三重區"
"241023","887-TS","2019/09/03 20:09:46","新北市三重區頂崁街233號","121.47706","25.0684716666667","6500200","三重區"
"241012","941-UM","2019/09/03 20:09:29","新北市三重區仁愛街125巷113號","121.49909","25.0764966666667","6500200","三重區"
"241029","942-UM","2019/09/03 20:09:34","新北市三重區光明路32巷42號","121.492323333333","25.0589066666667","6500200","三重區"
"241033","AAC-255","2019/09/03 20:09:29","新北市三重區光復路一段61巷12號","121.47252","25.0493483333333","6500200","三重區"
"235066","003-UY","2019/09/03 20:09:30","新北市中和區水源路117號","121.508068333333","25.0035483333333","6500300","中和區"
"235039","097-UM","2019/09/03 20:09:25","新北市中和區大仁街19巷8號","121.517311666667","24.9932683333333","6500300","中和區"
"235065","098-UM","2019/09/03 20:09:38","新北市中和區永和路90巷2弄17號","121.49811","25.0056683333333","6500300","中和區"
"235004","150-BY","2019/09/03 20:09:36","新北市中和區保健路33巷9號","121.509141666667","24.997985","6500300","中和區"
"247016","KEA-2869","2019/09/03 20:09:32","新北市蘆洲區光華路160號","121.465608333333","25.0821483333333","6501400","蘆洲區"
"247010","KED-0682","2019/09/03 20:09:32","新北市蘆洲區信義路128號","121.479746666667","25.0825916666667","6501400","蘆洲區"
"235050","4979-A6","2019/09/03 20:09:42","新北市中和區安樂路66號","121.512175","24.9932866666667","6500300","中和區"
"235069","4980-A6","2019/09/03 20:09:31","新北市中和區景新街64巷11弄9號","121.5045","24.9981866666667","6500300","中和區"
"235070","558-UM","2019/09/03 20:09:36","新北市板橋區中山路二段50-6號","121.47352","25.0152916666667","6500300","中和區"
"235051","157-BY","2019/09/03 20:09:32","新北市中和區復興路268號","121.503216666667","24.9904633333333","6500300","中和區"
"235059","AAC-215","2019/09/03 20:09:28","新北市中和區圓通路335巷39號","121.493936666667","24.9892866666667","6500300","中和區"
"220065","072-UY","2019/09/03 20:09:44","新北市板橋區縣民大道二段118號","121.467353333333","25.015785","6500100","板橋區"
"220086","073-UY","2019/09/03 20:09:40","新北市板橋區大觀路二段205號","121.444401666667","24.9996416666667","6500100","板橋區"
"247006","893-R6","2019/09/03 20:09:47","新北市蘆洲區中山二路300巷2號","121.46865","25.0771416666667","6501400","蘆洲區"
"247020","546-UM","2019/09/03 20:09:39","新北市蘆洲區民義街68巷30號","121.474215","25.0892466666667","6501400","蘆洲區"
"247012","337-TH","2019/09/03 20:09:40","新北市蘆洲區民族路250巷11號","121.479878333333","25.0890766666667","6501400","蘆洲區"
"247004","336-TH","2019/09/03 20:09:43","新北市蘆洲區長安街285巷28號","121.456833333333","25.0839133333333","6501400","蘆洲區"
"247024","057-VK","2019/09/03 20:09:45","新北市蘆洲區光明路88巷29號","121.463355","25.0868716666667","6501400","蘆洲區"
"247014","056-VK","2019/09/03 20:09:44","新北市蘆洲區中山二路269號","121.46992","25.079535","6501400","蘆洲區"
"247018","053-VK","2019/09/03 20:09:28","新北市蘆洲區民族路314巷23號","121.478095","25.0906883333333","6501400","蘆洲區"
"247022","007-UY","2019/09/03 20:09:29","新北市蘆洲區三民路173號","121.471016666667","25.0872233333333","6501400","蘆洲區"
"247008","002-UY","2019/09/03 20:09:37","新北市蘆洲區中山一路135巷6弄25號","121.474913333333","25.0809216666667","6501400","蘆洲區"
"247002","001-UY","2019/09/03 20:09:45","新北市蘆洲區永康街58號","121.459191666667","25.08601","6501400","蘆洲區"
"226004","312-R5","2019/09/03 20:09:30","新北市平溪區嶺腳里嶺腳寮9-1號","121.747716666667","25.0297716666667","6502400","平溪區"
"228003","097-TW","2019/09/03 20:09:30","新北市貢寮區仁理村研海街20號","121.928318333333","25.0379283333333","6502600","貢寮區"
"224002","639-TC","2019/09/03 20:09:30","新北市瑞芳區員山子路3-9號","121.82006","25.1039616666667","6501200","瑞芳區"
"222001","KEA-2212","2019/09/03 20:09:35","新北市深坑區北深路三段212號","121.601163333333","25.003755","6501800","深坑區"
"251004","009-UM","2019/09/03 20:09:36","新北市淡水區民族路29巷46號","121.461796666667","25.1368133333333","6501000","淡水區"
"251015","KEA-2871","2019/09/03 20:09:37","新北市淡水區北新路三段112號","121.486266666667","25.188295","6501000","淡水區"
"251016","179-VK","2019/09/03 20:09:34","新北市淡水區番子田16-12號","121.45392","25.2312483333333","6501000","淡水區"
"251013","180-VK","2019/09/03 20:09:31","新北市淡水區奎柔山路580號","121.46874","25.2051466666667","6501000","淡水區"
"251008","181-VK","2019/09/03 20:09:39","新北市淡水區淡海路72巷33弄2號","121.42444","25.1826966666667","6501000","淡水區"
"251010","413-VK","2019/09/03 20:09:43","新北市淡水區新市二路二段8號","121.424363333333","25.1967016666667","6501000","淡水區"
"251012","441-VK","2019/09/03 20:09:46","新北市淡水區淡金路三段216號","121.448945","25.2046883333333","6501000","淡水區"
"251001","559-UM","2019/09/03 20:09:41","新北市淡水區淡金路二段15號","121.446358333333","25.1891716666667","6501000","淡水區"
"251006","561-UM","2019/09/03 20:09:44","新北市淡水區北新路141巷40號","121.448398333333","25.1796683333333","6501000","淡水區"
"251009","575-R6","2019/09/03 20:09:32","新北市淡水區英專路28巷18號","121.445951666667","25.1698666666667","6501000","淡水區"
"251014","577-R6","2019/09/03 20:05:32","新北市淡水區石頭厝2-1號","121.458083333333","25.2357433333333","6501000","淡水區"
"251011","650-BX","2019/09/03 20:09:27","新北市淡水區崁頂55-3號","121.442311666667","25.1966116666667","6501000","淡水區"
"251002","672-BX","2019/09/03 20:09:42","新北市淡水區中正路334號","121.435811666667","25.1731416666667","6501000","淡水區"
"251003","673-BX","2019/09/03 20:09:36","新北市淡水區中山北路二段1號","121.4443","25.18297","6501000","淡水區"
"207003","681-TV","2019/09/03 20:09:38","新北市萬里區大鵬里萬里加投166號","121.64325","25.2157183333333","6502800","萬里區"
"207004","291-VK","2019/09/03 20:09:41","新北市萬里區北基里愛三街11號","121.681766666667","25.1766133333333","6502800","萬里區"
"252002","178-VK","2019/09/03 20:09:37","新北市三芝區中正路一段72號","121.503933333333","25.2577133333333","6502100","三芝區"
"237012","275-BY","2019/09/03 20:09:40","新北市三峽區中華路98號","121.371175","24.9279733333333","6500900","三峽區"
"237006","5529-G3","2019/09/03 20:09:36","新北市三峽區中正路二段206-2號","121.365066666667","24.9144816666667","6500900","三峽區"
"237015","649-BX","2019/09/03 20:09:30","新北市三峽區介壽路二段138巷1弄98-8號","121.399078333333","24.932005","6500900","三峽區"
"237005","AKY-6261","2019/09/03 20:09:26","新北市三峽區三樹路98巷74弄1號","121.384253333333","24.9388666666667","6500900","三峽區"
"236026","269-VK","2019/09/03 20:09:42","新北市土城區中央路一段287號","121.444535","24.9843466666667","6501300","土城區"
"236014","270-VK","2019/09/03 20:09:30","新北市土城區德興街137號","121.455161666667","24.99173","6501300","土城區"
"236038","271-VK","2019/09/03 20:09:25","新北市土城區延吉街351號","121.464673333333","24.983955","6501300","土城區"
"236070","KEA-2877","2019/09/03 20:09:39","新北市土城區中央路三段177號","121.431453333333","24.96534","6501300","土城區"
"252001","KED-0821","2019/09/03 20:09:43","新北市三芝區公正街15號","121.499656666667","25.2578633333333","6502100","三芝區"
"236021","401-BY","2019/09/03 20:09:42","新北市土城區延吉街11號","121.472163333333","24.9889833333333","6501300","土城區"
"236030","752-BX","2019/09/03 20:09:07","新北市土城區中央路一段118巷1弄9號","121.445931666667","24.9879366666667","6501300","土城區"
"236059","912-UM","2019/09/03 20:09:45","新北市土城區中央路二段350號","121.440056666667","24.9717816666667","6501300","土城區"
"236049","913-UM","2019/09/03 20:09:36","新北市土城區清水路169號","121.459266666667","24.981505","6501300","土城區"
"236055","AAC-216","2019/09/03 20:09:44","新北市土城區中華路一段217號","121.442273333333","24.9843916666667","6501300","土城區"
"242042","AAC-296","2019/09/03 20:09:34","新北市新莊區青山路一段200-4號","121.397748333333","25.0318083333333","6500500","新莊區"
"242061","986-R7","2019/09/03 20:09:44","新北市新莊區瓊林路118-6號","121.442011666667","25.02504","6500500","新莊區"
"242005","751-BX","2019/09/03 20:09:42","新北市新莊區頭前路82號","121.466066666667","25.0525433333333","6500500","新莊區"
"242029","615-BX","2019/09/03 20:09:35","新北市新莊區中原路303號","121.447365","25.0543233333333","6500500","新莊區"
"242027","613-BX","2019/09/03 20:09:32","新北市新莊區中平路377巷16號","121.444168333333","25.0525333333333","6500500","新莊區"
"242058","612-BX","2019/09/03 20:09:41","新北市新莊區八德街167號","121.423376666667","25.0191316666667","6500500","新莊區"
"242048","566-BX","2019/09/03 20:09:32","新北市新莊區四維路152巷14號","121.422261666667","25.0230333333333","6500500","新莊區"
"242054","497-BY","2019/09/03 20:09:38","新北市新莊區西盛街387巷34弄5號","121.4285","25.01294","6500500","新莊區"
"242034","442-UM","2019/09/03 20:09:34","新北市新莊區中正路318巷15號","121.44631","25.0358916666667","6500500","新莊區"
"242002","441-UM","2019/09/03 20:09:32","新北市新莊區中正路53號","121.462433333333","25.0400233333333","6500500","新莊區"
"242007","440-UM","2019/09/03 20:09:36","新北市新莊區思源路453巷1號","121.459245","25.0534066666667","6500500","新莊區"
"242013","413-TV","2019/09/03 20:09:42","新北市新莊區中港路402號","121.452203333333","25.04994","6500500","新莊區"
"242051","400-BY","2019/09/03 20:09:44","新北市新莊區民安西路150巷19號","121.425238333333","25.0165183333333","6500500","新莊區"
"242025","362-BY","2019/09/03 20:09:32","新北市新莊區五權一路12巷25弄19號","121.458558333333","25.0646683333333","6500500","新莊區"
"242023","353-BY","2019/09/03 20:09:44","新北市新莊區化成路556號","121.466251666667","25.053825","6500500","新莊區"
"242015","132-UY","2019/09/03 20:09:36","新北市新莊區中平路26巷27號","121.446165","25.043395","6500500","新莊區"
"242039","135-UY","2019/09/03 20:09:39","新北市新莊區民安西路111巷1號","121.426851666667","25.018315","6500500","新莊區"
"242056","172-VK","2019/09/03 20:09:34","新北市新莊區新莊路649巷13弄14號","121.44562","25.0317866666667","6500500","新莊區"
"242017","173-VK","2019/09/03 20:09:33","新北市新莊區中港路360號","121.452021666667","25.0469233333333","6500500","新莊區"
"242032","175-VK","2019/09/03 20:09:37","新北市新莊區公園一路32號","121.443421666667","25.0353716666667","6500500","新莊區"
"242044","176-VK","2019/09/03 20:09:48","新北市新莊區中正路929巷22號","121.411166666667","25.0200016666667","6500500","新莊區"
"242021","346-TH","2019/09/03 20:09:24","新北市新莊區中興街13號","121.449153333333","25.036155","6500500","新莊區"
"242037","348-TH","2019/09/03 20:09:43","新北市新莊區建安街36號","121.427861666667","25.0250166666667","6500500","新莊區"
"242009","349-TH","2019/09/03 20:09:33","新北市新莊區昌隆街30號","121.45417","25.0506983333333","6500500","新莊區"
"242019","351-TH","2019/09/03 20:09:39","新北市新莊區長青街3號","121.45933","25.0424133333333","6500500","新莊區"
"239006","891-R6","2019/09/03 20:09:38","新北市鶯歌區文化路52號","121.356523333333","24.9548","6500800","鶯歌區"
"221008","489-VK","2019/09/03 20:09:46","新北市汐止區忠一街9巷7號","121.620535","25.0732016666667","6501100","汐止區"
"221036","130-UY","2019/09/03 20:09:26","新北市汐止區新台五路二段35號","121.662996666667","25.066425","6501100","汐止區"
"221015","131-UY","2019/09/03 20:09:46","新北市汐止區建成路15號","121.664518333333","25.0725416666667","6501100","汐止區"
"221010","269-BY","2019/09/03 20:09:38","新北市汐止區連峰街227號","121.645103333333","25.0810983333333","6501100","汐止區"
"221012","278-VK","2019/09/03 20:09:31","新北市汐止區大同路三段457號","121.679016666667","25.07128","6501100","汐止區"
"221023","279-VK","2019/09/03 20:09:32","新北市汐止區明峰街201號","121.627773333333","25.06936","6501100","汐止區"
"221032","280-BY","2019/09/03 20:09:47","新北市汐止區橫科路18巷33弄2號","121.617235","25.049565","6501100","汐止區"
"221027","281-BY","2019/09/03 20:09:28","新北市汐止區光明街28號","121.660198333333","25.0686433333333","6501100","汐止區"
"221029","298-VK","2019/09/03 20:09:46","新北市汐止區樟樹一路119巷8-6號","121.641291666667","25.0644466666667","6501100","汐止區"
"221021","299-VK","2019/09/03 20:09:38","新北市汐止區連興街144號","121.654018333333","25.06146","6501100","汐止區"
"221031","353-TW","2019/09/03 20:09:35","新北市汐止區福德一路260號","121.633071666667","25.0644016666667","6501100","汐止區"
"221035","622-UM","2019/09/03 20:09:33","新北市汐止區長江街39巷22號","121.655343333333","25.0721083333333","6501100","汐止區"
"221025","623-UM","2019/09/03 20:09:32","新北市汐止區秀峰路64-1號","121.659833333333","25.0645833333333","6501100","汐止區"
"221038","646-BX","2019/09/03 20:09:35","新北市汐止區忠孝東路528號","121.666935","25.0763533333333","6501100","汐止區"
"221033","647-BX","2019/09/03 20:09:33","新北市汐止區東勢街201巷104號","121.633511666667","25.0428683333333","6501100","汐止區"
"221018","753-BX","2019/09/03 20:09:38","新北市汐止區茄苳路319號","121.673658333333","25.0665266666667","6501100","汐止區"
"220079","145-BY","2019/09/03 20:09:36","新北市板橋區復興街129號","121.46086","25.01806","6500100","板橋區"
"220080","200-UY","2019/09/03 20:09:39","新北市板橋區大觀路二段179巷26號","121.445928333333","24.99968","6500100","板橋區"
"220082","610-BX","2019/09/03 20:09:36","新北市板橋區金門街182-3號","121.4327","24.9909283333333","6500100","板橋區"
"220101","245-BX","2019/09/03 20:09:45","新北市板橋區莊敬路77號","121.473103333333","25.02671","6500100","板橋區"
"220083","286-VK","2019/09/03 20:09:29","新北市板橋區僑中二街48巷16號","121.445693333333","25.0104383333333","6500100","板橋區"
"220081","287-VK","2019/09/03 20:09:42","新北市板橋區僑中一街124巷20弄38號","121.447618333333","25.0138633333333","6500100","板橋區"
"220061","293-UM","2019/09/03 20:09:33","新北市板橋區四川路一段274巷1弄2號","121.458328333333","25.001285","6500100","板橋區"
"220062","295-UM","2019/09/03 20:09:42","新北市板橋區中山路二段412巷21弄2號","121.483701666667","25.020075","6500100","板橋區"
"220067","299-UM","2019/09/03 20:09:31","新北市板橋區中山路一段206巷66弄2號","121.471881666667","25.01312","6500100","板橋區"
"242046","281-VK","2019/09/03 20:09:36","新北市新莊區裕民街85巷17號","121.419445","25.0233783333333","6500500","新莊區"
"220075","303-R5","2019/09/03 20:09:34","新北市板橋區金華街10巷95號","121.458635","25.0204733333333","6500100","板橋區"
"242011","280-VK","2019/09/03 20:09:35","新北市新莊區中信街54號","121.449201666667","25.0509283333333","6500500","新莊區"
"220035","560-BX","2019/09/03 20:09:30","新北市板橋區新生街53巷1弄10號","121.456971666667","25.021525","6500100","板橋區"
"220103","561-BX","2019/09/03 20:09:37","新北市板橋區漢生東路33巷17號","121.465811666667","25.0174233333333","6500100","板橋區"
"220077","687-BX","2019/09/03 20:09:45","新北市板橋區僑中一街124巷9弄2號","121.445973333333","25.0127883333333","6500100","板橋區"
"220054","741-BX","2019/09/03 20:09:39","新北市板橋區忠孝路201巷91號","121.464593333333","25.0046583333333","6500100","板橋區"
"220055","827-TW","2019/09/03 20:09:38","新北市板橋區仁愛路76巷5弄1號","121.46067","24.9988183333333","6500100","板橋區"
"220074","895-R6","2019/09/03 20:09:45","新北市板橋區縣民大道一段287號","121.460753333333","25.0101966666667","6500100","板橋區"
"220073","985-R7","2019/09/03 20:09:45","新北市板橋區館前西路162號","121.45281","25.0085883333333","6500100","板橋區"
"235068","KEA-2873","2019/09/03 20:09:40","新北市中和區福祥路85巷3號","121.498753333333","25.0057066666667","6500300","中和區"
