"lineid","car","time","location","longitude","latitude","cityid","cityname"
"249004","303-UY","2019/09/03 20:49:37","新北市八里區中山路一段150巷2號","121.41813","25.159635","6502300","八里區"
"234074","AAC-211","2019/09/03 20:49:40","新北市永和區環河東路二段36號","121.522651666667","25.01254","6500400","永和區"
"222003","436-BY","2019/09/03 20:49:31","新北市深坑區文山路三段48-1號","121.609945","24.9985166666667","6501800","深坑區"
"222002","659-BX","2019/09/03 20:49:37","新北市深坑區北深路三段93巷41號","121.60461","25.0004033333333","6501800","深坑區"
"231061","002-UM","2019/09/03 20:49:41","新北市新店區新和街93巷8號","121.520885","24.9866966666667","6500600","新店區"
"231058","0293-UT","2019/09/03 20:49:43","新北市新店區平等街39號","121.536476666667","24.973335","6500600","新店區"
"231044","046-UY","2019/09/03 20:49:43","新北市新店區中正路448-1號","121.534015","24.9786266666667","6500600","新店區"
"231042","047-UY","2019/09/03 20:49:39","新北市新店區寶高路102巷20號","121.552368333333","24.9739433333333","6500600","新店區"
"231060","106-UY","2019/09/03 20:49:33","新北市新店區安康路三段740號","121.473805","24.94198","6500600","新店區"
"231051","107-UY","2019/09/03 20:49:39","新北市新店區溪園路245號","121.526866666667","24.9826666666667","6500600","新店區"
"231049","108-UY","2019/09/03 20:49:45","新北市新店區永業路81巷9弄12號","121.531411666667","24.9508516666667","6500600","新店區"
"231065","110-UY","2019/09/03 20:49:28","新北市新店區安祥路69巷15號","121.481946666667","24.9614166666667","6500600","新店區"
"231068","187-VK","2019/09/03 20:49:34","新北市新店區寶元路二段14巷1號","121.545896666667","24.98255","6500600","新店區"
"231062","256-BX","2019/09/03 20:49:40","新北市新店區和成街18巷50號","121.488608333333","24.9461433333333","6500600","新店區"
"231054","260-TV","2019/09/03 20:49:36","新北市新店區五峰路26號","121.543651666667","24.9690083333333","6500600","新店區"
"231064","278-BY","2019/09/03 20:49:37","新北市新店區安民街322巷12號","121.518308333333","24.9741633333333","6500600","新店區"
"231050","AAD-862","2019/09/03 20:49:35","新北市新店區三民路20巷8號","121.537701666667","24.970835","6500600","新店區"
"231045","355-BY","2019/09/03 20:49:31","新北市新店區中興路一段216號","121.54395","24.965735","6500600","新店區"
"231067","4772-VM","2019/09/03 20:49:39","新北市新店區安德街148巷12弄2號","121.50796","24.960145","6500600","新店區"
"231053","515-UM","2019/09/03 20:49:35","新北市新店區新烏路一段145號","121.54938","24.921655","6500600","新店區"
"231063","616-UM","2019/09/03 20:49:38","新北市新店區如意街11-1號","121.495041666667","24.94834","6500600","新店區"
"231040","617-UM","2019/09/03 20:49:36","新北市新店區中正路270號","121.538935","24.97357","6500600","新店區"
"231041","619-UM","2019/09/03 20:49:32","新北市新店區中正路700巷3號","121.533441666667","24.9916433333333","6500600","新店區"
"231048","KED-0819","2019/09/03 20:49:45","新北市新店區文化路92號","121.544928333333","24.9824966666667","6500600","新店區"
"231057","720-UM","2019/09/03 20:49:41","新北市新店區新烏路一段60號","121.546141666667","24.9484633333333","6500600","新店區"
"231059","897-TW","2019/09/03 20:49:33","新北市新店區僑信路100號","121.499993333333","24.94737","6500600","新店區"
"231043","899-TW","2019/09/03 20:49:45","新北市新店區建國路99巷1號","121.540313333333","24.97718","6500600","新店區"
"231066","AKT-0513","2019/09/03 20:49:40","新北市新店區安民街365巷1弄8號","121.516356666667","24.9750666666667","6500600","新店區"
"241011","013-R5","2019/09/03 20:49:41","新北市三重區秀江街121號","121.499513333333","25.072115","6500200","三重區"
"241028","022-UY","2019/09/03 20:49:34","新北市三重區中正南路50號","121.493936666667","25.05992","6500200","三重區"
"241008","059-VK","2019/09/03 20:49:29","新北市三重區永福街72巷11號","121.479438333333","25.07682","6500200","三重區"
"241031","061-VK","2019/09/03 20:49:44","新北市三重區重陽路一段113巷3號","121.487578333333","25.0598616666667","6500200","三重區"
"241015","062-VK","2019/09/03 20:49:45","新北市三重區自強路一段8號","121.498798333333","25.0682583333333","6500200","三重區"
"241017","063-VK","2019/09/03 20:49:30","新北市三重區自強路一段272號","121.492228333333","25.067755","6500200","三重區"
"241024","065-VK","2019/09/03 20:49:34","新北市三重區中正北路235號","121.475856666667","25.0707583333333","6500200","三重區"
"241007","066-VK","2019/09/03 20:49:35","新北市三重區慈愛街8號","121.484505","25.0784016666667","6500200","三重區"
"241002","090-VK","2019/09/03 20:49:32","新北市三重區仁義街167巷55號","121.49899","25.0824116666667","6500200","三重區"
"241003","091-VK","2019/09/03 20:49:44","新北市三重區五華街141巷58號","121.493596666667","25.0868133333333","6500200","三重區"
"241004","742-BX","2019/09/03 20:49:44","新北市三重區分子尾街29號","121.489416666667","25.08132","6500200","三重區"
"241006","262-UM","2019/09/03 20:49:44","新北市三重區車路頭街137號","121.484173333333","25.076205","6500200","三重區"
"241016","266-UM","2019/09/03 20:49:34","新北市三重區雙園街117號","121.493495","25.06722","6500200","三重區"
"241009","267-UM","2019/09/03 20:49:30","新北市三重區三和路四段197號","121.48213","25.079215","6500200","三重區"
"241018","268-UM","2019/09/03 20:49:39","新北市三重區雙園街51號","121.495195","25.0676283333333","6500200","三重區"
"241032","269-UM","2019/09/03 20:49:41","新北市三重區重陽路一段120巷48號","121.485078333333","25.06016","6500200","三重區"
"241013","270-UM","2019/09/03 20:49:37","新北市三重區仁賢街12-1號","121.495688333333","25.0749","6500200","三重區"
"241025","271-UM","2019/09/03 20:49:43","新北市三重區貴陽街14號","121.484196666667","25.061825","6500200","三重區"
"241030","KED-0822","2019/09/03 20:49:45","新北市三重區環河南路221巷10號","121.491935","25.052245","6500200","三重區"
"241035","462-BY","2019/09/03 20:49:31","新北市三重區正義北路133號","121.496845","25.0664383333333","6500200","三重區"
"241020","478-VK","2019/09/03 20:49:29","新北市三重區忠孝路一段101號","121.489476666667","25.072165","6500200","三重區"
"241026","480-VK","2019/09/03 20:49:33","新北市三重區文化南路19號","121.500058333333","25.0620733333333","6500200","三重區"
"241014","543-UM","2019/09/03 20:49:27","新北市三重區安和路111號","121.500695","25.0701933333333","6500200","三重區"
"241001","547-UM","2019/09/03 20:49:31","新北市三重區三和路四段124號","121.489275","25.0751066666667","6500200","三重區"
"241005","AAD-863","2019/09/03 20:49:28","新北市三重區三信路182號","121.488073333333","25.0861716666667","6500200","三重區"
"241022","KED-0820","2019/09/03 20:49:44","新北市三重區中正北路20巷12號","121.488048333333","25.0625183333333","6500200","三重區"
"241023","887-TS","2019/09/03 20:49:25","新北市三重區忠孝路三段84巷1號","121.480358333333","25.06476","6500200","三重區"
"241012","941-UM","2019/09/03 20:49:29","新北市三重區仁信街29號","121.50125","25.0755866666667","6500200","三重區"
"241029","942-UM","2019/09/03 20:49:34","新北市三重區重安街18號","121.490348333333","25.0581766666667","6500200","三重區"
"241033","AAC-255","2019/09/03 20:49:29","新北市三重區光復路二段1號","121.472291666667","25.0533383333333","6500200","三重區"
"247016","KEA-2869","2019/09/03 20:49:29","新北市蘆洲區和平路77號","121.469265","25.079045","6501400","蘆洲區"
"247010","KED-0682","2019/09/03 20:49:32","新北市蘆洲區民族路42號","121.476678333333","25.0843916666667","6501400","蘆洲區"
"235069","4980-A6","2019/09/03 20:49:31","新北市中和區員山路296號","121.481268333333","25.0025166666667","6500300","中和區"
"220086","073-UY","2019/09/03 20:49:40","新北市板橋區華東街1-10號","121.448263333333","24.9950483333333","6500100","板橋區"
"247006","893-R6","2019/09/03 20:49:27","新北市蘆洲區永安南路二段16巷9號","121.467755","25.0774233333333","6501400","蘆洲區"
"247020","546-UM","2019/09/03 20:49:39","新北市蘆洲區仁愛街73號","121.471518333333","25.0937683333333","6501400","蘆洲區"
"247012","337-TH","2019/09/03 20:49:40","新北市蘆洲區復興路340巷35-1號","121.483753333333","25.0887766666667","6501400","蘆洲區"
"247004","336-TH","2019/09/03 20:49:43","新北市蘆洲區長安街103號","121.461585","25.0808616666667","6501400","蘆洲區"
"247024","057-VK","2019/09/03 20:49:28","新北市蘆洲區長樂路140號","121.462068333333","25.0902433333333","6501400","蘆洲區"
"247014","056-VK","2019/09/03 20:49:44","新北市蘆洲區三民路33號","121.475423333333","25.08302","6501400","蘆洲區"
"247018","053-VK","2019/09/03 20:49:27","新北市蘆洲區民權路66號","121.474993333333","25.0871666666667","6501400","蘆洲區"
"247022","007-UY","2019/09/03 20:49:29","新北市蘆洲區水湳街52號","121.471185","25.0898866666667","6501400","蘆洲區"
"247008","002-UY","2019/09/03 20:49:37","新北市三重區永安北路二段25巷1號","121.482143333333","25.081765","6501400","蘆洲區"
"247002","001-UY","2019/09/03 20:49:45","新北市蘆洲區長安街242號","121.457563333333","25.0860733333333","6501400","蘆洲區"
"222001","KEA-2212","2019/09/03 20:49:35","新北市深坑區北深路三段129號","121.604075","25.0026233333333","6501800","深坑區"
"251015","KEA-2871","2019/09/03 20:49:37","新北市淡水區淡金路三段446號","121.450781666667","25.2143883333333","6501000","淡水區"
"251016","179-VK","2019/09/03 20:49:34","新北市淡水區興仁路165號","121.451478333333","25.2201583333333","6501000","淡水區"
"251013","180-VK","2019/09/03 20:49:31","新北市淡水區行忠路98號","121.452166666667","25.1987333333333","6501000","淡水區"
"251010","413-VK","2019/09/03 20:49:43","新北市淡水區沙崙路145號","121.4233","25.1831016666667","6501000","淡水區"
"251012","441-VK","2019/09/03 20:49:28","新北市淡水區興仁路162號","121.451581666667","25.2206716666667","6501000","淡水區"
"251007","442-VK","2019/09/03 20:49:29","新北市淡水區鄧公路29巷24號","121.452676666667","25.1703316666667","6501000","淡水區"
"251001","559-UM","2019/09/03 20:49:41","新北市淡水區淡金路65號","121.456201666667","25.1614533333333","6501000","淡水區"
"251014","577-R6","2019/09/03 20:49:12","新北市淡水區公埔子32-8號","121.461658333333","25.2323783333333","6501000","淡水區"
"251011","650-BX","2019/09/03 20:49:27","新北市淡水區新市一路一段285號","121.434498333333","25.1864216666667","6501000","淡水區"
"251002","672-BX","2019/09/03 20:49:42","新北市淡水區鼻頭街18-5號","121.446811666667","25.16674","6501000","淡水區"
"251003","673-BX","2019/09/03 20:49:36","新北市淡水區中山北路一段247巷90號","121.44235","25.1794083333333","6501000","淡水區"
"242042","AAC-296","2019/09/03 20:49:34","新北市新莊區天祥街43號","121.416866666667","25.0287833333333","6500500","新莊區"
"242029","615-BX","2019/09/03 20:49:35","新北市新莊區新北大道四段219號","121.443591666667","25.0571033333333","6500500","新莊區"
"242027","613-BX","2019/09/03 20:49:32","新北市新莊區環河路116-1號","121.460615","25.0380716666667","6500500","新莊區"
"242058","612-BX","2019/09/03 20:49:34","新北市新莊區建國一路97號","121.434926666667","25.0287533333333","6500500","新莊區"
"242048","566-BX","2019/09/03 20:49:31","新北市新莊區中正路601號","121.432786666667","25.0320433333333","6500500","新莊區"
"242054","497-BY","2019/09/03 20:49:38","新北市新莊區新樹路258巷5-2號","121.431913333333","25.015965","6500500","新莊區"
"242034","442-UM","2019/09/03 20:49:34","新北市新莊區中正路240號","121.448231666667","25.0355483333333","6500500","新莊區"
"242002","441-UM","2019/09/03 20:49:32","新北市新莊區中港路五守新村23巷2號","121.455013333333","25.03845","6500500","新莊區"
"242013","413-TV","2019/09/03 20:49:42","新北市新莊區中和街175巷11號","121.447223333333","25.0506883333333","6500500","新莊區"
"242051","400-BY","2019/09/03 20:49:44","新北市新莊區民安西路52號","121.427421666667","25.0206283333333","6500500","新莊區"
"242025","362-BY","2019/09/03 20:49:32","新北市五股區天乙路101-6號","121.446068333333","25.1071216666667","6500500","新莊區"
"242015","132-UY","2019/09/03 20:49:31","新北市新莊區復興路二段143號","121.457581666667","25.0444933333333","6500500","新莊區"
"242032","175-VK","2019/09/03 20:49:45","新北市新莊區新北大道四段261號","121.442423333333","25.0560783333333","6500500","新莊區"
"242044","176-VK","2019/09/03 20:49:28","新北市新莊區龍安路108號","121.418358333333","25.0204616666667","6500500","新莊區"
"242037","348-TH","2019/09/03 20:49:33","新北市新莊區景德路219-1號","121.443045","25.0334983333333","6500500","新莊區"
"242009","349-TH","2019/09/03 20:49:33","新北市新莊區福壽街69號","121.458088333333","25.0495333333333","6500500","新莊區"
"242019","351-TH","2019/09/03 20:49:30","新北市新莊區新泰路357巷3弄37號","121.442233333333","25.040435","6500500","新莊區"
"221036","130-UY","2019/09/03 20:49:46","新北市汐止區南昌街45號","121.663125","25.0686416666667","6501100","汐止區"
"221015","131-UY","2019/09/03 20:49:46","新北市汐止區大同路二段605號","121.664038333333","25.0706883333333","6501100","汐止區"
"221012","278-VK","2019/09/03 20:49:31","新北市汐止區保新街27號","121.684398333333","25.0730416666667","6501100","汐止區"
"221027","281-BY","2019/09/03 20:49:38","新北市汐止區大同路二段373號","121.657286666667","25.0672983333333","6501100","汐止區"
"221021","299-VK","2019/09/03 20:49:37","新北市汐止區莊敬街126號","121.655326666667","25.0611716666667","6501100","汐止區"
"221035","622-UM","2019/09/03 20:49:33","新北市汐止區長江街101-5號","121.658721666667","25.0732433333333","6501100","汐止區"
"221033","647-BX","2019/09/03 20:49:32","新北市汐止區合順街18巷8弄5號","121.620345","25.04196","6501100","汐止區"
"221002","707-TV","2019/09/03 20:49:33","新北市汐止區福德二路193-1號","121.629366666667","25.064535","6501100","汐止區"
"220083","286-VK","2019/09/03 20:49:38","新北市板橋區僑中二街116巷29號","121.444398333333","25.0065883333333","6500100","板橋區"
"242011","280-VK","2019/09/03 20:49:35","新北市五股區成泰路一段8巷24號","121.437996666667","25.0663816666667","6500500","新莊區"
