"lineid","car","time","location","longitude","latitude","cityid","cityname"
"251004","009-UM","2019/09/03 21:59:38","新北市淡水區自強路201巷53號","121.462013333333","25.127065","6501000","淡水區"
"251008","181-VK","2019/09/03 21:59:39","新北市淡水區學府路104號","121.449873333333","25.171795","6501000","淡水區"
"251010","413-VK","2019/09/03 21:59:43","新北市淡水區中正路二段206號","121.426258333333","25.1890766666667","6501000","淡水區"
"251007","442-VK","2019/09/03 21:59:29","新北市淡水區北新路184巷19號","121.450266666667","25.178055","6501000","淡水區"
"251005","443-VK","2019/09/03 21:59:38","新北市淡水區鄧公路30巷1弄65號","121.454495","25.169615","6501000","淡水區"
"251006","561-UM","2019/09/03 21:41:00","新北市淡水區中正路11巷3號","121.437856666667","25.1707266666667","6501000","淡水區"
"251011","650-BX","2019/09/03 21:59:47","新北市淡水區水碓街7號","121.443158333333","25.1770883333333","6501000","淡水區"
"251003","673-BX","2019/09/03 21:59:36","新北市淡水區新春街92號","121.438925","25.1824416666667","6501000","淡水區"
