"lineid","car","time","location","longitude","latitude","cityid","cityname"
"251004","009-UM","2019/09/03 22:09:38","新北市淡水區民族路33號","121.462275","25.1358266666667","6501000","淡水區"
"251008","181-VK","2019/09/03 22:09:38","新北市淡水區學府路104號","121.449871666667","25.1717716666667","6501000","淡水區"
"251010","413-VK","2019/09/03 22:09:43","新北市淡水區沙崙路200號","121.42471","25.1839116666667","6501000","淡水區"
"251007","442-VK","2019/09/03 22:09:29","新北市淡水區北新路180號","121.449403333333","25.178665","6501000","淡水區"
"251005","443-VK","2019/09/03 22:09:38","新北市淡水區鄧公路19號","121.45143","25.169985","6501000","淡水區"
"251011","650-BX","2019/09/03 22:09:27","新北市淡水區水碓街7號","121.443158333333","25.1771283333333","6501000","淡水區"
