"lineid","car","time","location","longitude","latitude","cityid","cityname"
"251004","009-UM","2019/09/03 22:29:38","新北市淡水區民族路33號","121.462275","25.135825","6501000","淡水區"
"251008","181-VK","2019/09/03 22:29:38","新北市淡水區學府路104號","121.44987","25.1717816666667","6501000","淡水區"
"251010","413-VK","2019/09/03 22:29:48","新北市淡水區沙崙路232號","121.425501666667","25.1845466666667","6501000","淡水區"
"251007","442-VK","2019/09/03 22:29:29","新北市淡水區北新路180號","121.449293333333","25.1786016666667","6501000","淡水區"
"251011","650-BX","2019/09/03 22:29:27","新北市淡水區水碓街7號","121.443166666667","25.177135","6501000","淡水區"
