"lineid","car","time","location","longitude","latitude","cityid","cityname"
"232017","290-BY","2019/07/08 08:09:28","新北市坪林區坪雙路二段166號","121.768138333333","24.9597566666667","6502000","坪林區"
"232005","291-BY","2019/07/08 08:09:28","新北市坪林區鶯子瀨4-6號","121.708108333333","24.91509","6502000","坪林區"
"232012","705-BZ","2019/07/08 08:09:41","新北市坪林區九芎根3-1號","121.666766666667","24.886215","6502000","坪林區"
"232001","758-BX","2019/07/08 08:09:29","新北市坪林區下坑子口12號","121.719683333333","24.9407033333333","6502000","坪林區"
"244006","080-UY","2019/07/08 08:09:32","新北市林口區中湖43-5號","121.38178","25.092355","6501700","林口區"
"244001","248-BX","2019/07/08 08:09:31","新北市林口區嘉溪雅坑16號","121.339445","25.1071266666667","6501700","林口區"
"244018","402-UM","2019/07/08 08:09:46","新北市林口區竹林路17號","121.386571666667","25.0771","6501700","林口區"
"244012","KEA-2802","2019/07/08 08:09:34","新北市林口區中正路512號","121.381891666667","25.0770516666667","6501700","林口區"
"244022","483-VK","2019/07/08 08:09:32","新北市林口區仁愛路一段667巷43號","121.387043333333","25.07629","6501700","林口區"
"244016","485-VK","2019/07/08 08:09:39","新北市林口區文化一路二段202號","121.383386666667","25.0806283333333","6501700","林口區"
"244008","656-BX","2019/07/08 08:09:40","新北市林口區中北一街51號","121.385793333333","25.0883533333333","6501700","林口區"
"244010","701-TV","2019/07/08 08:09:35","新北市林口區仁愛路一段619號","121.390021666667","25.0766033333333","6501700","林口區"
"244024","837-TS","2019/07/08 08:09:29","新北市林口區中山路506號","121.379076666667","25.0828816666667","6501700","林口區"
"244020","838-TS","2019/07/08 08:09:24","新北市林口區粉寮路二段88巷101-1號","121.404888333333","25.090515","6501700","林口區"
"222005","289-BY","2019/07/08 08:09:32","新北市深坑區北深路二段130號","121.615986666667","25.0028633333333","6501800","深坑區"
"231007","189-VK","2019/07/08 08:09:38","新北市新店區新潭路一段22巷2號","121.523091666667","24.94302","6500600","新店區"
"231008","718-UY","2019/07/08 08:09:38","新北市新店區永興路41號","121.543696666667","24.9383833333333","6500600","新店區"
"247012","402-BY","2019/07/08 08:09:36","新北市蘆洲區長安街68巷4號","121.462883333333","25.0802133333333","6501400","蘆洲區"
"226001","7418-A5","2019/07/08 08:09:38","新北市平溪區十分里十分街1號","121.77309","25.0391266666667","6502400","平溪區"
"226003","AGD-0702","2019/07/08 08:09:25","新北市平溪區十分里十分街293號","121.775661666667","25.0470916666667","6502400","平溪區"
"223003","205-TH","2019/07/08 08:09:42","新北市石碇區北宜路五段80號","121.646268333333","24.95168","6501900","石碇區"
"223008","406-TH","2019/07/08 08:09:31","新北市石碇區蚯蚓坑22號","121.687878333333","25.0077266666667","6501900","石碇區"
"223001","592-UM","2019/07/08 08:09:28","新北市石碇區北宜路五段80號","121.646316666667","24.9516416666667","6501900","石碇區"
"223004","660-BX","2019/07/08 08:09:33","新北市石碇區雙溪33-6號","121.650001666667","25.0082883333333","6501900","石碇區"
"223007","661-BX","2019/07/08 08:09:39","新北市石碇區靜安路一段245號","121.687978333333","25.0084116666667","6501900","石碇區"
"223005","677-TV","2019/07/08 08:09:42","新北市石碇區外按6-2號","121.648418333333","24.9956433333333","6501900","石碇區"
"227003","282-VK","2019/07/08 08:09:34","新北市雙溪區上林里內平林120-10號","121.82388","25.0260033333333","6502500","雙溪區"
"252006","073-UM","2019/07/08 08:09:36","新北市三芝區後厝里大片頭81-1號","121.4589","25.2447866666667","6502100","三芝區"
"252004","292-VK","2019/07/08 08:09:27","新北市三芝區興華里車埕31-3號","121.503335","25.1948683333333","6502100","三芝區"
"237014","760-BX","2019/07/08 08:09:41","新北市三峽區有木106-5號","121.436276666667","24.8612883333333","6500900","三峽區"
"226005","ANY-2373","2019/07/08 08:09:45","新北市平溪區靜安路三段52巷10號","121.763786666667","25.0335533333333","6502400","平溪區"
"242038","AAC-296","2019/07/08 08:09:41","新北市新莊區民全街11號","121.428965","25.02144","6500500","新莊區"
"242059","986-R7","2019/07/08 08:09:42","新北市新莊區瓊林南路225號","121.43473","25.0087133333333","6500500","新莊區"
"242001","751-BX","2019/07/08 08:09:44","新北市新莊區新莊路435號","121.45008","25.03359","6500500","新莊區"
"242028","615-BX","2019/07/08 08:09:30","新北市新莊區復興路一段101號","121.449031666667","25.0429033333333","6500500","新莊區"
"242026","613-BX","2019/07/08 08:09:30","新北市新莊區福壽街116號","121.458016666667","25.050795","6500500","新莊區"
"242057","612-BX","2019/07/08 08:09:46","新北市新莊區中正路588號","121.427055","25.030365","6500500","新莊區"
"242045","566-BX","2019/07/08 08:09:29","新北市新莊區中正路589號","121.434171666667","25.0323116666667","6500500","新莊區"
"242049","497-BY","2019/07/08 08:09:32","新北市新莊區西盛街313號","121.42815","25.0152266666667","6500500","新莊區"
"242055","441-UM","2019/07/08 08:09:36","新北市新莊區瓊林路20號","121.449238333333","25.031455","6500500","新莊區"
"242003","440-UM","2019/07/08 08:09:39","新北市新莊區自立街198號","121.456635","25.0453983333333","6500500","新莊區"
"242040","415-TV","2019/07/08 08:09:29","新北市新莊區中正路514巷105弄2號","121.427683333333","25.03506","6500500","新莊區"
"242010","413-TV","2019/07/08 08:09:32","新北市新莊區中原路201-2號","121.451161666667","25.0539833333333","6500500","新莊區"
"242047","400-BY","2019/07/08 08:09:34","新北市新莊區萬安街147號","121.420475","25.0217033333333","6500500","新莊區"
"242024","362-BY","2019/07/08 08:09:40","新北市新莊區思源路448號","121.460021666667","25.053615","6500500","新莊區"
"242022","353-BY","2019/07/08 08:09:34","新北市新莊區民樂街34號","121.457815","25.0409583333333","6500500","新莊區"
"242012","132-UY","2019/07/08 08:09:42","新北市新莊區中誠街97號","121.449963333333","25.0477466666667","6500500","新莊區"
"242035","135-UY","2019/07/08 08:09:28","新北市新莊區建福路59巷45號","121.428606666667","25.02782","6500500","新莊區"
"242052","172-VK","2019/07/08 08:09:38","新北市樹林區樹新路120巷22號","121.430651666667","24.996665","6500500","新莊區"
"242014","173-VK","2019/07/08 08:09:40","新北市新莊區新泰路406巷1弄1號","121.444166666667","25.04393","6500500","新莊區"
"242020","175-VK","2019/07/08 08:09:45","新北市新莊區中華路一段164號","121.4527","25.04162","6500500","新莊區"
"242018","KED-0687","2019/07/08 08:09:31","新北市新莊區中港路208號","121.454676666667","25.04254","6500500","新莊區"
"242030","346-TH","2019/07/08 08:09:43","新北市新莊區新泰路361巷15號","121.44289","25.042965","6500500","新莊區"
"242043","347-TH","2019/07/08 08:09:37","新北市新莊區富國路65巷10號","121.419916666667","25.0264816666667","6500500","新莊區"
"242033","348-TH","2019/07/08 08:09:27","新北市新莊區新莊路637號","121.445193333333","25.0328966666667","6500500","新莊區"
"242006","349-TH","2019/07/08 08:09:30","新北市新莊區福樂街73號","121.456856666667","25.0477566666667","6500500","新莊區"
"242016","351-TH","2019/07/08 08:09:42","新北市新莊區復興路一段149巷21弄9號","121.449733333333","25.044095","6500500","新莊區"
"242008","280-VK","2019/07/08 08:09:40","新北市新莊區昌明街14巷18號","121.457403333333","25.0534733333333","6500500","新莊區"
