"lineid","car","time","location","longitude","latitude","cityid","cityname"
"232005","291-BY","2019/07/08 08:59:28","新北市坪林區魚堀10號","121.706093333333","24.905805","6502000","坪林區"
"244006","080-UY","2019/07/08 08:59:32","新北市林口區林口路113巷47號","121.387961666667","25.07989","6501700","林口區"
"244001","248-BX","2019/07/08 08:59:31","新北市林口區嘉溪雅坑5-4號","121.346516666667","25.0997333333333","6501700","林口區"
"244018","402-UM","2019/07/08 08:59:26","新北市林口區忠孝路552巷17-1號","121.374103333333","25.067245","6501700","林口區"
"244012","KEA-2802","2019/07/08 08:59:34","新北市林口區中正路514巷6弄1號","121.382233333333","25.0780866666667","6501700","林口區"
"244022","483-VK","2019/07/08 08:59:32","新北市林口區東湖路98號","121.385408333333","25.0737416666667","6501700","林口區"
"244016","485-VK","2019/07/08 08:59:39","新北市林口區八德路78號","121.365435","25.065615","6501700","林口區"
"244008","656-BX","2019/07/08 08:59:40","新北市林口區文化三路二段302號","121.377576666667","25.0840383333333","6501700","林口區"
"244010","701-TV","2019/07/08 08:59:35","新北市林口區中山路164號","121.390355","25.0788266666667","6501700","林口區"
"244024","837-TS","2019/07/08 08:59:29","新北市林口區過崙街88號","121.356066666667","25.0742866666667","6501700","林口區"
"244020","838-TS","2019/07/08 08:59:24","新北市林口區工六路58號","121.399463333333","25.0780633333333","6501700","林口區"
"222005","289-BY","2019/07/08 08:59:32","新北市深坑區大坪街19號","121.630658333333","25.0208816666667","6501800","深坑區"
"231007","189-VK","2019/07/08 08:59:38","新北市新店區新潭路三段220號","121.503716666667","24.9047916666667","6500600","新店區"
"231008","718-UY","2019/07/08 08:59:40","新北市新店區廣興路52-2號","121.539398333333","24.912975","6500600","新店區"
"247012","402-BY","2019/07/08 08:59:36","新北市蘆洲區九芎街90巷35-1號","121.464226666667","25.08187","6501400","蘆洲區"
"226001","7418-A5","2019/07/08 08:47:38","新北市平溪區東勢里番仔坑16號","121.756308333333","24.99183","6502400","平溪區"
"226003","AGD-0702","2019/07/08 08:59:25","新北市平溪區十分里十分街238號","121.778091666667","25.0440716666667","6502400","平溪區"
"223003","205-TH","2019/07/08 08:59:42","新北市石碇區北宜路六段水底寮巷25號","121.663558333333","24.9432383333333","6501900","石碇區"
"223008","406-TH","2019/07/08 08:59:31","新北市石碇區石汐路1號","121.678313333333","25.034135","6501900","石碇區"
"223001","592-UM","2019/07/08 08:59:28","新北市石碇區北宜路六段水底寮巷23號","121.664276666667","24.9421966666667","6501900","石碇區"
"223004","660-BX","2019/07/08 08:59:33","新北市石碇區崩山24-2號","121.678826666667","24.9677783333333","6501900","石碇區"
"223007","661-BX","2019/07/08 08:59:28","新北市石碇區碇南路二段7號","121.668456666667","25.0314766666667","6501900","石碇區"
"223005","677-TV","2019/07/08 08:59:42","新北市石碇區崩山24-2號","121.678606666667","24.9678466666667","6501900","石碇區"
"227003","282-VK","2019/07/08 08:58:33","新北市雙溪區泰平里泰平15-2號","121.842986666667","24.981515","6502500","雙溪區"
"252004","292-VK","2019/07/08 08:59:27","新北市三芝區興華里田心子31號","121.488845","25.200445","6502100","三芝區"
"237014","760-BX","2019/07/08 08:59:41","新北市三峽區插角180號","121.419646666667","24.886165","6500900","三峽區"
"242038","AAC-296","2019/07/08 08:59:41","新北市新莊區民安西路92號","121.426985","25.0192316666667","6500500","新莊區"
"242059","986-R7","2019/07/08 08:59:39","新北市新莊區民安西路23號","121.427161666667","25.0211616666667","6500500","新莊區"
"242001","751-BX","2019/07/08 08:59:44","新北市新莊區中正路145號","121.459445","25.0382033333333","6500500","新莊區"
"242028","615-BX","2019/07/08 08:59:30","新北市新莊區中原路215號","121.450391666667","25.0542316666667","6500500","新莊區"
"242026","613-BX","2019/07/08 08:59:41","新北市新莊區立信三街7巷1號","121.444156666667","25.050355","6500500","新莊區"
"242057","612-BX","2019/07/08 08:59:36","新北市新莊區中正路879-2號","121.41782","25.02637","6500500","新莊區"
"242045","566-BX","2019/07/08 08:59:29","新北市新莊區民安路21-1號","121.423026666667","25.02784","6500500","新莊區"
"242049","497-BY","2019/07/08 08:59:32","新北市新莊區民安西路191號","121.426111666667","25.0155183333333","6500500","新莊區"
"242055","441-UM","2019/07/08 08:59:36","新北市新莊區新樹路69-65號","121.441593333333","25.028985","6500500","新莊區"
"242003","440-UM","2019/07/08 08:59:39","新北市新莊區化成路63巷26弄13號","121.462933333333","25.0460416666667","6500500","新莊區"
"242040","415-TV","2019/07/08 08:59:29","新北市新莊區天祥街96號","121.415026666667","25.0295733333333","6500500","新莊區"
"242010","413-TV","2019/07/08 08:59:32","新北市新莊區中和街204巷7弄2號","121.448323333333","25.05042","6500500","新莊區"
"242047","400-BY","2019/07/08 08:59:33","新北市新莊區建安街76巷1弄13號","121.426081666667","25.02424","6500500","新莊區"
"242024","362-BY","2019/07/08 08:59:40","新北市新莊區五工路68巷2號","121.458951666667","25.0643666666667","6500500","新莊區"
"242022","353-BY","2019/07/08 08:59:37","新北市新莊區化成路688號","121.465933333333","25.0562066666667","6500500","新莊區"
"242012","132-UY","2019/07/08 08:59:42","新北市新莊區幸福路710巷6弄1號","121.450056666667","25.0496033333333","6500500","新莊區"
"242035","135-UY","2019/07/08 08:59:27","新北市新莊區民安路207巷38號","121.428598333333","25.0247433333333","6500500","新莊區"
"242052","172-VK","2019/07/08 08:59:38","新北市新莊區西盛街401號","121.427756666667","25.01277","6500500","新莊區"
"242014","173-VK","2019/07/08 08:59:40","新北市新莊區中和街31巷22號","121.447176666667","25.0438716666667","6500500","新莊區"
"242020","175-VK","2019/07/08 08:59:41","新北市新莊區中興街5號","121.449121666667","25.03598","6500500","新莊區"
"242018","KED-0687","2019/07/08 08:59:44","新北市新莊區博愛路8巷1號","121.456166666667","25.0437833333333","6500500","新莊區"
"242030","346-TH","2019/07/08 08:59:42","新北市新莊區新泰路225巷42號","121.444146666667","25.0389583333333","6500500","新莊區"
"242043","347-TH","2019/07/08 08:59:37","新北市新莊區龍安路71-3號","121.416048333333","25.0219883333333","6500500","新莊區"
"242033","348-TH","2019/07/08 08:59:40","新北市新莊區建中街81巷10弄12號","121.446915","25.0359733333333","6500500","新莊區"
"242006","349-TH","2019/07/08 08:59:10","新北市新莊區福壽街94巷11號","121.458965","25.050095","6500500","新莊區"
"242016","351-TH","2019/07/08 08:59:38","新北市新莊區中港三街21號","121.450571666667","25.0464333333333","6500500","新莊區"
"233003","KEA-2870","2019/07/08 08:59:37","新北市烏來區屯鹿35-1號","121.500466666667","24.794285","6502900","烏來區"
"242008","280-VK","2019/07/08 08:59:40","新北市新莊區福壽街99巷8弄2號","121.456798333333","25.0504766666667","6500500","新莊區"
