"lineid","car","time","location","longitude","latitude","cityid","cityname"
"234044","148-BY","2019/07/08 13:29:41","新北市永和區成功路二段44號","121.526533333333","25.0001416666667","6500400","永和區"
"234078","298-R6","2019/07/08 13:29:39","新北市永和區國中路104巷12弄15號","121.525671666667","25.0065583333333","6500400","永和區"
"234036","336-UY","2019/07/08 13:29:39","新北市永和區民樂街35巷1號","121.527566666667","25.0009933333333","6500400","永和區"
"234062","337-UY","2019/07/08 13:29:28","新北市永和區得和路243巷20號","121.520678333333","25.0009816666667","6500400","永和區"
"234084","338-UY","2019/07/08 13:29:27","新北市永和區林森路65號","121.524091666667","25.0041266666667","6500400","永和區"
"234068","552-UM","2019/07/08 13:29:39","新北市永和區竹林路177號","121.5206","25.0097883333333","6500400","永和區"
"234015","745-BX","2019/07/08 13:29:40","新北市永和區環河西路一段59號","121.513558333333","25.0181266666667","6500400","永和區"
"234028","746-BX","2019/07/08 13:29:38","新北市永和區民生路53號","121.522703333333","24.9977233333333","6500400","永和區"
"234052","KEA-2590","2019/07/08 13:29:33","新北市永和區永和路二段170號","121.515486666667","25.01312","6500400","永和區"
"234005","KED-0605","2019/07/08 13:29:25","新北市永和區中山路一段193號","121.509205","25.0088733333333","6500400","永和區"
"234012","KEA-2591","2019/07/08 13:29:44","新北市永和區中山路一段93號","121.511458333333","25.010725","6500400","永和區"
"234060","AAD-866","2019/07/08 13:29:40","新北市永和區中正路526號","121.517226666667","25.0050566666667","6500400","永和區"
"234040","862-TW","2019/07/08 13:29:38","新北市永和區永貞路300號","121.512136666667","25.004605","6500400","永和區"
"234048","863-TW","2019/07/08 13:29:36","新北市永和區信義路112號","121.512408333333","25.0142533333333","6500400","永和區"
"234025","9371-KE","2019/07/08 13:29:39","新北市永和區和平街34號","121.513145","25.0101133333333","6500400","永和區"
"234010","9373-KE","2019/07/08 13:29:29","新北市永和區仁愛路141巷30弄5號","121.51196","25.0115516666667","6500400","永和區"
"248013","025-BX","2019/07/08 13:29:21","新北市五股區成泰路一段207號","121.43517","25.0768066666667","6501500","五股區"
"248015","026-BX","2019/07/08 13:29:34","新北市五股區凌雲路一段83巷1-5號","121.450386666667","25.10072","6501500","五股區"
"248005","077-UY","2019/07/08 13:29:27","新北市五股區四維路38號","121.467258333333","25.0716716666667","6501500","五股區"
"248007","KED-0815","2019/07/08 13:29:26","新北市五股區中興路二段78-5號","121.461375","25.07861","6501500","五股區"
"248019","KED-0813","2019/07/08 13:29:20","新北市五股區孝義路82號","121.449296666667","25.115745","6501500","五股區"
"248011","247-BX","2019/07/08 13:29:26","新北市五股區御成路108號","121.441641666667","25.09349","6501500","五股區"
"248003","677-BX","2019/07/08 13:29:27","新北市五股區六合街3號","121.431931666667","25.0885716666667","6501500","五股區"
"248001","678-BX","2019/07/08 13:29:31","新北市五股區西雲路163號","121.446138333333","25.09434","6501500","五股區"
"248009","682-TV","2019/07/08 13:29:24","新北市五股區明德路12巷6號","121.433375","25.071805","6501500","五股區"
"234022","9380-KE","2019/07/08 13:29:22","新北市永和區環河東路二段46號","121.523095","25.0120366666667","6500400","永和區"
"234076","969-R7","2019/07/08 13:29:37","新北市永和區智光街53號","121.51722","24.9980333333333","6500400","永和區"
"234072","AAC-211","2019/07/08 13:29:40","新北市永和區永和路二段234號","121.51581","25.0145383333333","6500400","永和區"
"234066","AAC-212","2019/07/08 13:29:31","新北市永和區保平路174巷2號","121.510883333333","25.0067233333333","6500400","永和區"
"234001","AAC-295","2019/07/08 13:29:42","新北市永和區和平街93巷9弄2號","121.511613333333","25.00905","6500400","永和區"
"243002","297-R6","2019/07/08 13:29:40","新北市泰山區泰林路二段242號","121.43216","25.0621133333333","6501600","泰山區"
"243007","680-BX","2019/07/08 13:29:33","新北市泰山區黎明路23號","121.420928333333","25.0624383333333","6501600","泰山區"
"231030","002-UM","2019/07/08 13:29:32","新北市新店區安華路30巷1號","121.51951","24.9596566666667","6500600","新店區"
"231027","0293-UT","2019/07/08 13:29:43","新北市新店區環河路19巷7弄2號","121.537653333333","24.9606433333333","6500600","新店區"
"231005","046-UY","2019/07/08 13:29:35","新北市新店區北新路一段128號","121.542475","24.9698366666667","6500600","新店區"
"231029","106-UY","2019/07/08 13:29:31","新北市新店區安忠路205巷8號","121.510011666667","24.9550916666667","6500600","新店區"
"231013","108-UY","2019/07/08 13:29:21","新北市新店區環河路108-1號","121.536976666667","24.9642933333333","6500600","新店區"
"231036","110-UY","2019/07/08 13:29:25","新北市新店區建業路49號","121.479393333333","24.955315","6500600","新店區"
"231031","256-BX","2019/07/08 13:29:30","新北市新店區安豐路22巷20號","121.502988333333","24.9542666666667","6500600","新店區"
"231023","260-TV","2019/07/08 13:29:25","新北市新店區北宜路一段162號","121.540401666667","24.9534383333333","6500600","新店區"
"231003","268-BY","2019/07/08 13:29:26","新北市新店區中興路一段282號","121.545771666667","24.9683983333333","6500600","新店區"
"231035","278-BY","2019/07/08 13:29:35","新北市新店區安一路一段1-1號","121.519863333333","24.9615416666667","6500600","新店區"
"231014","AAD-862","2019/07/08 13:29:35","新北市新店區北宜路一段123-1號","121.540533333333","24.9534833333333","6500600","新店區"
"231006","355-BY","2019/07/08 13:29:23","新北市新店區安華路28-1號","121.519303333333","24.9609866666667","6500600","新店區"
"231038","3712-VJ","2019/07/08 13:29:34","新北市新店區安華路28-1號","121.519293333333","24.9606","6500600","新店區"
"231024","4716-K9","2019/07/08 13:29:25","新北市新店區中正路128巷11號","121.542495","24.9720016666667","6500600","新店區"
"231025","4715-K9","2019/07/08 13:29:35","新北市新店區中央五街38號","121.528521666667","24.9749516666667","6500600","新店區"
"231019","513-UM","2019/07/08 13:29:31","新北市新店區新烏路一段58-5號","121.546161666667","24.9492133333333","6500600","新店區"
"231018","515-UM","2019/07/08 13:29:40","新北市新店區中央路81號","121.532173333333","24.97665","6500600","新店區"
"231002","619-UM","2019/07/08 13:29:25","新北市新店區安康路一段35-1號","121.532018333333","24.9605916666667","6500600","新店區"
"231034","641-BX","2019/07/08 13:29:41","新北市新店區安忠路57巷11弄14號","121.515401666667","24.957865","6500600","新店區"
"231011","KED-0819","2019/07/08 13:29:36","新北市新店區光明街137號","121.539326666667","24.9620766666667","6500600","新店區"
"231010","719-UM","2019/07/08 13:29:24","新北市新店區中央路9號","121.533368333333","24.9785366666667","6500600","新店區"
"231026","720-UM","2019/07/08 13:29:35","新北市新店區安一路一段1-1號","121.519253333333","24.9613583333333","6500600","新店區"
"231028","897-TW","2019/07/08 13:29:37","新北市新店區安華路28-1號","121.5197","24.960865","6500600","新店區"
"231001","898-TW","2019/07/08 13:29:23","新北市新店區安康路一段50號","121.530183333333","24.96112","6500600","新店區"
"231004","899-TW","2019/07/08 13:29:38","新北市新店區安華路28-1號","121.519745","24.9610116666667","6500600","新店區"
"231037","AKT-0513","2019/07/08 13:29:22","新北市新店區薏仁坑路25號","121.496638333333","24.959485","6500600","新店區"
"235028","005-UY","2019/07/08 13:29:28","新北市中和區連城路139巷65號","121.496961666667","24.99709","6500300","中和區"
"235027","006-UY","2019/07/08 13:29:22","新北市中和區連城路343號","121.488203333333","24.9959216666667","6500300","中和區"
"235020","096-UM","2019/07/08 13:29:35","新北市中和區新民街93號","121.480945","25.0083383333333","6500300","中和區"
"235003","097-UM","2019/07/08 13:29:39","新北市中和區景平路172號","121.517035","24.9926183333333","6500300","中和區"
"235029","098-UM","2019/07/08 13:29:35","新北市中和區莊敬路49巷20弄32號","121.503295","25.005095","6500300","中和區"
"235004","150-BY","2019/07/08 13:29:36","新北市中和區保健路50巷62-1號","121.509395","24.9952366666667","6500300","中和區"
"235022","151-BY","2019/07/08 13:29:39","新北市中和區圓通路369巷72號","121.490173333333","24.982215","6500300","中和區"
"235019","183-VK","2019/07/08 13:29:38","新北市中和區莒光路120巷28號","121.471555","25.00169","6500300","中和區"
"235002","185-VK","2019/07/08 13:29:19","新北市中和區立人街63號","121.520078333333","24.994285","6500300","中和區"
"235013","186-VK","2019/07/08 13:29:36","新北市中和區景安路84號","121.505628333333","24.996135","6500300","中和區"
"235031","255-BX","2019/07/08 13:29:22","新北市中和區新生街186巷5弄27號","121.482908333333","24.998655","6500300","中和區"
"235008","293-VK","2019/07/08 13:29:36","新北市中和區復興路335號","121.500191666667","24.990245","6500300","中和區"
"235036","301-VK","2019/07/08 13:29:21","新北市中和區連城路253號","121.492723333333","24.9966816666667","6500300","中和區"
"235007","352-BY","2019/07/08 13:29:29","新北市中和區景平路271號","121.508041666667","24.9929416666667","6500300","中和區"
"235006","KEA-2878","2019/07/08 13:29:30","新北市中和區秀朗路三段175巷2號","121.524521666667","24.99125","6500300","中和區"
"247013","KEA-2869","2019/07/08 13:29:40","新北市五股區中興路三段163號","121.449165","25.08072","6501400","蘆洲區"
"235014","4979-A6","2019/07/08 13:29:29","新北市中和區景新街362巷5號","121.512","24.9901216666667","6500300","中和區"
"235033","4980-A6","2019/07/08 13:29:21","新北市中和區連城路127巷25號","121.497061666667","24.997695","6500300","中和區"
"235034","558-UM","2019/07/08 13:29:35","新北市中和區南華路73號","121.504876666667","24.9974083333333","6500300","中和區"
"235009","565-BX","2019/07/08 13:29:23","新北市中和區南山路236巷20弄36號","121.504681666667","24.9898466666667","6500300","中和區"
"235024","KED-0823","2019/07/08 13:29:31","新北市中和區中山路二段612號","121.481636666667","25.00543","6500300","中和區"
"235018","640-BX","2019/07/08 13:29:27","新北市中和區民享街86巷8號","121.474021666667","25.0009016666667","6500300","中和區"
"235011","732-UM","2019/07/08 13:29:23","新北市中和區南山路423號","121.507541666667","24.9894316666667","6500300","中和區"
"235010","733-UM","2019/07/08 13:29:36","新北市中和區南山路281號","121.504221666667","24.9922516666667","6500300","中和區"
"235035","783-BX","2019/07/08 13:29:40","新北市中和區中板路18巷3弄6號","121.484041666667","25.0134633333333","6500300","中和區"
"235021","801-TS","2019/07/08 13:29:33","新北市中和區員山路327巷3號","121.480768333333","25.0013366666667","6500300","中和區"
"235005","802-TS","2019/07/08 13:29:35","新北市永和區中和路483-3號","121.510556666667","25.0020633333333","6500300","中和區"
"235016","805-TS","2019/07/08 13:29:23","新北市中和區興南路二段96號","121.505216666667","24.9842233333333","6500300","中和區"
"235012","896-TW","2019/07/08 13:29:36","新北市中和區錦和路350-1號","121.490521666667","24.993615","6500300","中和區"
"235017","900-TW","2019/07/08 13:29:30","新北市中和區連城路607號","121.478186666667","24.9930866666667","6500300","中和區"
"235015","157-BY","2019/07/08 13:29:31","新北市中和區興南路二段142巷16號","121.502878333333","24.98419","6500300","中和區"
"235001","AAC-213","2019/07/08 13:29:23","新北市中和區景德街56號","121.517426666667","24.9914933333333","6500300","中和區"
"235023","AAC-215","2019/07/08 13:29:26","新北市中和區員山路36巷16-3號","121.485116666667","24.9912083333333","6500300","中和區"
"220013","072-UY","2019/07/08 13:29:40","新北市板橋區南雅南路二段140號","121.451666666667","24.9962366666667","6500100","板橋區"
"220034","073-UY","2019/07/08 13:29:27","新北市板橋區華東街1-10號","121.448248333333","24.9950733333333","6500100","板橋區"
"220017","AAD-861","2019/07/08 13:29:38","新北市板橋區南雅南路二段144巷60號","121.450188333333","24.9973183333333","6500100","板橋區"
"247012","402-BY","2019/07/08 13:29:07","新北市五股區中興路三段3-6號","121.449608333333","25.07877","6501400","蘆洲區"
"247011","056-VK","2019/07/08 13:29:33","新北市五股區中興路三段163號","121.44918","25.080995","6501400","蘆洲區"
"247005","002-UY","2019/07/08 13:29:38","新北市五股區中興路三段163號","121.449283333333","25.0809316666667","6501400","蘆洲區"
"223008","406-TH","2019/07/08 13:29:36","新北市石碇區小粗坑(格頭里)1號","121.650915","24.9519866666667","6501900","石碇區"
"253003","6232-TK","2019/07/08 13:29:35","新北市石門區內石門45-1號","121.571958333333","25.26524","6502200","石門區"
"253004","6251-TK","2019/07/08 13:29:38","新北市石門區竹子湖11號","121.617968333333","25.2584066666667","6502200","石門區"
"253002","637-UY","2019/07/08 13:29:39","新北市石門區九芎林5-2號","121.56122","25.2682916666667","6502200","石門區"
"253001","KEC-0718","2019/07/08 13:29:42","新北市石門區下員坑30-3號","121.519796666667","25.2824616666667","6502200","石門區"
"207002","749-BX","2019/07/08 13:29:32","新北市萬里區崁腳里崁腳路166號","121.645051666667","25.155815","6502800","萬里區"
"252005","073-UM","2019/07/08 13:29:41","新北市三芝區圓山里八連溪頭3-4號","121.525338333333","25.2224366666667","6502100","三芝區"
"207001","662-BX","2019/07/08 13:27:56","新北市萬里區龜吼里海景路1號","121.683585","25.1911066666667","6502800","萬里區"
"236012","270-VK","2019/07/08 13:29:30","新北市土城區城林路6巷80號","121.438643333333","24.9798216666667","6501300","土城區"
"247009","KED-0683","2019/07/08 13:29:32","新北市五股區中興路三段163號","121.449101666667","25.0810066666667","6501400","蘆洲區"
"220027","145-BY","2019/07/08 13:29:35","新北市板橋區華東街1-10號","121.44839","24.9950983333333","6500100","板橋區"
"220004","276-BY","2019/07/08 13:29:24","新北市板橋區華東街1-9號","121.448125","24.9949333333333","6500100","板橋區"
"220020","277-BY","2019/07/08 13:29:35","新北市板橋區華東街1-10號","121.448286666667","24.9951266666667","6500100","板橋區"
"220043","283-UM","2019/07/08 13:29:26","新北市板橋區民生路二段120號","121.470376666667","25.0199016666667","6500100","板橋區"
"220019","283-VK","2019/07/08 13:29:30","新北市板橋區華東街1-9號","121.448026666667","24.99496","6500100","板橋區"
"220031","286-VK","2019/07/08 13:29:35","新北市板橋區華東街1-10號","121.448441666667","24.9951083333333","6500100","板橋區"
"220029","287-VK","2019/07/08 13:29:28","新北市板橋區華東街1-10號","121.448243333333","24.9950083333333","6500100","板橋區"
"220032","296-UM","2019/07/08 13:29:35","新北市板橋區華東街1-9號","121.448146666667","24.99496","6500100","板橋區"
"220038","487-VK","2019/07/08 13:29:30","新北市板橋區民生路二段120號","121.470525","25.0199433333333","6500100","板橋區"
"220104","560-BX","2019/07/08 13:29:40","新北市板橋區南雅南路一段121號","121.455165","25.00468","6500100","板橋區"
"220005","686-BX","2019/07/08 13:29:26","新北市板橋區四川路二段130巷25弄8-1號","121.449095","24.9944783333333","6500100","板橋區"
"220025","687-BX","2019/07/08 13:29:23","新北市板橋區板城路421號","121.448191666667","24.996165","6500100","板橋區"
"220022","895-R6","2019/07/08 13:29:27","新北市板橋區南雅南路二段144巷1號","121.45148","24.996115","6500100","板橋區"
"220021","985-R7","2019/07/08 13:29:24","新北市板橋區四川路二段140巷12號","121.449526666667","24.9932616666667","6500100","板橋區"
"220046","AAC-210","2019/07/08 13:29:25","新北市板橋區民生路二段120號","121.47036","25.0197116666667","6500100","板橋區"
"220012","AAC-253","2019/07/08 13:29:30","新北市板橋區南雅南路二段120-24號","121.45172","24.9988933333333","6500100","板橋區"
"235032","KEA-2873","2019/07/08 13:29:29","新北市中和區中正路269號","121.495845","24.9935366666667","6500300","中和區"
"235025","KEA-2875","2019/07/08 13:29:30","新北市中和區民享街95-2號","121.474918333333","25.0002","6500300","中和區"
