"lineid","car","time","location","longitude","latitude","cityid","cityname"
"249005","172-UM","2019/07/08 16:49:32","新北市八里區大堀湖2-3號","121.422661666667","25.1537083333333","6502300","八里區"
"249004","303-UY","2019/07/08 16:49:29","新北市八里區挖子尾街100號","121.411433333333","25.1651866666667","6502300","八里區"
"249002","305-UY","2019/07/08 16:49:39","新北市八里區牛寮埔33號","121.429891666667","25.1457","6502300","八里區"
"249003","593-UM","2019/07/08 16:49:31","新北市八里區中山路二段289號","121.401618333333","25.148535","6502300","八里區"
"244007","080-UY","2019/07/08 16:49:24","新北市林口區竹林路276巷1號","121.38995","25.0815","6501700","林口區"
"244019","402-UM","2019/07/08 16:49:32","新北市林口區粉寮路二段160巷28號","121.40514","25.090815","6501700","林口區"
"244023","483-VK","2019/07/08 16:49:35","新北市林口區粉寮路二段160巷28號","121.405115","25.0907666666667","6501700","林口區"
"244009","656-BX","2019/07/08 16:49:32","新北市林口區粉寮69號","121.405053333333","25.0908766666667","6501700","林口區"
"231046","719-UM","2019/07/08 16:49:15","新北市新店區灣潭路58號","121.540228333333","24.942345","6500600","新店區"
"241011","013-R5","2019/07/08 16:49:30","新北市三重區仁愛街55巷87號","121.500023333333","25.0729683333333","6500200","三重區"
"241028","022-UY","2019/07/08 16:49:29","新北市三重區光興街89號","121.497465","25.0599166666667","6500200","三重區"
"241008","059-VK","2019/07/08 16:49:40","新北市三重區永福街179巷28號","121.477941666667","25.0748416666667","6500200","三重區"
"241029","060-VK","2019/07/08 16:49:41","新北市三重區新興路33號","121.492076666667","25.0535116666667","6500200","三重區"
"241031","061-VK","2019/07/08 16:49:38","新北市三重區過圳街42-13號","121.4876","25.0605483333333","6500200","三重區"
"241015","062-VK","2019/07/08 16:49:44","新北市三重區文化北路43巷14號","121.49934","25.0655466666667","6500200","三重區"
"241017","063-VK","2019/07/08 16:49:39","新北市三重區國隆路8巷29號","121.492745","25.0635416666667","6500200","三重區"
"241024","065-VK","2019/07/08 16:49:26","新北市三重區中正北路317巷38號","121.476298333333","25.073205","6500200","三重區"
"241022","066-VK","2019/07/08 16:49:36","新北市三重區中華路111巷6號","121.48392","25.0635016666667","6500200","三重區"
"241002","090-VK","2019/07/08 16:49:25","新北市三重區仁義街143巷4號","121.497391666667","25.0807516666667","6500200","三重區"
"241003","091-VK","2019/07/08 16:49:32","新北市三重區五華街87巷24號","121.492786666667","25.0839083333333","6500200","三重區"
"241030","742-BX","2019/07/08 16:49:37","新北市三重區新興路1號","121.492888333333","25.0530766666667","6500200","三重區"
"241005","262-UM","2019/07/08 16:49:38","新北市三重區碧華街129號","121.486123333333","25.08202","6500200","三重區"
"241016","266-UM","2019/07/08 16:49:40","新北市三重區大同北路167巷41號","121.493775","25.0651016666667","6500200","三重區"
"241018","268-UM","2019/07/08 16:49:24","新北市三重區安樂街79號","121.494748333333","25.0693433333333","6500200","三重區"
"241032","269-UM","2019/07/08 16:49:33","新北市三重區重陽路一段120巷35號","121.485076666667","25.0602483333333","6500200","三重區"
"241013","270-UM","2019/07/08 16:49:34","新北市三重區仁壽街72號","121.498133333333","25.0738116666667","6500200","三重區"
"241023","271-UM","2019/07/08 16:49:27","新北市三重區新北大道一段206巷16號","121.482505","25.0621933333333","6500200","三重區"
"241007","398-BY","2019/07/08 16:49:38","新北市三重區三和路四段181巷68號","121.48414","25.07949","6500200","三重區"
"241004","475-VK","2019/07/08 16:49:28","新北市三重區仁愛街397巷1號","121.491445","25.0810816666667","6500200","三重區"
"241020","478-VK","2019/07/08 16:49:37","新北市三重區忠孝路二段34號","121.485856666667","25.0710366666667","6500200","三重區"
"241026","480-VK","2019/07/08 16:49:33","新北市三重區文化南路10巷26號","121.500923333333","25.0622266666667","6500200","三重區"
"241014","543-UM","2019/07/08 16:49:31","新北市三重區長壽街120巷11號","121.502511666667","25.0690683333333","6500200","三重區"
"241001","547-UM","2019/07/08 16:49:29","新北市三重區仁政街54巷40號","121.492111666667","25.0766716666667","6500200","三重區"
"241019","KEA-2593","2019/07/08 16:49:23","新北市三重區三張街149巷10弄13號","121.485938333333","25.06977","6500200","三重區"
"241006","AAD-863","2019/07/08 16:49:30","新北市三重區力行路二段182-3號","121.483378333333","25.0773783333333","6500200","三重區"
"241025","887-TS","2019/07/08 16:49:27","新北市三重區中正北路530巷8號","121.472066666667","25.0706983333333","6500200","三重區"
"241012","941-UM","2019/07/08 16:49:37","新北市三重區仁興街11巷84號","121.50197","25.0748783333333","6500200","三重區"
"241033","AAC-255","2019/07/08 16:49:40","新北市三重區中興北街275號","121.469103333333","25.06082","6500200","三重區"
"235064","005-UY","2019/07/08 16:47:18","新北市中和區員山路36巷16-3號","121.485001666667","24.99123","6500300","中和區"
"247014","KEA-2869","2019/07/08 16:49:40","新北市蘆洲區三民路89號","121.47438","25.0846383333333","6501400","蘆洲區"
"247008","KED-0682","2019/07/08 16:49:32","新北市蘆洲區中山一路174號","121.474336666667","25.0813266666667","6501400","蘆洲區"
"235054","640-BX","2019/07/08 16:49:26","新北市中和區員山路36巷16-2號","121.485376666667","24.9915933333333","6500300","中和區"
"247012","402-BY","2019/07/08 16:49:36","新北市蘆洲區三民路593-1號","121.46106","25.093525","6501400","蘆洲區"
"247024","337-TH","2019/07/08 16:49:42","新北市蘆洲區長興路202號","121.46056","25.08744","6501400","蘆洲區"
"247012","056-VK","2019/07/08 16:49:32","新北市蘆洲區中正路520巷9號","121.462383333333","25.09954","6501400","蘆洲區"
"247016","053-VK","2019/07/08 16:49:31","新北市蘆洲區中正路96號","121.470016666667","25.0839133333333","6501400","蘆洲區"
"247006","002-UY","2019/07/08 16:49:28","新北市蘆洲區永安南路二段132-1號","121.462605","25.07855","6501400","蘆洲區"
"228003","097-TW","2019/07/08 16:49:21","新北市貢寮區貢寮里朝陽街1-2號","121.912408333333","25.0212316666667","6502600","貢寮區"
"228002","828-UM","2019/07/08 16:49:23","新北市貢寮區貢寮里朝陽街120巷28號","121.907998333333","25.0230366666667","6502600","貢寮區"
"224007","285-BY","2019/07/08 16:49:41","新北市瑞芳區中央路48巷56-8號","121.760388333333","25.1036416666667","6501200","瑞芳區"
"224009","275-VK","2019/07/08 16:49:27","新北市瑞芳區逢甲路17號","121.809456666667","25.108315","6501200","瑞芳區"
"224008","273-VK","2019/07/08 16:49:35","新北市瑞芳區大寮路356-1號","121.78475","25.1031833333333","6501200","瑞芳區"
"224005","271-BY","2019/07/08 16:49:38","新北市瑞芳區洞頂路157號","121.861445","25.122395","6501200","瑞芳區"
"227001","642-TC","2019/07/08 16:49:38","新北市雙溪區三貂里子崙坑1-6號","121.84994","25.05744","6502500","雙溪區"
"227002","400-TW","2019/07/08 16:49:35","新北市雙溪區長源里柑腳37號","121.803798333333","25.0135333333333","6502500","雙溪區"
"251004","009-UM","2019/07/08 16:49:26","新北市淡水區中正路二段31號","121.419321666667","25.181715","6501000","淡水區"
"251015","KEA-2871","2019/07/08 16:49:29","新北市淡水區淡金路二段81號","121.451908333333","25.1812683333333","6501000","淡水區"
"251016","179-VK","2019/07/08 16:49:43","新北市淡水區水頭42號","121.47817","25.1850966666667","6501000","淡水區"
"251013","180-VK","2019/07/08 16:49:24","新北市淡水區泉洲厝32號","121.489291666667","25.192575","6501000","淡水區"
"251008","181-VK","2019/07/08 16:49:36","新北市淡水區民生路135巷98號","121.468665","25.1414016666667","6501000","淡水區"
"251012","441-VK","2019/07/08 16:49:36","新北市淡水區中正路二段31號","121.41948","25.1815916666667","6501000","淡水區"
"251007","442-VK","2019/07/08 16:49:24","新北市淡水區中正路一段85號","121.422491666667","25.178815","6501000","淡水區"
"251014","577-R6","2019/07/08 16:49:31","新北市淡水區淡金路三段31號","121.446425","25.197595","6501000","淡水區"
"251011","650-BX","2019/07/08 16:49:43","新北市淡水區中正路一段116號","121.423308333333","25.178265","6501000","淡水區"
"252002","178-VK","2019/07/08 16:49:23","新北市三芝區茂長里陳厝坑61-4號","121.513053333333","25.2550616666667","6502100","三芝區"
"233002","762-BX","2019/07/08 16:49:27","新北市烏來區啦卡路62號","121.55903","24.858265","6502900","烏來區"
"247010","KED-0683","2019/07/08 16:49:34","新北市蘆洲區環堤大道365號","121.457283333333","25.097395","6501400","蘆洲區"
"252001","KED-0821","2019/07/08 16:49:36","新北市三芝區淡金路二段89-1號","121.503981666667","25.2608483333333","6502100","三芝區"
"242039","AAC-296","2019/07/08 16:49:35","新北市新莊區新泰路357巷3弄57號","121.442253333333","25.0394233333333","6500500","新莊區"
"238023","601-UM","2019/07/08 16:49:29","新北市樹林區中正路433-2號","121.415025","25.00835","6500700","樹林區"
"238012","303-VK","2019/07/08 16:49:36","新北市樹林區中正路22-1號","121.427878333333","24.9994266666667","6500700","樹林區"
"238017","283-BY","2019/07/08 16:49:30","新北市樹林區中正路433-1號","121.414946666667","25.0081266666667","6500700","樹林區"
"238001","282-BY","2019/07/08 16:49:25","新北市樹林區大慶街99-1號","121.427771666667","24.99971","6500700","樹林區"
"239007","AAC-297","2019/07/08 16:49:37","新北市鶯歌區二甲路13-16號","121.345065","24.9351316666667","6500800","鶯歌區"
"239008","527-UM","2019/07/08 16:49:28","新北市鶯歌區二甲路13-16號","121.345178333333","24.93547","6500800","鶯歌區"
"239001","417-VK","2019/07/08 16:49:24","新北市鶯歌區二甲路13-16號","121.345518333333","24.9354283333333","6500800","鶯歌區"
"233001","KEA-2870","2019/07/08 16:49:38","新北市烏來區啦卡路5號","121.553978333333","24.8637566666667","6502900","烏來區"
"242009","280-VK","2019/07/08 16:49:26","新北市新莊區三和路12-21號","121.442061666667","25.0382733333333","6500500","新莊區"
"220037","491-VK","2019/07/08 16:49:32","新北市板橋區懷德街127巷23弄9號","121.479343333333","25.031625","6500100","板橋區"
