"lineid","car","time","location","longitude","latitude","cityid","cityname"
"234026","9371-KE","2019/07/08 17:59:34","新北市永和區永和路一段41號","121.512771666667","25.0061983333333","6500400","永和區"
"249005","172-UM","2019/07/08 17:59:32","新北市八里區荖阡坑路24-11號","121.39857","25.1383416666667","6502300","八里區"
"249001","173-UM","2019/07/08 17:59:32","新北市八里區龍米路二段35號","121.448346666667","25.13999","6502300","八里區"
"249004","303-UY","2019/07/08 17:59:29","新北市八里區大崁腳47-3號","121.42448","25.1589766666667","6502300","八里區"
"249002","305-UY","2019/07/08 17:59:38","新北市八里區龍形五街35巷3號","121.449391666667","25.13305","6502300","八里區"
"249003","593-UM","2019/07/08 17:59:31","新北市八里區中華路二段165巷19弄26號","121.41039","25.15177","6502300","八里區"
"248014","025-BX","2019/07/08 17:59:36","新北市五股區中興路三段163號","121.44674","25.080585","6501500","五股區"
"248016","026-BX","2019/07/08 17:59:33","新北市五股區中興路二段161號","121.457838333333","25.077105","6501500","五股區"
"248006","077-UY","2019/07/08 17:59:30","新北市五股區中興路二段37巷28號","121.460221666667","25.07481","6501500","五股區"
"248008","KED-0815","2019/07/08 17:59:37","新北市五股區中興路二段150號","121.45872","25.078445","6501500","五股區"
"248018","KED-0813","2019/07/08 17:59:23","新北市五股區中興路二段63巷17號","121.460155","25.0754883333333","6501500","五股區"
"248004","677-BX","2019/07/08 17:59:32","新北市五股區更洲路47號","121.456955","25.0790666666667","6501500","五股區"
"248010","682-TV","2019/07/08 17:59:27","新北市五股區中興路二段37巷28號","121.460156666667","25.0749033333333","6501500","五股區"
"232011","375-UM","2019/07/08 17:59:36","新北市坪林區水柳腳39號","121.70946","24.9351666666667","6502000","坪林區"
"244007","080-UY","2019/07/08 17:59:24","新北市林口區林口路197號","121.38765","25.0825366666667","6501700","林口區"
"244019","402-UM","2019/07/08 17:59:32","新北市林口區文化一路一段22巷11號","121.370891666667","25.06799","6501700","林口區"
"244013","KEA-2802","2019/07/08 17:59:32","新北市林口區中山路62號","121.394295","25.078645","6501700","林口區"
"244023","483-VK","2019/07/08 17:59:35","新北市林口區東湖路93巷75號","121.385106666667","25.071455","6501700","林口區"
"244017","485-VK","2019/07/08 17:59:29","新北市林口區文化一路一段41號","121.370858333333","25.0694133333333","6501700","林口區"
"244009","656-BX","2019/07/08 17:59:32","新北市林口區佳林路56巷43號","121.385061666667","25.0808233333333","6501700","林口區"
"244011","701-TV","2019/07/08 17:59:43","新北市林口區中正路79號","121.394851666667","25.0773883333333","6501700","林口區"
"244025","837-TS","2019/07/08 17:59:28","新北市林口區八德路408號","121.35857","25.0664","6501700","林口區"
"244021","838-TS","2019/07/08 17:59:35","新北市林口區新寮29號","121.399003333333","25.0667666666667","6501700","林口區"
"222002","016-RS","2019/07/08 17:59:33","新北市深坑區文化街96號","121.617113333333","25.001935","6501800","深坑區"
"222003","436-BY","2019/07/08 17:59:39","新北市深坑區炮子崙24號","121.604846666667","24.987595","6501800","深坑區"
"231058","0293-UT","2019/07/08 17:59:27","新北市新店區安華路28-1號","121.519703333333","24.9606416666667","6500600","新店區"
"221035","KEA-2785","2019/07/08 17:59:32","新北市汐止區汐萬路一段211巷15號","121.65134","25.0717966666667","6501100","汐止區"
"231055","4716-K9","2019/07/08 17:59:35","新北市新店區安華路28-1號","121.519603333333","24.96056","6500600","新店區"
"241005","262-UM","2019/07/08 17:59:38","新北市三重區仁愛街705號","121.482545","25.0806033333333","6500200","三重區"
"241016","266-UM","2019/07/08 17:59:40","新北市五股區五工一路115號","121.455168333333","25.0723066666667","6500200","三重區"
"241024","KEA-2210","2019/07/08 17:59:33","新北市三重區中正北路193巷35弄73號","121.478793333333","25.0714633333333","6500200","三重區"
"241033","AAC-255","2019/07/08 17:59:40","新北市三重區重新路五段573-1號","121.470143333333","25.0459266666667","6500200","三重區"
"235064","005-UY","2019/07/08 17:59:29","新北市中和區中正路637巷52弄1號","121.485528333333","24.99339","6500300","中和區"
"235063","006-UY","2019/07/08 17:59:32","新北市中和區員山路36巷16-3號","121.485063333333","24.9913516666667","6500300","中和區"
"235065","098-UM","2019/07/08 17:59:35","新北市中和區中山路二段504號","121.486563333333","25.004895","6500300","中和區"
"235058","151-BY","2019/07/08 17:59:29","新北市中和區圓通路367巷20弄7號","121.491938333333","24.988525","6500300","中和區"
"235038","185-VK","2019/07/08 17:59:21","新北市中和區中正路271號","121.495813333333","24.9938633333333","6500300","中和區"
"235042","KEA-2878","2019/07/08 17:59:36","新北市中和區和城路一段271巷1號","121.485555","24.9917616666667","6500300","中和區"
"247014","KEA-2869","2019/07/08 17:59:40","新北市蘆洲區復興路12號","121.471925","25.0852116666667","6501400","蘆洲區"
"235070","558-UM","2019/07/08 17:59:38","新北市中和區中正路637巷52弄1號","121.485423333333","24.9933983333333","6500300","中和區"
"235054","640-BX","2019/07/08 17:59:33","新北市中和區員山路72號","121.480958333333","24.9935416666667","6500300","中和區"
"235062","800-TS","2019/07/08 17:59:36","新北市中和區連城路469巷11號","121.483605","24.9955083333333","6500300","中和區"
"235057","801-TS","2019/07/08 17:59:26","新北市中和區連城路469巷10號","121.483543333333","24.9953666666667","6500300","中和區"
"235051","157-BY","2019/07/08 17:59:37","新北市中和區員山路36巷16-3號","121.485001666667","24.991435","6500300","中和區"
"235037","AAC-213","2019/07/08 17:59:41","新北市中和區景平路404號","121.509023333333","24.99301","6500300","中和區"
"247018","546-UM","2019/07/08 17:59:42","新北市蘆洲區復興路252號","121.479813333333","25.0896783333333","6501400","蘆洲區"
"247002","500-BY","2019/07/08 17:59:25","新北市蘆洲區永平街32巷57弄22號","121.45901","25.0933683333333","6501400","蘆洲區"
"247012","056-VK","2019/07/08 17:59:32","新北市蘆洲區民族路248號","121.479188333333","25.08857","6501400","蘆洲區"
"247016","053-VK","2019/07/08 17:57:10","新北市蘆洲區中正路185巷78弄21號","121.465433333333","25.0850316666667","6501400","蘆洲區"
"228003","097-TW","2019/07/08 17:59:41","新北市貢寮區真理里美艷山街6-2號","121.928856666667","25.0607666666667","6502600","貢寮區"
"228001","212-TW","2019/07/08 17:59:26","新北市貢寮區真理里新港街26巷53號","121.927898333333","25.0533833333333","6502600","貢寮區"
"228002","828-UM","2019/07/08 17:59:23","新北市貢寮區福隆里桂安街17號","121.96566","25.02187","6502600","貢寮區"
"224006","676-BX","2019/07/08 17:59:27","新北市瑞芳區大寮路356-1號","121.784851666667","25.1032583333333","6501200","瑞芳區"
"224009","275-VK","2019/07/08 17:59:27","新北市瑞芳區山尖路86號","121.853685","25.115195","6501200","瑞芳區"
"224008","273-VK","2019/07/08 17:59:35","新北市瑞芳區明燈路一段45巷100號","121.821045","25.10413","6501200","瑞芳區"
"224005","271-BY","2019/07/08 17:59:38","新北市瑞芳區深澳路197-2號","121.819618333333","25.133855","6501200","瑞芳區"
"253006","032-BX","2019/07/08 17:59:30","新北市石門區大丘田45-2號","121.54982","25.27481","6502200","石門區"
"253005","741-TV","2019/07/08 17:59:39","新北市石門區中山路62-7號","121.567408333333","25.2902133333333","6502200","石門區"
"222001","KEA-2212","2019/07/08 17:59:33","新北市深坑區北深路三段6號","121.611445","25.0011716666667","6501800","深坑區"
"208002","KEA-2872","2019/07/08 17:59:30","新北市金山區三界壇路93號","121.624596666667","25.2287483333333","6502700","金山區"
"208003","665-BX","2019/07/08 17:59:35","新北市金山區磺港里磺港路306號","121.64384","25.2271683333333","6502700","金山區"
"251009","008-UM","2019/07/08 17:59:30","新北市淡水區原德路11號","121.442193333333","25.1713166666667","6501000","淡水區"
"251004","009-UM","2019/07/08 17:59:32","新北市淡水區民權路187巷5號","121.459725","25.1335583333333","6501000","淡水區"
"251005","010-UM","2019/07/08 17:59:34","新北市淡水區英專路125-6號","121.44616","25.172615","6501000","淡水區"
"251001","011-UM","2019/07/08 17:59:32","新北市淡水區民權路94巷1號","121.463103333333","25.124765","6501000","淡水區"
"251002","012-UM","2019/07/08 17:59:36","新北市淡水區中山路26-1號","121.44436","25.16963","6501000","淡水區"
"251015","KEA-2871","2019/07/08 17:59:28","新北市淡水區興福寮100號","121.486986666667","25.1644416666667","6501000","淡水區"
"251016","179-VK","2019/07/08 17:59:43","新北市淡水區淡金路三段36號","121.448016666667","25.1989816666667","6501000","淡水區"
"251013","180-VK","2019/07/08 17:59:24","新北市淡水區泉洲厝31號","121.479563333333","25.191025","6501000","淡水區"
"251008","181-VK","2019/07/08 17:59:36","新北市淡水區八勢一街77號","121.461401666667","25.154955","6501000","淡水區"
"251010","413-VK","2019/07/08 17:59:41","新北市淡水區中正路一段87巷1號","121.421835","25.17919","6501000","淡水區"
"251012","441-VK","2019/07/08 17:59:36","新北市淡水區北新路三段38巷7號","121.484508333333","25.1870066666667","6501000","淡水區"
"251006","561-UM","2019/07/08 17:59:34","新北市淡水區新生街53號","121.440438333333","25.1747566666667","6501000","淡水區"
"251014","577-R6","2019/07/08 17:59:31","新北市淡水區公埔子16-6號","121.480668333333","25.2241933333333","6501000","淡水區"
"251011","650-BX","2019/07/08 17:59:02","新北市淡水區吳(仔)厝22號","121.479325","25.1485866666667","6501000","淡水區"
"251003","673-BX","2019/07/08 17:59:36","新北市淡水區大忠街70號","121.444786666667","25.1762383333333","6501000","淡水區"
"207003","550-UM","2019/07/08 17:59:40","新北市萬里區港東路野柳風景區攤販66號","121.691296666667","25.2058216666667","6502800","萬里區"
"207004","225-TW","2019/07/08 17:59:30","新北市萬里區中幅里中福路48號","121.683418333333","25.1741333333333","6502800","萬里區"
"252002","178-VK","2019/07/08 17:59:43","新北市三芝區中山路二段38號","121.502958333333","25.2551466666667","6502100","三芝區"
"208001","170-UY","2019/07/08 17:59:25","新北市金山區磺港里磺港路248號","121.643823333333","25.2250283333333","6502700","金山區"
"237004","KEA-2597","2019/07/08 17:59:36","新北市三峽區中正路二段167號","121.366011666667","24.9151566666667","6500900","三峽區"
"237007","153-BY","2019/07/08 17:59:26","新北市三峽區中園街108-4號","121.36666","24.9230666666667","6500900","三峽區"
"237009","210-TH","2019/07/08 17:59:31","新北市三峽區中山路110號","121.365943333333","24.935905","6500900","三峽區"
"237013","252-BX","2019/07/08 17:59:25","新北市三峽區介壽路一段69號","121.37575","24.9325166666667","6500900","三峽區"
"237012","275-BY","2019/07/08 17:59:37","新北市三峽區民生街27巷30號","121.375885","24.93606","6500900","三峽區"
"237008","302-VK","2019/07/08 17:59:24","新北市三峽區白雞24號","121.368398333333","24.9125683333333","6500900","三峽區"
"237014","433-BY","2019/07/08 17:59:38","新北市三峽區復興路101巷1弄79號","121.371036666667","24.937645","6500900","三峽區"
"237006","5529-G3","2019/07/08 17:59:37","新北市三峽區介壽路二段138巷1弄42-2號","121.397968333333","24.932825","6500900","三峽區"
"237011","KEA-2596","2019/07/08 17:59:39","新北市三峽區中正路一段41號","121.37574","24.930575","6500900","三峽區"
"237010","706-TV","2019/07/08 17:59:38","新北市三峽區中山路72號","121.36708","24.935045","6500900","三峽區"
"237005","AKY-6261","2019/07/08 17:59:28","新北市三峽區和平街89巷4號","121.370023333333","24.9377083333333","6500900","三峽區"
"236042","KED-0685","2019/07/08 17:59:33","新北市土城區城林路6巷80號","121.438558333333","24.979675","6501300","土城區"
"233002","762-BX","2019/07/08 17:59:27","新北市烏來區烏來街14號","121.551465","24.8639083333333","6502900","烏來區"
"236026","269-VK","2019/07/08 17:59:25","新北市土城區中央路三段99-6號","121.436366666667","24.966965","6501300","土城區"
"236014","270-VK","2019/07/08 17:59:42","新北市土城區中華路二段2號","121.43954","24.979525","6501300","土城區"
"236039","271-VK","2019/07/08 17:59:37","新北市土城區金城路一段112號","121.446483333333","24.9758783333333","6501300","土城區"
"247010","KED-0683","2019/07/08 17:59:34","新北市蘆洲區三民路26巷36號","121.478056666667","25.08304","6501400","蘆洲區"
"236069","KEA-2877","2019/07/08 17:59:35","新北市土城區中華路一段301號","121.439968333333","24.9797333333333","6501300","土城區"
"252001","KED-0821","2019/07/08 17:59:36","新北市三芝區中興街二段2號","121.498416666667","25.2566033333333","6502100","三芝區"
"236020","401-BY","2019/07/08 17:59:27","新北市土城區城林路6巷80號","121.43863","24.9795633333333","6501300","土城區"
"236059","912-UM","2019/07/08 17:59:42","新北市土城區中央路三段260號","121.427261666667","24.9640416666667","6501300","土城區"
"236048","913-UM","2019/07/08 17:59:39","新北市土城區城林路6巷80號","121.438593333333","24.97979","6501300","土城區"
"236063","915-UM","2019/07/08 17:59:36","新北市土城區城林路6巷80號","121.438446666667","24.9796166666667","6501300","土城區"
"236055","AAC-216","2019/07/08 17:59:23","新北市土城區城林路6巷80號","121.438506666667","24.9795666666667","6501300","土城區"
"242039","AAC-296","2019/07/08 17:59:34","新北市新莊區民安西路24巷14號","121.426268333333","25.0209216666667","6500500","新莊區"
"242060","986-R7","2019/07/08 17:59:25","新北市新莊區新樹路539號","121.43285","25.0084433333333","6500500","新莊區"
"242002","751-BX","2019/07/08 17:59:35","新北市新莊區新莊路152巷18號","121.454663333333","25.0364966666667","6500500","新莊區"
"242029","615-BX","2019/07/08 17:59:28","新北市新莊區中平路110巷13號","121.445756666667","25.046005","6500500","新莊區"
"242027","613-BX","2019/07/08 17:59:39","新北市新莊區思源路445號","121.459788333333","25.0531333333333","6500500","新莊區"
"242058","612-BX","2019/07/08 17:59:32","新北市新莊區中正路730-18號","121.414316666667","25.0233066666667","6500500","新莊區"
"242046","566-BX","2019/07/08 17:59:38","新北市新莊區福營路184號","121.431271666667","25.03079","6500500","新莊區"
"242050","497-BY","2019/07/08 17:59:25","新北市新莊區龍安路488號","121.426488333333","25.0174616666667","6500500","新莊區"
"242056","441-UM","2019/07/08 17:59:39","新北市新莊區豐年街124巷18號","121.445495","25.0299183333333","6500500","新莊區"
"242004","440-UM","2019/07/08 17:59:39","新北市新莊區思源路177巷31號","121.459205","25.046705","6500500","新莊區"
"242042","415-TV","2019/07/08 17:59:41","新北市泰山區壽山路52號","121.420235","25.0293666666667","6500500","新莊區"
"242011","413-TV","2019/07/08 17:59:35","新北市新莊區中港路629號","121.450616666667","25.0538966666667","6500500","新莊區"
"242048","400-BY","2019/07/08 17:59:20","新北市新莊區萬安街157巷2號","121.420371666667","25.0213283333333","6500500","新莊區"
"242025","362-BY","2019/07/08 17:59:28","新北市新莊區五工路58號","121.45868","25.0629066666667","6500500","新莊區"
"242023","353-BY","2019/07/08 17:59:31","新北市新莊區福壽街15號","121.45794","25.0479183333333","6500500","新莊區"
"242013","132-UY","2019/07/08 17:59:39","新北市新莊區中和街87號","121.447245","25.04776","6500500","新莊區"
"242036","135-UY","2019/07/08 17:59:29","新北市新莊區中正路671號","121.426623333333","25.0299883333333","6500500","新莊區"
"242053","172-VK","2019/07/08 17:59:41","新北市新莊區光華街10號","121.428761666667","25.010805","6500500","新莊區"
"242015","173-VK","2019/07/08 17:59:29","新北市新莊區中平路87巷4號","121.444503333333","25.0458666666667","6500500","新莊區"
"242021","175-VK","2019/07/08 17:59:42","新北市新莊區建興街41巷2號","121.450001666667","25.0372016666667","6500500","新莊區"
"242019","KED-0687","2019/07/08 17:59:23","新北市新莊區明中街43巷9號","121.457576666667","25.0388933333333","6500500","新莊區"
"242031","346-TH","2019/07/08 17:59:31","新北市新莊區新泰路347巷5弄15號","121.443815","25.0417883333333","6500500","新莊區"
"242044","347-TH","2019/07/08 17:59:43","新北市新莊區雙鳳路19號","121.41684","25.02691","6500500","新莊區"
"242034","348-TH","2019/07/08 17:59:39","新北市新莊區中正路421巷16號","121.444611666667","25.0337266666667","6500500","新莊區"
"242007","349-TH","2019/07/08 17:59:44","新北市新莊區自信街65巷14號","121.455485","25.0487183333333","6500500","新莊區"
"242017","351-TH","2019/07/08 17:59:27","新北市新莊區中和街60巷17號","121.448686666667","25.0448266666667","6500500","新莊區"
"238015","755-BX","2019/07/08 17:59:39","新北市樹林區大安路307巷2弄2號","121.417995","24.9920416666667","6500700","樹林區"
"238023","601-UM","2019/07/08 17:59:29","新北市樹林區福興街18號","121.404211666667","25.0161716666667","6500700","樹林區"
"238019","599-UM","2019/07/08 17:59:25","新北市樹林區太平路190號","121.418331666667","24.9762266666667","6500700","樹林區"
"238018","KEA-2217","2019/07/08 17:59:42","新北市樹林區中正路241號","121.430196666667","24.998575","6500700","樹林區"
"238022","KEA-2213","2019/07/08 17:59:29","新北市樹林區太平路225巷2號","121.418495","24.9769566666667","6500700","樹林區"
"238021","KEA-2539","2019/07/08 17:59:35","新北市樹林區柑園街一段132巷17號","121.399388333333","24.9582783333333","6500700","樹林區"
"238025","303-VK","2019/07/08 17:59:35","新北市樹林區三俊街112號","121.41502","25.015505","6500700","樹林區"
"238017","283-BY","2019/07/08 17:59:30","新北市樹林區中正路791號","121.409881666667","25.0161733333333","6500700","樹林區"
"238014","282-BY","2019/07/08 17:59:25","新北市樹林區大安路13號","121.42489","25.000415","6500700","樹林區"
"238020","268-VK","2019/07/08 17:59:25","新北市樹林區三俊街199巷25號","121.420283333333","25.0172333333333","6500700","樹林區"
"238026","172-UY","2019/07/08 17:59:36","新北市樹林區中山路三段125-2號","121.397065","24.9734766666667","6500700","樹林區"
"238016","169-UY","2019/07/08 17:59:42","新北市樹林區復興路293號","121.41863","24.98881","6500700","樹林區"
"239007","AAC-297","2019/07/08 17:59:17","新北市鶯歌區永樂街34號","121.342025","24.9539716666667","6500800","鶯歌區"
"239006","891-R6","2019/07/08 17:59:23","新北市鶯歌區鶯桃路413巷70號","121.330081666667","24.9631583333333","6500800","鶯歌區"
"239008","527-UM","2019/07/08 17:59:28","新北市鶯歌區明圓街6號","121.336625","24.9783233333333","6500800","鶯歌區"
"239001","417-VK","2019/07/08 17:59:24","新北市鶯歌區中正三路317號","121.328611666667","24.935725","6500800","鶯歌區"
"239003","360-BY","2019/07/08 17:59:34","新北市鶯歌區永吉街46巷32號","121.33536","24.957405","6500800","鶯歌區"
"239002","359-BY","2019/07/08 17:59:21","新北市鶯歌區光明街90號","121.346438333333","24.9558133333333","6500800","鶯歌區"
"221008","489-VK","2019/07/08 17:59:39","新北市汐止區康寧街753巷1-1號","121.639078333333","25.073725","6501100","汐止區"
"221036","130-UY","2019/07/08 17:59:39","新北市汐止區橋東街46號","121.665835","25.0752583333333","6501100","汐止區"
"221010","269-BY","2019/07/08 17:59:41","新北市汐止區汐萬路二段226號","121.646785","25.0878916666667","6501100","汐止區"
"221023","279-VK","2019/07/08 17:59:22","新北市汐止區明峰街70-1號","121.632186666667","25.0712283333333","6501100","汐止區"
"221033","297-VK","2019/07/08 17:59:39","新北市汐止區合順街39巷1號","121.620671666667","25.043315","6501100","汐止區"
"221029","298-VK","2019/07/08 17:59:35","新北市汐止區樟樹二路334號","121.641473333333","25.0704183333333","6501100","汐止區"
"221031","353-TW","2019/07/08 17:59:30","新北市汐止區中興路96巷1-3號","121.635221666667","25.062575","6501100","汐止區"
"221025","623-UM","2019/07/08 17:59:30","新北市汐止區新台五路一段266號","121.659276666667","25.0637116666667","6501100","汐止區"
"221038","646-BX","2019/07/08 17:59:25","新北市汐止區連興街114號","121.653841666667","25.062795","6501100","汐止區"
"221002","707-TV","2019/07/08 17:59:40","新北市汐止區工建路203號","121.635873333333","25.0617983333333","6501100","汐止區"
"221018","753-BX","2019/07/08 17:59:26","新北市汐止區忠孝東路346號","121.665498333333","25.069815","6501100","汐止區"
"233001","KEA-2870","2019/07/08 17:59:38","新北市烏來區環山路57號","121.549368333333","24.8626633333333","6502900","烏來區"
"224002","257-TC","2019/07/08 17:59:29","新北市瑞芳區三爪子坑路34號","121.81049","25.1061683333333","6501200","瑞芳區"
"242009","280-VK","2019/07/08 17:59:26","新北市新莊區中原路185號","121.453078333333","25.054275","6500500","新莊區"
"235068","KEA-2873","2019/07/08 17:59:21","新北市中和區員山路36巷16-3號","121.485093333333","24.9912416666667","6500300","中和區"
"235061","KEA-2875","2019/07/08 17:59:34","新北市中和區中正路637巷52弄3號","121.485266666667","24.993725","6500300","中和區"
