"lineid","car","time","location","longitude","latitude","cityid","cityname"
"234046","148-BY","2019/07/08 18:39:39","新北市永和區永元路66號","121.522565","25.0013716666667","6500400","永和區"
"234081","298-R6","2019/07/08 18:39:35","新北市永和區林森路81號","121.523926666667","25.0038566666667","6500400","永和區"
"234038","336-UY","2019/07/08 18:39:23","新北市永和區福和路1號","121.52648","25.0101416666667","6500400","永和區"
"234064","337-UY","2019/07/08 18:39:34","新北市永和區福和路1號","121.52651","25.0101483333333","6500400","永和區"
"234086","338-UY","2019/07/08 18:39:33","新北市中和區安樂路63號","121.512318333333","24.9936616666667","6500400","永和區"
"234017","745-BX","2019/07/08 18:39:42","新北市永和區福和路1號","121.525718333333","25.00946","6500400","永和區"
"234030","746-BX","2019/07/08 18:39:40","新北市永和區成功路一段108號","121.526788333333","25.00296","6500400","永和區"
"234007","KED-0605","2019/07/08 18:39:36","新北市永和區文化路174號","121.511715","25.01555","6500400","永和區"
"234013","KEA-2591","2019/07/08 18:39:22","新北市永和區仁愛路88號","121.512598333333","25.01326","6500400","永和區"
"234011","9373-KE","2019/07/08 18:39:26","新北市永和區永和路二段231巷10號","121.514926666667","25.0140883333333","6500400","永和區"
"249005","172-UM","2019/07/08 18:39:32","新北市八里區中華路三段198號","121.38848","25.125935","6502300","八里區"
"249001","173-UM","2019/07/08 18:39:32","新北市八里區龍米路一段398號","121.451406666667","25.1328516666667","6502300","八里區"
"249004","303-UY","2019/07/08 18:39:29","新北市八里區忠孝路51號","121.4282","25.1601833333333","6502300","八里區"
"249002","305-UY","2019/07/08 18:39:39","新北市八里區龍形一街12巷10號","121.449881666667","25.1308333333333","6502300","八里區"
"249003","593-UM","2019/07/08 18:35:37","新北市八里區博物館路10-1號","121.41513","25.1640233333333","6502300","八里區"
"248014","025-BX","2019/07/08 18:39:36","新北市五股區成泰路一段231-13號","121.435483333333","25.0777916666667","6501500","五股區"
"248016","026-BX","2019/07/08 18:39:33","新北市五股區凌雲路一段149巷7號","121.448846666667","25.10166","6501500","五股區"
"248008","KED-0815","2019/07/08 18:39:37","新北市五股區中興路一段148號","121.464678333333","25.0740183333333","6501500","五股區"
"248018","KED-0813","2019/07/08 18:39:43","新北市五股區民義路二段118號","121.403341666667","25.1134616666667","6501500","五股區"
"248012","247-BX","2019/07/08 18:39:39","新北市五股區成泰路三段2巷1-20號","121.441188333333","25.0866633333333","6501500","五股區"
"248004","677-BX","2019/07/08 18:39:32","新北市五股區民義路一段314-1號","121.422103333333","25.0957166666667","6501500","五股區"
"248002","678-BX","2019/07/08 18:39:41","新北市五股區西雲路234號","121.448685","25.09668","6501500","五股區"
"248010","682-TV","2019/07/08 18:39:27","新北市五股區自強路90巷10號","121.431973333333","25.0724183333333","6501500","五股區"
"234023","9380-KE","2019/07/08 18:39:31","新北市永和區福和路38號","121.523711666667","25.0083266666667","6500400","永和區"
"234077","969-R7","2019/07/08 18:39:36","新北市中和區安樂路101-3號","121.51338","24.9950766666667","6500400","永和區"
"234067","AAC-212","2019/07/08 18:39:35","新北市永和區永貞路19號","121.520933333333","25.00706","6500400","永和區"
"234003","AAC-295","2019/07/08 18:39:42","新北市永和區福和路1號","121.526133333333","25.0091216666667","6500400","永和區"
"232011","375-UM","2019/07/08 18:39:36","新北市坪林區坪雙路一段41號","121.711685","24.9424483333333","6502000","坪林區"
"244007","080-UY","2019/07/08 18:39:24","新北市林口區太平里23-3號","121.376341666667","25.1152833333333","6501700","林口區"
"244019","402-UM","2019/07/08 18:39:32","新北市林口區忠孝路646巷70號","121.379568333333","25.067055","6501700","林口區"
"244013","KEA-2802","2019/07/08 18:39:32","新北市林口區麗園路6號","121.375381666667","25.0699483333333","6501700","林口區"
"244023","483-VK","2019/07/08 18:39:35","新北市林口區文化一路二段40號","121.380555","25.0770766666667","6501700","林口區"
"244017","485-VK","2019/07/08 18:39:29","新北市林口區文化二路一段20巷13號","121.365305","25.06719","6501700","林口區"
"244009","656-BX","2019/07/08 18:39:32","新北市林口區竹林路326巷16號","121.392236666667","25.082195","6501700","林口區"
"244011","701-TV","2019/07/08 18:39:23","新北市林口區仁愛路一段272巷17號","121.392166666667","25.07666","6501700","林口區"
"244025","837-TS","2019/07/08 18:39:28","新北市林口區南勢六街238號","121.355723333333","25.074295","6501700","林口區"
"244021","838-TS","2019/07/08 18:39:35","新北市林口區工六路2號","121.397581666667","25.0793366666667","6501700","林口區"
"243010","297-R6","2019/07/08 18:39:32","新北市泰山區黎明路26號","121.421186666667","25.06089","6501600","泰山區"
"243015","680-BX","2019/07/08 18:39:31","新北市泰山區美寧街48號","121.43057","25.0643533333333","6501600","泰山區"
"222002","016-RS","2019/07/08 18:39:29","新北市深坑區文山路一段62巷7號","121.622763333333","25.0008766666667","6501800","深坑區"
"222003","436-BY","2019/07/08 18:39:39","新北市深坑區翠谷街37巷1號","121.6265","25.0094416666667","6501800","深坑區"
"231061","002-UM","2019/07/08 18:39:44","新北市新店區安華路28-1號","121.519876666667","24.9607916666667","6500600","新店區"
"231058","0293-UT","2019/07/08 18:39:39","新北市新店區新店後街24號","121.537943333333","24.95331","6500600","新店區"
"231044","046-UY","2019/07/08 18:39:21","新北市新店區安康路一段355-10號","121.520186666667","24.9637466666667","6500600","新店區"
"231060","106-UY","2019/07/08 18:39:33","新北市新店區安華路28-1號","121.519621666667","24.9607583333333","6500600","新店區"
"221035","KEA-2785","2019/07/08 18:39:32","新北市汐止區大同路二段169巷40-1號","121.650331666667","25.065145","6501100","汐止區"
"231054","260-TV","2019/07/08 18:39:29","新北市新店區安一路一段1-1號","121.519346666667","24.96118","6500600","新店區"
"231042","268-BY","2019/07/08 18:39:38","新北市新店區環河路1-2號","121.538231666667","24.961585","6500600","新店區"
"231064","278-BY","2019/07/08 18:39:40","新北市新店區安一路一段1-1號","121.51942","24.96101","6500600","新店區"
"231050","AAD-862","2019/07/08 18:39:38","新北市新店區安一路一段1-1號","121.519865","24.961175","6500600","新店區"
"231045","355-BY","2019/07/08 18:39:24","新北市新店區安華路28-1號","121.51919","24.9609566666667","6500600","新店區"
"231055","4716-K9","2019/07/08 18:39:35","新北市新店區華興街16號","121.537721666667","24.96963","6500600","新店區"
"231056","4715-K9","2019/07/08 18:39:39","新北市新店區建國路207-2號","121.537696666667","24.9802733333333","6500600","新店區"
"231067","4772-VM","2019/07/08 18:39:34","新北市新店區安華路28-1號","121.519215","24.9605816666667","6500600","新店區"
"231052","513-UM","2019/07/08 18:39:45","新北市新店區新烏路一段105巷2號","121.546016666667","24.9411583333333","6500600","新店區"
"231051","515-UM","2019/07/08 18:39:24","新北市新店區安康路一段24巷2號","121.532886666667","24.96033","6500600","新店區"
"231041","619-UM","2019/07/08 18:39:33","新北市新店區安華路28-1號","121.51962","24.9606183333333","6500600","新店區"
"231063","641-BX","2019/07/08 18:39:39","新北市新店區安華路28-1號","121.51962","24.9605083333333","6500600","新店區"
"231047","KED-0819","2019/07/08 18:39:38","新北市新店區安一路一段1-1號","121.52002","24.9611116666667","6500600","新店區"
"231046","719-UM","2019/07/08 18:39:29","新北市新店區直潭二街1號","121.535413333333","24.94314","6500600","新店區"
"231057","720-UM","2019/07/08 18:39:39","新北市新店區北宜路一段116號","121.5392","24.95526","6500600","新店區"
"231059","897-TW","2019/07/08 18:39:39","新北市新店區安華路28-1號","121.519758333333","24.9607416666667","6500600","新店區"
"231040","898-TW","2019/07/08 18:39:30","新北市新店區安華路28-1號","121.519563333333","24.960995","6500600","新店區"
"231043","899-TW","2019/07/08 18:39:19","新北市新店區安華路28-1號","121.519123333333","24.9608416666667","6500600","新店區"
"231066","AKT-0513","2019/07/08 18:39:24","新北市新店區安華路1-1號","121.519601666667","24.960405","6500600","新店區"
"235066","003-UY","2019/07/08 18:39:38","新北市中和區水源路34巷1號","121.504891666667","25.0035433333333","6500300","中和區"
"235064","005-UY","2019/07/08 18:39:29","新北市中和區連城路90號","121.496861666667","25.0005833333333","6500300","中和區"
"235063","006-UY","2019/07/08 18:39:32","新北市中和區連城路401號","121.486196666667","24.9959283333333","6500300","中和區"
"235056","096-UM","2019/07/08 18:39:36","新北市中和區員山路611巷1號","121.477878333333","25.0111566666667","6500300","中和區"
"235065","098-UM","2019/07/08 18:39:34","新北市中和區莊敬路49巷29弄5號","121.501146666667","25.0062416666667","6500300","中和區"
"235040","150-BY","2019/07/08 18:39:43","新北市中和區保健路78號","121.511603333333","24.9963166666667","6500300","中和區"
"235058","151-BY","2019/07/08 18:39:29","新北市中和區員山路76號","121.480928333333","24.9938566666667","6500300","中和區"
"235055","183-VK","2019/07/08 18:39:35","新北市中和區民生街21-3號","121.470955","25.0056866666667","6500300","中和區"
"235038","185-VK","2019/07/08 18:39:41","新北市中和區立人街14巷4號","121.519436666667","24.9948266666667","6500300","中和區"
"235049","186-VK","2019/07/08 18:39:33","新北市中和區景平路508號","121.503815","24.993845","6500300","中和區"
"235067","255-BX","2019/07/08 18:39:24","新北市中和區中正路851號","121.484601666667","25.002945","6500300","中和區"
"235044","293-VK","2019/07/08 18:39:37","新北市中和區復興路280巷34號","121.501473333333","24.99183","6500300","中和區"
"235072","301-VK","2019/07/08 18:39:37","新北市中和區中山路二段78號","121.503588333333","25.00443","6500300","中和區"
"235043","352-BY","2019/07/08 18:39:37","新北市中和區景德街26號","121.518491666667","24.9913933333333","6500300","中和區"
"235042","KEA-2878","2019/07/08 18:39:36","新北市中和區成功路41巷3號","121.526408333333","24.9932116666667","6500300","中和區"
"235050","4979-A6","2019/07/08 18:39:25","新北市中和區景新街418巷20弄1號","121.512381666667","24.9881733333333","6500300","中和區"
"235069","4980-A6","2019/07/08 18:39:34","新北市中和區景平路668號","121.497111666667","25.00084","6500300","中和區"
"235070","558-UM","2019/07/08 18:39:37","新北市中和區南山路24號","121.502045","24.9982283333333","6500300","中和區"
"235045","565-BX","2019/07/08 18:39:43","新北市中和區復興路65號","121.504063333333","24.990085","6500300","中和區"
"235060","KED-0823","2019/07/08 18:39:41","新北市中和區中山路三段209號","121.472048333333","25.0064516666667","6500300","中和區"
"235054","640-BX","2019/07/08 18:39:41","新北市中和區民享街68巷12號","121.473556666667","25.0017966666667","6500300","中和區"
"235047","732-UM","2019/07/08 18:39:35","新北市中和區南山路320巷10弄21號","121.506818333333","24.9866866666667","6500300","中和區"
"235046","733-UM","2019/07/08 18:39:39","新北市中和區忠孝街99-3號","121.512075","24.9861533333333","6500300","中和區"
"235062","800-TS","2019/07/08 18:39:36","新北市中和區中山路二段312巷14號","121.495283333333","25.00382","6500300","中和區"
"235057","801-TS","2019/07/08 18:39:26","新北市中和區民安街42巷32號","121.479126666667","25.001095","6500300","中和區"
"235005","802-TS","2019/07/08 18:39:26","新北市中和區中安街178巷13弄2號","121.510165","24.9986916666667","6500300","中和區"
"235052","805-TS","2019/07/08 18:39:24","新北市中和區興南路三段52-4號","121.493748333333","24.97548","6500300","中和區"
"235048","896-TW","2019/07/08 18:39:40","新北市中和區南山路250巷2號","121.507686666667","24.9889783333333","6500300","中和區"
"235053","900-TW","2019/07/08 18:39:32","新北市中和區民德路260號","121.467841666667","24.9968316666667","6500300","中和區"
"235051","157-BY","2019/07/08 18:39:37","新北市中和區華新街143巷106弄34號","121.506343333333","24.9785883333333","6500300","中和區"
"235037","AAC-213","2019/07/08 18:39:41","新北市中和區秀朗路三段128巷11號","121.524448333333","24.993315","6500300","中和區"
"235059","AAC-215","2019/07/08 18:39:30","新北市中和區錦和路354巷15號","121.48975","24.9915716666667","6500300","中和區"
"220065","072-UY","2019/07/08 18:39:43","新北市板橋區成都街72-3號","121.463563333333","25.0052666666667","6500100","板橋區"
"220086","073-UY","2019/07/08 18:39:30","新北市板橋區華東街1-10號","121.448256666667","24.99505","6500100","板橋區"
"220106","075-UY","2019/07/08 18:39:25","新北市板橋區民生路二段161巷5號","121.470028333333","25.0196466666667","6500100","板橋區"
"220069","AAD-861","2019/07/08 18:39:30","新北市板橋區南雅南路一段1巷1弄7號","121.457345","25.00609","6500100","板橋區"
"220098","120-SR","2019/07/08 18:39:24","新北市板橋區民生路二段161巷5號","121.470063333333","25.019645","6500100","板橋區"
"226004","312-R5","2019/07/08 18:39:26","新北市平溪區石底里公園街18-3號","121.733386666667","25.0256983333333","6502400","平溪區"
"228003","097-TW","2019/07/08 18:39:41","新北市貢寮區和美里龍洞街46號","121.913408333333","25.11247","6502600","貢寮區"
"228001","212-TW","2019/07/08 18:39:25","新北市貢寮區仁理村保健街73號","121.923726666667","25.05166","6502600","貢寮區"
"228002","828-UM","2019/07/08 18:39:23","新北市貢寮區福隆里東興街31-1號","121.953938333333","25.02106","6502600","貢寮區"
"224010","AGQ-8101","2019/07/08 18:39:22","新北市瑞芳區基山街3號","121.84519","25.1097966666667","6501200","瑞芳區"
"224006","676-BX","2019/07/08 18:39:27","新北市瑞芳區明燈路三段97號","121.80424","25.108545","6501200","瑞芳區"
"224007","285-BY","2019/07/08 18:39:37","新北市瑞芳區大埔路153號","121.76368","25.1014433333333","6501200","瑞芳區"
"224009","275-VK","2019/07/08 18:39:27","新北市瑞芳區祈堂路40號","121.8589","25.1106166666667","6501200","瑞芳區"
"224008","273-VK","2019/07/08 18:39:35","新北市瑞芳區岳王路10-8號","121.80759","25.111065","6501200","瑞芳區"
"224005","271-BY","2019/07/08 18:39:38","新北市瑞芳區建基路一段40號","121.81939","25.1213","6501200","瑞芳區"
"227001","642-TC","2019/07/08 18:39:31","新北市雙溪區牡丹里牡丹132號","121.850606666667","25.059505","6502500","雙溪區"
"253006","032-BX","2019/07/08 18:39:30","新北市石門區崁子腳41-2號","121.533561666667","25.2884066666667","6502200","石門區"
"253005","741-TV","2019/07/08 18:39:39","新北市石門區石門街3號","121.565851666667","25.291","6502200","石門區"
"222001","KEA-2212","2019/07/08 18:39:33","新北市深坑區北深路一段82號","121.63639","25.0108666666667","6501800","深坑區"
"208002","KEA-2872","2019/07/08 18:39:30","新北市金山區忠孝一路19巷7號","121.637815","25.2179133333333","6502700","金山區"
"208003","665-BX","2019/07/08 18:39:35","新北市金山區中山路280號","121.634991666667","25.2243783333333","6502700","金山區"
"251004","009-UM","2019/07/08 18:39:32","新北市淡水區大同路2號","121.461548333333","25.140775","6501000","淡水區"
"251001","011-UM","2019/07/08 18:39:32","新北市淡水區自強路166號","121.46559","25.1341583333333","6501000","淡水區"
"251002","012-UM","2019/07/08 18:39:36","新北市淡水區中正東路一段3巷14弄1號","121.450933333333","25.16417","6501000","淡水區"
"251015","KEA-2871","2019/07/08 18:39:28","新北市淡水區興福寮66巷329號","121.484471666667","25.1618483333333","6501000","淡水區"
"251016","179-VK","2019/07/08 18:39:43","新北市淡水區下圭柔山76-13號","121.44466","25.20544","6501000","淡水區"
"251013","180-VK","2019/07/08 18:39:24","新北市淡水區奎柔山路1262號","121.48272","25.2055816666667","6501000","淡水區"
"251008","181-VK","2019/07/08 18:39:36","新北市淡水區北投子87號","121.46775","25.1790066666667","6501000","淡水區"
"251010","413-VK","2019/07/08 18:39:41","新北市淡水區沙崙路122號","121.423331666667","25.182835","6501000","淡水區"
"251012","441-VK","2019/07/08 18:39:36","新北市淡水區北新路117號","121.448973333333","25.178585","6501000","淡水區"
"251006","561-UM","2019/07/08 18:39:34","新北市淡水區大義街3號","121.44358","25.1781233333333","6501000","淡水區"
"251014","577-R6","2019/07/08 18:39:31","新北市淡水區崙頂12-8號","121.495553333333","25.2172283333333","6501000","淡水區"
"251011","650-BX","2019/07/08 18:39:43","新北市淡水區學府路19號","121.447645","25.1685733333333","6501000","淡水區"
"251003","673-BX","2019/07/08 18:39:25","新北市淡水區北新路69巷26號","121.446653333333","25.1800266666667","6501000","淡水區"
"207003","550-UM","2019/07/08 18:39:40","新北市萬里區野柳里八斗60號","121.670513333333","25.2021866666667","6502800","萬里區"
"207004","225-TW","2019/07/08 18:39:35","新北市萬里區萬里里獅頭路7號","121.691981666667","25.1782433333333","6502800","萬里區"
"252002","178-VK","2019/07/08 18:39:42","新北市三芝區民生街64巷9號","121.50362","25.25515","6502100","三芝區"
"252003","292-VK","2019/07/08 18:39:22","新北市三芝區後厝里土地公坑54-17號","121.46594","25.2495133333333","6502100","三芝區"
"208001","170-UY","2019/07/08 18:39:25","新北市金山區文化三路11號","121.635033333333","25.2248983333333","6502700","金山區"
"237004","KEA-2597","2019/07/08 18:39:36","新北市三峽區金敏5號","121.386376666667","24.87422","6500900","三峽區"
"237007","153-BY","2019/07/08 18:39:26","新北市三峽區柑樹路6巷35號","121.361638333333","24.9034583333333","6500900","三峽區"
"237009","210-TH","2019/07/08 18:39:31","新北市三峽區大同路276號","121.36516","24.9252116666667","6500900","三峽區"
"237013","252-BX","2019/07/08 18:39:25","新北市三峽區光明路69巷24號","121.376578333333","24.9291016666667","6500900","三峽區"
"237012","275-BY","2019/07/08 18:39:17","新北市三峽區三樹路340號","121.383975","24.943305","6500900","三峽區"
"237008","302-VK","2019/07/08 18:39:44","新北市三峽區白雞33-51號","121.37047","24.913045","6500900","三峽區"
"237014","433-BY","2019/07/08 18:39:38","新北市三峽區復興路183號","121.368738333333","24.9389033333333","6500900","三峽區"
"237006","5529-G3","2019/07/08 18:39:22","新北市三峽區溪東路371巷4弄6號","121.412351666667","24.9298416666667","6500900","三峽區"
"237011","KEA-2596","2019/07/08 18:39:38","新北市三峽區溪東路345號","121.411203333333","24.9296416666667","6500900","三峽區"
"237015","649-BX","2019/07/08 18:39:34","新北市三峽區成福路280號","121.428406666667","24.9234833333333","6500900","三峽區"
"237010","706-TV","2019/07/08 18:39:38","新北市三峽區復興路487號","121.361296666667","24.9384383333333","6500900","三峽區"
"237005","AKY-6261","2019/07/08 18:39:26","新北市三峽區民生街108號","121.373578333333","24.9353783333333","6500900","三峽區"
"236042","KED-0685","2019/07/08 18:39:33","新北市土城區學成路108巷11號","121.450055","24.9897383333333","6501300","土城區"
"236030","253-BX","2019/07/08 18:39:33","新北市土城區福仁街60巷1號","121.439465","24.9746416666667","6501300","土城區"
"236026","269-VK","2019/07/08 18:39:42","新北市土城區忠義路55巷2號","121.440998333333","24.9684983333333","6501300","土城區"
"236014","270-VK","2019/07/08 18:39:42","新北市土城區清水路207巷11號","121.459861666667","24.9823383333333","6501300","土城區"
"236039","271-VK","2019/07/08 18:39:37","新北市土城區明德路一段247巷11號","121.462818333333","24.9777183333333","6501300","土城區"
"236069","KEA-2877","2019/07/08 18:39:35","新北市土城區永豐路157巷4號","121.468233333333","24.9814816666667","6501300","土城區"
"252001","KED-0821","2019/07/08 18:39:36","新北市三芝區中興街二段260號","121.501848333333","25.252935","6502100","三芝區"
"236020","401-BY","2019/07/08 18:39:27","新北市土城區延吉街311號","121.465945","24.9843716666667","6501300","土城區"
"236059","912-UM","2019/07/08 18:39:39","新北市土城區中央路三段193號","121.43035","24.964665","6501300","土城區"
"236048","913-UM","2019/07/08 18:39:39","新北市土城區金城路二段356號","121.461193333333","24.985095","6501300","土城區"
"236063","915-UM","2019/07/08 18:39:41","新北市土城區延壽路55巷9弄2號","121.469548333333","24.9916366666667","6501300","土城區"
"236055","AAC-216","2019/07/08 18:39:23","新北市土城區裕民路6-2號","121.446811666667","24.9890566666667","6501300","土城區"
"242060","986-R7","2019/07/08 18:39:25","新北市新莊區民安路188巷1弄2號","121.425256666667","25.023495","6500500","新莊區"
"242058","612-BX","2019/07/08 18:39:32","新北市新莊區中正路891-3號","121.4135","25.0227066666667","6500500","新莊區"
"242056","441-UM","2019/07/08 18:39:39","新北市新莊區環河路636-7號","121.4368","25.0110116666667","6500500","新莊區"
"242042","415-TV","2019/07/08 18:39:33","新北市新莊區天祥街92巷14號","121.415546666667","25.0299916666667","6500500","新莊區"
"242044","347-TH","2019/07/08 18:39:43","新北市新莊區中正路新旺巷36號","121.416321666667","25.0225733333333","6500500","新莊區"
"242007","349-TH","2019/07/08 18:39:44","新北市新莊區環河路506號","121.438836666667","25.0162716666667","6500500","新莊區"
"242017","351-TH","2019/07/08 18:39:27","新北市樹林區中山路三段210-2號","121.381321666667","24.9657166666667","6500500","新莊區"
"238023","601-UM","2019/07/08 18:39:29","新北市樹林區三福街114號","121.406538333333","25.0162516666667","6500700","樹林區"
"238019","599-UM","2019/07/08 18:39:25","新北市樹林區中華路190-16號","121.411741666667","24.9805983333333","6500700","樹林區"
"238024","5061-A6","2019/07/08 18:39:29","新北市樹林區太順街49巷5號","121.418131666667","24.9789033333333","6500700","樹林區"
"238018","KEA-2217","2019/07/08 18:39:22","新北市樹林區鎮前街160號","121.424471666667","24.9901183333333","6500700","樹林區"
"238014","282-BY","2019/07/08 18:39:25","新北市樹林區大安路537巷7弄9號","121.413243333333","24.9850333333333","6500700","樹林區"
"238020","268-VK","2019/07/08 18:39:25","新北市樹林區俊安街15號","121.41976","25.01381","6500700","樹林區"
"238026","172-UY","2019/07/08 18:39:36","新北市樹林區育德街78-1號","121.388095","24.968015","6500700","樹林區"
"238016","169-UY","2019/07/08 18:39:22","新北市樹林區中山路一段412號","121.417336666667","24.98526","6500700","樹林區"
"239007","AAC-297","2019/07/08 18:39:37","新北市鶯歌區中正一路461-2號","121.363416666667","24.9565766666667","6500800","鶯歌區"
"239008","527-UM","2019/07/08 18:39:28","新北市鶯歌區朝陽街2號","121.336228333333","24.97658","6500800","鶯歌區"
"239005","526-UM","2019/07/08 18:39:30","新北市鶯歌區鶯桃路668巷24號","121.328988333333","24.969855","6500800","鶯歌區"
"239001","417-VK","2019/07/08 18:39:23","新北市鶯歌區二甲路光照巷1-2號","121.338443333333","24.94038","6500800","鶯歌區"
"239003","360-BY","2019/07/08 18:39:34","新北市鶯歌區永和街126號","121.334953333333","24.9695416666667","6500800","鶯歌區"
"239004","193-VK","2019/07/08 18:39:29","新北市鶯歌區尖山路293巷13號","121.341578333333","24.944245","6500800","鶯歌區"
"221036","130-UY","2019/07/08 18:39:38","新北市汐止區長興街一段12號","121.669618333333","25.0787683333333","6501100","汐止區"
"221015","131-UY","2019/07/08 18:39:39","新北市汐止區鄉友街39號","121.668823333333","25.0814183333333","6501100","汐止區"
"221010","269-BY","2019/07/08 18:39:41","新北市汐止區瑞松街49巷6號","121.645431666667","25.10705","6501100","汐止區"
"221012","278-VK","2019/07/08 18:39:40","新北市汐止區保長路51巷14號","121.673808333333","25.0788316666667","6501100","汐止區"
"221032","280-BY","2019/07/08 18:39:33","台北市南港區福山街44巷15弄31號","121.617896666667","25.0454233333333","6501100","汐止區"
"221033","297-VK","2019/07/08 18:39:39","新北市汐止區東勢街20號","121.624286666667","25.0387816666667","6501100","汐止區"
"221029","298-VK","2019/07/08 18:39:35","新北市汐止區樟樹一路150號","121.642256666667","25.065115","6501100","汐止區"
"221021","299-VK","2019/07/08 18:39:24","新北市汐止區復興路31號","121.656508333333","25.0634033333333","6501100","汐止區"
"221031","353-TW","2019/07/08 18:39:30","新北市汐止區新台五路一段35號","121.63622","25.0555616666667","6501100","汐止區"
"221025","623-UM","2019/07/08 18:39:30","新北市汐止區仁愛路121巷11號","121.662535","25.0642833333333","6501100","汐止區"
"221002","707-TV","2019/07/08 18:39:40","新北市汐止區中興路3號","121.637306666667","25.0590366666667","6501100","汐止區"
"221018","753-BX","2019/07/08 18:39:26","新北市汐止區茄苳路224巷3弄10號","121.67092","25.0682166666667","6501100","汐止區"
"220079","145-BY","2019/07/08 18:39:33","新北市板橋區大觀路二段77號","121.446428333333","25.0020933333333","6500100","板橋區"
"220080","200-UY","2019/07/08 18:39:36","新北市板橋區大觀路二段435-10號","121.445651666667","24.99449","6500100","板橋區"
"220082","610-BX","2019/07/08 18:39:26","新北市板橋區大觀路二段443-2號","121.439023333333","24.9951883333333","6500100","板橋區"
"220101","245-BX","2019/07/08 18:39:37","新北市板橋區民生路二段161巷1號","121.469865","25.01975","6500100","板橋區"
"224002","257-TC","2019/07/08 18:39:29","新北市瑞芳區國中新村19號","121.817498333333","25.1069783333333","6501200","瑞芳區"
"220056","276-BY","2019/07/08 18:39:34","新北市板橋區南雅南路二段38-5號","121.454251666667","25.0029233333333","6500100","板橋區"
"220072","277-BY","2019/07/08 18:39:31","新北市板橋區大觀路二段443-2號","121.439176666667","24.9951783333333","6500100","板橋區"
"220071","283-VK","2019/07/08 18:39:27","新北市板橋區四川路二段99-8號","121.452208333333","24.9946083333333","6500100","板橋區"
"220083","286-VK","2019/07/08 18:39:39","新北市板橋區板城路271號","121.449785","24.9981833333333","6500100","板橋區"
"220081","287-VK","2019/07/08 18:39:29","新北市板橋區大觀路二段153巷46弄1號","121.44852","24.9986666666667","6500100","板橋區"
"220090","288-VK","2019/07/08 18:39:39","新北市板橋區民生路二段161巷7號","121.470196666667","25.01965","6500100","板橋區"
"220061","295-UM","2019/07/08 18:39:34","新北市板橋區民生路二段161巷1號","121.470023333333","25.0197783333333","6500100","板橋區"
"220084","296-UM","2019/07/08 18:39:27","新北市板橋區大觀路二段153巷44弄25號","121.446065","24.9991266666667","6500100","板橋區"
"220062","305-R5","2019/07/08 18:39:21","新北市板橋區民生路二段161巷9號","121.47018","25.0195933333333","6500100","板橋區"
"220092","307-R5","2019/07/08 18:39:23","新北市板橋區民生路二段89-4號","121.471601666667","25.01822","6500100","板橋區"
"220089","487-VK","2019/07/08 18:39:38","新北市板橋區民生路二段161巷1號","121.469786666667","25.01995","6500100","板橋區"
"220088","491-VK","2019/07/08 18:39:32","新北市板橋區民生路二段161巷1號","121.470211666667","25.019955","6500100","板橋區"
"220035","560-BX","2019/07/08 18:39:23","新北市板橋區南雅西路二段145巷6號","121.451581666667","25.0118733333333","6500100","板橋區"
"220103","561-BX","2019/07/08 18:39:26","新北市板橋區民生路二段89-4號","121.47137","25.01802","6500100","板橋區"
"220091","637-BX","2019/07/08 18:39:42","新北市板橋區民生路二段161巷1號","121.469873333333","25.0198316666667","6500100","板橋區"
"220057","686-BX","2019/07/08 18:39:38","新北市板橋區館前西路1號","121.45922","25.0069766666667","6500100","板橋區"
"220093","689-BX","2019/07/08 18:39:43","新北市板橋區民生路二段161巷1號","121.470123333333","25.02011","6500100","板橋區"
"220054","741-BX","2019/07/08 18:39:24","新北市板橋區華東街1-9號","121.44811","24.9949183333333","6500100","板橋區"
"220055","827-TW","2019/07/08 18:39:37","新北市板橋區忠孝路50號","121.460781666667","25.0019","6500100","板橋區"
"220074","895-R6","2019/07/08 18:39:40","新北市板橋區南雅南路二段134號","121.452018333333","24.9966216666667","6500100","板橋區"
"220073","985-R7","2019/07/08 18:39:40","新北市板橋區四川路二段28號","121.454068333333","24.99549","6500100","板橋區"
"220064","AAC-253","2019/07/08 18:39:41","新北市板橋區民生路二段36-1號","121.472043333333","25.01685","6500100","板橋區"
"235068","KEA-2873","2019/07/08 18:39:20","新北市中和區中正路211巷13弄5號","121.49718","24.99308","6500300","中和區"
"235061","KEA-2875","2019/07/08 18:39:35","新北市中和區民享街54巷14號","121.47323","25.00237","6500300","中和區"
