"lineid","car","time","location","longitude","latitude","cityid","cityname"
"234046","148-BY","2019/07/08 18:49:38","新北市永和區秀朗路二段149號","121.524815","25.00157","6500400","永和區"
"234081","298-R6","2019/07/08 18:49:35","新北市永和區永利路118號","121.52152","25.0031166666667","6500400","永和區"
"234038","336-UY","2019/07/08 18:49:23","新北市永和區豫溪街217巷1號","121.524838333333","25.0093533333333","6500400","永和區"
"234064","337-UY","2019/07/08 18:49:34","新北市永和區豫溪街217巷1號","121.525276666667","25.0097633333333","6500400","永和區"
"234086","338-UY","2019/07/08 18:49:33","新北市永和區中正路73號","121.51498","24.996785","6500400","永和區"
"234070","552-UM","2019/07/08 18:49:38","新北市永和區環河東路二段92號","121.524415","25.0106466666667","6500400","永和區"
"234017","745-BX","2019/07/08 18:49:22","新北市永和區永和路二段299號","121.516011666667","25.01613","6500400","永和區"
"234030","746-BX","2019/07/08 18:49:40","新北市永和區得和路321號","121.523363333333","24.9995916666667","6500400","永和區"
"234054","KEA-2590","2019/07/08 18:49:37","新北市永和區豫溪街189巷2號","121.522961666667","25.010345","6500400","永和區"
"234007","KED-0605","2019/07/08 18:49:36","新北市永和區文化路146號","121.512538333333","25.0152633333333","6500400","永和區"
"234013","KEA-2591","2019/07/08 18:49:43","新北市永和區保福路二段133巷20號","121.509191666667","25.0136583333333","6500400","永和區"
"234042","862-TW","2019/07/08 18:49:32","新北市永和區永貞路310號","121.511815","25.0049016666667","6500400","永和區"
"234011","9373-KE","2019/07/08 18:49:26","新北市永和區文化路126巷23弄6號","121.512948333333","25.01635","6500400","永和區"
"249005","172-UM","2019/07/08 18:49:32","新北市八里區長道坑16-1號","121.395533333333","25.117045","6502300","八里區"
"249001","173-UM","2019/07/08 18:49:32","新北市八里區龍米路二段141號","121.444528333333","25.1488733333333","6502300","八里區"
"249004","303-UY","2019/07/08 18:49:29","新北市八里區中山路一段73號","121.417885","25.1595416666667","6502300","八里區"
"249002","305-UY","2019/07/08 18:49:38","新北市八里區龍形一街33巷6-2號","121.449305","25.1294666666667","6502300","八里區"
"249003","593-UM","2019/07/08 18:35:37","新北市八里區博物館路10-1號","121.41513","25.1640233333333","6502300","八里區"
"248016","026-BX","2019/07/08 18:49:33","新北市五股區成泰路三段543巷60號","121.449536666667","25.1031783333333","6501500","五股區"
"248006","077-UY","2019/07/08 18:49:30","新北市五股區四維路85號","121.467238333333","25.072475","6501500","五股區"
"248008","KED-0815","2019/07/08 18:49:37","新北市五股區中興路一段151巷3號","121.465148333333","25.0728133333333","6501500","五股區"
"248018","KED-0813","2019/07/08 18:49:23","新北市五股區民義路二段73號","121.409028333333","25.1055566666667","6501500","五股區"
"248012","247-BX","2019/07/08 18:49:39","新北市五股區成泰路二段147巷12號","121.438933333333","25.086205","6501500","五股區"
"248004","677-BX","2019/07/08 18:49:32","新北市五股區民義路二段60號","121.406096666667","25.107415","6501500","五股區"
"248002","678-BX","2019/07/08 18:49:34","新北市五股區成泰路三段454號","121.451416666667","25.1003583333333","6501500","五股區"
"248010","682-TV","2019/07/08 18:49:28","新北市五股區水碓二路9號","121.430146666667","25.0716583333333","6501500","五股區"
"234023","9380-KE","2019/07/08 18:49:31","新北市永和區竹林路119巷45號","121.52192","25.0118883333333","6500400","永和區"
"234077","969-R7","2019/07/08 18:49:37","新北市永和區中正路42巷6弄2號","121.513243333333","24.9941866666667","6500400","永和區"
"234067","AAC-212","2019/07/08 18:49:35","新北市永和區中和路625號","121.512926666667","25.00489","6500400","永和區"
"234003","AAC-295","2019/07/08 18:49:22","新北市永和區永和路二段28號","121.51463","25.0103716666667","6500400","永和區"
"232011","375-UM","2019/07/08 18:49:36","新北市坪林區坪林街69號","121.711405","24.9375683333333","6502000","坪林區"
"244019","402-UM","2019/07/08 18:49:32","新北市林口區麗園二街39巷22號","121.381603333333","25.06977","6501700","林口區"
"244013","KEA-2802","2019/07/08 18:49:32","新北市林口區麗園二街23巷15-9號","121.379253333333","25.0702833333333","6501700","林口區"
"244023","483-VK","2019/07/08 18:49:34","新北市林口區民享路70號","121.380783333333","25.08101","6501700","林口區"
"244017","485-VK","2019/07/08 18:49:29","新北市林口區文化二路一段120巷5號","121.367903333333","25.0699616666667","6501700","林口區"
"244009","656-BX","2019/07/08 18:49:32","新北市林口區竹林路358巷2號","121.3919","25.0842083333333","6501700","林口區"
"244011","701-TV","2019/07/08 18:49:23","新北市林口區粉寮路一段41號","121.39647","25.0774316666667","6501700","林口區"
"244025","837-TS","2019/07/08 18:49:28","新北市林口區南勢二街57-20號","121.359591666667","25.075785","6501700","林口區"
"244021","838-TS","2019/07/08 18:49:35","新北市林口區工六路100號","121.401221666667","25.07653","6501700","林口區"
"243010","297-R6","2019/07/08 18:49:32","新北市泰山區辭修路7號","121.42877","25.05791","6501600","泰山區"
"243014","KEA-2801","2019/07/08 18:49:22","新北市泰山區犁頭窠3-1號","121.422461666667","25.0605583333333","6501600","泰山區"
"243016","421-VK","2019/07/08 18:49:27","新北市泰山區明志路一段493-1號","121.430573333333","25.055135","6501600","泰山區"
"243011","KEA-2216","2019/07/08 18:49:26","新北市泰山區明志路二段214巷11號","121.42663","25.04881","6501600","泰山區"
"243015","680-BX","2019/07/08 18:49:31","新北市泰山區美寧街50號","121.430558333333","25.0644116666667","6501600","泰山區"
"222002","016-RS","2019/07/08 18:49:29","新北市深坑區文山路一段69號","121.626973333333","25.0019116666667","6501800","深坑區"
"222003","436-BY","2019/07/08 18:49:39","新北市深坑區深南路32號","121.621738333333","25.0076533333333","6501800","深坑區"
"231061","002-UM","2019/07/08 18:49:24","新北市新店區安華路28-1號","121.51987","24.9608083333333","6500600","新店區"
"231058","0293-UT","2019/07/08 18:49:39","新北市新店區北宜路一段168號","121.540408333333","24.952925","6500600","新店區"
"231044","046-UY","2019/07/08 18:49:41","新北市新店區中正路55號","121.544505","24.9699483333333","6500600","新店區"
"231060","106-UY","2019/07/08 18:49:33","新北市新店區安華路28-1號","121.519688333333","24.96078","6500600","新店區"
"231049","108-UY","2019/07/08 18:49:37","新北市新店區環河路116號","121.53705","24.96686","6500600","新店區"
"231065","110-UY","2019/07/08 18:49:25","新北市新店區安華路30巷1號","121.519476666667","24.9596","6500600","新店區"
"221035","KEA-2785","2019/07/08 18:49:32","新北市汐止區大同路二段105號","121.649895","25.0634133333333","6501100","汐止區"
"231062","256-BX","2019/07/08 18:49:39","新北市新店區安華路30巷1號","121.519588333333","24.9595416666667","6500600","新店區"
"231054","260-TV","2019/07/08 18:49:29","新北市新店區安一路一段1-1號","121.519258333333","24.9610733333333","6500600","新店區"
"231042","268-BY","2019/07/08 18:49:38","新北市新店區北新路一段126巷27號","121.543195","24.9696833333333","6500600","新店區"
"231064","278-BY","2019/07/08 18:49:40","新北市新店區安一路一段1-1號","121.519431666667","24.9610233333333","6500600","新店區"
"231050","AAD-862","2019/07/08 18:49:38","新北市新店區安康路一段257號","121.524485","24.96337","6500600","新店區"
"231045","355-BY","2019/07/08 18:49:24","新北市新店區安華路28-1號","121.519155","24.9609583333333","6500600","新店區"
"231055","4716-K9","2019/07/08 18:49:35","新北市新店區中華路83巷67號","121.538295","24.96731","6500600","新店區"
"231056","4715-K9","2019/07/08 18:49:39","新北市新店區大豐路54號","121.539778333333","24.9798816666667","6500600","新店區"
"231067","4772-VM","2019/07/08 18:49:34","新北市新店區安華路3號","121.519165","24.96034","6500600","新店區"
"231052","513-UM","2019/07/08 18:49:25","新北市新店區長興路24號","121.546765","24.9397716666667","6500600","新店區"
"231051","515-UM","2019/07/08 18:49:24","新北市新店區中央路81號","121.532328333333","24.97657","6500600","新店區"
"231041","619-UM","2019/07/08 18:49:33","新北市新店區安華路28-1號","121.519616666667","24.9606916666667","6500600","新店區"
"231063","641-BX","2019/07/08 18:49:39","新北市新店區安華路28-1號","121.51959","24.96055","6500600","新店區"
"231047","KED-0819","2019/07/08 18:49:38","新北市新店區環河路1-5號","121.538398333333","24.9616133333333","6500600","新店區"
"231046","719-UM","2019/07/08 18:49:29","新北市新店區直潭路71號","121.532403333333","24.94221","6500600","新店區"
"231057","720-UM","2019/07/08 18:49:39","新北市新店區新烏路一段215號","121.549291666667","24.9313533333333","6500600","新店區"
"231059","897-TW","2019/07/08 18:49:39","新北市新店區安華路28-1號","121.519693333333","24.9607433333333","6500600","新店區"
"231040","898-TW","2019/07/08 18:49:30","新北市新店區安康路一段155-1號","121.527478333333","24.962275","6500600","新店區"
"231043","899-TW","2019/07/08 18:49:39","新北市新店區安康路一段148號","121.526388333333","24.9629183333333","6500600","新店區"
"231066","AKT-0513","2019/07/08 18:49:43","新北市新店區安華路28-1號","121.519536666667","24.9605316666667","6500600","新店區"
"235066","003-UY","2019/07/08 18:49:38","新北市中和區水源路7巷4號","121.50408","25.0035516666667","6500300","中和區"
"235064","005-UY","2019/07/08 18:49:29","新北市中和區泰和街24號","121.499633333333","25.0004816666667","6500300","中和區"
"235063","006-UY","2019/07/08 18:49:32","新北市中和區連城路319巷3弄3號","121.489298333333","24.9956483333333","6500300","中和區"
"235056","096-UM","2019/07/08 18:49:36","新北市中和區員山路466巷17弄12號","121.480516666667","25.0073116666667","6500300","中和區"
"235065","098-UM","2019/07/08 18:49:34","新北市中和區中山路二段2巷23號","121.503295","25.00694","6500300","中和區"
"235040","150-BY","2019/07/08 18:49:43","新北市中和區保健路74號","121.511461666667","24.9964633333333","6500300","中和區"
"235058","151-BY","2019/07/08 18:49:29","新北市中和區連城路428巷13號","121.479816666667","24.9955416666667","6500300","中和區"
"235055","183-VK","2019/07/08 18:49:29","新北市中和區民生街85巷5弄2號","121.469273333333","25.0040466666667","6500300","中和區"
"235038","185-VK","2019/07/08 18:49:41","新北市中和區大勇街43巷13號","121.517046666667","24.994645","6500300","中和區"
"235049","186-VK","2019/07/08 18:49:33","新北市中和區景安路177巷3號","121.505588333333","24.9941833333333","6500300","中和區"
"235067","255-BX","2019/07/08 18:49:36","新北市中和區新生街168號","121.4837","25.000225","6500300","中和區"
"235044","293-VK","2019/07/08 18:49:37","新北市中和區中興街178號","121.499836666667","24.99103","6500300","中和區"
"235072","301-VK","2019/07/08 18:49:37","新北市中和區中山路二段132號","121.502295","25.0033966666667","6500300","中和區"
"235043","352-BY","2019/07/08 18:49:37","新北市中和區秀朗路三段64號","121.52636","24.9948716666667","6500300","中和區"
"235042","KEA-2878","2019/07/08 18:49:36","新北市中和區秀朗路三段70巷29號","121.525626666667","24.9944433333333","6500300","中和區"
"235050","4979-A6","2019/07/08 18:49:25","新北市中和區景新街496巷30弄10號","121.513118333333","24.98558","6500300","中和區"
"235069","4980-A6","2019/07/08 18:49:35","新北市中和區中和路139號","121.501948333333","24.9998683333333","6500300","中和區"
"235070","558-UM","2019/07/08 18:49:37","新北市中和區安和路195號","121.505961666667","24.9983083333333","6500300","中和區"
"235045","565-BX","2019/07/08 18:49:41","新北市中和區景新街467巷4號","121.513666666667","24.9881716666667","6500300","中和區"
"235060","KED-0823","2019/07/08 18:49:39","新北市中和區民治街9巷2號","121.475158333333","25.0043916666667","6500300","中和區"
"235054","640-BX","2019/07/08 18:49:33","新北市中和區民享街2巷2號","121.473758333333","25.0057983333333","6500300","中和區"
"235047","732-UM","2019/07/08 18:49:35","新北市中和區興南路二段34巷57弄1號","121.504876666667","24.9859283333333","6500300","中和區"
"235046","733-UM","2019/07/08 18:49:39","新北市中和區興南路一段89號","121.509886666667","24.9888","6500300","中和區"
"235062","800-TS","2019/07/08 18:49:36","新北市中和區中山路二段328-3號","121.495066666667","25.0022966666667","6500300","中和區"
"235057","801-TS","2019/07/08 18:49:26","新北市中和區民安街65巷2號","121.478671666667","24.99957","6500300","中和區"
"235005","802-TS","2019/07/08 18:49:26","新北市中和區宜安路80號","121.511106666667","24.9977816666667","6500300","中和區"
"235052","805-TS","2019/07/08 18:49:44","新北市中和區興南路二段399巷98弄40號","121.499501666667","24.9770466666667","6500300","中和區"
"235048","896-TW","2019/07/08 18:49:40","新北市中和區華新街73號","121.508196666667","24.98382","6500300","中和區"
"235053","900-TW","2019/07/08 18:49:32","新北市中和區民德路290巷5號","121.467046666667","24.995715","6500300","中和區"
"235051","157-BY","2019/07/08 18:49:37","新北市中和區忠孝街28號","121.510553333333","24.983105","6500300","中和區"
"235037","AAC-213","2019/07/08 18:49:21","新北市中和區秀朗路三段10巷14弄39號","121.524148333333","24.9961333333333","6500300","中和區"
"235059","AAC-215","2019/07/08 18:49:30","新北市中和區圓通路393巷13號","121.48995","24.9886","6500300","中和區"
"220068","015-TV","2019/07/08 18:49:26","新北市板橋區大同街35巷11號","121.477538333333","25.0277233333333","6500100","板橋區"
"220065","072-UY","2019/07/08 18:49:43","新北市板橋區民族路87號","121.466193333333","25.0083583333333","6500100","板橋區"
"220086","073-UY","2019/07/08 18:49:30","新北市板橋區南雅南路二段118號","121.453116666667","24.99999","6500100","板橋區"
"220106","075-UY","2019/07/08 18:49:25","新北市板橋區文化路二段124巷26號","121.471166666667","25.0256483333333","6500100","板橋區"
"220069","AAD-861","2019/07/08 18:49:30","新北市板橋區華興街76號","121.457188333333","25.0050683333333","6500100","板橋區"
"220098","120-SR","2019/07/08 18:49:40","新北市板橋區民生路二段234巷77號","121.47023","25.02257","6500100","板橋區"
"226004","312-R5","2019/07/08 18:49:26","新北市平溪區平溪里三坑路49-1號","121.732438333333","25.0335566666667","6502400","平溪區"
"228003","097-TW","2019/07/08 18:49:41","新北市貢寮區和美里龍洞街40號","121.914986666667","25.111785","6502600","貢寮區"
"228001","212-TW","2019/07/08 18:49:25","新北市貢寮區仁理村保健街73號","121.92373","25.0516566666667","6502600","貢寮區"
"228002","828-UM","2019/07/08 18:49:43","新北市貢寮區福隆里東興街6-11號","121.95078","25.0210783333333","6502600","貢寮區"
"224006","676-BX","2019/07/08 18:49:27","新北市瑞芳區中正路65號","121.806071666667","25.1074383333333","6501200","瑞芳區"
"224007","285-BY","2019/07/08 18:49:37","新北市瑞芳區大埔路188-2號","121.76138","25.1010383333333","6501200","瑞芳區"
"224009","275-VK","2019/07/08 18:49:26","新北市瑞芳區祈堂路53-1號","121.859625","25.11077","6501200","瑞芳區"
"224008","273-VK","2019/07/08 18:49:35","新北市瑞芳區逢甲路272號","121.80484","25.1108333333333","6501200","瑞芳區"
"224005","271-BY","2019/07/08 18:49:38","新北市瑞芳區濱二路56-1號","121.832093333333","25.117845","6501200","瑞芳區"
"227001","642-TC","2019/07/08 18:49:31","新北市雙溪區牡丹里聖南31-1號","121.855888333333","25.05399","6502500","雙溪區"
"253006","032-BX","2019/07/08 18:49:30","新北市石門區下員坑15號","121.5116","25.285015","6502200","石門區"
"253005","741-TV","2019/07/08 18:49:39","新北市石門區中山路28-3號","121.565726666667","25.289835","6502200","石門區"
"222001","KEA-2212","2019/07/08 18:49:33","新北市深坑區松柏街30巷1號","121.638686666667","25.0112783333333","6501800","深坑區"
"208002","KEA-2872","2019/07/08 18:49:30","新北市金山區信義路66號","121.635666666667","25.218945","6502700","金山區"
"208003","665-BX","2019/07/08 18:49:35","新北市金山區中山路393號","121.63335","25.225225","6502700","金山區"
"251004","009-UM","2019/07/08 18:49:32","新北市淡水區民權路3巷36號","121.462658333333","25.144465","6501000","淡水區"
"251001","011-UM","2019/07/08 18:49:32","新北市淡水區自強路106號","121.462011666667","25.1297633333333","6501000","淡水區"
"251002","012-UM","2019/07/08 18:49:36","新北市淡水區學府路71號","121.448346666667","25.1697533333333","6501000","淡水區"
"251015","KEA-2871","2019/07/08 18:49:28","新北市淡水區興福寮100號","121.486571666667","25.1641916666667","6501000","淡水區"
"251016","179-VK","2019/07/08 18:49:43","新北市淡水區下圭柔山71-3號","121.446973333333","25.2061983333333","6501000","淡水區"
"251013","180-VK","2019/07/08 18:49:41","新北市淡水區安子內5號","121.483868333333","25.214645","6501000","淡水區"
"251008","181-VK","2019/07/08 18:49:36","新北市淡水區北投子17-1號","121.453983333333","25.1837283333333","6501000","淡水區"
"251010","413-VK","2019/07/08 18:49:41","新北市淡水區沙崙路20號","121.421221666667","25.1811316666667","6501000","淡水區"
"243009","549-UM","2019/07/08 18:49:26","新北市泰山區黎明路23-1號","121.421361666667","25.0612033333333","6501600","泰山區"
"251012","441-VK","2019/07/08 18:49:36","新北市淡水區北新路19號","121.444425","25.1777266666667","6501000","淡水區"
"251006","561-UM","2019/07/08 18:49:34","新北市淡水區崁頂64號","121.438855","25.2007783333333","6501000","淡水區"
"251014","577-R6","2019/07/08 18:49:31","新北市淡水區崙頂3號","121.491008333333","25.2239683333333","6501000","淡水區"
"251011","650-BX","2019/07/08 18:49:42","新北市淡水區鄧公路2巷1號","121.448711666667","25.1687783333333","6501000","淡水區"
"251003","673-BX","2019/07/08 18:49:25","新北市淡水區中山北路一段212巷38號","121.446143333333","25.17905","6501000","淡水區"
"207003","550-UM","2019/07/08 18:49:40","新北市萬里區大鵬里頂社1號","121.657013333333","25.2097083333333","6502800","萬里區"
"207004","225-TW","2019/07/08 18:49:30","新北市萬里區萬里里獅頭路23號","121.693236666667","25.1782266666667","6502800","萬里區"
"252002","178-VK","2019/07/08 18:49:42","新北市三芝區中正路一段112號","121.504826666667","25.2563916666667","6502100","三芝區"
"252003","292-VK","2019/07/08 18:49:42","新北市三芝區後厝里大片頭108號","121.458493333333","25.2428783333333","6502100","三芝區"
"208001","170-UY","2019/07/08 18:49:25","新北市金山區文化三路66巷1號","121.634131666667","25.22562","6502700","金山區"
"237004","KEA-2597","2019/07/08 18:49:36","新北市三峽區插角115號","121.408195","24.8703833333333","6500900","三峽區"
"237007","153-BY","2019/07/08 18:49:26","新北市三峽區大埔路136號","121.367726666667","24.90383","6500900","三峽區"
"237013","252-BX","2019/07/08 18:49:25","新北市三峽區大同路48巷17弄8-1號","121.376686666667","24.9288233333333","6500900","三峽區"
"237012","275-BY","2019/07/08 18:49:37","新北市三峽區三樹路340號","121.383963333333","24.94331","6500900","三峽區"
"237008","302-VK","2019/07/08 18:49:24","新北市三峽區正義街92號","121.368891666667","24.9176183333333","6500900","三峽區"
"237014","433-BY","2019/07/08 18:49:38","新北市三峽區復興路480巷51-1號","121.360716666667","24.9405066666667","6500900","三峽區"
"237006","5529-G3","2019/07/08 18:49:42","新北市三峽區溪東路281號","121.40901","24.9313533333333","6500900","三峽區"
"237011","KEA-2596","2019/07/08 18:49:38","新北市三峽區溪東路370號","121.413575","24.928","6500900","三峽區"
"237015","649-BX","2019/07/08 18:49:41","新北市三峽區建安75-6號","121.450668333333","24.9247816666667","6500900","三峽區"
"237010","706-TV","2019/07/08 18:49:38","新北市三峽區復興路485號","121.361326666667","24.9384366666667","6500900","三峽區"
"237005","AKY-6261","2019/07/08 18:49:26","新北市三峽區新興街25號","121.372776666667","24.9353833333333","6500900","三峽區"
"236042","KED-0685","2019/07/08 18:49:37","新北市土城區裕民路92巷25弄7號","121.449908333333","24.985805","6501300","土城區"
"236030","253-BX","2019/07/08 18:49:33","新北市土城區中央路二段233號","121.440251666667","24.9724","6501300","土城區"
"236026","269-VK","2019/07/08 18:49:44","新北市土城區興城路78號","121.440973333333","24.9720433333333","6501300","土城區"
"236014","270-VK","2019/07/08 18:49:22","新北市土城區金城路二段354巷10號","121.460903333333","24.9844733333333","6501300","土城區"
"236039","271-VK","2019/07/08 18:49:37","新北市土城區仁愛路48-1號","121.461891666667","24.9791333333333","6501300","土城區"
"236069","KEA-2877","2019/07/08 18:49:35","新北市土城區永豐路157巷4號","121.468216666667","24.981485","6501300","土城區"
"252001","KED-0821","2019/07/08 18:49:36","新北市三芝區中正路三段9號","121.502881666667","25.253995","6502100","三芝區"
"236020","401-BY","2019/07/08 18:49:27","新北市土城區延吉街251號","121.46764","24.9848783333333","6501300","土城區"
"236059","912-UM","2019/07/08 18:49:39","新北市土城區金城路一段86號","121.445","24.9734933333333","6501300","土城區"
"236048","913-UM","2019/07/08 18:49:39","新北市土城區青雲路37-2號","121.459786666667","24.98763","6501300","土城區"
"236063","915-UM","2019/07/08 18:49:35","新北市土城區延和路252號","121.469826666667","24.9896866666667","6501300","土城區"
"236055","AAC-216","2019/07/08 18:49:43","新北市土城區裕民路173號","121.453151666667","24.984995","6501300","土城區"
"242056","441-UM","2019/07/08 18:49:39","新北市樹林區太平路269號","121.419495","24.9730483333333","6500500","新莊區"
"238023","601-UM","2019/07/08 18:49:29","新北市樹林區工興街14巷1號","121.398898333333","25.0136566666667","6500700","樹林區"
"238019","599-UM","2019/07/08 18:49:24","新北市樹林區中華路190-16號","121.41172","24.9806016666667","6500700","樹林區"
"238024","5061-A6","2019/07/08 18:49:29","新北市樹林區八德街642號","121.39672","24.9693333333333","6500700","樹林區"
"238021","KEA-2539","2019/07/08 18:49:43","新北市樹林區西圳街二段82-3號","121.385243333333","24.95819","6500700","樹林區"
"238017","283-BY","2019/07/08 18:49:30","新北市樹林區中山路三段214號","121.380073333333","24.9678216666667","6500700","樹林區"
"238014","282-BY","2019/07/08 18:49:25","新北市樹林區潭興街143巷24號","121.425028333333","24.9997733333333","6500700","樹林區"
"238020","268-VK","2019/07/08 18:49:25","新北市樹林區俊英街280號","121.423803333333","25.0131433333333","6500700","樹林區"
"238026","172-UY","2019/07/08 18:49:36","新北市樹林區信和街2巷1號","121.389741666667","24.9709283333333","6500700","樹林區"
"238016","169-UY","2019/07/08 18:49:42","新北市樹林區備前街21-2號","121.417186666667","24.9855466666667","6500700","樹林區"
"239007","AAC-297","2019/07/08 18:49:37","新北市鶯歌區成功街20巷1號","121.358496666667","24.9577016666667","6500800","鶯歌區"
"239008","527-UM","2019/07/08 18:49:28","新北市鶯歌區國際一路14號","121.336196666667","24.97653","6500800","鶯歌區"
"239005","526-UM","2019/07/08 18:49:30","新北市鶯歌區鳳吉一街153號","121.328793333333","24.975165","6500800","鶯歌區"
"239001","417-VK","2019/07/08 18:49:23","新北市鶯歌區尖山路294號","121.34","24.9444466666667","6500800","鶯歌區"
"239003","360-BY","2019/07/08 18:49:34","新北市鶯歌區鶯桃路570號","121.330653333333","24.9677916666667","6500800","鶯歌區"
"239002","359-BY","2019/07/08 18:49:21","新北市鶯歌區國慶街12號","121.349536666667","24.95649","6500800","鶯歌區"
"239004","193-VK","2019/07/08 18:49:29","新北市鶯歌區中正三路156巷31號","121.33337","24.9395916666667","6500800","鶯歌區"
"221036","130-UY","2019/07/08 18:49:38","新北市汐止區忠孝東路473巷24-1號","121.665265","25.0737316666667","6501100","汐止區"
"221015","131-UY","2019/07/08 18:49:39","新北市汐止區吉祥街26號","121.667781666667","25.08104","6501100","汐止區"
"221032","280-BY","2019/07/08 18:49:33","新北市汐止區民權街二段70號","121.619146666667","25.04819","6501100","汐止區"
"221029","298-VK","2019/07/08 18:49:35","新北市汐止區樟樹一路87號","121.64181","25.06321","6501100","汐止區"
"221021","299-VK","2019/07/08 18:49:24","新北市汐止區新興路46號","121.657048333333","25.0631233333333","6501100","汐止區"
"221031","353-TW","2019/07/08 18:49:30","新北市汐止區福德一路272巷9號","121.631878333333","25.0642216666667","6501100","汐止區"
"221025","623-UM","2019/07/08 18:49:30","新北市汐止區福安街20巷22號","121.661845","25.064555","6501100","汐止區"
"221002","707-TV","2019/07/08 18:49:40","新北市汐止區大同路一段154-1號","121.631981666667","25.055965","6501100","汐止區"
"221018","753-BX","2019/07/08 18:49:26","新北市汐止區茄苳路268號","121.672056666667","25.0680883333333","6501100","汐止區"
"220079","145-BY","2019/07/08 18:49:33","新北市板橋區南雅西路二段192巷1弄13號","121.452193333333","25.01479","6500100","板橋區"
"220080","200-UY","2019/07/08 18:49:36","新北市板橋區大觀路二段265巷72弄17號","121.441745","24.9969733333333","6500100","板橋區"
"220082","610-BX","2019/07/08 18:49:26","新北市板橋區篤行路三段77號","121.42702","24.9852316666667","6500100","板橋區"
"220101","245-BX","2019/07/08 18:49:37","新北市板橋區文化路二段182巷25號","121.472351666667","25.0266216666667","6500100","板橋區"
"224002","257-TC","2019/07/08 18:49:29","新北市瑞芳區傑魚坑路52號","121.793683333333","25.1105416666667","6501200","瑞芳區"
"220056","276-BY","2019/07/08 18:49:34","新北市板橋區四川路一段180號","121.459753333333","25.0026116666667","6500100","板橋區"
"220072","277-BY","2019/07/08 18:49:30","新北市板橋區大觀路三段26號","121.434206666667","24.9958216666667","6500100","板橋區"
"220094","283-UM","2019/07/08 18:49:24","新北市板橋區莒光路9號","121.469861666667","25.0248266666667","6500100","板橋區"
"220071","283-VK","2019/07/08 18:49:38","新北市板橋區四川路一段38號","121.459493333333","25.0060433333333","6500100","板橋區"
"220053","285-VK","2019/07/08 18:49:33","新北市板橋區成功路47號","121.474911666667","25.0178616666667","6500100","板橋區"
"220083","286-VK","2019/07/08 18:49:39","新北市板橋區大觀路二段20巷2號","121.444983333333","25.0041866666667","6500100","板橋區"
"220081","287-VK","2019/07/08 18:49:29","新北市板橋區光華街13巷29號","121.453058333333","25.0112216666667","6500100","板橋區"
"220090","288-VK","2019/07/08 18:49:39","新北市板橋區四維路177巷4弄2號","121.463693333333","25.0261216666667","6500100","板橋區"
"220061","295-UM","2019/07/08 18:49:40","新北市板橋區永豐街163號","121.475456666667","25.020465","6500100","板橋區"
"220084","296-UM","2019/07/08 18:49:34","新北市板橋區大觀路二段150巷34號","121.441636666667","24.9999433333333","6500100","板橋區"
"220075","303-R5","2019/07/08 18:49:27","新北市板橋區館前西路158-8號","121.45466","25.0086533333333","6500100","板橋區"
"220062","305-R5","2019/07/08 18:49:41","新北市板橋區中山路二段23號","121.472426666667","25.01528","6500100","板橋區"
"220092","307-R5","2019/07/08 18:49:43","新北市板橋區文化路一段136巷8弄8號","121.46548","25.0182566666667","6500100","板橋區"
"220089","487-VK","2019/07/08 18:49:38","新北市板橋區文化路二段419號","121.474665","25.0327566666667","6500100","板橋區"
"220088","491-VK","2019/07/08 18:49:32","新北市板橋區民生路二段216號","121.46932","25.021615","6500100","板橋區"
"220035","560-BX","2019/07/08 18:49:23","新北市板橋區中正路275巷79弄18號","121.451991666667","25.017485","6500100","板橋區"
"220103","561-BX","2019/07/08 18:49:27","新北市板橋區文化路一段188巷11弄14號","121.468965","25.018685","6500100","板橋區"
"220063","609-BX","2019/07/08 18:49:27","新北市板橋區民生路一段53號","121.475563333333","25.0130633333333","6500100","板橋區"
"220091","637-BX","2019/07/08 18:49:22","新北市板橋區雙十路二段47巷42號","121.475208333333","25.0256166666667","6500100","板橋區"
"220057","686-BX","2019/07/08 18:49:38","新北市板橋區重慶路181號","121.46276","25.0024683333333","6500100","板橋區"
"220077","687-BX","2019/07/08 18:49:25","新北市板橋區大觀路二段265巷9-2號","121.442288333333","24.9949166666667","6500100","板橋區"
"220093","689-BX","2019/07/08 18:49:33","新北市板橋區民生路三段140號","121.466278333333","25.027125","6500100","板橋區"
"220054","741-BX","2019/07/08 18:49:44","新北市板橋區館前東路19號","121.46019","25.007215","6500100","板橋區"
"220102","KEA-2699","2019/07/08 18:49:26","新北市板橋區萬板路478號","121.479978333333","25.02599","6500100","板橋區"
"220055","827-TW","2019/07/08 18:49:43","新北市板橋區忠孝路116號","121.462826666667","25.0022683333333","6500100","板橋區"
"220067","829-TW","2019/07/08 18:49:33","新北市板橋區中山路二段90巷47弄16號","121.477313333333","25.0149366666667","6500100","板橋區"
"220074","895-R6","2019/07/08 18:49:20","新北市板橋區府中路67號","121.458153333333","25.0094666666667","6500100","板橋區"
"220073","985-R7","2019/07/08 18:49:22","新北市板橋區館前西路121號","121.456596666667","25.0075316666667","6500100","板橋區"
"220097","AAC-210","2019/07/08 18:49:28","新北市板橋區陽明街166號","121.463676666667","25.0245666666667","6500100","板橋區"
"220064","AAC-253","2019/07/08 18:49:41","新北市板橋區漢生東路178號","121.467348333333","25.0146416666667","6500100","板橋區"
"235068","KEA-2873","2019/07/08 18:49:20","新北市中和區圓通路265巷60號","121.496176666667","24.99248","6500300","中和區"
"235061","KEA-2875","2019/07/08 18:49:34","新北市中和區民享街59巷2號","121.474385","25.0024183333333","6500300","中和區"
