"lineid","car","time","location","longitude","latitude","cityid","cityname"
"234046","148-BY","2019/07/08 19:39:38","新北市永和區秀朗路二段84號","121.523283333333","25.0016583333333","6500400","永和區"
"234081","298-R6","2019/07/08 19:39:35","新北市永和區環河東路三段52巷2弄2號","121.52652","25.0060616666667","6500400","永和區"
"234038","336-UY","2019/07/08 19:39:23","新北市永和區成功路一段125巷13號","121.527431666667","25.00208","6500400","永和區"
"234064","337-UY","2019/07/08 19:39:34","新北市永和區秀朗路一段192巷6弄14號","121.519101666667","25.00226","6500400","永和區"
"234086","338-UY","2019/07/08 19:39:33","新北市永和區永亨路165巷10號","121.526296666667","25.0042016666667","6500400","永和區"
"234070","552-UM","2019/07/08 19:39:38","新北市永和區永和路二段235號","121.515638333333","25.0143133333333","6500400","永和區"
"234017","745-BX","2019/07/08 19:39:42","新北市永和區永和路二段425巷51號","121.513851666667","25.01735","6500400","永和區"
"234030","746-BX","2019/07/08 19:39:43","新北市永和區民生路37巷9號","121.523751666667","24.9981383333333","6500400","永和區"
"234054","KEA-2590","2019/07/08 19:39:37","新北市永和區竹林路39巷9號","121.518345","25.0145283333333","6500400","永和區"
"234007","KED-0605","2019/07/08 19:39:40","新北市永和區中和路573號","121.511685","25.0034266666667","6500400","永和區"
"234013","KEA-2591","2019/07/08 19:39:22","新北市永和區永平路246號","121.508666666667","25.0110166666667","6500400","永和區"
"234061","AAD-866","2019/07/08 19:39:28","新北市永和區中正路446號","121.517443333333","25.0028466666667","6500400","永和區"
"234042","862-TW","2019/07/08 19:39:37","新北市永和區中和路307號","121.50666","24.9998166666667","6500400","永和區"
"234050","863-TW","2019/07/08 19:39:39","新北市永和區保安路104號","121.509378333333","25.0159233333333","6500400","永和區"
"234026","9371-KE","2019/07/08 19:39:34","新北市永和區中和路501巷2號","121.510515","25.0025666666667","6500400","永和區"
"249004","303-UY","2019/07/08 19:39:38","新北市八里區仁愛路10號","121.41318","25.1622683333333","6502300","八里區"
"249002","305-UY","2019/07/08 19:39:39","新北市八里區頂寮二街33-1號","121.450385","25.1251666666667","6502300","八里區"
"249003","593-UM","2019/07/08 19:39:31","新北市八里區華峰三街33巷4號","121.399433333333","25.1457","6502300","八里區"
"248014","025-BX","2019/07/08 19:39:31","新北市五股區五福路42巷27號","121.434948333333","25.0900766666667","6501500","五股區"
"248016","026-BX","2019/07/08 19:39:33","新北市五股區凌雲路一段43號","121.451726666667","25.1006916666667","6501500","五股區"
"248008","KED-0815","2019/07/08 19:39:37","新北市五股區四維路155巷6弄4號","121.467561666667","25.0746433333333","6501500","五股區"
"248018","KED-0813","2019/07/08 19:39:43","新北市五股區外寮路1-1號","121.425231666667","25.0770766666667","6501500","五股區"
"248012","247-BX","2019/07/08 19:39:39","新北市五股區蓬萊路6巷43號","121.435846666667","25.0803683333333","6501500","五股區"
"248004","677-BX","2019/07/08 19:39:32","新北市五股區成泰路一段220號","121.43641","25.0796233333333","6501500","五股區"
"248002","678-BX","2019/07/08 19:39:34","新北市五股區成泰路三段577巷81號","121.449645","25.103705","6501500","五股區"
"248010","682-TV","2019/07/08 19:39:27","新北市五股區自強路115號","121.432335","25.0705366666667","6501500","五股區"
"234023","9380-KE","2019/07/08 19:39:31","新北市永和區保生路55-1號","121.504503333333","25.010885","6500400","永和區"
"234077","969-R7","2019/07/08 19:39:36","新北市永和區民族街67巷2號","121.51845","24.997215","6500400","永和區"
"234074","AAC-211","2019/07/08 19:39:29","新北市永和區竹林路225巷3號","121.521158333333","25.008595","6500400","永和區"
"234067","AAC-212","2019/07/08 19:39:35","新北市永和區永貞路406巷28號","121.509725","25.0079983333333","6500400","永和區"
"234003","AAC-295","2019/07/08 19:39:29","新北市永和區自由街70-8號","121.513496666667","25.00538","6500400","永和區"
"244023","483-VK","2019/07/08 19:39:35","新北市林口區文林四街52號","121.373311666667","25.085115","6501700","林口區"
"243012","AAD-798","2019/07/08 19:39:35","新北市泰山區全興路259號","121.436058333333","25.0527266666667","6501600","泰山區"
"243010","297-R6","2019/07/08 19:39:32","新北市泰山區仁愛路6巷30號","121.431556666667","25.0529216666667","6501600","泰山區"
"243016","421-VK","2019/07/08 19:39:27","新北市新莊區新北大道七段36號","121.419616666667","25.03229","6501600","泰山區"
"243011","KEA-2216","2019/07/08 19:39:26","新北市泰山區中山路二段672號","121.427248333333","25.0374583333333","6501600","泰山區"
"243015","680-BX","2019/07/08 19:39:31","新北市泰山區民權街70號","121.428436666667","25.049785","6501600","泰山區"
"222002","016-RS","2019/07/08 19:39:29","新北市深坑區北深路一段177號","121.632568333333","25.0108566666667","6501800","深坑區"
"222003","436-BY","2019/07/08 19:39:39","新北市深坑區深南路51-1號","121.621185","25.0098583333333","6501800","深坑區"
"231061","002-UM","2019/07/08 19:39:24","新北市新店區安民街82號","121.516591666667","24.9670766666667","6500600","新店區"
"231058","0293-UT","2019/07/08 19:39:38","新北市新店區中正路76巷11弄20號","121.543743333333","24.97169","6500600","新店區"
"231044","046-UY","2019/07/08 19:39:40","新北市新店區北新路三段23號","121.542115","24.9797566666667","6500600","新店區"
"231060","106-UY","2019/07/08 19:39:42","新北市新店區安康路二段135號","121.511933333333","24.9604166666667","6500600","新店區"
"231049","108-UY","2019/07/08 19:39:37","新北市新店區大豐路28號","121.540558333333","24.98005","6500600","新店區"
"231065","110-UY","2019/07/08 19:39:25","新北市新店區安祥路109巷88號","121.477596666667","24.9600383333333","6500600","新店區"
"231062","256-BX","2019/07/08 19:39:39","新北市新店區合作路14號","121.533323333333","24.95775","6500600","新店區"
"231054","260-TV","2019/07/08 19:39:29","新北市新店區文中路45號","121.539551666667","24.956785","6500600","新店區"
"231042","268-BY","2019/07/08 19:39:38","新北市新店區中興路一段206號","121.543765","24.9654583333333","6500600","新店區"
"231064","278-BY","2019/07/08 19:39:40","新北市新店區安和路一段52巷2-1號","121.517685","24.966355","6500600","新店區"
"231050","AAD-862","2019/07/08 19:39:38","新北市新店區北宜路二段277號","121.555026666667","24.953705","6500600","新店區"
"231045","355-BY","2019/07/08 19:39:24","新北市新店區北宜路二段205號","121.55306","24.9533466666667","6500600","新店區"
"231056","4715-K9","2019/07/08 19:39:39","新北市新店區中央路151號","121.529313333333","24.9722666666667","6500600","新店區"
"231067","4772-VM","2019/07/08 19:39:34","新北市新店區安康路一段353號","121.519166666667","24.9639366666667","6500600","新店區"
"231052","513-UM","2019/07/08 19:39:25","新北市新店區新烏路二段495號","121.552485","24.9084583333333","6500600","新店區"
"231051","515-UM","2019/07/08 19:39:24","新北市新店區中央四街64號","121.527066666667","24.975335","6500600","新店區"
"231041","619-UM","2019/07/08 19:39:33","新北市新店區中正路500號","121.533958333333","24.9821483333333","6500600","新店區"
"231063","641-BX","2019/07/08 19:39:39","新北市新店區達觀路32號","121.502278333333","24.94003","6500600","新店區"
"231047","KED-0819","2019/07/08 19:39:38","新北市新店區五峰路63巷14號","121.546713333333","24.96866","6500600","新店區"
"231046","719-UM","2019/07/08 19:39:29","新北市新店區中正路265號","121.538185","24.9740316666667","6500600","新店區"
"231057","720-UM","2019/07/08 19:39:39","新北市新店區橘園一路11號","121.548026666667","24.93403","6500600","新店區"
"231059","897-TW","2019/07/08 19:39:39","新北市新店區安和路三段151號","121.516608333333","24.9855516666667","6500600","新店區"
"231040","898-TW","2019/07/08 19:39:30","新北市新店區北新路一段275號","121.540901666667","24.966845","6500600","新店區"
"231043","899-TW","2019/07/08 19:39:39","新北市新店區北新路二段98號","121.543058333333","24.9732016666667","6500600","新店區"
"231066","AKT-0513","2019/07/08 19:39:24","新北市新店區安康路三段355巷29號","121.484911666667","24.9498933333333","6500600","新店區"
"241011","013-R5","2019/07/08 19:39:38","新北市三重區秀江街167號","121.498413333333","25.0718166666667","6500200","三重區"
"241028","022-UY","2019/07/08 19:39:29","新北市三重區中正南路115號","121.494143333333","25.0574016666667","6500200","三重區"
"241008","059-VK","2019/07/08 19:39:38","新北市三重區永福街135巷2號","121.478581666667","25.0767116666667","6500200","三重區"
"241029","060-VK","2019/07/08 19:39:21","新北市三重區重安街102號","121.493051666667","25.05593","6500200","三重區"
"241031","061-VK","2019/07/08 19:39:38","新北市三重區重新路四段244巷22號","121.486615","25.0536233333333","6500200","三重區"
"241015","062-VK","2019/07/08 19:39:24","新北市三重區福德北路48號","121.501951666667","25.0656016666667","6500200","三重區"
"241017","063-VK","2019/07/08 19:39:39","新北市三重區重陽路三段5巷30號","121.491466666667","25.065345","6500200","三重區"
"241024","065-VK","2019/07/08 19:39:26","新北市三重區大勇街82巷15弄30號","121.481265","25.07195","6500200","三重區"
"241022","066-VK","2019/07/08 19:39:35","新北市三重區重陽路二段52巷83弄1號","121.484241666667","25.06554","6500200","三重區"
"241030","742-BX","2019/07/08 19:39:37","新北市三重區新興路30-1號","121.491906666667","25.05317","6500200","三重區"
"241009","267-UM","2019/07/08 19:39:40","新北市三重區永安北路一段105-1號","121.480198333333","25.07933","6500200","三重區"
"241032","269-UM","2019/07/08 19:39:34","新北市三重區重陽路一段60巷72號","121.484345","25.0581416666667","6500200","三重區"
"241013","270-UM","2019/07/08 19:39:26","新北市三重區仁賢街10號","121.495848333333","25.07466","6500200","三重區"
"241023","271-UM","2019/07/08 19:39:27","新北市三重區忠孝路三段99巷11號","121.479678333333","25.064395","6500200","三重區"
"241007","398-BY","2019/07/08 19:39:37","新北市三重區仁美街61號","121.486746666667","25.0783683333333","6500200","三重區"
"241035","462-BY","2019/07/08 19:39:43","新北市三重區信義西街1號","121.498313333333","25.0648716666667","6500200","三重區"
"241026","480-VK","2019/07/08 19:39:32","新北市三重區光興街57號","121.49892","25.06019","6500200","三重區"
"241014","543-UM","2019/07/08 19:39:31","新北市三重區長壽街196號","121.504285","25.0690283333333","6500200","三重區"
"241001","547-UM","2019/07/08 19:39:21","新北市三重區仁愛街327巷75號","121.49398","25.080335","6500200","三重區"
"241019","KEA-2593","2019/07/08 19:39:23","新北市三重區六張街194巷1弄19號","121.487946666667","25.068195","6500200","三重區"
"241006","AAD-863","2019/07/08 19:39:30","新北市三重區聯華街131號","121.48477","25.0750366666667","6500200","三重區"
"241025","887-TS","2019/07/08 19:39:41","新北市三重區頂崁街189號","121.477591666667","25.0662733333333","6500200","三重區"
"241012","941-UM","2019/07/08 19:39:37","新北市三重區仁興街26-8號","121.49912","25.0753716666667","6500200","三重區"
"235066","003-UY","2019/07/08 19:39:38","新北市中和區中和路196巷6號","121.505041666667","24.9991433333333","6500300","中和區"
"235064","005-UY","2019/07/08 19:39:29","新北市中和區圓通路25號","121.501161666667","24.9978583333333","6500300","中和區"
"235063","006-UY","2019/07/08 19:39:32","新北市中和區連城路263巷9弄2號","121.492381666667","24.99551","6500300","中和區"
"235056","096-UM","2019/07/08 19:39:36","新北市中和區中山路三段114巷21號","121.475546666667","25.008015","6500300","中和區"
"235065","098-UM","2019/07/08 19:39:34","新北市中和區永和路9巷1號","121.499175","25.0039716666667","6500300","中和區"
"235040","150-BY","2019/07/08 19:39:43","新北市中和區安平路60號","121.510448333333","24.9960083333333","6500300","中和區"
"235058","151-BY","2019/07/08 19:39:29","新北市中和區員山路124巷5號","121.481666666667","24.9960283333333","6500300","中和區"
"235055","183-VK","2019/07/08 19:39:29","新北市中和區中山路三段181巷30號","121.473116666667","25.0049616666667","6500300","中和區"
"235038","185-VK","2019/07/08 19:39:21","新北市中和區自強路60號","121.52006","24.994495","6500300","中和區"
"235049","186-VK","2019/07/08 19:39:33","新北市中和區中正路2-1號","121.503218333333","24.99356","6500300","中和區"
"235067","255-BX","2019/07/08 19:39:24","新北市中和區新生街220巷1弄11號","121.483426666667","24.9981116666667","6500300","中和區"
"235044","293-VK","2019/07/08 19:39:37","新北市中和區捷運路129號","121.507248333333","24.990825","6500300","中和區"
"235072","301-VK","2019/07/08 19:39:37","新北市中和區錦和路91-1號","121.490085","24.9957783333333","6500300","中和區"
"235043","352-BY","2019/07/08 19:39:37","新北市中和區興南路一段104號","121.509883333333","24.9890083333333","6500300","中和區"
"235042","KEA-2878","2019/07/08 19:39:44","新北市中和區保健路2巷32號","121.506968333333","24.9973966666667","6500300","中和區"
"235070","558-UM","2019/07/08 19:39:37","新北市中和區連城路139巷66號","121.496906666667","24.9968816666667","6500300","中和區"
"235045","565-BX","2019/07/08 19:39:41","新北市中和區景新街561號","121.51554","24.98638","6500300","中和區"
"235060","KED-0823","2019/07/08 19:39:39","新北市中和區中山路二段582號","121.482563333333","25.0050416666667","6500300","中和區"
"235054","640-BX","2019/07/08 19:39:33","新北市中和區莒光路156號","121.472605","25.0005233333333","6500300","中和區"
"235047","732-UM","2019/07/08 19:39:35","新北市中和區和平街182巷3號","121.505073333333","24.9926483333333","6500300","中和區"
"235046","733-UM","2019/07/08 19:39:39","新北市中和區景新街496巷19號","121.513345","24.9866016666667","6500300","中和區"
"235071","783-BX","2019/07/08 19:39:43","新北市中和區中正路806號","121.484975","25.0022633333333","6500300","中和區"
"235057","801-TS","2019/07/08 19:39:26","新北市中和區員山路150-27號","121.481296666667","24.9981683333333","6500300","中和區"
"235005","802-TS","2019/07/08 19:39:26","新北市中和區永貞路264號","121.513696666667","25.0037083333333","6500300","中和區"
"235052","805-TS","2019/07/08 19:39:24","新北市中和區華新街206巷5號","121.506411666667","24.982235","6500300","中和區"
"235048","896-TW","2019/07/08 19:39:40","新北市中和區華新街92號","121.50851","24.98316","6500300","中和區"
"235053","900-TW","2019/07/08 19:39:32","新北市中和區國光街215巷8弄1號","121.466565","25.0013266666667","6500300","中和區"
"235051","157-BY","2019/07/08 19:39:36","新北市中和區南山路269號","121.503948333333","24.9925416666667","6500300","中和區"
"235037","AAC-213","2019/07/08 19:39:41","新北市中和區秀朗路三段173-2號","121.5245","24.9914983333333","6500300","中和區"
"235059","AAC-215","2019/07/08 19:39:30","新北市中和區錦和路201號","121.490833333333","24.9902883333333","6500300","中和區"
"220068","015-TV","2019/07/08 19:39:26","新北市板橋區中山路二段418號","121.482933333333","25.0210016666667","6500100","板橋區"
"220065","072-UY","2019/07/08 19:39:43","新北市板橋區國泰街111巷21號","121.466236666667","25.005815","6500100","板橋區"
"220086","073-UY","2019/07/08 19:39:29","新北市板橋區中正路216巷20號","121.456723333333","25.0184733333333","6500100","板橋區"
"220106","075-UY","2019/07/08 19:39:25","新北市板橋區文化路二段608巷64號","121.480143333333","25.0340433333333","6500100","板橋區"
"220069","AAD-861","2019/07/08 19:39:30","新北市板橋區縣民大道一段64巷7號","121.455533333333","25.00372","6500100","板橋區"
"220098","120-SR","2019/07/08 19:39:24","新北市板橋區民生路三段263巷2弄4號","121.463918333333","25.0294616666667","6500100","板橋區"
"247004","893-R6","2019/07/08 19:39:35","新北市蘆洲區長安街102巷26號","121.462873333333","25.082065","6501400","蘆洲區"
"226004","312-R5","2019/07/08 19:39:26","新北市平溪區靜安路三段388號","121.782043333333","25.0483916666667","6502400","平溪區"
"228003","097-TW","2019/07/08 19:39:40","新北市貢寮區真理里美艷山街31號","121.923241666667","25.0690633333333","6502600","貢寮區"
"228001","212-TW","2019/07/08 19:39:25","新北市貢寮區真理里延平街38巷1號","121.924831666667","25.0563566666667","6502600","貢寮區"
"224010","AGQ-8101","2019/07/08 19:39:42","新北市瑞芳區豎崎路1號","121.8435","25.10873","6501200","瑞芳區"
"227001","642-TC","2019/07/08 19:39:31","新北市雙溪區新基里新基北街22號","121.867215","25.0389283333333","6502500","雙溪區"
"227002","400-TW","2019/07/08 19:39:35","新北市雙溪區雙溪里勝利街16號","121.865476666667","25.03578","6502500","雙溪區"
"222001","KEA-2212","2019/07/08 19:39:33","新北市深坑區北深路二段204號","121.612961666667","25.0014983333333","6501800","深坑區"
"208002","KEA-2872","2019/07/08 19:39:30","新北市金山區四維路3號","121.635515","25.2224533333333","6502700","金山區"
"208003","665-BX","2019/07/08 19:39:35","新北市金山區仁愛路9號","121.638021666667","25.21953","6502700","金山區"
"251009","008-UM","2019/07/08 19:39:33","新北市淡水區中山北路一段186巷10號","121.445391666667","25.1788433333333","6501000","淡水區"
"251005","010-UM","2019/07/08 19:39:34","新北市淡水區原德路108巷2號","121.443328333333","25.1735416666667","6501000","淡水區"
"251001","011-UM","2019/07/08 19:39:32","新北市淡水區民權路59號","121.459731666667","25.1388866666667","6501000","淡水區"
"251002","012-UM","2019/07/08 19:39:36","新北市淡水區下圭柔山91-3號","121.43108","25.2098333333333","6501000","淡水區"
"251015","KEA-2871","2019/07/08 19:39:28","新北市淡水區山子頂24-1號","121.491358333333","25.1871366666667","6501000","淡水區"
"251016","179-VK","2019/07/08 19:39:23","新北市淡水區下圭柔山119-51號","121.450743333333","25.2084816666667","6501000","淡水區"
"251013","180-VK","2019/07/08 19:39:24","新北市淡水區店子後9號","121.460406666667","25.2179983333333","6501000","淡水區"
"251008","181-VK","2019/07/08 19:39:36","新北市淡水區中正路一段52號","121.425978333333","25.176725","6501000","淡水區"
"251010","413-VK","2019/07/08 19:39:41","新北市淡水區新市五路二段75號","121.431315","25.1982933333333","6501000","淡水區"
"251007","442-VK","2019/07/08 19:39:31","新北市淡水區中正東路一段111巷32號","121.455273333333","25.1613433333333","6501000","淡水區"
"251006","561-UM","2019/07/08 19:39:33","新北市淡水區中山北路一段207巷52號","121.442366666667","25.1791716666667","6501000","淡水區"
"251014","577-R6","2019/07/08 19:39:31","新北市淡水區桂竹圍4-3號","121.475483333333","25.2322516666667","6501000","淡水區"
"251011","650-BX","2019/07/08 19:39:44","新北市淡水區中正東路二段161巷11弄14號","121.460533333333","25.1464283333333","6501000","淡水區"
"207003","550-UM","2019/07/08 19:39:40","新北市萬里區大鵬里下社35號","121.649395","25.2168833333333","6502800","萬里區"
"207004","225-TW","2019/07/08 19:39:30","新北市萬里區萬里里瑪鋉路73號","121.688241666667","25.176485","6502800","萬里區"
"252002","178-VK","2019/07/08 19:39:22","新北市三芝區中正路一段18巷21號","121.503863333333","25.2590916666667","6502100","三芝區"
"208001","170-UY","2019/07/08 19:39:25","新北市金山區南勢118號","121.622303333333","25.2195","6502700","金山區"
"237004","KEA-2597","2019/07/08 19:39:38","新北市三峽區有木17號","121.425306666667","24.86321","6500900","三峽區"
"237007","153-BY","2019/07/08 19:39:26","新北市三峽區二鬮路136巷135號","121.356556666667","24.91062","6500900","三峽區"
"237009","210-TH","2019/07/08 19:39:31","新北市三峽區中園街59號","121.368211666667","24.925845","6500900","三峽區"
"237013","252-BX","2019/07/08 19:39:25","新北市三峽區介壽路一段552號","121.387706666667","24.9337366666667","6500900","三峽區"
"237012","275-BY","2019/07/08 19:39:37","新北市三峽區民生街1號","121.374545","24.9353516666667","6500900","三峽區"
"237008","302-VK","2019/07/08 19:39:44","新北市三峽區永安街183號","121.373185","24.9269433333333","6500900","三峽區"
"237014","433-BY","2019/07/08 19:39:38","新北市三峽區中園街77號","121.367945","24.9252333333333","6500900","三峽區"
"237006","5529-G3","2019/07/08 19:39:22","新北市三峽區中正路一段336巷15弄2號","121.36995","24.92496","6500900","三峽區"
"237011","KEA-2596","2019/07/08 19:39:38","新北市三峽區介壽路二段65號","121.391005","24.935365","6500900","三峽區"
"237015","649-BX","2019/07/08 19:39:34","新北市三峽區成福路210號","121.426766666667","24.9255866666667","6500900","三峽區"
"237010","706-TV","2019/07/08 19:39:38","新北市三峽區復興路143號","121.371008333333","24.93824","6500900","三峽區"
"237005","AKY-6261","2019/07/08 19:39:26","新北市三峽區中山路169巷2號","121.364253333333","24.93613","6500900","三峽區"
"236042","KED-0685","2019/07/08 19:39:33","新北市土城區裕民路256巷4弄2號","121.454111666667","24.982455","6501300","土城區"
"236030","253-BX","2019/07/08 19:39:33","新北市土城區福祥街22號","121.440915","24.9800816666667","6501300","土城區"
"236039","271-VK","2019/07/08 19:39:37","新北市土城區青雲路257巷8號","121.45963","24.98074","6501300","土城區"
"236069","KEA-2877","2019/07/08 19:39:35","新北市土城區金城路二段2巷5號","121.44777","24.9763883333333","6501300","土城區"
"252001","KED-0821","2019/07/08 19:39:36","新北市三芝區公正街66號","121.499793333333","25.2574966666667","6502100","三芝區"
"236020","401-BY","2019/07/08 19:39:27","新北市土城區峰廷街3號","121.46902","24.9873233333333","6501300","土城區"
"236059","912-UM","2019/07/08 19:39:39","新北市土城區中央路二段51號","121.44264","24.9795333333333","6501300","土城區"
"236048","913-UM","2019/07/08 19:39:39","新北市土城區明德路一段67號","121.465365","24.9842666666667","6501300","土城區"
"236063","915-UM","2019/07/08 19:39:38","新北市土城區延平街56號","121.467943333333","24.9924433333333","6501300","土城區"
"236055","AAC-216","2019/07/08 19:39:23","新北市土城區學府路一段12號","121.45928","24.9884566666667","6501300","土城區"
"242004","440-UM","2019/07/08 19:39:34","新北市新莊區化成路29巷40號","121.463576666667","25.0439383333333","6500500","新莊區"
"242013","132-UY","2019/07/08 19:39:28","新北市新莊區中泰街109號","121.44863","25.0465416666667","6500500","新莊區"
"242031","346-TH","2019/07/08 19:39:31","新北市新莊區新泰路225巷22弄11號","121.444573333333","25.0392033333333","6500500","新莊區"
"242034","348-TH","2019/07/08 19:39:40","新北市新莊區仁愛街4號","121.444306666667","25.0348116666667","6500500","新莊區"
"238015","755-BX","2019/07/08 19:39:32","新北市樹林區中山路一段155號","121.421951666667","24.988875","6500700","樹林區"
"238023","601-UM","2019/07/08 19:39:29","新北市樹林區三福街114號","121.406598333333","25.016305","6500700","樹林區"
"238019","599-UM","2019/07/08 19:39:24","新北市樹林區大同街18號","121.418306666667","24.9826366666667","6500700","樹林區"
"238024","5061-A6","2019/07/08 19:39:29","新北市樹林區育德街19巷16號","121.39232","24.9697983333333","6500700","樹林區"
"238022","KEA-2213","2019/07/08 19:35:29","新北市樹林區名園街78巷14號","121.419648333333","24.9775716666667","6500700","樹林區"
"238021","KEA-2539","2019/07/08 19:39:43","新北市樹林區佳園路三段119號","121.386403333333","24.9505166666667","6500700","樹林區"
"238025","303-VK","2019/07/08 19:39:35","新北市樹林區中山路一段183-1號","121.421421666667","24.9880083333333","6500700","樹林區"
"238017","283-BY","2019/07/08 19:39:30","新北市樹林區光興街8號","121.412555","25.0028366666667","6500700","樹林區"
"238014","282-BY","2019/07/08 19:39:45","新北市樹林區千歲街57號","121.425781666667","24.9969816666667","6500700","樹林區"
"238020","268-VK","2019/07/08 19:39:37","新北市樹林區俊英街3-2號","121.429793333333","24.9999083333333","6500700","樹林區"
"238026","172-UY","2019/07/08 19:39:36","新北市樹林區佳園路二段138號","121.389465","24.95612","6500700","樹林區"
"238016","169-UY","2019/07/08 19:38:42","新北市樹林區東和街47巷2號","121.397758333333","24.9840433333333","6500700","樹林區"
"239006","891-R6","2019/07/08 19:39:23","新北市鶯歌區鶯桃路65號","121.341476666667","24.9527383333333","6500800","鶯歌區"
"239005","526-UM","2019/07/08 19:39:30","新北市鶯歌區中湖街301巷1號","121.347965","24.9772466666667","6500800","鶯歌區"
"239001","417-VK","2019/07/08 19:39:44","新北市鶯歌區鶯桃路35-6號","121.342793333333","24.9508616666667","6500800","鶯歌區"
"239002","359-BY","2019/07/08 19:39:41","新北市鶯歌區湖山路25巷1號","121.340323333333","24.9739566666667","6500800","鶯歌區"
"239004","193-VK","2019/07/08 19:39:29","新北市鶯歌區二甲路55-28號","121.337765","24.9304533333333","6500800","鶯歌區"
"221008","489-VK","2019/07/08 19:39:36","新北市汐止區康寧街145號","121.621866666667","25.066725","6501100","汐止區"
"221010","269-BY","2019/07/08 19:39:41","新北市汐止區連峰街7號","121.646265","25.077185","6501100","汐止區"
"221027","281-BY","2019/07/08 19:39:36","新北市汐止區忠孝東路9號","121.658263333333","25.0659366666667","6501100","汐止區"
"221033","297-VK","2019/07/08 19:39:39","新北市汐止區南勢街1巷1號","121.627025","25.0374183333333","6501100","汐止區"
"221021","299-VK","2019/07/08 19:39:43","新北市汐止區連興街136號","121.653968333333","25.0616266666667","6501100","汐止區"
"221031","353-TW","2019/07/08 19:39:30","新北市汐止區康寧街901號","121.650775","25.075275","6501100","汐止區"
"221025","623-UM","2019/07/08 19:39:30","新北市汐止區福安街17號","121.662561666667","25.0652433333333","6501100","汐止區"
"221038","646-BX","2019/07/08 19:39:29","新北市汐止區忠孝東路247號","121.662978333333","25.06767","6501100","汐止區"
"220079","145-BY","2019/07/08 19:39:33","新北市板橋區民權路260巷40號","121.45932","25.0152116666667","6500100","板橋區"
"220080","200-UY","2019/07/08 19:39:36","新北市板橋區大觀路二段37巷180號","121.449613333333","25.0021833333333","6500100","板橋區"
"220082","610-BX","2019/07/08 19:39:26","新北市板橋區大觀路三段176號","121.431173333333","24.9929916666667","6500100","板橋區"
"220101","245-BX","2019/07/08 19:39:37","新北市板橋區縣民大道三段91號","121.47581","25.0220266666667","6500100","板橋區"
"224002","257-TC","2019/07/08 19:39:29","新北市瑞芳區三爪子坑路13巷25號","121.814135","25.10695","6501200","瑞芳區"
"220056","276-BY","2019/07/08 19:39:34","新北市板橋區和平路16號","121.45962","24.9943066666667","6500100","板橋區"
"220072","277-BY","2019/07/08 19:39:41","新北市板橋區金門街253巷10弄19號","121.433523333333","24.9883316666667","6500100","板橋區"
"220094","283-UM","2019/07/08 19:39:24","新北市板橋區吳鳳路91-1號","121.466601666667","25.03186","6500100","板橋區"
"220071","283-VK","2019/07/08 19:39:41","新北市板橋區四川路一段325巷11號","121.459425","25.000265","6500100","板橋區"
"220053","285-VK","2019/07/08 19:39:40","新北市板橋區民享街91號","121.47702","25.01584","6500100","板橋區"
"220083","286-VK","2019/07/08 19:39:39","新北市板橋區龍興街71巷27號","121.442625","25.0022666666667","6500100","板橋區"
"220081","287-VK","2019/07/08 19:39:29","新北市板橋區大觀路一段75巷13號","121.447898333333","25.0044683333333","6500100","板橋區"
"220090","288-VK","2019/07/08 19:39:39","新北市板橋區龍泉街72巷6號","121.45632","25.0263233333333","6500100","板橋區"
"220061","295-UM","2019/07/08 19:39:34","新北市板橋區板新路238號","121.468003333333","25.0161716666667","6500100","板橋區"
"220084","296-UM","2019/07/08 19:39:31","新北市板橋區滿平街84巷100弄18號","121.426061666667","24.9862866666667","6500100","板橋區"
"220075","303-R5","2019/07/08 19:39:27","新北市板橋區中正路253巷8號","121.455296666667","25.0181916666667","6500100","板橋區"
"220062","305-R5","2019/07/08 19:39:41","新北市板橋區三民路二段81巷21號","121.480311666667","25.0167333333333","6500100","板橋區"
"220092","307-R5","2019/07/08 19:39:43","新北市板橋區四維路259巷48號","121.461165","25.02709","6500100","板橋區"
"220089","487-VK","2019/07/08 19:39:41","新北市板橋區新海路385巷34弄8號","121.457246666667","25.0257366666667","6500100","板橋區"
"220088","491-VK","2019/07/08 19:39:32","新北市板橋區仁化街117號","121.47683","25.0324566666667","6500100","板橋區"
"220035","560-BX","2019/07/08 19:39:42","新北市板橋區中正路399巷17號","121.452928333333","25.02261","6500100","板橋區"
"220103","561-BX","2019/07/08 19:39:43","新北市板橋區自由路32-3號","121.465613333333","25.0229483333333","6500100","板橋區"
"220063","609-BX","2019/07/08 19:39:27","新北市板橋區中山路二段467號","121.48192","25.0204566666667","6500100","板橋區"
"220091","637-BX","2019/07/08 19:39:42","新北市板橋區懷德街139巷20弄1號","121.480101666667","25.0307466666667","6500100","板橋區"
"220057","686-BX","2019/07/08 19:39:41","新北市板橋區信義路69號","121.457086666667","24.995445","6500100","板橋區"
"220077","687-BX","2019/07/08 19:39:25","新北市板橋區僑中二街88巷1號","121.446461666667","25.0092616666667","6500100","板橋區"
"220093","689-BX","2019/07/08 19:39:43","新北市板橋區長江路二段233號","121.468498333333","25.0326733333333","6500100","板橋區"
"220054","741-BX","2019/07/08 19:39:23","新北市板橋區忠孝路237號","121.466075","25.0029716666667","6500100","板橋區"
"220102","KEA-2699","2019/07/08 19:39:25","新北市板橋區文化路二段410巷1弄2號","121.474325","25.03113","6500100","板橋區"
"220055","827-TW","2019/07/08 19:39:37","新北市板橋區國慶路149巷1弄2號","121.461281666667","24.9965533333333","6500100","板橋區"
"220067","829-TW","2019/07/08 19:39:33","新北市板橋區長安街138巷1弄23號","121.473465","25.009985","6500100","板橋區"
"220074","895-R6","2019/07/08 19:39:40","新北市板橋區倉後街1號","121.455663333333","25.0087116666667","6500100","板橋區"
"220073","985-R7","2019/07/08 19:39:22","新北市板橋區中正路302號","121.454923333333","25.0207733333333","6500100","板橋區"
"220097","AAC-210","2019/07/08 19:39:38","新北市板橋區文化路一段207號","121.463363333333","25.016835","6500100","板橋區"
"220064","AAC-253","2019/07/08 19:39:41","新北市板橋區實踐路108號","121.464091666667","25.0045716666667","6500100","板橋區"
"235068","KEA-2873","2019/07/08 19:39:20","新北市中和區廟美街34號","121.500501666667","25.0019233333333","6500300","中和區"
"235061","KEA-2875","2019/07/08 19:39:34","新北市中和區員山路226巷13弄1號","121.48213","25.0000683333333","6500300","中和區"
