"lineid","car","time","location","longitude","latitude","cityid","cityname"
"234046","148-BY","2019/07/08 19:59:38","新北市永和區成功路一段16巷4號","121.52682","25.005585","6500400","永和區"
"234081","298-R6","2019/07/08 19:59:35","新北市永和區永利路81巷2弄3號","121.521808333333","25.0034966666667","6500400","永和區"
"234038","336-UY","2019/07/08 19:59:23","新北市永和區成功路二段179-1號","121.526616666667","24.9966333333333","6500400","永和區"
"234064","337-UY","2019/07/08 19:59:34","新北市永和區中正路412巷20弄14號","121.518846666667","25.0014933333333","6500400","永和區"
"234086","338-UY","2019/07/08 19:59:33","新北市永和區福和路262號","121.518203333333","25.00759","6500400","永和區"
"234070","552-UM","2019/07/08 19:59:38","新北市永和區國光路18號","121.518908333333","25.008495","6500400","永和區"
"234017","745-BX","2019/07/08 19:59:42","新北市永和區文化路69號","121.5139","25.0150583333333","6500400","永和區"
"234030","746-BX","2019/07/08 19:59:43","新北市永和區民生路22巷16號","121.521723333333","24.99727","6500400","永和區"
"234054","KEA-2590","2019/07/08 19:59:40","新北市永和區環河東路一段122號","121.520723333333","25.0155366666667","6500400","永和區"
"234007","KED-0605","2019/07/08 19:59:36","新北市永和區保生路22巷21號","121.507281666667","25.0082233333333","6500400","永和區"
"234013","KEA-2591","2019/07/08 19:59:42","新北市永和區保生路55號","121.504703333333","25.010585","6500400","永和區"
"234061","AAD-866","2019/07/08 19:59:40","新北市永和區中正路283巷37號","121.516123333333","24.9995916666667","6500400","永和區"
"234042","862-TW","2019/07/08 19:59:32","新北市永和區雙和街17巷20號","121.508955","25.00149","6500400","永和區"
"234050","863-TW","2019/07/08 19:59:39","新北市永和區保安路151號","121.506943333333","25.01312","6500400","永和區"
"234026","9371-KE","2019/07/08 19:59:41","新北市永和區水源街27巷9號","121.511311666667","25.003975","6500400","永和區"
"234011","9373-KE","2019/07/08 19:59:26","新北市永和區仁愛路352巷112弄15號","121.501023333333","25.0086716666667","6500400","永和區"
"249005","172-UM","2019/07/08 19:59:32","新北市八里區楓林路1-8號","121.386266666667","25.131115","6502300","八里區"
"249001","173-UM","2019/07/08 19:59:39","新北市八里區中華路二段249-1號","121.403926666667","25.148355","6502300","八里區"
"249004","303-UY","2019/07/08 19:59:38","新北市八里區中華路一段333-1號","121.412803333333","25.1544666666667","6502300","八里區"
"249002","305-UY","2019/07/08 19:59:39","新北市八里區頂寮一街49號","121.450368333333","25.1241766666667","6502300","八里區"
"249003","593-UM","2019/07/08 19:59:31","新北市八里區訊塘路1號","121.398345","25.1445033333333","6502300","八里區"
"248014","025-BX","2019/07/08 19:59:31","新北市五股區成泰路二段147巷23-15號","121.43793","25.0871116666667","6501500","五股區"
"248016","026-BX","2019/07/08 19:59:33","新北市五股區成泰路三段577巷80弄7號","121.449511666667","25.1042383333333","6501500","五股區"
"248008","KED-0815","2019/07/08 19:59:37","新北市五股區四維路30巷24號","121.468195","25.071505","6501500","五股區"
"248018","KED-0813","2019/07/08 19:59:43","新北市五股區登林路118-6號","121.413985","25.075985","6501500","五股區"
"248012","247-BX","2019/07/08 19:59:39","新北市五股區工商路205號","121.43328","25.0871","6501500","五股區"
"248004","677-BX","2019/07/08 19:59:43","新北市五股區成泰路一段34巷1號","121.43526","25.0684133333333","6501500","五股區"
"248002","678-BX","2019/07/08 19:59:34","新北市五股區成泰路三段557號","121.452021666667","25.10203","6501500","五股區"
"248010","682-TV","2019/07/08 19:59:27","新北市五股區登林路102號","121.427303333333","25.0707183333333","6501500","五股區"
"234023","9380-KE","2019/07/08 19:59:44","新北市永和區中正路702巷2號","121.516351666667","25.0101","6500400","永和區"
"234077","969-R7","2019/07/08 19:59:36","新北市永和區民有街23巷57號","121.517711666667","24.9974766666667","6500400","永和區"
"234074","AAC-211","2019/07/08 19:59:39","新北市永和區豫溪街211號","121.524151666667","25.00959","6500400","永和區"
"234067","AAC-212","2019/07/08 19:59:35","新北市永和區永貞路331號","121.509731666667","25.0069166666667","6500400","永和區"
"234003","AAC-295","2019/07/08 19:59:42","新北市永和區中正路708號","121.516056666667","25.0099516666667","6500400","永和區"
"243012","AAD-798","2019/07/08 19:59:35","新北市泰山區全興路13號","121.43231","25.0589233333333","6501600","泰山區"
"243010","297-R6","2019/07/08 19:59:32","新北市泰山區民生路7號","121.429573333333","25.0526333333333","6501600","泰山區"
"243014","KEA-2801","2019/07/08 19:59:42","新北市泰山區泰林路二段32號","121.436066666667","25.0569516666667","6501600","泰山區"
"243016","421-VK","2019/07/08 19:59:27","新北市泰山區貴陽街5號","121.421351666667","25.033515","6501600","泰山區"
"243011","KEA-2216","2019/07/08 19:59:26","新北市泰山區工專路65號","121.422145","25.0404316666667","6501600","泰山區"
"222002","016-RS","2019/07/08 19:59:29","新北市深坑區北深路二段81巷8弄2號","121.618315","25.0031516666667","6501800","深坑區"
"222003","436-BY","2019/07/08 19:59:39","新北市深坑區埔新街14號","121.62072","25.0039216666667","6501800","深坑區"
"231061","002-UM","2019/07/08 19:59:24","新北市新店區安民街327號","121.517341666667","24.9747016666667","6500600","新店區"
"231044","046-UY","2019/07/08 19:59:41","新北市新店區建國路299號","121.537205","24.98695","6500600","新店區"
"231060","106-UY","2019/07/08 19:59:42","新北市新店區安康路二段380號","121.500728333333","24.957085","6500600","新店區"
"231049","108-UY","2019/07/08 19:59:37","新北市新店區建國路257號","121.537245","24.9830883333333","6500600","新店區"
"231065","110-UY","2019/07/08 19:59:25","新北市新店區安祥路106巷10號","121.478758333333","24.962645","6500600","新店區"
"231068","187-VK","2019/07/08 19:59:37","新北市新店區安平路23-14號","121.52062","24.9660483333333","6500600","新店區"
"221035","KEA-2785","2019/07/08 19:59:32","新北市汐止區長江街15號","121.65477","25.071215","6501100","汐止區"
"231062","256-BX","2019/07/08 19:59:39","新北市新店區華潭街31號","121.529858333333","24.954505","6500600","新店區"
"231054","260-TV","2019/07/08 19:59:29","新北市新店區光明街204號","121.539768333333","24.9625516666667","6500600","新店區"
"231042","268-BY","2019/07/08 19:59:38","新北市新店區中興路一段290號","121.545935","24.96906","6500600","新店區"
"231064","278-BY","2019/07/08 19:59:40","新北市新店區安光路10-1號","121.513726666667","24.9642516666667","6500600","新店區"
"231050","AAD-862","2019/07/08 19:59:38","新北市新店區北宜路二段392巷2號","121.565191666667","24.9533833333333","6500600","新店區"
"231045","355-BY","2019/07/08 19:59:24","新北市新店區北宜路二段449號","121.5614","24.9540966666667","6500600","新店區"
"231055","4716-K9","2019/07/08 19:59:35","新北市新店區力行路14巷16弄8號","121.539498333333","24.9656","6500600","新店區"
"231056","4715-K9","2019/07/08 19:59:39","新北市新店區北新路二段189號","121.542465","24.9777883333333","6500600","新店區"
"231067","4772-VM","2019/07/08 19:59:34","新北市新店區秀山路11巷18弄1號","121.531655","24.958995","6500600","新店區"
"231052","513-UM","2019/07/08 19:59:25","新北市新店區新烏路三段寶島巷2弄3號","121.552021666667","24.898635","6500600","新店區"
"231051","515-UM","2019/07/08 19:59:24","新北市新店區中央二街14號","121.528946666667","24.9732466666667","6500600","新店區"
"231041","619-UM","2019/07/08 19:59:33","新北市新店區中央路13號","121.533271666667","24.978405","6500600","新店區"
"231063","641-BX","2019/07/08 19:59:39","新北市新店區車子路11號","121.502901666667","24.9515433333333","6500600","新店區"
"231047","KED-0819","2019/07/08 19:59:38","新北市新店區寶宏路38號","121.549385","24.9755183333333","6500600","新店區"
"231057","720-UM","2019/07/08 19:59:39","新北市新店區百齡一路9號","121.55555","24.9324083333333","6500600","新店區"
"231059","897-TW","2019/07/08 19:59:39","新北市新店區安和路二段39號","121.518111666667","24.9678633333333","6500600","新店區"
"231040","898-TW","2019/07/08 19:59:30","新北市新店區北新路一段96巷23號","121.543036666667","24.96876","6500600","新店區"
"231043","899-TW","2019/07/08 19:59:39","新北市新店區中正路263-3號","121.538278333333","24.973685","6500600","新店區"
"231066","AKT-0513","2019/07/08 19:59:43","新北市新店區安康路二段341巷38號","121.496653333333","24.9543566666667","6500600","新店區"
"241011","013-R5","2019/07/08 19:59:38","新北市三重區三和路二段119號","121.498915","25.0689866666667","6500200","三重區"
"241028","022-UY","2019/07/08 19:59:29","新北市三重區中正南路47號","121.493956666667","25.05959","6500200","三重區"
"241008","059-VK","2019/07/08 19:59:38","新北市三重區永福街179巷21號","121.478148333333","25.0749566666667","6500200","三重區"
"241029","060-VK","2019/07/08 19:59:41","新北市三重區重安街6號","121.490176666667","25.058315","6500200","三重區"
"241031","061-VK","2019/07/08 19:59:38","新北市三重區重新路四段144巷12號","121.487056666667","25.0555733333333","6500200","三重區"
"241015","062-VK","2019/07/08 19:59:24","新北市三重區三和路二段2-2號","121.501371666667","25.0665966666667","6500200","三重區"
"241017","063-VK","2019/07/08 19:59:39","新北市三重區自強路一段306號","121.49131","25.0684166666667","6500200","三重區"
"241024","065-VK","2019/07/08 19:59:26","新北市三重區大勇街57號","121.481035","25.07168","6500200","三重區"
"241022","066-VK","2019/07/08 19:59:35","新北市三重區新北大道一段11號","121.488626666667","25.0606233333333","6500200","三重區"
"241002","090-VK","2019/07/08 19:59:24","新北市三重區仁愛街317號","121.492491666667","25.0791683333333","6500200","三重區"
"241003","091-VK","2019/07/08 19:59:44","新北市三重區五華街130號","121.491596666667","25.08352","6500200","三重區"
"241030","742-BX","2019/07/08 19:59:37","新北市三重區成功路173號","121.485933333333","25.0526266666667","6500200","三重區"
"241005","262-UM","2019/07/08 19:59:38","新北市三重區溪尾街325巷32號","121.488686666667","25.083375","6500200","三重區"
"241016","266-UM","2019/07/08 19:59:20","新北市三重區正義北路16巷26號","121.496746666667","25.0628316666667","6500200","三重區"
"241009","267-UM","2019/07/08 19:59:40","新北市三重區三和路四段396巷2-1號","121.481468333333","25.07912","6500200","三重區"
"241018","268-UM","2019/07/08 19:59:24","新北市三重區正義北路244巷95號","121.49353","25.0676333333333","6500200","三重區"
"241032","269-UM","2019/07/08 19:59:34","新北市三重區朝陽街28號","121.483483333333","25.056565","6500200","三重區"
"241013","270-UM","2019/07/08 19:59:26","新北市三重區三和路三段125巷28號","121.493646666667","25.0737083333333","6500200","三重區"
"241023","271-UM","2019/07/08 19:59:07","新北市三重區頂崁街168號","121.477625","25.065915","6500200","三重區"
"241007","398-BY","2019/07/08 19:59:37","新北市三重區溪尾街160號","121.488811666667","25.0802","6500200","三重區"
"241035","462-BY","2019/07/08 19:59:43","新北市三重區大榮街9號","121.498248333333","25.0631766666667","6500200","三重區"
"241004","475-VK","2019/07/08 19:59:34","新北市三重區仁愛街425巷95號","121.49227","25.0826983333333","6500200","三重區"
"241020","478-VK","2019/07/08 19:59:25","新北市三重區忠孝路一段101號","121.489476666667","25.0721533333333","6500200","三重區"
"241026","480-VK","2019/07/08 19:59:32","新北市三重區中央南路8號","121.501401666667","25.062985","6500200","三重區"
"241014","543-UM","2019/07/08 19:59:31","新北市三重區三和路二段146號","121.49949","25.068375","6500200","三重區"
"241001","547-UM","2019/07/08 19:59:41","新北市三重區福隆路44號","121.49233","25.078525","6500200","三重區"
"241019","KEA-2593","2019/07/08 19:59:43","新北市三重區重陽路四段38號","121.491385","25.06983","6500200","三重區"
"241006","AAD-863","2019/07/08 19:59:30","新北市三重區力行路二段33巷8號","121.48243","25.07377","6500200","三重區"
"241025","887-TS","2019/07/08 19:59:25","新北市三重區頂崁街210巷28弄3號","121.475971666667","25.0676816666667","6500200","三重區"
"241012","941-UM","2019/07/08 19:59:37","新北市三重區仁興街55號","121.499098333333","25.07606","6500200","三重區"
"241033","AAC-255","2019/07/08 19:59:29","新北市三重區中興北街95號","121.4697","25.04833","6500200","三重區"
"235066","003-UY","2019/07/08 19:59:38","新北市中和區中山路二段57號","121.504346666667","25.0048466666667","6500300","中和區"
"235065","098-UM","2019/07/08 19:59:34","新北市中和區福美路268號","121.498065","25.0051066666667","6500300","中和區"
"235040","150-BY","2019/07/08 19:59:43","新北市中和區保健路10巷3弄1號","121.50773","24.9976733333333","6500300","中和區"
"235058","151-BY","2019/07/08 19:59:29","新北市中和區員山路150巷2弄19號","121.481803333333","24.9979033333333","6500300","中和區"
"235055","183-VK","2019/07/08 19:59:29","新北市中和區中山路三段218號","121.471331666667","25.0066183333333","6500300","中和區"
"235067","255-BX","2019/07/08 19:59:44","新北市中和區中正路928號","121.483116666667","25.0079816666667","6500300","中和區"
"247014","KEA-2869","2019/07/08 19:59:37","新北市蘆洲區成功路164號","121.471383333333","25.083565","6501400","蘆洲區"
"247008","KED-0682","2019/07/08 19:59:22","新北市蘆洲區信義路115號","121.478513333333","25.0802316666667","6501400","蘆洲區"
"235050","4979-A6","2019/07/08 19:59:29","新北市中和區景平路241巷72號","121.507546666667","24.992165","6500300","中和區"
"235070","558-UM","2019/07/08 19:59:37","新北市中和區中正路418號","121.491831666667","24.9943166666667","6500300","中和區"
"235047","732-UM","2019/07/08 19:59:35","新北市中和區和平街158號","121.506053333333","24.9918483333333","6500300","中和區"
"235046","733-UM","2019/07/08 19:59:39","新北市中和區興南路一段105巷20弄9號","121.510293333333","24.9854416666667","6500300","中和區"
"235052","805-TS","2019/07/08 19:59:24","新北市中和區華新街30巷20弄1-2號","121.506485","24.9840016666667","6500300","中和區"
"235048","896-TW","2019/07/08 19:59:40","新北市中和區景新街426號","121.513031666667","24.9887633333333","6500300","中和區"
"235051","157-BY","2019/07/08 19:59:36","新北市中和區中興街233巷10號","121.50146","24.9895133333333","6500300","中和區"
"235037","AAC-213","2019/07/08 19:59:41","新北市中和區自強路52號","121.520153333333","24.9947883333333","6500300","中和區"
"235059","AAC-215","2019/07/08 19:59:30","新北市中和區圓通路305巷5弄34號","121.494458333333","24.990295","6500300","中和區"
"220068","015-TV","2019/07/08 19:59:26","新北市板橋區中山路二段493號","121.482516666667","25.0209216666667","6500100","板橋區"
"220065","072-UY","2019/07/08 19:59:43","新北市板橋區民族路176號","121.4676","25.0076966666667","6500100","板橋區"
"220086","073-UY","2019/07/08 19:59:29","新北市板橋區國光路76號","121.458233333333","25.0177783333333","6500100","板橋區"
"220106","075-UY","2019/07/08 19:59:25","新北市板橋區懷德街66巷14號","121.47703","25.0320533333333","6500100","板橋區"
"220069","AAD-861","2019/07/08 19:59:42","新北市板橋區大明街13號","121.45887","25.0025633333333","6500100","板橋區"
"220098","120-SR","2019/07/08 19:59:24","新北市板橋區裕民街147號","121.458651666667","25.0271666666667","6500100","板橋區"
"247004","893-R6","2019/07/08 19:59:35","新北市蘆洲區長安街311號","121.457356666667","25.0853966666667","6501400","蘆洲區"
"247018","546-UM","2019/07/08 19:59:28","新北市蘆洲區民族路290巷11號","121.478441666667","25.0898566666667","6501400","蘆洲區"
"247024","337-TH","2019/07/08 19:59:28","新北市蘆洲區光榮路120巷8弄33號","121.464918333333","25.0880483333333","6501400","蘆洲區"
"247002","336-TH","2019/07/08 19:59:32","新北市蘆洲區長安街280號","121.457403333333","25.08732","6501400","蘆洲區"
"247012","056-VK","2019/07/08 19:59:24","新北市蘆洲區民族路157號","121.479456666667","25.0880866666667","6501400","蘆洲區"
"247016","053-VK","2019/07/08 19:59:41","新北市蘆洲區中正路107號","121.469763333333","25.08422","6501400","蘆洲區"
"247020","007-UY","2019/07/08 19:59:37","新北市蘆洲區民義街53號","121.472815","25.0898216666667","6501400","蘆洲區"
"247006","002-UY","2019/07/08 19:59:25","新北市蘆洲區九芎街109號","121.465706666667","25.07965","6501400","蘆洲區"
"226004","312-R5","2019/07/08 19:59:26","新北市平溪區十分里十分街116號","121.776906666667","25.0431383333333","6502400","平溪區"
"228003","097-TW","2019/07/08 19:59:40","新北市貢寮區仁理村仁和路230號","121.923991666667","25.0537433333333","6502600","貢寮區"
"227001","642-TC","2019/07/08 19:59:31","新北市雙溪區新基里新基南街25號","121.866233333333","25.03813","6502500","雙溪區"
"227002","400-TW","2019/07/08 19:59:15","新北市雙溪區雙溪里太平路62號","121.865083333333","25.0358566666667","6502500","雙溪區"
"222001","KEA-2212","2019/07/08 19:59:33","新北市深坑區北深路三段157號","121.602251666667","25.0031666666667","6501800","深坑區"
"208002","KEA-2872","2019/07/08 19:59:30","新北市萬里區大鵬里萬里加投241號","121.642285","25.2168283333333","6502700","金山區"
"208003","665-BX","2019/07/08 19:59:39","新北市金山區永興里忠義路29-1號","121.630746666667","25.26341","6502700","金山區"
"251009","008-UM","2019/07/08 19:59:44","新北市淡水區英專路21巷16號","121.444845","25.1697833333333","6501000","淡水區"
"251004","009-UM","2019/07/08 19:59:33","新北市淡水區民權路177巷11號","121.460735","25.1351966666667","6501000","淡水區"
"251005","010-UM","2019/07/08 19:59:34","新北市淡水區學府路136巷1號","121.450756666667","25.1730233333333","6501000","淡水區"
"251001","011-UM","2019/07/08 19:59:31","新北市淡水區水源街二段189-2號","121.456595","25.17641","6501000","淡水區"
"251002","012-UM","2019/07/08 19:59:36","新北市淡水區沙崙路161-1號","121.423995","25.1834483333333","6501000","淡水區"
"251015","KEA-2871","2019/07/08 19:59:28","新北市淡水區北新路三段169-8號","121.490821666667","25.1909866666667","6501000","淡水區"
"251016","179-VK","2019/07/08 19:59:43","新北市淡水區淡金路四段571號","121.45164","25.2304983333333","6501000","淡水區"
"251013","180-VK","2019/07/08 19:59:44","新北市淡水區下圭柔山63-7號","121.451848333333","25.20621","6501000","淡水區"
"251008","181-VK","2019/07/08 19:59:36","新北市淡水區淡海路70號","121.423113333333","25.18098","6501000","淡水區"
"243009","549-UM","2019/07/08 19:59:26","新北市泰山區楓江路16巷19號","121.434011666667","25.0616383333333","6501600","泰山區"
"251012","441-VK","2019/07/08 19:59:36","新北市淡水區下圭柔山93號","121.435985","25.2090883333333","6501000","淡水區"
"251006","561-UM","2019/07/08 19:59:33","新北市淡水區水碓街29號","121.443758333333","25.1772816666667","6501000","淡水區"
"251014","577-R6","2019/07/08 19:59:31","新北市淡水區石頭厝14-53號","121.464151666667","25.2366633333333","6501000","淡水區"
"251011","650-BX","2019/07/08 19:59:24","新北市淡水區淡金路二段270-1號","121.447023333333","25.1889283333333","6501000","淡水區"
"207003","550-UM","2019/07/08 19:59:40","新北市萬里區大鵬里萬里加投59-2號","121.642258333333","25.2125766666667","6502800","萬里區"
"207004","225-TW","2019/07/08 19:59:30","新北市萬里區北基里忠一街1號","121.686505","25.176305","6502800","萬里區"
"252002","178-VK","2019/07/08 19:59:22","新北市三芝區忠孝街116-3號","121.505458333333","25.2575683333333","6502100","三芝區"
"208001","170-UY","2019/07/08 19:59:34","新北市金山區重和里茅埔頭15號","121.601661666667","25.2134766666667","6502700","金山區"
"237004","KEA-2597","2019/07/08 19:59:38","新北市三峽區添福141-1號","121.374556666667","24.9002216666667","6500900","三峽區"
"237009","210-TH","2019/07/08 19:59:31","新北市三峽區民族街76-5號","121.369303333333","24.92991","6500900","三峽區"
"237012","275-BY","2019/07/08 19:59:37","新北市三峽區中華路83號","121.37169","24.9297066666667","6500900","三峽區"
"237008","302-VK","2019/07/08 19:59:34","新北市三峽區中正路一段174巷6-1號","121.372275","24.92896","6500900","三峽區"
"237014","433-BY","2019/07/08 19:59:38","新北市三峽區添福15-9號","121.372285","24.905325","6500900","三峽區"
"237006","5529-G3","2019/07/08 19:59:42","新北市三峽區中正路二段168號","121.36596","24.9157166666667","6500900","三峽區"
"237011","KEA-2596","2019/07/08 19:59:38","新北市三峽區中正路一段328-1號","121.371318333333","24.92495","6500900","三峽區"
"237015","649-BX","2019/07/08 19:59:34","新北市三峽區橫溪路5號","121.39608","24.9360816666667","6500900","三峽區"
"237005","AKY-6261","2019/07/08 19:59:26","新北市三峽區民生街1巷29-7號","121.381813333333","24.9327383333333","6500900","三峽區"
"236042","KED-0685","2019/07/08 19:59:33","新北市土城區學府路一段98巷16號","121.455768333333","24.9886183333333","6501300","土城區"
"236030","253-BX","2019/07/08 19:59:33","新北市土城區中央路一段250巷2-4號","121.443956666667","24.984855","6501300","土城區"
"236026","269-VK","2019/07/08 19:59:24","新北市土城區員林街1號","121.44231","24.9782783333333","6501300","土城區"
"236039","271-VK","2019/07/08 19:59:43","新北市土城區國際路70號","121.466591666667","24.978195","6501300","土城區"
"236069","KEA-2877","2019/07/08 19:59:35","新北市土城區忠義路92號","121.444323333333","24.9623183333333","6501300","土城區"
"252001","KED-0821","2019/07/08 19:59:36","新北市三芝區公正街66號","121.499835","25.25743","6502100","三芝區"
"236020","401-BY","2019/07/08 19:59:32","新北市土城區延吉街70號","121.471238333333","24.9866966666667","6501300","土城區"
"236059","912-UM","2019/07/08 19:59:39","新北市土城區中央路一段260-3號","121.444085","24.9838966666667","6501300","土城區"
"236048","913-UM","2019/07/08 19:59:39","新北市土城區金城路三段133號","121.467983333333","24.9882266666667","6501300","土城區"
"236063","915-UM","2019/07/08 19:59:35","新北市土城區延和路59號","121.466615","24.9898333333333","6501300","土城區"
"236055","AAC-216","2019/07/08 19:59:43","新北市土城區學府路一段53號","121.457466666667","24.9883383333333","6501300","土城區"
"242039","AAC-296","2019/07/08 19:59:23","新北市新莊區民安路287-3號","121.42892","25.0229616666667","6500500","新莊區"
"242060","986-R7","2019/07/08 19:59:33","新北市新莊區瓊林路瓊英巷11弄2號","121.443136666667","25.027695","6500500","新莊區"
"242029","615-BX","2019/07/08 19:59:40","新北市新莊區中榮街152巷46號","121.44539","25.0538533333333","6500500","新莊區"
"242058","612-BX","2019/07/08 19:59:34","新北市新莊區八德街97號","121.424298333333","25.0213783333333","6500500","新莊區"
"242050","497-BY","2019/07/08 19:59:40","新北市新莊區西盛街176號","121.428151666667","25.01891","6500500","新莊區"
"242004","440-UM","2019/07/08 19:59:34","新北市新莊區化成路316號","121.4659","25.0483916666667","6500500","新莊區"
"242011","413-TV","2019/07/08 19:59:35","新北市新莊區中港路531巷122號","121.449905","25.0515066666667","6500500","新莊區"
"242048","400-BY","2019/07/08 19:59:31","新北市新莊區後港一路15號","121.424418333333","25.0263766666667","6500500","新莊區"
"242025","362-BY","2019/07/08 19:59:28","新北市新莊區五工二路86巷24號","121.460376666667","25.0669816666667","6500500","新莊區"
"242023","353-BY","2019/07/08 19:59:34","新北市新莊區化成路354號","121.465856666667","25.0491833333333","6500500","新莊區"
"242013","132-UY","2019/07/08 19:59:27","新北市新莊區中泰街24巷1號","121.451168333333","25.047175","6500500","新莊區"
"242036","135-UY","2019/07/08 19:59:28","新北市新莊區建安街41巷5號","121.429151666667","25.02523","6500500","新莊區"
"242015","173-VK","2019/07/08 19:59:31","新北市新莊區復興路一段47巷11號","121.446753333333","25.0427083333333","6500500","新莊區"
"242021","175-VK","2019/07/08 19:59:34","新北市新莊區建中街16巷36號","121.448886666667","25.0386966666667","6500500","新莊區"
"242019","KED-0687","2019/07/08 19:59:42","新北市新莊區中港路206巷2號","121.455235","25.042665","6500500","新莊區"
"242031","346-TH","2019/07/08 19:59:31","新北市新莊區忠孝街68號","121.443943333333","25.036325","6500500","新莊區"
"242034","348-TH","2019/07/08 19:59:40","新北市新莊區建中街84號","121.44714","25.0367533333333","6500500","新莊區"
"242007","349-TH","2019/07/08 19:59:33","新北市新莊區思源路585號","121.459838333333","25.0592583333333","6500500","新莊區"
"242017","351-TH","2019/07/08 19:59:27","新北市新莊區中安街1號","121.45283","25.04529","6500500","新莊區"
"238021","KEA-2539","2019/07/08 19:59:23","新北市樹林區佳園路三段101巷80弄8號","121.394258333333","24.9500733333333","6500700","樹林區"
"238017","283-BY","2019/07/08 19:59:30","新北市樹林區保安街二段45巷29-6號","121.413843333333","25.00017","6500700","樹林區"
"239006","891-R6","2019/07/08 19:59:43","新北市鶯歌區文化路124號","121.351858333333","24.9519133333333","6500800","鶯歌區"
"239001","417-VK","2019/07/08 19:59:44","新北市鶯歌區文化路117巷60號","121.358956666667","24.955145","6500800","鶯歌區"
"221008","489-VK","2019/07/08 19:59:36","新北市汐止區康寧街83巷43號","121.62038","25.0673716666667","6501100","汐止區"
"221015","131-UY","2019/07/08 19:59:39","新北市汐止區橋東街9號","121.666645","25.0759483333333","6501100","汐止區"
"221010","269-BY","2019/07/08 19:59:41","新北市汐止區汐萬路一段333巷2號","121.64999","25.076275","6501100","汐止區"
"221012","278-VK","2019/07/08 19:59:40","新北市汐止區保長路271巷2號","121.680901666667","25.0742916666667","6501100","汐止區"
"221023","279-VK","2019/07/08 19:59:43","新北市汐止區民族三街44號","121.6296","25.070045","6501100","汐止區"
"221027","281-BY","2019/07/08 19:59:36","新北市汐止區中正路87號","121.661236666667","25.0694533333333","6501100","汐止區"
"221033","297-VK","2019/07/08 19:59:39","新北市汐止區東勢街203號","121.633821666667","25.0418366666667","6501100","汐止區"
"221029","298-VK","2019/07/08 19:59:35","新北市汐止區樟樹一路137巷26號","121.640951666667","25.0658466666667","6501100","汐止區"
"221021","299-VK","2019/07/08 19:59:24","新北市汐止區水源路一段172號","121.655145","25.0620133333333","6501100","汐止區"
"221031","353-TW","2019/07/08 19:59:30","新北市汐止區福德二路55巷6弄1號","121.634533333333","25.0666333333333","6501100","汐止區"
"221025","623-UM","2019/07/08 19:59:30","新北市汐止區仁愛路77巷3號","121.661048333333","25.0633883333333","6501100","汐止區"
"221038","646-BX","2019/07/08 19:59:29","新北市汐止區忠孝東路480號","121.666291666667","25.0738383333333","6501100","汐止區"
"220079","145-BY","2019/07/08 19:59:41","新北市板橋區民權路302巷1弄15號","121.457818333333","25.0162933333333","6500100","板橋區"
"220080","200-UY","2019/07/08 19:59:36","新北市板橋區大觀路二段69巷28號","121.447393333333","25.00202","6500100","板橋區"
"220082","610-BX","2019/07/08 19:59:26","新北市板橋區存德街9號","121.43003","24.9919516666667","6500100","板橋區"
"220101","245-BX","2019/07/08 19:59:37","新北市板橋區莒光路165巷32-2號","121.474301666667","25.0248016666667","6500100","板橋區"
"224002","257-TC","2019/07/08 19:59:29","新北市瑞芳區三爪子坑路303-2號","121.818048333333","25.1060466666667","6501200","瑞芳區"
"220056","276-BY","2019/07/08 19:59:34","新北市板橋區德興街35號","121.45351","24.9938266666667","6500100","板橋區"
"220072","277-BY","2019/07/08 19:59:30","新北市板橋區金門街109巷35號","121.434206666667","24.991325","6500100","板橋區"
"220094","283-UM","2019/07/08 19:59:24","新北市板橋區文化路一段379號","121.467033333333","25.0216733333333","6500100","板橋區"
"220071","283-VK","2019/07/08 19:59:27","新北市板橋區五權街32巷11號","121.464468333333","24.992995","6500100","板橋區"
"220053","285-VK","2019/07/08 19:59:40","新北市板橋區永豐街165號","121.47556","25.02044","6500100","板橋區"
"220083","286-VK","2019/07/08 19:59:39","新北市板橋區僑中二街8巷3號","121.446965","25.0111783333333","6500100","板橋區"
"220081","287-VK","2019/07/08 19:59:29","新北市板橋區大觀路一段28巷75號","121.45005","25.0110816666667","6500100","板橋區"
"220090","288-VK","2019/07/08 19:59:39","新北市板橋區新海路72巷5弄10號","121.461991666667","25.02238","6500100","板橋區"
"220061","295-UM","2019/07/08 19:59:34","新北市板橋區民生路二段36-1號","121.472073333333","25.0168833333333","6500100","板橋區"
"220084","296-UM","2019/07/08 19:59:37","新北市板橋區溪崑二街96巷6號","121.42667","24.9892116666667","6500100","板橋區"
"220075","303-R5","2019/07/08 19:59:27","新北市板橋區金華街3號","121.455601666667","25.0201033333333","6500100","板橋區"
"220062","305-R5","2019/07/08 19:59:36","新北市板橋區中山路二段光榮巷30弄12號","121.4845","25.0205666666667","6500100","板橋區"
"220092","307-R5","2019/07/08 19:59:23","新北市板橋區文化路一段101巷7號","121.460638333333","25.0142416666667","6500100","板橋區"
"220089","487-VK","2019/07/08 19:59:38","新北市板橋區四維路133號","121.464953333333","25.02524","6500100","板橋區"
"220088","491-VK","2019/07/08 19:59:31","新北市板橋區懷德街78巷1號","121.478353333333","25.0314983333333","6500100","板橋區"
"220035","560-BX","2019/07/08 19:59:23","新北市板橋區金華街105號","121.458838333333","25.0208916666667","6500100","板橋區"
"220103","561-BX","2019/07/08 19:59:26","新北市板橋區新海路11號","121.46253","25.0207","6500100","板橋區"
"220063","609-BX","2019/07/08 19:59:31","新北市板橋區中山路二段111號","121.474533333333","25.0161533333333","6500100","板橋區"
"220091","637-BX","2019/07/08 19:59:42","新北市板橋區文聖街89巷19號","121.478163333333","25.03038","6500100","板橋區"
"220057","686-BX","2019/07/08 19:59:38","新北市板橋區四川路二段243號","121.4504","24.9936883333333","6500100","板橋區"
"220077","687-BX","2019/07/08 19:59:25","新北市板橋區僑中二街108巷2號","121.445936666667","25.0073616666667","6500100","板橋區"
"220093","689-BX","2019/07/08 19:59:22","新北市板橋區長江路二段188號","121.466928333333","25.0320383333333","6500100","板橋區"
"220054","741-BX","2019/07/08 19:59:30","新北市板橋區實踐路93巷41號","121.465661666667","25.0051066666667","6500100","板橋區"
"220102","KEA-2699","2019/07/08 19:59:38","新北市板橋區莒光路40巷17弄7號","121.470468333333","25.0236766666667","6500100","板橋區"
"220055","827-TW","2019/07/08 19:59:37","新北市板橋區仁愛路62巷21號","121.460336666667","24.9979916666667","6500100","板橋區"
"220067","829-TW","2019/07/08 19:59:33","新北市板橋區漢生東路193巷69弄4號","121.472406666667","25.0121033333333","6500100","板橋區"
"220074","895-R6","2019/07/08 19:59:40","新北市板橋區文化路一段32巷21弄14號","121.460313333333","25.011455","6500100","板橋區"
"220073","985-R7","2019/07/08 19:59:22","新北市板橋區國光路51號","121.458146666667","25.0178483333333","6500100","板橋區"
"220097","AAC-210","2019/07/08 19:59:28","新北市板橋區光正街45巷2弄3號","121.461743333333","25.0172483333333","6500100","板橋區"
"220064","AAC-253","2019/07/08 19:59:41","新北市板橋區區運路11號","121.465335","25.00973","6500100","板橋區"
"235068","KEA-2873","2019/07/08 19:59:20","新北市中和區中山路二段250巷24號","121.497353333333","25.003405","6500300","中和區"
