"lineid","car","time","location","longitude","latitude","cityid","cityname"
"244006","080-UY","2019/09/26 09:19:49","新北市林口區後湖19-1號","121.387845","25.0985333333333","6501700","林口區"
"244012","KEA-2802","2019/09/26 09:19:46","新北市林口區麗園一街11巷3號","121.377475","25.0705183333333","6501700","林口區"
"244022","483-VK","2019/09/26 09:19:51","新北市林口區東湖路153巷135號","121.38219","25.0735166666667","6501700","林口區"
"244016","485-VK","2019/09/26 09:19:37","新北市林口區文化二路一段70號","121.365853333333","25.0691816666667","6501700","林口區"
"244008","656-BX","2019/09/26 09:19:46","新北市林口區文化三路二段796號","121.380363333333","25.0874266666667","6501700","林口區"
"244010","701-TV","2019/09/26 09:19:45","新北市林口區粉寮路一段5號","121.396268333333","25.07602","6501700","林口區"
"244024","837-TS","2019/09/26 09:19:49","新北市林口區仁愛二路69號","121.367901666667","25.0753183333333","6501700","林口區"
"222006","289-BY","2019/09/26 09:19:43","新北市深坑區北深路一段278巷32號","121.628213333333","25.01299","6501800","深坑區"
"231069","189-VK","2019/09/26 09:19:48","新北市新店區新潭路三段215巷25號","121.508136666667","24.9041133333333","6500600","新店區"
"231008","192-VK","2019/09/26 09:19:53","新北市新店區平廣路一段86號","121.530368333333","24.8985833333333","6500600","新店區"
"226003","AGD-0702","2019/09/26 09:19:34","新北市平溪區嶺腳里嶺腳寮114號","121.746046666667","25.033215","6502400","平溪區"
"223003","205-TH","2019/09/26 09:19:34","新北市石碇區北宜路五段坑內巷5號","121.634858333333","24.9533283333333","6501900","石碇區"
"223008","406-TH","2019/09/26 09:18:16","新北市石碇區光明路17-2號","121.68542","25.0318666666667","6501900","石碇區"
"223001","592-UM","2019/09/26 09:19:58","新北市石碇區北宜路五段70號","121.639346666667","24.95215","6501900","石碇區"
"223004","660-BX","2019/09/26 09:19:55","新北市石碇區大崙16-5號","121.691355","24.977785","6501900","石碇區"
"223007","661-BX","2019/09/26 09:17:20","新北市石碇區光明路17-2號","121.685521666667","25.0319","6501900","石碇區"
"223005","677-TV","2019/09/26 09:19:45","新北市石碇區華梵路2號","121.691485","24.9770433333333","6501900","石碇區"
"252004","249-BX","2019/09/26 09:19:42","新北市三芝區興華里田心子20-8號","121.494038333333","25.2012866666667","6502100","三芝區"
"252007","AAC-283","2019/09/26 09:19:39","新北市三芝區埔坪里埔頭坑43號","121.504331666667","25.2614666666667","6502100","三芝區"
"237014","760-BX","2019/09/26 09:19:38","新北市三峽區金敏185-2號","121.395356666667","24.871185","6500900","三峽區"
"242040","AAC-296","2019/09/26 09:19:47","新北市新莊區壽山路45號","121.414421666667","25.0311566666667","6500500","新莊區"
"242059","986-R7","2019/09/26 09:19:42","新北市新莊區瓊泰路13號","121.444455","25.0286366666667","6500500","新莊區"
"242003","751-BX","2019/09/26 09:19:51","新北市新莊區頭興街34號","121.464453333333","25.0535516666667","6500500","新莊區"
"242028","615-BX","2019/09/26 09:19:41","新北市新莊區中正路245號","121.450201666667","25.0356766666667","6500500","新莊區"
"242026","613-BX","2019/09/26 09:19:57","新北市新莊區思源路89號","121.459848333333","25.0414666666667","6500500","新莊區"
"242057","612-BX","2019/09/26 09:19:55","新北市新莊區龍安路355號","121.42317","25.01905","6500500","新莊區"
"242047","566-BX","2019/09/26 09:19:42","新北市新莊區龍安路252-5號","121.421113333333","25.0191333333333","6500500","新莊區"
"242052","497-BY","2019/09/26 09:19:55","新北市新莊區西盛街345巷1弄7號","121.428325","25.0146166666667","6500500","新莊區"
"242001","441-UM","2019/09/26 09:19:49","新北市新莊區中正路80號","121.457998333333","25.0375116666667","6500500","新莊區"
"242043","415-TV","2019/09/26 09:19:53","新北市新莊區中正路897-5號","121.412008333333","25.0213883333333","6500500","新莊區"
"242012","413-TV","2019/09/26 09:19:48","新北市新莊區中平路110巷34號","121.446298333333","25.046025","6500500","新莊區"
"242024","362-BY","2019/09/26 09:19:59","新北市新莊區五工三路13號","121.459471666667","25.0644116666667","6500500","新莊區"
"242022","353-BY","2019/09/26 09:19:45","新北市新莊區化成路154號","121.465431666667","25.0451866666667","6500500","新莊區"
"242014","132-UY","2019/09/26 09:19:56","新北市新莊區中港一街141號","121.447971666667","25.04509","6500500","新莊區"
"242038","135-UY","2019/09/26 09:19:57","新北市新莊區民安路298號","121.42816","25.021835","6500500","新莊區"
"242055","172-VK","2019/09/26 09:19:49","新北市新莊區新莊路649巷15弄1號","121.444936666667","25.031495","6500500","新莊區"
"242030","175-VK","2019/09/26 09:19:46","新北市新莊區中正路362號","121.443451666667","25.0342733333333","6500500","新莊區"
"242045","347-TH","2019/09/26 09:19:53","新北市新莊區中正路新生巷33號","121.417093333333","25.0234166666667","6500500","新莊區"
"242035","348-TH","2019/09/26 09:19:45","新北市新莊區建安街40巷22號","121.427438333333","25.025375","6500500","新莊區"
"242008","349-TH","2019/09/26 09:19:36","新北市新莊區碧江街18-3號","121.45526","25.03449","6500500","新莊區"
"242033","350-TH","2019/09/26 09:19:45","新北市新莊區中正路222號","121.448715","25.0357033333333","6500500","新莊區"
"242018","351-TH","2019/09/26 09:19:42","新北市新莊區瓊林路59-87號","121.443303333333","25.0245833333333","6500500","新莊區"
"244018","KED-0667","2019/09/26 09:19:37","新北市林口區忠孝路622巷15號","121.378228333333","25.0671133333333","6501700","林口區"
"233001","KEA-2870","2019/09/26 09:19:52","新北市烏來區大羅蘭37號","121.50079","24.7751266666667","6502900","烏來區"
"242010","280-VK","2019/09/26 09:19:50","新北市新莊區中榮街75-2號","121.445666666667","25.0527216666667","6500500","新莊區"
