"lineid","car","time","location","longitude","latitude","cityid","cityname"
"228005","097-TW","2019/09/26 12:09:53","新北市貢寮區福隆里虎子山街21號","121.939183333333","25.0183566666667","6502600","貢寮區"
"228004","212-TW","2019/09/26 12:09:51","新北市貢寮區貢寮里長泰路14號","121.907511666667","25.0195483333333","6502600","貢寮區"
"243002","549-UM","2019/09/26 11:40:45","新北市泰山區黎明路25號","121.421788333333","25.0607533333333","6501600","泰山區"
"207002","749-BX","2019/09/26 12:09:56","新北市萬里區中幅里大湖路6號","121.660693333333","25.171165","6502800","萬里區"
"220012","806-UM","2019/09/26 12:00:57","新北市板橋區華東街1-10號","121.448755","24.99488","6500100","板橋區"
