"lineid","car","time","location","longitude","latitude","cityid","cityname"
"234015","745-BX","2019/09/26 12:19:44","新北市永和區福和路1號","121.526418333333","25.009775","6500400","永和區"
"228005","097-TW","2019/09/26 12:19:53","新北市貢寮區福連里福連街15號","121.988001666667","25.0140816666667","6502600","貢寮區"
"228004","212-TW","2019/09/26 12:19:51","新北市貢寮區貢寮里長泰路17-2號","121.894466666667","25.020525","6502600","貢寮區"
"207002","749-BX","2019/09/26 12:19:36","新北市萬里區中幅里大湖路6號","121.66081","25.1713616666667","6502800","萬里區"
"220012","806-UM","2019/09/26 12:00:57","新北市板橋區華東街1-10號","121.448755","24.99488","6500100","板橋區"
