"lineid","car","time","location","longitude","latitude","cityid","cityname"
"234044","148-BY","2019/09/26 12:49:45","新北市永和區秀朗路二段126巷16號","121.524686666667","25.0010816666667","6500400","永和區"
"234078","298-R6","2019/09/26 12:49:54","新北市永和區林森路100號","121.522926666667","25.0035016666667","6500400","永和區"
"234036","336-UY","2019/09/26 12:49:47","新北市永和區成功路一段108號","121.526788333333","25.0029633333333","6500400","永和區"
"234062","337-UY","2019/09/26 12:49:38","新北市永和區福和路1號","121.526551666667","25.0100533333333","6500400","永和區"
"234084","338-UY","2019/09/26 12:49:38","新北市永和區中正路49號","121.514553333333","24.99625","6500400","永和區"
"234068","552-UM","2019/09/26 12:49:46","新北市永和區豫溪街145號","121.520741666667","25.0103433333333","6500400","永和區"
"234015","745-BX","2019/09/26 12:49:44","新北市永和區永和路二段299號","121.516106666667","25.0161666666667","6500400","永和區"
"234028","746-BX","2019/09/26 12:49:55","新北市永和區得和路327號","121.523501666667","24.9997233333333","6500400","永和區"
"234052","KEA-2590","2019/09/26 12:49:39","新北市永和區環河東路二段92號","121.524441666667","25.0106116666667","6500400","永和區"
"234005","KED-0605","2019/09/26 12:49:54","新北市永和區文化路159號","121.510371666667","25.0164133333333","6500400","永和區"
"234012","KEA-2591","2019/09/26 12:49:43","新北市永和區仁愛路202巷30號","121.508895","25.0130283333333","6500400","永和區"
"234060","AAD-866","2019/09/26 12:49:39","新北市永和區福和路307號","121.516283333333","25.0071","6500400","永和區"
"234040","862-TW","2019/09/26 12:49:44","新北市永和區永貞路308號","121.511856666667","25.0048633333333","6500400","永和區"
"234048","863-TW","2019/09/26 12:49:57","新北市永和區豫溪街217巷7號","121.525143333333","25.0099216666667","6500400","永和區"
"234025","9371-KE","2019/09/26 12:49:55","新北市永和區永和路一段202號","121.514263333333","25.0091783333333","6500400","永和區"
"234010","9373-KE","2019/09/26 12:49:41","新北市永和區保福路二段158巷1號","121.509121666667","25.01506","6500400","永和區"
"248015","026-BX","2019/09/26 12:49:57","新北市五股區中興路二段37巷28號","121.460255","25.0750433333333","6501500","五股區"
"248005","077-UY","2019/09/26 12:49:40","新北市五股區中興路二段83巷26-6號","121.460091666667","25.075245","6501500","五股區"
"248007","KED-0815","2019/09/26 12:49:54","新北市五股區中興路二段63巷17號","121.46024","25.0753366666667","6501500","五股區"
"248013","261-SL","2019/09/26 12:49:41","新北市五股區中興路二段83巷26-6號","121.459915","25.0750816666667","6501500","五股區"
"234022","9380-KE","2019/09/26 12:49:40","新北市永和區竹林路119巷47號","121.522016666667","25.0119233333333","6500400","永和區"
"234076","969-R7","2019/09/26 12:49:52","新北市中和區安樂路49號","121.51219","24.9935216666667","6500400","永和區"
"234001","AAC-295","2019/09/26 12:49:57","新北市永和區永和路二段35號","121.514345","25.01028","6500400","永和區"
"231005","046-UY","2019/09/26 12:49:53","新北市新店區安華路28-1號","121.519258333333","24.9608183333333","6500600","新店區"
"231029","106-UY","2019/09/26 12:49:41","新北市新店區安華路28-1號","121.519726666667","24.9608","6500600","新店區"
"231036","110-UY","2019/09/26 12:49:52","新北市新店區安華路28-1號","121.519668333333","24.9610233333333","6500600","新店區"
"231031","256-BX","2019/09/26 12:49:46","新北市新店區安一路一段1-1號","121.51987","24.9611166666667","6500600","新店區"
"231003","268-BY","2019/09/26 12:37:17","新北市新店區安一路一段1-1號","121.519745","24.9614266666667","6500600","新店區"
"231035","278-BY","2019/09/26 12:49:51","新北市新店區安一路一段1-1號","121.51973","24.961125","6500600","新店區"
"231017","AAD-862","2019/09/26 12:49:42","新北市新店區安一路一段1-1號","121.51969","24.9611666666667","6500600","新店區"
"231021","512-UM","2019/09/26 12:49:49","新北市新店區安一路一段1-1號","121.51928","24.9613883333333","6500600","新店區"
"231002","619-UM","2019/09/26 12:49:46","新北市新店區安華路28-1號","121.519563333333","24.9610166666667","6500600","新店區"
"231010","719-UM","2019/09/26 12:49:41","新北市新店區安一路一段1-1號","121.51959","24.961255","6500600","新店區"
"231026","720-UM","2019/09/26 12:49:41","新北市新店區安一路一段1-1號","121.519293333333","24.9612633333333","6500600","新店區"
"231028","897-TW","2019/09/26 12:49:49","新北市新店區安華路28-1號","121.51963","24.9608916666667","6500600","新店區"
"235022","151-BY","2019/09/26 12:49:45","新北市中和區員山路36巷16-2號","121.485313333333","24.9916783333333","6500300","中和區"
"235002","185-VK","2019/09/26 12:49:54","新北市中和區中正路637巷52弄1號","121.485548333333","24.993545","6500300","中和區"
"235031","255-BX","2019/09/26 12:49:49","新北市中和區新生街3號","121.483193333333","25.00469","6500300","中和區"
"235028","911-UM","2019/09/26 12:49:45","新北市中和區員山路36巷16-3號","121.48503","24.991325","6500300","中和區"
"235001","AAC-213","2019/09/26 12:49:58","新北市中和區錦和路350-1號","121.490765","24.9936166666667","6500300","中和區"
"228005","097-TW","2019/09/26 12:49:53","新北市貢寮區福連里福連街34-1號","121.988651666667","25.0111666666667","6502600","貢寮區"
"228004","212-TW","2019/09/26 12:49:51","新北市貢寮區吉林里內寮街20-3號","121.889708333333","24.9958883333333","6502600","貢寮區"
"207002","749-BX","2019/09/26 12:49:56","新北市萬里區雙興里二坪路30號","121.64553","25.1685533333333","6502800","萬里區"
"207001","662-BX","2019/09/26 12:49:50","新北市萬里區萬里里瑪鋉路219號","121.69015","25.1795866666667","6502800","萬里區"
"220030","610-BX","2019/09/26 12:49:39","新北市板橋區四川路二段橋頭1巷1號","121.447035","24.994785","6500100","板橋區"
"220034","297-UM","2019/09/26 12:36:21","新北市板橋區華東街1-10號","121.448451666667","24.99516","6500100","板橋區"
"220012","806-UM","2019/09/26 12:31:41","新北市板橋區華東街1-10號","121.448838333333","24.9948683333333","6500100","板橋區"
"235032","KEA-2873","2019/09/26 12:49:31","新北市中和區員山路36巷16-3號","121.485078333333","24.9913416666667","6500300","中和區"
"235025","KEA-2875","2019/09/26 12:28:29","新北市中和區和城路一段271巷1號","121.485338333333","24.99197","6500300","中和區"
