"lineid","car","time","location","longitude","latitude","cityid","cityname"
"234044","148-BY","2019/09/26 13:29:45","新北市永和區秀朗路二段230號","121.526275","24.99954","6500400","永和區"
"234078","298-R6","2019/09/26 13:29:54","新北市永和區福和路5-9號","121.525531666667","25.0083433333333","6500400","永和區"
"234036","336-UY","2019/09/26 13:29:47","新北市永和區民樂街36號","121.527505","25.0008233333333","6500400","永和區"
"234062","337-UY","2019/09/26 13:29:38","新北市永和區中正路368巷1弄88號","121.52055","25.0007433333333","6500400","永和區"
"234084","338-UY","2019/09/26 13:29:49","新北市永和區林森路92號","121.52316","25.0035716666667","6500400","永和區"
"234068","552-UM","2019/09/26 13:29:52","新北市永和區竹林路173號","121.520583333333","25.009925","6500400","永和區"
"234015","745-BX","2019/09/26 13:29:50","新北市永和區永和路二段425巷5號","121.515195","25.017765","6500400","永和區"
"234028","746-BX","2019/09/26 13:29:55","新北市永和區民權路3號","121.520221666667","24.998465","6500400","永和區"
"234052","KEA-2590","2019/09/26 13:29:59","新北市永和區復興街7號","121.515908333333","25.0129983333333","6500400","永和區"
"234005","KED-0605","2019/09/26 13:29:54","新北市永和區中山路一段230號","121.508081666667","25.0079933333333","6500400","永和區"
"234012","KEA-2591","2019/09/26 13:29:43","新北市永和區中山路一段184巷9弄19號","121.508183333333","25.0090616666667","6500400","永和區"
"234060","AAD-866","2019/09/26 13:29:59","新北市永和區中正路570號","121.517198333333","25.0062383333333","6500400","永和區"
"234040","862-TW","2019/09/26 13:29:44","新北市永和區中和路517號","121.51092","25.002745","6500400","永和區"
"234048","863-TW","2019/09/26 13:29:37","新北市永和區信義路77號","121.512413333333","25.0132716666667","6500400","永和區"
"234025","9371-KE","2019/09/26 13:29:55","新北市永和區永和路二段3號","121.514301666667","25.0099583333333","6500400","永和區"
"234010","9373-KE","2019/09/26 13:29:41","新北市永和區仁愛路141巷30弄14號","121.51201","25.0114166666667","6500400","永和區"
"248015","026-BX","2019/09/26 13:29:57","新北市五股區凌雲路一段83巷20號","121.450211666667","25.1006166666667","6501500","五股區"
"248005","077-UY","2019/09/26 13:29:40","新北市五股區中興路一段14號","121.469168333333","25.0723733333333","6501500","五股區"
"248007","KED-0815","2019/09/26 13:29:54","新北市五股區中興路二段78-13號","121.4608","25.0788633333333","6501500","五股區"
"248017","KED-0813","2019/09/26 13:29:44","新北市五股區民義路二段52巷15號","121.411815","25.1125716666667","6501500","五股區"
"248011","247-BX","2019/09/26 13:29:59","新北市五股區御史路27號","121.44199","25.0913933333333","6501500","五股區"
"248013","261-SL","2019/09/26 13:29:41","新北市五股區成泰路一段153號","121.435326666667","25.0738183333333","6501500","五股區"
"248003","677-BX","2019/09/26 13:29:54","新北市五股區六合街19號","121.431123333333","25.0886316666667","6501500","五股區"
"248001","678-BX","2019/09/26 13:29:55","新北市五股區西雲路163號","121.446075","25.0943983333333","6501500","五股區"
"248009","682-TV","2019/09/26 13:29:48","新北市五股區明德路32號","121.432465","25.0716416666667","6501500","五股區"
"234022","9380-KE","2019/09/26 13:29:44","新北市永和區環河東路一段200號","121.521875","25.013735","6500400","永和區"
"234076","969-R7","2019/09/26 13:29:51","新北市永和區民治街82號","121.517446666667","24.998375","6500400","永和區"
"234072","AAC-211","2019/09/26 13:29:55","新北市永和區永和路二段239-1號","121.51571","25.0145933333333","6500400","永和區"
"234066","AAC-212","2019/09/26 13:29:43","新北市永和區保平路113號","121.510973333333","25.0067066666667","6500400","永和區"
"234001","AAC-295","2019/09/26 13:29:57","新北市永和區永和路一段136號","121.514008333333","25.0079133333333","6500400","永和區"
"244003","248-BX","2019/09/26 13:29:44","新北市林口區寶斗厝坑89-2號","121.333506666667","25.1207683333333","6501700","林口區"
"243006","KEA-2801","2019/09/26 13:29:44","新北市泰山區黎明路25號","121.42187","25.0607","6501600","泰山區"
"243008","421-VK","2019/09/26 13:29:53","新北市泰山區犁頭窠3-1號","121.422195","25.06059","6501600","泰山區"
"231030","002-UM","2019/09/26 13:29:50","新北市新店區安華路28-1號","121.519973333333","24.9608433333333","6500600","新店區"
"231024","0291-UT","2019/09/26 13:29:45","新北市新店區北新路二段29巷3弄2號","121.542181666667","24.9730716666667","6500600","新店區"
"231005","046-UY","2019/09/26 13:29:53","新北市新店區光明街179號","121.539636666667","24.962895","6500600","新店區"
"231029","106-UY","2019/09/26 13:29:41","新北市新店區安華路16號","121.517043333333","24.9580866666667","6500600","新店區"
"231018","107-UY","2019/09/26 13:29:39","新北市新店區中央路81號","121.53231","24.9765033333333","6500600","新店區"
"231013","108-UY","2019/09/26 13:29:52","新北市新店區環河路116號","121.536993333333","24.9672733333333","6500600","新店區"
"231036","110-UY","2019/09/26 13:29:52","新北市新店區安祥路158巷21號","121.476056666667","24.9547116666667","6500600","新店區"
"231031","256-BX","2019/09/26 13:29:46","新北市新店區安忠路57巷11弄6號","121.514378333333","24.9575533333333","6500600","新店區"
"231023","260-TV","2019/09/26 13:29:46","新北市新店區安康路一段35-5號","121.531951666667","24.960595","6500600","新店區"
"231003","268-BY","2019/09/26 13:29:43","新北市新店區安康路一段35-5號","121.531858333333","24.960635","6500600","新店區"
"231035","278-BY","2019/09/26 13:29:51","新北市新店區安康路一段355號","121.519846666667","24.9635466666667","6500600","新店區"
"231017","AAD-862","2019/09/26 13:29:42","新北市新店區北宜路一段202號","121.5433","24.95299","6500600","新店區"
"231006","355-BY","2019/09/26 13:29:54","新北市新店區安華路28-1號","121.519121666667","24.9608833333333","6500600","新店區"
"231038","3712-VJ","2019/09/26 13:29:46","新北市新店區安華路28-1號","121.519338333333","24.9606133333333","6500600","新店區"
"231027","3713-VJ","2019/09/26 13:29:41","新北市新店區環河路25號","121.537335","24.9613316666667","6500600","新店區"
"231025","4715-K9","2019/09/26 13:29:50","新北市新店區中央七街61巷6號","121.528545","24.9764283333333","6500600","新店區"
"231021","512-UM","2019/09/26 13:29:49","新北市新店區新烏路一段106號","121.545441666667","24.936565","6500600","新店區"
"231002","619-UM","2019/09/26 13:29:46","新北市新店區安康路一段35號","121.53173","24.960735","6500600","新店區"
"231034","641-BX","2019/09/26 13:29:38","新北市新店區安華路30巷1號","121.51961","24.9598233333333","6500600","新店區"
"231011","KED-0819","2019/09/26 13:29:49","新北市新店區環河路1-1號","121.537956666667","24.9615733333333","6500600","新店區"
"231010","719-UM","2019/09/26 13:29:41","新北市新店區中央路7號","121.53344","24.9785833333333","6500600","新店區"
"231026","720-UM","2019/09/26 13:29:41","新北市新店區安一路一段1-1號","121.519171666667","24.9611533333333","6500600","新店區"
"231028","897-TW","2019/09/26 13:29:49","新北市新店區安華路28-1號","121.519665","24.9607016666667","6500600","新店區"
"231001","898-TW","2019/09/26 13:29:43","新北市新店區安康路一段89號","121.529118333333","24.9614933333333","6500600","新店區"
"231004","899-TW","2019/09/26 13:29:46","新北市新店區安一路一段1-1號","121.51974","24.961655","6500600","新店區"
"231037","AKT-0513","2019/09/26 13:29:40","新北市新店區薏仁坑路33號","121.493811666667","24.96257","6500600","新店區"
"235027","006-UY","2019/09/26 13:29:54","新北市中和區連城路347巷2弄2號","121.488015","24.995865","6500300","中和區"
"235020","096-UM","2019/09/26 13:29:39","新北市中和區新民街101號","121.480273333333","25.0081583333333","6500300","中和區"
"235003","097-UM","2019/09/26 13:29:45","新北市中和區大勇街25巷2號","121.517208333333","24.9934033333333","6500300","中和區"
"235029","098-UM","2019/09/26 13:29:52","新北市中和區莊敬路49巷15弄2號","121.501156666667","25.005755","6500300","中和區"
"235004","150-BY","2019/09/26 13:29:51","新北市中和區安平路55號","121.509405","24.9952683333333","6500300","中和區"
"235022","151-BY","2019/09/26 13:29:45","新北市中和區圓通路369巷72號","121.49016","24.9822233333333","6500300","中和區"
"235019","183-VK","2019/09/26 13:29:40","新北市中和區莒光路120巷17弄1號","121.471726666667","25.0010266666667","6500300","中和區"
"235002","185-VK","2019/09/26 13:29:54","新北市中和區自立路26號","121.522493333333","24.9929133333333","6500300","中和區"
"235031","255-BX","2019/09/26 13:29:49","新北市中和區新生街220巷15弄3號","121.482951666667","24.99818","6500300","中和區"
"235008","293-VK","2019/09/26 13:29:47","新北市中和區復興路321號","121.50091","24.990285","6500300","中和區"
"235036","301-VK","2019/09/26 13:29:52","新北市中和區連城路237-1號","121.493785","24.9973383333333","6500300","中和區"
"235007","352-BY","2019/09/26 13:29:45","新北市中和區景平路239號","121.509623333333","24.9927083333333","6500300","中和區"
"235006","KEA-2878","2019/09/26 13:29:54","新北市中和區景平路64巷26號","121.522431666667","24.9915566666667","6500300","中和區"
"235014","4979-A6","2019/09/26 13:29:49","新北市中和區景新街410巷18弄16號","121.511955","24.9896716666667","6500300","中和區"
"235033","4980-A6","2019/09/26 13:29:44","新北市中和區連城路127巷4弄1號","121.49635","24.9988216666667","6500300","中和區"
"235034","558-UM","2019/09/26 13:29:39","新北市中和區南華路15號","121.502575","24.995635","6500300","中和區"
"235009","565-BX","2019/09/26 13:29:58","新北市中和區復興路1號","121.50638","24.9895983333333","6500300","中和區"
"235024","KED-0823","2019/09/26 13:29:43","新北市中和區中山路三段39-2號","121.477368333333","25.0054116666667","6500300","中和區"
"235018","640-BX","2019/09/26 13:29:44","新北市中和區莒光路141號","121.47259","25.001465","6500300","中和區"
"235011","732-UM","2019/09/26 13:29:56","新北市中和區南山路493號","121.507933333333","24.9878783333333","6500300","中和區"
"235010","733-UM","2019/09/26 13:29:48","新北市中和區興南路一段86號","121.50989","24.9893733333333","6500300","中和區"
"235035","783-BX","2019/09/26 13:29:57","新北市中和區光環路二段21號","121.483891666667","25.01377","6500300","中和區"
"235021","801-TS","2019/09/26 13:29:50","新北市中和區員山路327巷21號","121.480543333333","25.0016833333333","6500300","中和區"
"235005","802-TS","2019/09/26 13:29:53","新北市中和區中和路322號","121.50979","25.000835","6500300","中和區"
"235016","805-TS","2019/09/26 13:29:50","新北市中和區興南路二段96號","121.504888333333","24.98394","6500300","中和區"
"235012","896-TW","2019/09/26 13:29:48","新北市中和區中正路589巷15號","121.48564","24.9935166666667","6500300","中和區"
"235017","900-TW","2019/09/26 13:29:51","新北市中和區連城路607號","121.478278333333","24.993045","6500300","中和區"
"235028","911-UM","2019/09/26 13:29:45","新北市中和區連城路110號","121.49628","24.9996266666667","6500300","中和區"
"235015","157-BY","2019/09/26 13:29:52","新北市中和區興南路二段114巷10弄1號","121.503963333333","24.9850333333333","6500300","中和區"
"235001","AAC-213","2019/09/26 13:29:58","新北市中和區景德街3號","121.519013333333","24.991145","6500300","中和區"
"235023","AAC-215","2019/09/26 13:29:53","新北市中和區員山路36巷16-3號","121.485163333333","24.99122","6500300","中和區"
"220013","072-UY","2019/09/26 13:29:35","新北市板橋區南雅南路二段100號","121.453563333333","25.0012133333333","6500100","板橋區"
"220034","073-UY","2019/09/26 13:29:48","新北市板橋區華東街1-10號","121.448241666667","24.9950533333333","6500100","板橋區"
"220017","AAD-861","2019/09/26 13:29:52","新北市板橋區板城路407號","121.447475","24.9952083333333","6500100","板橋區"
"247011","337-TH","2019/09/26 13:29:42","新北市五股區中興路三段2巷10號","121.449296666667","25.0810833333333","6501400","蘆洲區"
"247013","056-VK","2019/09/26 13:29:57","新北市五股區中興路三段163號","121.449083333333","25.0809616666667","6501400","蘆洲區"
"235013","251-BX","2019/09/26 13:29:48","新北市中和區景安路84號","121.505658333333","24.99614","6500300","中和區"
"228005","097-TW","2019/09/26 13:29:53","新北市貢寮區美豐里文秀坑8號","121.902535","25.0504583333333","6502600","貢寮區"
"228004","212-TW","2019/09/26 13:29:51","新北市貢寮區龍崗里石壁坑街17-3號","121.910231666667","24.989415","6502600","貢寮區"
"253003","6232-TK","2019/09/26 13:29:48","新北市石門區內石門83-2號","121.570055","25.2629516666667","6502200","石門區"
"253004","6251-TK","2019/09/26 13:29:55","新北市石門區竹子湖13號","121.616733333333","25.25616","6502200","石門區"
"253002","637-UY","2019/09/26 13:29:51","新北市石門區九芎林5-3號","121.560721666667","25.26857","6502200","石門區"
"253001","KEC-0718","2019/09/26 13:29:40","新北市石門區白沙灣別墅31號","121.510806666667","25.2778216666667","6502200","石門區"
"243002","549-UM","2019/09/26 13:29:52","新北市泰山區公園路46號","121.428733333333","25.0544566666667","6501600","泰山區"
"207002","749-BX","2019/09/26 13:29:56","新北市萬里區崁腳里崁腳路166號","121.645061666667","25.1558383333333","6502800","萬里區"
"252005","073-UM","2019/09/26 13:29:47","新北市三芝區圓山里八連溪頭5號","121.526178333333","25.2219566666667","6502100","三芝區"
"207001","662-BX","2019/09/26 13:29:50","新北市萬里區龜吼里亭路4號","121.683231666667","25.1899966666667","6502800","萬里區"
"220027","145-BY","2019/09/26 13:29:53","新北市板橋區華東街1-10號","121.448318333333","24.995095","6500100","板橋區"
"220028","200-UY","2019/09/26 13:29:53","新北市板橋區華東街1-9號","121.44818","24.9948883333333","6500100","板橋區"
"220030","610-BX","2019/09/26 13:29:59","新北市板橋區華東街1-9號","121.448228333333","24.994885","6500100","板橋區"
"220020","277-BY","2019/09/26 13:29:49","新北市板橋區華東街1-10號","121.448293333333","24.995095","6500100","板橋區"
"220019","283-VK","2019/09/26 13:29:53","新北市板橋區華東街1-9號","121.448053333333","24.994885","6500100","板橋區"
"220043","285-UM","2019/09/26 13:29:42","新北市板橋區民生路二段161巷1號","121.470101666667","25.019915","6500100","板橋區"
"220031","286-VK","2019/09/26 13:29:45","新北市板橋區華東街1-10號","121.448345","24.9950783333333","6500100","板橋區"
"220029","287-VK","2019/09/26 13:29:55","新北市板橋區華東街1-10號","121.448251666667","24.9950166666667","6500100","板橋區"
"220001","299-UM","2019/09/26 13:29:41","新北市板橋區民生路二段161巷3號","121.470221666667","25.0198466666667","6500100","板橋區"
"220023","303-R5","2019/09/26 13:29:40","新北市板橋區華東街1-9號","121.448173333333","24.995","6500100","板橋區"
"220104","560-BX","2019/09/26 13:29:43","新北市板橋區南雅南路二段1-1號","121.45475","25.0038883333333","6500100","板橋區"
"220005","686-BX","2019/09/26 13:29:58","新北市板橋區南雅南路二段144巷60號","121.450221666667","24.99734","6500100","板橋區"
"220025","687-BX","2019/09/26 13:29:47","新北市板橋區大觀路二段265巷7-7號","121.4438","24.9946333333333","6500100","板橋區"
"220012","806-UM","2019/09/26 13:28:33","新北市板橋區華東街1-10號","121.448723333333","24.9947966666667","6500100","板橋區"
"220003","827-TW","2019/09/26 13:29:41","新北市板橋區華東街1-9號","121.44821","24.9949183333333","6500100","板橋區"
"220022","895-R6","2019/09/26 13:29:56","新北市板橋區南雅南路二段146號","121.451606666667","24.9961483333333","6500100","板橋區"
"220021","985-R7","2019/09/26 13:29:49","新北市板橋區四川路二段134號","121.450296666667","24.9934366666667","6500100","板橋區"
"220012","AAC-253","2019/09/26 13:29:44","新北市板橋區南雅南路二段116號","121.452445","25.0003433333333","6500100","板橋區"
"235032","KEA-2873","2019/09/26 13:29:44","新北市中和區中正路211巷13弄10號","121.49725","24.9931816666667","6500300","中和區"
"235025","KEA-2875","2019/09/26 13:29:55","新北市中和區民享街114巷13號","121.47397","24.9993833333333","6500300","中和區"
"235026","KEA-2876","2019/09/26 13:29:48","新北市中和區景平路677巷5-1號","121.496226666667","25.00266","6500300","中和區"
