"lineid","car","time","location","longitude","latitude","cityid","cityname"
"234044","148-BY","2019/09/26 13:39:44","新北市永和區永元路105號","121.522496666667","25.0023833333333","6500400","永和區"
"234078","298-R6","2019/09/26 13:39:54","新北市永和區林森路20巷7號","121.52588","25.0057166666667","6500400","永和區"
"234036","336-UY","2019/09/26 13:39:47","新北市永和區民樂街31巷6弄1號","121.527931666667","25.0015016666667","6500400","永和區"
"234062","337-UY","2019/09/26 13:39:38","新北市永和區秀朗路一段192巷6弄14號","121.519065","25.0022866666667","6500400","永和區"
"234084","338-UY","2019/09/26 13:39:38","新北市永和區永亨路165巷1-6號","121.525993333333","25.0039766666667","6500400","永和區"
"234068","552-UM","2019/09/26 13:39:46","新北市永和區永和路二段233號","121.515563333333","25.014215","6500400","永和區"
"234015","745-BX","2019/09/26 13:39:51","新北市永和區忠孝街26巷27弄1號","121.515243333333","25.0169066666667","6500400","永和區"
"234028","746-BX","2019/09/26 13:39:55","新北市永和區四維街103巷4號","121.52379","24.9978366666667","6500400","永和區"
"234052","KEA-2590","2019/09/26 13:39:59","新北市永和區竹林路39巷15號","121.518565","25.0146483333333","6500400","永和區"
"234005","KED-0605","2019/09/26 13:39:54","新北市永和區中山路一段27號","121.513436666667","25.0104333333333","6500400","永和區"
"234012","KEA-2591","2019/09/26 13:39:43","新北市永和區永平路258號","121.508216666667","25.0113033333333","6500400","永和區"
"234060","AAD-866","2019/09/26 13:39:48","新北市永和區永貞路131號","121.516756666667","25.00431","6500400","永和區"
"234040","862-TW","2019/09/26 13:39:44","新北市永和區中和路523號","121.511161666667","25.0027716666667","6500400","永和區"
"234048","863-TW","2019/09/26 13:39:37","新北市永和區保安路84號","121.509761666667","25.0161966666667","6500400","永和區"
"234010","9373-KE","2019/09/26 13:39:58","新北市永和區保福路二段118號","121.509926666667","25.0138983333333","6500400","永和區"
"248015","026-BX","2019/09/26 13:39:57","新北市五股區凌雲路一段149巷5-1號","121.448905","25.1017416666667","6501500","五股區"
"248005","077-UY","2019/09/26 13:39:40","新北市五股區四維路114號","121.467678333333","25.0740616666667","6501500","五股區"
"248007","KED-0815","2019/09/26 13:39:54","新北市五股區中興路一段140巷4號","121.465046666667","25.0741866666667","6501500","五股區"
"248017","KED-0813","2019/09/26 13:39:44","新北市五股區民義路二段84號","121.405951666667","25.1089816666667","6501500","五股區"
"248011","247-BX","2019/09/26 13:39:52","新北市五股區成泰路三段2巷1-10號","121.441323333333","25.086925","6501500","五股區"
"248013","261-SL","2019/09/26 13:39:41","新北市五股區民義路一段107巷32號","121.432243333333","25.0848083333333","6501500","五股區"
"248003","677-BX","2019/09/26 13:39:54","新北市五股區民義路一段310-1號","121.424485","25.0938","6501500","五股區"
"248001","678-BX","2019/09/26 13:39:56","新北市五股區西雲路243號","121.449106666667","25.097725","6501500","五股區"
"248009","682-TV","2019/09/26 13:39:44","新北市五股區水碓一路61號","121.431585","25.07246","6501500","五股區"
"234022","9380-KE","2019/09/26 13:39:38","新北市永和區中正路702巷19號","121.516405","25.010605","6500400","永和區"
"234076","969-R7","2019/09/26 13:39:51","新北市永和區民權路28號","121.5202","24.99914","6500400","永和區"
"234072","AAC-211","2019/09/26 13:39:55","新北市永和區竹林路213巷44號","121.523286666667","25.0091416666667","6500400","永和區"
"234066","AAC-212","2019/09/26 13:39:51","新北市永和區中山路一段191巷9弄1號","121.509668333333","25.0081083333333","6500400","永和區"
"234001","AAC-295","2019/09/26 13:39:37","新北市永和區秀朗路一段7號","121.51387","25.0075533333333","6500400","永和區"
"244003","248-BX","2019/09/26 13:39:44","新北市林口區瑞平里8鄰56號","121.343878333333","25.12131","6501700","林口區"
"243006","KEA-2801","2019/09/26 13:39:44","新北市泰山區黎明路25號","121.421935","25.06069","6501600","泰山區"
"243008","421-VK","2019/09/26 13:39:53","新北市泰山區泰林路二段536號","121.423645","25.0638316666667","6501600","泰山區"
"243007","680-BX","2019/09/26 13:39:44","新北市泰山區黎明路25號","121.422276666667","25.0607016666667","6501600","泰山區"
"231030","002-UM","2019/09/26 13:39:50","新北市新店區安康路一段230-3號","121.522405","24.9637366666667","6500600","新店區"
"231024","0291-UT","2019/09/26 13:39:44","新北市新店區華興街38巷6號","121.537195","24.9693633333333","6500600","新店區"
"231005","046-UY","2019/09/26 13:39:53","新北市新店區寶中路49-1號","121.546511666667","24.9799416666667","6500600","新店區"
"231029","106-UY","2019/09/26 13:39:41","新北市新店區安康路二段280號","121.50826","24.9586633333333","6500600","新店區"
"231018","107-UY","2019/09/26 13:39:59","新北市新店區百忍街22號","121.534313333333","24.9757033333333","6500600","新店區"
"231013","108-UY","2019/09/26 13:39:52","新北市新店區中正路454-5號","121.534421666667","24.9790516666667","6500600","新店區"
"231036","110-UY","2019/09/26 13:39:52","新北市新店區安祥路147巷68號","121.47596","24.956005","6500600","新店區"
"231031","256-BX","2019/09/26 13:37:46","新北市新店區莒光路44巷21弄10號","121.520475","24.9551383333333","6500600","新店區"
"231023","260-TV","2019/09/26 13:39:46","新北市新店區新店路78號","121.537301666667","24.953945","6500600","新店區"
"231003","268-BY","2019/09/26 13:39:43","新北市新店區中興路一段280號","121.545486666667","24.9684733333333","6500600","新店區"
"231035","278-BY","2019/09/26 13:39:51","新北市新店區安忠路86-7號","121.511691666667","24.958285","6500600","新店區"
"231017","AAD-862","2019/09/26 13:39:42","新北市新店區竹林路2巷31號","121.550383333333","24.950235","6500600","新店區"
"231006","355-BY","2019/09/26 13:39:54","新北市新店區北新路一段43號","121.538013333333","24.95941","6500600","新店區"
"231038","3712-VJ","2019/09/26 13:39:46","新北市新店區安華路30巷1號","121.519531666667","24.9592466666667","6500600","新店區"
"231027","3713-VJ","2019/09/26 13:39:41","新北市新店區環河路19巷24號","121.537486666667","24.9601283333333","6500600","新店區"
"231025","4715-K9","2019/09/26 13:39:50","新北市新店區中央五街28號","121.528986666667","24.97469","6500600","新店區"
"231021","512-UM","2019/09/26 13:39:49","新北市新店區永興路88-1號","121.544025","24.9337366666667","6500600","新店區"
"231002","619-UM","2019/09/26 13:39:46","新北市新店區中央三街127號","121.524066666667","24.9769033333333","6500600","新店區"
"231034","641-BX","2019/09/26 13:39:58","新北市新店區達觀路8巷5號","121.504218333333","24.9447966666667","6500600","新店區"
"231011","KED-0819","2019/09/26 13:39:49","新北市新店區德正街21巷2號","121.543941666667","24.972135","6500600","新店區"
"231010","719-UM","2019/09/26 13:39:21","新北市新店區中正路307巷16號","121.53632","24.974385","6500600","新店區"
"231026","720-UM","2019/09/26 13:39:41","新北市新店區北宜路一段41號","121.538236666667","24.9571866666667","6500600","新店區"
"231028","897-TW","2019/09/26 13:39:49","新北市新店區安和路一段45號","121.517471666667","24.9657333333333","6500600","新店區"
"231001","898-TW","2019/09/26 13:39:43","新北市新店區中央路57號","121.532755","24.9774083333333","6500600","新店區"
"231004","899-TW","2019/09/26 13:39:46","新北市新店區北新路二段1號","121.542735","24.9712966666667","6500600","新店區"
"231037","AKT-0513","2019/09/26 13:39:40","新北市新店區安康路二段317號","121.49933","24.956705","6500600","新店區"
"235030","003-UY","2019/09/26 13:39:39","新北市中和區水源路35號","121.504341666667","25.0035833333333","6500300","中和區"
"235027","006-UY","2019/09/26 13:39:54","新北市中和區連城路401號","121.486193333333","24.9961633333333","6500300","中和區"
"235020","096-UM","2019/09/26 13:39:49","新北市中和區新民街92號","121.48122","25.0082783333333","6500300","中和區"
"235003","097-UM","2019/09/26 13:39:53","新北市中和區景平路278巷14弄1號","121.513865","24.9930566666667","6500300","中和區"
"235029","098-UM","2019/09/26 13:39:43","新北市中和區中山路二段2巷81弄1號","121.501108333333","25.0075733333333","6500300","中和區"
"235004","150-BY","2019/09/26 13:39:51","新北市中和區保健路50巷66號","121.509386666667","24.995155","6500300","中和區"
"235022","151-BY","2019/09/26 13:39:45","新北市中和區員山路66-3號","121.482236666667","24.9913333333333","6500300","中和區"
"235019","183-VK","2019/09/26 13:39:40","新北市中和區德光路77巷1號","121.469526666667","25.0034316666667","6500300","中和區"
"235002","185-VK","2019/09/26 13:39:54","新北市中和區立人街14巷52號","121.518416666667","24.9957133333333","6500300","中和區"
"235031","255-BX","2019/09/26 13:39:48","新北市中和區新生街242巷1弄9號","121.483378333333","24.9974616666667","6500300","中和區"
"235008","293-VK","2019/09/26 13:39:47","新北市中和區復興路280巷1弄2號","121.50225","24.990715","6500300","中和區"
"235036","301-VK","2019/09/26 13:39:53","新北市中和區連城路87號","121.49689","25.0004116666667","6500300","中和區"
"235007","352-BY","2019/09/26 13:39:45","新北市中和區景平路65號","121.519993333333","24.99112","6500300","中和區"
"235006","KEA-2878","2019/09/26 13:39:54","新北市中和區成功路43號","121.526271666667","24.993135","6500300","中和區"
"235014","4979-A6","2019/09/26 13:39:49","新北市中和區景新街496巷28弄45號","121.512611666667","24.9859233333333","6500300","中和區"
"235033","4980-A6","2019/09/26 13:39:44","新北市中和區連城路65巷12號","121.498035","25.000665","6500300","中和區"
"235034","558-UM","2019/09/26 13:39:59","新北市中和區南山路41號","121.502135","24.998595","6500300","中和區"
"235009","565-BX","2019/09/26 13:39:58","新北市中和區復興路65號","121.504015","24.9900966666667","6500300","中和區"
"235024","KED-0823","2019/09/26 13:39:43","新北市中和區民治街6巷1號","121.474898333333","25.0054116666667","6500300","中和區"
"235018","640-BX","2019/09/26 13:39:43","新北市中和區民享街67號","121.474175","25.0022133333333","6500300","中和區"
"235011","732-UM","2019/09/26 13:39:56","新北市中和區興南路二段36號","121.506908333333","24.9852833333333","6500300","中和區"
"235010","733-UM","2019/09/26 13:39:48","新北市中和區忠孝街101巷7號","121.511541666667","24.9860333333333","6500300","中和區"
"235035","783-BX","2019/09/26 13:39:57","新北市中和區永和路356巷51號","121.487198333333","25.01421","6500300","中和區"
"235021","801-TS","2019/09/26 13:39:50","新北市中和區民安街25巷4號","121.48056","25.0001833333333","6500300","中和區"
"235005","802-TS","2019/09/26 13:39:53","新北市中和區中和路458巷8號","121.512351666667","25.0036166666667","6500300","中和區"
"235016","805-TS","2019/09/26 13:39:50","新北市中和區興南路三段52巷1號","121.493533333333","24.9761316666667","6500300","中和區"
"235012","896-TW","2019/09/26 13:39:48","新北市中和區中正路83號","121.500686666667","24.9933833333333","6500300","中和區"
"235017","900-TW","2019/09/26 13:39:51","新北市中和區華福街49號","121.466503333333","24.9966816666667","6500300","中和區"
"235028","911-UM","2019/09/26 13:39:45","新北市中和區泰和街34號","121.499381666667","25.0002733333333","6500300","中和區"
"235015","157-BY","2019/09/26 13:39:52","新北市中和區華新街143巷45弄16號","121.507615","24.9807016666667","6500300","中和區"
"235001","AAC-213","2019/09/26 13:39:58","新北市中和區秀朗路三段128巷11號","121.52444","24.9933183333333","6500300","中和區"
"235023","AAC-215","2019/09/26 13:39:53","新北市中和區錦和路350-1號","121.490546666667","24.9935233333333","6500300","中和區"
"220013","072-UY","2019/09/26 13:39:55","新北市板橋區實踐路63號","121.463825","25.0063566666667","6500100","板橋區"
"220034","073-UY","2019/09/26 13:39:48","新北市板橋區南雅南路二段120號","121.45228","24.9996033333333","6500100","板橋區"
"220017","AAD-861","2019/09/26 13:39:52","新北市板橋區大華街11號","121.458958333333","25.0061683333333","6500100","板橋區"
"247011","337-TH","2019/09/26 13:39:42","新北市五股區新城三路45號","121.44894","25.09285","6501400","蘆洲區"
"247013","056-VK","2019/09/26 13:39:57","新北市五股區成泰路三段544-1號","121.454695","25.1014383333333","6501400","蘆洲區"
"247001","001-UY","2019/09/26 13:39:44","新北市五股區中興路三段163號","121.449135","25.08078","6501400","蘆洲區"
"235013","251-BX","2019/09/26 13:39:48","新北市中和區景安路132巷36-1號","121.503923333333","24.9945316666667","6500300","中和區"
"228005","097-TW","2019/09/26 13:39:53","新北市貢寮區美豐里文秀坑3號","121.904036666667","25.05247","6502600","貢寮區"
"228004","212-TW","2019/09/26 13:39:31","新北市貢寮區龍崗里嵩陽街41-2號","121.90744","25.0059533333333","6502600","貢寮區"
"253003","6232-TK","2019/09/26 13:39:48","新北市石門區內石門18-3號","121.572428333333","25.27437","6502200","石門區"
"253004","6251-TK","2019/09/26 13:39:35","新北市石門區阿里荖63號","121.607781666667","25.2676483333333","6502200","石門區"
"253002","637-UY","2019/09/26 13:39:51","新北市石門區九芎林33-1號","121.565768333333","25.2574966666667","6502200","石門區"
"253001","KEC-0718","2019/09/26 13:39:40","新北市石門區金華新城6號","121.514598333333","25.276175","6502200","石門區"
"243002","549-UM","2019/09/26 13:39:52","新北市泰山區辭修路48號","121.428513333333","25.0572133333333","6501600","泰山區"
"207002","749-BX","2019/09/26 13:39:56","新北市萬里區崁腳里崁腳路166號","121.645071666667","25.15582","6502800","萬里區"
"252005","073-UM","2019/09/26 13:39:47","新北市三芝區圓山里內柑宅19號","121.537648333333","25.2162033333333","6502100","三芝區"
"207001","662-BX","2019/09/26 13:39:50","新北市萬里區大鵬里萬里加投45-1號","121.641865","25.2110566666667","6502800","萬里區"
"236029","253-BX","2019/09/26 13:39:47","新北市土城區城林路6巷80號","121.438478333333","24.9797933333333","6501300","土城區"
"236024","269-VK","2019/09/26 13:39:42","新北市土城區城林路6巷80號","121.438618333333","24.9797733333333","6501300","土城區"
"236032","271-VK","2019/09/26 13:39:41","新北市土城區城林路6巷80號","121.438455","24.979785","6501300","土城區"
"236068","KEA-2877","2019/09/26 13:39:54","新北市土城區城林路6巷80號","121.438666666667","24.9800116666667","6501300","土城區"
"236017","401-BY","2019/09/26 13:39:56","新北市土城區城林路6巷80號","121.438435","24.9798266666667","6501300","土城區"
"220027","145-BY","2019/09/26 13:39:53","新北市板橋區館前西路162號","121.45282","25.0086133333333","6500100","板橋區"
"220028","200-UY","2019/09/26 13:39:53","新北市板橋區大觀路2段435-7號","121.447311666667","24.9959183333333","6500100","板橋區"
"220030","610-BX","2019/09/26 13:39:39","新北市板橋區大觀路二段265巷7-7號","121.44428","24.9945266666667","6500100","板橋區"
"220004","276-BY","2019/09/26 13:39:40","新北市板橋區南雅南路二段78號","121.453681666667","25.00173","6500100","板橋區"
"220020","277-BY","2019/09/26 13:39:49","新北市板橋區大觀路二段265巷17號","121.444458333333","24.9945266666667","6500100","板橋區"
"220050","280-UM","2019/09/26 13:39:42","新北市板橋區民生路二段161巷5號","121.470003333333","25.0196333333333","6500100","板橋區"
"220019","283-VK","2019/09/26 13:39:53","新北市板橋區四川路二段14號","121.455978333333","24.996185","6500100","板橋區"
"220043","285-UM","2019/09/26 13:39:42","新北市板橋區民生路二段161巷1號","121.470088333333","25.019915","6500100","板橋區"
"220031","286-VK","2019/09/26 13:39:45","新北市板橋區大觀路二段153巷46弄7號","121.448861666667","24.9985683333333","6500100","板橋區"
"220029","287-VK","2019/09/26 13:39:55","新北市板橋區大觀路二段266號","121.448886666667","24.997275","6500100","板橋區"
"220039","288-VK","2019/09/26 13:39:47","新北市板橋區民生路二段161巷1號","121.469983333333","25.0200816666667","6500100","板橋區"
"220009","293-UM","2019/09/26 13:39:43","新北市板橋區民生路二段161巷7號","121.470185","25.0196616666667","6500100","板橋區"
"220032","296-UM","2019/09/26 13:39:57","新北市板橋區大觀路二段142號","121.442733333333","24.9990883333333","6500100","板橋區"
"220001","299-UM","2019/09/26 13:39:41","新北市板橋區民生路二段161巷9號","121.470295","25.0195983333333","6500100","板橋區"
"220023","303-R5","2019/09/26 13:39:40","新北市板橋區南雅南路二段144巷60號","121.450258333333","24.9974083333333","6500100","板橋區"
"220041","307-R5","2019/09/26 13:39:53","新北市板橋區民生路二段89-4號","121.471373333333","25.0186933333333","6500100","板橋區"
"220037","491-VK","2019/09/26 13:39:52","新北市板橋區民生路二段188號","121.470155","25.0202683333333","6500100","板橋區"
"220104","560-BX","2019/09/26 13:39:43","新北市板橋區南雅西路二段145巷10號","121.451565","25.01188","6500100","板橋區"
"220052","561-BX","2019/09/26 13:39:58","新北市板橋區民生路二段74號","121.471778333333","25.0180566666667","6500100","板橋區"
"220011","609-BX","2019/09/26 13:39:49","新北市板橋區民生路二段120號","121.470481666667","25.01948","6500100","板橋區"
"220005","686-BX","2019/09/26 13:39:58","新北市板橋區館前東路15號","121.460078333333","25.0072066666667","6500100","板橋區"
"220025","687-BX","2019/09/26 13:39:47","新北市板橋區溪崑一街11-3號","121.430881666667","24.9923816666667","6500100","板橋區"
"220042","689-BX","2019/09/26 13:39:43","新北市板橋區民生路二段161巷1號","121.47019","25.0200483333333","6500100","板橋區"
"220012","806-UM","2019/09/26 13:28:33","新北市板橋區華東街1-10號","121.448723333333","24.9947966666667","6500100","板橋區"
"220003","827-TW","2019/09/26 13:39:41","新北市板橋區忠孝路40號","121.460431666667","25.001845","6500100","板橋區"
"220016","830-TW","2019/09/26 13:38:26","新北市板橋區三民路一段120號","121.479186666667","25.0207616666667","6500100","板橋區"
"220022","895-R6","2019/09/26 13:39:56","新北市板橋區南雅東路1號","121.455431666667","25.0057616666667","6500100","板橋區"
"220021","985-R7","2019/09/26 13:39:49","新北市板橋區南雅南路二段116號","121.454295","24.99997","6500100","板橋區"
"220012","AAC-253","2019/09/26 13:39:44","新北市板橋區縣民大道二段200巷35號","121.470795","25.0181833333333","6500100","板橋區"
"235032","KEA-2873","2019/09/26 13:39:31","新北市中和區圓通路208號","121.496063333333","24.99401","6500300","中和區"
"235025","KEA-2875","2019/09/26 13:39:55","新北市中和區民治街128巷11號","121.474671666667","25.002825","6500300","中和區"
"235026","KEA-2876","2019/09/26 13:39:48","新北市中和區景平路703巷6號","121.49595","25.0034833333333","6500300","中和區"
