"lineid","car","time","location","longitude","latitude","cityid","cityname"
"234044","148-BY","2019/09/26 14:09:45","新北市永和區得和路382-1號","121.524865","24.9992466666667","6500400","永和區"
"234078","298-R6","2019/09/26 14:09:54","新北市永和區國中路12號","121.524356666667","25.00501","6500400","永和區"
"234036","336-UY","2019/09/26 14:09:47","新北市永和區成功路一段60號","121.526845","25.00389","6500400","永和區"
"234062","337-UY","2019/09/26 14:09:38","新北市永和區永利路156號","121.522533333333","25.0026166666667","6500400","永和區"
"234084","338-UY","2019/09/26 14:09:38","新北市永和區中正路618號","121.517008333333","25.007695","6500400","永和區"
"234068","552-UM","2019/09/26 14:09:46","新北市永和區福和路183巷1號","121.52002","25.007295","6500400","永和區"
"234015","745-BX","2019/09/26 14:09:55","新北市永和區仁愛路60-1號","121.513495","25.0133783333333","6500400","永和區"
"234028","746-BX","2019/09/26 14:09:55","新北市永和區民權路84號","121.51976","24.99705","6500400","永和區"
"234052","KEA-2590","2019/09/26 14:09:39","新北市永和區博愛街45巷1號","121.519141666667","25.0158333333333","6500400","永和區"
"234005","KED-0605","2019/09/26 14:09:54","新北市永和區中和路381號","121.508596666667","24.9998916666667","6500400","永和區"
"234012","KEA-2591","2019/09/26 14:09:43","新北市永和區永貞路387號","121.508116666667","25.0087183333333","6500400","永和區"
"234060","AAD-866","2019/09/26 14:09:52","新北市永和區安樂路100巷2號","121.514515","24.9991133333333","6500400","永和區"
"234040","862-TW","2019/09/26 14:09:47","新北市永和區雙和街52巷2號","121.508896666667","25.0031466666667","6500400","永和區"
"234048","863-TW","2019/09/26 14:09:58","新北市永和區環河西路二段25號","121.507565","25.01577","6500400","永和區"
"234025","9371-KE","2019/09/26 14:09:55","新北市永和區安樂路272巷9弄9號","121.515121666667","25.00468","6500400","永和區"
"248015","026-BX","2019/09/26 14:09:57","新北市五股區成泰路三段543巷50號","121.450136666667","25.10272","6501500","五股區"
"248007","KED-0815","2019/09/26 14:09:54","新北市五股區中興路一段118巷6弄36號","121.466386666667","25.0752366666667","6501500","五股區"
"248017","KED-0813","2019/09/26 14:09:44","新北市五股區民義路一段255-6號","121.426105","25.09143","6501500","五股區"
"248011","247-BX","2019/09/26 14:09:39","新北市五股區工商路38號","121.439395","25.0838016666667","6501500","五股區"
"248003","677-BX","2019/09/26 14:09:54","新北市五股區五福路8號","121.434328333333","25.0884583333333","6501500","五股區"
"248001","678-BX","2019/09/26 14:09:55","新北市五股區成泰路三段577巷49號","121.450663333333","25.103185","6501500","五股區"
"248009","682-TV","2019/09/26 14:09:42","新北市五股區自強路90巷72號","121.430711666667","25.0713133333333","6501500","五股區"
"234022","9380-KE","2019/09/26 14:09:58","新北市永和區博愛街32巷17-1號","121.518871666667","25.0152133333333","6500400","永和區"
"234076","969-R7","2019/09/26 14:09:51","新北市永和區民有街75巷10弄47號","121.519421666667","24.9960233333333","6500400","永和區"
"234072","AAC-211","2019/09/26 14:09:35","新北市永和區竹林路201巷22弄1號","121.521971666667","25.0094083333333","6500400","永和區"
"234066","AAC-212","2019/09/26 14:09:43","新北市永和區保平路214巷1弄11號","121.509148333333","25.0056983333333","6500400","永和區"
"234001","AAC-295","2019/09/26 14:09:37","新北市永和區中正路666巷4號","121.516956666667","25.0089483333333","6500400","永和區"
"244003","248-BX","2019/09/26 14:09:44","新北市八里區中山路三段382號","121.368593333333","25.136105","6501700","林口區"
"243004","AAD-798","2019/09/26 14:09:45","新北市泰山區辭修路10-11號","121.42963","25.058055","6501600","泰山區"
"243006","KEA-2801","2019/09/26 14:09:44","新北市泰山區泰林路二段444號","121.426351666667","25.0642483333333","6501600","泰山區"
"243008","421-VK","2019/09/26 14:09:53","新北市泰山區明志路三段12號","121.424771666667","25.0432616666667","6501600","泰山區"
"243001","KEA-2215","2019/09/26 14:09:45","新北市泰山區楓樹街15巷13號","121.434685","25.06302","6501600","泰山區"
"243003","KEA-2216","2019/09/26 14:09:52","新北市泰山區明志路二段325號","121.425996666667","25.0451966666667","6501600","泰山區"
"243005","646-TV","2019/09/26 14:09:50","新北市泰山區明志路三段247號","121.423358333333","25.03755","6501600","泰山區"
"243007","680-BX","2019/09/26 14:09:45","新北市泰山區明志路一段435號","121.430865","25.05646","6501600","泰山區"
"231030","002-UM","2019/09/26 14:09:50","新北市新店區安興路7-1號","121.515053333333","24.9686083333333","6500600","新店區"
"231024","0291-UT","2019/09/26 14:09:45","新北市新店區安和路三段4巷1-3號","121.51836","24.9807133333333","6500600","新店區"
"231005","046-UY","2019/09/26 14:09:53","新北市新店區中興路三段327號","121.541935","24.9863133333333","6500600","新店區"
"231029","106-UY","2019/09/26 14:09:41","新北市新店區安康路二段115-1號","121.512561666667","24.9616383333333","6500600","新店區"
"231018","107-UY","2019/09/26 14:09:39","新北市新店區中央五街44號","121.5282","24.9751383333333","6500600","新店區"
"231013","108-UY","2019/09/26 14:09:52","新北市新店區北新路三段65巷34弄18號","121.540068333333","24.981545","6500600","新店區"
"231036","110-UY","2019/09/26 14:09:52","新北市新店區安祥路109巷6弄31號","121.475531666667","24.9577683333333","6500600","新店區"
"231031","256-BX","2019/09/26 14:09:46","新北市新店區永業路6號","121.533946666667","24.9561933333333","6500600","新店區"
"231023","260-TV","2019/09/26 14:09:46","新北市新店區文中路45號","121.539683333333","24.9566533333333","6500600","新店區"
"231003","268-BY","2019/09/26 14:09:43","新北市新店區光明街22號","121.538328333333","24.95864","6500600","新店區"
"231035","278-BY","2019/09/26 14:09:51","新北市新店區安和路二段115號","121.518675","24.97043","6500600","新店區"
"231017","AAD-862","2019/09/26 14:09:42","新北市新店區北宜路二段521號","121.563508333333","24.953665","6500600","新店區"
"231006","355-BY","2019/09/26 14:09:54","新北市新店區北宜路二段207號","121.553093333333","24.953305","6500600","新店區"
"231038","3712-VJ","2019/09/26 14:09:46","新北市新店區溪洲路121號","121.531246666667","24.9628183333333","6500600","新店區"
"231027","3713-VJ","2019/09/26 14:09:41","新北市新店區中興路一段24-3號","121.53876","24.9581533333333","6500600","新店區"
"231025","4715-K9","2019/09/26 14:09:50","新北市新店區二十張路129巷5弄3號","121.536533333333","24.97876","6500600","新店區"
"231021","512-UM","2019/09/26 14:09:49","新北市新店區屈尺路60號","121.547213333333","24.9226916666667","6500600","新店區"
"231002","619-UM","2019/09/26 14:09:46","新北市新店區中正路500號","121.534256666667","24.9821566666667","6500600","新店區"
"231034","641-BX","2019/09/26 14:09:58","新北市新店區車子路11號","121.503025","24.9520266666667","6500600","新店區"
"231011","KED-0819","2019/09/26 14:09:49","新北市新店區中正路2號","121.546018333333","24.96943","6500600","新店區"
"231028","897-TW","2019/09/26 14:09:59","新北市新店區安和路三段112號","121.517255","24.985305","6500600","新店區"
"231001","898-TW","2019/09/26 14:09:43","新北市新店區中華路66號","121.539241666667","24.9691033333333","6500600","新店區"
"231004","899-TW","2019/09/26 14:09:55","新北市新店區北新路二段168號","121.54307","24.975745","6500600","新店區"
"231037","AKT-0513","2019/09/26 14:09:39","新北市新店區安康路三段79號","121.491916666667","24.9519716666667","6500600","新店區"
"235030","003-UY","2019/09/26 14:09:39","新北市中和區廣福路16號","121.505188333333","25.0026916666667","6500300","中和區"
"235027","006-UY","2019/09/26 14:09:54","新北市中和區連城路249巷21弄1號","121.494006666667","24.996125","6500300","中和區"
"235020","096-UM","2019/09/26 14:09:39","新北市中和區員山路521號","121.479758333333","25.006715","6500300","中和區"
"235003","097-UM","2019/09/26 14:09:57","新北市中和區秀峰街119巷6弄6號","121.519461666667","24.9900766666667","6500300","中和區"
"235029","098-UM","2019/09/26 14:09:43","新北市中和區中山路二段2巷3弄2號","121.50483","25.0061983333333","6500300","中和區"
"235004","150-BY","2019/09/26 14:09:51","新北市中和區宜安路56號","121.511771666667","24.996875","6500300","中和區"
"235022","151-BY","2019/09/26 14:09:45","新北市中和區連城路469巷22弄5號","121.483178333333","24.9951183333333","6500300","中和區"
"235019","183-VK","2019/09/26 14:09:40","新北市中和區中山路三段177號","121.472866666667","25.0060933333333","6500300","中和區"
"235002","185-VK","2019/09/26 14:09:54","新北市中和區大仁街20巷32號","121.519231666667","24.9930766666667","6500300","中和區"
"235031","255-BX","2019/09/26 14:09:48","新北市中和區中正路695號","121.485118333333","24.99829","6500300","中和區"
"235008","293-VK","2019/09/26 14:09:49","新北市中和區中興街235巷5號","121.50092","24.9895566666667","6500300","中和區"
"235036","301-VK","2019/09/26 14:09:52","新北市中和區福祥路2號","121.499693333333","25.0027283333333","6500300","中和區"
"235007","352-BY","2019/09/26 14:09:45","新北市中和區景平路114號","121.519615","24.9915816666667","6500300","中和區"
"235006","KEA-2878","2019/09/26 14:09:54","新北市中和區自強路15巷10號","121.52078","24.9934766666667","6500300","中和區"
"247015","KEA-2869","2019/09/26 14:09:42","新北市蘆洲區光華路46巷48號","121.467565","25.0846433333333","6501400","蘆洲區"
"247009","KED-0682","2019/09/26 14:09:58","新北市蘆洲區三民路52號","121.475318333333","25.0834983333333","6501400","蘆洲區"
"235014","4979-A6","2019/09/26 14:09:49","新北市中和區復興路265號","121.502796666667","24.9902466666667","6500300","中和區"
"235033","4980-A6","2019/09/26 14:09:44","新北市中和區中山路二段181巷12號","121.500763333333","25.0022783333333","6500300","中和區"
"235034","558-UM","2019/09/26 14:09:39","新北市中和區連城路61號","121.49753","25.001535","6500300","中和區"
"235009","565-BX","2019/09/26 14:09:38","新北市中和區景新街423巷41號","121.51436","24.9897533333333","6500300","中和區"
"235024","KED-0823","2019/09/26 14:09:43","新北市中和區新生街112巷16號","121.482746666667","25.0029233333333","6500300","中和區"
"235018","640-BX","2019/09/26 14:09:43","新北市中和區國光街109巷29號","121.469426666667","24.99937","6500300","中和區"
"235011","732-UM","2019/09/26 14:09:36","新北市中和區興南路一段56巷9號","121.510353333333","24.99127","6500300","中和區"
"235010","733-UM","2019/09/26 14:09:48","新北市中和區華新街152號","121.507756666667","24.982405","6500300","中和區"
"235035","783-BX","2019/09/26 14:09:57","新北市中和區橋和路2-1號","121.488391666667","25.0050683333333","6500300","中和區"
"235021","801-TS","2019/09/26 14:09:50","新北市中和區中山路三段37巷43號","121.479856666667","25.004745","6500300","中和區"
"235005","802-TS","2019/09/26 14:09:54","新北市中和區安平路130號","121.512045","24.9978433333333","6500300","中和區"
"235016","805-TS","2019/09/26 14:09:50","新北市中和區興南路二段116號","121.504666666667","24.983905","6500300","中和區"
"235012","896-TW","2019/09/26 14:09:48","新北市中和區工專路145號","121.508763333333","24.9790766666667","6500300","中和區"
"235017","900-TW","2019/09/26 14:09:51","新北市中和區華福街57巷16號","121.466891666667","24.9972366666667","6500300","中和區"
"235028","911-UM","2019/09/26 14:09:45","新北市中和區中和路86號","121.501138333333","25.0004916666667","6500300","中和區"
"235015","157-BY","2019/09/26 14:09:52","新北市中和區和平街2巷4弄9號","121.510241666667","24.990995","6500300","中和區"
"235001","AAC-213","2019/09/26 14:09:58","新北市中和區秀朗路三段10巷37弄4號","121.52403","24.9959033333333","6500300","中和區"
"235023","AAC-215","2019/09/26 14:09:54","新北市中和區圓通路417號","121.488795","24.98913","6500300","中和區"
"220013","072-UY","2019/09/26 14:09:55","新北市板橋區民族路247巷7弄14號","121.470856666667","25.0077383333333","6500100","板橋區"
"220034","073-UY","2019/09/26 14:09:54","新北市板橋區中正路236巷11號","121.456445","25.0191716666667","6500100","板橋區"
"220105","075-UY","2019/09/26 14:09:46","新北市板橋區長江路二段281號","121.470305","25.0331016666667","6500100","板橋區"
"220017","AAD-861","2019/09/26 14:09:40","新北市板橋區華興街31巷16號","121.458368333333","25.00392","6500100","板橋區"
"247005","893-R6","2019/09/26 14:09:42","新北市蘆洲區九芎街79號","121.466645","25.079065","6501400","蘆洲區"
"247021","341-TH","2019/09/26 14:09:51","新北市蘆洲區三民路165號","121.471258333333","25.0871466666667","6501400","蘆洲區"
"247011","337-TH","2019/09/26 14:09:42","新北市蘆洲區信義路355號","121.477545","25.08744","6501400","蘆洲區"
"247003","336-TH","2019/09/26 14:09:44","新北市蘆洲區長安街108巷37號","121.462261666667","25.0825816666667","6501400","蘆洲區"
"247023","057-VK","2019/09/26 14:09:47","新北市蘆洲區光榮路116號","121.46441","25.0894966666667","6501400","蘆洲區"
"247013","056-VK","2019/09/26 14:09:57","新北市蘆洲區忠孝路45號","121.47137","25.0863066666667","6501400","蘆洲區"
"247017","053-VK","2019/09/26 14:09:45","新北市蘆洲區復興路111-6號","121.47656","25.0882333333333","6501400","蘆洲區"
"247007","002-UY","2019/09/26 14:09:48","新北市蘆洲區中山一路355號","121.470253333333","25.0778983333333","6501400","蘆洲區"
"247001","001-UY","2019/09/26 14:09:44","新北市蘆洲區永平街62號","121.457225","25.0917466666667","6501400","蘆洲區"
"235013","251-BX","2019/09/26 14:09:57","新北市中和區景新街224-16號","121.507826666667","24.99464","6500300","中和區"
"228005","097-TW","2019/09/26 14:09:53","新北市雙溪區三港里雙澳路91號","121.888888333333","25.05767","6502600","貢寮區"
"228004","212-TW","2019/09/26 14:09:51","新北市貢寮區雙玉里下雙溪街10-1號","121.914861666667","25.0147316666667","6502600","貢寮區"
"253003","6232-TK","2019/09/26 14:09:50","新北市石門區尖子鹿62-1號","121.578258333333","25.2657166666667","6502200","石門區"
"253004","6251-TK","2019/09/26 14:09:55","新北市石門區小坑51-3號","121.597681666667","25.25809","6502200","石門區"
"253002","637-UY","2019/09/26 14:09:51","新北市石門區豬槽潭8號","121.553625","25.26191","6502200","石門區"
"253001","KEC-0718","2019/09/26 14:09:40","新北市石門區八甲33號","121.529526666667","25.2721316666667","6502200","石門區"
"243002","549-UM","2019/09/26 14:09:51","新北市泰山區明志路一段458巷11號","121.430033333333","25.0557666666667","6501600","泰山區"
"207002","749-BX","2019/09/26 14:09:56","新北市萬里區溪底里瑞泉路7號","121.603413333333","25.14042","6502800","萬里區"
"252005","073-UM","2019/09/26 14:09:47","新北市三芝區橫山里橫山45-1號","121.53545","25.2571966666667","6502100","三芝區"
"207001","662-BX","2019/09/26 14:09:50","新北市萬里區磺潭里清水18號","121.637751666667","25.1976883333333","6502800","萬里區"
"236040","KED-0685","2019/09/26 14:09:46","新北市土城區城林路6巷80號","121.438436666667","24.9797983333333","6501300","土城區"
"236074","166-UM","2019/09/26 14:09:53","新北市土城區永寧路32巷8號","121.429026666667","24.9606383333333","6501300","土城區"
"236029","253-BX","2019/09/26 14:09:47","新北市土城區城林路6巷80號","121.438456666667","24.97983","6501300","土城區"
"236024","269-VK","2019/09/26 14:09:42","新北市土城區承天路18號","121.439223333333","24.9636183333333","6501300","土城區"
"236012","270-VK","2019/09/26 14:09:41","新北市土城區學府路一段76號","121.45652","24.9882416666667","6501300","土城區"
"236032","271-VK","2019/09/26 14:09:41","新北市土城區青雲路451巷2弄2號","121.459005","24.9745983333333","6501300","土城區"
"236068","KEA-2877","2019/09/26 14:09:53","新北市土城區明德路一段128巷2號","121.463226666667","24.97901","6501300","土城區"
"236017","401-BY","2019/09/26 14:09:56","新北市土城區員林街1號","121.442448333333","24.9781933333333","6501300","土城區"
"236057","912-UM","2019/09/26 14:09:47","新北市土城區中央路四段123號","121.416333333333","24.9576716666667","6501300","土城區"
"236045","913-UM","2019/09/26 14:09:41","新北市土城區金城路二段2巷5號","121.447503333333","24.9760066666667","6501300","土城區"
"236060","915-UM","2019/09/26 14:09:59","新北市土城區中央路二段110號","121.442","24.9783133333333","6501300","土城區"
"236054","AAC-216","2019/09/26 14:09:44","新北市土城區中華路二段100號","121.438066666667","24.9744333333333","6501300","土城區"
"221032","280-BY","2019/09/26 14:09:50","新北市汐止區連興街50號","121.654226666667","25.0634166666667","6501100","汐止區"
"220027","145-BY","2019/09/26 14:09:53","新北市板橋區民權路186號","121.459188333333","25.013525","6500100","板橋區"
"220028","200-UY","2019/09/26 14:09:53","新北市板橋區大觀路二段7巷81號","121.44972","25.0031666666667","6500100","板橋區"
"220030","610-BX","2019/09/26 14:09:49","新北市板橋區溪北路45號","121.42752","24.989985","6500100","板橋區"
"220004","276-BY","2019/09/26 14:09:40","新北市土城區廣福街124號","121.456596666667","24.9927783333333","6500100","板橋區"
"220020","277-BY","2019/09/26 14:09:49","新北市板橋區金門街369巷58號","121.428393333333","24.9817183333333","6500100","板橋區"
"220050","280-UM","2019/09/26 14:09:42","新北市板橋區莊敬路25巷24號","121.474463333333","25.0272183333333","6500100","板橋區"
"220019","283-VK","2019/09/26 14:09:55","新北市板橋區重慶路245巷48-1號","121.465158333333","25.000755","6500100","板橋區"
"220043","285-UM","2019/09/26 14:09:42","新北市板橋區吳鳳路19巷20號","121.466803333333","25.0307666666667","6500100","板橋區"
"220031","286-VK","2019/09/26 14:09:45","新北市板橋區大觀路二段174巷173弄7號","121.44149","25.0037933333333","6500100","板橋區"
"220029","287-VK","2019/09/26 14:09:55","新北市板橋區南雅西路二段156巷17號","121.452326666667","25.0131583333333","6500100","板橋區"
"220039","288-VK","2019/09/26 14:09:49","新北市板橋區長江路一段106巷13弄9號","121.460458333333","25.0292916666667","6500100","板橋區"
"220009","293-UM","2019/09/26 14:09:43","新北市板橋區光復街192巷20號","121.481431666667","25.018945","6500100","板橋區"
"220032","296-UM","2019/09/26 14:09:37","新北市板橋區溪崑一街47巷2號","121.430406666667","24.9909066666667","6500100","板橋區"
"220001","299-UM","2019/09/26 14:09:41","新北市板橋區永豐街130號","121.477611666667","25.021275","6500100","板橋區"
"220023","303-R5","2019/09/26 14:09:46","新北市板橋區大智街25巷29號","121.454253333333","25.014785","6500100","板橋區"
"220010","305-R5","2019/09/26 14:09:55","新北市板橋區三民路二段205-2號","121.479335","25.0132816666667","6500100","板橋區"
"220041","307-R5","2019/09/26 14:09:53","新北市板橋區松江街74號","121.468708333333","25.0278566666667","6500100","板橋區"
"220047","317-R6","2019/09/26 14:09:46","新北市板橋區四維路152號","121.465073333333","25.0258","6500100","板橋區"
"220038","487-VK","2019/09/26 14:09:52","新北市板橋區文化路一段269號","121.464608333333","25.018365","6500100","板橋區"
"220037","491-VK","2019/09/26 14:09:56","新北市板橋區文化路二段182巷5弄11號","121.47192","25.02749","6500100","板橋區"
"220104","560-BX","2019/09/26 14:09:43","新北市板橋區中正路379巷1弄19號","121.453101666667","25.021755","6500100","板橋區"
"220052","561-BX","2019/09/26 14:09:50","新北市板橋區文化路一段266號","121.467253333333","25.0205633333333","6500100","板橋區"
"220011","609-BX","2019/09/26 14:09:50","新北市板橋區三民路二段202-7號","121.479018333333","25.01434","6500100","板橋區"
"220040","637-BX","2019/09/26 14:09:57","新北市板橋區縣民大道三段223號","121.480671666667","25.0253816666667","6500100","板橋區"
"220005","686-BX","2019/09/26 14:09:38","新北市板橋區和平路153號","121.46332","24.9955966666667","6500100","板橋區"
"220025","687-BX","2019/09/26 14:09:58","新北市板橋區龍興街103巷1號","121.444455","25.0034266666667","6500100","板橋區"
"220042","689-BX","2019/09/26 14:09:43","新北市板橋區漢生西路102號","121.462621666667","25.0199516666667","6500100","板橋區"
"220002","741-BX","2019/09/26 14:09:54","新北市板橋區實踐路40號","121.463598333333","25.0066333333333","6500100","板橋區"
"220051","KEA-2699","2019/09/26 14:09:55","新北市板橋區田單街31號","121.482336666667","25.028735","6500100","板橋區"
"220003","827-TW","2019/09/26 14:09:50","新北市板橋區中山路一段158號","121.465853333333","25.0119333333333","6500100","板橋區"
"220016","830-TW","2019/09/26 14:09:54","新北市板橋區翠華街6巷17號","121.481055","25.0242966666667","6500100","板橋區"
"220014","831-TW","2019/09/26 14:09:50","新北市板橋區民享街116巷1-3號","121.478081666667","25.01565","6500100","板橋區"
"220022","895-R6","2019/09/26 14:09:58","新北市板橋區林園街29號","121.453838333333","25.00975","6500100","板橋區"
"220021","985-R7","2019/09/26 14:09:50","新北市板橋區中正路136號","121.456625","25.0160366666667","6500100","板橋區"
"220046","AAC-210","2019/09/26 14:09:49","新北市板橋區幸福路32巷3弄11號","121.460868333333","25.0206866666667","6500100","板橋區"
"220012","AAC-253","2019/09/26 14:09:44","新北市板橋區漢生東路83巷2號","121.46683","25.0157633333333","6500100","板橋區"
"235032","KEA-2873","2019/09/26 14:09:31","新北市中和區中和路143號","121.50225","24.9999483333333","6500300","中和區"
"235025","KEA-2875","2019/09/26 14:09:55","新北市中和區民利街73號","121.478585","24.998185","6500300","中和區"
"235026","KEA-2876","2019/09/26 14:09:51","新北市中和區中山路二段408號","121.489946666667","25.0038716666667","6500300","中和區"
