"lineid","car","time","location","longitude","latitude","cityid","cityname"
"249005","172-UM","2019/09/26 17:09:56","新北市八里區華富山5-1號","121.418748333333","25.1434516666667","6502300","八里區"
"249001","173-UM","2019/09/26 17:09:57","新北市八里區中華路二段201-27號","121.406055","25.1500983333333","6502300","八里區"
"249004","303-UY","2019/09/26 17:09:44","新北市八里區忠孝路169號","121.423498333333","25.1607416666667","6502300","八里區"
"249002","305-UY","2019/09/26 17:09:55","新北市八里區米倉14-6號","121.43913","25.14989","6502300","八里區"
"249003","593-UM","2019/09/26 17:09:48","新北市八里區中山路二段407號","121.39765","25.146605","6502300","八里區"
"244007","080-UY","2019/09/26 17:09:42","新北市林口區菁埔路16號","121.378036666667","25.0967683333333","6501700","林口區"
"244013","KEA-2802","2019/09/26 17:09:42","新北市林口區粉寮69號","121.404726666667","25.0907683333333","6501700","林口區"
"244023","483-VK","2019/09/26 17:09:42","新北市林口區仁愛路一段635號","121.38931","25.07663","6501700","林口區"
"244009","656-BX","2019/09/26 17:09:49","新北市林口區文化三路二段798號","121.38096","25.0889416666667","6501700","林口區"
"244025","837-TS","2019/09/26 17:09:57","新北市林口區中山路319號","121.383505","25.0805783333333","6501700","林口區"
"244021","838-TS","2019/09/26 17:09:57","新北市林口區粉寮路56-6號","121.40709","25.08854","6501700","林口區"
"231046","719-UM","2019/09/26 17:02:22","新北市新店區灣潭路15-2號","121.542625","24.943055","6500600","新店區"
"241011","013-R5","2019/09/26 17:09:50","新北市三重區河邊北街138號","121.503435","25.07205","6500200","三重區"
"241028","022-UY","2019/09/26 17:09:43","新北市三重區重新路三段108號","121.492415","25.0604383333333","6500200","三重區"
"241008","059-VK","2019/09/26 17:09:49","新北市三重區力行路二段126號","121.482218333333","25.0753016666667","6500200","三重區"
"241025","060-VK","2019/09/26 17:09:39","新北市三重區中正北路560巷47號","121.470933333333","25.070265","6500200","三重區"
"241015","062-VK","2019/09/26 17:09:39","新北市三重區長生街14號","121.499226666667","25.0663833333333","6500200","三重區"
"241017","063-VK","2019/09/26 17:09:43","新北市三重區國隆路26號","121.49242","25.0641833333333","6500200","三重區"
"241024","065-VK","2019/09/26 17:09:47","新北市三重區大勇街82巷26弄5號","121.479235","25.0722466666667","6500200","三重區"
"241007","066-VK","2019/09/26 17:09:56","新北市三重區三和路四段163巷71號","121.485661666667","25.0792633333333","6500200","三重區"
"241002","090-VK","2019/09/26 17:09:57","新北市三重區五華街45號","121.494401666667","25.08112","6500200","三重區"
"241003","091-VK","2019/09/26 17:09:44","新北市三重區富福街106號","121.493353333333","25.0855383333333","6500200","三重區"
"241026","742-BX","2019/09/26 17:09:46","新北市三重區重新路一段78號","121.501846666667","25.063625","6500200","三重區"
"241006","262-UM","2019/09/26 17:09:45","新北市三重區三和路四段272號","121.485393333333","25.0771266666667","6500200","三重區"
"241016","266-UM","2019/09/26 17:09:57","新北市三重區中正北路25巷2號","121.493221666667","25.0628466666667","6500200","三重區"
"241009","267-UM","2019/09/26 17:09:43","新北市三重區仁愛街662號","121.482525","25.080395","6500200","三重區"
"241018","268-UM","2019/09/26 17:09:57","新北市三重區大智街109號","121.491608333333","25.0695383333333","6500200","三重區"
"241032","269-UM","2019/09/26 17:09:41","新北市三重區三陽路2號","121.486145","25.0587866666667","6500200","三重區"
"241013","270-UM","2019/09/26 17:09:37","新北市三重區仁愛街88號","121.495578333333","25.0738866666667","6500200","三重區"
"241030","KED-0822","2019/09/26 17:09:52","新北市三重區集成路13號","121.488738333333","25.0520883333333","6500200","三重區"
"241004","475-VK","2019/09/26 17:09:41","新北市三重區五華街92巷12號","121.492318333333","25.0819683333333","6500200","三重區"
"241020","478-VK","2019/09/26 17:09:52","新北市三重區自強路三段46號","121.486831666667","25.0728866666667","6500200","三重區"
"241014","543-UM","2019/09/26 17:09:46","新北市三重區龍濱路130-1號","121.501676666667","25.0717833333333","6500200","三重區"
"241023","545-UM","2019/09/26 17:09:52","新北市三重區忠孝路三段126號","121.480173333333","25.0637183333333","6500200","三重區"
"241001","547-UM","2019/09/26 17:09:43","新北市三重區仁愛街255巷33號","121.494136666667","25.07884","6500200","三重區"
"241019","KEA-2593","2019/09/26 17:09:41","新北市三重區自強路二段74巷73號","121.486966666667","25.069375","6500200","三重區"
"241005","AAD-863","2019/09/26 17:09:51","新北市三重區永安北路二段43巷20號","121.482995","25.0827483333333","6500200","三重區"
"241031","743-BX","2019/09/26 17:09:41","新北市三重區重陽路一段113巷1弄19號","121.487623333333","25.059315","6500200","三重區"
"241022","KED-0820","2019/09/26 17:09:57","新北市三重區三民街131號","121.484955","25.0639083333333","6500200","三重區"
"241012","887-TS","2019/09/26 17:09:54","新北市三重區仁壽街158號","121.500033333333","25.07448","6500200","三重區"
"241029","942-UM","2019/09/26 17:09:47","新北市三重區重安街99-1號","121.49336","25.0555366666667","6500200","三重區"
"247016","KEA-2869","2019/09/26 17:09:41","新北市蘆洲區光華路65巷31號","121.468963333333","25.0820116666667","6501400","蘆洲區"
"247010","KED-0682","2019/09/26 17:09:49","新北市蘆洲區民族路16號","121.475951666667","25.0842183333333","6501400","蘆洲區"
"235054","640-BX","2019/09/26 16:54:11","新北市中和區員山路36巷16-2號","121.485335","24.9916516666667","6500300","中和區"
"247006","893-R6","2019/09/26 17:09:41","新北市蘆洲區長安街102巷63-1號","121.462548333333","25.0822283333333","6501400","蘆洲區"
"247020","546-UM","2019/09/26 17:09:47","新北市蘆洲區仁愛街42-8號","121.472736666667","25.0937766666667","6501400","蘆洲區"
"247022","341-TH","2019/09/26 17:09:56","新北市蘆洲區民族路492號","121.469871666667","25.0905716666667","6501400","蘆洲區"
"247012","337-TH","2019/09/26 17:09:47","新北市蘆洲區信義路266巷1號","121.478273333333","25.0870433333333","6501400","蘆洲區"
"247004","336-TH","2019/09/26 17:09:49","新北市蘆洲區長安街138號","121.460306666667","25.0820583333333","6501400","蘆洲區"
"247024","057-VK","2019/09/26 17:09:47","新北市蘆洲區長興路15號","121.464173333333","25.0829133333333","6501400","蘆洲區"
"247014","056-VK","2019/09/26 17:09:47","新北市蘆洲區中央路61-5號","121.473395","25.0832466666667","6501400","蘆洲區"
"247018","053-VK","2019/09/26 17:09:49","新北市蘆洲區復興路113號","121.477238333333","25.088095","6501400","蘆洲區"
"247008","002-UY","2019/09/26 17:09:44","新北市蘆洲區信義路30巷17號","121.474501666667","25.078615","6501400","蘆洲區"
"247002","001-UY","2019/09/26 17:09:55","新北市蘆洲區長安街332號","121.457421666667","25.0883533333333","6501400","蘆洲區"
"228003","097-TW","2019/09/26 17:09:37","新北市貢寮區福隆里東興街6-14號","121.952076666667","25.0205216666667","6502600","貢寮區"
"228001","212-TW","2019/09/26 17:09:57","新北市貢寮區仁理村研海街45號","121.925753333333","25.04341","6502600","貢寮區"
"228002","663-BX","2019/09/26 17:09:49","新北市貢寮區龍崗里泮宮路7號","121.907753333333","25.0179383333333","6502600","貢寮區"
"224006","676-BX","2019/09/26 17:09:54","新北市瑞芳區大寮路110號","121.781301666667","25.09779","6501200","瑞芳區"
"224009","275-VK","2019/09/26 17:09:44","新北市瑞芳區輕便路136號","121.843091666667","25.1135466666667","6501200","瑞芳區"
"224008","273-VK","2019/09/26 17:09:51","新北市瑞芳區侯硐路310號","121.831608333333","25.09022","6501200","瑞芳區"
"224005","271-BY","2019/09/26 17:09:43","新北市瑞芳區鼻頭路97號","121.91606","25.12397","6501200","瑞芳區"
"227001","642-TC","2019/09/26 17:09:27","新北市雙溪區三貂里定福路2號","121.851193333333","25.06702","6502500","雙溪區"
"227002","400-TW","2019/09/26 17:09:46","新北市雙溪區平林里梅竹蹊67號","121.84195","25.0313666666667","6502500","雙溪區"
"251004","009-UM","2019/09/26 17:09:40","新北市淡水區中正東路二段88巷15號","121.459043333333","25.150545","6501000","淡水區"
"251015","KEA-2871","2019/09/26 17:09:49","新北市淡水區學府路102巷51弄9號","121.452638333333","25.1718516666667","6501000","淡水區"
"251016","179-VK","2019/09/26 17:09:54","新北市淡水區社厝坑3-6號","121.474908333333","25.18827","6501000","淡水區"
"251013","180-VK","2019/09/26 17:09:45","新北市淡水區桂花樹6-1號","121.483136666667","25.196885","6501000","淡水區"
"251008","181-VK","2019/09/26 17:09:55","新北市淡水區樹梅坑7-6號","121.472191666667","25.14416","6501000","淡水區"
"251012","441-VK","2019/09/26 17:09:39","新北市淡水區水碓街7號","121.443121666667","25.1771233333333","6501000","淡水區"
"251007","442-VK","2019/09/26 17:09:44","新北市淡水區民生路110號","121.463338333333","25.138205","6501000","淡水區"
"251005","443-VK","2019/09/26 17:09:55","新北市淡水區鄧公路19-1號","121.450256666667","25.1699466666667","6501000","淡水區"
"251006","561-UM","2019/09/26 17:09:52","新北市淡水區真理街6號","121.438391666667","25.1745033333333","6501000","淡水區"
"251009","575-R6","2019/09/26 17:09:43","新北市淡水區中正路二段16號","121.42034","25.1808816666667","6501000","淡水區"
"251014","577-R6","2019/09/26 17:09:44","新北市淡水區八里堆9-7號","121.464806666667","25.2241983333333","6501000","淡水區"
"251011","650-BX","2019/09/26 17:09:40","新北市淡水區坪頂路51巷2號","121.458105","25.162585","6501000","淡水區"
"251003","766-UM","2019/09/26 17:09:39","新北市淡水區中正路二段31號","121.419418333333","25.1815","6501000","淡水區"
"252002","178-VK","2019/09/26 17:09:44","新北市三芝區忠孝街1-14號","121.505546666667","25.253945","6502100","三芝區"
"233002","762-BX","2019/09/26 17:09:53","新北市烏來區野要街112號","121.545808333333","24.8546883333333","6502900","烏來區"
"252001","KED-0821","2019/09/26 17:09:56","新北市三芝區埔頭里埔頭43-3號","121.500181666667","25.2614566666667","6502100","三芝區"
"242042","AAC-296","2019/09/26 17:09:44","新北市新莊區三和路12-9號","121.442091666667","25.0367116666667","6500500","新莊區"
"242004","751-BX","2019/09/26 17:09:49","新北市新莊區三和路12-21號","121.442155","25.038575","6500500","新莊區"
"242029","615-BX","2019/09/26 17:09:40","新北市新莊區新泰路357巷3弄57號","121.442125","25.03919","6500500","新莊區"
"242027","613-BX","2019/09/26 17:09:43","新北市新莊區新泰路255巷83號","121.44214","25.0390816666667","6500500","新莊區"
"242058","612-BX","2019/09/26 17:09:49","新北市新莊區新泰路357巷3弄57號","121.44208","25.0390833333333","6500500","新莊區"
"242048","566-BX","2019/09/26 17:09:52","新北市新莊區中正路535號","121.438863333333","25.0333483333333","6500500","新莊區"
"242053","497-BY","2019/09/26 17:09:42","新北市新莊區環河路462號","121.440131666667","25.01981","6500500","新莊區"
"242007","440-UM","2019/09/26 17:09:41","新北市新莊區新泰路255巷83號","121.442223333333","25.0387633333333","6500500","新莊區"
"242044","415-TV","2019/09/26 17:09:54","新北市新莊區中正路466號","121.438833333333","25.0333883333333","6500500","新莊區"
"242013","413-TV","2019/09/26 17:10:00","新北市新莊區新泰路357巷3弄57號","121.442116666667","25.0394666666667","6500500","新莊區"
"242051","400-BY","2019/09/26 17:09:43","新北市新莊區新泰路357巷3弄43號","121.442311666667","25.040215","6500500","新莊區"
"242023","353-BY","2019/09/26 17:09:57","新北市新莊區新泰路357巷3弄57號","121.442021666667","25.0392583333333","6500500","新莊區"
"242039","135-UY","2019/09/26 17:09:42","新北市新莊區新泰路357巷3弄57號","121.442211666667","25.0395466666667","6500500","新莊區"
"242017","173-VK","2019/09/26 17:09:40","新北市新莊區三和路12-21號","121.442016666667","25.0387366666667","6500500","新莊區"
"242031","175-VK","2019/09/26 17:09:46","新北市新莊區三和路12-21號","121.442001666667","25.0387516666667","6500500","新莊區"
"242021","KED-0687","2019/09/26 17:09:44","新北市新莊區三和路12-21號","121.442338333333","25.0380266666667","6500500","新莊區"
"242036","348-TH","2019/09/26 17:09:55","新北市新莊區三和路12-21號","121.44217","25.0382883333333","6500500","新莊區"
"242009","349-TH","2019/09/26 17:09:45","新北市新莊區三和路12-21號","121.44212","25.0383216666667","6500500","新莊區"
"242034","350-TH","2019/09/26 17:09:40","新北市新莊區新泰路255巷83號","121.442181666667","25.0387866666667","6500500","新莊區"
"242019","351-TH","2019/09/26 17:09:38","新北市新莊區新泰路357巷3弄57號","121.442188333333","25.0396416666667","6500500","新莊區"
"238019","599-UM","2019/09/26 17:09:49","新北市樹林區育德街78-1號","121.38784","24.96825","6500700","樹林區"
"238018","KEA-2217","2019/09/26 17:09:41","新北市樹林區環河路10號","121.427113333333","24.9781933333333","6500700","樹林區"
"238021","KEA-2539","2019/09/26 17:09:40","新北市樹林區西圳街一段165巷20弄11號","121.395666666667","24.960215","6500700","樹林區"
"238017","283-BY","2019/09/26 17:09:49","新北市樹林區光武街28號","121.41586","25.0054683333333","6500700","樹林區"
"238014","282-BY","2019/09/26 17:09:50","新北市樹林區千歲街67號","121.42718","24.99885","6500700","樹林區"
"238020","268-VK","2019/09/26 17:09:49","新北市樹林區中正路7號","121.428045","24.99914","6500700","樹林區"
"238026","172-UY","2019/09/26 17:09:48","新北市樹林區中山路三段214號","121.380223333333","24.9678633333333","6500700","樹林區"
"239007","AAC-297","2019/09/26 17:09:52","新北市鶯歌區行政路42號","121.353015","24.95591","6500800","鶯歌區"
"239006","891-R6","2019/09/26 17:09:58","新北市鶯歌區八德路29號","121.335113333333","24.951835","6500800","鶯歌區"
"239008","527-UM","2019/09/26 17:09:57","新北市鶯歌區尖山路57-1號","121.34998","24.9497533333333","6500800","鶯歌區"
"239005","526-UM","2019/09/26 17:09:55","新北市鶯歌區鶯桃路500號","121.331906666667","24.9662533333333","6500800","鶯歌區"
"239001","417-VK","2019/09/26 17:09:58","新北市鶯歌區尖山路86巷24號","121.34715","24.9497083333333","6500800","鶯歌區"
"239003","360-BY","2019/09/26 17:09:51","新北市鶯歌區德昌二街70巷32弄77-1號","121.330073333333","24.957955","6500800","鶯歌區"
"239002","359-BY","2019/09/26 17:09:40","新北市鶯歌區建國路255號","121.347868333333","24.9532233333333","6500800","鶯歌區"
"239004","193-VK","2019/09/26 17:09:49","新北市鶯歌區文化路324巷1-2號","121.350803333333","24.9453266666667","6500800","鶯歌區"
"244019","KED-0667","2019/09/26 17:09:51","新北市林口區文化一路一段201號","121.378285","25.0750133333333","6501700","林口區"
"233001","KEA-2870","2019/09/26 17:09:54","新北市烏來區溫泉街75號","121.551628333333","24.8602983333333","6502900","烏來區"
"242011","280-VK","2019/09/26 17:09:48","新北市新莊區三和路12-21號","121.442108333333","25.0383083333333","6500500","新莊區"
