"lineid","car","time","location","longitude","latitude","cityid","cityname"
"234026","9371-KE","2019/09/26 17:49:55","新北市永和區和平街109巷4號","121.510885","25.0097133333333","6500400","永和區"
"249005","172-UM","2019/09/26 17:49:56","新北市八里區荖阡坑路41-10號","121.4024","25.1330566666667","6502300","八里區"
"249001","173-UM","2019/09/26 17:49:57","新北市八里區龍米路二段143號","121.4442","25.1490716666667","6502300","八里區"
"249004","303-UY","2019/09/26 17:49:44","新北市八里區中華路一段79巷11號","121.421038333333","25.15644","6502300","八里區"
"249002","305-UY","2019/09/26 17:49:55","新北市八里區龍米路一段263號","121.44695","25.13437","6502300","八里區"
"249003","593-UM","2019/09/26 17:49:48","新北市八里區文昌路55號","121.410653333333","25.1566283333333","6502300","八里區"
"248016","026-BX","2019/09/26 17:49:45","新北市五股區中興路二段37巷28號","121.460236666667","25.0748616666667","6501500","五股區"
"248008","KED-0815","2019/09/26 17:49:42","新北市五股區中興路二段57-6號","121.460336666667","25.0753233333333","6501500","五股區"
"248020","KED-0813","2019/09/26 17:49:55","新北市五股區中興路二段83巷26-6號","121.460165","25.0752066666667","6501500","五股區"
"232011","076-UY","2019/09/26 17:49:56","新北市坪林區北宜路八段216號","121.70857","24.9347916666667","6502000","坪林區"
"244007","080-UY","2019/09/26 17:49:42","新北市林口區林口路170號","121.38783","25.0825433333333","6501700","林口區"
"244013","KEA-2802","2019/09/26 17:49:42","新北市林口區中山路130號","121.392431666667","25.0785316666667","6501700","林口區"
"244023","483-VK","2019/09/26 17:49:42","新北市林口區東湖路86號","121.38644","25.0739783333333","6501700","林口區"
"244017","485-VK","2019/09/26 17:49:56","新北市林口區文化二路一段339號","121.370291666667","25.0732016666667","6501700","林口區"
"244009","656-BX","2019/09/26 17:49:49","新北市林口區林口路235號","121.38676","25.0834166666667","6501700","林口區"
"244011","701-TV","2019/09/26 17:49:55","新北市林口區中正路182號","121.391956666667","25.077535","6501700","林口區"
"244025","837-TS","2019/09/26 17:49:57","新北市林口區三民路185號","121.360953333333","25.071215","6501700","林口區"
"244021","838-TS","2019/09/26 17:49:57","新北市林口區新寮45-13號","121.404303333333","25.0647316666667","6501700","林口區"
"222003","436-BY","2019/09/26 17:49:47","新北市深坑區阿柔洋60-1號","121.608596666667","24.998535","6501800","深坑區"
"222002","659-BX","2019/09/26 17:49:41","新北市深坑區平埔街22巷8號","121.61494","25.0008783333333","6501800","深坑區"
"241002","090-VK","2019/09/26 17:49:57","新北市八里區中山路三段382號","121.368705","25.13584","6500200","三重區"
"241016","266-UM","2019/09/26 17:49:17","新北市三重區新北大道一段7號","121.489741666667","25.0612816666667","6500200","三重區"
"241024","462-BY","2019/09/26 17:49:46","新北市三重區車路頭街62巷5號","121.48404","25.072595","6500200","三重區"
"235063","006-UY","2019/09/26 17:49:44","新北市中和區員山路36巷16-3號","121.485166666667","24.9913883333333","6500300","中和區"
"235065","098-UM","2019/09/26 17:49:43","新北市中和區員山路36巷16-3號","121.484545","24.9910916666667","6500300","中和區"
"235058","151-BY","2019/09/26 17:49:55","新北市中和區和城路一段271巷1號","121.485371666667","24.9920566666667","6500300","中和區"
"247016","KEA-2869","2019/09/26 17:50:01","新北市蘆洲區中正路185巷25弄11號","121.466976666667","25.0841283333333","6501400","蘆洲區"
"247010","KED-0682","2019/09/26 17:49:54","新北市蘆洲區民族路43號","121.478311666667","25.0853216666667","6501400","蘆洲區"
"235054","640-BX","2019/09/26 17:49:49","新北市中和區員山路36巷16-2號","121.48522","24.9916083333333","6500300","中和區"
"235057","801-TS","2019/09/26 17:49:42","新北市中和區員山路36巷16-3號","121.484598333333","24.991045","6500300","中和區"
"235064","911-UM","2019/09/26 17:49:53","新北市中和區員山路36巷16-3號","121.4851","24.9913816666667","6500300","中和區"
"235037","AAC-213","2019/09/26 17:49:47","新北市中和區錦和路350-1號","121.490035","24.9935466666667","6500300","中和區"
"247006","893-R6","2019/09/26 17:49:47","新北市蘆洲區長安街22巷32號","121.464881666667","25.0799983333333","6501400","蘆洲區"
"247020","546-UM","2019/09/26 17:49:47","新北市蘆洲區民權路188-3號","121.471513333333","25.0908466666667","6501400","蘆洲區"
"247022","341-TH","2019/09/26 17:49:56","新北市蘆洲區中正路457號","121.462256666667","25.095535","6501400","蘆洲區"
"247012","337-TH","2019/09/26 17:49:47","新北市蘆洲區復興路146號","121.477025","25.08775","6501400","蘆洲區"
"247004","336-TH","2019/09/26 17:49:49","新北市蘆洲區長安街194巷30號","121.460036666667","25.0845533333333","6501400","蘆洲區"
"247024","057-VK","2019/09/26 17:49:47","新北市蘆洲區長興路298巷12號","121.461143333333","25.089575","6501400","蘆洲區"
"247014","056-VK","2019/09/26 17:49:47","新北市蘆洲區中正路152號","121.469436666667","25.0856433333333","6501400","蘆洲區"
"247008","002-UY","2019/09/26 17:49:44","新北市蘆洲區中山一路283號","121.472033333333","25.0795866666667","6501400","蘆洲區"
"247002","001-UY","2019/09/26 17:49:55","新北市蘆洲區永平街32巷33弄17號","121.458786666667","25.0922716666667","6501400","蘆洲區"
"226004","312-R5","2019/09/26 17:49:54","新北市平溪區石底里公園街18-3號","121.733328333333","25.02576","6502400","平溪區"
"228003","097-TW","2019/09/26 17:49:57","新北市貢寮區真理里延平街54-1號","121.924746666667","25.05714","6502600","貢寮區"
"228001","212-TW","2019/09/26 17:49:57","新北市貢寮區仁理村仁愛路95-1號","121.927661666667","25.0554233333333","6502600","貢寮區"
"228002","663-BX","2019/09/26 17:49:49","新北市貢寮區福隆里外隆林街16-2號","121.958331666667","25.00452","6502600","貢寮區"
"224006","676-BX","2019/09/26 17:49:54","新北市瑞芳區傑魚坑路183號","121.78849","25.10829","6501200","瑞芳區"
"224009","275-VK","2019/09/26 17:49:45","新北市瑞芳區山尖路173號","121.85272","25.1118366666667","6501200","瑞芳區"
"224008","273-VK","2019/09/26 17:49:51","新北市瑞芳區明燈路一段118號","121.818621666667","25.1089183333333","6501200","瑞芳區"
"224005","271-BY","2019/09/26 17:49:46","新北市瑞芳區建基路一段50巷2號","121.817618333333","25.1272416666667","6501200","瑞芳區"
"227001","642-TC","2019/09/26 17:22:54","新北市雙溪區三貂里定福路1-2號","121.850745","25.0633616666667","6502500","雙溪區"
"227002","400-TW","2019/09/26 17:49:46","新北市雙溪區共和里東榮街52號","121.86635","25.0336866666667","6502500","雙溪區"
"253006","295-VK","2019/09/26 17:49:41","新北市石門區老崩山11-13號","121.55177","25.2907216666667","6502200","石門區"
"208002","KEA-2872","2019/09/26 17:49:55","新北市金山區磺清路108巷2號","121.640071666667","25.2281033333333","6502700","金山區"
"251004","009-UM","2019/09/26 17:49:41","新北市淡水區民權一街23號","121.458913333333","25.1362466666667","6501000","淡水區"
"251002","012-UM","2019/09/26 17:49:44","新北市淡水區中山路104號","121.44236","25.1705816666667","6501000","淡水區"
"251015","KEA-2871","2019/09/26 17:49:49","新北市淡水區興福寮1-8號","121.488955","25.1645133333333","6501000","淡水區"
"251016","179-VK","2019/09/26 17:49:54","新北市淡水區埤島39-15號","121.452761666667","25.1958583333333","6501000","淡水區"
"251013","180-VK","2019/09/26 17:49:45","新北市淡水區泉洲厝31號","121.479555","25.19103","6501000","淡水區"
"251008","181-VK","2019/09/26 17:49:55","新北市淡水區八勢路一段123巷13號","121.466146666667","25.1573833333333","6501000","淡水區"
"251010","413-VK","2019/09/26 17:49:47","新北市淡水區中正路二段12號","121.41997","25.1804016666667","6501000","淡水區"
"251012","441-VK","2019/09/26 17:49:39","新北市淡水區北投子86-5號","121.469298333333","25.1835666666667","6501000","淡水區"
"251007","442-VK","2019/09/26 17:49:44","新北市淡水區民生路16巷31號","121.46176","25.1375183333333","6501000","淡水區"
"251005","443-VK","2019/09/26 17:49:55","新北市淡水區學府路102巷4號","121.450473333333","25.171955","6501000","淡水區"
"251006","561-UM","2019/09/26 17:49:52","新北市淡水區新生街51巷51號","121.441395","25.176245","6501000","淡水區"
"251009","575-R6","2019/09/26 17:49:43","新北市淡水區中正路30號","121.444043333333","25.1692133333333","6501000","淡水區"
"251014","577-R6","2019/09/26 17:49:44","新北市淡水區公埔子16-6號","121.48102","25.224565","6501000","淡水區"
"251011","650-BX","2019/09/26 17:49:40","新北市淡水區小坪頂13-3號","121.486573333333","25.1561233333333","6501000","淡水區"
"251003","766-UM","2019/09/26 17:49:59","新北市淡水區大忠街5巷1號","121.443131666667","25.1764166666667","6501000","淡水區"
"207003","550-UM","2019/09/26 17:49:55","新北市萬里區野柳里東澳路66號","121.69281","25.2009566666667","6502800","萬里區"
"207004","291-VK","2019/09/26 17:49:45","新北市萬里區萬里里瑪鋉路49號","121.68791","25.176085","6502800","萬里區"
"252002","178-VK","2019/09/26 17:49:44","新北市三芝區智成街28號","121.503973333333","25.256575","6502100","三芝區"
"237004","KEA-2597","2019/09/26 17:49:44","新北市三峽區仁愛街14號","121.368371666667","24.932595","6500900","三峽區"
"237009","210-TH","2019/09/26 17:49:52","新北市三峽區大勇路17號","121.367248333333","24.9367266666667","6500900","三峽區"
"237013","252-BX","2019/09/26 17:49:58","新北市三峽區介壽路一段30號","121.375603333333","24.9327","6500900","三峽區"
"237012","275-BY","2019/09/26 17:49:48","新北市三峽區民生街111-1號","121.37382","24.935395","6500900","三峽區"
"237014","433-BY","2019/09/26 17:49:50","新北市三峽區文化路120巷20號","121.37119","24.93697","6500900","三峽區"
"237006","5529-G3","2019/09/26 17:49:46","新北市三峽區介壽路二段38巷75-1號","121.392045","24.9336516666667","6500900","三峽區"
"237011","KEA-2596","2019/09/26 17:49:49","新北市三峽區大同路180號","121.372406666667","24.9268016666667","6500900","三峽區"
"237015","649-BX","2019/09/26 17:49:53","新北市三峽區白雞149-2號","121.399858333333","24.905075","6500900","三峽區"
"237010","706-TV","2019/09/26 17:49:57","新北市三峽區文化路216號","121.368241666667","24.9358866666667","6500900","三峽區"
"237005","AKY-6261","2019/09/26 17:49:41","新北市三峽區中山路246號","121.362173333333","24.9375033333333","6500900","三峽區"
"236042","KED-0685","2019/09/26 17:49:38","新北市土城區城林路6巷80號","121.438488333333","24.9796616666667","6501300","土城區"
"233002","762-BX","2019/09/26 17:49:53","新北市烏來區烏來街6號","121.551416666667","24.8651333333333","6502900","烏來區"
"236078","166-UM","2019/09/26 17:49:56","新北市土城區永寧路21號","121.43044","24.9638216666667","6501300","土城區"
"236014","270-VK","2019/09/26 17:49:48","新北市土城區城林路6巷80號","121.438513333333","24.9796183333333","6501300","土城區"
"236038","271-VK","2019/09/26 17:49:43","新北市土城區城林路6巷80號","121.438465","24.979755","6501300","土城區"
"236070","KEA-2877","2019/09/26 17:49:39","新北市土城區青雲路322巷28號","121.457545","24.974675","6501300","土城區"
"252001","KED-0821","2019/09/26 17:49:56","新北市三芝區中興街一段12號","121.497468333333","25.2592616666667","6502100","三芝區"
"236021","401-BY","2019/09/26 17:49:50","新北市土城區城林路6巷80號","121.438811666667","24.97965","6501300","土城區"
"236059","912-UM","2019/09/26 17:49:50","新北市土城區城林路6巷80號","121.438481666667","24.9796916666667","6501300","土城區"
"236049","913-UM","2019/09/26 17:49:53","新北市土城區中華路二段2號","121.438856666667","24.9798216666667","6501300","土城區"
"236063","915-UM","2019/09/26 17:49:39","新北市土城區城林路6巷80號","121.438621666667","24.97969","6501300","土城區"
"236055","AAC-216","2019/09/26 17:49:48","新北市土城區城林路6巷80號","121.438566666667","24.9796016666667","6501300","土城區"
"242042","AAC-296","2019/09/26 17:49:44","新北市泰山區新北大道六段365號","121.422403333333","25.032955","6500500","新莊區"
"242061","986-R7","2019/09/26 17:49:57","新北市新莊區瓊林南路269號","121.434391666667","25.0072283333333","6500500","新莊區"
"242004","751-BX","2019/09/26 17:49:49","新北市新莊區思源路177巷5弄6號","121.45914","25.0450166666667","6500500","新莊區"
"242029","615-BX","2019/09/26 17:50:00","新北市新莊區中平路40號","121.444796666667","25.0436666666667","6500500","新莊區"
"242027","613-BX","2019/09/26 17:49:59","新北市新莊區福壽街149號","121.45802","25.0530166666667","6500500","新莊區"
"242058","612-BX","2019/09/26 17:49:49","新北市新莊區壽山路700-17號","121.418278333333","25.0274283333333","6500500","新莊區"
"242048","566-BX","2019/09/26 17:49:52","新北市新莊區萬安街60巷3號","121.420691666667","25.0235466666667","6500500","新莊區"
"242053","497-BY","2019/09/26 17:49:56","新北市新莊區民安西路411號","121.430665","25.0087766666667","6500500","新莊區"
"242002","441-UM","2019/09/26 17:49:58","新北市新莊區景德路169號","121.450275","25.0340666666667","6500500","新莊區"
"242007","440-UM","2019/09/26 17:49:41","新北市新莊區福樂街106號","121.457416666667","25.0477283333333","6500500","新莊區"
"242044","415-TV","2019/09/26 17:49:54","新北市新莊區富國路76號","121.419958333333","25.0258283333333","6500500","新莊區"
"242013","413-TV","2019/09/26 17:49:59","新北市新莊區中和街82巷7號","121.448288333333","25.04662","6500500","新莊區"
"242051","400-BY","2019/09/26 17:49:43","新北市新莊區西盛街245巷19號","121.42887","25.0161816666667","6500500","新莊區"
"242025","362-BY","2019/09/26 17:49:47","新北市三重區中山路279號","121.471386666667","25.0615616666667","6500500","新莊區"
"242023","353-BY","2019/09/26 17:49:56","新北市新莊區福樂街42號","121.457755","25.0457016666667","6500500","新莊區"
"242015","132-UY","2019/09/26 17:49:42","新北市新莊區新泰路462號","121.443385","25.044935","6500500","新莊區"
"242039","135-UY","2019/09/26 17:49:42","新北市新莊區民安路138號","121.424221666667","25.0254533333333","6500500","新莊區"
"242056","172-VK","2019/09/26 17:49:47","新北市新莊區瓊林路40巷5號","121.447561666667","25.03019","6500500","新莊區"
"242017","173-VK","2019/09/26 17:49:40","新北市新莊區永安街70號","121.450996666667","25.04469","6500500","新莊區"
"242031","175-VK","2019/09/26 17:49:49","新北市新莊區新泰路357巷1弄1號","121.442865","25.041235","6500500","新莊區"
"242021","KED-0687","2019/09/26 17:49:44","新北市新莊區中港路134號","121.455191666667","25.0406733333333","6500500","新莊區"
"242046","347-TH","2019/09/26 17:49:43","新北市新莊區建國一路25號","121.434296666667","25.03153","6500500","新莊區"
"242036","348-TH","2019/09/26 17:49:55","新北市新莊區建福路59巷26號","121.427871666667","25.027575","6500500","新莊區"
"242009","349-TH","2019/09/26 17:49:45","新北市新莊區昌明街68號","121.455425","25.0521066666667","6500500","新莊區"
"242034","350-TH","2019/09/26 17:49:40","新北市新莊區新莊路664-2號","121.442153333333","25.0327633333333","6500500","新莊區"
"242019","351-TH","2019/09/26 17:49:58","新北市新莊區民樂街38號","121.457828333333","25.0410816666667","6500500","新莊區"
"238015","755-BX","2019/09/26 17:49:53","新北市樹林區復興路67號","121.421568333333","24.9929583333333","6500700","樹林區"
"238023","601-UM","2019/09/26 17:49:55","新北市樹林區龍興街32巷8號","121.402513333333","25.015805","6500700","樹林區"
"238019","599-UM","2019/09/26 17:49:49","新北市樹林區太平路88號","121.419093333333","24.9801683333333","6500700","樹林區"
"238018","KEA-2217","2019/09/26 17:49:48","新北市樹林區鎮前街53號","121.42519","24.9914283333333","6500700","樹林區"
"238022","KEA-2213","2019/09/26 17:49:54","新北市樹林區福順街59號","121.416083333333","24.9783416666667","6500700","樹林區"
"238021","KEA-2539","2019/09/26 17:50:00","新北市樹林區柑園街一段47號","121.403321666667","24.9601916666667","6500700","樹林區"
"238025","303-VK","2019/09/26 17:49:46","新北市樹林區俊興街199號","121.417335","25.0136266666667","6500700","樹林區"
"238017","283-BY","2019/09/26 17:49:49","新北市樹林區俊德街51號","121.415458333333","25.0132333333333","6500700","樹林區"
"238014","282-BY","2019/09/26 17:49:55","新北市樹林區大安路179號","121.42124","24.9962516666667","6500700","樹林區"
"238020","268-VK","2019/09/26 17:49:49","新北市樹林區俊英街109號","121.425008333333","25.0097883333333","6500700","樹林區"
"238026","172-UY","2019/09/26 17:49:48","新北市樹林區新興街19巷34弄14號","121.40199","24.9730383333333","6500700","樹林區"
"238016","169-UY","2019/09/26 17:49:53","新北市樹林區復興路314號","121.416673333333","24.9868816666667","6500700","樹林區"
"239007","AAC-297","2019/09/26 17:49:52","新北市鶯歌區鶯桃路122號","121.338456666667","24.9545683333333","6500800","鶯歌區"
"239006","891-R6","2019/09/26 17:49:58","新北市鶯歌區永和街115巷1號","121.333533333333","24.9687933333333","6500800","鶯歌區"
"239008","527-UM","2019/09/26 17:49:57","新北市鶯歌區大湖路642號","121.33415","24.97575","6500800","鶯歌區"
"239005","526-UM","2019/09/26 17:49:54","新北市鶯歌區鳳吉五街28號","121.327291666667","24.972555","6500800","鶯歌區"
"239001","417-VK","2019/09/26 17:49:38","新北市鶯歌區中正三路231號","121.334793333333","24.9391583333333","6500800","鶯歌區"
"239003","360-BY","2019/09/26 17:49:50","新北市鶯歌區永吉街46巷37號","121.334658333333","24.957585","6500800","鶯歌區"
"239002","359-BY","2019/09/26 17:50:00","新北市鶯歌區育德街23-2號","121.344405","24.9546383333333","6500800","鶯歌區"
"239004","193-VK","2019/09/26 17:49:48","新北市鶯歌區文化路393巷1號","121.3529","24.9505083333333","6500800","鶯歌區"
"221008","489-VK","2019/09/26 17:49:51","新北市汐止區康寧街901號","121.651491666667","25.0750666666667","6501100","汐止區"
"244019","KED-0667","2019/09/26 17:49:51","新北市林口區文化一路一段22巷17號","121.371406666667","25.0676383333333","6501700","林口區"
"221010","269-BY","2019/09/26 17:49:38","新北市汐止區汐萬路一段391號","121.649553333333","25.078625","6501100","汐止區"
"221023","279-VK","2019/09/26 17:49:55","新北市汐止區康寧街753巷2弄24號","121.640285","25.0746516666667","6501100","汐止區"
"221029","298-VK","2019/09/26 17:49:58","新北市汐止區康寧街901號","121.651618333333","25.0748766666667","6501100","汐止區"
"221031","353-TW","2019/09/26 17:49:47","新北市汐止區連峰街1巷1號","121.646678333333","25.0761033333333","6501100","汐止區"
"233001","KEA-2870","2019/09/26 17:49:54","新北市烏來區西羅岸路22號","121.549338333333","24.8673733333333","6502900","烏來區"
"242011","280-VK","2019/09/26 17:49:48","新北市新莊區中港路679號","121.45074","25.0561616666667","6500500","新莊區"
"235061","KEA-2875","2019/09/26 17:49:38","新北市中和區員山路36巷16-2號","121.485321666667","24.9916966666667","6500300","中和區"
"235062","KEA-2876","2019/09/26 17:49:52","新北市中和區員山路36巷16-3號","121.484961666667","24.99152","6500300","中和區"
