"lineid","car","time","location","longitude","latitude","cityid","cityname"
"234026","9371-KE","2019/09/26 18:09:55","新北市永和區自由街33號","121.514306666667","25.006345","6500400","永和區"
"249005","172-UM","2019/09/26 18:09:56","新北市八里區荖阡坑路15-40號","121.401688333333","25.13992","6502300","八里區"
"249001","173-UM","2019/09/26 18:09:57","新北市八里區龍米路二段26號","121.448698333333","25.1395566666667","6502300","八里區"
"249004","303-UY","2019/09/26 18:09:44","新北市八里區龍米路二段156號","121.435528333333","25.157405","6502300","八里區"
"249002","305-UY","2019/09/26 18:09:55","新北市八里區龍米路一段356巷46號","121.45214","25.1303483333333","6502300","八里區"
"249003","593-UM","2019/09/26 18:09:48","新北市八里區商港路48號","121.396043333333","25.1452283333333","6502300","八里區"
"248016","026-BX","2019/09/26 18:09:45","新北市五股區成泰路三段145號","121.444845","25.0913266666667","6501500","五股區"
"248006","077-UY","2019/09/26 18:09:56","新北市五股區中興路二段2號","121.463336666667","25.074205","6501500","五股區"
"248008","KED-0815","2019/09/26 18:09:42","新北市蘆洲區永安南路二段298號","121.457235","25.0820083333333","6501500","五股區"
"248020","KED-0813","2019/09/26 18:09:55","新北市五股區成泰路四段2號","121.452818333333","25.106155","6501500","五股區"
"248014","261-SL","2019/09/26 18:09:58","新北市五股區成泰路一段189巷29號","121.433516666667","25.0763533333333","6501500","五股區"
"248004","677-BX","2019/09/26 18:09:55","新北市五股區中興路四段61號","121.43787","25.0828966666667","6501500","五股區"
"248002","678-BX","2019/09/26 18:09:43","新北市五股區中興路三段192號","121.442356666667","25.0818183333333","6501500","五股區"
"248010","682-TV","2019/09/26 18:09:46","新北市五股區成泰路一段198號","121.435871666667","25.0786566666667","6501500","五股區"
"232011","076-UY","2019/09/26 18:09:56","新北市坪林區國中路3號","121.712911666667","24.9370833333333","6502000","坪林區"
"244007","080-UY","2019/09/26 18:09:42","新北市林口區林口路113巷47號","121.38793","25.0799033333333","6501700","林口區"
"244013","KEA-2802","2019/09/26 18:09:42","新北市林口區中山路202-1號","121.387756666667","25.0791566666667","6501700","林口區"
"244023","483-VK","2019/09/26 18:09:42","新北市林口區東湖路117巷2號","121.38324","25.07269","6501700","林口區"
"244017","485-VK","2019/09/26 18:09:56","新北市林口區公園路6號","121.366291666667","25.0663633333333","6501700","林口區"
"244009","656-BX","2019/09/26 18:09:49","新北市林口區文化二路二段166號","121.380206666667","25.0835183333333","6501700","林口區"
"244011","701-TV","2019/09/26 18:09:55","新北市林口區新生街22號","121.39407","25.0765766666667","6501700","林口區"
"244025","837-TS","2019/09/26 18:09:37","新北市林口區文化北路一段220號","121.358186666667","25.0709566666667","6501700","林口區"
"244021","838-TS","2019/09/26 18:09:37","新北市林口區自強七街1號","121.4003","25.0767233333333","6501700","林口區"
"243013","646-TV","2019/09/26 18:09:51","新北市泰山區犁頭窠16號","121.421136666667","25.0525666666667","6501600","泰山區"
"222003","436-BY","2019/09/26 18:09:47","新北市深坑區文山路三段15號","121.612831666667","24.9980166666667","6501800","深坑區"
"222002","659-BX","2019/09/26 18:09:41","新北市深坑區文化街42號","121.61906","25.0016816666667","6501800","深坑區"
"231055","0291-UT","2019/09/26 18:09:52","新北市新店區安華路28-1號","121.519598333333","24.9606683333333","6500600","新店區"
"231044","046-UY","2019/09/26 18:09:47","新北市新店區安華路28-1號","121.519446666667","24.9608283333333","6500600","新店區"
"231060","106-UY","2019/09/26 18:09:53","新北市新店區安華路28-1號","121.519846666667","24.9606666666667","6500600","新店區"
"231042","268-BY","2019/09/26 18:09:57","新北市新店區安一路一段1-1號","121.519683333333","24.9613016666667","6500600","新店區"
"231064","278-BY","2019/09/26 18:09:53","新北市新店區安一路一段1-1號","121.51964","24.9611333333333","6500600","新店區"
"231050","AAD-862","2019/09/26 18:09:49","新北市新店區安一路一段1-1號","121.519988333333","24.9612116666667","6500600","新店區"
"231045","355-BY","2019/09/26 18:09:53","新北市新店區安華路28-1號","121.519126666667","24.9608916666667","6500600","新店區"
"231058","3713-VJ","2019/09/26 18:09:39","新北市新店區安華路28-1號","121.519061666667","24.9606583333333","6500600","新店區"
"231041","619-UM","2019/09/26 18:09:44","新北市新店區安華路28-1號","121.519663333333","24.9608","6500600","新店區"
"231063","641-BX","2019/09/26 18:09:44","新北市新店區安華路28-1號","121.519566666667","24.9605583333333","6500600","新店區"
"231057","720-UM","2019/09/26 18:09:57","新北市新店區安一路一段1-1號","121.519245","24.9610866666667","6500600","新店區"
"231040","898-TW","2019/09/26 18:09:46","新北市新店區安華路28-1號","121.519491666667","24.960935","6500600","新店區"
"235063","006-UY","2019/09/26 18:09:44","新北市中和區中正路589巷15號","121.485605","24.9935016666667","6500300","中和區"
"235039","097-UM","2019/09/26 18:09:48","新北市中和區錦和路350-1號","121.490095","24.9935683333333","6500300","中和區"
"235065","098-UM","2019/09/26 18:09:43","新北市中和區橋和路60號","121.48945","25.0051916666667","6500300","中和區"
"235040","150-BY","2019/09/26 18:09:50","新北市中和區中正路273號","121.495703333333","24.9936316666667","6500300","中和區"
"235058","151-BY","2019/09/26 18:09:54","新北市中和區圓通路367巷60號","121.49166","24.9843116666667","6500300","中和區"
"235055","183-VK","2019/09/26 18:09:48","新北市中和區中正路637巷52弄11號","121.484751666667","24.9936966666667","6500300","中和區"
"235038","185-VK","2019/09/26 18:09:48","新北市中和區景平路148號","121.518135","24.9920483333333","6500300","中和區"
"235072","301-VK","2019/09/26 18:09:45","新北市中和區中正路466號","121.490023333333","24.99418","6500300","中和區"
"235043","352-BY","2019/09/26 18:09:44","新北市中和區錦和路350-1號","121.490536666667","24.99358","6500300","中和區"
"235042","KEA-2878","2019/09/26 18:09:37","新北市中和區中正路266-1號","121.495343333333","24.9939033333333","6500300","中和區"
"235070","558-UM","2019/09/26 18:09:58","新北市中和區圓通路158巷1弄1號","121.497665","24.99577","6500300","中和區"
"235045","565-BX","2019/09/26 18:09:58","新北市中和區景安路200巷1弄2號","121.503738333333","24.9914266666667","6500300","中和區"
"235060","KED-0823","2019/09/26 18:09:55","新北市中和區員山路107號","121.480835","24.9945583333333","6500300","中和區"
"235054","640-BX","2019/09/26 18:09:49","新北市土城區延壽路117號","121.46901","24.994275","6500300","中和區"
"235047","732-UM","2019/09/26 18:09:48","新北市中和區中正路395號","121.489676666667","24.9941266666667","6500300","中和區"
"235046","733-UM","2019/09/26 18:09:27","新北市中和區員山路36巷13號","121.484275","24.9909016666667","6500300","中和區"
"235057","801-TS","2019/09/26 18:09:42","新北市中和區民享街97巷12號","121.475273333333","24.99957","6500300","中和區"
"235041","802-TS","2019/09/26 18:09:51","新北市中和區和城路一段271巷1號","121.4855","24.99161","6500300","中和區"
"235052","805-TS","2019/09/26 18:09:42","新北市中和區中正路13號","121.503018333333","24.993385","6500300","中和區"
"235048","896-TW","2019/09/26 18:09:42","新北市中和區員山路36巷16-2號","121.48521","24.99171","6500300","中和區"
"235053","900-TW","2019/09/26 18:09:55","新北市中和區員山路36巷16-2號","121.485281666667","24.99152","6500300","中和區"
"235064","911-UM","2019/09/26 18:09:53","新北市中和區圓通路169號","121.497671666667","24.9954233333333","6500300","中和區"
"235051","157-BY","2019/09/26 18:09:47","新北市中和區南山路287號","121.504355","24.9921033333333","6500300","中和區"
"235037","AAC-213","2019/09/26 18:09:47","新北市中和區景德街52號","121.5176","24.9915516666667","6500300","中和區"
"247012","337-TH","2019/09/26 18:09:47","新北市蘆洲區三民路50號","121.475405","25.08315","6501400","蘆洲區"
"226004","312-R5","2019/09/26 18:09:54","新北市平溪區薯榔里薯榔寮81-4號","121.717076666667","25.020155","6502400","平溪區"
"228003","097-TW","2019/09/26 18:09:57","新北市貢寮區真理里美艷山街6-2號","121.928816666667","25.060785","6502600","貢寮區"
"228001","212-TW","2019/09/26 18:09:57","新北市貢寮區真理里新港街26巷55弄2-1號","121.927395","25.0528733333333","6502600","貢寮區"
"228002","663-BX","2019/09/26 18:09:49","新北市貢寮區福連里福連街34號","121.988305","25.0116033333333","6502600","貢寮區"
"224006","676-BX","2019/09/26 18:09:54","新北市瑞芳區中山路209號","121.801233333333","25.1066966666667","6501200","瑞芳區"
"224002","639-TC","2019/09/26 18:09:46","新北市瑞芳區三爪子坑路106巷1-8號","121.80844","25.1053166666667","6501200","瑞芳區"
"224007","285-BY","2019/09/26 18:09:59","新北市瑞芳區四腳亭坑路8號","121.77778","25.109685","6501200","瑞芳區"
"224009","275-VK","2019/09/26 18:09:44","新北市瑞芳區金光路280號","121.853191666667","25.1074066666667","6501200","瑞芳區"
"224008","273-VK","2019/09/26 18:09:51","新北市瑞芳區員山子路23號","121.821371666667","25.10304","6501200","瑞芳區"
"224005","271-BY","2019/09/26 18:09:43","新北市瑞芳區建基路二段10號","121.815425","25.128515","6501200","瑞芳區"
"227001","642-TC","2019/09/26 18:09:52","新北市雙溪區三貂里定福路1-2號","121.85064","25.0633966666667","6502500","雙溪區"
"227002","400-TW","2019/09/26 18:09:46","新北市雙溪區共和里東榮街42號","121.866261666667","25.03377","6502500","雙溪區"
"253005","032-BX","2019/09/26 18:09:47","新北市石門區福安街1號","121.5683","25.2929883333333","6502200","石門區"
"253006","295-VK","2019/09/26 18:09:50","新北市石門區老梅路52巷21號","121.54636","25.288335","6502200","石門區"
"222001","KEA-2212","2019/09/26 18:09:42","新北市深坑區北深路二段186號","121.613998333333","25.00232","6501800","深坑區"
"208002","KEA-2872","2019/09/26 18:09:54","新北市金山區法鼓路93號","121.624691666667","25.2338983333333","6502700","金山區"
"208003","665-BX","2019/09/26 18:09:44","新北市金山區民生路202號","121.644485","25.22191","6502700","金山區"
"251004","009-UM","2019/09/26 18:09:41","新北市淡水區民族路110巷43弄7號","121.461465","25.1350416666667","6501000","淡水區"
"251002","012-UM","2019/09/26 18:09:44","新北市淡水區中正東路40-7號","121.450218333333","25.164975","6501000","淡水區"
"251015","KEA-2871","2019/09/26 18:09:49","新北市淡水區興福寮88巷1號","121.485386666667","25.1649033333333","6501000","淡水區"
"251016","179-VK","2019/09/26 18:09:54","新北市淡水區下圭柔山13號","121.451375","25.2010166666667","6501000","淡水區"
"251013","180-VK","2019/09/26 18:09:45","新北市淡水區竹圍子12號","121.47643","25.1936766666667","6501000","淡水區"
"251008","181-VK","2019/09/26 18:09:55","新北市淡水區中正東路二段45號","121.45949","25.156065","6501000","淡水區"
"251010","413-VK","2019/09/26 18:09:47","新北市淡水區淡海路165巷6號","121.420293333333","25.183535","6501000","淡水區"
"251012","441-VK","2019/09/26 18:09:39","新北市淡水區泉洲厝13-1號","121.48849","25.190105","6501000","淡水區"
"251005","443-VK","2019/09/26 18:09:55","新北市淡水區水源街一段141號","121.447261666667","25.1718733333333","6501000","淡水區"
"251001","559-UM","2019/09/26 18:09:56","新北市淡水區自立路10號","121.463036666667","25.1297616666667","6501000","淡水區"
"251006","561-UM","2019/09/26 18:09:52","新北市淡水區真理街3巷20號","121.437545","25.1760733333333","6501000","淡水區"
"251009","575-R6","2019/09/26 18:09:43","新北市淡水區大仁街6巷19號","121.442911666667","25.175055","6501000","淡水區"
"251014","577-R6","2019/09/26 18:09:44","新北市淡水區南平14號","121.485481666667","25.2209566666667","6501000","淡水區"
"251011","650-BX","2019/09/26 18:09:45","新北市淡水區三空泉6-3號","121.476995","25.162345","6501000","淡水區"
"251003","766-UM","2019/09/26 18:09:40","新北市淡水區大忠街113巷10號","121.446951666667","25.17756","6501000","淡水區"
"207003","550-UM","2019/09/26 18:09:55","新北市萬里區港東路野柳風景區攤販66號","121.69134","25.2058683333333","6502800","萬里區"
"207004","291-VK","2019/09/26 18:09:42","新北市萬里區中幅里中福路94號","121.675581666667","25.17024","6502800","萬里區"
"252002","178-VK","2019/09/26 18:09:44","新北市三芝區中山路二段39號","121.502941666667","25.2551283333333","6502100","三芝區"
"252003","249-BX","2019/09/26 18:09:48","新北市三芝區埔頭里埔頭37號","121.498525","25.2603866666667","6502100","三芝區"
"208001","170-UY","2019/09/26 18:09:44","新北市金山區磺港里磺港路105號","121.646706666667","25.2270716666667","6502700","金山區"
"237004","KEA-2597","2019/09/26 18:09:44","新北市三峽區大埔路146號","121.365818333333","24.8998966666667","6500900","三峽區"
"237007","153-BY","2019/09/26 18:09:54","新北市三峽區中正路二段370巷22號","121.364826666667","24.9107083333333","6500900","三峽區"
"237009","210-TH","2019/09/26 18:09:52","新北市三峽區大仁路53號","121.365358333333","24.937455","6500900","三峽區"
"237013","252-BX","2019/09/26 18:09:50","新北市三峽區長泰街76號","121.37678","24.9331183333333","6500900","三峽區"
"237012","275-BY","2019/09/26 18:09:48","新北市三峽區民生街1巷6-7號","121.377291666667","24.93606","6500900","三峽區"
"237008","302-VK","2019/09/26 18:09:54","新北市三峽區白雞54號","121.382908333333","24.91041","6500900","三峽區"
"237014","433-BY","2019/09/26 18:09:49","新北市三峽區國光街63巷2號","121.37392","24.9380966666667","6500900","三峽區"
"237006","5529-G3","2019/09/26 18:09:46","新北市三峽區溪東路34巷19號","121.400226666667","24.9342883333333","6500900","三峽區"
"237011","KEA-2596","2019/09/26 18:09:49","新北市三峽區大同路10號","121.378303333333","24.9299333333333","6500900","三峽區"
"237015","649-BX","2019/09/26 18:09:53","新北市三峽區紫新路47號","121.42219","24.9217766666667","6500900","三峽區"
"237010","706-TV","2019/09/26 18:09:37","新北市三峽區中園街3號","121.368603333333","24.9275033333333","6500900","三峽區"
"237005","AKY-6261","2019/09/26 18:10:01","新北市三峽區忠孝街15號","121.37086","24.9342933333333","6500900","三峽區"
"236042","KED-0685","2019/09/26 18:09:38","新北市土城區城林路6巷80號","121.438308333333","24.9794433333333","6501300","土城區"
"233002","762-BX","2019/09/26 18:09:53","新北市烏來區天仁7-1號","121.542448333333","24.8826233333333","6502900","烏來區"
"236078","166-UM","2019/09/26 18:09:57","新北市土城區永寧路41號","121.430083333333","24.96198","6501300","土城區"
"236030","253-BX","2019/09/26 18:09:47","新北市土城區城林路6巷80號","121.438668333333","24.97964","6501300","土城區"
"236026","269-VK","2019/09/26 18:09:55","新北市土城區承天路18號","121.439488333333","24.9634433333333","6501300","土城區"
"236014","270-VK","2019/09/26 18:09:48","新北市土城區學府路一段40號","121.458003333333","24.98854","6501300","土城區"
"236038","271-VK","2019/09/26 18:09:43","新北市土城區青雲路449號","121.458795","24.9748916666667","6501300","土城區"
"236070","KEA-2877","2019/09/26 18:09:59","新北市土城區青雲路605巷6號","121.459486666667","24.9693183333333","6501300","土城區"
"252001","KED-0821","2019/09/26 18:09:55","新北市三芝區中興街二段2號","121.498311666667","25.2567116666667","6502100","三芝區"
"236021","401-BY","2019/09/26 18:09:50","新北市土城區員福街50號","121.440703333333","24.97902","6501300","土城區"
"236059","912-UM","2019/09/26 18:09:41","新北市土城區中央路四段45-1號","121.422311666667","24.961885","6501300","土城區"
"236049","913-UM","2019/09/26 18:09:47","新北市土城區明德路一段365-1號","121.453545","24.97905","6501300","土城區"
"236063","915-UM","2019/09/26 18:09:39","新北市土城區城林路6巷80號","121.438511666667","24.97998","6501300","土城區"
"236055","AAC-216","2019/09/26 18:09:48","新北市土城區中華路二段92號","121.438225","24.9747383333333","6501300","土城區"
"242042","AAC-296","2019/09/26 18:09:50","新北市新莊區天祥街129號","121.4142","25.0298733333333","6500500","新莊區"
"242061","986-R7","2019/09/26 18:09:50","新北市新莊區新樹路295-5號","121.433758333333","25.0199066666667","6500500","新莊區"
"242004","751-BX","2019/09/26 18:09:49","新北市新莊區自立街83號","121.454731666667","25.0454616666667","6500500","新莊區"
"242029","615-BX","2019/09/26 18:09:40","新北市泰山區泰林路一段2-1號","121.441968333333","25.0479333333333","6500500","新莊區"
"242027","613-BX","2019/09/26 18:09:43","新北市新莊區幸福路561號","121.45437","25.0492216666667","6500500","新莊區"
"242058","612-BX","2019/09/26 18:09:49","新北市新莊區壽山路47號","121.414395","25.030915","6500500","新莊區"
"242048","566-BX","2019/09/26 18:09:56","新北市新莊區富國路106號","121.421758333333","25.02524","6500500","新莊區"
"242053","497-BY","2019/09/26 18:09:42","新北市新莊區西盛街395巷37弄12號","121.42876","25.011755","6500500","新莊區"
"242002","441-UM","2019/09/26 18:09:59","新北市新莊區新莊路60號","121.457776666667","25.0367566666667","6500500","新莊區"
"242007","440-UM","2019/09/26 18:09:57","新北市新莊區自立街62號","121.454053333333","25.0454233333333","6500500","新莊區"
"242044","415-TV","2019/09/26 18:09:54","新北市新莊區雙鳳路135號","121.412935","25.0274333333333","6500500","新莊區"
"242013","413-TV","2019/09/26 18:09:40","新北市新莊區新樹路69-65號","121.442106666667","25.0292483333333","6500500","新莊區"
"242051","400-BY","2019/09/26 18:09:43","新北市新莊區民本街11巷2弄27號","121.429118333333","25.020025","6500500","新莊區"
"242025","362-BY","2019/09/26 18:09:47","新北市新莊區五權一路13-3號","121.459956666667","25.0682216666667","6500500","新莊區"
"242015","132-UY","2019/09/26 18:09:42","新北市新莊區中平路152巷45號","121.44669","25.0475166666667","6500500","新莊區"
"242039","135-UY","2019/09/26 18:09:42","新北市新莊區民安東路19號","121.428083333333","25.02099","6500500","新莊區"
"242056","172-VK","2019/09/26 18:09:55","新北市新莊區豐年街豐2巷18號","121.447293333333","25.03071","6500500","新莊區"
"242017","173-VK","2019/09/26 18:09:49","新北市新莊區永樂街43號","121.451461666667","25.0450116666667","6500500","新莊區"
"242031","175-VK","2019/09/26 18:09:51","新北市新莊區新泰路277巷17號","121.44506","25.0403116666667","6500500","新莊區"
"242021","KED-0687","2019/09/26 18:09:44","新北市新莊區新興街96號","121.450668333333","25.038555","6500500","新莊區"
"242046","347-TH","2019/09/26 18:09:51","新北市新莊區福營路279號","121.427375","25.0294483333333","6500500","新莊區"
"242036","348-TH","2019/09/26 18:09:55","新北市新莊區後港一路31巷1弄1號","121.425206666667","25.02625","6500500","新莊區"
"242009","349-TH","2019/09/26 18:09:45","新北市新莊區中華路二段298號","121.453066666667","25.05378","6500500","新莊區"
"242034","350-TH","2019/09/26 18:09:40","新北市新莊區福海街24巷5號","121.445738333333","25.0341833333333","6500500","新莊區"
"242019","351-TH","2019/09/26 18:09:58","新北市新莊區中港路137號","121.45517","25.0404816666667","6500500","新莊區"
"238015","755-BX","2019/09/26 18:09:53","新北市樹林區文德街2巷2號","121.419505","24.9912816666667","6500700","樹林區"
"238023","601-UM","2019/09/26 18:09:55","新北市樹林區忠信街15號","121.40767","25.0149516666667","6500700","樹林區"
"238018","KEA-2217","2019/09/26 18:06:20","新北市樹林區樹新路209-3號","121.42985","24.9981766666667","6500700","樹林區"
"238022","KEA-2213","2019/09/26 18:09:54","新北市樹林區太順街111號","121.414638333333","24.9770383333333","6500700","樹林區"
"238021","KEA-2539","2019/09/26 18:09:40","新北市樹林區柑園街二段88-1號","121.386408333333","24.95504","6500700","樹林區"
"238025","303-VK","2019/09/26 18:09:46","新北市樹林區保安街二段2-3號","121.416175","25.00038","6500700","樹林區"
"238017","283-BY","2019/09/26 18:09:49","新北市樹林區中正路714號","121.409101666667","25.017845","6500700","樹林區"
"238014","282-BY","2019/09/26 18:09:50","新北市樹林區潭興街89號","121.424673333333","24.9983366666667","6500700","樹林區"
"238020","268-VK","2019/09/26 18:09:57","新北市樹林區三龍街131號","121.417921666667","25.018255","6500700","樹林區"
"238026","172-UY","2019/09/26 18:09:48","新北市樹林區佳園路一段50號","121.392833333333","24.97064","6500700","樹林區"
"238016","169-UY","2019/09/26 18:09:53","新北市樹林區文化街18號","121.419685","24.9875366666667","6500700","樹林區"
"239007","AAC-297","2019/09/26 18:09:52","新北市鶯歌區尖山埔路173號","121.345773333333","24.95072","6500800","鶯歌區"
"239006","891-R6","2019/09/26 18:09:38","新北市鶯歌區鶯桃路455巷4弄4號","121.331973333333","24.9650783333333","6500800","鶯歌區"
"239008","527-UM","2019/09/26 18:09:57","新北市鶯歌區朝陽街61巷35號","121.33902","24.977715","6500800","鶯歌區"
"239005","526-UM","2019/09/26 18:09:55","新北市鶯歌區鶯桃路668巷73號","121.329943333333","24.9717966666667","6500800","鶯歌區"
"239001","417-VK","2019/09/26 18:09:58","新北市鶯歌區中正三路460-2號","121.32131","24.9343416666667","6500800","鶯歌區"
"239003","360-BY","2019/09/26 18:09:51","新北市鶯歌區福安街30號","121.334603333333","24.9640933333333","6500800","鶯歌區"
"239002","359-BY","2019/09/26 18:09:39","新北市鶯歌區光明街35號","121.348161666667","24.9558133333333","6500800","鶯歌區"
"221008","489-VK","2019/09/26 18:09:50","新北市汐止區明峰街218號","121.626676666667","25.068725","6501100","汐止區"
"221036","130-UY","2019/09/26 18:09:45","新北市汐止區大同路三段116號","121.672045","25.07676","6501100","汐止區"
"221015","131-UY","2019/09/26 18:09:42","新北市汐止區長江街271號","121.664566666667","25.080585","6501100","汐止區"
"244019","KED-0667","2019/09/26 18:09:51","新北市林口區麗園路89號","121.373105","25.0687333333333","6501700","林口區"
"221010","269-BY","2019/09/26 18:09:58","新北市汐止區汐萬路二段275巷1弄25號","121.646226666667","25.088105","6501100","汐止區"
"221012","278-VK","2019/09/26 18:09:41","新北市汐止區長興街二段50巷25號","121.674531666667","25.0811783333333","6501100","汐止區"
"221023","279-VK","2019/09/26 18:09:55","新北市汐止區民族六街2巷24號","121.628225","25.0702883333333","6501100","汐止區"
"221032","280-BY","2019/09/26 18:09:49","新北市汐止區橫科路73巷2-1號","121.619368333333","25.05083","6501100","汐止區"
"221029","298-VK","2019/09/26 18:09:38","新北市汐止區樟樹二路134號","121.64","25.06568","6501100","汐止區"
"221021","299-VK","2019/09/26 18:09:44","新北市汐止區復興路23號","121.656161666667","25.0652583333333","6501100","汐止區"
"221031","353-TW","2019/09/26 18:09:47","新北市汐止區中興路167號","121.630966666667","25.066295","6501100","汐止區"
"221035","622-UM","2019/09/26 18:09:58","新北市汐止區汐萬路一段115巷36號","121.653353333333","25.070255","6501100","汐止區"
"221025","623-UM","2019/09/26 18:09:39","新北市汐止區秀峰路139號","121.66028","25.0623366666667","6501100","汐止區"
"221038","646-BX","2019/09/26 18:09:51","新北市汐止區南興路87號","121.65301","25.0589","6501100","汐止區"
"221033","647-BX","2019/09/26 18:09:58","新北市汐止區宜興街10巷19號","121.621985","25.040775","6501100","汐止區"
"221002","707-TV","2019/09/26 18:10:00","新北市汐止區福德一路208號","121.634571666667","25.0652466666667","6501100","汐止區"
"221018","753-BX","2019/09/26 18:09:37","新北市汐止區招商街19巷21號","121.66774","25.0684733333333","6501100","汐止區"
"233001","KEA-2870","2019/09/26 18:09:54","新北市烏來區新烏路五段69號","121.547168333333","24.8746183333333","6502900","烏來區"
"242011","280-VK","2019/09/26 18:09:48","新北市新莊區中信街94巷11號","121.448511666667","25.0536466666667","6500500","新莊區"
"235061","KEA-2875","2019/09/26 18:09:38","新北市中和區國光街215巷24弄10號","121.466675","25.000105","6500300","中和區"
"235062","KEA-2876","2019/09/26 18:09:52","新北市中和區景平路999巷2號","121.495375","25.00597","6500300","中和區"
