"lineid","car","time","location","longitude","latitude","cityid","cityname"
"234046","148-BY","2019/09/26 18:49:59","新北市永和區秀朗路二段169-1號","121.525461666667","25.00157","6500400","永和區"
"234081","298-R6","2019/09/26 18:49:50","新北市永和區林森路68號","121.52384","25.0039833333333","6500400","永和區"
"234038","336-UY","2019/09/26 18:49:48","新北市永和區成功路一段62號","121.526966666667","25.00378","6500400","永和區"
"234064","337-UY","2019/09/26 18:49:49","新北市永和區環河東路二段92號","121.524416666667","25.0106166666667","6500400","永和區"
"234086","338-UY","2019/09/26 18:49:42","新北市永和區中正路77號","121.515105","24.996865","6500400","永和區"
"234017","745-BX","2019/09/26 18:49:43","新北市永和區永和路二段297號","121.516053333333","25.0160516666667","6500400","永和區"
"234030","746-BX","2019/09/26 18:49:47","新北市永和區得和路321號","121.52336","24.9996166666667","6500400","永和區"
"234054","KEA-2590","2019/09/26 18:49:46","新北市永和區豫溪街185號","121.522455","25.01041","6500400","永和區"
"234007","KED-0605","2019/09/26 18:49:58","新北市永和區文化路146號","121.512665","25.015325","6500400","永和區"
"234013","KEA-2591","2019/09/26 18:49:48","新北市永和區保福路二段133巷20號","121.509191666667","25.0136283333333","6500400","永和區"
"234061","AAD-866","2019/09/26 18:49:40","新北市永和區福和路309巷1號","121.516258333333","25.0070516666667","6500400","永和區"
"234042","862-TW","2019/09/26 18:49:44","新北市永和區永貞路308號","121.511821666667","25.0048416666667","6500400","永和區"
"234026","9371-KE","2019/09/26 18:49:55","新北市永和區自由街58號","121.51379","25.006","6500400","永和區"
"234011","9373-KE","2019/09/26 18:49:50","新北市永和區文化路126巷10弄2號","121.513101666667","25.0158516666667","6500400","永和區"
"249005","172-UM","2019/09/26 18:49:56","新北市八里區長道坑15號","121.395111666667","25.1186716666667","6502300","八里區"
"249001","173-UM","2019/09/26 18:49:37","新北市八里區龍米路二段123號","121.44677","25.1444783333333","6502300","八里區"
"249004","303-UY","2019/09/26 18:49:44","新北市八里區中山路一段150巷76號","121.41607","25.1601216666667","6502300","八里區"
"249003","593-UM","2019/09/26 18:33:48","新北市八里區博物館路10-1號","121.41509","25.1639716666667","6502300","八里區"
"248016","026-BX","2019/09/26 18:49:59","新北市五股區成泰路三段543巷52號","121.449891666667","25.102945","6501500","五股區"
"248006","077-UY","2019/09/26 18:49:59","新北市五股區中興路一段24號","121.468875","25.07246","6501500","五股區"
"248008","KED-0815","2019/09/26 18:49:42","新北市五股區中興路一段132號","121.465256666667","25.0735666666667","6501500","五股區"
"248020","KED-0813","2019/09/26 18:49:55","新北市五股區凌雲路三段45-1號","121.427911666667","25.1194516666667","6501500","五股區"
"248012","247-BX","2019/09/26 18:49:47","新北市五股區成泰路二段147巷23-15號","121.437613333333","25.0872533333333","6501500","五股區"
"248004","677-BX","2019/09/26 18:49:55","新北市五股區民義路二段52-22號","121.409458333333","25.1052866666667","6501500","五股區"
"248002","678-BX","2019/09/26 18:49:43","新北市五股區成泰路三段454號","121.45141","25.1003566666667","6501500","五股區"
"248010","682-TV","2019/09/26 18:49:46","新北市五股區水碓九路35號","121.428783333333","25.0720183333333","6501500","五股區"
"234023","9380-KE","2019/09/26 18:49:48","新北市永和區竹林路119巷45號","121.521925","25.011845","6500400","永和區"
"234077","969-R7","2019/09/26 18:49:48","新北市永和區中正路42巷6弄1號","121.513296666667","24.9941633333333","6500400","永和區"
"234067","AAC-212","2019/09/26 18:49:45","新北市永和區中和路625號","121.513035","25.0049033333333","6500400","永和區"
"234003","AAC-295","2019/09/26 18:49:56","新北市永和區中正路659號","121.51477","25.01025","6500400","永和區"
"232011","076-UY","2019/09/26 18:49:56","新北市坪林區坪林街55號","121.71143","24.93757","6502000","坪林區"
"244007","080-UY","2019/09/26 18:49:42","新北市林口區太平里23-3號","121.376275","25.1154033333333","6501700","林口區"
"244013","KEA-2802","2019/09/26 18:49:42","新北市林口區麗園二街1巷9號","121.378866666667","25.0703866666667","6501700","林口區"
"244023","483-VK","2019/09/26 18:49:42","新北市林口區吉祥路178號","121.376638333333","25.0805266666667","6501700","林口區"
"244017","485-VK","2019/09/26 18:49:57","新北市林口區文化二路一段120巷8-3號","121.367698333333","25.0695766666667","6501700","林口區"
"244009","656-BX","2019/09/26 18:49:49","新北市林口區竹林路446號","121.38832","25.08533","6501700","林口區"
"244011","701-TV","2019/09/26 18:49:55","新北市林口區仁愛路一段285巷62號","121.395421666667","25.0743183333333","6501700","林口區"
"244025","837-TS","2019/09/26 18:49:57","新北市林口區南勢街200號","121.360033333333","25.074855","6501700","林口區"
"244021","838-TS","2019/09/26 18:49:57","新北市林口區粉寮路二段27-1號","121.400595","25.0851533333333","6501700","林口區"
"243010","297-R6","2019/09/26 18:49:54","新北市泰山區辭修路48號","121.428536666667","25.0572033333333","6501600","泰山區"
"243014","KEA-2801","2019/09/26 18:49:44","新北市泰山區犁頭窠3-1號","121.422281666667","25.0605333333333","6501600","泰山區"
"243016","421-VK","2019/09/26 18:49:53","新北市泰山區明志路一段510號","121.430273333333","25.0541383333333","6501600","泰山區"
"243015","680-BX","2019/09/26 18:49:51","新北市泰山區美寧街50號","121.430523333333","25.0644866666667","6501600","泰山區"
"222003","436-BY","2019/09/26 18:49:47","新北市深坑區深南路56號","121.619855","25.00916","6501800","深坑區"
"222002","659-BX","2019/09/26 18:49:41","新北市深坑區文山路一段69號","121.627041666667","25.001925","6501800","深坑區"
"231061","002-UM","2019/09/26 18:49:52","新北市新店區安華路28-1號","121.519641666667","24.96091","6500600","新店區"
"231055","0291-UT","2019/09/26 18:49:52","新北市新店區中華路47巷2弄1號","121.539676666667","24.967575","6500600","新店區"
"231044","046-UY","2019/09/26 18:49:47","新北市新店區中正路30號","121.545151666667","24.9697666666667","6500600","新店區"
"231060","106-UY","2019/09/26 18:49:53","新北市新店區安華路28-1號","121.51965","24.9610116666667","6500600","新店區"
"231051","107-UY","2019/09/26 18:49:48","新北市新店區中央路81號","121.532135","24.97664","6500600","新店區"
"231049","108-UY","2019/09/26 18:49:44","新北市新店區中央路216-1號","121.52992","24.9732633333333","6500600","新店區"
"231065","110-UY","2019/09/26 18:49:50","新北市新店區安康路二段458號","121.494058333333","24.9540033333333","6500600","新店區"
"231062","256-BX","2019/09/26 18:49:59","新北市新店區安一路一段1-1號","121.519681666667","24.9611733333333","6500600","新店區"
"231042","268-BY","2019/09/26 18:49:57","新北市新店區安康路一段17號","121.533061666667","24.9603316666667","6500600","新店區"
"231064","278-BY","2019/09/26 18:49:53","新北市新店區安一路一段1-1號","121.519688333333","24.961085","6500600","新店區"
"231050","AAD-862","2019/09/26 18:49:49","新北市新店區秀山路66號","121.530806666667","24.9609883333333","6500600","新店區"
"231045","355-BY","2019/09/26 18:49:54","新北市新店區安華路28-1號","121.51915","24.960875","6500600","新店區"
"231058","3713-VJ","2019/09/26 18:49:39","新北市新店區北宜路一段168號","121.540426666667","24.9529933333333","6500600","新店區"
"231056","4715-K9","2019/09/26 18:49:53","新北市新店區建國路128巷3號","121.539026666667","24.9793666666667","6500600","新店區"
"231067","4772-VM","2019/09/26 18:49:47","新北市新店區安華路28-1號","121.519278333333","24.9606183333333","6500600","新店區"
"231052","512-UM","2019/09/26 18:49:41","新北市新店區新烏路一段105巷1號","121.546338333333","24.9411216666667","6500600","新店區"
"231041","619-UM","2019/09/26 18:49:44","新北市新店區安一路一段1-1號","121.519503333333","24.9611216666667","6500600","新店區"
"231063","641-BX","2019/09/26 18:49:44","新北市新店區安華路1-1號","121.519458333333","24.9603366666667","6500600","新店區"
"231047","KED-0819","2019/09/26 18:49:49","新北市新店區北新路一段140號","121.54251","24.9704733333333","6500600","新店區"
"231046","719-UM","2019/09/26 18:49:42","新北市新店區直潭路85號","121.531936666667","24.94207","6500600","新店區"
"231057","720-UM","2019/09/26 18:49:57","新北市新店區新烏路一段201號","121.548446666667","24.9318133333333","6500600","新店區"
"231059","897-TW","2019/09/26 18:49:37","新北市新店區安華路28-1號","121.519516666667","24.9609533333333","6500600","新店區"
"231040","898-TW","2019/09/26 18:49:46","新北市新店區秀山路72號","121.531345","24.9608866666667","6500600","新店區"
"231043","899-TW","2019/09/26 18:49:44","新北市新店區安一路一段1-1號","121.519636666667","24.9611966666667","6500600","新店區"
"231066","AKT-0513","2019/09/26 18:49:53","新北市新店區安華路1-1號","121.519448333333","24.9605166666667","6500600","新店區"
"235066","003-UY","2019/09/26 18:49:58","新北市中和區水源路18巷3號","121.504066666667","25.0031733333333","6500300","中和區"
"235063","006-UY","2019/09/26 18:49:44","新北市中和區連城路319巷10號","121.489188333333","24.9951933333333","6500300","中和區"
"235056","096-UM","2019/09/26 18:49:56","新北市中和區員山路466巷17弄29號","121.480475","25.0073683333333","6500300","中和區"
"235039","097-UM","2019/09/26 18:49:48","新北市中和區安樂路217巷40弄1號","121.513335","24.998","6500300","中和區"
"235065","098-UM","2019/09/26 18:49:43","新北市中和區中山路二段2巷45弄26號","121.50142","25.007025","6500300","中和區"
"235040","150-BY","2019/09/26 18:49:50","新北市中和區保健路94號","121.512165","24.99596","6500300","中和區"
"235058","151-BY","2019/09/26 18:49:54","新北市土城區金城路三段287巷39號","121.474873333333","24.992415","6500300","中和區"
"235055","183-VK","2019/09/26 18:49:48","新北市中和區德光路82號","121.46904","25.003625","6500300","中和區"
"235038","185-VK","2019/09/26 18:49:48","新北市中和區大勇街39號","121.517613333333","24.9943933333333","6500300","中和區"
"235067","255-BX","2019/09/26 18:49:47","新北市中和區新生街168號","121.483646666667","25.0002183333333","6500300","中和區"
"235044","293-VK","2019/09/26 18:49:45","新北市中和區中興街129號","121.499926666667","24.99159","6500300","中和區"
"235072","301-VK","2019/09/26 18:49:45","新北市中和區中山路二段109號","121.503191666667","25.003955","6500300","中和區"
"235043","352-BY","2019/09/26 18:49:44","新北市中和區秀朗路三段72號","121.526251666667","24.9943633333333","6500300","中和區"
"235042","KEA-2878","2019/09/26 18:49:57","新北市中和區秀朗路三段135巷5弄1號","121.525405","24.9923733333333","6500300","中和區"
"235050","4979-A6","2019/09/26 18:49:41","新北市中和區忠孝街62巷9弄10號","121.513178333333","24.98397","6500300","中和區"
"235069","4980-A6","2019/09/26 18:49:55","新北市中和區南山路81巷8弄12號","121.502555","24.997705","6500300","中和區"
"235070","558-UM","2019/09/26 18:49:58","新北市中和區中和路219-1號","121.504171666667","24.9999483333333","6500300","中和區"
"235045","565-BX","2019/09/26 18:49:54","新北市中和區景新街467巷22號","121.514276666667","24.9882783333333","6500300","中和區"
"235060","KED-0823","2019/09/26 18:49:55","新北市中和區民治街16號","121.475098333333","25.0044816666667","6500300","中和區"
"235054","640-BX","2019/09/26 18:49:49","新北市中和區民享街86巷9號","121.473968333333","25.0007316666667","6500300","中和區"
"235047","732-UM","2019/09/26 18:49:48","新北市中和區興南路二段34巷55弄1號","121.504903333333","24.98627","6500300","中和區"
"235046","733-UM","2019/09/26 18:49:59","新北市中和區興南路一段160號","121.508231666667","24.986695","6500300","中和區"
"235071","783-BX","2019/09/26 18:49:57","新北市中和區員山路36巷16-3號","121.485106666667","24.9914633333333","6500300","中和區"
"235057","801-TS","2019/09/26 18:49:47","新北市中和區民利街65號","121.478841666667","24.9985033333333","6500300","中和區"
"235041","802-TS","2019/09/26 18:49:51","新北市中和區宜安路127號","121.50979","24.998175","6500300","中和區"
"235052","805-TS","2019/09/26 18:49:42","新北市中和區興南路二段399巷66號","121.499811666667","24.978575","6500300","中和區"
"235048","896-TW","2019/09/26 18:49:42","新北市中和區華新街13號","121.507505","24.9850733333333","6500300","中和區"
"235053","900-TW","2019/09/26 18:49:55","新北市中和區民德路290巷2號","121.467396666667","24.995755","6500300","中和區"
"235064","911-UM","2019/09/26 18:49:53","新北市中和區泰和街30巷31號","121.498686666667","25.0014316666667","6500300","中和區"
"235051","157-BY","2019/09/26 18:49:47","新北市中和區忠孝街29號","121.510525","24.9830683333333","6500300","中和區"
"235037","AAC-213","2019/09/26 18:49:46","新北市中和區自立路99巷16號","121.522793333333","24.994775","6500300","中和區"
"235059","AAC-215","2019/09/26 18:49:39","新北市中和區圓通路393巷13號","121.48999","24.9886483333333","6500300","中和區"
"220065","072-UY","2019/09/26 18:49:58","新北市板橋區四川路一段14號","121.459405","25.006565","6500100","板橋區"
"220086","073-UY","2019/09/26 18:49:43","新北市板橋區南雅西路二段145巷3號","121.451733333333","25.0115083333333","6500100","板橋區"
"220106","075-UY","2019/09/26 18:49:53","新北市板橋區莊敬路74號","121.471748333333","25.0251583333333","6500100","板橋區"
"220069","AAD-861","2019/09/26 18:49:37","新北市板橋區華興街76號","121.457126666667","25.00514","6500100","板橋區"
"247012","337-TH","2019/09/26 18:48:47","新北市八里區荖阡坑路34-5號","121.405668333333","25.12393","6501400","蘆洲區"
"226004","312-R5","2019/09/26 18:49:58","新北市平溪區平溪里平溪街46號","121.73802","25.0269033333333","6502400","平溪區"
"235049","251-BX","2019/09/26 18:49:52","新北市中和區景安路179-1號","121.505355","24.9940466666667","6500300","中和區"
"228003","097-TW","2019/09/26 18:49:57","新北市貢寮區和美里龍洞街62-4號","121.916038333333","25.1174433333333","6502600","貢寮區"
"228001","212-TW","2019/09/26 18:49:57","新北市貢寮區仁理村研海街12-1號","121.923773333333","25.0516933333333","6502600","貢寮區"
"228002","663-BX","2019/09/26 18:49:49","新北市貢寮區福隆里東興街6-11號","121.950778333333","25.0210833333333","6502600","貢寮區"
"224010","AGQ-8101","2019/09/26 18:49:48","新北市瑞芳區基山街38號","121.844866666667","25.1084316666667","6501200","瑞芳區"
"224006","676-BX","2019/09/26 18:49:54","新北市瑞芳區中正路83號","121.805286666667","25.1077","6501200","瑞芳區"
"224002","639-TC","2019/09/26 18:49:46","新北市瑞芳區三爪子坑路106巷1-8號","121.808436666667","25.1052966666667","6501200","瑞芳區"
"224007","285-BY","2019/09/26 18:49:39","新北市瑞芳區大埔路186-1號","121.761463333333","25.1012566666667","6501200","瑞芳區"
"224009","275-VK","2019/09/26 18:49:44","新北市瑞芳區祈堂路53-1號","121.85958","25.1106916666667","6501200","瑞芳區"
"224008","273-VK","2019/09/26 18:49:51","新北市瑞芳區逢甲路350號","121.802721666667","25.11188","6501200","瑞芳區"
"224005","271-BY","2019/09/26 18:49:42","新北市瑞芳區濱二路73號","121.828871666667","25.120905","6501200","瑞芳區"
"227001","642-TC","2019/09/26 18:49:52","新北市雙溪區牡丹里下坑11號","121.850993333333","25.056205","6502500","雙溪區"
"227002","400-TW","2019/09/26 18:49:46","新北市雙溪區共和里中山路57號","121.86744","25.0317983333333","6502500","雙溪區"
"253005","032-BX","2019/09/26 18:49:47","新北市石門區內石門2號","121.565268333333","25.2908283333333","6502200","石門區"
"253006","295-VK","2019/09/26 18:49:41","新北市石門區下員坑15號","121.511446666667","25.2845216666667","6502200","石門區"
"222001","KEA-2212","2019/09/26 18:49:42","新北市深坑區松柏街26號","121.638598333333","25.01091","6501800","深坑區"
"208002","KEA-2872","2019/09/26 18:49:54","新北市金山區信義路72號","121.635096666667","25.2195316666667","6502700","金山區"
"208003","665-BX","2019/09/26 18:49:54","新北市金山區中山路314號","121.634315","25.2247783333333","6502700","金山區"
"251002","012-UM","2019/09/26 18:49:44","新北市淡水區學府路75號","121.448423333333","25.1699466666667","6501000","淡水區"
"251015","KEA-2871","2019/09/26 18:49:49","新北市淡水區糞箕湖60號","121.485193333333","25.1723083333333","6501000","淡水區"
"251016","179-VK","2019/09/26 18:49:54","新北市淡水區下圭柔山71-3號","121.447008333333","25.2062433333333","6501000","淡水區"
"251013","180-VK","2019/09/26 18:49:45","新北市淡水區頂田寮路769號","121.479535","25.2149766666667","6501000","淡水區"
"251008","181-VK","2019/09/26 18:49:55","新北市淡水區北投子14-2號","121.448526666667","25.183815","6501000","淡水區"
"251010","413-VK","2019/09/26 18:49:47","新北市淡水區沙崙路11號","121.42109","25.181275","6501000","淡水區"
"251012","441-VK","2019/09/26 18:49:39","新北市淡水區北新路2號","121.444325","25.1776966666667","6501000","淡水區"
"251001","559-UM","2019/09/26 18:49:57","新北市淡水區自強路277號","121.462373333333","25.1282516666667","6501000","淡水區"
"251009","575-R6","2019/09/26 18:49:43","新北市淡水區中山北路一段166號","121.444215","25.178525","6501000","淡水區"
"251014","577-R6","2019/09/26 18:49:44","新北市淡水區崙頂3號","121.490948333333","25.2239316666667","6501000","淡水區"
"251011","650-BX","2019/09/26 18:49:40","新北市淡水區鄧公路2號","121.448953333333","25.1698283333333","6501000","淡水區"
"251003","766-UM","2019/09/26 18:49:39","新北市淡水區中山北路一段212巷38號","121.446143333333","25.1789966666667","6501000","淡水區"
"207003","550-UM","2019/09/26 18:49:55","新北市萬里區野柳里港東路160號","121.69005","25.2047916666667","6502800","萬里區"
"207004","291-VK","2019/09/26 18:49:42","新北市萬里區萬里里獅頭路23號","121.693213333333","25.1782966666667","6502800","萬里區"
"252002","178-VK","2019/09/26 18:49:45","新北市三芝區智成街68號","121.504775","25.2561833333333","6502100","三芝區"
"252003","249-BX","2019/09/26 18:49:48","新北市三芝區後厝里大片頭84-3號","121.458861666667","25.2437233333333","6502100","三芝區"
"208001","170-UY","2019/09/26 18:49:44","新北市金山區文化三路62號","121.634285","25.2256133333333","6502700","金山區"
"237004","KEA-2597","2019/09/26 18:49:44","新北市三峽區插角225號","121.415041666667","24.8679466666667","6500900","三峽區"
"237007","153-BY","2019/09/26 18:49:54","新北市三峽區中正路二段399號","121.365033333333","24.9075916666667","6500900","三峽區"
"237013","252-BX","2019/09/26 18:49:50","新北市三峽區光明路69巷25號","121.376561666667","24.92917","6500900","三峽區"
"237012","275-BY","2019/09/26 18:49:48","新北市三峽區三樹路340號","121.383985","24.9433216666667","6500900","三峽區"
"237008","302-VK","2019/09/26 18:49:54","新北市三峽區白雞28-1號","121.370365","24.9121733333333","6500900","三峽區"
"237014","433-BY","2019/09/26 18:49:49","新北市三峽區隆恩街245號","121.357676666667","24.941045","6500900","三峽區"
"237006","5529-G3","2019/09/26 18:49:46","新北市三峽區溪東路211巷31弄2號","121.40554","24.93418","6500900","三峽區"
"237011","KEA-2596","2019/09/26 18:49:48","新北市三峽區溪東路133號","121.402458333333","24.9343483333333","6500900","三峽區"
"237015","649-BX","2019/09/26 18:49:53","新北市三峽區建安107-5號","121.456885","24.92264","6500900","三峽區"
"237010","706-TV","2019/09/26 18:49:37","新北市三峽區復興路449號","121.362601666667","24.9385833333333","6500900","三峽區"
"237005","AKY-6261","2019/09/26 18:49:41","新北市三峽區中山路299巷15弄29號","121.361553333333","24.9358933333333","6500900","三峽區"
"236042","KED-0685","2019/09/26 18:49:58","新北市土城區裕民路114巷22號","121.450238333333","24.9857283333333","6501300","土城區"
"236078","166-UM","2019/09/26 18:49:56","新北市土城區中央路四段67巷60-13號","121.416886666667","24.955985","6501300","土城區"
"236030","253-BX","2019/09/26 18:49:47","新北市土城區忠義路26巷10號","121.43981","24.9699416666667","6501300","土城區"
"236026","269-VK","2019/09/26 18:49:55","新北市土城區農豐街14號","121.442553333333","24.9739366666667","6501300","土城區"
"236014","270-VK","2019/09/26 18:49:48","新北市土城區金城路二段354巷20號","121.46076","24.9841516666667","6501300","土城區"
"236038","271-VK","2019/09/26 18:49:43","新北市土城區明德路一段221巷5號","121.463713333333","24.978145","6501300","土城區"
"236070","KEA-2877","2019/09/26 18:49:59","新北市土城區延和路20號","121.464423333333","24.98825","6501300","土城區"
"252001","KED-0821","2019/09/26 18:49:55","新北市三芝區中正路三段9號","121.502878333333","25.2539816666667","6502100","三芝區"
"236021","401-BY","2019/09/26 18:49:50","新北市土城區延吉街253巷13號","121.467906666667","24.984395","6501300","土城區"
"236059","912-UM","2019/09/26 18:49:47","新北市土城區中央路三段87號","121.437745","24.9678833333333","6501300","土城區"
"236049","913-UM","2019/09/26 18:49:47","新北市土城區青雲路35號","121.46005","24.9885933333333","6501300","土城區"
"236063","915-UM","2019/09/26 18:49:38","新北市土城區延和路125巷79號","121.469345","24.9909916666667","6501300","土城區"
"236055","AAC-216","2019/09/26 18:49:48","新北市土城區裕民路174號","121.45267","24.98537","6501300","土城區"
"242025","362-BY","2019/09/26 18:49:47","新北市新莊區新泰路357巷3弄57號","121.44203","25.0390366666667","6500500","新莊區"
"242009","349-TH","2019/09/26 18:49:45","新北市新莊區三和路12-21號","121.442246666667","25.03845","6500500","新莊區"
"238023","601-UM","2019/09/26 18:49:55","新北市樹林區工興街14巷1號","121.398908333333","25.0136616666667","6500700","樹林區"
"238015","571-TV","2019/09/26 18:49:41","新北市樹林區啟智街172號","121.414886666667","24.9870283333333","6500700","樹林區"
"238024","5061-A6","2019/09/26 18:49:56","新北市樹林區太平路112號","121.418533333333","24.9787316666667","6500700","樹林區"
"238022","KEA-2213","2019/09/26 18:49:54","新北市樹林區中華路190-1號","121.411403333333","24.9805266666667","6500700","樹林區"
"238021","KEA-2539","2019/09/26 18:49:56","新北市樹林區西圳街二段80巷1號","121.385761666667","24.9585716666667","6500700","樹林區"
"238017","283-BY","2019/09/26 18:49:49","新北市樹林區八德街598巷3號","121.397595","24.9708516666667","6500700","樹林區"
"238020","268-VK","2019/09/26 18:49:49","新北市樹林區俊英街282號","121.42376","25.0133216666667","6500700","樹林區"
"238026","172-UY","2019/09/26 18:49:48","新北市樹林區信和街6巷13號","121.389968333333","24.9715983333333","6500700","樹林區"
"238016","169-UY","2019/09/26 18:49:53","新北市樹林區中山路一段412號","121.4174","24.9851666666667","6500700","樹林區"
"239007","AAC-297","2019/09/26 18:49:52","新北市鶯歌區中正一路481號","121.372763333333","24.9594683333333","6500800","鶯歌區"
"239008","527-UM","2019/09/26 18:49:57","新北市鶯歌區朝陽街4號","121.336248333333","24.976595","6500800","鶯歌區"
"239005","526-UM","2019/09/26 18:49:54","新北市鶯歌區鳳吉二街144號","121.32853","24.9748766666667","6500800","鶯歌區"
"239001","417-VK","2019/09/26 18:49:57","新北市鶯歌區國中街197號","121.338231666667","24.9391683333333","6500800","鶯歌區"
"239003","360-BY","2019/09/26 18:49:50","新北市鶯歌區鶯桃路434號","121.333021666667","24.96455","6500800","鶯歌區"
"239004","193-VK","2019/09/26 18:50:00","新北市鶯歌區尖山路261號","121.340891666667","24.943565","6500800","鶯歌區"
"221036","130-UY","2019/09/26 18:49:45","新北市汐止區橋東街16號","121.6664","25.0759866666667","6501100","汐止區"
"221015","131-UY","2019/09/26 18:49:42","新北市汐止區鄉友街24號","121.668625","25.0811266666667","6501100","汐止區"
"244019","KED-0667","2019/09/26 18:49:51","新北市林口區麗園二街1巷9-1號","121.378763333333","25.0701416666667","6501700","林口區"
"221032","280-BY","2019/09/26 18:49:49","新北市汐止區民權街二段70號","121.619186666667","25.048155","6501100","汐止區"
"221029","298-VK","2019/09/26 18:49:58","新北市汐止區工建路66號","121.640553333333","25.0631766666667","6501100","汐止區"
"221021","299-VK","2019/09/26 18:49:44","新北市汐止區復興路72號","121.657135","25.062115","6501100","汐止區"
"221031","353-TW","2019/09/26 18:49:47","新北市汐止區福德一路272巷16號","121.63189","25.0642883333333","6501100","汐止區"
"221035","622-UM","2019/09/26 18:49:58","新北市汐止區大同路二段4號","121.647318333333","25.06273","6501100","汐止區"
"221025","623-UM","2019/09/26 18:49:39","新北市汐止區福安街20巷21號","121.66174","25.064285","6501100","汐止區"
"221038","646-BX","2019/09/26 18:46:46","新北市汐止區汐萬路一段312號","121.650691666667","25.075335","6501100","汐止區"
"221002","707-TV","2019/09/26 18:49:39","新北市汐止區大同路一段149號","121.631973333333","25.0560166666667","6501100","汐止區"
"221018","753-BX","2019/09/26 18:49:58","新北市汐止區茄苳路300號","121.673171666667","25.066975","6501100","汐止區"
"220079","145-BY","2019/09/26 18:49:47","新北市板橋區南雅西路二段192巷1弄19號","121.452316666667","25.0150033333333","6500100","板橋區"
"220080","200-UY","2019/09/26 18:49:51","新北市板橋區大觀路二段265巷72弄8號","121.442038333333","24.996975","6500100","板橋區"
"220082","610-BX","2019/09/26 18:49:56","新北市板橋區篤行路三段玉平巷76弄10號","121.427793333333","24.9858716666667","6500100","板橋區"
"220056","276-BY","2019/09/26 18:49:52","新北市板橋區信義路16-7號","121.45703","24.99573","6500100","板橋區"
"220072","277-BY","2019/09/26 18:49:47","新北市板橋區金門街31巷2號","121.433523333333","24.99388","6500100","板橋區"
"220101","280-UM","2019/09/26 18:49:47","新北市板橋區莊敬路93號","121.47263","25.02634","6500100","板橋區"
"220071","283-VK","2019/09/26 18:49:41","新北市板橋區四川路一段89號","121.459675","25.005595","6500100","板橋區"
"220094","285-UM","2019/09/26 18:49:53","新北市板橋區文化路二段28號","121.469208333333","25.025015","6500100","板橋區"
"220083","286-VK","2019/09/26 18:49:46","新北市板橋區僑中二街116巷1號","121.445603333333","25.006265","6500100","板橋區"
"220081","287-VK","2019/09/26 18:49:51","新北市板橋區光華街13巷32號","121.453171666667","25.011335","6500100","板橋區"
"220039","288-VK","2019/09/26 18:49:46","新北市板橋區四維路177巷4弄4號","121.463685","25.0261466666667","6500100","板橋區"
"220061","293-UM","2019/09/26 18:49:52","新北市板橋區太和街4巷1號","121.473926666667","25.0197833333333","6500100","板橋區"
"220084","296-UM","2019/09/26 18:49:53","新北市板橋區大觀路二段150巷60-1號","121.441531666667","25.0005783333333","6500100","板橋區"
"220034","297-UM","2019/09/26 18:49:57","新北市板橋區華東街1-10號","121.448385","24.9949983333333","6500100","板橋區"
"220053","299-UM","2019/09/26 18:49:37","新北市板橋區成功路39號","121.475063333333","25.0176716666667","6500100","板橋區"
"220075","303-R5","2019/09/26 18:49:57","新北市板橋區大觀路一段28巷75號","121.449985","25.011085","6500100","板橋區"
"220062","305-R5","2019/09/26 18:49:51","新北市板橋區中山路二段26號","121.472568333333","25.015095","6500100","板橋區"
"220092","307-R5","2019/09/26 18:49:50","新北市板橋區文化路一段136巷8弄3號","121.465566666667","25.0182","6500100","板橋區"
"220098","317-R6","2019/09/26 18:49:54","新北市板橋區民生路二段240巷48號","121.46957","25.0228766666667","6500100","板橋區"
"220089","487-VK","2019/09/26 18:49:39","新北市板橋區文聖街5號","121.475361666667","25.0324333333333","6500100","板橋區"
"220088","491-VK","2019/09/26 18:49:46","新北市板橋區文化路二段28號","121.469126666667","25.02495","6500100","板橋區"
"220035","560-BX","2019/09/26 18:49:52","新北市板橋區中正路275巷68號","121.452716666667","25.0179216666667","6500100","板橋區"
"220103","561-BX","2019/09/26 18:49:47","新北市板橋區文化路一段188巷9弄86-3號","121.469025","25.018745","6500100","板橋區"
"220063","609-BX","2019/09/26 18:49:55","新北市板橋區民生路一段80號","121.473526666667","25.0154683333333","6500100","板橋區"
"220091","637-BX","2019/09/26 18:49:42","新北市板橋區雙十路二段47巷37號","121.475","25.0253766666667","6500100","板橋區"
"220057","686-BX","2019/09/26 18:49:57","新北市板橋區重慶路182號","121.462525","25.003465","6500100","板橋區"
"220077","687-BX","2019/09/26 18:49:55","新北市板橋區大觀路二段174巷171號","121.441976666667","25.003545","6500100","板橋區"
"220093","689-BX","2019/09/26 18:49:42","新北市板橋區民生路三段12號","121.467705","25.0240966666667","6500100","板橋區"
"220054","741-BX","2019/09/26 18:49:46","新北市板橋區館前東路19號","121.460156666667","25.0072766666667","6500100","板橋區"
"220102","KEA-2699","2019/09/26 18:49:50","新北市板橋區萬板路520號","121.480675","25.0264616666667","6500100","板橋區"
"220055","827-TW","2019/09/26 18:49:54","新北市板橋區忠孝路110號","121.462318333333","25.0021616666667","6500100","板橋區"
"220068","830-TW","2019/09/26 18:49:57","新北市板橋區大同街35巷28號","121.477315","25.0278383333333","6500100","板橋區"
"220074","895-R6","2019/09/26 18:49:53","新北市板橋區南門街14號","121.457385","25.00888","6500100","板橋區"
"220073","985-R7","2019/09/26 18:49:54","新北市板橋區館前西路225號","121.454483333333","25.0086016666667","6500100","板橋區"
"220097","AAC-210","2019/09/26 18:49:51","新北市板橋區漢生西路157號","121.463216666667","25.0232333333333","6500100","板橋區"
"220064","AAC-253","2019/09/26 18:49:46","新北市板橋區漢生東路119號","121.467401666667","25.0146066666667","6500100","板橋區"
"235068","KEA-2873","2019/09/26 18:49:37","新北市中和區圓通路232巷10號","121.49484","24.99329","6500300","中和區"
"235061","KEA-2875","2019/09/26 18:49:38","新北市中和區民治街130巷9號","121.474846666667","25.002585","6500300","中和區"
"235062","KEA-2876","2019/09/26 18:49:52","新北市中和區中山路二段504號","121.486601666667","25.0048816666667","6500300","中和區"
