"lineid","car","time","location","longitude","latitude","cityid","cityname"
"234046","148-BY","2019/09/26 18:59:58","新北市永和區永元路52巷35號","121.524106666667","25.0009233333333","6500400","永和區"
"234081","298-R6","2019/09/26 18:59:50","新北市永和區國中路156號","121.522571666667","25.0067283333333","6500400","永和區"
"234038","336-UY","2019/09/26 18:59:48","新北市中和區秀朗路三段38號","121.526516666667","24.9959333333333","6500400","永和區"
"234064","337-UY","2019/09/26 18:59:48","新北市永和區秀朗路一段160號","121.518391666667","25.0034383333333","6500400","永和區"
"234086","338-UY","2019/09/26 18:59:42","新北市永和區永寧街131巷2號","121.518095","25.0051133333333","6500400","永和區"
"234070","552-UM","2019/09/26 18:59:42","新北市永和區竹林路96巷11號","121.519101666667","25.012045","6500400","永和區"
"234017","745-BX","2019/09/26 18:59:43","新北市永和區永和路二段297號","121.516121666667","25.016005","6500400","永和區"
"234030","746-BX","2019/09/26 18:59:47","新北市永和區四維街44號","121.525198333333","24.99813","6500400","永和區"
"234054","KEA-2590","2019/09/26 18:59:46","新北市永和區竹林路66巷2號","121.518288333333","25.0133833333333","6500400","永和區"
"234007","KED-0605","2019/09/26 18:59:58","新北市永和區永和路二段50號","121.514848333333","25.0109483333333","6500400","永和區"
"234013","KEA-2591","2019/09/26 18:59:48","新北市永和區信義路17巷10號","121.513865","25.0116766666667","6500400","永和區"
"234061","AAD-866","2019/09/26 18:59:40","新北市永和區福和路309巷5號","121.516361666667","25.0068683333333","6500400","永和區"
"234042","862-TW","2019/09/26 18:59:44","新北市永和區永貞路267號","121.511776666667","25.0048066666667","6500400","永和區"
"234050","863-TW","2019/09/26 18:59:50","新北市永和區保安路2號","121.510821666667","25.017425","6500400","永和區"
"234026","9371-KE","2019/09/26 18:59:55","新北市永和區安樂路453號","121.514311666667","25.0050366666667","6500400","永和區"
"234011","9373-KE","2019/09/26 18:59:50","新北市永和區仁愛路141巷3弄11號","121.512058333333","25.0125133333333","6500400","永和區"
"249005","172-UM","2019/09/26 18:59:56","新北市八里區長道坑3-1號","121.393913333333","25.1241816666667","6502300","八里區"
"249001","173-UM","2019/09/26 18:59:57","新北市八里區龍米路二段228-1號","121.432685","25.1583983333333","6502300","八里區"
"249003","593-UM","2019/09/26 18:33:48","新北市八里區博物館路10-1號","121.41509","25.1639716666667","6502300","八里區"
"248016","026-BX","2019/09/26 18:59:45","新北市五股區成泰路三段577巷32號","121.451328333333","25.10296","6501500","五股區"
"248006","077-UY","2019/09/26 18:59:39","新北市五股區四維路183號","121.467996666667","25.0753","6501500","五股區"
"248008","KED-0815","2019/09/26 18:59:42","新北市五股區中興路一段118巷6弄2號","121.466253333333","25.0738583333333","6501500","五股區"
"248020","KED-0813","2019/09/26 18:59:55","新北市五股區凌雲路三段57號","121.425296666667","25.12499","6501500","五股區"
"248012","247-BX","2019/09/26 18:59:47","新北市五股區中興路四段48巷16號","121.438648333333","25.0834166666667","6501500","五股區"
"248004","677-BX","2019/09/26 18:59:55","新北市五股區民義路二段32-1號","121.418703333333","25.0977616666667","6501500","五股區"
"248002","678-BX","2019/09/26 18:59:43","新北市五股區凌雲路一段161號","121.448951666667","25.102605","6501500","五股區"
"234023","9380-KE","2019/09/26 18:59:48","新北市永和區竹林路75巷33弄21號","121.520868333333","25.0144133333333","6500400","永和區"
"234077","969-R7","2019/09/26 18:59:55","新北市永和區得和路104巷16號","121.517855","24.99952","6500400","永和區"
"234067","AAC-212","2019/09/26 18:59:45","新北市永和區自由街58號","121.513816666667","25.0058833333333","6500400","永和區"
"234003","AAC-295","2019/09/26 18:59:56","新北市永和區和平街42號","121.512911666667","25.010015","6500400","永和區"
"232011","076-UY","2019/09/26 18:59:56","新北市坪林區坪林街15號","121.712353333333","24.936095","6502000","坪林區"
"244013","KEA-2802","2019/09/26 18:59:42","新北市林口區麗園一街2巷2號","121.375846666667","25.0713683333333","6501700","林口區"
"244023","483-VK","2019/09/26 18:59:42","新北市林口區民權路102號","121.373266666667","25.0826683333333","6501700","林口區"
"244017","485-VK","2019/09/26 18:59:56","新北市林口區公園路225號","121.37381","25.0740666666667","6501700","林口區"
"244009","656-BX","2019/09/26 18:59:49","新北市林口區林口路83-1號","121.389641666667","25.0799183333333","6501700","林口區"
"244011","701-TV","2019/09/26 18:59:55","新北市林口區中正路321號","121.388563333333","25.07771","6501700","林口區"
"244025","837-TS","2019/09/26 18:59:57","新北市林口區南勢街192巷13號","121.3615","25.0750016666667","6501700","林口區"
"243012","AAD-798","2019/09/26 18:59:42","新北市泰山區福興三街13號","121.434453333333","25.0578183333333","6501600","泰山區"
"243010","297-R6","2019/09/26 18:59:54","新北市泰山區辭修路24號","121.429033333333","25.058185","6501600","泰山區"
"243014","KEA-2801","2019/09/26 18:59:44","新北市泰山區黎明路23號","121.42089","25.0625416666667","6501600","泰山區"
"243016","421-VK","2019/09/26 18:59:53","新北市泰山區明志路二段131號","121.42783","25.0508833333333","6501600","泰山區"
"243009","KEA-2215","2019/09/26 18:59:51","新北市泰山區泰林路二段362號","121.428781666667","25.0637316666667","6501600","泰山區"
"243011","KEA-2216","2019/09/26 18:59:38","新北市泰山區明志路二段239號","121.4272","25.0480616666667","6501600","泰山區"
"243015","680-BX","2019/09/26 18:59:51","新北市泰山區美寧街50號","121.430506666667","25.0644716666667","6501600","泰山區"
"222003","436-BY","2019/09/26 18:59:47","新北市深坑區深南路88巷1號","121.621405","25.0108216666667","6501800","深坑區"
"222002","659-BX","2019/09/26 18:59:41","新北市深坑區文山路一段33號","121.629828333333","25.0034516666667","6501800","深坑區"
"231061","002-UM","2019/09/26 18:59:52","新北市新店區安華路28-1號","121.5197","24.96078","6500600","新店區"
"231055","0291-UT","2019/09/26 18:59:52","新北市新店區北新路一段271巷23號","121.540236666667","24.967055","6500600","新店區"
"231044","046-UY","2019/09/26 18:59:47","新北市新店區寶中路72號","121.547876666667","24.9806","6500600","新店區"
"231060","106-UY","2019/09/26 18:59:53","新北市新店區安忠路57巷11弄14號","121.515246666667","24.957875","6500600","新店區"
"231051","107-UY","2019/09/26 18:59:58","新北市新店區百忍街10巷2號","121.534901666667","24.9755966666667","6500600","新店區"
"231049","108-UY","2019/09/26 18:59:44","新北市新店區二十張路142-1號","121.535118333333","24.97883","6500600","新店區"
"231065","110-UY","2019/09/26 18:59:50","新北市新店區安祥路147巷84號","121.4756","24.95544","6500600","新店區"
"231062","256-BX","2019/09/26 18:59:39","新北市新店區安豐路49號","121.499743333333","24.9547366666667","6500600","新店區"
"231054","260-TV","2019/09/26 18:59:53","新北市新店區新店路13號","121.540286666667","24.952885","6500600","新店區"
"231042","268-BY","2019/09/26 18:59:56","新北市新店區中正路104號","121.543281666667","24.9706233333333","6500600","新店區"
"231064","278-BY","2019/09/26 18:59:53","新北市新店區安康路一段355號","121.519861666667","24.9636366666667","6500600","新店區"
"231050","AAD-862","2019/09/26 18:59:49","新北市新店區新烏路一段11巷1弄2號","121.547345","24.9513433333333","6500600","新店區"
"231045","355-BY","2019/09/26 18:59:53","新北市新店區安康路一段11號","121.533391666667","24.96043","6500600","新店區"
"231058","3713-VJ","2019/09/26 18:59:39","新北市新店區中興路一段48號","121.538988333333","24.9592616666667","6500600","新店區"
"231056","4715-K9","2019/09/26 18:59:53","新北市新店區建國路216號","121.538141666667","24.9811066666667","6500600","新店區"
"231067","4772-VM","2019/09/26 18:59:47","新北市新店區安康路一段76巷18-1號","121.528478333333","24.9629433333333","6500600","新店區"
"231052","512-UM","2019/09/26 18:59:42","新北市新店區屈尺路12號","121.548896666667","24.9225616666667","6500600","新店區"
"231041","619-UM","2019/09/26 18:59:44","新北市新店區環河路29巷1號","121.536448333333","24.9612866666667","6500600","新店區"
"231063","641-BX","2019/09/26 18:59:24","新北市新店區安忠路57巷15號","121.512795","24.9572016666667","6500600","新店區"
"231047","KED-0819","2019/09/26 18:59:49","新北市新店區德正街27巷1號","121.544588333333","24.971415","6500600","新店區"
"231046","719-UM","2019/09/26 18:59:42","新北市新店區直潭二街23號","121.535513333333","24.942075","6500600","新店區"
"231057","720-UM","2019/09/26 18:59:37","新北市新店區百齡一路12號","121.553063333333","24.9324783333333","6500600","新店區"
"231059","897-TW","2019/09/26 18:59:58","新北市新店區安華路28-1號","121.519588333333","24.9608383333333","6500600","新店區"
"231040","898-TW","2019/09/26 18:59:46","新北市新店區中央路81號","121.532275","24.9765916666667","6500600","新店區"
"231043","899-TW","2019/09/26 18:59:44","新北市新店區北新路一段142號","121.54251","24.9705516666667","6500600","新店區"
"231066","AKT-0513","2019/09/26 18:59:53","新北市新店區安豐路45號","121.500293333333","24.955235","6500600","新店區"
"241035","KEA-2210","2019/09/26 18:59:52","新北市三重區捷運路11-2號","121.486251666667","25.0564083333333","6500200","三重區"
"241029","942-UM","2019/09/26 18:59:51","新北市三重區重安街14號","121.490225","25.058085","6500200","三重區"
"235066","003-UY","2019/09/26 18:59:58","新北市中和區中山路二段131巷5弄5號","121.502895","25.0029416666667","6500300","中和區"
"235063","006-UY","2019/09/26 18:59:44","新北市中和區中正路534號","121.48761","24.9944216666667","6500300","中和區"
"235056","096-UM","2019/09/26 18:59:56","新北市板橋區三民路二段228號","121.478805","25.0113633333333","6500300","中和區"
"235039","097-UM","2019/09/26 18:59:48","新北市中和區景平路64巷13弄22號","121.5214","24.9915366666667","6500300","中和區"
"235065","098-UM","2019/09/26 18:59:46","新北市中和區福祥路129號","121.498521666667","25.00711","6500300","中和區"
"235040","150-BY","2019/09/26 18:59:50","新北市中和區宜安路23巷12號","121.512485","24.9954383333333","6500300","中和區"
"235058","151-BY","2019/09/26 18:59:54","新北市中和區連城路523巷7弄2號","121.481735","24.9947933333333","6500300","中和區"
"235055","183-VK","2019/09/26 18:59:48","新北市中和區德光路79號","121.46942","25.0036083333333","6500300","中和區"
"235038","185-VK","2019/09/26 18:59:48","新北市中和區立人街24-5號","121.518921666667","24.9941433333333","6500300","中和區"
"235067","255-BX","2019/09/26 18:59:44","新北市中和區新生街146號","121.483528333333","25.0007616666667","6500300","中和區"
"235044","293-VK","2019/09/26 18:59:45","新北市中和區中興街161巷8弄2號","121.500921666667","24.990885","6500300","中和區"
"235072","301-VK","2019/09/26 18:59:45","新北市中和區景平路727號","121.496393333333","25.0041516666667","6500300","中和區"
"235043","352-BY","2019/09/26 18:59:44","新北市中和區景平路2-1號","121.525146666667","24.9904716666667","6500300","中和區"
"235042","KEA-2878","2019/09/26 18:59:57","新北市中和區秀朗路三段78巷1弄5號","121.525626666667","24.9939033333333","6500300","中和區"
"235050","4979-A6","2019/09/26 18:59:41","新北市中和區忠孝街1巷2-1號","121.508973333333","24.9830066666667","6500300","中和區"
"235069","4980-A6","2019/09/26 18:59:55","新北市中和區圓通路102號","121.499501666667","24.9967","6500300","中和區"
"235070","558-UM","2019/09/26 18:59:58","新北市中和區中和路210號","121.505865","24.9995583333333","6500300","中和區"
"235045","565-BX","2019/09/26 18:59:58","新北市中和區景新街467巷35弄17號","121.51402","24.9888783333333","6500300","中和區"
"235060","KED-0823","2019/09/26 18:59:55","新北市中和區中山路三段89號","121.47552","25.0058766666667","6500300","中和區"
"235054","640-BX","2019/09/26 18:59:49","新北市中和區民德路105-1號","121.469065","25.0007483333333","6500300","中和區"
"235047","732-UM","2019/09/26 18:59:48","新北市中和區興南路二段74巷1號","121.505278333333","24.9850633333333","6500300","中和區"
"235046","733-UM","2019/09/26 18:59:47","新北市中和區興南路二段29號","121.507788333333","24.985815","6500300","中和區"
"235071","783-BX","2019/09/26 18:59:57","新北市中和區員山路36巷16-3號","121.485046666667","24.9914616666667","6500300","中和區"
"235057","801-TS","2019/09/26 18:59:42","新北市中和區民利街80號","121.478165","24.9981383333333","6500300","中和區"
"235041","802-TS","2019/09/26 18:59:51","新北市永和區中和路307號","121.506655","24.999635","6500300","中和區"
"235052","805-TS","2019/09/26 18:59:42","新北市中和區興南路二段342號","121.49944","24.9800666666667","6500300","中和區"
"235048","896-TW","2019/09/26 18:59:42","新北市中和區華新街110號","121.508475","24.9828216666667","6500300","中和區"
"235053","900-TW","2019/09/26 18:59:55","新北市板橋區和平路174巷1弄7號","121.464326666667","24.9953183333333","6500300","中和區"
"235064","911-UM","2019/09/26 18:59:53","新北市中和區連城路23巷14號","121.499038333333","25.0016116666667","6500300","中和區"
"235051","157-BY","2019/09/26 18:59:47","新北市中和區忠孝街19巷12號","121.510146666667","24.98323","6500300","中和區"
"235037","AAC-213","2019/09/26 18:59:46","新北市中和區秀朗路三段60巷40號","121.52499","24.9949183333333","6500300","中和區"
"235059","AAC-215","2019/09/26 18:59:39","新北市中和區圓通路367巷20弄29號","121.491276666667","24.9882183333333","6500300","中和區"
"220065","072-UY","2019/09/26 18:59:58","新北市板橋區漢生東路324號","121.471833333333","25.007945","6500100","板橋區"
"220086","073-UY","2019/09/26 18:59:43","新北市板橋區大智街22號","121.455616666667","25.014905","6500100","板橋區"
"220106","075-UY","2019/09/26 18:59:53","新北市板橋區文化路二段263巷5號","121.471048333333","25.0292916666667","6500100","板橋區"
"220069","AAD-861","2019/09/26 18:59:57","新北市板橋區四川路一段159號","121.459925","25.00403","6500100","板橋區"
"247012","337-TH","2019/09/26 18:59:45","新北市五股區中興路三段163號","121.449205","25.0806533333333","6501400","蘆洲區"
"226004","312-R5","2019/09/26 18:59:54","新北市平溪區嶺腳里中華街9-2號","121.74233","25.0254683333333","6502400","平溪區"
"235049","251-BX","2019/09/26 18:59:52","新北市中和區景安路163號","121.505476666667","24.9945716666667","6500300","中和區"
"228003","097-TW","2019/09/26 18:59:57","新北市貢寮區和美里龍洞街56-3號","121.912321666667","25.1140916666667","6502600","貢寮區"
"228001","212-TW","2019/09/26 18:59:57","新北市貢寮區仁理村保健街93號","121.923976666667","25.0524116666667","6502600","貢寮區"
"228002","663-BX","2019/09/26 18:59:49","新北市貢寮區福隆里東興街106巷25弄1號","121.946438333333","25.0183016666667","6502600","貢寮區"
"224006","676-BX","2019/09/26 18:59:54","新北市瑞芳區中正路4號","121.808885","25.10708","6501200","瑞芳區"
"224002","639-TC","2019/09/26 18:59:46","新北市瑞芳區傑魚坑路311-1號","121.793883333333","25.1060916666667","6501200","瑞芳區"
"224007","285-BY","2019/09/26 18:59:39","新北市瑞芳區中央路48巷吉祥園8號","121.75954","25.1036166666667","6501200","瑞芳區"
"224009","275-VK","2019/09/26 18:59:44","新北市瑞芳區洞頂路131號","121.86015","25.1176566666667","6501200","瑞芳區"
"224008","273-VK","2019/09/26 18:59:55","新北市瑞芳區逢甲路412號","121.801173333333","25.1171116666667","6501200","瑞芳區"
"224005","271-BY","2019/09/26 18:59:02","新北市瑞芳區瑞濱路185號","121.817191666667","25.113615","6501200","瑞芳區"
"227001","642-TC","2019/09/26 18:59:52","新北市雙溪區牡丹里中正路60號","121.866113333333","25.042405","6502500","雙溪區"
"227002","400-TW","2019/09/26 18:59:46","新北市雙溪區平林里康福家園6-1號","121.858585","25.0372383333333","6502500","雙溪區"
"253005","032-BX","2019/09/26 18:59:47","新北市石門區崁子腳76-1號","121.570806666667","25.2968733333333","6502200","石門區"
"253006","295-VK","2019/09/26 19:00:01","新北市石門區下員坑28-2號","121.518835","25.2803316666667","6502200","石門區"
"222001","KEA-2212","2019/09/26 18:59:42","新北市深坑區北深路一段300號","121.624238333333","25.005765","6501800","深坑區"
"208002","KEA-2872","2019/09/26 18:59:54","新北市金山區中華路112巷13號","121.633966666667","25.220825","6502700","金山區"
"208003","665-BX","2019/09/26 19:00:01","新北市金山區中正路41號","121.634913333333","25.222055","6502700","金山區"
"251002","012-UM","2019/09/26 18:59:44","新北市淡水區中正東路45-1號","121.446521666667","25.16808","6501000","淡水區"
"251015","KEA-2871","2019/09/26 18:59:49","新北市淡水區糞箕湖60號","121.485205","25.1723283333333","6501000","淡水區"
"251016","179-VK","2019/09/26 18:59:54","新北市淡水區淡金路三段331巷3號","121.44854","25.2061733333333","6501000","淡水區"
"251013","180-VK","2019/09/26 18:59:45","新北市淡水區頂田寮路1111號","121.490916666667","25.2124616666667","6501000","淡水區"
"251010","413-VK","2019/09/26 18:59:47","新北市淡水區中正路一段156巷55號","121.422168333333","25.1811233333333","6501000","淡水區"
"251012","441-VK","2019/09/26 18:59:39","新北市淡水區新春街126巷15弄17號","121.440621666667","25.1808883333333","6501000","淡水區"
"251007","442-VK","2019/09/26 18:59:44","新北市淡水區民生路113巷1弄46號","121.462883333333","25.1386533333333","6501000","淡水區"
"251001","559-UM","2019/09/26 18:59:56","新北市淡水區自強路58號","121.463218333333","25.1275133333333","6501000","淡水區"
"251009","575-R6","2019/09/26 18:59:43","新北市淡水區重建街125-4號","121.440263333333","25.1730666666667","6501000","淡水區"
"251014","577-R6","2019/09/26 18:59:50","新北市淡水區小中寮22號","121.48937","25.2293583333333","6501000","淡水區"
"251011","650-BX","2019/09/26 19:00:00","新北市淡水區鄧公路18號","121.450761666667","25.1696733333333","6501000","淡水區"
"251003","766-UM","2019/09/26 18:59:39","新北市淡水區中山北路一段149巷24號","121.442915","25.177975","6501000","淡水區"
"207003","550-UM","2019/09/26 18:59:55","新北市萬里區大鵬里頂社2-1號","121.660301666667","25.20719","6502800","萬里區"
"207004","291-VK","2019/09/26 18:59:42","新北市萬里區萬里里獅頭路23號","121.693205","25.1782966666667","6502800","萬里區"
"252002","178-VK","2019/09/26 18:59:43","新北市三芝區中正路一段40號","121.503343333333","25.2583166666667","6502100","三芝區"
"252003","249-BX","2019/09/26 18:59:48","新北市三芝區後厝里北勢子42-11號","121.471578333333","25.2520533333333","6502100","三芝區"
"208001","170-UY","2019/09/26 18:59:44","新北市金山區民生路51巷1-2號","121.641943333333","25.22025","6502700","金山區"
"237004","KEA-2597","2019/09/26 18:59:44","新北市三峽區有木191號","121.448303333333","24.8436733333333","6500900","三峽區"
"237007","153-BY","2019/09/26 18:59:54","新北市三峽區中正路二段330號","121.365891666667","24.9105766666667","6500900","三峽區"
"237013","252-BX","2019/09/26 18:59:50","新北市三峽區光明路69巷25號","121.376616666667","24.9292","6500900","三峽區"
"237012","275-BY","2019/09/26 18:59:55","新北市三峽區三樹路222巷47號","121.38269","24.94231","6500900","三峽區"
"237008","302-VK","2019/09/26 18:59:54","新北市三峽區中正路一段286號","121.371673333333","24.9261216666667","6500900","三峽區"
"237014","433-BY","2019/09/26 18:59:49","新北市樹林區彰德街158巷58號","121.365248333333","24.9476016666667","6500900","三峽區"
"237006","5529-G3","2019/09/26 18:59:46","新北市三峽區溪東路233巷47弄2號","121.41072","24.9347033333333","6500900","三峽區"
"237011","KEA-2596","2019/09/26 18:59:48","新北市三峽區介壽路三段233號","121.405901666667","24.9468016666667","6500900","三峽區"
"237015","649-BX","2019/09/26 18:59:53","新北市三峽區建安71號","121.44859","24.9262466666667","6500900","三峽區"
"237010","706-TV","2019/09/26 18:59:57","新北市三峽區復興路275號","121.366301666667","24.9388683333333","6500900","三峽區"
"237005","AKY-6261","2019/09/26 18:59:41","新北市三峽區中山路459巷135號","121.34909","24.93335","6500900","三峽區"
"236042","KED-0685","2019/09/26 18:59:48","新北市土城區學府路一段229巷11號","121.451805","24.9837533333333","6501300","土城區"
"236078","166-UM","2019/09/26 18:59:56","新北市土城區中央路四段200號","121.416043333333","24.9575766666667","6501300","土城區"
"236030","253-BX","2019/09/26 18:59:47","新北市土城區中央路二段241號","121.440135","24.9718133333333","6501300","土城區"
"236026","269-VK","2019/09/26 18:59:55","新北市土城區慶安街16號","121.441763333333","24.9734816666667","6501300","土城區"
"236014","270-VK","2019/09/26 18:59:48","新北市土城區永豐路31巷1號","121.462961666667","24.9881816666667","6501300","土城區"
"236038","271-VK","2019/09/26 18:59:43","新北市土城區青仁路47號","121.461386666667","24.9794216666667","6501300","土城區"
"236070","KEA-2877","2019/09/26 18:59:39","新北市土城區裕民路280號","121.455313333333","24.982165","6501300","土城區"
"252001","KED-0821","2019/09/26 18:59:55","新北市三芝區中興街二段260號","121.50177","25.2530366666667","6502100","三芝區"
"236021","401-BY","2019/09/26 18:59:50","新北市土城區明峰街48號","121.467708333333","24.986415","6501300","土城區"
"236059","912-UM","2019/09/26 18:59:41","新北市土城區金城路二段206號","121.455186666667","24.9820133333333","6501300","土城區"
"236049","913-UM","2019/09/26 18:59:47","新北市土城區明德路一段280號","121.457838333333","24.9773966666667","6501300","土城區"
"236063","915-UM","2019/09/26 18:59:58","新北市土城區金城路三段151號","121.468651666667","24.98831","6501300","土城區"
"236055","AAC-216","2019/09/26 18:59:54","新北市土城區學成路142號","121.44893","24.9896316666667","6501300","土城區"
"242025","362-BY","2019/09/26 18:59:47","新北市新莊區新泰路255巷83號","121.442028333333","25.0389883333333","6500500","新莊區"
"242009","349-TH","2019/09/26 18:59:45","新北市新莊區三和路12-21號","121.442168333333","25.0382666666667","6500500","新莊區"
"238023","601-UM","2019/09/26 18:59:55","新北市樹林區大慶街55號","121.396145","25.013945","6500700","樹林區"
"238019","599-UM","2019/09/26 18:59:49","新北市樹林區東榮街169號","121.414026666667","24.9813683333333","6500700","樹林區"
"238015","571-TV","2019/09/26 18:59:41","新北市樹林區備內街79號","121.409053333333","24.9895883333333","6500700","樹林區"
"238022","KEA-2213","2019/09/26 18:59:54","新北市樹林區東順街62號","121.411095","24.9780766666667","6500700","樹林區"
"238021","KEA-2539","2019/09/26 18:59:56","新北市樹林區柑園街二段328巷6弄24號","121.373555","24.952415","6500700","樹林區"
"238025","303-VK","2019/09/26 18:59:45","新北市樹林區中山路三段22號","121.395613333333","24.9729733333333","6500700","樹林區"
"238017","283-BY","2019/09/26 18:59:49","新北市樹林區中山路三段210-2號","121.38197","24.9656833333333","6500700","樹林區"
"238014","282-BY","2019/09/26 18:59:50","新北市樹林區潭興街143巷1-1號","121.42568","24.999785","6500700","樹林區"
"238020","268-VK","2019/09/26 18:59:49","新北市樹林區俊英街238號","121.424703333333","25.0104366666667","6500700","樹林區"
"238026","172-UY","2019/09/26 18:59:48","新北市樹林區中和街11號","121.39205","24.97292","6500700","樹林區"
"238016","169-UY","2019/09/26 18:59:53","新北市樹林區文化街27號","121.41923","24.98771","6500700","樹林區"
"239007","AAC-297","2019/09/26 18:59:52","新北市鶯歌區中正一路461-2號","121.36351","24.9565","6500800","鶯歌區"
"239008","527-UM","2019/09/26 18:59:57","新北市鶯歌區朝陽街4號","121.336245","24.9765966666667","6500800","鶯歌區"
"239005","526-UM","2019/09/26 18:59:54","新北市鶯歌區鳳吉一街110號","121.327513333333","24.974665","6500800","鶯歌區"
"239001","417-VK","2019/09/26 18:59:57","新北市鶯歌區二橋街53號","121.337005","24.9385816666667","6500800","鶯歌區"
"239003","360-BY","2019/09/26 18:59:50","新北市鶯歌區永和街249號","121.336785","24.9722116666667","6500800","鶯歌區"
"239004","193-VK","2019/09/26 18:59:48","新北市鶯歌區中正三路156巷31號","121.333398333333","24.939645","6500800","鶯歌區"
"221008","489-VK","2019/09/26 18:59:50","新北市汐止區康寧街582號","121.634981666667","25.0698733333333","6501100","汐止區"
"221036","130-UY","2019/09/26 18:59:45","新北市汐止區忠孝東路316巷1號","121.665008333333","25.069155","6501100","汐止區"
"221015","131-UY","2019/09/26 18:59:42","新北市汐止區鄉長路二段8號","121.668813333333","25.0807733333333","6501100","汐止區"
"244019","KED-0667","2019/09/26 18:59:51","新北市林口區文化二路一段555號","121.374928333333","25.0772866666667","6501700","林口區"
"221032","280-BY","2019/09/26 18:59:49","新北市汐止區橫科路407巷81弄1號","121.628345","25.04834","6501100","汐止區"
"221029","298-VK","2019/09/26 18:58:17","新北市汐止區樟樹一路228號","121.64234","25.0665733333333","6501100","汐止區"
"221031","353-TW","2019/09/26 18:59:47","新北市汐止區福德一路300巷47號","121.630223333333","25.0645383333333","6501100","汐止區"
"221035","622-UM","2019/09/26 18:59:58","新北市汐止區大同路二段298號","121.65523","25.0666","6501100","汐止區"
"221038","646-BX","2019/09/26 18:46:46","新北市汐止區汐萬路一段312號","121.650691666667","25.075335","6501100","汐止區"
"221002","707-TV","2019/09/26 18:59:39","新北市汐止區大同路一段2號","121.620908333333","25.0549983333333","6501100","汐止區"
"220079","145-BY","2019/09/26 18:59:45","新北市板橋區大智街71巷8弄2號","121.453461666667","25.0153116666667","6500100","板橋區"
"220080","200-UY","2019/09/26 18:59:51","新北市板橋區大觀路二段265巷1弄50號","121.445","24.99798","6500100","板橋區"
"220082","610-BX","2019/09/26 18:59:55","新北市板橋區滿平街101號","121.428415","24.9886666666667","6500100","板橋區"
"220056","276-BY","2019/09/26 18:59:52","新北市板橋區信義路152號","121.45894","24.9917433333333","6500100","板橋區"
"220072","277-BY","2019/09/26 18:59:47","新北市板橋區大觀路三段5-4號","121.432803333333","24.9959316666667","6500100","板橋區"
"220101","280-UM","2019/09/26 18:59:47","新北市板橋區民生路二段188號","121.470176666667","25.0207916666667","6500100","板橋區"
"220071","283-VK","2019/09/26 18:59:40","新北市板橋區實踐路130號","121.464401666667","25.00275","6500100","板橋區"
"220094","285-UM","2019/09/26 18:59:53","新北市板橋區光武街169號","121.465255","25.0300233333333","6500100","板橋區"
"220083","286-VK","2019/09/26 18:59:49","新北市板橋區大觀路一段38巷156弄36-1號","121.442655","25.0058416666667","6500100","板橋區"
"220081","287-VK","2019/09/26 18:59:51","新北市板橋區南雅西路二段102號","121.45243","25.0118166666667","6500100","板橋區"
"220039","288-VK","2019/09/26 18:59:46","新北市板橋區裕民街33號","121.461728333333","25.0287816666667","6500100","板橋區"
"220061","293-UM","2019/09/26 18:59:52","新北市板橋區懷仁街77巷6號","121.477656666667","25.0185433333333","6500100","板橋區"
"220084","296-UM","2019/09/26 18:59:53","新北市板橋區龍興街63巷2號","121.443023333333","25.0013716666667","6500100","板橋區"
"220034","297-UM","2019/09/26 18:49:57","新北市板橋區華東街1-10號","121.448385","24.9949983333333","6500100","板橋區"
"220053","299-UM","2019/09/26 18:59:37","新北市板橋區太和街6巷1號","121.473738333333","25.020025","6500100","板橋區"
"220075","303-R5","2019/09/26 18:59:57","新北市板橋區館前西路158-8號","121.45474","25.0087566666667","6500100","板橋區"
"220062","305-R5","2019/09/26 18:59:50","新北市板橋區三民路二段正隆巷44號","121.476913333333","25.0138533333333","6500100","板橋區"
"220092","307-R5","2019/09/26 18:59:50","新北市板橋區文化路二段225巷60弄69號","121.469048333333","25.0299566666667","6500100","板橋區"
"220098","317-R6","2019/09/26 18:59:54","新北市板橋區民生路二段226巷46號","121.471633333333","25.022155","6500100","板橋區"
"220089","487-VK","2019/09/26 18:59:46","新北市板橋區文化路二段155號","121.470168333333","25.0271466666667","6500100","板橋區"
"220088","491-VK","2019/09/26 18:59:46","新北市板橋區文化路二段182巷3弄14號","121.471921666667","25.0276383333333","6500100","板橋區"
"220035","560-BX","2019/09/26 18:59:49","新北市板橋區中正路301號","121.45527","25.01959","6500100","板橋區"
"220103","561-BX","2019/09/26 18:59:47","新北市板橋區介壽街41號","121.468695","25.01982","6500100","板橋區"
"220063","609-BX","2019/09/26 18:59:54","新北市板橋區三民路二段89號","121.479315","25.0164716666667","6500100","板橋區"
"220091","637-BX","2019/09/26 18:59:43","新北市板橋區大同街26巷1號","121.478045","25.027205","6500100","板橋區"
"220057","686-BX","2019/09/26 18:59:53","新北市板橋區重慶路342號","121.464233333333","24.9974466666667","6500100","板橋區"
"220077","687-BX","2019/09/26 18:59:55","新北市板橋區龍興街65巷1號","121.443393333333","25.00133","6500100","板橋區"
"220093","689-BX","2019/09/26 18:59:52","新北市板橋區民生路三段251號","121.464598333333","25.0291583333333","6500100","板橋區"
"220054","741-BX","2019/09/26 18:59:46","新北市板橋區重慶路139巷15號","121.463456666667","25.0046916666667","6500100","板橋區"
"220102","KEA-2699","2019/09/26 18:59:54","新北市板橋區萬板路818巷7號","121.482926666667","25.026945","6500100","板橋區"
"220055","827-TW","2019/09/26 18:59:54","新北市板橋區中山路一段130號","121.46343","25.010825","6500100","板橋區"
"220068","830-TW","2019/09/26 18:59:33","新北市板橋區三民路一段31巷42號","121.481141666667","25.0229966666667","6500100","板橋區"
"220074","895-R6","2019/09/26 18:59:45","新北市板橋區倉後街3號","121.455486666667","25.009515","6500100","板橋區"
"220073","985-R7","2019/09/26 18:59:54","新北市板橋區民權路182號","121.459361666667","25.0134316666667","6500100","板橋區"
"220097","AAC-210","2019/09/26 18:58:11","新北市板橋區幸福路60巷58號","121.459471666667","25.0220983333333","6500100","板橋區"
"220064","AAC-253","2019/09/26 18:59:51","新北市板橋區板新路7號","121.47538","25.01246","6500100","板橋區"
"235068","KEA-2873","2019/09/26 18:59:37","新北市中和區圓通路162巷39號","121.496435","24.99557","6500300","中和區"
"235061","KEA-2875","2019/09/26 18:59:38","新北市中和區民有街73號","121.476505","25.0031","6500300","中和區"
