"lineid","car","time","location","longitude","latitude","cityid","cityname"
"234046","148-BY","2019/09/26 19:39:58","新北市永和區永利路183號","121.526196666667","25.0033916666667","6500400","永和區"
"234081","298-R6","2019/09/26 19:39:50","新北市永和區國中路104巷12弄15號","121.52558","25.006585","6500400","永和區"
"234038","336-UY","2019/09/26 19:39:48","新北市永和區成功路一段123號","121.526908333333","25.0019133333333","6500400","永和區"
"234064","337-UY","2019/09/26 19:39:48","新北市永和區秀朗路一段192巷6弄12號","121.519081666667","25.0023316666667","6500400","永和區"
"234086","338-UY","2019/09/26 19:39:47","新北市永和區永亨路154號","121.525615","25.0038266666667","6500400","永和區"
"234070","552-UM","2019/09/26 19:39:42","新北市永和區永和路二段233號","121.515563333333","25.0141266666667","6500400","永和區"
"234017","745-BX","2019/09/26 19:39:43","新北市永和區永和路二段425巷70號","121.513541666667","25.0171683333333","6500400","永和區"
"234030","746-BX","2019/09/26 19:39:47","新北市永和區民生路67巷44號","121.524978333333","24.9973966666667","6500400","永和區"
"234054","KEA-2590","2019/09/26 19:39:47","新北市永和區竹林路39巷3號","121.518196666667","25.0144016666667","6500400","永和區"
"234007","KED-0605","2019/09/26 19:39:38","新北市永和區中和路431-1號","121.509383333333","25.000905","6500400","永和區"
"234013","KEA-2591","2019/09/26 19:39:50","新北市永和區永平路250號","121.508541666667","25.0111666666667","6500400","永和區"
"234061","AAD-866","2019/09/26 19:40:00","新北市永和區永貞路147巷1號","121.516083333333","25.004165","6500400","永和區"
"234042","862-TW","2019/09/26 19:39:44","新北市永和區中和路381號","121.508488333333","24.9999316666667","6500400","永和區"
"234050","863-TW","2019/09/26 19:39:50","新北市永和區保安路35號","121.509843333333","25.0162483333333","6500400","永和區"
"234026","9371-KE","2019/09/26 19:39:55","新北市永和區中和路501巷9號","121.510451666667","25.002745","6500400","永和區"
"234011","9373-KE","2019/09/26 19:39:50","新北市永和區仁愛路335號","121.503181666667","25.0075133333333","6500400","永和區"
"249002","305-UY","2019/09/26 19:39:55","新北市八里區頂寮二街33-1號","121.450295","25.1251883333333","6502300","八里區"
"249003","593-UM","2019/09/26 19:40:00","新北市八里區華峰三街29號","121.399328333333","25.145935","6502300","八里區"
"248016","026-BX","2019/09/26 19:39:45","新北市五股區凌雲路一段46號","121.45178","25.100755","6501500","五股區"
"248008","KED-0815","2019/09/26 19:39:42","新北市五股區四維路118巷13號","121.469221666667","25.0742016666667","6501500","五股區"
"248020","KED-0813","2019/09/26 19:39:55","新北市五股區中直路19-5號","121.42299","25.1118183333333","6501500","五股區"
"248012","247-BX","2019/09/26 19:39:47","新北市五股區蓬萊路6巷43號","121.43582","25.0803616666667","6501500","五股區"
"248014","261-SL","2019/09/26 19:39:48","新北市五股區五福路42巷9號","121.434298333333","25.0896666666667","6501500","五股區"
"248004","677-BX","2019/09/26 19:39:55","新北市五股區成泰路一段222號","121.43653","25.08011","6501500","五股區"
"248002","678-BX","2019/09/26 19:39:43","新北市五股區成泰路三段577巷81號","121.44966","25.1037266666667","6501500","五股區"
"248010","682-TV","2019/09/26 19:39:46","新北市五股區自強路153號","121.43148","25.0693066666667","6501500","五股區"
"234023","9380-KE","2019/09/26 19:39:48","新北市永和區保生路55-1號","121.504503333333","25.0109183333333","6500400","永和區"
"234077","969-R7","2019/09/26 19:39:48","新北市永和區民權路82號","121.519915","24.9972116666667","6500400","永和區"
"234074","AAC-211","2019/09/26 19:39:51","新北市永和區竹林路208號","121.520733333333","25.0082233333333","6500400","永和區"
"234067","AAC-212","2019/09/26 19:39:45","新北市永和區中山路一段191巷7弄1號","121.509513333333","25.0082983333333","6500400","永和區"
"234003","AAC-295","2019/09/26 19:39:56","新北市永和區自由街71號","121.513358333333","25.0052416666667","6500400","永和區"
"244023","483-VK","2019/09/26 19:39:42","新北市林口區文林五街28巷37號","121.373771666667","25.084385","6501700","林口區"
"243012","AAD-798","2019/09/26 19:39:42","新北市泰山區中港西路386號","121.43483","25.05496","6501600","泰山區"
"243014","KEA-2801","2019/09/26 19:39:44","新北市泰山區泰林路二段33-7號","121.435363333333","25.0565233333333","6501600","泰山區"
"243016","421-VK","2019/09/26 19:39:53","新北市泰山區明志路三段385號","121.421396666667","25.034685","6501600","泰山區"
"243009","KEA-2215","2019/09/26 19:39:51","新北市泰山區美寧街60號","121.430958333333","25.0646633333333","6501600","泰山區"
"243011","KEA-2216","2019/09/26 19:39:58","新北市泰山區台麗街24-3號","121.425836666667","25.037575","6501600","泰山區"
"243015","680-BX","2019/09/26 19:39:51","新北市泰山區文程路18巷7號","121.428321666667","25.04893","6501600","泰山區"
"222003","436-BY","2019/09/26 19:39:47","新北市深坑區深南路51-1號","121.621255","25.0097866666667","6501800","深坑區"
"222002","659-BX","2019/09/26 19:39:41","新北市深坑區北深路一段177號","121.632521666667","25.0108766666667","6501800","深坑區"
"231061","002-UM","2019/09/26 19:39:32","新北市新店區安民街73號","121.516513333333","24.9670966666667","6500600","新店區"
"231044","046-UY","2019/09/26 19:39:47","新北市新店區北新路三段129號","121.541248333333","24.9827583333333","6500600","新店區"
"231060","106-UY","2019/09/26 19:39:57","新北市新店區安康路二段182號","121.511428333333","24.9601683333333","6500600","新店區"
"231051","107-UY","2019/09/26 19:39:48","新北市新店區中央四街7號","121.529711666667","24.9738133333333","6500600","新店區"
"231049","108-UY","2019/09/26 19:39:44","新北市新店區建國路128巷3號","121.539013333333","24.979405","6500600","新店區"
"231065","110-UY","2019/09/26 19:39:50","新北市新店區安祥路109巷85弄7號","121.477966666667","24.96036","6500600","新店區"
"231062","256-BX","2019/09/26 19:39:59","新北市新店區合作路28號","121.532691666667","24.9577816666667","6500600","新店區"
"231054","260-TV","2019/09/26 19:39:53","新北市新店區文中路45號","121.539628333333","24.956665","6500600","新店區"
"231042","268-BY","2019/09/26 19:39:56","新北市新店區中興路一段202號","121.54366","24.9653133333333","6500600","新店區"
"231064","278-BY","2019/09/26 19:39:53","新北市新店區安和路二段115號","121.518686666667","24.9704033333333","6500600","新店區"
"231050","AAD-862","2019/09/26 19:39:49","新北市新店區北宜路二段92號","121.555251666667","24.9535866666667","6500600","新店區"
"231045","355-BY","2019/09/26 19:39:54","新北市新店區北宜路二段207號","121.553103333333","24.9532483333333","6500600","新店區"
"231058","3713-VJ","2019/09/26 19:39:39","新北市新店區寶橋路85巷23號","121.545285","24.9761933333333","6500600","新店區"
"231067","4772-VM","2019/09/26 19:39:47","新北市新店區秀山路53號","121.530605","24.9605316666667","6500600","新店區"
"231052","512-UM","2019/09/26 19:39:41","新北市新店區新烏路二段478號","121.552906666667","24.9080083333333","6500600","新店區"
"231041","619-UM","2019/09/26 19:39:44","新北市新店區中正路500-1號","121.53425","24.9819383333333","6500600","新店區"
"231063","641-BX","2019/09/26 19:39:44","新北市新店區達觀路40號","121.503626666667","24.9389983333333","6500600","新店區"
"231047","KED-0819","2019/09/26 19:39:49","新北市新店區五峰路63巷8弄20-1號","121.547608333333","24.9689333333333","6500600","新店區"
"231046","719-UM","2019/09/26 19:39:22","新北市新店區中正路342號","121.536526666667","24.9750933333333","6500600","新店區"
"231057","720-UM","2019/09/26 19:39:57","新北市新店區橘園一路11號","121.54795","24.9340666666667","6500600","新店區"
"231059","897-TW","2019/09/26 19:39:58","新北市新店區安和路三段83號","121.517821666667","24.983805","6500600","新店區"
"231040","898-TW","2019/09/26 19:39:46","新北市新店區北新路一段303號","121.541336666667","24.967355","6500600","新店區"
"231043","899-TW","2019/09/26 19:39:44","新北市新店區北新路二段1號","121.542601666667","24.9711633333333","6500600","新店區"
"231066","AKT-0513","2019/09/26 19:39:53","新北市新店區安康路三段456號","121.484366666667","24.9510966666667","6500600","新店區"
"241011","013-R5","2019/09/26 19:39:54","新北市三重區秀江街162號","121.498311666667","25.0717516666667","6500200","三重區"
"241028","022-UY","2019/09/26 19:39:43","新北市三重區中正南路135號","121.49396","25.0568866666667","6500200","三重區"
"241008","059-VK","2019/09/26 19:39:54","新北市三重區永福街123號","121.478965","25.077105","6500200","三重區"
"241025","060-VK","2019/09/26 19:39:49","新北市三重區忠孝路三段93巷8號","121.47909","25.06481","6500200","三重區"
"241015","062-VK","2019/09/26 19:39:50","新北市三重區福德北路50號","121.5019","25.0657616666667","6500200","三重區"
"241017","063-VK","2019/09/26 19:39:42","新北市三重區重陽路三段5巷30號","121.491253333333","25.065365","6500200","三重區"
"241026","742-BX","2019/09/26 19:39:46","新北市三重區文化南路65巷45號","121.498891666667","25.0608233333333","6500200","三重區"
"241006","262-UM","2019/09/26 19:39:45","新北市三重區聯華街95號","121.485461666667","25.075305","6500200","三重區"
"241009","267-UM","2019/09/26 19:39:57","新北市三重區三和路四段400巷34號","121.479823333333","25.0791216666667","6500200","三重區"
"241032","269-UM","2019/09/26 19:39:40","新北市三重區重陽路一段60巷73號","121.484265","25.05823","6500200","三重區"
"241035","KEA-2210","2019/09/26 19:39:52","新北市三重區正義北路61-3號","121.497551666667","25.0645616666667","6500200","三重區"
"241030","KED-0822","2019/09/26 19:39:47","新北市三重區環河南路221巷17號","121.491626666667","25.0527516666667","6500200","三重區"
"241004","475-VK","2019/09/26 19:39:45","新北市三重區仁愛街377巷132號","121.49353","25.0819383333333","6500200","三重區"
"241020","478-VK","2019/09/26 19:39:52","新北市三重區自強路三段93號","121.487423333333","25.0750333333333","6500200","三重區"
"241014","543-UM","2019/09/26 19:39:46","新北市三重區河邊北街82號","121.504185","25.0689783333333","6500200","三重區"
"241023","545-UM","2019/09/26 19:39:52","新北市三重區忠孝路三段99巷11號","121.479726666667","25.0642666666667","6500200","三重區"
"241001","547-UM","2019/09/26 19:39:41","新北市三重區仁愛街315巷66號","121.494048333333","25.0801816666667","6500200","三重區"
"241019","KEA-2593","2019/09/26 19:40:00","新北市三重區安慶街361巷42號","121.48843","25.068005","6500200","三重區"
"241031","743-BX","2019/09/26 19:39:41","新北市三重區重新路四段244巷10號","121.48625","25.0534933333333","6500200","三重區"
"241012","887-TS","2019/09/26 19:39:54","新北市三重區仁興街33巷50號","121.500483333333","25.07605","6500200","三重區"
"241029","942-UM","2019/09/26 19:39:51","新北市三重區光明路122號","121.49298","25.0559516666667","6500200","三重區"
"235066","003-UY","2019/09/26 19:39:58","新北市中和區景新街138號","121.505461666667","24.9978983333333","6500300","中和區"
"235063","006-UY","2019/09/26 19:39:44","新北市中和區連城路263巷5弄2號","121.492131666667","24.99607","6500300","中和區"
"235056","096-UM","2019/09/26 19:39:56","新北市中和區中山路三段114巷46號","121.47581","25.0073083333333","6500300","中和區"
"235039","097-UM","2019/09/26 19:39:48","新北市中和區景平路125巷2弄4號","121.514821666667","24.9919583333333","6500300","中和區"
"235065","098-UM","2019/09/26 19:39:43","新北市中和區莊敬路23號","121.500095","25.0045966666667","6500300","中和區"
"235040","150-BY","2019/09/26 19:39:50","新北市中和區安平路31號","121.509538333333","24.9949033333333","6500300","中和區"
"235058","151-BY","2019/09/26 19:39:54","新北市中和區員山路150巷2弄33號","121.481711666667","24.9976883333333","6500300","中和區"
"235055","183-VK","2019/09/26 19:39:48","新北市中和區中山路三段181巷18弄11號","121.47265","25.004835","6500300","中和區"
"235038","185-VK","2019/09/26 19:39:48","新北市中和區自強路27巷22號","121.521546666667","24.99326","6500300","中和區"
"235067","255-BX","2019/09/26 19:39:44","新北市中和區新生街220巷21號","121.48272","24.998455","6500300","中和區"
"235044","293-VK","2019/09/26 19:39:45","新北市中和區南山路421巷1弄3號","121.507365","24.9895833333333","6500300","中和區"
"235072","301-VK","2019/09/26 19:39:45","新北市中和區錦和路95號","121.490126666667","24.9956866666667","6500300","中和區"
"235043","352-BY","2019/09/26 19:39:44","新北市中和區興南路二段72號","121.506066666667","24.9847566666667","6500300","中和區"
"235042","KEA-2878","2019/09/26 19:39:57","新北市中和區景安路79巷37弄16-8號","121.508466666667","24.996065","6500300","中和區"
"235069","4980-A6","2019/09/26 19:39:41","新北市中和區中正路655號","121.48509","24.9961466666667","6500300","中和區"
"235070","558-UM","2019/09/26 19:39:58","新北市中和區連勝街33號","121.498398333333","24.9977733333333","6500300","中和區"
"235060","KED-0823","2019/09/26 19:39:55","新北市中和區新生街30巷3號","121.482945","25.0038416666667","6500300","中和區"
"235054","640-BX","2019/09/26 19:39:52","新北市中和區莒光路132號","121.472476666667","25.0014583333333","6500300","中和區"
"235047","732-UM","2019/09/26 19:39:48","新北市中和區景安路201號","121.504753333333","24.9927233333333","6500300","中和區"
"235046","733-UM","2019/09/26 19:39:59","新北市中和區四維街23巷7號","121.513176666667","24.9866833333333","6500300","中和區"
"235071","783-BX","2019/09/26 19:39:57","新北市中和區中正路830號","121.484866666667","25.0039466666667","6500300","中和區"
"235057","801-TS","2019/09/26 19:39:42","新北市中和區新生街122號","121.48351","25.001265","6500300","中和區"
"235041","802-TS","2019/09/26 19:39:51","新北市中和區中安街10號","121.513421666667","25.0033266666667","6500300","中和區"
"235052","805-TS","2019/09/26 19:39:42","新北市中和區華新街206巷25號","121.505876666667","24.9829","6500300","中和區"
"235048","896-TW","2019/09/26 19:39:42","新北市中和區興南路二段47號","121.507288333333","24.9854683333333","6500300","中和區"
"235053","900-TW","2019/09/26 19:39:55","新北市中和區民德路146巷7弄1號","121.467691666667","25.0005","6500300","中和區"
"235051","157-BY","2019/09/26 19:39:47","新北市中和區南山路261號","121.503883333333","24.9926416666667","6500300","中和區"
"235037","AAC-213","2019/09/26 19:39:46","新北市中和區自立路66號","121.523943333333","24.9913366666667","6500300","中和區"
"235059","AAC-215","2019/09/26 19:39:59","新北市中和區錦和路169號","121.490698333333","24.9916733333333","6500300","中和區"
"220065","072-UY","2019/09/26 19:39:58","新北市板橋區國泰街104號","121.466641666667","25.0064316666667","6500100","板橋區"
"220086","073-UY","2019/09/26 19:39:43","新北市板橋區中正路216巷8號","121.456358333333","25.0184633333333","6500100","板橋區"
"220106","075-UY","2019/09/26 19:39:53","新北市板橋區文化路二段652號","121.478526666667","25.0356466666667","6500100","板橋區"
"220069","AAD-861","2019/09/26 19:39:37","新北市板橋區貴興路119巷7號","121.455935","25.0020383333333","6500100","板橋區"
"247012","337-TH","2019/09/26 19:39:53","新北市五股區中興路三段163號","121.449038333333","25.08064","6501400","蘆洲區"
"247004","336-TH","2019/09/26 19:39:42","新北市蘆洲區長安街102巷67號","121.462543333333","25.0823766666667","6501400","蘆洲區"
"247002","001-UY","2019/09/26 19:39:42","新北市蘆洲區三民路595號","121.460951666667","25.0936116666667","6501400","蘆洲區"
"226004","312-R5","2019/09/26 19:39:50","新北市平溪區十分里十分街106號","121.776815","25.04278","6502400","平溪區"
"235049","251-BX","2019/09/26 19:39:52","新北市中和區景平路385巷2號","121.502835","24.9942216666667","6500300","中和區"
"228003","097-TW","2019/09/26 19:39:37","新北市貢寮區真理里美艷山街29-1號","121.923276666667","25.068915","6502600","貢寮區"
"228001","212-TW","2019/09/26 19:39:57","新北市貢寮區真理里延平街67巷1號","121.924345","25.0556566666667","6502600","貢寮區"
"224010","AGQ-8101","2019/09/26 19:39:48","新北市瑞芳區豎崎路1號","121.8435","25.1087416666667","6501200","瑞芳區"
"224002","639-TC","2019/09/26 19:39:46","新北市瑞芳區三爪子坑路53號","121.812883333333","25.10738","6501200","瑞芳區"
"227001","642-TC","2019/09/26 19:39:52","新北市雙溪區新基里新基北街18號","121.867216666667","25.038775","6502500","雙溪區"
"227002","400-TW","2019/09/26 19:39:46","新北市雙溪區雙溪里太平路33號","121.864581666667","25.0354266666667","6502500","雙溪區"
"253006","295-VK","2019/09/26 19:39:41","新北市石門區小坑9號","121.59424","25.28865","6502200","石門區"
"222001","KEA-2212","2019/09/26 19:39:42","新北市深坑區北深路二段198號","121.612973333333","25.00171","6501800","深坑區"
"208002","KEA-2872","2019/09/26 19:39:57","新北市金山區八德街4號","121.635135","25.2236966666667","6502700","金山區"
"208003","665-BX","2019/09/26 19:39:47","新北市金山區中山路145號","121.638743333333","25.2201333333333","6502700","金山區"
"251002","012-UM","2019/09/26 19:39:44","新北市淡水區下圭柔山91-3號","121.430878333333","25.20997","6501000","淡水區"
"251015","KEA-2871","2019/09/26 19:39:49","新北市淡水區山子頂24-1號","121.491373333333","25.1871816666667","6501000","淡水區"
"251016","179-VK","2019/09/26 19:39:54","新北市淡水區淡金路三段350巷18號","121.45076","25.2083566666667","6501000","淡水區"
"251013","180-VK","2019/09/26 19:39:44","新北市淡水區店子後10號","121.460378333333","25.2186266666667","6501000","淡水區"
"251008","181-VK","2019/09/26 19:39:55","新北市淡水區中正路一段56號","121.425673333333","25.1768016666667","6501000","淡水區"
"251010","413-VK","2019/09/26 19:39:47","新北市淡水區崁頂三路135號","121.431463333333","25.20097","6501000","淡水區"
"251007","442-VK","2019/09/26 19:39:44","新北市淡水區中正東路一段111巷28號","121.455448333333","25.1608983333333","6501000","淡水區"
"251005","443-VK","2019/09/26 19:39:55","新北市淡水區原德路106號","121.44325","25.1734","6501000","淡水區"
"251001","559-UM","2019/09/26 19:39:56","新北市淡水區民權路41號","121.45978","25.1401483333333","6501000","淡水區"
"251006","561-UM","2019/09/26 19:39:52","新北市淡水區中山北路一段207巷50號","121.442465","25.1791216666667","6501000","淡水區"
"251009","575-R6","2019/09/26 19:39:43","新北市淡水區中山北路一段184巷9號","121.44533","25.1786166666667","6501000","淡水區"
"251014","577-R6","2019/09/26 19:39:44","新北市淡水區中和里13-2號","121.478343333333","25.2309366666667","6501000","淡水區"
"207003","550-UM","2019/09/26 19:39:55","新北市萬里區大鵬里萬里加投287-10號","121.645358333333","25.2173083333333","6502800","萬里區"
"207004","291-VK","2019/09/26 19:39:43","新北市萬里區萬里里瑪鋉路33-1號","121.687548333333","25.1756316666667","6502800","萬里區"
"252002","178-VK","2019/09/26 19:39:43","新北市三芝區中正路一段18巷34-1號","121.503915","25.259185","6502100","三芝區"
"208001","170-UY","2019/09/26 19:39:48","新北市金山區重和里六股林口23號","121.60348","25.219365","6502700","金山區"
"237004","KEA-2597","2019/09/26 19:39:44","新北市三峽區插角225號","121.414976666667","24.8678583333333","6500900","三峽區"
"237007","153-BY","2019/09/26 19:39:54","新北市三峽區二鬮路136巷24弄29號","121.356533333333","24.9105883333333","6500900","三峽區"
"237009","210-TH","2019/09/26 19:39:52","新北市三峽區中園街45號","121.368235","24.92625","6500900","三峽區"
"237013","252-BX","2019/09/26 19:39:50","新北市三峽區介壽路二段12-1號","121.390161666667","24.9348583333333","6500900","三峽區"
"237012","275-BY","2019/09/26 19:39:48","新北市三峽區民生街1號","121.374558333333","24.9353483333333","6500900","三峽區"
"237008","302-VK","2019/09/26 19:39:54","新北市三峽區大同路154號","121.373105","24.9268433333333","6500900","三峽區"
"237014","433-BY","2019/09/26 19:39:49","新北市三峽區中山路63巷8號","121.366918333333","24.934315","6500900","三峽區"
"237006","5529-G3","2019/09/26 19:39:46","新北市三峽區中正路一段336巷15弄2號","121.36994","24.92496","6500900","三峽區"
"237011","KEA-2596","2019/09/26 19:39:48","新北市三峽區中正路一段304-1號","121.371448333333","24.9255166666667","6500900","三峽區"
"237015","649-BX","2019/09/26 19:39:52","新北市三峽區成福路156號","121.423415","24.9285333333333","6500900","三峽區"
"237010","706-TV","2019/09/26 19:39:57","新北市三峽區復興路75號","121.372716666667","24.9374583333333","6500900","三峽區"
"237005","AKY-6261","2019/09/26 19:39:41","新北市三峽區中山路117號","121.365615","24.935885","6500900","三峽區"
"236042","KED-0685","2019/09/26 19:39:58","新北市土城區學士路2號","121.454118333333","24.9834116666667","6501300","土城區"
"236078","166-UM","2019/09/26 19:39:56","新北市土城區中州路29號","121.41365","24.9577783333333","6501300","土城區"
"236030","253-BX","2019/09/26 19:39:47","新北市土城區福祥街103巷1號","121.441668333333","24.9818866666667","6501300","土城區"
"236014","270-VK","2019/09/26 19:39:48","新北市土城區廣明街41巷38號","121.453935","24.9925616666667","6501300","土城區"
"236038","271-VK","2019/09/26 19:39:47","新北市土城區清水路98巷3弄40號","121.45876","24.9807583333333","6501300","土城區"
"236070","KEA-2877","2019/09/26 19:39:59","新北市土城區金城路二段2巷5號","121.447283333333","24.9759966666667","6501300","土城區"
"252001","KED-0821","2019/09/26 19:39:56","新北市三芝區公正街66號","121.499763333333","25.2574516666667","6502100","三芝區"
"236021","401-BY","2019/09/26 19:39:50","新北市土城區峰廷街18號","121.469018333333","24.98729","6501300","土城區"
"236059","912-UM","2019/09/26 19:39:41","新北市土城區中央路二段16-3號","121.442868333333","24.9805233333333","6501300","土城區"
"236049","913-UM","2019/09/26 19:39:47","新北市土城區延吉街331號","121.465293333333","24.9840416666667","6501300","土城區"
"236055","AAC-216","2019/09/26 19:39:48","新北市土城區立德路2號","121.460978333333","24.9882683333333","6501300","土城區"
"242004","751-BX","2019/09/26 19:39:48","新北市新莊區化成路11巷17號","121.464156666667","25.0434283333333","6500500","新莊區"
"242025","362-BY","2019/09/26 19:39:47","新北市新莊區新北大道四段2號","121.451351666667","25.0600933333333","6500500","新莊區"
"242039","135-UY","2019/09/26 19:39:51","新北市新莊區建國二路81號","121.431141666667","25.0254666666667","6500500","新莊區"
"242031","175-VK","2019/09/26 19:39:46","新北市新莊區新泰路209號","121.445821666667","25.0386833333333","6500500","新莊區"
"242036","348-TH","2019/09/26 19:39:53","新北市新莊區民安路207巷3號","121.4267","25.0228733333333","6500500","新莊區"
"242009","349-TH","2019/09/26 19:39:45","新北市新莊區三和路12-21號","121.442103333333","25.0382","6500500","新莊區"
"238023","601-UM","2019/09/26 19:39:55","新北市樹林區三福街121巷17號","121.40622","25.015355","6500700","樹林區"
"238019","599-UM","2019/09/26 19:39:49","新北市樹林區鎮前街327-5號","121.416835","24.9844333333333","6500700","樹林區"
"238015","571-TV","2019/09/26 19:39:52","新北市樹林區啟智街77巷9號","121.420678333333","24.99185","6500700","樹林區"
"238024","5061-A6","2019/09/26 19:39:58","新北市樹林區中山路三段22號","121.395678333333","24.9729016666667","6500700","樹林區"
"238022","KEA-2213","2019/09/26 19:39:54","新北市樹林區國凱街32-7號","121.419226666667","24.9782416666667","6500700","樹林區"
"238021","KEA-2539","2019/09/26 19:39:55","新北市樹林區佳園路三段145巷36-28號","121.389166666667","24.9490883333333","6500700","樹林區"
"238025","303-VK","2019/09/26 19:39:45","新北市樹林區中山路一段147號","121.422208333333","24.9894583333333","6500700","樹林區"
"238017","283-BY","2019/09/26 19:39:49","新北市樹林區光興街12號","121.412645","25.00292","6500700","樹林區"
"238014","282-BY","2019/09/26 19:39:50","新北市樹林區千歲街28巷2號","121.425701666667","24.9958716666667","6500700","樹林區"
"238020","268-VK","2019/09/26 19:36:09","新北市樹林區俊英街33-1號","121.428186666667","25.0037416666667","6500700","樹林區"
"238026","172-UY","2019/09/26 19:39:58","新北市樹林區佳園路三段30號","121.387965","24.9538683333333","6500700","樹林區"
"238016","169-UY","2019/09/26 19:39:53","新北市樹林區東和街46號","121.399545","24.9839","6500700","樹林區"
"239007","AAC-297","2019/09/26 19:39:52","新北市鶯歌區大湖路87號","121.342196666667","24.96299","6500800","鶯歌區"
"239006","891-R6","2019/09/26 19:39:58","新北市鶯歌區鶯桃路67巷9號","121.340905","24.9521333333333","6500800","鶯歌區"
"239008","527-UM","2019/09/26 19:39:57","新北市鶯歌區大湖路335號","121.341758333333","24.9725983333333","6500800","鶯歌區"
"239001","417-VK","2019/09/26 19:39:57","新北市鶯歌區永智街96號","121.336766666667","24.9535883333333","6500800","鶯歌區"
"239003","360-BY","2019/09/26 19:39:50","新北市鶯歌區文化路307號","121.352495","24.9524583333333","6500800","鶯歌區"
"239002","359-BY","2019/09/26 19:39:59","新北市鶯歌區湖山路25巷26號","121.339548333333","24.9741233333333","6500800","鶯歌區"
"239004","193-VK","2019/09/26 19:39:48","新北市鶯歌區二甲路12號","121.334841666667","24.93461","6500800","鶯歌區"
"221008","489-VK","2019/09/26 19:39:50","新北市汐止區康寧街145號","121.621856666667","25.06662","6501100","汐止區"
"221010","269-BY","2019/09/26 19:39:38","新北市汐止區連峰街1巷2號","121.646315","25.0762766666667","6501100","汐止區"
"221027","281-BY","2019/09/26 19:39:43","新北市汐止區忠孝東路9號","121.658245","25.0659233333333","6501100","汐止區"
"221021","299-VK","2019/09/26 19:39:44","新北市汐止區連興街140號","121.654035","25.0615633333333","6501100","汐止區"
"221031","353-TW","2019/09/26 19:39:47","新北市汐止區康寧街901號","121.650736666667","25.0753166666667","6501100","汐止區"
"221025","623-UM","2019/09/26 19:39:59","新北市汐止區福安街23號","121.662693333333","25.0651433333333","6501100","汐止區"
"221038","646-BX","2019/09/26 19:39:41","新北市汐止區忠孝東路243號","121.66271","25.0675566666667","6501100","汐止區"
"221033","647-BX","2019/09/26 19:39:58","新北市汐止區南勢街3號","121.62708","25.0374083333333","6501100","汐止區"
"220079","145-BY","2019/09/26 19:39:45","新北市板橋區民權路227-1號","121.457546666667","25.0154366666667","6500100","板橋區"
"220080","200-UY","2019/09/26 19:39:50","新北市板橋區大觀路二段37巷208號","121.44938","25.0010383333333","6500100","板橋區"
"220082","610-BX","2019/09/26 19:39:55","新北市板橋區大觀路三段240號","121.429173333333","24.9925933333333","6500100","板橋區"
"220056","276-BY","2019/09/26 19:39:52","新北市板橋區信義路1巷26弄39號","121.459066666667","24.99672","6500100","板橋區"
"220072","277-BY","2019/09/26 19:39:47","新北市板橋區金門街253巷17弄27號","121.433515","24.989085","6500100","板橋區"
"220101","280-UM","2019/09/26 19:39:52","新北市板橋區縣民大道三段93巷23號","121.474696666667","25.0223316666667","6500100","板橋區"
"220071","283-VK","2019/09/26 19:39:40","新北市板橋區四川路一段283巷2號","121.459768333333","25.0013116666667","6500100","板橋區"
"220094","285-UM","2019/09/26 19:39:53","新北市板橋區長江路二段151號","121.465963333333","25.031905","6500100","板橋區"
"220083","286-VK","2019/09/26 19:39:58","新北市板橋區龍興街65巷73號","121.441861666667","25.0020883333333","6500100","板橋區"
"220081","287-VK","2019/09/26 19:39:51","新北市板橋區大觀路一段75巷7號","121.447593333333","25.0044416666667","6500100","板橋區"
"220039","288-VK","2019/09/26 19:39:47","新北市板橋區綠堤街33-4號","121.455756666667","25.026475","6500100","板橋區"
"220061","293-UM","2019/09/26 19:39:52","新北市板橋區中山路一段283巷2弄1號","121.47015","25.014545","6500100","板橋區"
"220084","296-UM","2019/09/26 19:39:56","新北市板橋區滿平二街10巷2弄16號","121.4256","24.987495","6500100","板橋區"
"220053","299-UM","2019/09/26 19:40:00","新北市板橋區民享街1號","121.474745","25.01439","6500100","板橋區"
"220075","303-R5","2019/09/26 19:39:57","新北市板橋區中正路253巷31號","121.454046666667","25.01768","6500100","板橋區"
"220062","305-R5","2019/09/26 19:39:50","新北市板橋區三民路二段83號","121.479401666667","25.0166416666667","6500100","板橋區"
"220092","307-R5","2019/09/26 19:39:50","新北市板橋區四維路259巷62號","121.460583333333","25.0268216666667","6500100","板橋區"
"220098","317-R6","2019/09/26 19:39:54","新北市板橋區四維路326巷12號","121.462863333333","25.0304166666667","6500100","板橋區"
"220089","487-VK","2019/09/26 19:39:39","新北市板橋區互助街83號","121.459875","25.0259633333333","6500100","板橋區"
"220088","491-VK","2019/09/26 19:39:46","新北市板橋區文聖街20-3號","121.476095","25.0316983333333","6500100","板橋區"
"220035","560-BX","2019/09/26 19:39:49","新北市板橋區中正路379巷3弄42號","121.453413333333","25.0208866666667","6500100","板橋區"
"220103","561-BX","2019/09/26 19:40:00","新北市板橋區文化路一段435巷31弄14號","121.46666","25.0230966666667","6500100","板橋區"
"220063","609-BX","2019/09/26 19:39:55","新北市板橋區中山路二段387號","121.480263333333","25.0193233333333","6500100","板橋區"
"220091","637-BX","2019/09/26 19:39:42","新北市板橋區懷德街139巷7號","121.479593333333","25.0306916666667","6500100","板橋區"
"220057","686-BX","2019/09/26 19:39:53","新北市板橋區信義路243號","121.460328333333","24.9910233333333","6500100","板橋區"
"220077","687-BX","2019/09/26 19:39:55","新北市板橋區僑中二街86號","121.44649","25.0095883333333","6500100","板橋區"
"220093","689-BX","2019/09/26 19:39:58","新北市板橋區長江路二段243號","121.468871666667","25.03265","6500100","板橋區"
"220054","741-BX","2019/09/26 19:39:46","新北市板橋區光明街4號","121.459953333333","25.00243","6500100","板橋區"
"220102","KEA-2699","2019/09/26 19:39:50","新北市板橋區松柏街31號","121.475201666667","25.030315","6500100","板橋區"
"220055","827-TW","2019/09/26 19:39:54","新北市板橋區國慶路149巷5號","121.461165","24.9969183333333","6500100","板橋區"
"220068","830-TW","2019/09/26 19:40:00","新北市板橋區中山路二段416巷1弄2-2號","121.483391666667","25.0207333333333","6500100","板橋區"
"220074","895-R6","2019/09/26 19:39:45","新北市板橋區福德街29號","121.456108333333","25.00883","6500100","板橋區"
"220073","985-R7","2019/09/26 19:39:54","新北市板橋區國光路49巷17號","121.458901666667","25.0187716666667","6500100","板橋區"
"220097","AAC-210","2019/09/26 19:39:54","新北市板橋區文化路一段179號","121.46296","25.0161433333333","6500100","板橋區"
"220064","AAC-253","2019/09/26 19:39:54","新北市板橋區實踐路106號","121.464118333333","25.0046116666667","6500100","板橋區"
"235068","KEA-2873","2019/09/26 19:39:37","新北市中和區莊敬路2號","121.499406666667","25.0042616666667","6500300","中和區"
"235061","KEA-2875","2019/09/26 19:39:38","新北市中和區新生街148巷22號","121.48255","25.000805","6500300","中和區"
"235026","KEA-2876","2019/09/26 19:39:52","新北市中和區員山路36巷13號","121.48433","24.9906916666667","6500300","中和區"
