"lineid","car","time","location","longitude","latitude","cityid","cityname"
"234046","148-BY","2019/09/26 19:49:58","新北市永和區永利路125號","121.524028333333","25.002845","6500400","永和區"
"234081","298-R6","2019/09/26 19:49:50","新北市永和區國中路4號","121.524386666667","25.0043866666667","6500400","永和區"
"234038","336-UY","2019/09/26 19:49:48","新北市永和區民樂街39巷18弄64號","121.52844","24.9987616666667","6500400","永和區"
"234064","337-UY","2019/09/26 19:49:51","新北市永和區中正路368巷16號","121.518338333333","25.0007633333333","6500400","永和區"
"234086","338-UY","2019/09/26 19:49:42","新北市永和區永利路2號","121.517311666667","25.0059116666667","6500400","永和區"
"234070","552-UM","2019/09/26 19:49:42","新北市永和區竹林路88號","121.519445","25.0126","6500400","永和區"
"234017","745-BX","2019/09/26 19:49:43","新北市永和區永和路二段301巷1號","121.515886666667","25.01639","6500400","永和區"
"234030","746-BX","2019/09/26 19:49:47","新北市永和區民生路22巷27號","121.521186666667","24.9969216666667","6500400","永和區"
"234054","KEA-2590","2019/09/26 19:49:46","新北市永和區竹林路75巷25弄8號","121.520126666667","25.0144416666667","6500400","永和區"
"234007","KED-0605","2019/09/26 19:49:58","新北市中和區中山路二段23號","121.504931666667","25.0054033333333","6500400","永和區"
"234013","KEA-2591","2019/09/26 19:49:49","新北市永和區永平路296號","121.507458333333","25.012205","6500400","永和區"
"234061","AAD-866","2019/09/26 19:50:01","新北市永和區民有街1號","121.515856666667","24.9975183333333","6500400","永和區"
"234042","862-TW","2019/09/26 19:49:44","新北市永和區中和路389巷11弄1號","121.508055","25.0009466666667","6500400","永和區"
"234050","863-TW","2019/09/26 19:49:50","新北市永和區保安路77號","121.508643333333","25.0148733333333","6500400","永和區"
"234026","9371-KE","2019/09/26 19:49:55","新北市永和區雙和街25巷4號","121.508938333333","25.0019516666667","6500400","永和區"
"234011","9373-KE","2019/09/26 19:49:50","新北市永和區仁愛路352巷112弄12號","121.501111666667","25.00855","6500400","永和區"
"249005","172-UM","2019/09/26 19:49:56","新北市八里區中華路三段186號","121.390176666667","25.12758","6502300","八里區"
"249001","173-UM","2019/09/26 19:49:34","新北市八里區中華路二段201-27號","121.40582","25.1500066666667","6502300","八里區"
"249004","303-UY","2019/09/26 19:49:42","新北市八里區中山路一段268巷5弄2號","121.414583333333","25.16066","6502300","八里區"
"249002","305-UY","2019/09/26 19:49:55","新北市八里區頂寮五街17號","121.451503333333","25.1260033333333","6502300","八里區"
"249003","593-UM","2019/09/26 19:50:00","新北市八里區中華路二段558號","121.398561666667","25.1451933333333","6502300","八里區"
"248016","026-BX","2019/09/26 19:49:45","新北市五股區成泰路四段22巷13號","121.454358333333","25.1071916666667","6501500","五股區"
"248008","KED-0815","2019/09/26 19:49:42","新北市五股區四維路173號","121.467841666667","25.075065","6501500","五股區"
"248020","KED-0813","2019/09/26 19:49:55","新北市五股區中直路53-2號","121.419281666667","25.117315","6501500","五股區"
"248012","247-BX","2019/09/26 19:49:47","新北市五股區蓬萊路2巷1號","121.435793333333","25.0794683333333","6501500","五股區"
"248014","261-SL","2019/09/26 19:49:48","新北市五股區五福路14巷8號","121.434755","25.0887383333333","6501500","五股區"
"248004","677-BX","2019/09/26 19:49:55","新北市五股區成泰路一段10號","121.434501666667","25.06743","6501500","五股區"
"248002","678-BX","2019/09/26 19:49:43","新北市五股區成泰路四段9號","121.452936666667","25.1065433333333","6501500","五股區"
"248010","682-TV","2019/09/26 19:49:46","新北市五股區登林路貿商巷1弄2號","121.429625","25.0699383333333","6501500","五股區"
"234023","9380-KE","2019/09/26 19:49:48","新北市永和區仁愛路264號","121.504265","25.0086133333333","6500400","永和區"
"234077","969-R7","2019/09/26 19:49:48","新北市永和區智光街53號","121.517198333333","24.9979333333333","6500400","永和區"
"234074","AAC-211","2019/09/26 19:49:51","新北市永和區豫溪街136巷5號","121.521271666667","25.009975","6500400","永和區"
"234067","AAC-212","2019/09/26 19:49:45","新北市永和區永貞路353號","121.509073333333","25.0075316666667","6500400","永和區"
"234003","AAC-295","2019/09/26 19:49:56","新北市永和區福和路318號","121.515701666667","25.00729","6500400","永和區"
"243012","AAD-798","2019/09/26 19:49:42","新北市泰山區仁愛路100巷30號","121.433445","25.0550083333333","6501600","泰山區"
"243014","KEA-2801","2019/09/26 19:49:44","新北市泰山區泰林路二段33-7號","121.435338333333","25.0565166666667","6501600","泰山區"
"243016","421-VK","2019/09/26 19:49:53","新北市泰山區貴鳳街3號","121.421643333333","25.0315833333333","6501600","泰山區"
"243009","KEA-2215","2019/09/26 19:49:51","新北市泰山區美寧街60號","121.430936666667","25.064655","6501600","泰山區"
"243011","KEA-2216","2019/09/26 19:49:58","新北市泰山區明志路三段204巷10弄11號","121.422976666667","25.0386916666667","6501600","泰山區"
"222003","436-BY","2019/09/26 19:49:47","新北市深坑區深南路51-1號","121.621221666667","25.0098","6501800","深坑區"
"222002","659-BX","2019/09/26 19:49:41","新北市深坑區北深路一段361號","121.622303333333","25.0049566666667","6501800","深坑區"
"231061","002-UM","2019/09/26 19:49:59","新北市新店區安民街189-7號","121.517066666667","24.9713833333333","6500600","新店區"
"231044","046-UY","2019/09/26 19:49:47","新北市新店區復興路50號","121.538046666667","24.9868566666667","6500600","新店區"
"231060","106-UY","2019/09/26 19:49:53","新北市新店區安康路二段161號","121.510206666667","24.9594083333333","6500600","新店區"
"231051","107-UY","2019/09/26 19:49:48","新北市新店區中央三街25號","121.52871","24.9739033333333","6500600","新店區"
"231049","108-UY","2019/09/26 19:49:44","新北市新店區民權路127巷19號","121.535398333333","24.9817583333333","6500600","新店區"
"231065","110-UY","2019/09/26 19:49:50","新北市新店區安祥路109巷151弄8號","121.4783","24.9589283333333","6500600","新店區"
"231068","187-VK","2019/09/26 19:49:59","新北市新店區安一路一段1-1號","121.519536666667","24.96129","6500600","新店區"
"231062","256-BX","2019/09/26 19:49:38","新北市新店區永業路30號","121.532835","24.95553","6500600","新店區"
"231054","260-TV","2019/09/26 19:49:53","新北市新店區光明街11號","121.53836","24.9592333333333","6500600","新店區"
"231042","268-BY","2019/09/26 19:49:53","新北市新店區中興路一段268-2號","121.545341666667","24.967735","6500600","新店區"
"231064","278-BY","2019/09/26 19:49:53","新北市新店區光華街5巷18號","121.517655","24.9683466666667","6500600","新店區"
"231050","AAD-862","2019/09/26 19:49:49","新北市新店區北宜路二段579巷2號","121.565385","24.9541033333333","6500600","新店區"
"231045","355-BY","2019/09/26 19:49:53","新北市新店區北宜路二段483號","121.562148333333","24.9539133333333","6500600","新店區"
"231056","4715-K9","2019/09/26 19:49:53","新北市新店區民權路42巷26號","121.539413333333","24.9837483333333","6500600","新店區"
"231067","4772-VM","2019/09/26 19:49:47","新北市新店區精忠路10-1號","121.532503333333","24.9591033333333","6500600","新店區"
"231052","512-UM","2019/09/26 19:49:41","新北市新店區新烏路三段266號","121.550271666667","24.9002983333333","6500600","新店區"
"231041","619-UM","2019/09/26 19:49:44","新北市新店區中央路196號","121.53083","24.9745683333333","6500600","新店區"
"231063","641-BX","2019/09/26 19:49:43","新北市新店區車子路11號","121.502891666667","24.9516483333333","6500600","新店區"
"231047","KED-0819","2019/09/26 19:49:49","新北市新店區中興路二段100巷1號","121.54762","24.9715283333333","6500600","新店區"
"231046","719-UM","2019/09/26 19:47:02","新北市新店區福園街10巷3號","121.532621666667","24.9728316666667","6500600","新店區"
"231057","720-UM","2019/09/26 19:49:57","新北市新店區梅崗一路10號","121.555966666667","24.931445","6500600","新店區"
"231059","897-TW","2019/09/26 19:49:58","新北市新店區安和路二段227號","121.517235","24.976035","6500600","新店區"
"231040","898-TW","2019/09/26 19:49:46","新北市新店區中正路75巷71號","121.543046666667","24.9688816666667","6500600","新店區"
"231043","899-TW","2019/09/26 19:49:44","新北市新店區中正路251號","121.538971666667","24.97347","6500600","新店區"
"231066","AKT-0513","2019/09/26 19:49:53","新北市新店區安康路三段109號","121.49099","24.9517616666667","6500600","新店區"
"241011","013-R5","2019/09/26 19:49:50","新北市三重區文化北路248號","121.497311666667","25.07009","6500200","三重區"
"241028","022-UY","2019/09/26 19:49:43","新北市三重區中正南路117號","121.494046666667","25.0572283333333","6500200","三重區"
"241008","059-VK","2019/09/26 19:49:54","新北市三重區永福街96號","121.478773333333","25.0759366666667","6500200","三重區"
"241025","060-VK","2019/09/26 19:49:49","新北市三重區忠孝路三段52號","121.480671666667","25.065735","6500200","三重區"
"241015","062-VK","2019/09/26 19:49:44","新北市三重區重新路一段1號","121.503838333333","25.0642316666667","6500200","三重區"
"241017","063-VK","2019/09/26 19:49:42","新北市三重區重陽路三段27巷2弄4號","121.489648333333","25.0666833333333","6500200","三重區"
"241003","091-VK","2019/09/26 19:49:48","新北市三重區五華街93巷48號","121.493543333333","25.0848616666667","6500200","三重區"
"241026","742-BX","2019/09/26 19:49:46","新北市三重區文化南路36號","121.500495","25.0614916666667","6500200","三重區"
"241006","262-UM","2019/09/26 19:49:45","新北市三重區永福街277號","121.482325","25.0742116666667","6500200","三重區"
"241016","266-UM","2019/09/26 19:49:57","新北市三重區正德街65號","121.495685","25.0633716666667","6500200","三重區"
"241009","267-UM","2019/09/26 19:49:42","新北市三重區三和路四段396巷23號","121.480423333333","25.0789966666667","6500200","三重區"
"241018","268-UM","2019/09/26 19:49:57","新北市三重區雙園街57巷3號","121.494856666667","25.0675916666667","6500200","三重區"
"241032","269-UM","2019/09/26 19:50:00","新北市三重區重陽路一段44巷10號","121.485846666667","25.0577566666667","6500200","三重區"
"241035","KEA-2210","2019/09/26 19:49:52","新北市三重區中央北路18巷41號","121.49947","25.0638433333333","6500200","三重區"
"241030","KED-0822","2019/09/26 19:49:47","新北市三重區昌隆街71號","121.490725","25.0507816666667","6500200","三重區"
"241004","475-VK","2019/09/26 19:49:45","新北市三重區五華街74號","121.49351","25.08196","6500200","三重區"
"241020","478-VK","2019/09/26 19:49:52","新北市三重區三和路4段20巷26-1號","121.490085","25.0732683333333","6500200","三重區"
"241014","543-UM","2019/09/26 19:49:46","新北市三重區長安街71號","121.501408333333","25.06739","6500200","三重區"
"241023","545-UM","2019/09/26 19:49:52","新北市三重區頂崁街172號","121.47757","25.0659233333333","6500200","三重區"
"241001","547-UM","2019/09/26 19:49:41","新北市三重區仁愛街329號","121.492358333333","25.07959","6500200","三重區"
"241019","KEA-2593","2019/09/26 19:49:41","新北市三重區自強路二段67巷15號","121.489406666667","25.0702933333333","6500200","三重區"
"241005","AAD-863","2019/09/26 19:49:51","新北市三重區溪尾街327號","121.488163333333","25.0847583333333","6500200","三重區"
"241031","743-BX","2019/09/26 19:49:41","新北市三重區重新路四段214巷10號","121.486546666667","25.054415","6500200","三重區"
"241012","887-TS","2019/09/26 19:49:54","新北市三重區仁興街56巷22號","121.498505","25.075575","6500200","三重區"
"241029","942-UM","2019/09/26 19:49:51","新北市三重區光明路31-1號","121.491333333333","25.0584033333333","6500200","三重區"
"235066","003-UY","2019/09/26 19:49:58","新北市中和區南工路40號","121.50577","25.00118","6500300","中和區"
"235056","096-UM","2019/09/26 19:49:56","新北市中和區中山路三段170巷2弄1號","121.47289","25.0066983333333","6500300","中和區"
"235039","097-UM","2019/09/26 19:49:48","新北市中和區大勇街27巷19號","121.516588333333","24.99372","6500300","中和區"
"235065","098-UM","2019/09/26 19:49:55","新北市中和區永和路39巷2號","121.497986666667","25.0049766666667","6500300","中和區"
"235040","150-BY","2019/09/26 19:49:50","新北市中和區景安路77號","121.506485","24.99744","6500300","中和區"
"235055","183-VK","2019/09/26 19:49:47","新北市中和區德光路26-1號","121.470641666667","25.0045383333333","6500300","中和區"
"235038","185-VK","2019/09/26 19:49:48","新北市中和區自立路10號","121.522453333333","24.9964133333333","6500300","中和區"
"235044","293-VK","2019/09/26 19:49:45","新北市中和區板南路108號","121.503413333333","24.9924666666667","6500300","中和區"
"235072","301-VK","2019/09/26 19:49:45","新北市板橋區萬安街20巷10弄16號","121.48508","25.0238333333333","6500300","中和區"
"235043","352-BY","2019/09/26 19:49:44","新北市中和區興南路二段159巷7號","121.505243333333","24.9831283333333","6500300","中和區"
"235042","KEA-2878","2019/09/26 19:49:57","新北市中和區景安路15號","121.508286666667","24.998955","6500300","中和區"
"247016","KEA-2869","2019/09/26 19:49:58","新北市蘆洲區中正路245號","121.467845","25.0869933333333","6501400","蘆洲區"
"235050","4979-A6","2019/09/26 19:49:41","新北市中和區景平路241巷84弄54號","121.506063333333","24.9923716666667","6500300","中和區"
"235069","4980-A6","2019/09/26 19:49:41","新北市中和區和城路一段271巷1號","121.485533333333","24.991725","6500300","中和區"
"235070","558-UM","2019/09/26 19:49:39","新北市中和區圓通路74號","121.500095","24.99722","6500300","中和區"
"235047","732-UM","2019/09/26 19:49:48","新北市中和區和平街82號","121.507663333333","24.9912133333333","6500300","中和區"
"235046","733-UM","2019/09/26 19:49:39","新北市中和區興南路一段61號","121.51042","24.9897233333333","6500300","中和區"
"235041","802-TS","2019/09/26 19:49:51","新北市中和區安平路116號","121.511823333333","24.997535","6500300","中和區"
"235052","805-TS","2019/09/26 19:49:42","新北市中和區興南路二段117巷13號","121.505815","24.9840116666667","6500300","中和區"
"235048","896-TW","2019/09/26 19:49:42","新北市中和區興南路一段48號","121.511048333333","24.9906816666667","6500300","中和區"
"235053","900-TW","2019/09/26 19:49:55","新北市中和區民德路270號","121.468006666667","24.9965233333333","6500300","中和區"
"235051","157-BY","2019/09/26 19:49:47","新北市中和區中興街123號","121.499943333333","24.9917516666667","6500300","中和區"
"235037","AAC-213","2019/09/26 19:49:46","新北市中和區自立路121號","121.521855","24.99432","6500300","中和區"
"235059","AAC-215","2019/09/26 19:49:39","新北市中和區圓通路305巷27弄1號","121.495006666667","24.989155","6500300","中和區"
"220065","072-UY","2019/09/26 19:49:38","新北市板橋區國泰街39巷7弄2號","121.468716666667","25.00565","6500100","板橋區"
"220086","073-UY","2019/09/26 19:49:43","新北市板橋區漢生西路89巷4弄10號","121.461058333333","25.0187416666667","6500100","板橋區"
"220106","075-UY","2019/09/26 19:49:53","新北市板橋區民治街71巷1弄3號","121.480118333333","25.03276","6500100","板橋區"
"220069","AAD-861","2019/09/26 19:49:57","新北市板橋區大明街27號","121.458376666667","25.00255","6500100","板橋區"
"247004","336-TH","2019/09/26 19:49:42","新北市蘆洲區中原路72號","121.45839","25.0819516666667","6501400","蘆洲區"
"247014","056-VK","2019/09/26 19:49:42","新北市蘆洲區復興路30號","121.472255","25.0850966666667","6501400","蘆洲區"
"247002","001-UY","2019/09/26 19:49:45","新北市蘆洲區永樂街38巷40號","121.45857","25.0900133333333","6501400","蘆洲區"
"226004","312-R5","2019/09/26 19:49:54","新北市平溪區十分里十分街282號","121.77922","25.045455","6502400","平溪區"
"235049","251-BX","2019/09/26 19:49:52","新北市中和區中興街37號","121.500855","24.9943016666667","6500300","中和區"
"228003","097-TW","2019/09/26 19:49:57","新北市貢寮區真理里美艷山街3-1號","121.925576666667","25.0595","6502600","貢寮區"
"228001","212-TW","2019/09/26 19:49:59","新北市貢寮區真理里新港街84號","121.927378333333","25.0564033333333","6502600","貢寮區"
"224010","AGQ-8101","2019/09/26 19:49:47","新北市瑞芳區輕便路39號","121.845481666667","25.1103966666667","6501200","瑞芳區"
"224002","639-TC","2019/09/26 19:49:46","新北市瑞芳區三爪子坑路13巷211號","121.815976666667","25.106005","6501200","瑞芳區"
"227001","642-TC","2019/09/26 19:49:52","新北市雙溪區新基里朝陽街18號","121.865898333333","25.038725","6502500","雙溪區"
"227002","400-TW","2019/09/26 19:49:46","新北市雙溪區雙溪里內挖路36號","121.863208333333","25.03674","6502500","雙溪區"
"222001","KEA-2212","2019/09/26 19:49:42","新北市深坑區北深路三段83號","121.606561666667","25.0015366666667","6501800","深坑區"
"208002","KEA-2872","2019/09/26 19:49:54","新北市金山區環金路155號","121.634163333333","25.2175366666667","6502700","金山區"
"208003","665-BX","2019/09/26 19:49:55","新北市金山區海興路112號","121.631403333333","25.238935","6502700","金山區"
"251004","009-UM","2019/09/26 19:49:50","新北市淡水區民權路177巷55號","121.460471666667","25.1337666666667","6501000","淡水區"
"251002","012-UM","2019/09/26 19:49:44","新北市淡水區崁頂132號","121.431356666667","25.205345","6501000","淡水區"
"251015","KEA-2871","2019/09/26 19:49:49","新北市淡水區山子頂24-1號","121.491366666667","25.18719","6501000","淡水區"
"251016","179-VK","2019/09/26 19:49:54","新北市淡水區三塊厝3-2號","121.456148333333","25.2092033333333","6501000","淡水區"
"251013","180-VK","2019/09/26 19:49:44","新北市淡水區頂田寮路168號","121.459706666667","25.2156433333333","6501000","淡水區"
"251008","181-VK","2019/09/26 19:49:55","新北市淡水區中正路一段24巷2-4號","121.426828333333","25.1770033333333","6501000","淡水區"
"251012","441-VK","2019/09/26 19:49:39","新北市淡水區淡金路三段56號","121.44821","25.199735","6501000","淡水區"
"251007","442-VK","2019/09/26 19:49:43","新北市淡水區中正東路一段3巷25號","121.45161","25.165315","6501000","淡水區"
"251005","443-VK","2019/09/26 19:49:55","新北市淡水區中正東路6號","121.447008333333","25.167145","6501000","淡水區"
"251001","559-UM","2019/09/26 19:49:56","新北市淡水區淡金路101號","121.456671666667","25.1634483333333","6501000","淡水區"
"251006","561-UM","2019/09/26 19:49:52","新北市淡水區水碓街15號","121.443513333333","25.1769883333333","6501000","淡水區"
"251009","575-R6","2019/09/26 19:49:43","新北市淡水區中正路38-1號","121.44369","25.169265","6501000","淡水區"
"251014","577-R6","2019/09/26 19:49:44","新北市淡水區石頭厝17-2號","121.467868333333","25.23712","6501000","淡水區"
"251011","650-BX","2019/09/26 19:49:51","新北市淡水區八勢路20號","121.460728333333","25.1534","6501000","淡水區"
"207003","550-UM","2019/09/26 19:49:54","新北市萬里區大鵬里下社48號","121.648651666667","25.2160533333333","6502800","萬里區"
"207004","291-VK","2019/09/26 19:49:53","新北市萬里區萬里里瑪鋉路134號","121.690463333333","25.1793216666667","6502800","萬里區"
"252002","178-VK","2019/09/26 19:49:43","新北市三芝區三民街31號","121.504578333333","25.2585366666667","6502100","三芝區"
"208001","170-UY","2019/09/26 19:49:56","新北市金山區重和里六股林口3-1號","121.599805","25.212095","6502700","金山區"
"237004","KEA-2597","2019/09/26 19:49:44","新北市三峽區添福263號","121.375488333333","24.8936683333333","6500900","三峽區"
"237007","153-BY","2019/09/26 19:49:54","新北市三峽區二鬮路136巷22弄51號","121.357593333333","24.9102333333333","6500900","三峽區"
"237009","210-TH","2019/09/26 19:49:52","新北市三峽區清水街425號","121.368711666667","24.92616","6500900","三峽區"
"237013","252-BX","2019/09/26 19:49:50","新北市三峽區溪北街76號","121.3976","24.9356033333333","6500900","三峽區"
"237012","275-BY","2019/09/26 19:49:58","新北市三峽區光明路3巷38-1號","121.373293333333","24.9326416666667","6500900","三峽區"
"237008","302-VK","2019/09/26 19:49:54","新北市三峽區大同路199號","121.370923333333","24.9270583333333","6500900","三峽區"
"237014","433-BY","2019/09/26 19:49:49","新北市三峽區嘉添42號","121.368661666667","24.911095","6500900","三峽區"
"237006","5529-G3","2019/09/26 19:49:46","新北市三峽區中正路一段336巷15弄2號","121.369935","24.9249533333333","6500900","三峽區"
"237015","649-BX","2019/09/26 19:49:52","新北市三峽區溪東路148號","121.405376666667","24.9330666666667","6500900","三峽區"
"237010","706-TV","2019/09/26 19:49:57","新北市三峽區復興路36-1號","121.37404","24.93635","6500900","三峽區"
"237005","AKY-6261","2019/09/26 19:49:41","新北市三峽區長泰街18巷7號","121.379445","24.93179","6500900","三峽區"
"236042","KED-0685","2019/09/26 19:49:58","新北市土城區金城路二段237號","121.455693333333","24.9824716666667","6501300","土城區"
"236078","166-UM","2019/09/26 19:49:56","新北市土城區中央路四段488號","121.409121666667","24.9505816666667","6501300","土城區"
"236030","253-BX","2019/09/26 19:49:47","新北市土城區中央路一段294號","121.443328333333","24.982355","6501300","土城區"
"236026","269-VK","2019/09/26 19:49:58","新北市土城區中央路二段61巷40號","121.443831666667","24.9785166666667","6501300","土城區"
"236014","270-VK","2019/09/26 19:49:48","新北市土城區廣福街123號","121.456218333333","24.9929","6501300","土城區"
"236070","KEA-2877","2019/09/26 19:49:58","新北市土城區中央路二段346巷23號","121.439298333333","24.9723233333333","6501300","土城區"
"252001","KED-0821","2019/09/26 19:49:55","新北市三芝區公正街66號","121.499798333333","25.2574666666667","6502100","三芝區"
"236021","401-BY","2019/09/26 19:49:50","新北市土城區延吉街137巷13號","121.470985","24.98571","6501300","土城區"
"236059","912-UM","2019/09/26 19:49:41","新北市土城區中央路一段148號","121.446163333333","24.9874216666667","6501300","土城區"
"236049","913-UM","2019/09/26 19:49:47","新北市土城區青雲路236號","121.45906","24.9806416666667","6501300","土城區"
"236063","915-UM","2019/09/26 19:49:38","新北市土城區延平街58號","121.467931666667","24.992575","6501300","土城區"
"236055","AAC-216","2019/09/26 19:49:55","新北市土城區延和路219號","121.469971666667","24.9896183333333","6501300","土城區"
"242004","751-BX","2019/09/26 19:47:08","新北市新莊區化成路45號","121.46514","25.0446933333333","6500500","新莊區"
"242048","566-BX","2019/09/26 19:49:52","新北市新莊區建安街76巷5弄13號","121.425665","25.0250383333333","6500500","新莊區"
"242053","497-BY","2019/09/26 19:49:41","新北市新莊區民安西路458號","121.431225","25.008285","6500500","新莊區"
"242013","413-TV","2019/09/26 19:49:59","新北市新莊區中誠街97號","121.45001","25.04761","6500500","新莊區"
"242025","362-BY","2019/09/26 19:49:47","新北市新莊區五權一路12巷21弄6號","121.457825","25.0645183333333","6500500","新莊區"
"242023","353-BY","2019/09/26 19:49:48","新北市新莊區化成路160號","121.465445","25.0452533333333","6500500","新莊區"
"242039","135-UY","2019/09/26 19:49:51","新北市新莊區民安路299巷51號","121.429643333333","25.0236966666667","6500500","新莊區"
"242056","172-VK","2019/09/26 19:49:47","新北市新莊區新泰路101巷21號","121.448766666667","25.0345633333333","6500500","新莊區"
"242017","173-VK","2019/09/26 19:49:51","新北市新莊區中華路一段108號","121.452348333333","25.04006","6500500","新莊區"
"242031","175-VK","2019/09/26 19:49:47","新北市新莊區忠孝街97號","121.443913333333","25.0370616666667","6500500","新莊區"
"242021","KED-0687","2019/09/26 19:49:41","新北市新莊區新泰路137號","121.448155","25.036335","6500500","新莊區"
"242036","348-TH","2019/09/26 19:49:46","新北市新莊區民安路207巷30弄3號","121.427863333333","25.023895","6500500","新莊區"
"242009","349-TH","2019/09/26 19:49:45","新北市新莊區三和路12-21號","121.44233","25.0381916666667","6500500","新莊區"
"242034","350-TH","2019/09/26 19:49:40","新北市新莊區仁愛街54巷1號","121.44496","25.0371616666667","6500500","新莊區"
"238023","601-UM","2019/09/26 19:49:55","新北市樹林區中正路105號","121.424683333333","25.00132","6500700","樹林區"
"238019","599-UM","2019/09/26 19:49:49","新北市樹林區鎮前街413號","121.414928333333","24.9834666666667","6500700","樹林區"
"238015","571-TV","2019/09/26 19:49:52","新北市樹林區樹德街35號","121.421746666667","24.9914916666667","6500700","樹林區"
"238024","5061-A6","2019/09/26 19:49:56","新北市樹林區育德街19巷22號","121.392468333333","24.9698783333333","6500700","樹林區"
"238022","KEA-2213","2019/09/26 19:49:54","新北市樹林區國凱街50巷31號","121.42095","24.9781516666667","6500700","樹林區"
"238021","KEA-2539","2019/09/26 19:49:55","新北市樹林區佳園路三段181巷81號","121.390811666667","24.9483116666667","6500700","樹林區"
"238025","303-VK","2019/09/26 19:49:45","新北市樹林區中山路二段60號","121.416203333333","24.9844566666667","6500700","樹林區"
"238017","283-BY","2019/09/26 19:49:49","新北市樹林區保安街二段107巷2號","121.415071666667","25.000925","6500700","樹林區"
"238014","282-BY","2019/09/26 19:49:50","新北市樹林區千歲街68號","121.42618","24.9974733333333","6500700","樹林區"
"238026","172-UY","2019/09/26 19:49:48","新北市樹林區佳園路二段8-7號","121.393013333333","24.9639033333333","6500700","樹林區"
"239007","AAC-297","2019/09/26 19:49:52","新北市鶯歌區大湖路326巷55號","121.346033333333","24.9695816666667","6500800","鶯歌區"
"239006","891-R6","2019/09/26 19:49:38","新北市鶯歌區永昌街113號","121.339866666667","24.9503816666667","6500800","鶯歌區"
"239001","417-VK","2019/09/26 19:49:57","新北市鶯歌區建國路461號","121.339293333333","24.9519683333333","6500800","鶯歌區"
"239002","359-BY","2019/09/26 19:49:59","新北市鶯歌區湖山路9號","121.340905","24.9735683333333","6500800","鶯歌區"
"239004","193-VK","2019/09/26 19:49:57","新北市鶯歌區二甲路33-21號","121.33975","24.938535","6500800","鶯歌區"
"221008","489-VK","2019/09/26 19:49:50","新北市汐止區康寧街83巷24號","121.620246666667","25.0669816666667","6501100","汐止區"
"221010","269-BY","2019/09/26 19:49:58","新北市汐止區汐萬路二段3號","121.649275","25.0799233333333","6501100","汐止區"
"221012","278-VK","2019/09/26 19:50:01","新北市汐止區大同路三段356號","121.680195","25.0710716666667","6501100","汐止區"
"221023","279-VK","2019/09/26 19:49:49","新北市汐止區中興路201號","121.629223333333","25.0684533333333","6501100","汐止區"
"221029","298-VK","2019/09/26 19:49:37","新北市汐止區康寧街901號","121.651453333333","25.0748483333333","6501100","汐止區"
"221021","299-VK","2019/09/26 19:49:44","新北市汐止區青山路41-1號","121.656626666667","25.06137","6501100","汐止區"
"221031","353-TW","2019/09/26 19:49:47","新北市汐止區康寧街861巷1號","121.645383333333","25.0759316666667","6501100","汐止區"
"221025","623-UM","2019/09/26 19:49:59","新北市汐止區秀峰路81巷21號","121.660998333333","25.0647466666667","6501100","汐止區"
"221038","646-BX","2019/09/26 19:49:51","新北市汐止區忠孝東路415號","121.665751666667","25.0713533333333","6501100","汐止區"
"220079","145-BY","2019/09/26 19:49:45","新北市板橋區民權路202巷17-1號","121.46078","25.0166633333333","6500100","板橋區"
"220080","200-UY","2019/09/26 19:49:50","新北市板橋區大觀路二段37巷50號","121.449003333333","25.0025766666667","6500100","板橋區"
"220082","610-BX","2019/09/26 19:49:55","新北市板橋區溪北路74號","121.428011666667","24.9895866666667","6500100","板橋區"
"220056","276-BY","2019/09/26 19:49:52","新北市板橋區四川路二段47巷2弄1號","121.454093333333","24.9949416666667","6500100","板橋區"
"220072","277-BY","2019/09/26 19:49:47","新北市板橋區金門街215巷6號","121.433091666667","24.9896733333333","6500100","板橋區"
"220101","280-UM","2019/09/26 19:49:47","新北市板橋區莊敬路245號","121.473076666667","25.0214416666667","6500100","板橋區"
"220071","283-VK","2019/09/26 19:49:44","新北市板橋區五權街1-8號","121.463856666667","24.995125","6500100","板橋區"
"220094","285-UM","2019/09/26 19:49:53","新北市板橋區雨農路17巷1號","121.462158333333","25.0246916666667","6500100","板橋區"
"220083","286-VK","2019/09/26 19:49:46","新北市板橋區僑中二街8巷1號","121.446986666667","25.0111866666667","6500100","板橋區"
"220081","287-VK","2019/09/26 19:49:51","新北市板橋區大觀路一段29巷179弄32號","121.449891666667","25.0042383333333","6500100","板橋區"
"220039","288-VK","2019/09/26 19:45:04","新北市板橋區新海路137號","121.460426666667","25.0235966666667","6500100","板橋區"
"220061","293-UM","2019/09/26 19:50:00","新北市板橋區縣民大道二段196號","121.469278333333","25.017115","6500100","板橋區"
"220084","296-UM","2019/09/26 19:49:53","新北市板橋區溪崑二街128號","121.426018333333","24.9879416666667","6500100","板橋區"
"220053","299-UM","2019/09/26 19:49:57","新北市板橋區永豐街24號","121.47468","25.01711","6500100","板橋區"
"220075","303-R5","2019/09/26 19:49:57","新北市板橋區大勇街4巷2號","121.455043333333","25.0174966666667","6500100","板橋區"
"220062","305-R5","2019/09/26 19:49:50","新北市板橋區中山路二段416巷54弄13號","121.48232","25.01931","6500100","板橋區"
"220092","307-R5","2019/09/26 19:49:57","新北市板橋區幸福路32巷65號","121.460336666667","25.0222066666667","6500100","板橋區"
"220098","317-R6","2019/09/26 19:49:54","新北市板橋區裕民街111巷8號","121.459863333333","25.027355","6500100","板橋區"
"220089","487-VK","2019/09/26 19:49:59","新北市板橋區四維路162號","121.464848333333","25.025975","6500100","板橋區"
"220088","491-VK","2019/09/26 19:49:48","新北市板橋區懷德街127巷1號","121.478888333333","25.0309066666667","6500100","板橋區"
"220035","560-BX","2019/09/26 19:49:49","新北市板橋區新生街96號","121.458286666667","25.021935","6500100","板橋區"
"220103","561-BX","2019/09/26 19:49:50","新北市板橋區陽明街277-1號","121.462021666667","25.0261916666667","6500100","板橋區"
"220063","609-BX","2019/09/26 19:49:54","新北市板橋區三民路一段22號","121.478886666667","25.0234333333333","6500100","板橋區"
"220091","637-BX","2019/09/26 19:49:42","新北市板橋區懷德街139巷27號","121.480005","25.0309133333333","6500100","板橋區"
"220057","686-BX","2019/09/26 19:49:53","新北市板橋區四川路二段245巷91號","121.452806666667","24.9930916666667","6500100","板橋區"
"220077","687-BX","2019/09/26 19:49:55","新北市板橋區僑中二街120巷2號","121.445445","25.00569","6500100","板橋區"
"220093","689-BX","2019/09/26 19:49:42","新北市板橋區長江路三段143號","121.475886666667","25.0347616666667","6500100","板橋區"
"220054","741-BX","2019/09/26 19:49:54","新北市板橋區忠孝路202號","121.465836666667","25.002685","6500100","板橋區"
"220102","KEA-2699","2019/09/26 19:49:50","新北市板橋區文聖街40巷5號","121.476046666667","25.0310666666667","6500100","板橋區"
"220055","827-TW","2019/09/26 19:49:54","新北市板橋區信義路1巷26弄50號","121.45988","24.9966516666667","6500100","板橋區"
"220068","830-TW","2019/09/26 19:49:42","新北市板橋區光復街105號","121.484241666667","25.01926","6500100","板橋區"
"220074","895-R6","2019/09/26 19:49:45","新北市板橋區府中路29-2號","121.45854","25.0080233333333","6500100","板橋區"
"220073","985-R7","2019/09/26 19:49:54","新北市板橋區國光路31巷16號","121.457956666667","25.018","6500100","板橋區"
"220097","AAC-210","2019/09/26 19:46:31","新北市板橋區光正街43號","121.46178","25.0170583333333","6500100","板橋區"
"220064","AAC-253","2019/09/26 19:49:58","新北市板橋區民族路208號","121.468416666667","25.0075066666667","6500100","板橋區"
"235068","KEA-2873","2019/09/26 19:49:37","新北市中和區福美路301巷10號","121.497385","25.00443","6500300","中和區"
"235026","KEA-2876","2019/09/26 19:44:42","新北市中和區員山路36巷16-3號","121.485128333333","24.991355","6500300","中和區"
