"lineid","car","time","location","longitude","latitude","cityid","cityname"
"234081","298-R6","2019/09/26 20:19:50","新北市永和區福和路7巷10弄7號","121.524885","25.0075066666667","6500400","永和區"
"234038","336-UY","2019/09/26 20:19:48","新北市永和區成功路一段93巷12號","121.527626666667","25.0027033333333","6500400","永和區"
"234064","337-UY","2019/09/26 20:19:59","新北市永和區中正路354號","121.517631666667","25.0005366666667","6500400","永和區"
"234086","338-UY","2019/09/26 20:19:42","新北市永和區永和路二段93號","121.514873333333","25.0115016666667","6500400","永和區"
"234070","552-UM","2019/09/26 20:19:53","新北市永和區福和路263巷14號","121.517921666667","25.0067833333333","6500400","永和區"
"234017","745-BX","2019/09/26 20:19:54","新北市永和區仁愛路48號","121.513943333333","25.0133833333333","6500400","永和區"
"234030","746-BX","2019/09/26 20:19:47","新北市中和區自強路2號","121.520215","24.9960983333333","6500400","永和區"
"234054","KEA-2590","2019/09/26 20:19:46","新北市永和區光復街2巷26弄1號","121.517611666667","25.0166","6500400","永和區"
"234013","KEA-2591","2019/09/26 20:19:48","新北市永和區仁愛路295號","121.50494","25.0091166666667","6500400","永和區"
"234061","AAD-866","2019/09/26 20:20:00","新北市永和區安樂路100巷21弄1號","121.514695","24.9990683333333","6500400","永和區"
"234042","862-TW","2019/09/26 20:19:44","新北市中和區中安街168號","121.510841666667","24.99987","6500400","永和區"
"234050","863-TW","2019/09/26 20:19:50","新北市永和區文化路230號","121.509766666667","25.0169683333333","6500400","永和區"
"249005","172-UM","2019/09/26 20:19:56","新北市八里區中山路三段131號","121.388545","25.14241","6502300","八里區"
"249001","173-UM","2019/09/26 20:19:54","新北市八里區中華路二段341-10號","121.39913","25.1450233333333","6502300","八里區"
"249004","303-UY","2019/09/26 20:19:42","新北市八里區中山路一段151號","121.41279","25.15898","6502300","八里區"
"249002","305-UY","2019/09/26 20:19:55","新北市八里區龍米路一段100巷14號","121.454155","25.1252483333333","6502300","八里區"
"249003","593-UM","2019/09/26 20:19:51","新北市八里區訊塘路68號","121.39787","25.145935","6502300","八里區"
"248016","026-BX","2019/09/26 20:19:45","新北市五股區凌雲路一段158巷44號","121.447106666667","25.1038266666667","6501500","五股區"
"248002","678-BX","2019/09/26 20:19:43","新北市五股區成泰路三段173號","121.445308333333","25.0919083333333","6501500","五股區"
"248010","682-TV","2019/09/26 20:19:46","新北市泰山區新五路一段104號","121.440555","25.0610816666667","6501500","五股區"
"234023","9380-KE","2019/09/26 20:19:48","新北市永和區復興街56號","121.516568333333","25.01324","6500400","永和區"
"234077","969-R7","2019/09/26 20:19:48","新北市永和區民享街9號","121.515263333333","24.9954216666667","6500400","永和區"
"234074","AAC-211","2019/09/26 20:19:51","新北市永和區豫溪街160巷1號","121.52332","25.0095783333333","6500400","永和區"
"234067","AAC-212","2019/09/26 20:19:51","新北市永和區保平路268巷27號","121.507945","25.0059033333333","6500400","永和區"
"234003","AAC-295","2019/09/26 20:19:56","新北市永和區大新街12號","121.514938333333","25.0084833333333","6500400","永和區"
"243012","AAD-798","2019/09/26 20:19:42","新北市泰山區楓江路160-2號","121.440891666667","25.0657916666667","6501600","泰山區"
"243010","297-R6","2019/09/26 20:19:54","新北市泰山區明志路二段273巷12號","121.427318333333","25.0471333333333","6501600","泰山區"
"243014","KEA-2801","2019/09/26 20:19:44","新北市泰山區泰林路二段262號","121.431616666667","25.0623533333333","6501600","泰山區"
"243016","421-VK","2019/09/26 20:19:53","新北市泰山區明志路二段364號","121.425671666667","25.0449866666667","6501600","泰山區"
"243009","KEA-2215","2019/09/26 20:19:51","新北市泰山區福泰街6號","121.432681666667","25.060305","6501600","泰山區"
"243011","KEA-2216","2019/09/26 20:19:58","新北市泰山區壽山路134巷22號","121.418306666667","25.0311966666667","6501600","泰山區"
"243013","646-TV","2019/09/26 20:19:47","新北市泰山區明志路二段359巷21號","121.426088333333","25.04401","6501600","泰山區"
"243015","680-BX","2019/09/26 20:19:51","新北市泰山區明志路一段210號","121.43269","25.0615333333333","6501600","泰山區"
"222003","436-BY","2019/09/26 20:20:00","新北市深坑區文化街43號","121.617486666667","25.0018383333333","6501800","深坑區"
"222002","659-BX","2019/09/26 20:19:41","新北市深坑區萬福路18號","121.602318333333","25.0086766666667","6501800","深坑區"
"231061","002-UM","2019/09/26 20:19:51","新北市新店區安興路32號","121.515776666667","24.97039","6500600","新店區"
"231055","0291-UT","2019/09/26 20:06:32","新北市新店區中華路83巷67號","121.538405","24.9672966666667","6500600","新店區"
"231044","046-UY","2019/09/26 20:19:53","新北市新店區北新路三段39號","121.541878333333","24.9802433333333","6500600","新店區"
"231060","106-UY","2019/09/26 20:19:53","新北市新店區安康路三段578-1號","121.481081666667","24.9486883333333","6500600","新店區"
"231051","107-UY","2019/09/26 20:19:48","新北市新店區中央七街125號","121.525006666667","24.97807","6500600","新店區"
"231049","108-UY","2019/09/26 20:19:44","新北市新店區北新路一段311-1號","121.541643333333","24.967975","6500600","新店區"
"231065","110-UY","2019/09/26 20:19:50","新北市新店區安祥路102巷32號","121.484145","24.9638983333333","6500600","新店區"
"231068","187-VK","2019/09/26 20:19:39","新北市新店區寶安街31號","121.541956666667","24.9823233333333","6500600","新店區"
"231062","256-BX","2019/09/26 20:19:58","新北市新店區安泰路7巷16號","121.485666666667","24.95095","6500600","新店區"
"231054","260-TV","2019/09/26 20:19:53","新北市新店區檳榔路109號","121.544341666667","24.9615816666667","6500600","新店區"
"231042","268-BY","2019/09/26 20:19:56","新北市新店區中興路二段233號","121.547583333333","24.9750666666667","6500600","新店區"
"231064","278-BY","2019/09/26 20:19:53","新北市新店區安業街33號","121.517466666667","24.9771583333333","6500600","新店區"
"231050","AAD-862","2019/09/26 20:19:49","新北市新店區博愛街8巷1號","121.54132","24.9735783333333","6500600","新店區"
"231045","355-BY","2019/09/26 20:19:53","新北市新店區新坡一街80-2號","121.54781","24.964555","6500600","新店區"
"231058","3713-VJ","2019/09/26 20:19:39","新北市新店區安康路二段320巷15弄2號","121.504288333333","24.9596766666667","6500600","新店區"
"231056","4715-K9","2019/09/26 20:19:53","新北市新店區中正路309號","121.536601666667","24.97501","6500600","新店區"
"231067","4772-VM","2019/09/26 20:19:47","新北市新店區安康路一段35號","121.531628333333","24.9609566666667","6500600","新店區"
"231052","512-UM","2019/09/26 20:19:41","新北市新店區松林路6-6號","121.546748333333","24.91108","6500600","新店區"
"231041","619-UM","2019/09/26 20:19:44","新北市新店區民權路42號","121.540493333333","24.9829416666667","6500600","新店區"
"231063","641-BX","2019/09/26 20:19:43","新北市新店區車子路10號","121.504613333333","24.9551683333333","6500600","新店區"
"231047","KED-0819","2019/09/26 20:19:49","新北市新店區寶橋路88號","121.546938333333","24.9759133333333","6500600","新店區"
"231057","720-UM","2019/09/26 20:19:57","新北市新店區花園七路一段1號","121.554725","24.934835","6500600","新店區"
"231059","897-TW","2019/09/26 20:19:58","新北市新店區安德街72號","121.51042","24.9617016666667","6500600","新店區"
"231040","898-TW","2019/09/26 20:19:46","新北市新店區中正路108號","121.543076666667","24.970625","6500600","新店區"
"231043","899-TW","2019/09/26 20:19:44","新北市新店區建國路131號","121.53947","24.97822","6500600","新店區"
"231066","AKT-0513","2019/09/26 20:19:53","新北市新店區柴埕路60巷2號","121.509855","24.9640733333333","6500600","新店區"
"241011","013-R5","2019/09/26 20:19:50","新北市三重區龍門路230號","121.500348333333","25.0735733333333","6500200","三重區"
"241028","022-UY","2019/09/26 20:19:43","新北市三重區大同南路100號","121.496273333333","25.0587683333333","6500200","三重區"
"241008","059-VK","2019/09/26 20:19:54","新北市三重區永福街211巷2弄2號","121.479916666667","25.074205","6500200","三重區"
"241025","060-VK","2019/09/26 20:19:49","新北市三重區自由街16號","121.479801666667","25.06649","6500200","三重區"
"241015","062-VK","2019/09/26 20:19:44","新北市三重區重新路一段128號","121.50024","25.0628683333333","6500200","三重區"
"241017","063-VK","2019/09/26 20:19:42","新北市三重區自強路一段153號","121.493613333333","25.066955","6500200","三重區"
"241002","090-VK","2019/09/26 20:19:57","新北市三重區五華街23號","121.494848333333","25.08069","6500200","三重區"
"241003","091-VK","2019/09/26 20:19:48","新北市三重區富華街49號","121.490926666667","25.0832833333333","6500200","三重區"
"241026","742-BX","2019/09/26 20:19:46","新北市三重區福德南路56號","121.503341666667","25.0619616666667","6500200","三重區"
"241006","262-UM","2019/09/26 20:19:45","新北市三重區車路頭街139巷14號","121.484273333333","25.07622","6500200","三重區"
"241016","266-UM","2019/09/26 20:19:57","新北市三重區大同北路97-3號","121.4944","25.06362","6500200","三重區"
"241009","267-UM","2019/09/26 20:19:42","新北市三重區三和路四段366號","121.482868333333","25.0787033333333","6500200","三重區"
"241018","268-UM","2019/09/26 20:19:57","新北市三重區雙園街97號","121.49388","25.067345","6500200","三重區"
"241032","269-UM","2019/09/26 20:20:00","新北市三重區捷運路19巷6弄14號","121.484576666667","25.05686","6500200","三重區"
"241035","KEA-2210","2019/09/26 20:19:52","新北市三重區正義北路33巷55號","121.49914","25.06393","6500200","三重區"
"241030","KED-0822","2019/09/26 20:19:47","新北市三重區集美街89巷34號","121.488241666667","25.0523983333333","6500200","三重區"
"241004","475-VK","2019/09/26 20:19:45","新北市三重區自強路四段108號","121.491406666667","25.0798566666667","6500200","三重區"
"241020","478-VK","2019/09/26 20:19:52","新北市三重區忠孝路一段21巷13號","121.491796666667","25.072835","6500200","三重區"
"241014","543-UM","2019/09/26 20:19:45","新北市三重區長樂街130號","121.502328333333","25.0698583333333","6500200","三重區"
"241023","545-UM","2019/09/26 20:19:52","新北市三重區忠孝路三段99巷11號","121.480075","25.0645433333333","6500200","三重區"
"241001","547-UM","2019/09/26 20:19:41","新北市三重區自強路四段31巷23號","121.490433333333","25.0769683333333","6500200","三重區"
"241019","KEA-2593","2019/09/26 20:20:00","新北市三重區忠孝路一段68號","121.490111666667","25.0718966666667","6500200","三重區"
"241005","AAD-863","2019/09/26 20:19:51","新北市三重區碧華街349號","121.491983333333","25.0849616666667","6500200","三重區"
"241031","743-BX","2019/09/26 20:19:41","新北市三重區三寧街15號","121.489485","25.0598133333333","6500200","三重區"
"241022","KED-0820","2019/09/26 20:19:57","新北市三重區新北大道一段68號","121.487168333333","25.0614116666667","6500200","三重區"
"241012","887-TS","2019/09/26 20:19:54","新北市三重區河邊北街379-1號","121.501708333333","25.076445","6500200","三重區"
"241029","942-UM","2019/09/26 20:19:57","新北市三重區重安街98號","121.492586666667","25.055965","6500200","三重區"
"235066","003-UY","2019/09/26 20:19:58","新北市中和區南工路107號","121.507335","25.0039483333333","6500300","中和區"
"235039","097-UM","2019/09/26 20:19:48","新北市中和區景平路133號","121.514763333333","24.992155","6500300","中和區"
"235065","098-UM","2019/09/26 20:19:43","新北市中和區景平路989巷1號","121.495956666667","25.0051733333333","6500300","中和區"
"235055","183-VK","2019/09/26 20:19:47","新北市八里區荖阡坑路4-23號","121.398098333333","25.1432133333333","6500300","中和區"
"247016","KEA-2869","2019/09/26 20:19:58","新北市蘆洲區光華路132巷39號","121.465826666667","25.083805","6501400","蘆洲區"
"247010","KED-0682","2019/09/26 20:19:43","新北市蘆洲區信義路253號","121.479035","25.0845516666667","6501400","蘆洲區"
"235050","4979-A6","2019/09/26 20:20:01","新北市中和區景安路177巷8號","121.505715","24.993975","6500300","中和區"
"235069","4980-A6","2019/09/26 20:19:41","新北市中和區圓通路137號","121.49894","24.9957383333333","6500300","中和區"
"235059","AAC-215","2019/09/26 20:19:59","新北市中和區圓通路356-3號","121.485065","24.9866416666667","6500300","中和區"
"220065","072-UY","2019/09/26 20:19:58","新北市板橋區南雅南路二段43號","121.451366666667","24.9944933333333","6500100","板橋區"
"220086","073-UY","2019/09/26 20:19:43","新北市板橋區大觀路二段443-2號","121.438568333333","24.9952783333333","6500100","板橋區"
"247006","893-R6","2019/09/26 20:19:43","新北市蘆洲區九芎街136號","121.465105","25.0790366666667","6501400","蘆洲區"
"247022","341-TH","2019/09/26 20:19:57","新北市蘆洲區三民路251號","121.468455","25.0894066666667","6501400","蘆洲區"
"247012","337-TH","2019/09/26 20:19:53","新北市蘆洲區集賢路224巷24號","121.481695","25.0871716666667","6501400","蘆洲區"
"247004","336-TH","2019/09/26 20:19:42","新北市蘆洲區長安街299巷32號","121.457123333333","25.08461","6501400","蘆洲區"
"247024","057-VK","2019/09/26 20:19:52","新北市蘆洲區光榮路120巷8弄39號","121.464575","25.0879683333333","6501400","蘆洲區"
"247014","056-VK","2019/09/26 20:19:40","新北市蘆洲區中山二路137巷28號","121.472341666667","25.0808566666667","6501400","蘆洲區"
"247018","053-VK","2019/09/26 20:19:55","新北市蘆洲區民族路346號","121.476426666667","25.0906416666667","6501400","蘆洲區"
"247008","002-UY","2019/09/26 20:19:57","新北市蘆洲區集賢路320號","121.481526666667","25.084925","6501400","蘆洲區"
"247002","001-UY","2019/09/26 20:19:42","新北市蘆洲區長安街331巷32號","121.456003333333","25.0866333333333","6501400","蘆洲區"
"224002","639-TC","2019/09/26 20:19:46","新北市瑞芳區國中新村27號","121.817003333333","25.1075933333333","6501200","瑞芳區"
"222001","KEA-2212","2019/09/26 20:19:42","新北市深坑區北深路三段247號","121.599381666667","25.004245","6501800","深坑區"
"251002","012-UM","2019/09/26 20:19:44","新北市淡水區中正路232號","121.43899","25.1708183333333","6501000","淡水區"
"251015","KEA-2871","2019/09/26 20:19:49","新北市淡水區埤島77-4號","121.450235","25.191485","6501000","淡水區"
"251016","179-VK","2019/09/26 20:19:54","新北市淡水區淡金路四段660號","121.452365","25.2319133333333","6501000","淡水區"
"251013","180-VK","2019/09/26 20:19:44","新北市淡水區相公山1-1號","121.474401666667","25.2066416666667","6501000","淡水區"
"251008","181-VK","2019/09/26 20:19:55","新北市淡水區淡海路184巷17號","121.421356666667","25.18525","6501000","淡水區"
"251010","413-VK","2019/09/26 20:19:47","新北市淡水區新民街一段134號","121.427633333333","25.1889133333333","6501000","淡水區"
"251012","441-VK","2019/09/26 20:19:59","新北市淡水區淡金路三段374號","121.449803333333","25.21001","6501000","淡水區"
"251001","559-UM","2019/09/26 20:19:56","新北市淡水區淡金路二段15號","121.446346666667","25.1892183333333","6501000","淡水區"
"251006","561-UM","2019/09/26 20:19:52","新北市淡水區北新路169巷71號","121.44838","25.1803933333333","6501000","淡水區"
"251009","575-R6","2019/09/26 20:19:43","新北市淡水區中山路46-1號","121.444143333333","25.17016","6501000","淡水區"
"251014","577-R6","2019/09/26 20:19:47","新北市淡水區石頭厝1號","121.458735","25.2354833333333","6501000","淡水區"
"251003","766-UM","2019/09/26 20:19:39","新北市淡水區中山北路一段229號","121.444476666667","25.179515","6501000","淡水區"
"207003","550-UM","2019/09/26 20:19:54","新北市萬里區大鵬里頂社2-1號","121.659723333333","25.2071516666667","6502800","萬里區"
"207004","291-VK","2019/09/26 20:19:42","新北市萬里區北基里大仁路5號","121.68209","25.1753233333333","6502800","萬里區"
"252002","178-VK","2019/09/26 20:19:43","新北市三芝區中正路一段49號","121.50334","25.2581533333333","6502100","三芝區"
"237006","5529-G3","2019/09/26 20:19:46","新北市三峽區中正路二段41號","121.366735","24.91871","6500900","三峽區"
"236030","253-BX","2019/09/26 20:19:47","新北市土城區學成路128巷11號","121.449501666667","24.9900316666667","6501300","土城區"
"236026","269-VK","2019/09/26 20:19:55","新北市土城區中央路一段249巷10弄10號","121.445653333333","24.9853533333333","6501300","土城區"
"236014","270-VK","2019/09/26 20:19:48","新北市土城區廣明街90巷18號","121.455448333333","24.9945066666667","6501300","土城區"
"236070","KEA-2877","2019/09/26 20:19:58","新北市土城區中山路34號","121.425175","24.9640916666667","6501300","土城區"
"252001","KED-0821","2019/09/26 20:19:55","新北市三芝區中山路一段14號","121.500623333333","25.2580983333333","6502100","三芝區"
"236059","912-UM","2019/09/26 20:20:01","新北市土城區大安路101-5號","121.433395","24.9685","6501300","土城區"
"242042","AAC-296","2019/09/26 20:19:57","新北市新莊區壽山路69號","121.40994","25.03269","6500500","新莊區"
"242061","986-R7","2019/09/26 20:19:50","新北市新莊區新樹路172-13號","121.434576666667","25.021695","6500500","新莊區"
"242004","751-BX","2019/09/26 20:19:55","新北市新莊區頭前路2巷19號","121.468173333333","25.0536366666667","6500500","新莊區"
"242029","615-BX","2019/09/26 20:19:43","新北市新莊區中原路231號","121.449795","25.05427","6500500","新莊區"
"242027","613-BX","2019/09/26 20:19:44","新北市新莊區幸福路823號","121.445206666667","25.0489883333333","6500500","新莊區"
"242058","612-BX","2019/09/26 20:19:58","新北市新莊區龍安路278巷17號","121.422008333333","25.0185633333333","6500500","新莊區"
"242048","566-BX","2019/09/26 20:19:52","新北市新莊區龍安路232號","121.420531666667","25.01976","6500500","新莊區"
"242053","497-BY","2019/09/26 20:20:02","新北市新莊區民安西路261巷10號","121.426696666667","25.013045","6500500","新莊區"
"242002","441-UM","2019/09/26 20:19:38","新北市新莊區化成路102號","121.465221666667","25.044145","6500500","新莊區"
"242007","440-UM","2019/09/26 20:19:55","新北市新莊區福壽街124巷41弄6號","121.459315","25.0515033333333","6500500","新莊區"
"242044","415-TV","2019/09/26 20:19:51","新北市新莊區中正路895-21號","121.412471666667","25.021485","6500500","新莊區"
"242013","413-TV","2019/09/26 20:19:49","新北市新莊區中和街186巷23號","121.448485","25.0498566666667","6500500","新莊區"
"242051","400-BY","2019/09/26 20:19:50","新北市新莊區民安西路240號","121.425846666667","25.0142116666667","6500500","新莊區"
"242025","362-BY","2019/09/26 20:19:55","新北市新莊區五工二路70巷16號","121.460886666667","25.066405","6500500","新莊區"
"242023","353-BY","2019/09/26 20:19:48","新北市新莊區化成路750號","121.465521666667","25.0577666666667","6500500","新莊區"
"242015","132-UY","2019/09/26 20:19:56","新北市新莊區中和街31巷22號","121.447188333333","25.0438483333333","6500500","新莊區"
"242039","135-UY","2019/09/26 20:19:51","新北市新莊區成功街61號","121.424963333333","25.0203366666667","6500500","新莊區"
"242056","172-VK","2019/09/26 20:19:47","新北市新莊區新莊路649巷26弄33號","121.444426666667","25.0320016666667","6500500","新莊區"
"242017","173-VK","2019/09/26 20:19:51","新北市新莊區中港一街25號","121.451203333333","25.0455916666667","6500500","新莊區"
"242031","175-VK","2019/09/26 20:19:46","新北市新莊區義豐街13號","121.441043333333","25.0348283333333","6500500","新莊區"
"242021","KED-0687","2019/09/26 20:19:41","新北市新莊區和興街43號","121.446648333333","25.0404","6500500","新莊區"
"242046","347-TH","2019/09/26 20:19:43","新北市新莊區裕民街132號","121.41782","25.0221183333333","6500500","新莊區"
"242036","348-TH","2019/09/26 20:19:46","新北市新莊區建安街62巷10號","121.426861666667","25.0250133333333","6500500","新莊區"
"242009","349-TH","2019/09/26 20:19:45","新北市新莊區昌平街11號","121.454833333333","25.0517433333333","6500500","新莊區"
"242034","350-TH","2019/09/26 20:19:40","新北市新莊區中正路222號","121.448745","25.035635","6500500","新莊區"
"242019","351-TH","2019/09/26 20:19:49","新北市新莊區復興路二段130號","121.456826666667","25.0443233333333","6500500","新莊區"
"221008","489-VK","2019/09/26 20:19:50","台北市內湖區康樂街204-1號","121.621905","25.0763783333333","6501100","汐止區"
"221036","130-UY","2019/09/26 20:19:45","新北市汐止區福安街59巷5號","121.66428","25.06377","6501100","汐止區"
"221015","131-UY","2019/09/26 20:19:42","新北市汐止區建成路160巷23號","121.66175","25.0739783333333","6501100","汐止區"
"221010","269-BY","2019/09/26 20:19:58","新北市汐止區八連路一段206號","121.642671666667","25.081035","6501100","汐止區"
"221012","278-VK","2019/09/26 20:19:41","新北市汐止區汐平路一段51號","121.682333333333","25.0705183333333","6501100","汐止區"
"221023","279-VK","2019/09/26 20:19:49","新北市汐止區明峰街298巷10弄1號","121.625005","25.0688916666667","6501100","汐止區"
"221032","280-BY","2019/09/26 20:19:49","新北市汐止區弘道街53巷2號","121.618646666667","25.048435","6501100","汐止區"
"221029","298-VK","2019/09/26 20:19:57","新北市汐止區樟樹一路99巷7弄3號","121.641185","25.063565","6501100","汐止區"
"221021","299-VK","2019/09/26 20:19:44","新北市汐止區水源路一段282巷1號","121.654065","25.0582766666667","6501100","汐止區"
"221031","353-TW","2019/09/26 20:19:49","新北市汐止區福德二路94-1號","121.632613333333","25.0661583333333","6501100","汐止區"
"221035","622-UM","2019/09/26 20:19:38","新北市汐止區長江街57巷21弄1號","121.655936666667","25.0723866666667","6501100","汐止區"
"221025","623-UM","2019/09/26 20:19:39","新北市汐止區水源路二段30號","121.654783333333","25.0573","6501100","汐止區"
"221038","646-BX","2019/09/26 20:19:41","新北市汐止區茄苳路42號","121.665845","25.070805","6501100","汐止區"
"221033","647-BX","2019/09/26 20:19:58","新北市汐止區東勢街100號","121.633698333333","25.0415733333333","6501100","汐止區"
"221002","707-TV","2019/09/26 20:19:59","新北市汐止區福德三路18號","121.63731","25.0694533333333","6501100","汐止區"
"221018","753-BX","2019/09/26 20:19:57","新北市汐止區茄苳路277號","121.672298333333","25.0680116666667","6501100","汐止區"
"220079","145-BY","2019/09/26 20:19:45","新北市板橋區南雅西路二段301巷6-2號","121.451785","25.0158133333333","6500100","板橋區"
"220056","276-BY","2019/09/26 20:19:52","新北市五股區凌雲路三段17-2號","121.429996666667","25.1084966666667","6500100","板橋區"
"220083","286-VK","2019/09/26 20:19:46","新北市板橋區大觀路一段38巷156弄147號","121.443756666667","25.0090316666667","6500100","板橋區"
"220081","287-VK","2019/09/26 20:19:51","新北市板橋區僑中一街124巷20弄46號","121.448045","25.0137483333333","6500100","板橋區"
"220039","288-VK","2019/09/26 20:19:58","新北市五股區中直路15-2號","121.423781666667","25.11089","6500100","板橋區"
"242011","280-VK","2019/09/26 20:19:39","新北市新莊區中信街25號","121.450941666667","25.0507183333333","6500500","新莊區"
"220035","560-BX","2019/09/26 20:19:49","新北市板橋區新生街50號","121.45677","25.0210516666667","6500100","板橋區"
"220054","741-BX","2019/09/26 20:19:46","新北市板橋區成都街59號","121.461685","25.00491","6500100","板橋區"
"220055","827-TW","2019/09/26 20:19:54","新北市板橋區重慶路290巷9號","121.461135","24.9986816666667","6500100","板橋區"
"220074","895-R6","2019/09/26 20:19:45","新北市板橋區館前西路63號","121.457603333333","25.00695","6500100","板橋區"
