"lineid","car","time","location","longitude","latitude","cityid","cityname"
"234081","298-R6","2019/09/26 20:29:50","新北市永和區永貞路41號","121.521036666667","25.0064333333333","6500400","永和區"
"234038","336-UY","2019/09/26 20:29:48","新北市永和區民樂街31巷10弄11號","121.528883333333","25.0009016666667","6500400","永和區"
"234064","337-UY","2019/09/26 20:29:48","新北市永和區中正路419號","121.517156666667","25.0049933333333","6500400","永和區"
"234086","338-UY","2019/09/26 20:29:42","新北市永和區光復街26-1號","121.516545","25.0173866666667","6500400","永和區"
"234070","552-UM","2019/09/26 20:29:42","新北市永和區永利路100號","121.521111666667","25.0035683333333","6500400","永和區"
"234054","KEA-2590","2019/09/26 20:29:27","新北市永和區環河東路一段42號","121.518813333333","25.01699","6500400","永和區"
"234061","AAD-866","2019/09/26 20:30:01","新北市永和區得和路18號","121.51528","25.0004516666667","6500400","永和區"
"234042","862-TW","2019/09/26 20:29:49","新北市永和區安樂路290號","121.514396666667","25.004555","6500400","永和區"
"234050","863-TW","2019/09/26 20:29:50","新北市永和區新生路179號","121.506918333333","25.01446","6500400","永和區"
"249001","173-UM","2019/09/26 20:29:54","新北市八里區中山路三段106號","121.39104","25.142235","6502300","八里區"
"249004","303-UY","2019/09/26 20:29:42","新北市八里區中山路一段129巷35號","121.414228333333","25.158485","6502300","八里區"
"249002","305-UY","2019/09/26 20:29:55","新北市八里區龍米路二段87號","121.447758333333","25.1419333333333","6502300","八里區"
"249003","593-UM","2019/09/26 20:29:40","新北市八里區舊城路21號","121.399855","25.1470366666667","6502300","八里區"
"248002","678-BX","2019/09/26 20:29:43","新北市五股區新五路二段333號","121.443735","25.0873366666667","6501500","五股區"
"234023","9380-KE","2019/09/26 20:29:48","新北市永和區博愛街32巷15-1號","121.519028333333","25.0152666666667","6500400","永和區"
"234074","AAC-211","2019/09/26 20:29:51","新北市永和區豫溪街191巷7弄35號","121.523105","25.011125","6500400","永和區"
"234067","AAC-212","2019/09/26 20:29:57","新北市永和區保平路290號","121.508063333333","25.00459","6500400","永和區"
"234003","AAC-295","2019/09/26 20:29:56","新北市永和區中正路618-1號","121.517111666667","25.0077566666667","6500400","永和區"
"243012","AAD-798","2019/09/26 20:29:42","新北市泰山區明志路一段164號","121.43328","25.0627716666667","6501600","泰山區"
"243010","297-R6","2019/09/26 20:29:54","新北市泰山區民權街54號","121.428853333333","25.0503383333333","6501600","泰山區"
"243014","KEA-2801","2019/09/26 20:29:44","新北市泰山區泰林路二段521號","121.423826666667","25.0637933333333","6501600","泰山區"
"243016","421-VK","2019/09/26 20:29:53","新北市泰山區明志路二段191號","121.427665","25.0493483333333","6501600","泰山區"
"243009","KEA-2215","2019/09/26 20:29:51","新北市泰山區忠孝街16巷19號","121.428285","25.0650616666667","6501600","泰山區"
"243011","KEA-2216","2019/09/26 20:29:58","新北市泰山區明志路三段245號","121.4235","25.0375716666667","6501600","泰山區"
"243013","646-TV","2019/09/26 20:29:46","新北市泰山區中央路14巷5號","121.426428333333","25.0437133333333","6501600","泰山區"
"243015","680-BX","2019/09/26 20:29:51","新北市泰山區仁德路88號","121.433321666667","25.0564216666667","6501600","泰山區"
"222003","436-BY","2019/09/26 20:29:47","新北市深坑區深坑街77號","121.614631666667","25.00165","6501800","深坑區"
"222002","659-BX","2019/09/26 20:29:41","新北市深坑區萬福路16巷36-1號","121.612078333333","25.0083566666667","6501800","深坑區"
"231061","002-UM","2019/09/26 20:29:51","新北市新店區安興路32號","121.515766666667","24.9703433333333","6500600","新店區"
"231055","0291-UT","2019/09/26 20:06:32","新北市新店區中華路83巷67號","121.538405","24.9672966666667","6500600","新店區"
"231044","046-UY","2019/09/26 20:29:47","新北市新店區建國路217號","121.537581666667","24.9807916666667","6500600","新店區"
"231060","106-UY","2019/09/26 20:29:53","新北市新店區錦秀路11巷66號","121.480671666667","24.943475","6500600","新店區"
"231051","107-UY","2019/09/26 20:29:48","新北市新店區中央路121號","121.530703333333","24.97426","6500600","新店區"
"231049","108-UY","2019/09/26 20:29:44","新北市新店區永業路81巷14號","121.531268333333","24.948435","6500600","新店區"
"231065","110-UY","2019/09/26 20:29:51","新北市新店區安祥路102巷46弄35號","121.485775","24.963645","6500600","新店區"
"231068","187-VK","2019/09/26 20:29:59","新北市新店區民權路5-1號","121.5427","24.9828716666667","6500600","新店區"
"231062","256-BX","2019/09/26 20:29:58","新北市新店區安泰路60巷21號","121.483565","24.9464983333333","6500600","新店區"
"231054","260-TV","2019/09/26 20:29:53","新北市新店區檳榔路109號","121.544395","24.9615683333333","6500600","新店區"
"231042","268-BY","2019/09/26 20:29:56","新北市新店區寶橋路230號","121.551476666667","24.9787883333333","6500600","新店區"
"231064","278-BY","2019/09/26 20:29:53","新北市新店區永安街56巷11號","121.518648333333","24.9861083333333","6500600","新店區"
"231050","AAD-862","2019/09/26 20:29:49","新北市新店區建興街7號","121.539876666667","24.976385","6500600","新店區"
"231045","355-BY","2019/09/26 20:29:53","新北市新店區新坡一街32號","121.549168333333","24.9622333333333","6500600","新店區"
"231058","3713-VJ","2019/09/26 20:29:59","新北市新店區中央路2號","121.533835","24.97877","6500600","新店區"
"231056","4715-K9","2019/09/26 20:29:53","新北市新店區中央七街58號","121.52809","24.9762066666667","6500600","新店區"
"231067","4772-VM","2019/09/26 20:29:47","新北市新店區安華路28-1號","121.519841666667","24.9607833333333","6500600","新店區"
"231052","512-UM","2019/09/26 20:29:41","新北市新店區松林路16巷31號","121.546306666667","24.91021","6500600","新店區"
"231041","619-UM","2019/09/26 20:29:44","新北市新店區中正路501-2號","121.53371","24.983705","6500600","新店區"
"231063","641-BX","2019/09/26 20:29:43","新北市新店區安康路二段317號","121.499513333333","24.956725","6500600","新店區"
"231047","KED-0819","2019/09/26 20:29:49","新北市新店區寶慶街58巷21-1號","121.542018333333","24.98726","6500600","新店區"
"231057","720-UM","2019/09/26 20:29:57","新北市新店區花園六路二段7號","121.555551666667","24.933385","6500600","新店區"
"231059","897-TW","2019/09/26 20:29:58","新北市新店區安德街167號","121.508515","24.9592316666667","6500600","新店區"
"231040","898-TW","2019/09/26 20:29:46","新北市新店區三民路121號","121.534806666667","24.9723283333333","6500600","新店區"
"231043","899-TW","2019/09/26 20:29:44","新北市新店區建國路95號","121.54045","24.97693","6500600","新店區"
"231066","AKT-0513","2019/09/26 20:29:53","新北市新店區安興路69-1號","121.515701666667","24.9752066666667","6500600","新店區"
"241011","013-R5","2019/09/26 20:29:50","新北市三重區龍門路23號","121.495496666667","25.0718933333333","6500200","三重區"
"241028","022-UY","2019/09/26 20:29:43","新北市三重區光興街91號","121.497401666667","25.0599383333333","6500200","三重區"
"241008","059-VK","2019/09/26 20:29:54","新北市三重區下竹圍街42-1號","121.481063333333","25.0748833333333","6500200","三重區"
"241025","060-VK","2019/09/26 20:29:50","新北市三重區頂崁街210巷23弄1號","121.475886666667","25.068145","6500200","三重區"
"241015","062-VK","2019/09/26 20:29:44","新北市三重區長元西街1號","121.498785","25.0657533333333","6500200","三重區"
"241017","063-VK","2019/09/26 20:29:42","新北市三重區自強路一段195號","121.491795","25.0682516666667","6500200","三重區"
"241002","090-VK","2019/09/26 20:29:57","新北市三重區仁義街211巷57號","121.498466666667","25.082745","6500200","三重區"
"241003","091-VK","2019/09/26 20:29:48","新北市三重區富華街155號","121.493148333333","25.0849066666667","6500200","三重區"
"241026","742-BX","2019/09/26 20:29:45","新北市三重區環河南路21號","121.503553333333","25.06253","6500200","三重區"
"241006","262-UM","2019/09/26 20:29:45","新北市三重區車路頭街139巷14號","121.484308333333","25.076185","6500200","三重區"
"241016","266-UM","2019/09/26 20:29:56","新北市三重區正義北路190巷33號","121.495543333333","25.0667733333333","6500200","三重區"
"241009","267-UM","2019/09/26 20:29:42","新北市三重區三和路四段382巷98號","121.47882","25.0781133333333","6500200","三重區"
"241018","268-UM","2019/09/26 20:29:57","新北市三重區正義北路220號","121.496168333333","25.0676616666667","6500200","三重區"
"241032","269-UM","2019/09/26 20:29:40","新北市三重區重陽路一段120巷48號","121.485038333333","25.0601733333333","6500200","三重區"
"241035","KEA-2210","2019/09/26 20:29:52","新北市三重區正義北路113號","121.496866666667","25.0656516666667","6500200","三重區"
"241030","KED-0822","2019/09/26 20:29:47","新北市三重區成功路75號","121.488668333333","25.051065","6500200","三重區"
"241004","475-VK","2019/09/26 20:29:45","新北市三重區溪尾街235號","121.488081666667","25.0813716666667","6500200","三重區"
"241020","478-VK","2019/09/26 20:29:52","新北市三重區明德街59號","121.492056666667","25.0720416666667","6500200","三重區"
"241014","543-UM","2019/09/26 20:29:45","新北市三重區長興街105號","121.501886666667","25.069195","6500200","三重區"
"241023","545-UM","2019/09/26 20:29:52","新北市三重區自由街17巷1號","121.479928333333","25.066745","6500200","三重區"
"241001","547-UM","2019/09/26 20:29:41","新北市三重區聯華街126號","121.484951666667","25.0747716666667","6500200","三重區"
"241019","KEA-2593","2019/09/26 20:29:40","新北市三重區重陽路四段81號","121.492551666667","25.07101","6500200","三重區"
"241005","AAD-863","2019/09/26 20:29:51","新北市三重區五華街141巷43號","121.49282","25.0859333333333","6500200","三重區"
"241031","743-BX","2019/09/26 20:30:01","新北市三重區三寧街15號","121.489468333333","25.0598533333333","6500200","三重區"
"241022","KED-0820","2019/09/26 20:29:57","新北市三重區中正北路20巷12號","121.487991666667","25.0625","6500200","三重區"
"241012","887-TS","2019/09/26 20:29:54","新北市三重區龍濱路269號","121.501381666667","25.0730633333333","6500200","三重區"
"241029","942-UM","2019/09/26 20:29:51","新北市三重區集美街126巷1號","121.489178333333","25.0535783333333","6500200","三重區"
"235066","003-UY","2019/09/26 20:29:58","新北市中和區南工路28號","121.505728333333","25.0009516666667","6500300","中和區"
"235055","183-VK","2019/09/26 20:29:47","新北市林口區太平里180號","121.368296666667","25.1341516666667","6500300","中和區"
"247016","KEA-2869","2019/09/26 20:29:37","新北市蘆洲區光華路89號","121.467611666667","25.082525","6501400","蘆洲區"
"247010","KED-0682","2019/09/26 20:29:43","新北市蘆洲區民族路57號","121.478843333333","25.0856133333333","6501400","蘆洲區"
"235050","4979-A6","2019/09/26 20:29:41","新北市中和區景新街162號","121.505693333333","24.99711","6500300","中和區"
"235069","4980-A6","2019/09/26 20:29:41","新北市中和區中正路454號","121.490785","24.994205","6500300","中和區"
"235059","AAC-215","2019/09/26 20:29:59","新北市中和區員山路37-8號","121.481895","24.9894483333333","6500300","中和區"
"220065","072-UY","2019/09/26 20:29:38","新北市樹林區太平路277號","121.419043333333","24.972785","6500100","板橋區"
"220086","073-UY","2019/09/26 20:29:43","新北市樹林區八德街584號","121.39888","24.969285","6500100","板橋區"
"247006","893-R6","2019/09/26 20:29:43","新北市蘆洲區光華路175巷60號","121.465683333333","25.0807616666667","6501400","蘆洲區"
"247020","546-UM","2019/09/26 20:29:56","新北市蘆洲區仁愛街169號","121.468198333333","25.0940183333333","6501400","蘆洲區"
"247022","341-TH","2019/09/26 20:29:59","新北市蘆洲區中正路245號","121.467836666667","25.0869033333333","6501400","蘆洲區"
"247012","337-TH","2019/09/26 20:29:53","新北市蘆洲區復興路292號","121.480863333333","25.0899466666667","6501400","蘆洲區"
"247024","057-VK","2019/09/26 20:29:52","新北市蘆洲區光復路70巷16號","121.464646666667","25.0851483333333","6501400","蘆洲區"
"247014","056-VK","2019/09/26 20:29:46","新北市蘆洲區中山二路64號","121.473556666667","25.0820666666667","6501400","蘆洲區"
"247018","053-VK","2019/09/26 20:29:49","新北市蘆洲區民族路336巷14號","121.47725","25.09086","6501400","蘆洲區"
"247008","002-UY","2019/09/26 20:29:57","新北市蘆洲區永安北路二段76巷22號","121.482761666667","25.0852866666667","6501400","蘆洲區"
"247002","001-UY","2019/09/26 20:29:42","新北市蘆洲區長安街361巷28號","121.45595","25.087655","6501400","蘆洲區"
"224002","639-TC","2019/09/26 20:29:46","新北市瑞芳區傑魚坑路255號","121.787696666667","25.10619","6501200","瑞芳區"
"222001","KEA-2212","2019/09/26 20:29:42","新北市深坑區北深路三段266號","121.598556666667","25.0047166666667","6501800","深坑區"
"251002","012-UM","2019/09/26 20:29:44","新北市淡水區中正路27號","121.442525","25.1696133333333","6501000","淡水區"
"251015","KEA-2871","2019/09/26 20:29:49","新北市淡水區淡金路二段600號","121.44676","25.19219","6501000","淡水區"
"251016","179-VK","2019/09/26 20:29:54","新北市淡水區新埔子11-1號","121.447186666667","25.2286133333333","6501000","淡水區"
"251013","180-VK","2019/09/26 20:29:44","新北市淡水區後坑子6號","121.463485","25.20664","6501000","淡水區"
"251008","181-VK","2019/09/26 20:29:55","新北市淡水區淡海路189巷10號","121.419618333333","25.1844883333333","6501000","淡水區"
"251010","413-VK","2019/09/26 20:29:47","新北市淡水區沙崙路181巷15號","121.423998333333","25.1843416666667","6501000","淡水區"
"251012","441-VK","2019/09/26 20:29:52","新北市淡水區頂田寮路3號","121.453621666667","25.2166783333333","6501000","淡水區"
"251001","559-UM","2019/09/26 20:29:56","新北市淡水區新市一路三段174號","121.448016666667","25.1829916666667","6501000","淡水區"
"251006","561-UM","2019/09/26 20:29:52","新北市淡水區商工路366號","121.468825","25.18536","6501000","淡水區"
"251014","577-R6","2019/09/26 20:29:44","新北市淡水區番社前1-4號","121.468646666667","25.2368266666667","6501000","淡水區"
"251003","766-UM","2019/09/26 20:29:39","新北市淡水區新生街29號","121.43942","25.175105","6501000","淡水區"
"207004","291-VK","2019/09/26 20:29:42","新北市萬里區北基里忠二街13號","121.684938333333","25.1754066666667","6502800","萬里區"
"252002","178-VK","2019/09/26 20:29:43","新北市三芝區淡金路二段47-2號","121.503706666667","25.2605666666667","6502100","三芝區"
"252001","KED-0821","2019/09/26 20:29:55","新北市三芝區中山路一段37號","121.500758333333","25.257825","6502100","三芝區"
"242042","AAC-296","2019/09/26 20:29:57","新北市新莊區天祥街54巷6弄2號","121.416991666667","25.0295133333333","6500500","新莊區"
"242061","986-R7","2019/09/26 20:29:50","新北市新莊區民安路318號","121.428718333333","25.02198","6500500","新莊區"
"242004","751-BX","2019/09/26 20:29:55","新北市新莊區頭前路15巷32號","121.467675","25.051685","6500500","新莊區"
"242029","615-BX","2019/09/26 20:29:43","新北市新莊區中華路二段141號","121.452981666667","25.0508833333333","6500500","新莊區"
"242027","613-BX","2019/09/26 20:29:45","新北市新莊區幸福路554號","121.454876666667","25.0493466666667","6500500","新莊區"
"242058","612-BX","2019/09/26 20:29:38","新北市新莊區四維路169號","121.422366666667","25.0215966666667","6500500","新莊區"
"242048","566-BX","2019/09/26 20:29:52","新北市新莊區裕民街85巷17號","121.41968","25.023395","6500500","新莊區"
"242053","497-BY","2019/09/26 20:29:41","新北市新莊區民安西路229巷9號","121.42664","25.0142416666667","6500500","新莊區"
"242002","441-UM","2019/09/26 20:29:58","新北市新莊區明中街43巷29號","121.456948333333","25.0384833333333","6500500","新莊區"
"242007","440-UM","2019/09/26 20:29:55","新北市新莊區福壽街124巷30號","121.458811666667","25.05126","6500500","新莊區"
"242044","415-TV","2019/09/26 20:29:50","新北市新莊區中正路新建巷53號","121.414766666667","25.0215383333333","6500500","新莊區"
"242013","413-TV","2019/09/26 20:29:44","新北市新莊區中榮街79號","121.445446666667","25.0526666666667","6500500","新莊區"
"242051","400-BY","2019/09/26 20:29:50","新北市新莊區民安西路189巷18號","121.426876666667","25.0153166666667","6500500","新莊區"
"242025","362-BY","2019/09/26 20:29:47","新北市新莊區五工三路62巷21號","121.460178333333","25.065075","6500500","新莊區"
"242023","353-BY","2019/09/26 20:29:54","新北市新莊區化成路527號","121.465095","25.0639833333333","6500500","新莊區"
"242015","132-UY","2019/09/26 20:29:56","新北市新莊區中平路46巷26號","121.445783333333","25.04384","6500500","新莊區"
"242039","135-UY","2019/09/26 20:29:51","新北市新莊區民安路377-1號","121.431633333333","25.02305","6500500","新莊區"
"242056","172-VK","2019/09/26 20:29:47","新北市新莊區新莊路751巷87號","121.442763333333","25.0307083333333","6500500","新莊區"
"242017","173-VK","2019/09/26 20:29:51","新北市新莊區中港二街124號","121.44857","25.0456633333333","6500500","新莊區"
"242031","175-VK","2019/09/26 20:29:53","新北市新莊區三和路60-18號","121.437771666667","25.04168","6500500","新莊區"
"242021","KED-0687","2019/09/26 20:29:41","新北市新莊區公園路64號","121.449521666667","25.039355","6500500","新莊區"
"242046","347-TH","2019/09/26 20:29:43","新北市新莊區裕民街90巷3號","121.418018333333","25.0237383333333","6500500","新莊區"
"242036","348-TH","2019/09/26 20:29:51","新北市新莊區後港一路52號","121.42618","25.0263283333333","6500500","新莊區"
"242009","349-TH","2019/09/26 20:29:45","新北市新莊區昌盛街65巷2弄12號","121.455473333333","25.0503316666667","6500500","新莊區"
"242034","350-TH","2019/09/26 20:30:00","新北市新莊區建中街90巷3弄1號","121.446805","25.0371983333333","6500500","新莊區"
"242019","351-TH","2019/09/26 20:29:49","新北市新莊區銘德街49巷13號","121.457376666667","25.0429166666667","6500500","新莊區"
"221008","489-VK","2019/09/26 20:29:50","新北市汐止區三民街1巷1號","121.624298333333","25.0667766666667","6501100","汐止區"
"221036","130-UY","2019/09/26 20:30:00","新北市汐止區仁愛路151巷48號","121.663591666667","25.0657716666667","6501100","汐止區"
"221015","131-UY","2019/09/26 20:29:42","新北市汐止區建成路160巷23號","121.661746666667","25.0739383333333","6501100","汐止區"
"221010","269-BY","2019/09/26 20:29:58","新北市汐止區八連路二段36巷10號","121.63708","25.09438","6501100","汐止區"
"221012","278-VK","2019/09/26 20:29:41","新北市汐止區汐平路二段66號","121.698318333333","25.06106","6501100","汐止區"
"221023","279-VK","2019/09/26 20:29:49","新北市汐止區明峰街129-1號","121.630375","25.0709233333333","6501100","汐止區"
"221032","280-BY","2019/09/26 20:29:55","新北市汐止區弘道街53巷14弄2號","121.618748333333","25.0489866666667","6501100","汐止區"
"221027","281-BY","2019/09/26 20:29:43","新北市汐止區中正路214號","121.65832","25.068915","6501100","汐止區"
"221029","298-VK","2019/09/26 20:29:57","新北市汐止區樟樹一路129巷32號","121.640498333333","25.065105","6501100","汐止區"
"221021","299-VK","2019/09/26 20:29:44","新北市汐止區水源路一段284號","121.65423","25.0582916666667","6501100","汐止區"
"221031","353-TW","2019/09/26 20:29:47","新北市汐止區中興路150巷15號","121.633071666667","25.065065","6501100","汐止區"
"221035","622-UM","2019/09/26 20:29:58","新北市汐止區長江街97號","121.65817","25.07279","6501100","汐止區"
"221025","623-UM","2019/09/26 20:29:39","新北市汐止區水源路二段88巷1弄1號","121.656335","25.0558766666667","6501100","汐止區"
"221038","646-BX","2019/09/26 20:29:41","新北市汐止區水源路一段72號","121.656765","25.0652616666667","6501100","汐止區"
"221033","647-BX","2019/09/26 20:29:58","新北市汐止區林森街73巷15號","121.623776666667","25.0412433333333","6501100","汐止區"
"221002","707-TV","2019/09/26 20:29:59","新北市汐止區福德二路81號","121.633496666667","25.0666366666667","6501100","汐止區"
"221018","753-BX","2019/09/26 20:26:01","新北市汐止區茄苳路225巷4號","121.671166666667","25.0689","6501100","汐止區"
"220079","145-BY","2019/09/26 20:29:45","","121.44522","25.088725","6500100","板橋區"
"220083","286-VK","2019/09/26 20:29:46","新北市板橋區僑中二街102巷51號","121.444166666667","25.008475","6500100","板橋區"
"220081","287-VK","2019/09/26 20:29:54","新北市板橋區僑中一街104號","121.44665","25.011785","6500100","板橋區"
"220039","288-VK","2019/09/26 20:29:58","新北市八里區中山路三段390號","121.36811","25.1351833333333","6500100","板橋區"
"242011","280-VK","2019/09/26 20:29:48","新北市新莊區中義街37號","121.449976666667","25.051155","6500500","新莊區"
"220055","827-TW","2019/09/26 20:29:54","新北市板橋區華東街330號","121.452786666667","25.0038733333333","6500100","板橋區"
