"lineid","car","time","location","longitude","latitude","cityid","cityname"
"251004","009-UM","2019/09/26 21:59:50","新北市淡水區自強路201巷39號","121.462221666667","25.1267516666667","6501000","淡水區"
"251008","181-VK","2019/09/26 21:59:55","新北市淡水區學府路104號","121.449865","25.1717816666667","6501000","淡水區"
"251010","413-VK","2019/09/26 21:59:47","新北市淡水區中正路二段211號","121.426198333333","25.1891016666667","6501000","淡水區"
"251007","442-VK","2019/09/26 21:59:43","新北市淡水區北新路184巷41號","121.450731666667","25.1777816666667","6501000","淡水區"
"251005","443-VK","2019/09/26 21:59:54","新北市淡水區鄧公路30巷2弄38號","121.454066666667","25.1691816666667","6501000","淡水區"
"251001","559-UM","2019/09/26 21:59:56","新北市淡水區下圭柔山91-3號","121.431056666667","25.2098916666667","6501000","淡水區"
"251006","561-UM","2019/09/26 21:42:10","新北市淡水區中正路11巷3號","121.437905","25.1707383333333","6501000","淡水區"
"251011","650-BX","2019/09/26 21:59:41","新北市淡水區中山北路一段249號","121.44466","25.1803016666667","6501000","淡水區"
"251003","766-UM","2019/09/26 21:59:59","新北市淡水區新春街87號","121.438923333333","25.182525","6501000","淡水區"
