"lineid","car","time","location","longitude","latitude","cityid","cityname"
"234044","148-BY","2019/10/28 13:12:43","新北市永和區秀朗路二段150號","121.52555","25.001585","6500400","永和區"
"234078","298-R6","2019/10/28 13:13:50","新北市永和區國中路148號","121.522993333333","25.0072266666667","6500400","永和區"
"234036","336-UY","2019/10/28 13:13:53","新北市永和區環河東路四段84號","121.528391666667","24.9977933333333","6500400","永和區"
"234062","337-UY","2019/10/28 13:13:52","新北市永和區永元路64號","121.522371666667","25.0013733333333","6500400","永和區"
"234084","338-UY","2019/10/28 13:13:45","新北市永和區永利路4巷24號","121.517556666667","25.0049466666667","6500400","永和區"
"234068","552-UM","2019/10/28 13:13:54","新北市永和區豫溪街137-1號","121.51989","25.0104366666667","6500400","永和區"
"234015","745-BX","2019/10/28 13:13:37","新北市永和區文化路144巷32弄7號","121.513071666667","25.016785","6500400","永和區"
"234028","746-BX","2019/10/28 13:13:53","新北市永和區民生路21號","121.522893333333","24.9988633333333","6500400","永和區"
"234052","KEA-2590","2019/10/28 13:13:40","新北市永和區中興街80號","121.517948333333","25.0119883333333","6500400","永和區"
"234005","KED-0605","2019/10/28 13:13:38","新北市永和區永貞路375號","121.508355","25.0082116666667","6500400","永和區"
"234012","KEA-2591","2019/10/28 13:13:56","新北市永和區仁愛路122號","121.511685","25.0131466666667","6500400","永和區"
"234060","AAD-866","2019/10/28 13:13:45","新北市永和區秀朗路一段94號","121.516166666667","25.004765","6500400","永和區"
"234040","862-TW","2019/10/28 13:13:50","新北市永和區保平路224號","121.509558333333","25.005715","6500400","永和區"
"234048","863-TW","2019/10/28 13:13:54","新北市永和區保福路二段90號","121.51048","25.0134016666667","6500400","永和區"
"234025","9371-KE","2019/10/28 13:13:47","新北市永和區豫溪街28巷19號","121.515083333333","25.0089666666667","6500400","永和區"
"234010","9373-KE","2019/10/28 13:13:53","新北市永和區文化路126巷15弄2號","121.513078333333","25.0159033333333","6500400","永和區"
"249005","172-UM","2019/10/28 13:13:58","新北市八里區忠八街59-1號","121.419231666667","25.1612633333333","6502300","八里區"
"248013","025-BX","2019/10/28 13:13:55","新北市五股區自強路19巷5-1號","121.434598333333","25.0737583333333","6501500","五股區"
"248005","077-UY","2019/10/28 13:13:48","新北市五股區中興路一段169號","121.464715","25.0738066666667","6501500","五股區"
"248007","KED-0815","2019/10/28 13:13:41","新北市五股區更洲路32巷8弄14號","121.459233333333","25.079675","6501500","五股區"
"248018","KED-0813","2019/10/28 13:13:44","新北市五股區孝義路14-1號","121.451971666667","25.106315","6501500","五股區"
"248015","261-SL","2019/10/28 13:13:48","新北市五股區成泰路三段221巷20號","121.445675","25.0935216666667","6501500","五股區"
"248003","677-BX","2019/10/28 13:13:50","新北市五股區中興路四段54號","121.43807","25.0830333333333","6501500","五股區"
"248001","678-BX","2019/10/28 13:13:45","新北市五股區成泰路三段75-1號","121.443566666667","25.0897683333333","6501500","五股區"
"248009","682-TV","2019/10/28 13:13:40","新北市五股區成泰路一段219-18號","121.434635","25.0778433333333","6501500","五股區"
"234022","9380-KE","2019/10/28 13:13:49","新北市永和區竹林路124巷31號","121.518363333333","25.0111916666667","6500400","永和區"
"234076","969-R7","2019/10/28 13:13:53","新北市永和區民有街9號","121.516256666667","24.9969866666667","6500400","永和區"
"234072","AAC-211","2019/10/28 13:13:52","新北市永和區竹林路150號","121.520116666667","25.0108416666667","6500400","永和區"
"234066","AAC-212","2019/10/28 13:13:57","新北市永和區保平路18巷19號","121.511895","25.0080366666667","6500400","永和區"
"234001","AAC-295","2019/10/28 13:13:53","新北市永和區和平街38號","121.513061666667","25.00996","6500400","永和區"
"244001","248-BX","2019/10/28 13:13:51","新北市林口區頂福里6鄰32號","121.361393333333","25.096875","6501700","林口區"
"243005","646-TV","2019/10/28 13:13:50","新北市泰山區南林路99巷1-1號","121.415405","25.0511716666667","6501600","泰山區"
"231030","002-UM","2019/10/28 13:13:52","新北市新店區安華路28-1號","121.519865","24.9608566666667","6500600","新店區"
"231024","0291-UT","2019/10/28 13:13:53","新北市新店區安華路28-1號","121.519591666667","24.9607616666667","6500600","新店區"
"231005","046-UY","2019/10/28 13:13:56","新北市新店區安華路28-1號","121.519233333333","24.960805","6500600","新店區"
"231003","047-UY","2019/10/28 13:13:39","新北市新店區安康路一段190號","121.52468","24.9634133333333","6500600","新店區"
"231029","106-UY","2019/10/28 13:13:40","新北市新店區安一路一段1-1號","121.519841666667","24.9611466666667","6500600","新店區"
"231018","107-UY","2019/10/28 13:13:44","新北市新店區安康路一段319號","121.522111666667","24.9636833333333","6500600","新店區"
"231036","KEA-2219","2019/10/28 13:11:51","","121.498353333333","24.95347","6500600","新店區"
"231031","256-BX","2019/10/28 13:13:46","新北市新店區安華路30巷1號","121.519318333333","24.9596","6500600","新店區"
"231023","260-TV","2019/10/28 13:13:52","新北市新店區安一路一段1-1號","121.519136666667","24.9611933333333","6500600","新店區"
"231014","AAD-862","2019/10/28 13:13:48","新北市新店區安一路一段1-1號","121.51958","24.9610983333333","6500600","新店區"
"231006","355-BY","2019/10/28 13:13:48","新北市新店區安華路28-1號","121.519136666667","24.9609283333333","6500600","新店區"
"231027","3713-VJ","2019/10/28 13:13:44","新北市新店區安一路一段1-1號","121.519785","24.9616383333333","6500600","新店區"
"231025","4715-K9","2019/10/28 13:13:50","新北市新店區秀山路72號","121.531516666667","24.9609166666667","6500600","新店區"
"231019","513-UM","2019/10/28 13:13:45","新北市新店區安一路一段1-1號","121.519823333333","24.9611633333333","6500600","新店區"
"231034","616-UM","2019/10/28 13:13:44","新北市新店區安華路28-1號","121.519688333333","24.960675","6500600","新店區"
"231001","617-UM","2019/10/28 13:13:48","新北市新店區安一路一段1-1號","121.519778333333","24.96152","6500600","新店區"
"231002","619-UM","2019/10/28 13:13:40","新北市新店區安華路28-1號","121.519656666667","24.9610033333333","6500600","新店區"
"231011","KED-0819","2019/10/28 13:13:52","新北市新店區安一路一段1-1號","121.519853333333","24.9612683333333","6500600","新店區"
"231035","718-UY","2019/10/28 13:13:44","新北市新店區安一路一段1-1號","121.519596666667","24.9611916666667","6500600","新店區"
"231010","719-UM","2019/10/28 13:13:50","新北市新店區安一路一段1-1號","121.519523333333","24.9612883333333","6500600","新店區"
"231026","720-UM","2019/10/28 13:13:49","新北市新店區安一路一段1-1號","121.518855","24.9612933333333","6500600","新店區"
"231004","899-TW","2019/10/28 13:13:58","新北市新店區安康路一段359-27號","121.517861666667","24.9609916666667","6500600","新店區"
"231037","AKT-0513","2019/10/28 13:13:45","新北市新店區車子路10-3號","121.50441","24.95457","6500600","新店區"
"235030","003-UY","2019/10/28 13:13:48","新北市中和區景平路597號","121.496981666667","25.000655","6500300","中和區"
"235027","006-UY","2019/10/28 13:13:36","新北市中和區員山路36巷16-3號","121.48505","24.9913733333333","6500300","中和區"
"235003","097-UM","2019/10/28 13:13:43","新北市中和區南山路231號","121.503671666667","24.9935266666667","6500300","中和區"
"235029","098-UM","2019/10/28 13:13:51","新北市中和區莊敬路49巷20弄22號","121.502755","25.0059016666667","6500300","中和區"
"235004","150-BY","2019/10/28 13:13:43","新北市中和區中正路38號","121.502256666667","24.9935716666667","6500300","中和區"
"235022","151-BY","2019/10/28 13:13:41","新北市中和區圓通路433巷8號","121.487628333333","24.9880683333333","6500300","中和區"
"235019","183-VK","2019/10/28 13:13:42","新北市土城區金城路三段262號","121.47438","24.9909283333333","6500300","中和區"
"235002","185-VK","2019/10/28 13:13:54","新北市中和區大智街2號","121.520021666667","24.9919","6500300","中和區"
"235031","255-BX","2019/10/28 13:13:55","新北市中和區中山路二段449巷1弄7號","121.483985","25.004075","6500300","中和區"
"235036","301-VK","2019/10/28 13:13:54","新北市中和區錦和路111-1號","121.490251666667","24.995085","6500300","中和區"
"235007","352-BY","2019/10/28 13:13:42","新北市中和區景平路379號","121.504041666667","24.9934983333333","6500300","中和區"
"235006","KEA-2878","2019/10/28 13:13:49","新北市中和區景平路159巷33號","121.513091666667","24.991015","6500300","中和區"
"235033","4980-A6","2019/10/28 13:13:43","新北市中和區連城路169號","121.495466666667","24.998355","6500300","中和區"
"235034","558-UM","2019/10/28 13:13:44","新北市中和區景平路477號","121.500143333333","24.99715","6500300","中和區"
"235009","565-BX","2019/10/28 13:13:54","新北市中和區景安路200巷4弄2號","121.503613333333","24.99157","6500300","中和區"
"235024","KED-0823","2019/10/28 13:13:51","新北市中和區員山路473號","121.480235","25.0046383333333","6500300","中和區"
"235018","640-BX","2019/10/28 13:13:48","新北市中和區民享街86巷19號","121.473526666667","25.0006766666667","6500300","中和區"
"235035","647-TV","2019/10/28 13:13:42","新北市中和區中板路15巷15號","121.484525","25.011105","6500300","中和區"
"235010","733-UM","2019/10/28 13:13:46","新北市中和區員山路36巷13號","121.484188333333","24.99095","6500300","中和區"
"235021","801-TS","2019/10/28 13:13:38","新北市中和區民享街97巷19號","121.475398333333","24.9995466666667","6500300","中和區"
"235005","802-TS","2019/10/28 13:13:40","新北市中和區中和路260號","121.507895","24.9992416666667","6500300","中和區"
"235016","805-TS","2019/10/28 13:13:39","新北市中和區南山路539號","121.508003333333","24.9868533333333","6500300","中和區"
"235017","900-TW","2019/10/28 13:13:40","新北市中和區員山路36巷16-2號","121.485373333333","24.9915183333333","6500300","中和區"
"235028","911-UM","2019/10/28 13:13:56","新北市中和區圓通路189號","121.497303333333","24.9945466666667","6500300","中和區"
"235015","157-BY","2019/10/28 13:13:41","新北市中和區信義街15號","121.510983333333","24.9894966666667","6500300","中和區"
"235001","AAC-213","2019/10/28 13:13:41","新北市中和區景平路151巷39號","121.514683333333","24.990635","6500300","中和區"
"235023","AAC-215","2019/10/28 13:13:46","新北市中和區員山路36巷16-3號","121.484965","24.9913116666667","6500300","中和區"
"220013","072-UY","2019/10/28 13:13:52","新北市板橋區華東街1-9號","121.448183333333","24.9949716666667","6500100","板橋區"
"247013","056-VK","2019/10/28 13:13:55","新北市五股區中興路三段2巷10號","121.449298333333","25.0809933333333","6501400","蘆洲區"
"253003","6232-TK","2019/10/28 13:13:46","新北市石門區石崩山20-1號","121.56565","25.275585","6502200","石門區"
"253004","6251-TK","2019/10/28 13:13:34","新北市石門區阿里荖48-1號","121.609215","25.2769983333333","6502200","石門區"
"253002","637-UY","2019/10/28 13:13:38","新北市石門區九芎林3號","121.556411666667","25.2720383333333","6502200","石門區"
"253001","KEC-0718","2019/10/28 13:13:42","新北市石門區楓林11號","121.537066666667","25.2948116666667","6502200","石門區"
"207002","749-BX","2019/10/28 13:13:41","新北市萬里區崁腳里崁腳路166號","121.6452","25.156195","6502800","萬里區"
"252005","073-UM","2019/10/28 13:13:35","新北市三芝區八賢里八連溪21號","121.51098","25.24118","6502100","三芝區"
"220030","610-BX","2019/10/28 13:13:58","新北市板橋區華東街1-10號","121.448276666667","24.9949733333333","6500100","板橋區"
"220025","687-BX","2019/10/28 13:13:55","新北市板橋區華東街1-10號","121.448365","24.9950166666667","6500100","板橋區"
"220021","985-R7","2019/10/28 13:13:37","新北市板橋區華東街1-10號","121.448285","24.9950233333333","6500100","板橋區"
"235032","KEA-2873","2019/10/28 13:13:58","新北市中和區員山路36巷16-3號","121.484983333333","24.9912866666667","6500300","中和區"
"235026","KEA-2876","2019/10/28 13:13:41","新北市中和區景平路999巷2號","121.495398333333","25.0059916666667","6500300","中和區"
