"lineid","car","time","location","longitude","latitude","cityid","cityname"
"234044","148-BY","2019/10/28 14:13:43","新北市永和區永元路94號","121.522481666667","25.0017183333333","6500400","永和區"
"234078","298-R6","2019/10/28 14:13:50","新北市永和區國中路104巷2弄1號","121.52447","25.0068233333333","6500400","永和區"
"234036","336-UY","2019/10/28 14:13:53","新北市永和區成功路一段47巷21弄2號","121.527953333333","25.0039733333333","6500400","永和區"
"234062","337-UY","2019/10/28 14:13:52","新北市永和區得和路269號","121.521658333333","24.99992","6500400","永和區"
"234084","338-UY","2019/10/28 14:13:45","新北市永和區中正路561號","121.516705","25.0084416666667","6500400","永和區"
"234068","552-UM","2019/10/28 14:13:54","新北市永和區永亨路47號","121.520161666667","25.0063483333333","6500400","永和區"
"234015","745-BX","2019/10/28 14:13:37","新北市永和區仁愛路91號","121.513018333333","25.0130866666667","6500400","永和區"
"234028","746-BX","2019/10/28 14:13:53","新北市永和區民權路51號","121.519935","24.997065","6500400","永和區"
"234052","KEA-2590","2019/10/28 14:13:41","新北市永和區博愛街9號","121.516963333333","25.0158633333333","6500400","永和區"
"234005","KED-0605","2019/10/28 14:13:57","新北市永和區永貞路372號","121.509986666667","25.0067583333333","6500400","永和區"
"234012","KEA-2591","2019/10/28 14:13:56","新北市永和區保生路5巷3號","121.506108333333","25.00705","6500400","永和區"
"234060","AAD-866","2019/10/28 14:13:44","新北市永和區得和路78號","121.516555","25.000075","6500400","永和區"
"234040","862-TW","2019/10/28 14:13:49","新北市永和區中和路463號","121.510031666667","25.0015916666667","6500400","永和區"
"234048","863-TW","2019/10/28 14:13:53","新北市永和區環河西路二段33號","121.507415","25.015685","6500400","永和區"
"234025","9371-KE","2019/10/28 14:13:47","新北市永和區安樂路144巷15號","121.514628333333","25.0001466666667","6500400","永和區"
"248007","KED-0815","2019/10/28 14:13:41","新北市五股區中興路二段57-6號","121.460561666667","25.0754933333333","6501500","五股區"
"248018","KED-0813","2019/10/28 14:03:14","新北市五股區凌雲路三段59-5號","121.424985","25.1250033333333","6501500","五股區"
"248011","247-BX","2019/10/28 14:13:46","新北市五股區成泰路二段186號","121.438663333333","25.084775","6501500","五股區"
"248003","677-BX","2019/10/28 14:13:50","新北市五股區五福路7-1號","121.43427","25.0880516666667","6501500","五股區"
"248001","678-BX","2019/10/28 14:13:45","新北市五股區成泰路三段579號","121.452121666667","25.1026616666667","6501500","五股區"
"234022","9380-KE","2019/10/28 14:13:49","新北市永和區竹林路35號","121.51771","25.0143283333333","6500400","永和區"
"234076","969-R7","2019/10/28 14:13:55","新北市永和區民有街67巷10號","121.518173333333","24.9964433333333","6500400","永和區"
"234072","AAC-211","2019/10/28 14:13:51","新北市永和區竹林路203號","121.520963333333","25.0091533333333","6500400","永和區"
"234066","AAC-212","2019/10/28 14:13:57","新北市永和區保平路205號","121.508795","25.0050466666667","6500400","永和區"
"234001","AAC-295","2019/10/28 14:13:50","新北市永和區中正路577巷10號","121.516035","25.0088916666667","6500400","永和區"
"243004","AAD-798","2019/10/28 14:13:54","新北市泰山區辭修路14號","121.429325","25.0581666666667","6501600","泰山區"
"243002","297-R6","2019/10/28 14:13:46","新北市泰山區明志路一段458巷2弄2號","121.43043","25.0556833333333","6501600","泰山區"
"243006","KEA-2801","2019/10/28 14:13:51","新北市泰山區泰林路二段328號","121.430191666667","25.0630466666667","6501600","泰山區"
"243008","421-VK","2019/10/28 14:13:41","新北市泰山區明志路3段87-1號","121.425213333333","25.0412233333333","6501600","泰山區"
"243001","KEA-2215","2019/10/28 14:13:52","新北市泰山區和平街13巷5號","121.434346666667","25.064905","6501600","泰山區"
"243003","KEA-2216","2019/10/28 14:13:56","新北市泰山區中央路7巷2號","121.42645","25.043295","6501600","泰山區"
"243005","646-TV","2019/10/28 14:13:53","新北市泰山區明志路三段184號","121.42414","25.038885","6501600","泰山區"
"243007","680-BX","2019/10/28 14:13:44","新北市泰山區公園路29號","121.428553333333","25.0544433333333","6501600","泰山區"
"231030","002-UM","2019/10/28 14:13:52","新北市新店區安興路3巷2號","121.51508","24.967525","6500600","新店區"
"231024","0291-UT","2019/10/28 14:13:53","新北市新店區安民街133巷26號","121.515431666667","24.9696","6500600","新店區"
"231005","046-UY","2019/10/28 14:13:56","新北市新店區中興路三段247號","121.542736666667","24.9838433333333","6500600","新店區"
"231003","047-UY","2019/10/28 14:13:39","新北市新店區中興路一段172巷1號","121.542863333333","24.9644983333333","6500600","新店區"
"231029","106-UY","2019/10/28 14:13:40","新北市新店區安康路二段159巷12號","121.510365","24.95912","6500600","新店區"
"231018","107-UY","2019/10/28 14:13:44","新北市新店區中央三街87號","121.52576","24.9756883333333","6500600","新店區"
"231013","108-UY","2019/10/28 14:13:38","新北市新店區北新路三段82號","121.541888333333","24.98066","6500600","新店區"
"231036","KEA-2219","2019/10/28 14:13:51","新北市新店區安祥路109巷3弄1號","121.477783333333","24.9612183333333","6500600","新店區"
"231031","256-BX","2019/10/28 14:13:46","新北市新店區永業路57號","121.531951666667","24.954215","6500600","新店區"
"231023","260-TV","2019/10/28 14:13:52","新北市新店區文中路45號","121.539686666667","24.9566616666667","6500600","新店區"
"231014","AAD-862","2019/10/28 14:13:47","新北市新店區郵政路1巷2號","121.55734","24.9522433333333","6500600","新店區"
"231006","355-BY","2019/10/28 14:13:48","新北市新店區北宜路二段82-13號","121.554698333333","24.9535283333333","6500600","新店區"
"231038","3712-VJ","2019/10/28 14:13:55","新北市新店區安康路一段5號","121.533875","24.9604433333333","6500600","新店區"
"231027","3713-VJ","2019/10/28 14:13:44","新北市新店區北宜路一段7號","121.538246666667","24.9582033333333","6500600","新店區"
"231025","4715-K9","2019/10/28 14:13:50","新北市新店區民族路106號","121.538936666667","24.978065","6500600","新店區"
"231019","513-UM","2019/10/28 14:13:45","新北市新店區屈尺路2號","121.54935","24.9224933333333","6500600","新店區"
"231034","616-UM","2019/10/28 14:13:44","新北市新店區車子路11號","121.503088333333","24.9520616666667","6500600","新店區"
"231001","617-UM","2019/10/28 14:13:48","新北市新店區中華路33號","121.540395","24.9676066666667","6500600","新店區"
"231002","619-UM","2019/10/28 14:13:40","新北市新店區中正路500號","121.533981666667","24.9821066666667","6500600","新店區"
"231011","KED-0819","2019/10/28 14:13:52","新北市新店區五峰路63巷8弄25號","121.547646666667","24.9693133333333","6500600","新店區"
"231035","718-UY","2019/10/28 14:13:44","新北市新店區安和路二段115號","121.518686666667","24.9704466666667","6500600","新店區"
"231028","897-TW","2019/10/28 14:13:44","新北市新店區安和路三段53號","121.518005","24.9826833333333","6500600","新店區"
"231004","899-TW","2019/10/28 14:13:38","新北市新店區北新路二段82號","121.54306","24.9727483333333","6500600","新店區"
"231037","AKT-0513","2019/10/28 14:13:45","新北市新店區安康路二段341巷84號","121.496515","24.95438","6500600","新店區"
"235030","003-UY","2019/10/28 14:13:53","新北市中和區枋寮街2號","121.502483333333","24.999835","6500300","中和區"
"235027","006-UY","2019/10/28 14:13:56","新北市中和區連勝街145號","121.494611666667","24.99606","6500300","中和區"
"235020","096-UM","2019/10/28 14:13:42","新北市中和區員山路507號","121.479795","25.00638","6500300","中和區"
"235003","097-UM","2019/10/28 14:13:43","新北市中和區秀峰街119巷8弄14號","121.519083333333","24.9899183333333","6500300","中和區"
"235029","098-UM","2019/10/28 14:13:51","新北市中和區中山路二段2巷3弄15號","121.504371666667","25.00568","6500300","中和區"
"235004","150-BY","2019/10/28 14:13:43","新北市中和區宜安路73號","121.511016666667","24.9972583333333","6500300","中和區"
"235022","151-BY","2019/10/28 14:13:41","新北市中和區員山路36巷16-2號","121.485381666667","24.9914483333333","6500300","中和區"
"235019","183-VK","2019/10/28 14:13:42","新北市中和區中山路三段183號","121.472738333333","25.0062566666667","6500300","中和區"
"235002","185-VK","2019/10/28 14:13:54","新北市中和區大仁街10巷4號","121.518081666667","24.9925883333333","6500300","中和區"
"235031","255-BX","2019/10/28 14:13:55","新北市中和區新生街286號","121.483593333333","24.9965966666667","6500300","中和區"
"235008","293-VK","2019/10/28 14:13:37","新北市中和區復興路316號","121.500913333333","24.9903333333333","6500300","中和區"
"235036","301-VK","2019/10/28 14:13:54","新北市中和區景平路727號","121.496405","25.004165","6500300","中和區"
"235007","352-BY","2019/10/28 14:13:42","新北市中和區景平路296號","121.513011666667","24.99269","6500300","中和區"
"235006","KEA-2878","2019/10/28 14:13:49","新北市永和區中正路226號","121.516018333333","24.9978083333333","6500300","中和區"
"247015","KEA-2869","2019/10/28 14:13:45","新北市蘆洲區光華路46巷21弄12號","121.46789","25.08346","6501400","蘆洲區"
"247009","KED-0682","2019/10/28 14:13:58","新北市蘆洲區信義路231號","121.479145","25.083915","6501400","蘆洲區"
"235014","4979-A6","2019/10/28 14:13:37","新北市中和區復興路280巷24號","121.502005","24.991895","6500300","中和區"
"235033","4980-A6","2019/10/28 14:13:45","新北市中和區景平路736巷3弄9號","121.49747","25.0039","6500300","中和區"
"235034","558-UM","2019/10/28 14:13:44","新北市中和區中山路二段240號","121.497951666667","25.0026316666667","6500300","中和區"
"235009","565-BX","2019/10/28 14:13:54","新北市中和區景新街423巷45號","121.514575","24.9897883333333","6500300","中和區"
"235024","KED-0823","2019/10/28 14:13:39","新北市中和區員山路314巷7弄8號","121.482138333333","25.0032566666667","6500300","中和區"
"235018","640-BX","2019/10/28 14:13:42","新北市中和區國光街102巷11弄17號","121.470556666667","25.001665","6500300","中和區"
"235035","647-TV","2019/10/28 14:13:42","新北市中和區連城路306號","121.483786666667","24.9963166666667","6500300","中和區"
"235011","732-UM","2019/10/28 14:13:45","新北市中和區和平街54巷1弄2號","121.508646666667","24.991055","6500300","中和區"
"235010","733-UM","2019/10/28 14:13:46","新北市中和區華新街168號","121.507385","24.982295","6500300","中和區"
"235021","801-TS","2019/10/28 14:13:58","新北市中和區中山路三段37巷37號","121.479668333333","25.00478","6500300","中和區"
"235005","802-TS","2019/10/28 14:13:40","新北市中和區宜安路118巷20號","121.510828333333","24.9986666666667","6500300","中和區"
"235016","805-TS","2019/10/28 14:13:39","新北市中和區興南路二段142巷31弄81號","121.501565","24.9836183333333","6500300","中和區"
"235012","896-TW","2019/10/28 14:13:41","新北市中和區華新街109巷32號","121.508583333333","24.9801216666667","6500300","中和區"
"235017","900-TW","2019/10/28 14:13:40","新北市中和區民德路206號","121.468326666667","24.99842","6500300","中和區"
"235028","911-UM","2019/10/28 14:13:56","新北市中和區南山路81巷21號","121.502461666667","24.99821","6500300","中和區"
"235015","157-BY","2019/10/28 14:13:41","新北市中和區和平街2巷3號","121.509998333333","24.9902983333333","6500300","中和區"
"235001","AAC-213","2019/10/28 14:13:55","新北市中和區秀朗路三段10巷37弄4號","121.52408","24.995885","6500300","中和區"
"235023","AAC-215","2019/10/28 14:13:46","新北市中和區圓通路367巷2號","121.491243333333","24.9893066666667","6500300","中和區"
"220104","015-TV","2019/10/28 14:13:55","新北市板橋區瑞安街31巷7號","121.456056666667","25.0226933333333","6500100","板橋區"
"220013","072-UY","2019/10/28 14:13:52","新北市板橋區民族路219巷42號","121.469446666667","25.0088283333333","6500100","板橋區"
"220034","073-UY","2019/10/28 14:13:54","新北市板橋區中正路236巷75號","121.459031666667","25.0196216666667","6500100","板橋區"
"220105","075-UY","2019/10/28 14:13:54","新北市板橋區江寧路三段87巷2弄25號","121.47271","25.03333","6500100","板橋區"
"220017","AAD-861","2019/10/28 14:13:45","新北市板橋區華興街33-2號","121.458351666667","25.00462","6500100","板橋區"
"220016","120-SR","2019/10/28 14:13:45","新北市板橋區翠華街6巷69號","121.480941666667","25.0248533333333","6500100","板橋區"
"247005","893-R6","2019/10/28 14:13:38","新北市蘆洲區永安南路二段16巷17弄17號","121.467486666667","25.0779","6501400","蘆洲區"
"247003","341-TH","2019/10/28 14:13:52","新北市蘆洲區長安街237號","121.459305","25.0829083333333","6501400","蘆洲區"
"247023","057-VK","2019/10/28 14:13:57","新北市蘆洲區長榮路416號","121.459473333333","25.0880966666667","6501400","蘆洲區"
"247013","056-VK","2019/10/28 14:13:55","新北市蘆洲區三民路11號","121.475798333333","25.0822316666667","6501400","蘆洲區"
"247017","053-VK","2019/10/28 14:13:51","新北市蘆洲區民族路201巷9號","121.477473333333","25.0889183333333","6501400","蘆洲區"
"247011","007-UY","2019/10/28 14:13:46","新北市蘆洲區信義路351巷18號","121.476918333333","25.0867983333333","6501400","蘆洲區"
"247007","002-UY","2019/10/28 14:13:48","新北市蘆洲區中山一路234號","121.472805","25.0803033333333","6501400","蘆洲區"
"247001","001-UY","2019/10/28 14:13:46","新北市蘆洲區永平街37號","121.458281666667","25.0910816666667","6501400","蘆洲區"
"235013","251-BX","2019/10/28 14:13:53","新北市中和區景新街228-6號","121.508176666667","24.9941883333333","6500300","中和區"
"253003","6232-TK","2019/10/28 14:13:46","新北市石門區尖子鹿31號","121.579453333333","25.2657633333333","6502200","石門區"
"253004","6251-TK","2019/10/28 14:13:54","新北市石門區坪林50號","121.588616666667","25.26914","6502200","石門區"
"253002","637-UY","2019/10/28 14:13:38","新北市石門區七股30號","121.551988333333","25.2640816666667","6502200","石門區"
"253001","KEC-0718","2019/10/28 14:13:42","新北市石門區八甲20-2號","121.525238333333","25.2805133333333","6502200","石門區"
"207002","749-BX","2019/10/28 14:13:01","新北市萬里區溪底里瑞泉路7號","121.60331","25.1409366666667","6502800","萬里區"
"207001","681-TV","2019/10/28 14:13:41","新北市萬里區磺潭里清水18號","121.637816666667","25.1977366666667","6502800","萬里區"
"252005","073-UM","2019/10/28 14:13:55","新北市三芝區橫山里橫山45號","121.534893333333","25.25728","6502100","三芝區"
"236040","KED-0685","2019/10/28 14:13:46","新北市土城區裕生路71號","121.447036666667","24.9846283333333","6501300","土城區"
"236074","166-UM","2019/10/28 14:13:53","新北市土城區永安街53號","121.43272","24.9641016666667","6501300","土城區"
"236029","253-BX","2019/10/28 14:13:42","新北市土城區中央路二段145號","121.442025","24.9767183333333","6501300","土城區"
"236024","269-VK","2019/10/28 14:13:57","新北市土城區承天路47號","121.438666666667","24.9638","6501300","土城區"
"236012","270-VK","2019/10/28 14:13:54","新北市土城區青雲路39巷7號","121.460338333333","24.9875833333333","6501300","土城區"
"236032","271-VK","2019/10/28 14:13:57","新北市土城區青雲路451巷2弄2號","121.459005","24.9746183333333","6501300","土城區"
"247021","KED-0683","2019/10/28 14:13:48","新北市蘆洲區三民路128巷89-1號","121.467948333333","25.0933933333333","6501400","蘆洲區"
"236064","KEA-2877","2019/10/28 14:13:53","新北市土城區明德路一段128巷5號","121.463313333333","24.9790366666667","6501300","土城區"
"236016","401-BY","2019/10/28 14:13:56","新北市土城區清水路222號","121.460766666667","24.9821916666667","6501300","土城區"
"236060","752-BX","2019/10/28 14:13:43","新北市土城區金城路一段112號","121.446756666667","24.97589","6501300","土城區"
"236057","912-UM","2019/10/28 14:13:50","新北市土城區中央路四段286-1號","121.414348333333","24.9563283333333","6501300","土城區"
"236045","913-UM","2019/10/28 14:13:45","新北市土城區明德路一段365-1號","121.453566666667","24.9790666666667","6501300","土城區"
"236054","AAC-216","2019/10/28 14:13:46","新北市土城區中華路二段90號","121.438318333333","24.9747983333333","6501300","土城區"
"220027","145-BY","2019/10/28 14:13:42","新北市板橋區民權路202巷6弄2號","121.460031666667","25.0146","6500100","板橋區"
"220028","200-UY","2019/10/28 14:13:45","新北市板橋區大觀路二段7巷40號","121.448403333333","25.00323","6500100","板橋區"
"220030","610-BX","2019/10/28 14:13:47","新北市板橋區溪崑二街59號","121.42814","24.9905783333333","6500100","板橋區"
"220050","245-BX","2019/10/28 14:13:49","新北市板橋區縣民大道三段121巷14號","121.476735","25.0232216666667","6500100","板橋區"
"220002","256-TC","2019/10/28 14:13:49","新北市板橋區實踐路93巷86號","121.467048333333","25.0046166666667","6500100","板橋區"
"220004","276-BY","2019/10/28 14:13:52","新北市板橋區信義路215號","121.459418333333","24.9914966666667","6500100","板橋區"
"220020","277-BY","2019/10/28 14:13:39","新北市板橋區金門街369巷57弄7-1號","121.429295","24.9840733333333","6500100","板橋區"
"220043","283-UM","2019/10/28 14:13:46","新北市板橋區吳鳳路82號","121.46696","25.031295","6500100","板橋區"
"220019","283-VK","2019/10/28 14:13:59","新北市中和區華安街2號","121.465405","24.9986133333333","6500100","板橋區"
"220001","285-VK","2019/10/28 14:13:50","新北市板橋區永豐街130號","121.477613333333","25.02125","6500100","板橋區"
"220029","287-VK","2019/10/28 14:13:41","新北市板橋區南雅西路二段181號","121.451921666667","25.0127266666667","6500100","板橋區"
"220039","288-VK","2019/10/28 14:13:54","新北市板橋區長江路一段106巷20弄11號","121.460143333333","25.0282216666667","6500100","板橋區"
"220009","293-UM","2019/10/28 14:13:48","新北市板橋區中山路二段255巷2號","121.477275","25.01783","6500100","板橋區"
"220010","295-UM","2019/10/28 14:13:54","新北市板橋區三民路二段居仁巷2弄25號","121.479966666667","25.01303","6500100","板橋區"
"220032","296-UM","2019/10/28 14:13:54","新北市板橋區溪崑二街56巷36號","121.428261666667","24.99152","6500100","板橋區"
"220023","303-R5","2019/10/28 14:13:46","新北市板橋區府中路143號","121.455486666667","25.00938","6500100","板橋區"
"220041","307-R5","2019/10/28 14:13:47","新北市板橋區光武街2巷47號","121.468465","25.0260166666667","6500100","板橋區"
"220047","317-R6","2019/10/28 14:13:43","新北市板橋區四維路103巷4號","121.465035","25.0242916666667","6500100","板橋區"
"220031","461-BY","2019/10/28 14:13:55","新北市板橋區大觀路二段174巷196弄15號","121.44312","25.003635","6500100","板橋區"
"220038","487-VK","2019/10/28 14:13:42","新北市板橋區國光路200號","121.461715","25.0185433333333","6500100","板橋區"
"220037","491-VK","2019/10/28 14:13:46","新北市板橋區文化路二段182巷3弄25號","121.471943333333","25.0280133333333","6500100","板橋區"
"220011","609-BX","2019/10/28 14:13:54","新北市板橋區三民路二段203-4號","121.479095","25.01355","6500100","板橋區"
"220052","630-UY","2019/10/28 14:13:48","新北市板橋區文化路一段270巷2號","121.467411666667","25.020575","6500100","板橋區"
"220040","637-BX","2019/10/28 14:13:55","新北市板橋區縣民大道三段187巷15號","121.479021666667","25.0252733333333","6500100","板橋區"
"220005","686-BX","2019/10/28 14:13:50","新北市板橋區和平路153號","121.463331666667","24.9955883333333","6500100","板橋區"
"220025","687-BX","2019/10/28 14:13:55","新北市板橋區龍興街103巷2號","121.444566666667","25.003585","6500100","板橋區"
"220042","689-BX","2019/10/28 14:13:50","新北市板橋區新海路69號","121.461761666667","25.0217283333333","6500100","板橋區"
"220002","741-BX","2019/10/28 14:13:53","新北市板橋區重慶路67號","121.46199","25.0070316666667","6500100","板橋區"
"220051","KEA-2699","2019/10/28 14:13:41","新北市板橋區松柏街1巷35號","121.473286666667","25.0300416666667","6500100","板橋區"
"220003","827-TW","2019/10/28 14:13:41","新北市板橋區新民街9號","121.463815","25.0098083333333","6500100","板橋區"
"220014","831-TW","2019/10/28 14:13:50","新北市板橋區長安街224巷4號","121.474981666667","25.0121583333333","6500100","板橋區"
"220022","895-R6","2019/10/28 14:13:56","新北市板橋區文昌街11號","121.455748333333","25.0104116666667","6500100","板橋區"
"220021","985-R7","2019/10/28 14:13:37","新北市板橋區民權路204號","121.458961666667","25.01392","6500100","板橋區"
"220046","AAC-210","2019/10/28 14:13:42","新北市板橋區幸福路60巷79號","121.459826666667","25.0220183333333","6500100","板橋區"
"220012","AAC-253","2019/10/28 14:13:41","新北市板橋區縣民大道二段22號","121.464011666667","25.0135466666667","6500100","板橋區"
"235032","KEA-2873","2019/10/28 14:13:41","新北市中和區景平路493巷2弄12號","121.499105","24.9971516666667","6500300","中和區"
"235025","KEA-2875","2019/10/28 14:13:57","新北市中和區民利街56號","121.479151666667","24.9987016666667","6500300","中和區"
"235026","KEA-2876","2019/10/28 14:13:41","新北市中和區中山路二段418號","121.489818333333","25.003925","6500300","中和區"
