"lineid","car","time","location","longitude","latitude","cityid","cityname"
"234078","298-R6","2019/10/28 14:29:50","新北市永和區永貞路74號","121.520295","25.0051616666667","6500400","永和區"
"234036","336-UY","2019/10/28 14:29:53","新北市永和區民樂街31巷10弄12號","121.528926666667","25.000845","6500400","永和區"
"234062","337-UY","2019/10/28 14:29:52","新北市永和區中正路433號","121.517198333333","25.00505","6500400","永和區"
"234084","338-UY","2019/10/28 14:29:51","新北市永和區永和路二段340號","121.516303333333","25.01692","6500400","永和區"
"234068","552-UM","2019/10/28 14:29:54","新北市永和區永利路62號","121.519278333333","25.0051333333333","6500400","永和區"
"234028","746-BX","2019/10/28 14:29:53","新北市中和區安樂路63號","121.512328333333","24.9936633333333","6500400","永和區"
"234052","KEA-2590","2019/10/28 14:29:47","新北市永和區環河東路一段76號","121.519403333333","25.0166666666667","6500400","永和區"
"234005","KED-0605","2019/10/28 14:29:38","新北市永和區中正路393號","121.517308333333","25.004085","6500400","永和區"
"234060","AAD-866","2019/10/28 14:29:40","新北市永和區秀朗路一段175號","121.517011666667","25.0037466666667","6500400","永和區"
"234040","862-TW","2019/10/28 14:29:49","新北市永和區自由街20號","121.514451666667","25.0066233333333","6500400","永和區"
"234048","863-TW","2019/10/28 14:29:54","新北市永和區新生路110號","121.507071666667","25.0147266666667","6500400","永和區"
"234025","9371-KE","2019/10/28 14:29:47","新北市中和區安平路222號","121.51386","25.0002566666667","6500400","永和區"
"248013","025-BX","2019/10/28 14:29:40","新北市五股區民義路一段172巷11號","121.433566666667","25.0881216666667","6501500","五股區"
"248007","KED-0815","2019/10/28 14:29:41","新北市五股區中興路二段83巷26-3號","121.46014","25.0755033333333","6501500","五股區"
"248018","KED-0813","2019/10/28 14:03:14","新北市五股區凌雲路三段59-5號","121.424985","25.1250033333333","6501500","五股區"
"248011","247-BX","2019/10/28 14:29:46","新北市五股區蓬萊路24號","121.433911666667","25.0799416666667","6501500","五股區"
"248015","261-SL","2019/10/28 14:29:46","新北市五股區成泰路四段22巷27-1號","121.455336666667","25.1080183333333","6501500","五股區"
"248003","677-BX","2019/10/28 14:29:50","新北市五股區工商路146-2號","121.434698333333","25.086725","6501500","五股區"
"248001","678-BX","2019/10/28 14:29:45","新北市五股區成泰路三段487號","121.450741666667","25.0992866666667","6501500","五股區"
"234072","AAC-211","2019/10/28 14:29:51","新北市永和區環河東路一段124號","121.52071","25.0154133333333","6500400","永和區"
"234001","AAC-295","2019/10/28 14:29:50","新北市永和區大新街12號","121.514923333333","25.0085183333333","6500400","永和區"
"243004","AAD-798","2019/10/28 14:29:54","新北市泰山區明志路一段501巷19號","121.431378333333","25.0546216666667","6501600","泰山區"
"243002","297-R6","2019/10/28 14:18:46","新北市泰山區明志路一段507號","121.430613333333","25.0545233333333","6501600","泰山區"
"243006","KEA-2801","2019/10/28 14:29:51","新北市泰山區中港西路450號","121.433521666667","25.0536233333333","6501600","泰山區"
"243008","421-VK","2019/10/28 14:29:41","新北市泰山區新北大道七段103號","121.417581666667","25.0317783333333","6501600","泰山區"
"243001","KEA-2215","2019/10/28 14:29:52","新北市五股區成泰路一段1號","121.433653333333","25.0664083333333","6501600","泰山區"
"243003","KEA-2216","2019/10/28 14:29:53","新北市泰山區貴子路47號","121.429921666667","25.03976","6501600","泰山區"
"243005","646-TV","2019/10/28 14:29:53","新北市泰山區民國街12號","121.425458333333","25.0434783333333","6501600","泰山區"
"243007","680-BX","2019/10/28 14:29:38","新北市泰山區民權街53號","121.428926666667","25.050405","6501600","泰山區"
"231030","002-UM","2019/10/28 14:29:57","新北市新店區安民街76號","121.51665","24.9668866666667","6500600","新店區"
"231005","046-UY","2019/10/28 14:29:36","新北市新店區中興路三段137號","121.544605","24.9797533333333","6500600","新店區"
"231003","047-UY","2019/10/28 14:29:39","新北市新店區中興路一段273號","121.545191666667","24.9680966666667","6500600","新店區"
"231029","106-UY","2019/10/28 14:29:40","新北市新店區安康路二段382號","121.500518333333","24.9570383333333","6500600","新店區"
"231018","107-UY","2019/10/28 14:29:44","新北市新店區中央二街77號","121.52604","24.975045","6500600","新店區"
"231013","108-UY","2019/10/28 14:29:38","新北市新店區民權路100-1號","121.536251666667","24.983405","6500600","新店區"
"231036","KEA-2219","2019/10/28 14:29:51","新北市新店區安祥路109巷90弄28號","121.477158333333","24.9592933333333","6500600","新店區"
"231031","256-BX","2019/10/28 14:29:46","新北市新店區安康路一段20號","121.53102","24.9609966666667","6500600","新店區"
"231023","260-TV","2019/10/28 14:29:52","新北市新店區光明街185號","121.540018333333","24.9631816666667","6500600","新店區"
"231014","AAD-862","2019/10/28 14:29:47","新北市新店區北宜路二段392巷2號","121.56511","24.953265","6500600","新店區"
"231006","355-BY","2019/10/28 14:29:48","新北市新店區北宜路二段382號","121.564503333333","24.9533466666667","6500600","新店區"
"231038","3712-VJ","2019/10/28 14:29:55","新北市新店區溪洲路143號","121.528876666667","24.9637883333333","6500600","新店區"
"231027","3713-VJ","2019/10/28 14:29:44","新北市新店區北新路一段199號","121.540416666667","24.9648183333333","6500600","新店區"
"231019","513-UM","2019/10/28 14:29:45","新北市新店區桂山路38號","121.557875","24.90301","6500600","新店區"
"231034","616-UM","2019/10/28 14:29:43","新北市新店區車子路11號","121.50303","24.9518983333333","6500600","新店區"
"231001","617-UM","2019/10/28 14:29:48","新北市新店區中正路75巷71號","121.543245","24.968845","6500600","新店區"
"231002","619-UM","2019/10/28 14:29:40","新北市新店區中央路81號","121.53237","24.97656","6500600","新店區"
"231011","KED-0819","2019/10/28 14:29:52","新北市新店區寶興路33號","121.548696666667","24.9742516666667","6500600","新店區"
"231035","718-UY","2019/10/28 14:29:44","新北市新店區安和路二段77號","121.518296666667","24.9688316666667","6500600","新店區"
"231028","897-TW","2019/10/28 14:29:44","新北市新店區吉安街2號","121.517358333333","24.9656683333333","6500600","新店區"
"231004","899-TW","2019/10/28 14:29:58","新北市新店區中正路263-3號","121.538285","24.9736683333333","6500600","新店區"
"231037","AKT-0513","2019/10/28 14:29:45","新北市新店區安康路二段320巷6號","121.504501666667","24.9586866666667","6500600","新店區"
"235030","003-UY","2019/10/28 14:29:48","新北市中和區中和路136號","121.503508333333","24.9994116666667","6500300","中和區"
"235027","006-UY","2019/10/28 14:29:56","新北市中和區連城路174號","121.49322","24.997145","6500300","中和區"
"235020","096-UM","2019/10/28 14:29:41","新北市中和區員山路514巷15號","121.479493333333","25.0098533333333","6500300","中和區"
"235003","097-UM","2019/10/28 14:29:43","新北市中和區景平路322號","121.512183333333","24.99259","6500300","中和區"
"235029","098-UM","2019/10/28 14:29:51","新北市中和區莊敬路21號","121.499996666667","25.0046416666667","6500300","中和區"
"235004","150-BY","2019/10/28 14:29:23","新北市中和區安樂路51巷22號","121.511523333333","24.9941116666667","6500300","中和區"
"235022","151-BY","2019/10/28 14:29:41","新北市中和區員山路132巷19號","121.482296666667","24.9963","6500300","中和區"
"235019","183-VK","2019/10/28 14:29:42","新北市中和區德光路15巷6號","121.471256666667","25.0039816666667","6500300","中和區"
"235002","185-VK","2019/10/28 14:29:54","新北市中和區自立路41號","121.522073333333","24.9951516666667","6500300","中和區"
"235031","255-BX","2019/10/28 14:29:55","新北市中和區新生街186巷1弄5號","121.483435","24.9994416666667","6500300","中和區"
"235008","293-VK","2019/10/28 14:29:37","新北市中和區捷運路20號","121.508663333333","24.99007","6500300","中和區"
"235036","301-VK","2019/10/28 14:29:54","新北市中和區莊敬路33巷1號","121.499858333333","25.0059033333333","6500300","中和區"
"235007","352-BY","2019/10/28 14:29:42","新北市中和區景平路404號","121.5091","24.9931466666667","6500300","中和區"
"235006","KEA-2878","2019/10/28 14:29:49","新北市中和區中和路350巷8弄38號","121.509781666667","24.9998966666667","6500300","中和區"
"247015","KEA-2869","2019/10/28 14:29:45","新北市蘆洲區中正路185巷62號","121.466611666667","25.0847416666667","6501400","蘆洲區"
"247009","KED-0682","2019/10/28 14:29:38","新北市蘆洲區信義路136號","121.479496666667","25.083015","6501400","蘆洲區"
"235034","558-UM","2019/10/28 14:29:44","新北市中和區景平路587-1號","121.497413333333","25.000295","6500300","中和區"
"235009","565-BX","2019/10/28 14:29:54","新北市中和區景新街483號","121.513636666667","24.9875116666667","6500300","中和區"
"235024","KED-0823","2019/10/28 14:29:39","新北市中和區新生街41號","121.483331666667","25.0032083333333","6500300","中和區"
"235018","640-BX","2019/10/28 14:29:42","新北市中和區莒光路222-1號","121.46936","24.995085","6500300","中和區"
"235035","647-TV","2019/10/28 14:29:42","新北市中和區連城路302號","121.483851666667","24.99633","6500300","中和區"
"235011","732-UM","2019/10/28 14:29:45","新北市中和區景平路329巷2弄4號","121.505618333333","24.9929316666667","6500300","中和區"
"235010","733-UM","2019/10/28 14:29:46","新北市中和區忠孝街37巷52號","121.51107","24.9849533333333","6500300","中和區"
"235021","801-TS","2019/10/28 14:29:38","新北市中和區員山路150-3號","121.481328333333","24.9973783333333","6500300","中和區"
"235005","802-TS","2019/10/28 14:29:53","新北市中和區中和路260-1號","121.50804","24.9992466666667","6500300","中和區"
"235016","805-TS","2019/10/28 14:29:39","新北市中和區華新街143巷33號","121.506395","24.9807166666667","6500300","中和區"
"235012","896-TW","2019/10/28 14:29:41","新北市中和區忠孝街39-2號","121.511636666667","24.9838583333333","6500300","中和區"
"235017","900-TW","2019/10/28 14:29:40","新北市中和區民德路189巷7號","121.468986666667","24.9986083333333","6500300","中和區"
"235015","157-BY","2019/10/28 14:29:41","新北市中和區中興街134號","121.49982","24.9921333333333","6500300","中和區"
"235001","AAC-213","2019/10/28 14:29:55","新北市中和區秀朗路三段10巷29弄5號","121.524971666667","24.996105","6500300","中和區"
"235023","AAC-215","2019/10/28 14:29:46","新北市中和區圓通路331-5號","121.492163333333","24.9906716666667","6500300","中和區"
"220104","015-TV","2019/10/28 14:29:54","新北市板橋區中正路358號","121.454543333333","25.0238283333333","6500100","板橋區"
"220013","072-UY","2019/10/28 14:29:52","新北市板橋區國泰街75巷64號","121.468185","25.0047833333333","6500100","板橋區"
"220034","073-UY","2019/10/28 14:29:54","新北市板橋區中正路216巷9號","121.456293333333","25.018505","6500100","板橋區"
"220105","075-UY","2019/10/28 14:29:54","新北市板橋區文化路二段548巷27號","121.47681","25.0337133333333","6500100","板橋區"
"220017","AAD-861","2019/10/28 14:29:45","新北市板橋區縣民大道一段64巷22號","121.45549","25.0035916666667","6500100","板橋區"
"220016","120-SR","2019/10/28 14:29:45","新北市板橋區萬安街25號","121.484475","25.0229733333333","6500100","板橋區"
"247005","893-R6","2019/10/28 14:29:38","新北市蘆洲區中華街78號","121.46113","25.0795833333333","6501400","蘆洲區"
"247019","546-UM","2019/10/28 14:29:55","新北市蘆洲區水湳街271號","121.469453333333","25.0925933333333","6501400","蘆洲區"
"247003","341-TH","2019/10/28 14:29:52","新北市蘆洲區長榮路269巷32號","121.45949","25.0858316666667","6501400","蘆洲區"
"247023","057-VK","2019/10/28 14:29:47","新北市蘆洲區中正路263巷2號","121.467225","25.087575","6501400","蘆洲區"
"247013","056-VK","2019/10/28 14:29:55","新北市蘆洲區中山二路170號","121.470763333333","25.0808616666667","6501400","蘆洲區"
"247017","053-VK","2019/10/28 14:29:51","新北市蘆洲區復興路189號","121.479151666667","25.0894716666667","6501400","蘆洲區"
"247011","007-UY","2019/10/28 14:29:46","新北市蘆洲區中興街163號","121.48206","25.089635","6501400","蘆洲區"
"247007","002-UY","2019/10/28 14:29:48","新北市蘆洲區民生街24號","121.475071666667","25.0789516666667","6501400","蘆洲區"
"247001","001-UY","2019/10/28 14:29:46","新北市蘆洲區永樂街38巷19弄21號","121.457075","25.0891533333333","6501400","蘆洲區"
"235013","251-BX","2019/10/28 14:29:53","新北市中和區安和路25號","121.510601666667","24.99432","6500300","中和區"
"253003","6232-TK","2019/10/28 14:29:46","新北市石門區尖子鹿51-1號","121.578265","25.2741383333333","6502200","石門區"
"253004","6251-TK","2019/10/28 14:29:54","新北市石門區內阿里磅16號","121.59351","25.2477033333333","6502200","石門區"
"253002","637-UY","2019/10/28 14:29:38","新北市石門區楓林31號","121.544528333333","25.2850316666667","6502200","石門區"
"253001","KEC-0718","2019/10/28 14:29:42","新北市石門區崁子腳78-2號","121.529501666667","25.28063","6502200","石門區"
"207002","749-BX","2019/10/28 14:27:01","新北市萬里區溪底里福德坑路2號","121.625336666667","25.15624","6502800","萬里區"
"207001","681-TV","2019/10/28 14:29:47","新北市萬里區磺潭里清水18號","121.63783","25.1977983333333","6502800","萬里區"
"252005","073-UM","2019/10/28 14:29:35","新北市三芝區橫山里大坑85號","121.5292","25.258495","6502100","三芝區"
"236040","KED-0685","2019/10/28 14:29:46","新北市土城區裕民路61巷14號","121.449671666667","24.9883016666667","6501300","土城區"
"236074","166-UM","2019/10/28 14:29:53","新北市土城區大暖路84-1號","121.422428333333","24.9587416666667","6501300","土城區"
"236029","253-BX","2019/10/28 14:29:42","新北市土城區水源街52號","121.44042","24.9760016666667","6501300","土城區"
"236024","269-VK","2019/10/28 14:29:49","新北市土城區承天路69號","121.439825","24.9633066666667","6501300","土城區"
"236012","270-VK","2019/10/28 14:29:54","新北市土城區青雲路39巷7號","121.460378333333","24.9875716666667","6501300","土城區"
"236032","271-VK","2019/10/28 14:29:57","新北市土城區明德路一段238號","121.460235","24.977395","6501300","土城區"
"247021","KED-0683","2019/10/28 14:29:48","新北市蘆洲區民族路504號","121.469521666667","25.0903066666667","6501400","蘆洲區"
"236064","KEA-2877","2019/10/28 14:29:53","新北市土城區永豐路300號","121.471511666667","24.9777833333333","6501300","土城區"
"236016","401-BY","2019/10/28 14:29:36","新北市土城區明德路一段93巷6號","121.466065","24.9834","6501300","土城區"
"236060","752-BX","2019/10/28 14:29:23","新北市土城區延壽路29號","121.471105","24.9910166666667","6501300","土城區"
"236057","912-UM","2019/10/28 14:29:50","新北市土城區中央路四段134-3號","121.417563333333","24.9586316666667","6501300","土城區"
"236045","913-UM","2019/10/28 14:29:45","新北市土城區青雲路386號","121.458753333333","24.9730883333333","6501300","土城區"
"236054","AAC-216","2019/10/28 14:29:46","新北市土城區中華路一段245號","121.440975","24.9817966666667","6501300","土城區"
"221032","280-BY","2019/10/28 14:29:24","新北市汐止區龍安路44號","121.654058333333","25.063665","6501100","汐止區"
"220027","145-BY","2019/10/28 14:29:42","新北市板橋區公館街84號","121.461175","25.015175","6500100","板橋區"
"220028","200-UY","2019/10/28 14:29:45","新北市板橋區大觀路二段3巷36號","121.448375","25.00355","6500100","板橋區"
"220030","610-BX","2019/10/28 14:29:38","新北市板橋區金門街360號","121.427506666667","24.9841683333333","6500100","板橋區"
"220050","245-BX","2019/10/28 14:29:49","新北市板橋區縣民大道三段33巷11號","121.47389","25.021005","6500100","板橋區"
"220002","256-TC","2019/10/28 14:29:49","新北市板橋區華東街262號","121.452678333333","25.0007216666667","6500100","板橋區"
"220004","276-BY","2019/10/28 14:29:51","新北市板橋區信義路99號","121.457371666667","24.9936966666667","6500100","板橋區"
"220020","277-BY","2019/10/28 14:29:39","新北市板橋區金門街337巷9弄3號","121.430411666667","24.984725","6500100","板橋區"
"220043","283-UM","2019/10/28 14:29:46","新北市板橋區銘傳街41-1號","121.46902","25.0314233333333","6500100","板橋區"
"220019","283-VK","2019/10/28 14:29:59","新北市板橋區忠孝路48巷9弄1號","121.461226666667","25.00012","6500100","板橋區"
"220001","285-VK","2019/10/28 14:29:50","新北市板橋區永豐街205號","121.476593333333","25.0209933333333","6500100","板橋區"
"220029","287-VK","2019/10/28 14:29:41","新北市板橋區南雅西路一段19巷8號","121.454081666667","25.0039216666667","6500100","板橋區"
"220039","288-VK","2019/10/28 14:29:42","新北市板橋區裕民街115號","121.459516666667","25.0275683333333","6500100","板橋區"
"220009","293-UM","2019/10/28 14:29:45","新北市板橋區漢生東路113巷6弄2號","121.467695","25.0153233333333","6500100","板橋區"
"220010","295-UM","2019/10/28 14:29:53","新北市板橋區三民路二段153巷2弄12號","121.479496666667","25.0144733333333","6500100","板橋區"
"220032","296-UM","2019/10/28 14:29:54","新北市板橋區滿平街84巷120弄12號","121.426563333333","24.9859766666667","6500100","板橋區"
"220023","303-R5","2019/10/28 14:29:46","新北市板橋區僑中一街124巷70-5號","121.449916666667","25.0166166666667","6500100","板橋區"
"220041","307-R5","2019/10/28 14:29:44","新北市板橋區四維路126號","121.465313333333","25.0250366666667","6500100","板橋區"
"220047","317-R6","2019/10/28 14:29:43","新北市板橋區民有街89巷8弄1-1號","121.464268333333","25.0274133333333","6500100","板橋區"
"220031","461-BY","2019/10/28 14:29:55","新北市板橋區龍興街71巷7號","121.443426666667","25.0019366666667","6500100","板橋區"
"220038","487-VK","2019/10/28 14:29:51","新北市板橋區英士路54號","121.461068333333","25.0248316666667","6500100","板橋區"
"220037","491-VK","2019/10/28 14:29:57","新北市板橋區雙十路一段1號","121.478276666667","25.023905","6500100","板橋區"
"220011","609-BX","2019/10/28 14:29:54","新北市板橋區三民路二段202-14號","121.47899","25.0137466666667","6500100","板橋區"
"220052","630-UY","2019/10/28 14:29:48","新北市板橋區陽明街29巷8號","121.464885","25.02191","6500100","板橋區"
"220040","637-BX","2019/10/28 14:29:50","新北市板橋區文聖街135巷27號","121.479001666667","25.0290883333333","6500100","板橋區"
"220005","686-BX","2019/10/28 14:29:50","新北市板橋區和平路27號","121.459485","24.9954516666667","6500100","板橋區"
"220025","687-BX","2019/10/28 14:29:55","新北市板橋區大觀路二段82號","121.445021666667","25.0002883333333","6500100","板橋區"
"220042","689-BX","2019/10/28 14:29:50","新北市板橋區新海路360號","121.459741666667","25.0250616666667","6500100","板橋區"
"220002","741-BX","2019/10/28 14:29:56","新北市板橋區光明街31號","121.461033333333","25.0027733333333","6500100","板橋區"
"220051","KEA-2699","2019/10/28 14:29:41","新北市板橋區雙十路二段70巷33號","121.475981666667","25.028755","6500100","板橋區"
"220003","827-TW","2019/10/28 14:29:41","新北市板橋區實踐路61號","121.463805","25.00646","6500100","板橋區"
"220014","831-TW","2019/10/28 14:29:42","新北市板橋區漢生東路313巷1號","121.472016666667","25.00823","6500100","板橋區"
"220022","895-R6","2019/10/28 14:29:36","新北市板橋區北門街25號","121.456645","25.0111683333333","6500100","板橋區"
"220021","985-R7","2019/10/28 14:29:57","新北市板橋區中正路362號","121.454336666667","25.0238883333333","6500100","板橋區"
"220046","AAC-210","2019/10/28 14:29:37","新北市板橋區文化路一段285巷1弄4號","121.464211666667","25.0187866666667","6500100","板橋區"
"220012","AAC-253","2019/10/28 14:29:41","新北市板橋區館前東路19號","121.460158333333","25.0074233333333","6500100","板橋區"
"235032","KEA-2873","2019/10/28 14:29:58","新北市中和區莊敬路16巷15弄10號","121.500608333333","25.0039833333333","6500300","中和區"
"235025","KEA-2875","2019/10/28 14:29:51","新北市中和區民樂路2-1號","121.481513333333","25.0011283333333","6500300","中和區"
"235026","KEA-2876","2019/10/28 14:29:41","新北市中和區錦和路13號","121.48623","25.0031383333333","6500300","中和區"
