"lineid","car","time","location","longitude","latitude","cityid","cityname"
"231018","107-UY","2019/10/28 16:13:44","新北市新店區中正路694巷15號","121.53534","24.9908733333333","6500600","新店區"
"231034","616-UM","2019/10/28 16:13:43","新北市新店區薏仁坑路自強巷1號","121.496826666667","24.9581166666667","6500600","新店區"
"231046","719-UM","2019/10/28 16:07:16","新北市新店區永業路121號","121.528366666667","24.9479166666667","6500600","新店區"
"241011","013-R5","2019/10/28 16:13:57","新北市三重區三和路三段41號","121.49552","25.0712216666667","6500200","三重區"
"241028","022-UY","2019/10/28 16:13:38","新北市三重區大同南路172巷20號","121.497785","25.0575516666667","6500200","三重區"
"241008","059-VK","2019/10/28 16:13:48","新北市三重區永福街211巷41號","121.478323333333","25.073995","6500200","三重區"
"241023","060-VK","2019/10/28 16:13:43","新北市三重區中正北路145巷6弄3號","121.483698333333","25.0678366666667","6500200","三重區"
"241015","062-VK","2019/10/28 16:13:56","新北市三重區三和路一段25號","121.503593333333","25.0648466666667","6500200","三重區"
"241017","063-VK","2019/10/28 16:13:46","新北市三重區大同北路54巷7號","121.493931666667","25.063445","6500200","三重區"
"241024","065-VK","2019/10/28 16:13:50","新北市三重區力行路一段38巷27號","121.485393333333","25.0670166666667","6500200","三重區"
"241007","066-VK","2019/10/28 16:13:41","新北市三重區慈愛街1號","121.484563333333","25.07839","6500200","三重區"
"241002","090-VK","2019/10/28 16:13:52","新北市三重區仁義街91號","121.499641666667","25.0798483333333","6500200","三重區"
"241006","262-UM","2019/10/28 16:13:57","新北市三重區永福街46巷41弄61號","121.480773333333","25.076955","6500200","三重區"
"241016","266-UM","2019/10/28 16:13:50","新北市三重區大仁街86號","121.492808333333","25.0654166666667","6500200","三重區"
"241018","268-UM","2019/10/28 16:13:45","新北市三重區中正北路105號","121.489603333333","25.0631866666667","6500200","三重區"
"241013","270-UM","2019/10/28 16:13:44","新北市三重區三和路三段79號","121.494528333333","25.0720516666667","6500200","三重區"
"241025","271-UM","2019/10/28 16:13:39","新北市三重區頂崁街149號","121.47799","25.0650666666667","6500200","三重區"
"241020","478-VK","2019/10/28 16:13:47","新北市三重區力行路一段187號","121.483575","25.069795","6500200","三重區"
"241026","480-VK","2019/10/28 16:13:47","新北市三重區正義南路46號","121.49829","25.0608633333333","6500200","三重區"
"241014","543-UM","2019/10/28 16:13:48","新北市三重區河邊北街98號","121.50389","25.0698716666667","6500200","三重區"
"241001","547-UM","2019/10/28 16:13:56","新北市三重區自強路四段29號","121.488833333333","25.0765466666667","6500200","三重區"
"241019","KEA-2593","2019/10/28 16:13:55","新北市三重區重陽路三段190號","121.490303333333","25.06833","6500200","三重區"
"241005","AAD-863","2019/10/28 16:13:46","新北市三重區溪尾街316號","121.487713333333","25.084395","6500200","三重區"
"241012","743-BX","2019/10/28 16:13:41","新北市三重區三和路二段228號","121.497461666667","25.0696366666667","6500200","三重區"
"241029","942-UM","2019/10/28 16:13:39","新北市三重區中正南路281號","121.492888333333","25.0522533333333","6500200","三重區"
"241033","AAC-255","2019/10/28 16:13:48","新北市三重區中興南街80巷19號","121.472115","25.04386","6500200","三重區"
"235019","183-VK","2019/10/28 16:13:42","新北市中和區中正路637巷52弄1號","121.485481666667","24.9940633333333","6500300","中和區"
"235046","733-UM","2019/10/28 15:58:43","新北市中和區員山路36巷13號","121.48416","24.990845","6500300","中和區"
"247012","007-UY","2019/10/28 15:50:09","新北市五股區中興路三段163號","121.449138333333","25.08061","6501400","蘆洲區"
"224007","285-BY","2019/10/28 16:13:50","新北市瑞芳區粗坑口路38號","121.761838333333","25.0992416666667","6501200","瑞芳區"
"224005","271-BY","2019/10/28 15:47:24","新北市瑞芳區明燈路二段66號","121.809386666667","25.107535","6501200","瑞芳區"
"227002","642-TC","2019/10/28 16:13:48","新北市雙溪區上林里內平林80號","121.828275","25.0279466666667","6502500","雙溪區"
"227001","400-TW","2019/10/28 16:13:48","新北市雙溪區三港里雙澳路10號","121.869291666667","25.048055","6502500","雙溪區"
"251008","181-VK","2019/10/28 16:13:42","新北市淡水區中山路37號","121.443593333333","25.1704766666667","6501000","淡水區"
"251013","182-VK","2019/10/28 16:13:54","新北市淡水區新興街121巷35號","121.440601666667","25.1798933333333","6501000","淡水區"
"251014","577-R6","2019/10/28 16:13:49","新北市淡水區中正路二段31號","121.4194","25.18171","6501000","淡水區"
"238006","599-UM","2019/10/28 16:13:51","新北市樹林區鎮前街425巷2弄1號","121.41396","24.9823783333333","6500700","樹林區"
"238011","5061-A6","2019/10/28 16:13:55","新北市樹林區育德街78-1號","121.387906666667","24.9680883333333","6500700","樹林區"
"238004","283-BY","2019/10/28 16:13:43","新北市樹林區中正路433-2號","121.414926666667","25.0081533333333","6500700","樹林區"
"238001","282-BY","2019/10/28 16:13:48","新北市樹林區千歲街92巷7弄1號","121.427013333333","24.9976016666667","6500700","樹林區"
"238007","268-VK","2019/10/28 16:13:50","新北市樹林區三俊街65巷18弄40號","121.415345","25.0172116666667","6500700","樹林區"
"238013","172-UY","2019/10/28 16:13:56","新北市樹林區佳園路一段41巷26號","121.394483333333","24.9710383333333","6500700","樹林區"
"220039","288-VK","2019/10/28 16:13:41","新北市板橋區民生路二段89-6號","121.470891666667","25.01917","6500100","板橋區"
"235026","KEA-2876","2019/10/28 16:13:52","新北市中和區建八路170號","121.490433333333","24.9986016666667","6500300","中和區"
