"lineid","car","time","location","longitude","latitude","cityid","cityname"
"234046","148-BY","2019/10/28 19:59:39","新北市永和區成功路一段30號","121.527005","25.0047316666667","6500400","永和區"
"234081","298-R6","2019/10/28 19:59:44","新北市永和區永利路81巷2弄2號","121.521561666667","25.003505","6500400","永和區"
"234038","336-UY","2019/10/28 19:59:56","新北市永和區成功路二段116號","121.526546666667","24.9978533333333","6500400","永和區"
"234064","337-UY","2019/10/28 19:59:43","新北市永和區中正路412巷20弄7號","121.518551666667","25.00188","6500400","永和區"
"234086","338-UY","2019/10/28 19:59:44","新北市永和區福和路262號","121.518218333333","25.00754","6500400","永和區"
"234070","552-UM","2019/10/28 19:59:54","新北市永和區國光路39-1號","121.519095","25.0082366666667","6500400","永和區"
"234017","745-BX","2019/10/28 19:59:44","新北市永和區文化路53號","121.514275","25.0150583333333","6500400","永和區"
"234030","746-BX","2019/10/28 19:59:57","新北市永和區民權路49巷5弄16號","121.521203333333","24.9976216666667","6500400","永和區"
"234054","KEA-2590","2019/10/28 19:59:46","新北市永和區環河東路一段122號","121.520645","25.01551","6500400","永和區"
"234007","KED-0605","2019/10/28 19:59:50","新北市永和區保生路22巷17號","121.507078333333","25.0081133333333","6500400","永和區"
"234013","KEA-2591","2019/10/28 19:59:46","新北市永和區保生路55號","121.5048","25.0105483333333","6500400","永和區"
"234061","AAD-866","2019/10/28 19:59:50","新北市永和區中正路283巷55弄1號","121.51578","24.9991416666667","6500400","永和區"
"234042","862-TW","2019/10/28 19:59:46","新北市永和區中和路421巷16弄7號","121.50872","25.001255","6500400","永和區"
"234050","863-TW","2019/10/28 19:59:45","新北市永和區保安路151號","121.506908333333","25.0131","6500400","永和區"
"234026","9371-KE","2019/10/28 19:59:43","新北市永和區水源街21巷14弄3號","121.511425","25.0037833333333","6500400","永和區"
"234011","9373-KE","2019/10/28 19:59:40","新北市永和區仁愛路352巷122弄6號","121.500573333333","25.0087233333333","6500400","永和區"
"249005","172-UM","2019/10/28 19:59:05","新北市八里區楓林路3-4號","121.381955","25.1292816666667","6502300","八里區"
"249004","303-UY","2019/10/28 19:59:55","新北市八里區中華路一段331巷8號","121.413775","25.1532333333333","6502300","八里區"
"249002","305-UY","2019/10/28 19:59:38","新北市八里區頂寮一街40號","121.450608333333","25.123845","6502300","八里區"
"249003","593-UM","2019/10/28 19:59:53","新北市八里區中華路二段361-2號","121.39868","25.1446616666667","6502300","八里區"
"249001","759-BX","2019/10/28 19:59:42","新北市八里區中華路二段312號","121.403785","25.148295","6502300","八里區"
"248014","025-BX","2019/10/28 19:59:57","新北市五股區成泰路三段45號","121.442691666667","25.0891633333333","6501500","五股區"
"248016","026-BX","2019/10/28 19:59:36","新北市五股區成泰路三段577巷80弄7號","121.449505","25.1042866666667","6501500","五股區"
"248008","KED-0815","2019/10/28 19:59:46","新北市五股區四維路30巷34弄2號","121.468351666667","25.0714816666667","6501500","五股區"
"248018","KED-0813","2019/10/28 19:59:43","新北市五股區登林路118-6號","121.414141666667","25.0759883333333","6501500","五股區"
"248012","247-BX","2019/10/28 19:59:50","新北市五股區工商路185號","121.433771666667","25.0867716666667","6501500","五股區"
"248004","677-BX","2019/10/28 19:59:53","新北市五股區成泰路一段76號","121.435648333333","25.0702766666667","6501500","五股區"
"248002","678-BX","2019/10/28 19:59:41","新北市五股區成泰路三段487號","121.450725","25.0992433333333","6501500","五股區"
"248010","682-TV","2019/10/28 19:59:41","新北市五股區成泰路一段42號","121.435243333333","25.06881","6501500","五股區"
"234023","9380-KE","2019/10/28 19:59:53","新北市永和區中正路704號","121.516278333333","25.01001","6500400","永和區"
"234077","969-R7","2019/10/28 19:59:55","新北市永和區民有街14號","121.516393333333","24.9966716666667","6500400","永和區"
"234074","AAC-211","2019/10/28 19:59:45","新北市永和區豫溪街207巷4號","121.5238","25.009645","6500400","永和區"
"234067","AAC-212","2019/10/28 19:59:51","新北市永和區永貞路374號","121.509898333333","25.006855","6500400","永和區"
"234003","AAC-295","2019/10/28 19:59:53","新北市永和區中正路720號","121.515781666667","25.010045","6500400","永和區"
"243012","AAD-798","2019/10/28 19:59:45","新北市泰山區全興路20號","121.432346666667","25.0587966666667","6501600","泰山區"
"243010","297-R6","2019/10/28 19:50:28","新北市泰山區仁愛路6巷38號","121.431396666667","25.053075","6501600","泰山區"
"243014","KEA-2801","2019/10/28 19:59:53","新北市泰山區泰林路二段36-1號","121.435915","25.0571733333333","6501600","泰山區"
"243016","421-VK","2019/10/28 19:59:55","新北市泰山區明志路三段411號","121.421193333333","25.0339233333333","6501600","泰山區"
"243009","KEA-2215","2019/10/28 19:59:50","新北市泰山區楓江路16巷25號","121.434035","25.0614316666667","6501600","泰山區"
"243011","KEA-2216","2019/10/28 19:59:42","新北市泰山區明志路三段182巷30號","121.423346666667","25.0393983333333","6501600","泰山區"
"222003","436-BY","2019/10/28 19:59:55","新北市深坑區埔新街14號","121.620751666667","25.0039433333333","6501800","深坑區"
"222002","659-BX","2019/10/28 19:59:44","新北市深坑區北深路二段81巷9號","121.618453333333","25.0028633333333","6501800","深坑區"
"231061","002-UM","2019/10/28 19:59:50","新北市新店區安民街327號","121.517343333333","24.9746566666667","6500600","新店區"
"231055","0291-UT","2019/10/28 19:59:40","新北市新店區力行路12號","121.53939","24.9647083333333","6500600","新店區"
"231044","046-UY","2019/10/28 19:59:46","新北市新店區復興路27號","121.539038333333","24.9866783333333","6500600","新店區"
"231042","047-UY","2019/10/28 19:59:53","新北市新店區中興路一段292號","121.545888333333","24.9692133333333","6500600","新店區"
"231060","106-UY","2019/10/28 19:59:48","新北市新店區安康路二段343號","121.496221666667","24.9550666666667","6500600","新店區"
"231051","107-UY","2019/10/28 19:59:53","新北市新店區中央二街3號","121.529231666667","24.9730566666667","6500600","新店區"
"231049","108-UY","2019/10/28 19:59:44","新北市新店區明德路38號","121.541436666667","24.9778733333333","6500600","新店區"
"231068","187-VK","2019/10/28 19:59:41","新北市新店區安平路35巷8號","121.521171666667","24.9669166666667","6500600","新店區"
"231065","KEA-2219","2019/10/28 19:59:42","新北市新店區安祥路106巷10號","121.478778333333","24.9626166666667","6500600","新店區"
"231062","256-BX","2019/10/28 19:59:58","新北市新店區華城路36巷1號","121.527926666667","24.9553016666667","6500600","新店區"
"231054","260-TV","2019/10/28 19:59:55","新北市新店區光明街137號","121.539408333333","24.96202","6500600","新店區"
"231050","AAD-862","2019/10/28 19:59:51","新北市新店區北宜路二段150-2號","121.558068333333","24.9539683333333","6500600","新店區"
"231045","355-BY","2019/10/28 19:59:57","新北市新店區北宜路二段174-1號","121.558548333333","24.9541733333333","6500600","新店區"
"231056","4715-K9","2019/10/28 19:59:47","新北市新店區北新路二段29巷3弄1號","121.542136666667","24.9730283333333","6500600","新店區"
"231052","513-UM","2019/10/28 19:59:49","新北市新店區新烏路三段寶島巷2弄3號","121.551996666667","24.898615","6500600","新店區"
"231063","616-UM","2019/10/28 19:59:43","新北市新店區車子路11號","121.503023333333","24.9520183333333","6500600","新店區"
"231040","617-UM","2019/10/28 19:59:50","新北市新店區中正路75巷71號","121.543103333333","24.9688233333333","6500600","新店區"
"231041","619-UM","2019/10/28 19:59:57","新北市新店區中正路348號","121.536211666667","24.9752783333333","6500600","新店區"
"231047","KED-0819","2019/10/28 19:59:54","新北市新店區寶宏路18號","121.549308333333","24.9761333333333","6500600","新店區"
"231064","718-UY","2019/10/28 19:59:38","新北市新店區安光路10-1號","121.513863333333","24.9641083333333","6500600","新店區"
"231046","719-UM","2019/10/28 19:59:55","新北市新店區中央路101號","121.531071666667","24.9749566666667","6500600","新店區"
"231057","720-UM","2019/10/28 19:59:45","新北市新店區花園二路一段11號","121.55548","24.93249","6500600","新店區"
"231059","897-TW","2019/10/28 19:59:38","新北市新店區安和路一段15號","121.516845","24.9641666666667","6500600","新店區"
"231043","899-TW","2019/10/28 19:59:37","新北市新店區中正路263-3號","121.538381666667","24.9738583333333","6500600","新店區"
"231066","AKT-0513","2019/10/28 19:59:40","新北市新店區安康路二段311號","121.500021666667","24.9568666666667","6500600","新店區"
"241011","013-R5","2019/10/28 19:59:45","新北市三重區介壽路1號","121.498953333333","25.068965","6500200","三重區"
"241028","022-UY","2019/10/28 19:59:47","新北市三重區中正南路83號","121.49425","25.0584433333333","6500200","三重區"
"241008","059-VK","2019/10/28 19:59:58","新北市三重區永福街197巷39號","121.478136666667","25.0745183333333","6500200","三重區"
"241023","060-VK","2019/10/28 19:59:39","新北市三重區頂崁街166號","121.477638333333","25.06587","6500200","三重區"
"241031","061-VK","2019/10/28 19:59:47","新北市三重區重新路四段144巷27號","121.487011666667","25.0550783333333","6500200","三重區"
"241015","062-VK","2019/10/28 19:59:39","新北市三重區長元街98巷18弄31號","121.50174","25.06749","6500200","三重區"
"241017","063-VK","2019/10/28 19:59:46","新北市三重區自強路一段248號","121.492831666667","25.0674216666667","6500200","三重區"
"241024","065-VK","2019/10/28 19:59:58","新北市三重區力行路一段277號","121.482101666667","25.07158","6500200","三重區"
"241007","066-VK","2019/10/28 19:59:52","新北市三重區溪尾街96-1號","121.489433333333","25.0784366666667","6500200","三重區"
"241003","091-VK","2019/10/28 19:59:44","新北市三重區五華街128號","121.491676666667","25.0834566666667","6500200","三重區"
"241006","262-UM","2019/10/28 19:59:57","新北市三重區力行路二段76巷27號","121.480585","25.0736033333333","6500200","三重區"
"241016","266-UM","2019/10/28 19:59:50","新北市三重區正義北路29號","121.497551666667","25.06357","6500200","三重區"
"241009","267-UM","2019/10/28 19:59:51","新北市三重區三和路四段390巷16號","121.48131","25.0787983333333","6500200","三重區"
"241018","268-UM","2019/10/28 19:59:59","新北市三重區正義北路195號","121.496143333333","25.0682666666667","6500200","三重區"
"241032","269-UM","2019/10/28 19:59:44","新北市三重區朝陽街55號","121.483561666667","25.0575033333333","6500200","三重區"
"241013","270-UM","2019/10/28 19:59:36","新北市三重區三和路三段125巷40號","121.49394","25.0737666666667","6500200","三重區"
"241025","271-UM","2019/10/28 19:59:41","新北市三重區頂崁街210巷16號","121.476453333333","25.0677166666667","6500200","三重區"
"241030","KED-0822","2019/10/28 19:59:42","新北市三重區成功路173號","121.486068333333","25.05264","6500200","三重區"
"241035","462-BY","2019/10/28 19:59:38","新北市三重區大榮街9號","121.49821","25.0631816666667","6500200","三重區"
"241004","475-VK","2019/10/28 19:59:52","新北市三重區五華街86號","121.493008333333","25.0822433333333","6500200","三重區"
"241020","478-VK","2019/10/28 19:59:47","新北市三重區忠孝路一段101號","121.48946","25.07215","6500200","三重區"
"241026","480-VK","2019/10/28 19:59:47","新北市三重區仁慈街27號","121.502273333333","25.0631066666667","6500200","三重區"
"241014","543-UM","2019/10/28 19:59:47","新北市三重區長樂街1號","121.499401666667","25.0689966666667","6500200","三重區"
"241001","547-UM","2019/10/28 19:59:46","新北市三重區福隆路11號","121.489668333333","25.077175","6500200","三重區"
"241019","KEA-2593","2019/10/28 19:59:55","新北市三重區自強路二段12號","121.49003","25.0689516666667","6500200","三重區"
"241005","AAD-863","2019/10/28 19:59:45","新北市三重區碧華街294巷11號","121.489141666667","25.08418","6500200","三重區"
"241012","743-BX","2019/10/28 19:59:41","新北市三重區仁厚街41號","121.500183333333","25.0764616666667","6500200","三重區"
"241029","942-UM","2019/10/28 19:59:56","新北市三重區重安街14號","121.490263333333","25.0581533333333","6500200","三重區"
"241033","AAC-255","2019/10/28 19:59:51","新北市三重區中興北街14號","121.469511666667","25.0470833333333","6500200","三重區"
"235066","003-UY","2019/10/28 19:59:52","新北市中和區中山路二段57號","121.504306666667","25.0049116666667","6500300","中和區"
"235039","097-UM","2019/10/28 19:59:55","新北市中和區景平路278巷16弄24號","121.51445","24.993735","6500300","中和區"
"235065","098-UM","2019/10/28 19:59:51","新北市中和區福祥路85巷6弄1號","121.498438333333","25.0056716666667","6500300","中和區"
"235040","150-BY","2019/10/28 19:59:54","新北市中和區保健路8巷3號","121.507901666667","24.99796","6500300","中和區"
"235058","151-BY","2019/10/28 19:59:37","新北市中和區員山路148巷29號","121.482188333333","24.9972633333333","6500300","中和區"
"235055","183-VK","2019/10/28 19:59:39","新北市中和區中山路三段6號","121.479671666667","25.0060166666667","6500300","中和區"
"235044","293-VK","2019/10/28 19:59:44","新北市中和區復興路75號","121.503436666667","24.99022","6500300","中和區"
"247016","KEA-2869","2019/10/28 19:59:44","新北市蘆洲區光華路1號","121.469943333333","25.0835766666667","6501400","蘆洲區"
"235069","4980-A6","2019/10/28 19:59:41","新北市中和區南山路37巷3弄1號","121.50269","24.998825","6500300","中和區"
"235070","558-UM","2019/10/28 19:59:52","新北市中和區中正路426號","121.491548333333","24.9942866666667","6500300","中和區"
"235046","733-UM","2019/10/28 19:59:57","新北市中和區忠孝街31巷43號","121.509758333333","24.985175","6500300","中和區"
"235052","805-TS","2019/10/28 19:59:47","新北市中和區華新街93號","121.508565","24.9831766666667","6500300","中和區"
"235051","157-BY","2019/10/28 19:59:47","新北市中和區中興街233巷10號","121.501468333333","24.9894583333333","6500300","中和區"
"235037","AAC-213","2019/10/28 19:59:41","新北市中和區自強路56號","121.520105","24.9946433333333","6500300","中和區"
"235059","AAC-215","2019/10/28 19:59:53","新北市中和區圓通路343號","121.49153","24.9904166666667","6500300","中和區"
"220035","015-TV","2019/10/28 19:59:59","新北市板橋區金華街80-3號","121.457773333333","25.02067","6500100","板橋區"
"220065","072-UY","2019/10/28 19:59:42","新北市板橋區民族路229號","121.469761666667","25.0071466666667","6500100","板橋區"
"220086","073-UY","2019/10/28 19:59:55","新北市板橋區民權路328-4號","121.456696666667","25.016545","6500100","板橋區"
"220106","075-UY","2019/10/28 19:59:56","新北市板橋區文聖街13號","121.475518333333","25.03233","6500100","板橋區"
"220069","AAD-861","2019/10/28 19:59:44","新北市板橋區貴興路109號","121.455863333333","25.0026233333333","6500100","板橋區"
"220068","120-SR","2019/10/28 19:59:42","新北市板橋區中山路二段408號","121.482731666667","25.02085","6500100","板橋區"
"247006","893-R6","2019/10/28 19:59:49","新北市蘆洲區九芎街115號","121.465535","25.0794766666667","6501400","蘆洲區"
"247020","546-UM","2019/10/28 19:59:45","新北市蘆洲區民義街60號","121.472683333333","25.08963","6501400","蘆洲區"
"247004","341-TH","2019/10/28 19:59:53","新北市蘆洲區永康街39號","121.457321666667","25.08525","6501400","蘆洲區"
"247024","057-VK","2019/10/28 19:59:53","新北市蘆洲區光復路69號","121.464225","25.0854783333333","6501400","蘆洲區"
"247018","053-VK","2019/10/28 19:59:52","新北市蘆洲區民族路290巷15號","121.478593333333","25.0900416666667","6501400","蘆洲區"
"247012","007-UY","2019/10/28 19:59:50","新北市蘆洲區民族路220號","121.479713333333","25.0878383333333","6501400","蘆洲區"
"247008","002-UY","2019/10/28 19:59:58","新北市蘆洲區中山一路61巷41號","121.477448333333","25.0806133333333","6501400","蘆洲區"
"247002","001-UY","2019/10/28 19:59:49","新北市蘆洲區長安街272號","121.457455","25.08694","6501400","蘆洲區"
"226004","312-R5","2019/10/28 19:59:45","新北市平溪區南山里南山坪94號","121.777005","25.0412266666667","6502400","平溪區"
"228003","097-TW","2019/10/28 19:59:45","新北市貢寮區和美里龍洞街40號","121.915088333333","25.111015","6502600","貢寮區"
"224009","275-VK","2019/10/28 19:59:59","新北市瑞芳區靜安路四段10號","121.795125","25.0856083333333","6501200","瑞芳區"
"227002","642-TC","2019/10/28 19:59:46","新北市雙溪區雙溪里長安街16號","121.865005","25.0346966666667","6502500","雙溪區"
"227001","400-TW","2019/10/28 19:59:48","新北市雙溪區新基里新基南街25號","121.866276666667","25.0381266666667","6502500","雙溪區"
"222001","KEA-2212","2019/10/28 19:59:53","新北市深坑區北深路三段154號","121.603155","25.0030733333333","6501800","深坑區"
"208002","KEA-2872","2019/10/28 19:59:38","新北市金山區環金路462號","121.630141666667","25.2247733333333","6502700","金山區"
"208003","665-BX","2019/10/28 19:59:43","新北市金山區永興里濆水路29號","121.625656666667","25.2695983333333","6502700","金山區"
"251009","008-UM","2019/10/28 19:59:49","新北市淡水區英專路21巷12-3號","121.444945","25.1697516666667","6501000","淡水區"
"251005","010-UM","2019/10/28 19:59:46","新北市淡水區學府路136巷37號","121.45183","25.172685","6501000","淡水區"
"251002","012-UM","2019/10/28 19:59:57","新北市淡水區新民街一段117號","121.428506666667","25.187635","6501000","淡水區"
"251015","KEA-2871","2019/10/28 19:59:54","新北市三芝區楓林路1號","121.493158333333","25.19433","6501000","淡水區"
"251016","179-VK","2019/10/28 19:59:49","新北市淡水區淡金路四段476號","121.45191","25.2237466666667","6501000","淡水區"
"251008","181-VK","2019/10/28 19:59:49","新北市淡水區中正路一段24巷9號","121.426571666667","25.1771283333333","6501000","淡水區"
"251013","182-VK","2019/10/28 19:59:54","新北市淡水區下圭柔山63-7號","121.451868333333","25.2061466666667","6501000","淡水區"
"251012","441-VK","2019/10/28 19:59:54","新北市淡水區下圭柔山93號","121.435988333333","25.2090866666667","6501000","淡水區"
"251001","559-UM","2019/10/28 19:59:47","新北市淡水區淡金路二段401號","121.44682","25.1867433333333","6501000","淡水區"
"251006","561-UM","2019/10/28 19:59:42","新北市淡水區水碓街15號","121.44349","25.1769733333333","6501000","淡水區"
"251014","577-R6","2019/10/28 19:59:49","新北市淡水區石頭厝2-1號","121.458105","25.2356683333333","6501000","淡水區"
"207003","550-UM","2019/10/28 19:59:59","新北市萬里區大鵬里萬里加投45-2號","121.640825","25.2109033333333","6502800","萬里區"
"207004","291-VK","2019/10/28 19:59:44","新北市萬里區北基里忠二街35號","121.685693333333","25.1757233333333","6502800","萬里區"
"252002","178-VK","2019/10/28 19:59:42","新北市三芝區忠孝街116-3號","121.505561666667","25.2574933333333","6502100","三芝區"
"208001","170-UY","2019/10/28 19:59:43","新北市金山區南勢80號","121.626588333333","25.2203033333333","6502700","金山區"
"237004","KEA-2597","2019/10/28 19:59:48","新北市三峽區添福10號","121.372403333333","24.90509","6500900","三峽區"
"237009","210-TH","2019/10/28 19:59:58","新北市三峽區民族街49號","121.36964","24.9299133333333","6500900","三峽區"
"237012","275-BY","2019/10/28 19:59:40","新北市三峽區中華路31號","121.372955","24.9313866666667","6500900","三峽區"
"237008","302-VK","2019/10/28 19:59:54","新北市三峽區中正路一段174巷9號","121.371891666667","24.9288633333333","6500900","三峽區"
"237014","433-BY","2019/10/28 19:59:46","新北市三峽區添福9-39號","121.372268333333","24.9068416666667","6500900","三峽區"
"237006","5529-G3","2019/10/28 19:59:51","新北市三峽區中正路二段168號","121.366011666667","24.9155633333333","6500900","三峽區"
"237015","649-BX","2019/10/28 19:59:54","新北市三峽區介壽路二段138巷16號","121.395918333333","24.93457","6500900","三峽區"
"237010","706-TV","2019/10/28 19:59:40","新北市三峽區復興路36-3號","121.374123333333","24.936615","6500900","三峽區"
"237005","AKY-6261","2019/10/28 19:59:51","新北市三峽區民生街1巷1號","121.382881666667","24.9324683333333","6500900","三峽區"
"236042","KED-0685","2019/10/28 19:59:53","新北市土城區學府路一段96號","121.456151666667","24.9879583333333","6501300","土城區"
"236078","166-UM","2019/10/28 19:59:54","新北市土城區民族街6巷8-3號","121.41959","24.963115","6501300","土城區"
"236030","253-BX","2019/10/28 19:59:43","新北市土城區中央路一段252號","121.444253333333","24.9846283333333","6501300","土城區"
"236026","269-VK","2019/10/28 19:59:49","新北市土城區中央路二段89號","121.442268333333","24.9781783333333","6501300","土城區"
"236039","271-VK","2019/10/28 19:59:56","新北市土城區國際路71號","121.466853333333","24.976255","6501300","土城區"
"236069","KEA-2877","2019/10/28 19:59:40","新北市土城區忠義路111-2號","121.44464","24.9625966666667","6501300","土城區"
"252001","KED-0821","2019/10/28 19:59:43","新北市三芝區公正街66號","121.49982","25.2574716666667","6502100","三芝區"
"236020","401-BY","2019/10/28 19:59:48","新北市土城區延吉街111巷15號","121.471835","24.9860783333333","6501300","土城區"
"236063","752-BX","2019/10/28 19:59:53","新北市土城區延和路62巷8弄2號","121.46618","24.9884433333333","6501300","土城區"
"236059","912-UM","2019/10/28 19:59:55","新北市土城區中央路一段324號","121.443268333333","24.98166","6501300","土城區"
"236048","913-UM","2019/10/28 19:59:47","新北市土城區金城路三段188號","121.468276666667","24.9879083333333","6501300","土城區"
"236055","AAC-216","2019/10/28 19:59:49","新北市土城區學府路一段12號","121.459301666667","24.98846","6501300","土城區"
"242042","AAC-296","2019/10/28 19:59:43","新北市新莊區青山路一段24號","121.411018333333","25.0276083333333","6500500","新莊區"
"242060","986-R7","2019/10/28 19:59:54","新北市新莊區瓊泰路7-1號","121.444746666667","25.02835","6500500","新莊區"
"242004","751-BX","2019/10/28 19:59:51","新北市新莊區化成路314巷4號","121.466476666667","25.048275","6500500","新莊區"
"242027","705-TV","2019/10/28 19:59:50","新北市新莊區立信三街35巷2號","121.443176666667","25.0510866666667","6500500","新莊區"
"242029","615-BX","2019/10/28 19:59:55","新北市新莊區中榮街103號","121.444836666667","25.0527633333333","6500500","新莊區"
"242058","612-BX","2019/10/28 19:59:55","新北市新莊區八德街100號","121.424251666667","25.0213183333333","6500500","新莊區"
"242048","566-BX","2019/10/28 19:59:44","新北市新莊區民安路228號","121.42615","25.022435","6500500","新莊區"
"242053","497-BY","2019/10/28 19:59:46","新北市新莊區西盛街418號","121.427188333333","25.0122033333333","6500500","新莊區"
"242002","441-UM","2019/10/28 19:59:45","新北市新莊區中正路170號","121.450928333333","25.0358416666667","6500500","新莊區"
"242007","440-UM","2019/10/28 19:59:55","新北市新莊區思源路682號","121.459833333333","25.0579633333333","6500500","新莊區"
"242013","413-TV","2019/10/28 19:59:56","新北市新莊區中誠街53巷20號","121.451428333333","25.0474683333333","6500500","新莊區"
"242050","400-BY","2019/10/28 19:59:45","新北市新莊區民本街27巷1號","121.428215","25.019225","6500500","新莊區"
"242025","362-BY","2019/10/28 19:59:53","新北市新莊區五工二路86巷33號","121.460496666667","25.0672933333333","6500500","新莊區"
"242023","353-BY","2019/10/28 19:59:42","新北市新莊區化成路354號","121.465811666667","25.0492116666667","6500500","新莊區"
"242015","132-UY","2019/10/28 19:59:36","新北市新莊區復興路一段47巷11號","121.446741666667","25.042665","6500500","新莊區"
"242056","172-VK","2019/10/28 19:59:41","新北市新莊區中正路347巷19號","121.447133333333","25.034235","6500500","新莊區"
"242017","173-VK","2019/10/28 19:59:53","新北市新莊區中安街1號","121.452811666667","25.0452483333333","6500500","新莊區"
"242031","175-VK","2019/10/28 19:59:51","新北市新莊區公園一路63號","121.443103333333","25.0365583333333","6500500","新莊區"
"242039","176-VK","2019/10/28 19:59:56","新北市新莊區民安路289-1號","121.429153333333","25.0223933333333","6500500","新莊區"
"242021","KED-0687","2019/10/28 19:59:54","新北市新莊區建中街48巷10弄12號","121.448656666667","25.0384016666667","6500500","新莊區"
"242019","346-TH","2019/10/28 19:59:39","新北市新莊區民生街15巷9號","121.4553","25.0425866666667","6500500","新莊區"
"242036","348-TH","2019/10/28 19:59:49","新北市新莊區建安街41巷4號","121.42899","25.0254283333333","6500500","新莊區"
"242034","350-TH","2019/10/28 19:59:41","新北市新莊區建中街90巷1弄20號","121.44578","25.0369083333333","6500500","新莊區"
"238019","599-UM","2019/10/28 19:59:51","新北市樹林區中山路三段160-1號","121.38941","24.9702483333333","6500700","樹林區"
"238021","KEA-2539","2019/10/28 19:59:46","新北市樹林區佳園路二段30號","121.39159","24.96242","6500700","樹林區"
"238014","282-BY","2019/10/28 19:59:48","新北市樹林區大安路493號","121.414293333333","24.9867616666667","6500700","樹林區"
"239006","891-R6","2019/10/28 19:59:40","新北市鶯歌區尖山埔路3號","121.349425","24.9511016666667","6500800","鶯歌區"
"239001","417-VK","2019/10/28 19:59:49","新北市鶯歌區正義新村7號","121.343125","24.9494266666667","6500800","鶯歌區"
"239002","359-BY","2019/10/28 19:59:52","新北市鶯歌區中山路300號","121.34295","24.956955","6500800","鶯歌區"
"221008","489-VK","2019/10/28 19:59:41","新北市汐止區康寧街143號","121.621495","25.0666766666667","6501100","汐止區"
"221015","131-UY","2019/10/28 19:59:50","新北市汐止區橋東街9號","121.666576666667","25.075945","6501100","汐止區"
"221010","269-BY","2019/10/28 19:59:53","新北市汐止區汐萬路一段418巷1弄26號","121.649825","25.0782233333333","6501100","汐止區"
"221012","278-VK","2019/10/28 19:59:54","新北市汐止區保長路273巷8號","121.681473333333","25.0740383333333","6501100","汐止區"
"221023","279-VK","2019/10/28 19:59:40","新北市汐止區民族三街42號","121.629696666667","25.0700216666667","6501100","汐止區"
"221027","281-BY","2019/10/28 19:59:54","新北市汐止區中正路85號","121.661291666667","25.0694566666667","6501100","汐止區"
"221029","298-VK","2019/10/28 19:59:45","新北市汐止區樟樹一路137巷26號","121.640891666667","25.0661033333333","6501100","汐止區"
"221021","299-VK","2019/10/28 19:59:50","新北市汐止區莊敬街128-2號","121.654733333333","25.0614433333333","6501100","汐止區"
"221031","353-TW","2019/10/28 19:59:41","新北市汐止區福德一路176巷7弄7號","121.634871666667","25.06636","6501100","汐止區"
"221035","622-UM","2019/10/28 19:59:39","新北市汐止區長江街11號","121.654725","25.0711233333333","6501100","汐止區"
"221025","623-UM","2019/10/28 19:59:40","新北市汐止區仁愛路77巷3號","121.661051666667","25.0634183333333","6501100","汐止區"
"221038","646-BX","2019/10/28 19:59:43","新北市汐止區忠孝東路487-8號","121.666223333333","25.0741366666667","6501100","汐止區"
"221033","647-BX","2019/10/28 19:59:44","新北市汐止區東勢街102號","121.633826666667","25.0415883333333","6501100","汐止區"
"220079","145-BY","2019/10/28 19:59:50","新北市板橋區建國街12號","121.457195","25.01685","6500100","板橋區"
"220080","200-UY","2019/10/28 19:59:58","新北市板橋區大觀路二段163巷6-1號","121.445725","25.0003733333333","6500100","板橋區"
"220082","610-BX","2019/10/28 19:59:42","新北市板橋區存德街9號","121.429955","24.9919233333333","6500100","板橋區"
"220101","245-BX","2019/10/28 19:59:53","新北市板橋區莒光路171巷1弄16號","121.474506666667","25.0246216666667","6500100","板橋區"
"224002","257-TC","2019/10/28 19:59:42","新北市瑞芳區員山子路員山巷23號","121.816921666667","25.1045033333333","6501200","瑞芳區"
"220056","276-BY","2019/10/28 19:59:44","新北市板橋區四川路二段85號","121.45298","24.9948983333333","6500100","板橋區"
"220072","277-BY","2019/10/28 19:59:53","新北市板橋區金門街109巷35號","121.434191666667","24.99129","6500100","板橋區"
"220094","283-UM","2019/10/28 19:59:50","新北市板橋區文化路一段180號","121.465743333333","25.0195583333333","6500100","板橋區"
"220071","283-VK","2019/10/28 19:59:51","新北市板橋區五權街32巷4號","121.464735","24.99316","6500100","板橋區"
"220053","285-VK","2019/10/28 19:59:52","新北市板橋區懷仁街71-1號","121.477215","25.0185183333333","6500100","板橋區"
"220081","287-VK","2019/10/28 19:59:37","新北市板橋區僑中一街70號","121.44768","25.0114916666667","6500100","板橋區"
"220090","288-VK","2019/10/28 19:59:45","新北市板橋區新海路72巷12號","121.462498333333","25.0220933333333","6500100","板橋區"
"220061","293-UM","2019/10/28 19:59:55","新北市板橋區中山路二段22號","121.472486666667","25.0150783333333","6500100","板橋區"
"220062","295-UM","2019/10/28 19:59:56","新北市板橋區中山路二段318巷4號","121.480203333333","25.0191683333333","6500100","板橋區"
"220084","296-UM","2019/10/28 19:59:41","新北市板橋區溪崑二街103巷20號","121.427196666667","24.9886016666667","6500100","板橋區"
"220075","303-R5","2019/10/28 19:59:49","新北市板橋區金華街10巷48弄36號","121.45821","25.0200366666667","6500100","板橋區"
"220092","307-R5","2019/10/28 19:59:53","新北市板橋區民權路192號","121.459216666667","25.0136066666667","6500100","板橋區"
"220098","317-R6","2019/10/28 19:59:52","新北市板橋區四維路269巷94弄18號","121.459378333333","25.0268816666667","6500100","板橋區"
"220083","461-BY","2019/10/28 19:59:50","新北市板橋區僑中二街10巷27號","121.445755","25.0110683333333","6500100","板橋區"
"220089","487-VK","2019/10/28 19:59:57","新北市板橋區四維路308號","121.462515","25.0297133333333","6500100","板橋區"
"242011","280-VK","2019/10/28 19:59:57","新北市新莊區中港路531巷58號","121.450026666667","25.051735","6500500","新莊區"
"220088","491-VK","2019/10/28 19:59:51","新北市板橋區懷德街127巷23弄7號","121.479266666667","25.0317216666667","6500100","板橋區"
"220103","561-BX","2019/10/28 19:59:58","新北市板橋區漢生東路41-2號","121.46561","25.016715","6500100","板橋區"
"220063","609-BX","2019/10/28 19:59:48","新北市板橋區中山路二段113號","121.47477","25.0162366666667","6500100","板橋區"
"220091","637-BX","2019/10/28 19:59:44","新北市板橋區懷德街158巷5號","121.478568333333","25.030615","6500100","板橋區"
"220077","687-BX","2019/10/28 19:59:41","新北市板橋區僑中一街88號","121.447181666667","25.01166","6500100","板橋區"
"220093","689-BX","2019/10/28 19:59:54","新北市板橋區長江路二段196號","121.467413333333","25.0321316666667","6500100","板橋區"
"220054","741-BX","2019/10/28 19:59:48","新北市板橋區忠孝路忠義巷15弄28號","121.465738333333","25.0042816666667","6500100","板橋區"
"220102","KEA-2699","2019/10/28 19:59:44","新北市板橋區莒光路91號","121.472151666667","25.0240283333333","6500100","板橋區"
"220055","827-TW","2019/10/28 19:59:44","新北市板橋區國慶路149巷37弄8號","121.460445","24.99798","6500100","板橋區"
"220067","831-TW","2019/10/28 19:59:51","新北市板橋區漢生東路163號","121.46926","25.012555","6500100","板橋區"
"220074","895-R6","2019/10/28 19:59:37","新北市板橋區館前西路140號","121.456326666667","25.0081233333333","6500100","板橋區"
"220073","985-R7","2019/10/28 19:59:52","新北市板橋區南雅西路二段255號","121.451693333333","25.014705","6500100","板橋區"
"220097","AAC-210","2019/10/28 19:59:45","新北市板橋區公館街130號","121.46127","25.01824","6500100","板橋區"
"220064","AAC-253","2019/10/28 19:59:56","新北市板橋區長安街331巷91-2號","121.471955","25.0126466666667","6500100","板橋區"
"235068","KEA-2873","2019/10/28 19:59:26","新北市中和區福美路301巷19號","121.497608333333","25.0041116666667","6500300","中和區"
