"lineid","car","time","location","longitude","latitude","cityid","cityname"
"251005","010-UM","2019/10/28 21:59:46","新北市淡水區鄧公路30巷1弄65號","121.454511666667","25.1696233333333","6501000","淡水區"
"251004","180-VK","2019/10/28 21:59:54","新北市淡水區自強路279-1號","121.461335","25.1279816666667","6501000","淡水區"
"251008","181-VK","2019/10/28 21:59:41","新北市淡水區學府路104號","121.449885","25.1717933333333","6501000","淡水區"
"251010","413-VK","2019/10/28 21:59:56","新北市淡水區中正路二段211號","121.42622","25.1890983333333","6501000","淡水區"
"251007","442-VK","2019/10/28 21:59:41","新北市淡水區北新路184巷19號","121.450298333333","25.1780583333333","6501000","淡水區"
"251006","561-UM","2019/10/28 21:44:19","新北市淡水區中正路11巷3號","121.437878333333","25.1707066666667","6501000","淡水區"
"251011","650-BX","2019/10/28 21:59:57","新北市淡水區中山北路一段249號","121.444663333333","25.1803383333333","6501000","淡水區"
"251003","673-BX","2019/10/28 21:59:50","新北市淡水區新春街96號","121.43902","25.182465","6501000","淡水區"
