"lineid","car","time","location","longitude","latitude","cityid","cityname"
"222004","289-BY","2019/09/27 09:19:49","新北市深坑區土庫尖路75-1號","121.631215","25.018265","6501800","深坑區"
"231007","189-VK","2019/09/27 09:20:00","新北市新店區新潭路三段236號","121.501001666667","24.9040933333333","6500600","新店區"
"231009","192-VK","2019/09/27 09:19:35","新北市新店區平廣路一段221-2號","121.51088","24.8897083333333","6500600","新店區"
"223003","205-TH","2019/09/27 09:19:51","新北市石碇區北宜路五段65-1號","121.637941666667","24.95409","6501900","石碇區"
"223008","406-TH","2019/09/27 09:19:35","新北市石碇區光明路耳空龜巷12號","121.69143","25.0360216666667","6501900","石碇區"
"223004","437-BY","2019/09/27 09:20:04","新北市石碇區磨石坑7-2號","121.68989","24.9753766666667","6501900","石碇區"
"223001","592-UM","2019/09/27 09:20:05","新北市石碇區北宜路五段62號","121.636788333333","24.95407","6501900","石碇區"
"223007","661-BX","2019/09/27 09:18:12","新北市石碇區光明路耳空龜巷10-3號","121.689718333333","25.0386616666667","6501900","石碇區"
"223005","677-TV","2019/09/27 09:19:55","新北市石碇區磨石坑7-2號","121.689463333333","24.97488","6501900","石碇區"
"227003","282-VK","2019/09/27 09:12:36","新北市雙溪區泰平里料角坑19號","121.812095","24.9725733333333","6502500","雙溪區"
"237014","760-BX","2019/09/27 09:19:56","新北市三峽區建安73號","121.448396666667","24.92773","6500900","三峽區"
