"lineid","car","time","location","longitude","latitude","cityid","cityname"
"234044","148-BY","2019/09/27 12:49:36","新北市永和區秀朗路二段124-3號","121.52477","25.0015516666667","6500400","永和區"
"234078","298-R6","2019/09/27 12:49:21","新北市永和區永利路83-1號","121.521265","25.003495","6500400","永和區"
"234036","336-UY","2019/09/27 12:49:26","新北市永和區成功路一段20號","121.527041666667","25.0049683333333","6500400","永和區"
"234062","337-UY","2019/09/27 12:49:25","新北市永和區福和路1號","121.526541666667","25.009935","6500400","永和區"
"234084","338-UY","2019/09/27 12:49:34","新北市永和區中正路51號","121.514615","24.99629","6500400","永和區"
"234068","552-UM","2019/09/27 12:49:26","新北市永和區福和路1號","121.525445","25.009485","6500400","永和區"
"234015","745-BX","2019/09/27 12:49:22","新北市永和區永和路二段310號","121.516146666667","25.0161333333333","6500400","永和區"
"234028","746-BX","2019/09/27 12:49:35","","121.523466666667","24.9996916666667","6500400","永和區"
"234052","KEA-2590","2019/09/27 12:49:20","新北市永和區環河東路二段92號","121.524431666667","25.01064","6500400","永和區"
"234005","KED-0605","2019/09/27 12:49:35","新北市永和區保安路42號","121.510373333333","25.0169283333333","6500400","永和區"
"234012","KEA-2591","2019/09/27 12:49:23","新北市永和區保福路二段133巷1號","121.50951","25.0137916666667","6500400","永和區"
"234060","AAD-866","2019/09/27 12:49:37","新北市永和區福和路305號","121.516345","25.0071766666667","6500400","永和區"
"234040","862-TW","2019/09/27 12:49:18","新北市永和區永貞路267號","121.511828333333","25.0047683333333","6500400","永和區"
"234025","9371-KE","2019/09/27 12:49:32","","121.51506","25.010275","6500400","永和區"
"234010","9373-KE","2019/09/27 12:49:16","新北市永和區保福路二段165號","121.509026666667","25.0149716666667","6500400","永和區"
"234022","9380-KE","2019/09/27 12:49:16","新北市永和區竹林路119巷53弄1號","121.522191666667","25.01193","6500400","永和區"
"234076","969-R7","2019/09/27 12:49:32","新北市中和區安樂路63號","121.512373333333","24.993725","6500400","永和區"
"234066","AAC-212","2019/09/27 12:49:34","新北市永和區中和路619號","121.512811666667","25.0047783333333","6500400","永和區"
"234001","AAC-295","2019/09/27 12:49:22","新北市永和區中正路664號","121.516903333333","25.0088033333333","6500400","永和區"
"231029","001-UM","2019/09/27 12:49:28","","121.519596666667","24.961115","6500600","新店區"
"231036","110-UY","2019/09/27 12:49:17","新北市新店區安一路一段1-1號","121.519525","24.9614616666667","6500600","新店區"
"231003","268-BY","2019/09/27 12:49:23","新北市新店區安一路一段1-1號","121.51975","24.9612733333333","6500600","新店區"
"231035","278-BY","2019/09/27 12:49:24","新北市新店區安一路一段1-1號","121.519935","24.9611266666667","6500600","新店區"
"231016","AAD-862","2019/09/27 12:49:26","新北市新店區安華路28-1號","121.519906666667","24.961075","6500600","新店區"
"231022","512-UM","2019/09/27 12:49:33","新北市新店區安華路28-1號","121.520158333333","24.96067","6500600","新店區"
"231002","619-UM","2019/09/27 12:49:36","新北市新店區安華路28-1號","121.519636666667","24.960955","6500600","新店區"
"231012","KED-0819","2019/09/27 12:49:32","新北市新店區安一路一段1-1號","121.519796666667","24.96131","6500600","新店區"
"231010","719-UM","2019/09/27 12:49:17","新北市新店區安一路一段1-1號","121.519621666667","24.9612066666667","6500600","新店區"
"231026","720-UM","2019/09/27 12:49:21","新北市新店區安一路一段1-1號","121.519283333333","24.9613533333333","6500600","新店區"
"235029","098-UM","2019/09/27 12:49:31","新北市中和區中正路466號","121.490085","24.9942583333333","6500300","中和區"
"235022","151-BY","2019/09/27 12:49:34","新北市中和區員山路36巷16-2號","121.485256666667","24.991705","6500300","中和區"
"235002","185-VK","2019/09/27 12:49:13","新北市中和區中正路505號","121.488633333333","24.9941","6500300","中和區"
"235031","255-BX","2019/09/27 12:49:33","新北市中和區新民街12號","121.482501666667","25.0059183333333","6500300","中和區"
"235028","911-UM","2019/09/27 12:49:36","新北市中和區員山路36巷16-3號","121.485021666667","24.9913133333333","6500300","中和區"
"235001","AAC-213","2019/09/27 12:49:21","新北市中和區錦和路350-1號","121.490551666667","24.9935883333333","6500300","中和區"
"207002","749-BX","2019/09/27 12:49:25","新北市萬里區雙興里二坪路32號","121.644993333333","25.168655","6502800","萬里區"
"207001","662-BX","2019/09/27 12:49:28","","121.690536666667","25.1788233333333","6502800","萬里區"
"235025","KEA-2875","2019/09/27 12:49:22","新北市中和區員山路36巷16-2號","121.485153333333","24.9916833333333","6500300","中和區"
