"lineid","car","time","location","longitude","latitude","cityid","cityname"
"234044","148-BY","2019/09/27 13:29:16","新北市永和區秀朗路二段247號","121.526283333333","24.9995566666667","6500400","永和區"
"234078","298-R6","2019/09/27 13:29:21","新北市永和區林森路6號","121.52663","25.0057183333333","6500400","永和區"
"234036","336-UY","2019/09/27 13:29:26","新北市永和區民樂街34號","121.527515","25.000855","6500400","永和區"
"234062","337-UY","2019/09/27 13:29:25","新北市永和區中正路368巷1弄88號","121.520486666667","25.0007483333333","6500400","永和區"
"234084","338-UY","2019/09/27 13:29:34","新北市永和區林森路29巷2號","121.526085","25.0052","6500400","永和區"
"234068","552-UM","2019/09/27 13:29:36","新北市永和區竹林路177號","121.520616666667","25.00977","6500400","永和區"
"234015","745-BX","2019/09/27 13:29:32","新北市永和區永和路二段425巷5號","121.515221666667","25.017765","6500400","永和區"
"234028","746-BX","2019/09/27 13:29:35","新北市永和區民權路29巷4號","121.520318333333","24.9977233333333","6500400","永和區"
"234052","KEA-2590","2019/09/27 13:29:20","新北市永和區復興街1巷4號","121.5158","25.012995","6500400","永和區"
"234005","KED-0605","2019/09/27 13:29:35","新北市永和區中山路一段188號","121.509028333333","25.00884","6500400","永和區"
"234012","KEA-2591","2019/09/27 13:29:26","新北市永和區中山路一段184巷9弄17號","121.508355","25.0091033333333","6500400","永和區"
"234060","AAD-866","2019/09/27 13:29:36","新北市永和區永貞路189號","121.514851666667","25.0037566666667","6500400","永和區"
"234040","862-TW","2019/09/27 13:29:38","新北市永和區中和路525號","121.511171666667","25.0028133333333","6500400","永和區"
"234048","863-TW","2019/09/27 13:29:36","新北市永和區保福路二段144號","121.509566666667","25.0144683333333","6500400","永和區"
"234025","9371-KE","2019/09/27 13:29:32","新北市永和區中山路一段17巷4弄16號","121.513076666667","25.0101533333333","6500400","永和區"
"234010","9373-KE","2019/09/27 13:29:16","新北市永和區仁愛路141巷30弄26號","121.512006666667","25.0114866666667","6500400","永和區"
"248019","KED-0813","2019/09/27 13:29:27","新北市五股區孝義路82號","121.449306666667","25.115755","6501500","五股區"
"234022","9380-KE","2019/09/27 13:29:36","新北市永和區竹林路91巷51弄2號","121.521585","25.013355","6500400","永和區"
"234076","969-R7","2019/09/27 13:29:33","新北市永和區智光街24號","121.517993333333","24.99907","6500400","永和區"
"234072","AAC-211","2019/09/27 13:29:19","新北市永和區光復街42號","121.51681","25.017885","6500400","永和區"
"234066","AAC-212","2019/09/27 13:29:34","新北市永和區保平路113號","121.510945","25.0066816666667","6500400","永和區"
"234001","AAC-295","2019/09/27 13:29:22","新北市永和區永和路一段107號","121.513818333333","25.0079383333333","6500400","永和區"
"244004","248-BX","2019/09/27 13:29:28","新北市林口區頂福27號","121.351666666667","25.085015","6501700","林口區"
"231029","001-UM","2019/09/27 13:29:28","新北市新店區安華路30巷12-1號","121.518686666667","24.95823","6500600","新店區"
"231030","002-UM","2019/09/27 13:29:35","新北市新店區安華路28-1號","121.519581666667","24.9607633333333","6500600","新店區"
"231027","0293-UT","2019/09/27 13:29:39","新北市新店區北新路一段43號","121.538036666667","24.9594066666667","6500600","新店區"
"231005","046-UY","2019/09/27 13:29:22","新北市新店區光明街145號","121.539403333333","24.96222","6500600","新店區"
"231018","107-UY","2019/09/27 13:29:32","新北市新店區中央路75號","121.532418333333","24.9766583333333","6500600","新店區"
"231013","108-UY","2019/09/27 13:29:40","新北市新店區中央路212號","121.530021666667","24.9735066666667","6500600","新店區"
"231036","110-UY","2019/09/27 13:29:17","新北市新店區安祥路190巷21號","121.478056666667","24.9555316666667","6500600","新店區"
"231032","256-BX","2019/09/27 13:29:21","新北市新店區安豐路63號","121.497935","24.95255","6500600","新店區"
"231023","260-TV","2019/09/27 13:29:27","新北市新店區北宜路一段168號","121.540451666667","24.952955","6500600","新店區"
"231003","268-BY","2019/09/27 13:29:23","新北市新店區安康路一段240-1號","121.521788333333","24.9637783333333","6500600","新店區"
"231035","278-BY","2019/09/27 13:29:24","新北市新店區安華路8號","121.51987","24.9622516666667","6500600","新店區"
"231016","AAD-862","2019/09/27 13:29:25","新北市新店區北宜路一段190-7號","121.542233333333","24.952905","6500600","新店區"
"231006","355-BY","2019/09/27 13:29:18","新北市新店區安華路28-1號","121.51903","24.9608466666667","6500600","新店區"
"231038","3712-VJ","2019/09/27 13:29:23","新北市新店區安華路1-1號","121.519078333333","24.96051","6500600","新店區"
"231024","4716-K9","2019/09/27 13:29:37","新北市新店區中正路126號","121.54214","24.97127","6500600","新店區"
"231025","4715-K9","2019/09/27 13:29:34","新北市新店區中央五街38號","121.528513333333","24.975015","6500600","新店區"
"231022","512-UM","2019/09/27 13:29:33","新北市新店區永興路41號","121.543873333333","24.9378383333333","6500600","新店區"
"231001","617-UM","2019/09/27 13:29:35","新北市新店區安康路一段138號","121.52659","24.962835","6500600","新店區"
"231002","619-UM","2019/09/27 13:29:36","新北市新店區安康路一段52巷1號","121.529873333333","24.9612633333333","6500600","新店區"
"231034","641-BX","2019/09/27 13:29:28","新北市新店區安華路28-1號","121.519545","24.9605183333333","6500600","新店區"
"231012","KED-0819","2019/09/27 13:29:32","新北市新店區環河路1-2號","121.538055","24.9616116666667","6500600","新店區"
"231010","719-UM","2019/09/27 13:28:37","新北市新店區中央路81號","121.53233","24.9766516666667","6500600","新店區"
"231026","720-UM","2019/09/27 13:29:21","新北市新店區安一路一段1-1號","121.519405","24.96125","6500600","新店區"
"231028","897-TW","2019/09/27 13:29:38","新北市新店區安華路28-1號","121.519896666667","24.9607783333333","6500600","新店區"
"231037","AKT-0513","2019/09/27 13:29:29","新北市新店區薏仁坑路59號","121.490413333333","24.96496","6500600","新店區"
"235030","003-UY","2019/09/27 13:29:22","新北市中和區中山路二段120號","121.502633333333","25.0037483333333","6500300","中和區"
"235027","006-UY","2019/09/27 13:29:21","新北市中和區連城路347巷2號","121.488036666667","24.9958616666667","6500300","中和區"
"235020","096-UM","2019/09/27 13:29:23","新北市中和區中山路二段594號","121.482346666667","25.00551","6500300","中和區"
"235003","097-UM","2019/09/27 13:29:31","新北市中和區大勇街27巷2號","121.517268333333","24.9935966666667","6500300","中和區"
"235029","098-UM","2019/09/27 13:29:31","新北市中和區中山路二段64巷12號","121.503501666667","25.0053466666667","6500300","中和區"
"235004","150-BY","2019/09/27 13:29:29","新北市中和區安平路59號","121.509561666667","24.9951116666667","6500300","中和區"
"235022","151-BY","2019/09/27 13:29:34","新北市中和區圓通路320號","121.487146666667","24.9883833333333","6500300","中和區"
"235019","183-VK","2019/09/27 13:29:32","新北市中和區莒光路120巷56號","121.471663333333","25.0009333333333","6500300","中和區"
"235002","185-VK","2019/09/27 13:29:33","新北市中和區自強路58號","121.520016666667","24.9945716666667","6500300","中和區"
"235031","255-BX","2019/09/27 13:29:33","新北市中和區新生街220巷15弄11-2號","121.482965","24.99789","6500300","中和區"
"235008","293-VK","2019/09/27 13:29:21","新北市中和區復興路305號","121.501366666667","24.9902916666667","6500300","中和區"
"235036","301-VK","2019/09/27 13:29:31","新北市中和區連城路192號","121.492288333333","24.99672","6500300","中和區"
"235007","352-BY","2019/09/27 13:29:30","新北市中和區景平路243-1號","121.509316666667","24.9927066666667","6500300","中和區"
"235006","KEA-2878","2019/09/27 13:29:31","新北市中和區秀朗路三段146號","121.524273333333","24.9911916666667","6500300","中和區"
"235014","4979-A6","2019/09/27 13:29:31","新北市中和區景新街362巷10號","121.51194","24.9901633333333","6500300","中和區"
"235033","4980-A6","2019/09/27 13:29:23","新北市中和區連城路127巷21號","121.496918333333","24.9979166666667","6500300","中和區"
"235034","558-UM","2019/09/27 13:29:24","新北市中和區安和路159號","121.505953333333","24.9972833333333","6500300","中和區"
"235009","565-BX","2019/09/27 13:29:18","新北市中和區南山路236-1號","121.506425","24.9895033333333","6500300","中和區"
"235024","KED-0823","2019/09/27 13:29:35","新北市中和區中山路二段618號","121.481465","25.0054466666667","6500300","中和區"
"235018","640-BX","2019/09/27 13:29:31","新北市中和區莒光路95號","121.472523333333","25.0031283333333","6500300","中和區"
"235011","732-UM","2019/09/27 13:29:33","新北市中和區中興街126號","121.499748333333","24.9927883333333","6500300","中和區"
"235010","733-UM","2019/09/27 13:29:31","新北市中和區板南路132號","121.502393333333","24.9925533333333","6500300","中和區"
"235035","783-BX","2019/09/27 13:29:21","新北市中和區中板路20號","121.483695","25.0119616666667","6500300","中和區"
"235021","801-TS","2019/09/27 13:29:35","新北市中和區民安街42巷42號","121.478788333333","25.0013516666667","6500300","中和區"
"235005","802-TS","2019/09/27 13:29:34","新北市中和區中和路322號","121.509858333333","25.0007516666667","6500300","中和區"
"235016","805-TS","2019/09/27 13:29:26","新北市中和區興南路二段94號","121.505236666667","24.9842283333333","6500300","中和區"
"235012","896-TW","2019/09/27 13:29:32","新北市中和區中正路589巷15號","121.485636666667","24.9936616666667","6500300","中和區"
"235017","900-TW","2019/09/27 13:29:25","新北市中和區連城路607號","121.478501666667","24.993165","6500300","中和區"
"235028","911-UM","2019/09/27 13:29:36","新北市中和區景平路587-1號","121.497388333333","25.00027","6500300","中和區"
"235015","157-BY","2019/09/27 13:29:35","新北市中和區興南路二段114巷10弄11號","121.504125","24.9852016666667","6500300","中和區"
"235001","AAC-213","2019/09/27 13:29:20","新北市中和區景德街40號","121.517761666667","24.9914866666667","6500300","中和區"
"235023","AAC-215","2019/09/27 13:29:04","新北市中和區員山路36巷16-3號","121.48511","24.9911333333333","6500300","中和區"
"220013","072-UY","2019/09/27 13:29:20","新北市板橋區南雅南路二段114號","121.453386666667","25.0008716666667","6500100","板橋區"
"220034","073-UY","2019/09/27 13:29:37","新北市板橋區華東街1-10號","121.448253333333","24.9950833333333","6500100","板橋區"
"220017","AAD-861","2019/09/27 13:29:31","新北市板橋區華東街1-10號","121.448343333333","24.9950866666667","6500100","板橋區"
"247013","056-VK","2019/09/27 13:29:31","新北市五股區中興路三段163號","121.448986666667","25.0808966666667","6501400","蘆洲區"
"235013","251-BX","2019/09/27 13:29:32","新北市中和區景安路125號","121.505718333333","24.9961433333333","6500300","中和區"
"207002","749-BX","2019/09/27 13:29:25","新北市萬里區崁腳里崁腳路166號","121.645083333333","25.1558166666667","6502800","萬里區"
"207001","662-BX","2019/09/27 13:28:07","新北市萬里區龜吼里石角路43號","121.684315","25.19216","6502800","萬里區"
"236016","401-BY","2019/09/27 13:29:20","新北市土城區城林路6巷80號","121.43853","24.9798433333333","6501300","土城區"
"220030","610-BX","2019/09/27 13:29:28","新北市板橋區華東街1-9號","121.448245","24.9949166666667","6500100","板橋區"
"220004","276-BY","2019/09/27 13:29:26","新北市板橋區華東街1-9號","121.448075","24.99496","6500100","板橋區"
"220019","283-VK","2019/09/27 13:29:31","新北市板橋區華東街1-9號","121.448075","24.9949233333333","6500100","板橋區"
"220043","285-UM","2019/09/27 13:29:19","新北市板橋區民生路二段161巷1號","121.47001","25.0198783333333","6500100","板橋區"
"220031","286-VK","2019/09/27 13:29:29","新北市板橋區華東街1-10號","121.448335","24.9951066666667","6500100","板橋區"
"220029","287-VK","2019/09/27 13:29:19","新北市板橋區華東街1-10號","121.448243333333","24.9950016666667","6500100","板橋區"
"220104","560-BX","2019/09/27 13:29:25","新北市板橋區南雅南路二段114號","121.45337","25.0009483333333","6500100","板橋區"
"220025","687-BX","2019/09/27 13:29:28","新北市板橋區大觀路三段59巷17弄6-1號","121.436233333333","24.9955416666667","6500100","板橋區"
"220022","895-R6","2019/09/27 13:29:28","新北市板橋區南雅南路二段140號","121.451758333333","24.9962233333333","6500100","板橋區"
"220021","985-R7","2019/09/27 13:29:20","新北市板橋區四川路二段140巷20號","121.448943333333","24.9934866666667","6500100","板橋區"
"235032","KEA-2873","2019/09/27 13:29:24","新北市中和區中正路211巷13弄7號","121.497066666667","24.993265","6500300","中和區"
"235025","KEA-2875","2019/09/27 13:29:22","新北市中和區民享街92巷17號","121.474105","24.9996516666667","6500300","中和區"
"235026","KEA-2876","2019/09/27 13:29:24","新北市中和區景平路677巷5號","121.496238333333","25.0027083333333","6500300","中和區"
