"lineid","car","time","location","longitude","latitude","cityid","cityname"
"234044","148-BY","2019/09/27 14:09:36","新北市永和區得和路342號","121.523725","24.9993883333333","6500400","永和區"
"234078","298-R6","2019/09/27 14:09:31","新北市永和區國中路109巷1弄2號","121.523935","25.00574","6500400","永和區"
"234036","336-UY","2019/09/27 14:09:31","新北市永和區成功路一段47巷3號","121.527368333333","25.00407","6500400","永和區"
"234062","337-UY","2019/09/27 14:09:25","新北市永和區永元路118號","121.522711666667","25.002585","6500400","永和區"
"234084","338-UY","2019/09/27 14:09:36","新北市永和區中正路618-1號","121.516985","25.0077416666667","6500400","永和區"
"234068","552-UM","2019/09/27 14:09:26","新北市永和區福和路173號","121.520015","25.0075733333333","6500400","永和區"
"234015","745-BX","2019/09/27 14:09:22","新北市永和區仁愛路99號","121.512821666667","25.012965","6500400","永和區"
"234028","746-BX","2019/09/27 14:09:35","新北市永和區民權路84號","121.519891666667","24.997005","6500400","永和區"
"234052","KEA-2590","2019/09/27 14:09:19","新北市永和區博愛街33號","121.518565","25.0158983333333","6500400","永和區"
"234005","KED-0605","2019/09/27 14:09:35","新北市中和區保平路342號","121.50665","25.0041883333333","6500400","永和區"
"234012","KEA-2591","2019/09/27 14:09:22","新北市永和區永貞路422號","121.508508333333","25.0081983333333","6500400","永和區"
"234060","AAD-866","2019/09/27 14:09:36","新北市永和區得和路29號","121.515873333333","25.0002933333333","6500400","永和區"
"234040","862-TW","2019/09/27 14:09:38","新北市永和區雙和街52巷1號","121.508946666667","25.003265","6500400","永和區"
"234048","863-TW","2019/09/27 14:09:23","新北市永和區環河西路二段85號","121.50666","25.015045","6500400","永和區"
"234025","9371-KE","2019/09/27 14:09:32","新北市永和區安樂路272巷11號","121.514916666667","25.0043333333333","6500400","永和區"
"234010","9373-KE","2019/09/27 14:09:36","新北市永和區保生路55-3號","121.504698333333","25.0120233333333","6500400","永和區"
"248019","KED-0813","2019/09/27 13:56:31","新北市五股區凌雲路三段57號","121.425276666667","25.1250083333333","6501500","五股區"
"234022","9380-KE","2019/09/27 14:09:16","新北市永和區博愛街32巷17-1號","121.518853333333","25.0152483333333","6500400","永和區"
"234076","969-R7","2019/09/27 14:09:25","新北市中和區自強路2號","121.520336666667","24.9960466666667","6500400","永和區"
"234072","AAC-211","2019/09/27 14:09:19","新北市永和區竹林路201巷24弄1號","121.522336666667","25.0096916666667","6500400","永和區"
"234066","AAC-212","2019/09/27 14:09:34","新北市永和區保平路214巷1弄11號","121.509168333333","25.0057316666667","6500400","永和區"
"234001","AAC-295","2019/09/27 14:09:22","新北市永和區中正路720號","121.51581","25.010125","6500400","永和區"
"244004","248-BX","2019/09/27 14:09:28","新北市林口區南勢里34-8號","121.35248","25.0703816666667","6501700","林口區"
"231029","001-UM","2019/09/27 14:09:28","新北市新店區安康路二段161號","121.510065","24.9594066666667","6500600","新店區"
"231030","002-UM","2019/09/27 14:09:35","新北市新店區安興路7-1號","121.515013333333","24.9685533333333","6500600","新店區"
"231027","0293-UT","2019/09/27 14:09:19","新北市新店區北宜路一段3號","121.538506666667","24.9584683333333","6500600","新店區"
"231005","046-UY","2019/09/27 14:09:22","新北市新店區中興路三段238號","121.543148333333","24.983455","6500600","新店區"
"231018","107-UY","2019/09/27 14:09:32","新北市新店區中央五街46號","121.528195","24.9751783333333","6500600","新店區"
"231013","108-UY","2019/09/27 14:09:20","新北市新店區北新路三段65巷34弄26號","121.54003","24.9817416666667","6500600","新店區"
"231036","110-UY","2019/09/27 14:09:37","新北市新店區安祥路109巷6弄15號","121.475433333333","24.9581716666667","6500600","新店區"
"231032","256-BX","2019/09/27 14:09:37","新北市新店區碧潭路77巷2號","121.534258333333","24.9576633333333","6500600","新店區"
"231023","260-TV","2019/09/27 14:09:25","新北市新店區文中路40號","121.539706666667","24.956615","6500600","新店區"
"231003","268-BY","2019/09/27 14:09:23","新北市新店區中興路一段24-2號","121.538523333333","24.9581166666667","6500600","新店區"
"231035","278-BY","2019/09/27 14:09:24","新北市新店區安和路二段115號","121.518693333333","24.9704516666667","6500600","新店區"
"231016","AAD-862","2019/09/27 14:09:25","新北市新店區郵政路1巷6號","121.557306666667","24.9521066666667","6500600","新店區"
"231006","355-BY","2019/09/27 14:09:38","新北市新店區北宜路二段207號","121.553108333333","24.9533116666667","6500600","新店區"
"231038","3712-VJ","2019/09/27 14:09:23","新北市新店區安康路一段52巷1號","121.529853333333","24.9612716666667","6500600","新店區"
"231024","4716-K9","2019/09/27 14:09:17","新北市新店區安民街133巷26號","121.515506666667","24.9696816666667","6500600","新店區"
"231025","4715-K9","2019/09/27 14:09:34","新北市新店區大豐路95號","121.538148333333","24.978875","6500600","新店區"
"231022","512-UM","2019/09/27 14:09:33","新北市新店區自強路108號","121.545888333333","24.9226233333333","6500600","新店區"
"231001","617-UM","2019/09/27 14:09:35","新北市新店區三民路31號","121.53804","24.9704333333333","6500600","新店區"
"231002","619-UM","2019/09/27 14:09:36","新北市新店區中正路500號","121.534078333333","24.9821416666667","6500600","新店區"
"231034","641-BX","2019/09/27 14:09:28","新北市新店區車子路11號","121.5031","24.95213","6500600","新店區"
"231012","KED-0819","2019/09/27 14:09:32","新北市新店區五峰路63巷8弄44號","121.547983333333","24.9685766666667","6500600","新店區"
"231026","720-UM","2019/09/27 14:09:21","新北市新店區安一路一段1-1號","121.519675","24.96119","6500600","新店區"
"231028","897-TW","2019/09/27 14:09:29","新北市新店區安和路三段112號","121.517195","24.985325","6500600","新店區"
"231004","899-TW","2019/09/27 14:09:38","新北市新店區北新路二段226號","121.543108333333","24.9773283333333","6500600","新店區"
"231037","AKT-0513","2019/09/27 14:09:29","新北市新店區安康路二段446號","121.49553","24.9548266666667","6500600","新店區"
"235030","003-UY","2019/09/27 14:09:22","新北市中和區廣福路55號","121.502776666667","25.0013416666667","6500300","中和區"
"235027","006-UY","2019/09/27 14:09:21","新北市中和區連勝街121巷16號","121.495001666667","24.9944816666667","6500300","中和區"
"235020","096-UM","2019/09/27 14:09:25","新北市中和區中正路1191號","121.480651666667","25.00992","6500300","中和區"
"235003","097-UM","2019/09/27 14:09:31","新北市中和區秀峰街119巷6弄12號","121.519","24.9901933333333","6500300","中和區"
"235029","098-UM","2019/09/27 14:09:31","新北市中和區中山路二段2巷3弄14號","121.50434","25.005815","6500300","中和區"
"235004","150-BY","2019/09/27 14:09:29","新北市中和區宜安路66號","121.51145","24.9970133333333","6500300","中和區"
"235022","151-BY","2019/09/27 14:09:34","新北市中和區連城路314號","121.483626666667","24.996135","6500300","中和區"
"235019","183-VK","2019/09/27 14:09:32","新北市中和區中山路三段188號","121.472221666667","25.0064566666667","6500300","中和區"
"235002","185-VK","2019/09/27 14:09:32","新北市中和區大仁街10巷27弄4號","121.519213333333","24.9927633333333","6500300","中和區"
"235031","255-BX","2019/09/27 14:09:33","新北市中和區中正路738號","121.485245","24.9977133333333","6500300","中和區"
"235008","293-VK","2019/09/27 14:09:21","新北市中和區中興街235巷1號","121.500796666667","24.9896133333333","6500300","中和區"
"235036","301-VK","2019/09/27 14:09:31","新北市中和區中山路二段258號","121.497463333333","25.0025316666667","6500300","中和區"
"235007","352-BY","2019/09/27 14:09:30","新北市中和區景平路75號","121.518248333333","24.9918383333333","6500300","中和區"
"235006","KEA-2878","2019/09/27 14:09:31","新北市中和區自立路117巷1號","121.522325","24.9944933333333","6500300","中和區"
"247015","KEA-2869","2019/09/27 14:09:29","新北市蘆洲區光華路46巷45號","121.467548333333","25.0845316666667","6501400","蘆洲區"
"247009","KED-0682","2019/09/27 14:09:24","新北市蘆洲區民族路31-1號","121.47763","25.0849083333333","6501400","蘆洲區"
"235014","4979-A6","2019/09/27 14:09:38","新北市中和區復興路280巷18弄2號","121.50251","24.9915416666667","6500300","中和區"
"235033","4980-A6","2019/09/27 14:09:23","新北市中和區中山路二段181巷10號","121.50068","25.00239","6500300","中和區"
"235034","558-UM","2019/09/27 14:09:24","新北市中和區連城路72號","121.497443333333","25.00138","6500300","中和區"
"235009","565-BX","2019/09/27 14:09:18","新北市中和區景新街437巷17號","121.51411","24.989325","6500300","中和區"
"235024","KED-0823","2019/09/27 14:09:30","新北市中和區員山路266巷27號","121.482145","25.0019916666667","6500300","中和區"
"235018","640-BX","2019/09/27 14:09:30","新北市中和區國光街112巷18弄1號","121.469783333333","25.0018716666667","6500300","中和區"
"235011","732-UM","2019/09/27 14:09:34","新北市中和區興南路一段50號","121.510895","24.9906066666667","6500300","中和區"
"235010","733-UM","2019/09/27 14:09:31","新北市中和區華新街170號","121.507336666667","24.982165","6500300","中和區"
"235035","783-BX","2019/09/27 14:09:21","新北市中和區立德街72巷28號","121.487801666667","25.0085083333333","6500300","中和區"
"235021","801-TS","2019/09/27 14:09:35","新北市中和區員山路423巷12弄1號","121.480435","25.0031533333333","6500300","中和區"
"235005","802-TS","2019/09/27 14:09:34","新北市中和區中安街178巷13弄13號","121.510741666667","24.9987266666667","6500300","中和區"
"235016","805-TS","2019/09/27 14:09:26","新北市中和區興南路二段142巷25弄4號","121.50299","24.9838333333333","6500300","中和區"
"235012","896-TW","2019/09/27 14:09:32","新北市中和區華新街109巷11弄3號","121.508783333333","24.979315","6500300","中和區"
"235017","900-TW","2019/09/27 14:09:25","新北市中和區民德路252號","121.467746666667","24.9972383333333","6500300","中和區"
"235028","911-UM","2019/09/27 14:09:36","新北市中和區南山路81巷19號","121.502508333333","24.9981383333333","6500300","中和區"
"235015","157-BY","2019/09/27 14:09:35","新北市中和區和平街2巷4弄4號","121.510063333333","24.9906416666667","6500300","中和區"
"235001","AAC-213","2019/09/27 14:09:20","新北市中和區秀朗路三段10巷37弄10號","121.523806666667","24.9958916666667","6500300","中和區"
"235023","AAC-215","2019/09/27 14:09:24","新北市中和區圓通路433巷8號","121.487575","24.9880883333333","6500300","中和區"
"220013","072-UY","2019/09/27 14:09:31","新北市板橋區民族路219巷26號","121.469443333333","25.0086333333333","6500100","板橋區"
"220034","073-UY","2019/09/27 14:09:37","新北市板橋區中正路236巷37號","121.457455","25.0194266666667","6500100","板橋區"
"220105","075-UY","2019/09/27 14:09:23","新北市板橋區雙十路三段70巷2號","121.470356666667","25.0323883333333","6500100","板橋區"
"220017","AAD-861","2019/09/27 14:09:31","新北市板橋區大明街20巷29弄10號","121.457856666667","25.003515","6500100","板橋區"
"247005","893-R6","2019/09/27 14:09:24","新北市蘆洲區九芎街79號","121.466606666667","25.0791166666667","6501400","蘆洲區"
"247021","341-TH","2019/09/27 14:09:28","新北市蘆洲區三民路165號","121.471396666667","25.086935","6501400","蘆洲區"
"247003","336-TH","2019/09/27 14:09:21","新北市蘆洲區長安街201-1號","121.460111666667","25.0819216666667","6501400","蘆洲區"
"247023","057-VK","2019/09/27 14:09:26","新北市蘆洲區光榮路116號","121.464503333333","25.0894016666667","6501400","蘆洲區"
"247013","056-VK","2019/09/27 14:09:31","新北市蘆洲區三民路155號","121.471396666667","25.0867916666667","6501400","蘆洲區"
"247017","053-VK","2019/09/27 14:09:34","新北市蘆洲區復興路105巷11號","121.476373333333","25.0884066666667","6501400","蘆洲區"
"247007","002-UY","2019/09/27 14:09:27","新北市蘆洲區中山一路339巷10號","121.471328333333","25.0778583333333","6501400","蘆洲區"
"247001","001-UY","2019/09/27 14:09:32","新北市蘆洲區永平街36號","121.458411666667","25.0910233333333","6501400","蘆洲區"
"235013","251-BX","2019/09/27 14:09:32","新北市中和區景新街175號","121.506743333333","24.9955216666667","6500300","中和區"
"207002","749-BX","2019/09/27 14:07:05","新北市萬里區溪底里瑞泉路21號","121.60463","25.1486966666667","6502800","萬里區"
"207001","662-BX","2019/09/27 14:09:28","新北市萬里區磺潭里清水18號","121.637805","25.1977133333333","6502800","萬里區"
"236040","KED-0685","2019/09/27 14:09:21","新北市土城區城林路6巷80號","121.438438333333","24.9797483333333","6501300","土城區"
"236077","166-UM","2019/09/27 14:09:25","新北市土城區永寧路25號","121.43054","24.9635316666667","6501300","土城區"
"236029","253-BX","2019/09/27 14:09:30","新北市土城區城林路6巷80號","121.438403333333","24.979815","6501300","土城區"
"236024","269-VK","2019/09/27 14:09:33","新北市土城區承天路18號","121.43943","24.9636233333333","6501300","土城區"
"236013","270-VK","2019/09/27 14:09:34","新北市土城區學府路一段88號","121.456383333333","24.9881666666667","6501300","土城區"
"236032","271-VK","2019/09/27 14:09:34","新北市土城區青雲路449號","121.45885","24.9751916666667","6501300","土城區"
"247011","KED-0683","2019/09/27 14:09:33","新北市蘆洲區信義路264號","121.478203333333","25.0868516666667","6501400","蘆洲區"
"236067","KEA-2877","2019/09/27 14:09:32","新北市土城區金城路一段105號","121.444253333333","24.9730116666667","6501300","土城區"
"236016","401-BY","2019/09/27 14:09:20","新北市土城區城林路6巷80號","121.438386666667","24.9800183333333","6501300","土城區"
"236057","912-UM","2019/09/27 14:09:22","新北市土城區中央路四段196-1號","121.41634","24.95774","6501300","土城區"
"236045","913-UM","2019/09/27 14:09:30","新北市土城區明德路一段369-6號","121.453325","24.9793","6501300","土城區"
"236060","915-UM","2019/09/27 14:09:32","新北市土城區中正路75號","121.445178333333","24.9757","6501300","土城區"
"236054","AAC-216","2019/09/27 14:09:22","新北市土城區中華路二段80號","121.438678333333","24.975695","6501300","土城區"
"220027","145-BY","2019/09/27 14:09:23","新北市板橋區中正路35號","121.456315","25.0130916666667","6500100","板橋區"
"220028","200-UY","2019/09/27 14:09:36","新北市板橋區大觀路二段7巷96號","121.450056666667","25.0029883333333","6500100","板橋區"
"220030","610-BX","2019/09/27 14:09:34","新北市板橋區溪崑二街32號","121.428463333333","24.991165","6500100","板橋區"
"220040","267-BY","2019/09/27 14:09:22","新北市板橋區縣民大道三段185號","121.479486666667","25.0247083333333","6500100","板橋區"
"220004","276-BY","2019/09/27 14:09:26","新北市板橋區信義路110巷1弄5號","121.458078333333","24.9921866666667","6500100","板橋區"
"220020","277-BY","2019/09/27 14:09:39","新北市板橋區金門街369巷58號","121.42836","24.9817066666667","6500100","板橋區"
"220050","280-UM","2019/09/27 14:09:21","新北市板橋區莊敬路25巷13號","121.474488333333","25.027215","6500100","板橋區"
"220019","283-VK","2019/09/27 14:09:31","新北市中和區華順街60號","121.465345","24.9985366666667","6500100","板橋區"
"220043","285-UM","2019/09/27 14:09:19","新北市板橋區吳鳳路19巷16號","121.466805","25.03071","6500100","板橋區"
"220031","286-VK","2019/09/27 14:09:35","新北市板橋區大觀路二段174巷173弄4號","121.441681666667","25.0037483333333","6500100","板橋區"
"220029","287-VK","2019/09/27 14:09:39","新北市板橋區南雅西路二段20號","121.452963333333","25.009465","6500100","板橋區"
"220039","288-VK","2019/09/27 14:09:22","新北市板橋區長江路一段106巷12弄2號","121.459918333333","25.0290416666667","6500100","板橋區"
"220009","293-UM","2019/09/27 14:09:30","新北市板橋區中山路二段413號","121.480773333333","25.0197433333333","6500100","板橋區"
"220032","296-UM","2019/09/27 14:09:21","新北市板橋區溪崑一街47巷2號","121.430426666667","24.9908766666667","6500100","板橋區"
"220001","299-UM","2019/09/27 14:09:30","新北市板橋區懷仁街26-1號","121.4764","25.01966","6500100","板橋區"
"220023","303-R5","2019/09/27 14:09:24","新北市板橋區大智街22號","121.455641666667","25.0148766666667","6500100","板橋區"
"220010","305-R5","2019/09/27 14:09:26","新北市板橋區三民路二段153巷36弄2號","121.481125","25.0140683333333","6500100","板橋區"
"220041","307-R5","2019/09/27 14:09:30","新北市板橋區文化路二段125巷17號","121.469571666667","25.0272016666667","6500100","板橋區"
"220047","317-R6","2019/09/27 14:09:24","新北市板橋區文化路一段479巷42號","121.46797","25.023475","6500100","板橋區"
"220038","487-VK","2019/09/27 14:09:36","新北市板橋區文化路一段253號","121.464296666667","25.0181366666667","6500100","板橋區"
"220037","491-VK","2019/09/27 14:09:24","新北市板橋區文化路二段182巷3弄8-2號","121.471606666667","25.027445","6500100","板橋區"
"220104","560-BX","2019/09/27 14:09:25","新北市板橋區中正路379巷14號","121.453745","25.0217333333333","6500100","板橋區"
"220052","561-BX","2019/09/27 14:09:32","新北市板橋區文化路一段216號","121.466516666667","25.0204","6500100","板橋區"
"220011","609-BX","2019/09/27 14:09:24","新北市板橋區三民路二段247號","121.47903","25.0123333333333","6500100","板橋區"
"220005","686-BX","2019/09/27 14:09:27","新北市板橋區國慶路182巷20號","121.46308","24.9959116666667","6500100","板橋區"
"220025","687-BX","2019/09/27 14:09:28","新北市板橋區龍興街69號","121.443658333333","25.0015966666667","6500100","板橋區"
"220042","689-BX","2019/09/27 14:09:26","新北市板橋區文化路一段413號","121.46761","25.0223216666667","6500100","板橋區"
"220002","741-BX","2019/09/27 14:09:20","新北市板橋區重慶路76巷33號","121.460938333333","25.006135","6500100","板橋區"
"220051","KEA-2699","2019/09/27 14:09:19","新北市板橋區萬板路706號","121.481578333333","25.027395","6500100","板橋區"
"220003","827-TW","2019/09/27 14:09:37","新北市板橋區新民街7巷4號","121.463718333333","25.0100433333333","6500100","板橋區"
"220016","830-TW","2019/09/27 14:09:29","新北市板橋區翠華街6巷1弄5號","121.481126666667","25.024025","6500100","板橋區"
"220014","831-TW","2019/09/27 14:09:35","新北市板橋區民享街116巷2弄6號","121.477738333333","25.0157566666667","6500100","板橋區"
"220022","895-R6","2019/09/27 14:09:28","新北市板橋區林園街34號","121.453755","25.01013","6500100","板橋區"
"220021","985-R7","2019/09/27 14:09:35","新北市板橋區民權路241號","121.457433333333","25.01566","6500100","板橋區"
"220046","AAC-210","2019/09/27 14:09:37","新北市板橋區幸福路60巷34號","121.46024","25.0217166666667","6500100","板橋區"
"220012","AAC-253","2019/09/27 14:09:17","新北市板橋區漢生東路83巷2號","121.466913333333","25.0157083333333","6500100","板橋區"
"235032","KEA-2873","2019/09/27 14:09:24","新北市中和區枋寮街42號","121.501948333333","25.00062","6500300","中和區"
"235025","KEA-2875","2019/09/27 14:09:22","新北市中和區民利街56號","121.479156666667","24.998715","6500300","中和區"
"235026","KEA-2876","2019/09/27 14:09:24","新北市中和區中山路二段434號","121.489523333333","25.00412","6500300","中和區"
