"lineid","car","time","location","longitude","latitude","cityid","cityname"
"248019","KED-0813","2019/09/27 15:09:33","新北市五股區凌雲路三段20-6號","121.43724","25.103855","6501500","五股區"
"244004","248-BX","2019/09/27 15:09:28","新北市林口區竹林路266號","121.389726666667","25.08073","6501700","林口區"
"231029","001-UM","2019/09/27 15:09:08","新北市新店區安康路三段571巷5-1號","121.474881666667","24.9428316666667","6500600","新店區"
"231030","002-UM","2019/09/27 15:09:35","新北市新店區安民街339號","121.51693","24.974865","6500600","新店區"
"231005","046-UY","2019/09/27 15:09:22","新北市新店區北新路三段118號","121.541761666667","24.9816133333333","6500600","新店區"
"231018","107-UY","2019/09/27 15:09:32","新北市新店區中央七街109號","121.52576","24.9777333333333","6500600","新店區"
"231036","110-UY","2019/09/27 15:09:37","新北市新店區安祥路104巷6弄9號","121.481821666667","24.96288","6500600","新店區"
"231039","187-VK","2019/09/27 15:09:34","新北市新店區北新路三段106號","121.542106666667","24.9813933333333","6500600","新店區"
"231032","256-BX","2019/09/27 15:09:21","新北市新店區安泰路100號","121.487011666667","24.9411883333333","6500600","新店區"
"231023","260-TV","2019/09/27 15:09:25","新北市新店區檳榔路109號","121.544556666667","24.961585","6500600","新店區"
"231003","268-BY","2019/09/27 15:09:23","新北市新店區中興路二段229號","121.547653333333","24.974755","6500600","新店區"
"231035","278-BY","2019/09/27 15:09:24","新北市新店區安和路三段167號","121.516146666667","24.9860216666667","6500600","新店區"
"231016","AAD-862","2019/09/27 15:09:25","新北市新店區銀河路21號","121.572616666667","24.957095","6500600","新店區"
"231006","355-BY","2019/09/27 15:09:38","新北市新店區新坡一街69號","121.55","24.9638133333333","6500600","新店區"
"231038","3712-VJ","2019/09/27 15:09:23","新北市新店區安華路28-1號","121.519651666667","24.9608","6500600","新店區"
"231024","4716-K9","2019/09/27 15:09:37","新北市新店區中華路48巷25號","121.541021666667","24.9694516666667","6500600","新店區"
"231025","4715-K9","2019/09/27 15:09:34","新北市新店區環河路105-4號","121.53158","24.9705","6500600","新店區"
"231022","512-UM","2019/09/27 15:09:19","新北市新店區永福路61號","121.558141666667","24.9289116666667","6500600","新店區"
"231001","617-UM","2019/09/27 15:09:35","新北市新店區中正路272號","121.538968333333","24.9736666666667","6500600","新店區"
"231002","619-UM","2019/09/27 15:09:36","新北市新店區中正路543-4號","121.533635","24.98749","6500600","新店區"
"231034","641-BX","2019/09/27 15:09:28","新北市新店區玫瑰路4-1號","121.493601666667","24.951455","6500600","新店區"
"231012","KED-0819","2019/09/27 15:09:32","新北市新店區寶元路一段65號","121.542236666667","24.9858516666667","6500600","新店區"
"231026","720-UM","2019/09/27 15:09:34","新北市新店區建安街15巷1號","121.53974","24.9754533333333","6500600","新店區"
"231028","897-TW","2019/09/27 15:09:38","新北市新店區安豐路45號","121.500145","24.9551066666667","6500600","新店區"
"231004","899-TW","2019/09/27 15:09:38","新北市新店區建國路25號","121.54016","24.9740383333333","6500600","新店區"
"231037","AKT-0513","2019/09/27 15:09:29","新北市新店區安興路81號","121.515475","24.97516","6500600","新店區"
"235030","003-UY","2019/09/27 15:09:22","新北市中和區水源路91號","121.507008333333","25.0035216666667","6500300","中和區"
"235004","150-BY","2019/09/27 15:09:29","新北市中和區安平路38號","121.509966666667","24.9950266666667","6500300","中和區"
"235036","301-VK","2019/09/27 15:09:31","新北市中和區連城路126號","121.496091666667","24.99948","6500300","中和區"
"235014","4979-A6","2019/09/27 15:09:31","新北市中和區景新街323-1號","121.511306666667","24.9921583333333","6500300","中和區"
"235033","4980-A6","2019/09/27 15:09:33","新北市中和區景新街64巷7弄5號","121.504343333333","24.9987316666667","6500300","中和區"
"235034","558-UM","2019/09/27 15:09:24","新北市中和區中正路748號","121.485478333333","24.9984533333333","6500300","中和區"
"235018","640-BX","2019/09/27 15:09:30","新北市中和區員山路36巷16-3號","121.484703333333","24.9909166666667","6500300","中和區"
"235035","783-BX","2019/09/27 15:09:20","新北市中和區中正路782巷2號","121.486265","25.00102","6500300","中和區"
"235012","896-TW","2019/09/27 15:09:32","新北市中和區興南路一段108號","121.509585","24.9887566666667","6500300","中和區"
"235023","AAC-215","2019/09/27 15:09:24","新北市中和區圓通路367巷13弄31號","121.493355","24.98811","6500300","中和區"
"220013","072-UY","2019/09/27 15:09:20","新北市板橋區中山路一段154巷3弄2號","121.465445","25.0104266666667","6500100","板橋區"
"207002","749-BX","2019/09/27 15:09:25","新北市萬里區崁腳里崁腳路46號","121.649818333333","25.1603533333333","6502800","萬里區"
"207001","662-BX","2019/09/27 15:09:35","新北市萬里區雙興里麗水路7-2號","121.650778333333","25.18587","6502800","萬里區"
"236040","KED-0685","2019/09/27 15:09:27","新北市土城區裕民路280號","121.45539","24.9821783333333","6501300","土城區"
"236077","166-UM","2019/09/27 15:09:25","新北市土城區中央路四段260號","121.414975","24.95687","6501300","土城區"
"236029","253-BX","2019/09/27 15:09:35","新北市土城區福祥街56號","121.441506666667","24.9813266666667","6501300","土城區"
"236024","269-VK","2019/09/27 15:09:33","新北市土城區中央路二段163號","121.441976666667","24.9763166666667","6501300","土城區"
"236013","270-VK","2019/09/27 15:09:34","新北市土城區學府路一段23巷34號","121.457406666667","24.9870183333333","6501300","土城區"
"236067","KEA-2877","2019/09/27 15:09:32","新北市土城區學成路130號","121.449143333333","24.98959","6501300","土城區"
"236016","401-BY","2019/09/27 15:09:40","新北市土城區峰廷街18號","121.468953333333","24.9872283333333","6501300","土城區"
"236057","912-UM","2019/09/27 15:09:22","新北市土城區金城路一段112號","121.446035","24.974895","6501300","土城區"
"236045","913-UM","2019/09/27 15:09:30","新北市土城區清水路239號","121.461461666667","24.9831566666667","6501300","土城區"
"236054","AAC-216","2019/09/27 15:09:22","新北市土城區裕民路170號","121.45244","24.9855516666667","6501300","土城區"
"220027","145-BY","2019/09/27 15:09:19","新北市板橋區建國街54巷40號","121.459991666667","25.017035","6500100","板橋區"
"220030","610-BX","2019/09/27 15:09:28","新北市板橋區大觀路三段100號","121.43268","24.994535","6500100","板橋區"
"220031","286-VK","2019/09/27 15:09:29","新北市板橋區僑中二街92巷6號","121.445985","25.0090466666667","6500100","板橋區"
"220029","287-VK","2019/09/27 15:09:31","新北市板橋區僑中一街124巷20弄13-3號","121.446746666667","25.0139716666667","6500100","板橋區"
"220023","303-R5","2019/09/27 15:09:24","新北市板橋區金華街10巷95號","121.458663333333","25.020495","6500100","板橋區"
"220010","305-R5","2019/09/27 15:09:19","新北市板橋區中山路二段525號","121.483098333333","25.021275","6500100","板橋區"
"220047","317-R6","2019/09/27 15:09:24","新北市板橋區文化路二段652號","121.477826666667","25.0377566666667","6500100","板橋區"
"220038","487-VK","2019/09/27 15:09:36","新北市板橋區四維路351號","121.462265","25.030045","6500100","板橋區"
"220011","609-BX","2019/09/27 15:09:22","新北市板橋區中山路二段89巷8號","121.474116666667","25.0162733333333","6500100","板橋區"
"220025","687-BX","2019/09/27 15:09:28","新北市板橋區僑中一街124巷18弄1號","121.446173333333","25.01383","6500100","板橋區"
"220042","689-BX","2019/09/27 15:09:27","新北市板橋區長江路一段102號","121.459448333333","25.0295133333333","6500100","板橋區"
"220002","741-BX","2019/09/27 15:09:20","新北市板橋區成都街73-3號","121.462456666667","25.0051683333333","6500100","板橋區"
"220051","KEA-2699","2019/09/27 15:09:40","新北市板橋區莒光路79巷2-1號","121.471963333333","25.0243283333333","6500100","板橋區"
"220003","827-TW","2019/09/27 15:09:22","新北市板橋區國慶路149巷4弄18-3號","121.461976666667","24.9970483333333","6500100","板橋區"
"220022","895-R6","2019/09/27 15:09:27","新北市板橋區府中路11號","121.459736666667","25.009575","6500100","板橋區"
"220012","AAC-253","2019/09/27 15:09:37","新北市板橋區海山路43號","121.467105","25.0098483333333","6500100","板橋區"
