"lineid","car","time","location","longitude","latitude","cityid","cityname"
"249005","172-UM","2019/09/27 17:19:36","新北市八里區荖阡坑路46號","121.41129","25.1235766666667","6502300","八里區"
"249001","173-UM","2019/09/27 17:19:22","新北市八里區中華路二段165巷3號","121.407663333333","25.1508883333333","6502300","八里區"
"249004","303-UY","2019/09/27 17:19:31","新北市八里區賢三街30號","121.418496666667","25.1586816666667","6502300","八里區"
"249002","305-UY","2019/09/27 17:19:23","新北市八里區龍米路二段143號","121.44424","25.14906","6502300","八里區"
"249003","593-UM","2019/09/27 17:19:36","新北市八里區中山路二段439號","121.396786666667","25.1458766666667","6502300","八里區"
"244007","080-UY","2019/09/27 17:19:27","新北市林口區湖子17號","121.385925","25.090795","6501700","林口區"
"244013","KEA-2802","2019/09/27 17:19:37","新北市林口區粉寮69號","121.404818333333","25.0908083333333","6501700","林口區"
"244023","483-VK","2019/09/27 17:19:31","新北市林口區隆林街96號","121.385688333333","25.0751566666667","6501700","林口區"
"244017","485-VK","2019/09/27 17:19:19","新北市林口區粉寮路一段77-1號","121.396968333333","25.0790433333333","6501700","林口區"
"244009","656-BX","2019/09/27 17:19:37","新北市林口區中北一街46號","121.385953333333","25.0878233333333","6501700","林口區"
"244025","837-TS","2019/09/27 17:19:20","新北市林口區仁愛二路63號","121.368508333333","25.07543","6501700","林口區"
"244021","838-TS","2019/09/27 17:19:31","新北市林口區粉寮路一段183號","121.400003333333","25.08226","6501700","林口區"
"231046","719-UM","2019/09/27 17:12:50","新北市新店區直潭路85號","121.531831666667","24.942035","6500600","新店區"
"241011","013-R5","2019/09/27 17:19:24","新北市三重區龍濱路257號","121.501578333333","25.072775","6500200","三重區"
"241028","022-UY","2019/09/27 17:19:34","新北市三重區中正南路144號","121.494221666667","25.05743","6500200","三重區"
"241008","059-VK","2019/09/27 17:19:39","新北市三重區永福街72巷25號","121.479971666667","25.0765116666667","6500200","三重區"
"241026","060-VK","2019/09/27 17:19:32","新北市三重區福裕街46-1號","121.498535","25.0614466666667","6500200","三重區"
"241015","062-VK","2019/09/27 17:19:34","新北市三重區長元街82-1號","121.501865","25.06629","6500200","三重區"
"241017","063-VK","2019/09/27 17:19:20","新北市三重區大同北路85號","121.494835","25.0635783333333","6500200","三重區"
"241024","065-VK","2019/09/27 17:19:33","新北市三重區中正北路193巷21弄43號","121.47927","25.0710083333333","6500200","三重區"
"241007","066-VK","2019/09/27 17:19:34","新北市三重區三和路四段145巷9號","121.484561666667","25.07835","6500200","三重區"
"241002","090-VK","2019/09/27 17:19:24","新北市三重區進安街78號","121.496013333333","25.0847583333333","6500200","三重區"
"241003","091-VK","2019/09/27 17:19:24","新北市三重區富福街35號","121.490926666667","25.0837116666667","6500200","三重區"
"241006","262-UM","2019/09/27 17:19:36","新北市三重區國道路一段39巷6號","121.482168333333","25.072625","6500200","三重區"
"241016","266-UM","2019/09/27 17:19:35","新北市三重區大同北路95巷9號","121.494765","25.0641366666667","6500200","三重區"
"241009","267-UM","2019/09/27 17:19:27","新北市三重區慈愛街10號","121.484583333333","25.0785166666667","6500200","三重區"
"241018","268-UM","2019/09/27 17:19:33","新北市三重區大智街51號","121.492731666667","25.0676883333333","6500200","三重區"
"241032","269-UM","2019/09/27 17:19:21","新北市三重區新北大道一段133巷12號","121.482381666667","25.0609566666667","6500200","三重區"
"241013","270-UM","2019/09/27 17:19:31","新北市三重區三和路三段107巷6號","121.494526666667","25.07292","6500200","三重區"
"241025","271-UM","2019/09/27 17:19:34","新北市三重區中正北路392-1號","121.47584","25.0702483333333","6500200","三重區"
"241030","KED-0822","2019/09/27 17:19:22","新北市三重區成功路73巷21號","121.489685","25.0522933333333","6500200","三重區"
"241004","475-VK","2019/09/27 17:19:33","新北市三重區碧華街337號","121.491728333333","25.0846966666667","6500200","三重區"
"241020","478-VK","2019/09/27 17:19:38","新北市三重區忠孝路一段115號","121.489005","25.0719633333333","6500200","三重區"
"241014","543-UM","2019/09/27 17:19:39","新北市三重區長榮路3號","121.500185","25.0683683333333","6500200","三重區"
"241023","545-UM","2019/09/27 17:19:32","新北市三重區三民街150號","121.48241","25.06538","6500200","三重區"
"241001","547-UM","2019/09/27 17:19:21","新北市三重區集賢路87-1號","121.493678333333","25.08682","6500200","三重區"
"241019","KEA-2593","2019/09/27 17:19:34","新北市三重區自強路二段46號","121.489071666667","25.0696533333333","6500200","三重區"
"241005","AAD-863","2019/09/27 17:19:26","新北市三重區碧華街1號","121.483518333333","25.0810866666667","6500200","三重區"
"241022","KED-0820","2019/09/27 17:19:35","新北市三重區重陽路二段34巷1號","121.486775","25.06309","6500200","三重區"
"241012","887-TS","2019/09/27 17:19:38","新北市三重區仁福街68號","121.498158333333","25.0748216666667","6500200","三重區"
"247016","KEA-2869","2019/09/27 17:19:36","新北市蘆洲區正和街94號","121.468086666667","25.0807366666667","6501400","蘆洲區"
"247010","KED-0682","2019/09/27 17:19:23","新北市蘆洲區中山一路120巷7弄42-1號","121.477013333333","25.082525","6501400","蘆洲區"
"235054","640-BX","2019/09/27 17:19:30","新北市中和區員山路36巷16-2號","121.485378333333","24.991685","6500300","中和區"
"247006","893-R6","2019/09/27 17:19:32","新北市蘆洲區長安街73巷2號","121.462293333333","25.079705","6501400","蘆洲區"
"247022","341-TH","2019/09/27 17:19:31","新北市蘆洲區水湳街36號","121.470623333333","25.0896383333333","6501400","蘆洲區"
"247004","336-TH","2019/09/27 17:19:18","新北市蘆洲區中原路63-1號","121.45867","25.0820466666667","6501400","蘆洲區"
"247024","057-VK","2019/09/27 17:19:20","新北市蘆洲區長榮路416號","121.459521666667","25.088015","6501400","蘆洲區"
"247014","056-VK","2019/09/27 17:19:37","新北市蘆洲區忠孝路62號","121.47145","25.0848983333333","6501400","蘆洲區"
"247018","053-VK","2019/09/27 17:19:36","新北市蘆洲區民權路82巷5弄5號","121.474906666667","25.0882933333333","6501400","蘆洲區"
"247008","002-UY","2019/09/27 17:19:26","新北市蘆洲區信義路34巷118號","121.475613333333","25.0767416666667","6501400","蘆洲區"
"247002","001-UY","2019/09/27 17:19:32","新北市蘆洲區永樂街38巷45弄2號","121.458135","25.08999","6501400","蘆洲區"
"228002","663-BX","2019/09/27 17:19:24","新北市貢寮區雙玉里下雙溪街24號","121.922676666667","25.00991","6502600","貢寮區"
"228001","670-TC","2019/09/27 17:19:24","新北市貢寮區仁理村尖山腳街18-3號","121.925485","25.048325","6502600","貢寮區"
"228003","828-UM","2019/09/27 17:19:24","新北市貢寮區福隆里興隆街24-1號","121.944371666667","25.0166916666667","6502600","貢寮區"
"224010","AGQ-8101","2019/09/27 17:19:23","新北市瑞芳區逢甲路17號","121.809625","25.1085766666667","6501200","瑞芳區"
"224006","676-BX","2019/09/27 17:19:37","新北市瑞芳區傑魚坑路313號","121.786226666667","25.1044433333333","6501200","瑞芳區"
"224009","275-VK","2019/09/27 17:19:27","新北市瑞芳區石崁巷49號","121.837963333333","25.1097866666667","6501200","瑞芳區"
"224008","273-VK","2019/09/27 17:19:19","新北市瑞芳區柴寮路199號","121.82629","25.08539","6501200","瑞芳區"
"224005","271-BY","2019/09/27 17:19:19","新北市瑞芳區南雅路1號","121.892198333333","25.1193016666667","6501200","瑞芳區"
"227001","642-TC","2019/09/27 17:19:20","新北市雙溪區三貂里十三層5號","121.850446666667","25.0653316666667","6502500","雙溪區"
"227002","400-TW","2019/09/27 17:19:21","新北市雙溪區雙溪里大同街12號","121.864848333333","25.0349783333333","6502500","雙溪區"
"251004","009-UM","2019/09/27 17:11:56","新北市淡水區中正東路二段88巷15號","121.459038333333","25.15053","6501000","淡水區"
"251008","181-VK","2019/09/27 17:19:32","新北市淡水區大同路293號","121.46771","25.14239","6501000","淡水區"
"251010","413-VK","2019/09/27 17:19:16","新北市淡水區沙崙路120號","121.423183333333","25.18279","6501000","淡水區"
"251012","441-VK","2019/09/27 17:19:33","新北市淡水區中山北路一段158號","121.444253333333","25.1779633333333","6501000","淡水區"
"251007","442-VK","2019/09/27 17:19:30","新北市淡水區民生路48號","121.461768333333","25.1379983333333","6501000","淡水區"
"251005","443-VK","2019/09/27 17:19:23","新北市淡水區鄧公路19號","121.4514","25.1700416666667","6501000","淡水區"
"251006","561-UM","2019/09/27 17:19:16","新北市淡水區中山路189號","121.441241666667","25.1744833333333","6501000","淡水區"
"251009","575-R6","2019/09/27 17:19:35","新北市淡水區三民街21號","121.439096666667","25.1718633333333","6501000","淡水區"
"251011","650-BX","2019/09/27 17:19:20","新北市淡水區坪頂路59號","121.459068333333","25.1627516666667","6501000","淡水區"
"251002","672-BX","2019/09/27 17:19:33","新北市淡水區中正路二段31號","121.419391666667","25.181605","6501000","淡水區"
"251003","766-UM","2019/09/27 17:19:29","新北市淡水區中正路二段38號","121.41953","25.1823133333333","6501000","淡水區"
"252002","178-VK","2019/09/27 17:19:26","新北市三芝區忠孝街1-14號","121.505535","25.2539583333333","6502100","三芝區"
"233002","762-BX","2019/09/27 17:19:19","新北市烏來區環山路96號","121.548661666667","24.8632133333333","6502900","烏來區"
"247012","KED-0683","2019/09/27 17:19:29","新北市蘆洲區信義路319巷10弄17號","121.477461666667","25.0864783333333","6501400","蘆洲區"
"252001","KED-0821","2019/09/27 17:19:26","新北市三芝區長安街119號","121.498025","25.2596916666667","6502100","三芝區"
"242041","AAC-296","2019/09/27 17:19:22","新北市新莊區中正路481號","121.441305","25.0338133333333","6500500","新莊區"
"242060","986-R7","2019/09/27 17:19:20","新北市新莊區三和路12-17號","121.442293333333","25.03753","6500500","新莊區"
"242005","751-BX","2019/09/27 17:19:34","新北市新莊區新泰路421-7號","121.442436666667","25.0451283333333","6500500","新莊區"
"242029","615-BX","2019/09/27 17:19:22","新北市新莊區幸福路16號","121.459041666667","25.0494783333333","6500500","新莊區"
"242027","613-BX","2019/09/27 17:19:22","新北市新莊區中港一街33號","121.45097","25.0455283333333","6500500","新莊區"
"242058","612-BX","2019/09/27 17:19:21","新北市新莊區新泰路255巷83號","121.442076666667","25.039","6500500","新莊區"
"242048","566-BX","2019/09/27 17:19:35","新北市新莊區福營路492號","121.419616666667","25.023705","6500500","新莊區"
"242054","497-BY","2019/09/27 17:19:09","新北市新莊區環河路462號","121.440138333333","25.0197816666667","6500500","新莊區"
"242019","442-UM","2019/09/27 17:19:26","新北市新莊區公園路226號","121.456743333333","25.04025","6500500","新莊區"
"242002","441-UM","2019/09/27 17:19:18","新北市新莊區瓊林路64號","121.445326666667","25.02861","6500500","新莊區"
"242007","440-UM","2019/09/27 17:19:33","新北市新莊區新泰路500號","121.442391666667","25.0460466666667","6500500","新莊區"
"242044","415-TV","2019/09/27 17:19:33","新北市新莊區富國路101-1號","121.421333333333","25.02556","6500500","新莊區"
"242013","413-TV","2019/09/27 17:19:20","新北市新莊區中和街59巷8號","121.446938333333","25.0468433333333","6500500","新莊區"
"242050","400-BY","2019/09/27 17:19:37","新北市新莊區瓊林路190-2號","121.439453333333","25.0208966666667","6500500","新莊區"
"242025","362-BY","2019/09/27 17:19:25","新北市新莊區中平路82巷36-2號","121.446383333333","25.04488","6500500","新莊區"
"242015","132-UY","2019/09/27 17:19:33","新北市新莊區新泰路271號","121.445691666667","25.0402566666667","6500500","新莊區"
"242039","135-UY","2019/09/27 17:19:26","新北市新莊區新樹路132-1號","121.435778333333","25.0238916666667","6500500","新莊區"
"242056","172-VK","2019/09/27 17:19:29","新北市新莊區中正路473-1號","121.441971666667","25.033075","6500500","新莊區"
"242017","173-VK","2019/09/27 17:19:16","新北市新莊區三和路12-21號","121.442001666667","25.038835","6500500","新莊區"
"242032","175-VK","2019/09/27 17:18:54","新北市新莊區新泰路421-7號","121.442385","25.0450616666667","6500500","新莊區"
"242021","KED-0687","2019/09/27 17:19:30","新北市新莊區公園路128號","121.451975","25.04006","6500500","新莊區"
"242037","348-TH","2019/09/27 17:19:34","新北市新莊區新樹路207-1號","121.435905","25.0240283333333","6500500","新莊區"
"242009","349-TH","2019/09/27 17:19:30","新北市新莊區新泰路500號","121.44244","25.0462133333333","6500500","新莊區"
"242034","350-TH","2019/09/27 17:19:34","新北市新莊區瓊林路60號","121.445443333333","25.0286516666667","6500500","新莊區"
"238023","601-UM","2019/09/27 17:19:20","新北市樹林區中正路433號","121.415041666667","25.0085783333333","6500700","樹林區"
"238019","599-UM","2019/09/27 17:19:34","新北市樹林區太平路262號","121.418308333333","24.97244","6500700","樹林區"
"238018","KEA-2217","2019/09/27 17:19:31","新北市樹林區中華路6-1號","121.424906666667","24.98414","6500700","樹林區"
"238022","KEA-2213","2019/09/27 17:19:24","新北市樹林區中華路37巷12號","121.42406","24.9830183333333","6500700","樹林區"
"238021","KEA-2539","2019/09/27 17:19:38","新北市樹林區西圳街一段56號","121.400743333333","24.96226","6500700","樹林區"
"238017","283-BY","2019/09/27 17:19:35","新北市樹林區光武街32-2號","121.416563333333","25.0062266666667","6500700","樹林區"
"238014","282-BY","2019/09/27 17:19:36","新北市樹林區長壽街70巷31弄21號","121.421681666667","24.99508","6500700","樹林區"
"238020","268-VK","2019/09/27 17:19:29","新北市樹林區千歲街101號","121.428526666667","25.000875","6500700","樹林區"
"238026","172-UY","2019/09/27 17:19:36","新北市樹林區東大街174號","121.409131666667","24.9762083333333","6500700","樹林區"
"238016","169-UY","2019/09/27 17:19:31","新北市樹林區中山路一段247號","121.420585","24.9866483333333","6500700","樹林區"
"239007","AAC-297","2019/09/27 17:19:35","新北市鶯歌區光復街23號","121.351548333333","24.9554466666667","6500800","鶯歌區"
"239006","891-R6","2019/09/27 17:19:35","新北市鶯歌區福昌街22號","121.332998333333","24.9609466666667","6500800","鶯歌區"
"239008","527-UM","2019/09/27 17:19:24","新北市鶯歌區西湖街6-2號","121.340991666667","24.957645","6500800","鶯歌區"
"239005","526-UM","2019/09/27 17:19:37","新北市鶯歌區福德三街11號","121.329785","24.967585","6500800","鶯歌區"
"239001","417-VK","2019/09/27 17:19:32","新北市鶯歌區尖山路173巷1號","121.345021666667","24.9474666666667","6500800","鶯歌區"
"239003","360-BY","2019/09/27 17:19:36","新北市鶯歌區德昌街50號","121.333101666667","24.95991","6500800","鶯歌區"
"239002","359-BY","2019/09/27 17:19:37","新北市鶯歌區建國路170號","121.350151666667","24.9535666666667","6500800","鶯歌區"
"239004","193-VK","2019/09/27 17:19:28","新北市鶯歌區文化路417-5號","121.352911666667","24.948795","6500800","鶯歌區"
"244019","KED-0667","2019/09/27 17:19:24","新北市林口區公園路163號","121.370953333333","25.071455","6501700","林口區"
"233001","KEA-2870","2019/09/27 17:19:21","新北市烏來區信福路6巷6號","121.527483333333","24.84084","6502900","烏來區"
"242046","281-VK","2019/09/27 17:19:32","新北市新莊區新樹路65-5號","121.43945","25.030815","6500500","新莊區"
"242011","280-VK","2019/09/27 17:19:26","新北市新莊區中平路82巷20號","121.44568","25.0448766666667","6500500","新莊區"
"235061","KEA-2875","2019/09/27 17:17:39","新北市中和區員山路36巷16-2號","121.485376666667","24.9917083333333","6500300","中和區"
"235062","KEA-2876","2019/09/27 17:19:31","新北市中和區員山路36巷16-3號","121.485035","24.9913466666667","6500300","中和區"
