"lineid","car","time","location","longitude","latitude","cityid","cityname"
"234026","9371-KE","2019/09/27 17:49:31","新北市永和區永平路180巷7號","121.510893333333","25.009655","6500400","永和區"
"249005","172-UM","2019/09/27 17:49:36","新北市八里區荖阡坑路41-6號","121.402296666667","25.1325733333333","6502300","八里區"
"249001","173-UM","2019/09/27 17:49:22","新北市八里區龍米路二段141號","121.444445","25.1487433333333","6502300","八里區"
"249004","303-UY","2019/09/27 17:49:31","新北市八里區中華路一段309巷19-11號","121.416903333333","25.1534733333333","6502300","八里區"
"249002","305-UY","2019/09/27 17:49:22","新北市八里區龍形三街9巷2號","121.450651666667","25.13181","6502300","八里區"
"249003","593-UM","2019/09/27 17:49:36","新北市八里區文昌路59號","121.410413333333","25.1570316666667","6502300","八里區"
"232011","375-UM","2019/09/27 17:49:29","新北市坪林區北宜路八段246號","121.709235","24.93497","6502000","坪林區"
"244007","080-UY","2019/09/27 17:49:28","新北市林口區竹林路159號","121.388773333333","25.0798816666667","6501700","林口區"
"244013","KEA-2802","2019/09/27 17:49:17","新北市林口區中山路140-1號","121.391561666667","25.078645","6501700","林口區"
"244023","483-VK","2019/09/27 17:49:31","新北市林口區東湖路62號","121.387488333333","25.0741583333333","6501700","林口區"
"244017","485-VK","2019/09/27 17:49:39","新北市林口區文化二路一段230巷22弄1號","121.370348333333","25.0719466666667","6501700","林口區"
"244009","656-BX","2019/09/27 17:49:17","新北市林口區林口路241號","121.386588333333","25.0837533333333","6501700","林口區"
"244011","701-TV","2019/09/27 17:49:29","新北市林口區中正路196號","121.39135","25.077635","6501700","林口區"
"244025","837-TS","2019/09/27 17:49:20","新北市林口區忠孝三路一段110號","121.359823333333","25.0715533333333","6501700","林口區"
"244021","838-TS","2019/09/27 17:49:31","新北市林口區新寮45號","121.404275","25.0647183333333","6501700","林口區"
"222003","436-BY","2019/09/27 17:49:30","新北市深坑區文山路三段110號","121.608278333333","24.9988066666667","6501800","深坑區"
"222002","659-BX","2019/09/27 17:49:31","新北市深坑區平埔街22巷17弄1號","121.614896666667","25.0008566666667","6501800","深坑區"
"241024","065-VK","2019/09/27 17:49:22","新北市三重區車路頭街62巷29號","121.483473333333","25.0725083333333","6500200","三重區"
"241016","266-UM","2019/09/27 17:49:35","新北市三重區新北大道一段56號","121.487358333333","25.0614616666667","6500200","三重區"
"235063","006-UY","2019/09/27 17:49:23","新北市中和區員山路36巷16-3號","121.485073333333","24.9913316666667","6500300","中和區"
"235065","098-UM","2019/09/27 17:49:30","新北市中和區員山路36巷16-3號","121.485138333333","24.9911833333333","6500300","中和區"
"235058","151-BY","2019/09/27 17:49:20","新北市中和區員山路36巷16-2號","121.485228333333","24.9916433333333","6500300","中和區"
"247016","KEA-2869","2019/09/27 17:49:36","新北市蘆洲區中正路185巷23弄19號","121.467495","25.0841216666667","6501400","蘆洲區"
"247010","KED-0682","2019/09/27 17:49:23","新北市蘆洲區信義路212號","121.479026666667","25.0849766666667","6501400","蘆洲區"
"235045","565-BX","2019/09/27 17:49:17","新北市中和區員山路36巷13號","121.484305","24.99103","6500300","中和區"
"235054","640-BX","2019/09/27 17:49:30","新北市中和區員山路36巷16-2號","121.485373333333","24.991635","6500300","中和區"
"235057","801-TS","2019/09/27 17:49:32","新北市中和區員山路36巷16-2號","121.485133333333","24.9916333333333","6500300","中和區"
"235064","911-UM","2019/09/27 17:49:36","新北市中和區員山路36巷16-3號","121.4851","24.99136","6500300","中和區"
"235037","AAC-213","2019/09/27 17:49:27","新北市中和區錦和路350-1號","121.490131666667","24.9935783333333","6500300","中和區"
"247006","893-R6","2019/09/27 17:49:33","新北市蘆洲區長安街22巷10號","121.46455","25.079645","6501400","蘆洲區"
"247020","546-UM","2019/09/27 17:49:25","新北市蘆洲區民權路188-3號","121.471525","25.0908483333333","6501400","蘆洲區"
"247022","341-TH","2019/09/27 17:49:31","新北市蘆洲區中正路408號","121.463093333333","25.0934566666667","6501400","蘆洲區"
"247004","336-TH","2019/09/27 17:49:27","新北市蘆洲區長安街194巷11號","121.459173333333","25.0843066666667","6501400","蘆洲區"
"247024","057-VK","2019/09/27 17:49:20","新北市蘆洲區光榮路63號","121.461153333333","25.0886516666667","6501400","蘆洲區"
"247014","056-VK","2019/09/27 17:49:18","新北市蘆洲區中正路152號","121.469411666667","25.0857066666667","6501400","蘆洲區"
"247018","053-VK","2019/09/27 17:49:36","新北市蘆洲區復興路227巷2弄18號","121.480921666667","25.0903183333333","6501400","蘆洲區"
"247008","002-UY","2019/09/27 17:49:25","新北市蘆洲區中山一路267號","121.472608333333","25.0800233333333","6501400","蘆洲區"
"247002","001-UY","2019/09/27 17:49:32","新北市蘆洲區永平街32巷31號","121.459273333333","25.0920483333333","6501400","蘆洲區"
"226004","312-R5","2019/09/27 17:49:28","新北市平溪區石底里公園街18-3號","121.733291666667","25.0258266666667","6502400","平溪區"
"228002","663-BX","2019/09/27 17:49:24","新北市貢寮區福隆里龜壽谷街12號","121.955945","25.00631","6502600","貢寮區"
"228001","670-TC","2019/09/27 17:49:23","新北市貢寮區真理里新港街26巷28-6號","121.927643333333","25.0553783333333","6502600","貢寮區"
"228003","828-UM","2019/09/27 17:49:24","新北市貢寮區真理里美艷山街6-2號","121.928781666667","25.060765","6502600","貢寮區"
"224006","676-BX","2019/09/27 17:49:37","新北市瑞芳區傑魚坑路183號","121.788455","25.108265","6501200","瑞芳區"
"224009","275-VK","2019/09/27 17:49:27","新北市瑞芳區新山路84號","121.851425","25.1091866666667","6501200","瑞芳區"
"224008","273-VK","2019/09/27 17:49:26","新北市瑞芳區明燈路一段206號","121.818423333333","25.1088083333333","6501200","瑞芳區"
"224005","271-BY","2019/09/27 17:49:31","新北市瑞芳區建基路一段50巷2號","121.817658333333","25.1272516666667","6501200","瑞芳區"
"227001","642-TC","2019/09/27 17:22:48","新北市雙溪區三貂里定福路1-2號","121.850725","25.0633983333333","6502500","雙溪區"
"227002","400-TW","2019/09/27 17:49:21","新北市雙溪區共和里東榮街52號","121.866348333333","25.0336616666667","6502500","雙溪區"
"253006","295-VK","2019/09/27 17:49:21","新北市石門區老崩山2號","121.553291666667","25.291585","6502200","石門區"
"208002","KEA-2872","2019/09/27 17:49:22","新北市金山區磺清路135號","121.63949","25.22771","6502700","金山區"
"251004","009-UM","2019/09/27 17:49:25","新北市淡水區民權一街31號","121.45921","25.1362866666667","6501000","淡水區"
"251008","181-VK","2019/09/27 17:49:32","新北市淡水區八勢路一段123巷12號","121.467056666667","25.1574616666667","6501000","淡水區"
"251010","413-VK","2019/09/27 17:49:37","新北市淡水區沙崙路3號","121.420828333333","25.18106","6501000","淡水區"
"251012","441-VK","2019/09/27 17:49:33","新北市淡水區北新路一段401號","121.467045","25.1824516666667","6501000","淡水區"
"251007","442-VK","2019/09/27 17:49:30","新北市淡水區民生路14號","121.460976666667","25.1378366666667","6501000","淡水區"
"251005","443-VK","2019/09/27 17:49:23","新北市淡水區學府路102巷5-3號","121.450606666667","25.1719233333333","6501000","淡水區"
"251006","561-UM","2019/09/27 17:49:36","新北市淡水區大信街1巷16號","121.440228333333","25.1767683333333","6501000","淡水區"
"251009","575-R6","2019/09/27 17:49:35","新北市淡水區長興街6號","121.443856666667","25.17063","6501000","淡水區"
"251011","650-BX","2019/09/27 17:49:40","新北市淡水區小坪頂13-3號","121.486595","25.1561416666667","6501000","淡水區"
"251002","672-BX","2019/09/27 17:49:33","新北市淡水區中山路102號","121.44245","25.170565","6501000","淡水區"
"251003","766-UM","2019/09/27 17:49:29","新北市淡水區大忠街5巷1號","121.443143333333","25.17642","6501000","淡水區"
"207003","550-UM","2019/09/27 17:49:21","新北市萬里區野柳里東澳路66號","121.69271","25.2009266666667","6502800","萬里區"
"207004","291-VK","2019/09/27 17:49:25","新北市萬里區萬里里瑪鋉路79號","121.688383333333","25.1765733333333","6502800","萬里區"
"252002","178-VK","2019/09/27 17:49:26","新北市三芝區民生街30號","121.5038","25.2566733333333","6502100","三芝區"
"237004","KEA-2597","2019/09/27 17:49:33","新北市三峽區仁愛街18號","121.368298333333","24.932475","6500900","三峽區"
"237009","210-TH","2019/09/27 17:49:36","新北市三峽區大勇路3巷23號","121.367883333333","24.9367916666667","6500900","三峽區"
"237013","252-BX","2019/09/27 17:49:27","新北市三峽區介壽路一段59號","121.375645","24.932635","6500900","三峽區"
"237012","275-BY","2019/09/27 17:49:21","新北市三峽區文化路26號","121.373233333333","24.936","6500900","三峽區"
"237014","433-BY","2019/09/27 17:49:24","新北市三峽區文化路120巷19號","121.371003333333","24.9367833333333","6500900","三峽區"
"237006","5529-G3","2019/09/27 17:49:24","新北市三峽區介壽路二段38巷8號","121.391378333333","24.9350766666667","6500900","三峽區"
"237011","KEA-2596","2019/09/27 17:49:37","新北市三峽區仁愛街26號","121.368386666667","24.932125","6500900","三峽區"
"237015","649-BX","2019/09/27 17:49:32","新北市三峽區白雞149-2號","121.40011","24.90553","6500900","三峽區"
"237010","706-TV","2019/09/27 17:49:31","新北市三峽區文化路216號","121.368228333333","24.9359116666667","6500900","三峽區"
"237005","AKY-6261","2019/09/27 17:49:38","新北市三峽區中山路323號","121.360615","24.9381083333333","6500900","三峽區"
"236042","KED-0685","2019/09/27 17:49:25","新北市土城區城林路6巷80號","121.438713333333","24.9796716666667","6501300","土城區"
"233002","762-BX","2019/09/27 17:49:19","新北市烏來區烏來街6號","121.551456666667","24.8650583333333","6502900","烏來區"
"236079","166-UM","2019/09/27 17:49:35","新北市土城區中央路三段180號","121.430775","24.9650533333333","6501300","土城區"
"236030","253-BX","2019/09/27 17:49:20","新北市土城區城林路6巷80號","121.438651666667","24.979665","6501300","土城區"
"236026","269-VK","2019/09/27 17:49:35","新北市土城區城林路6巷80號","121.438476666667","24.9795583333333","6501300","土城區"
"236014","270-VK","2019/09/27 17:49:29","新北市土城區城林路6巷80號","121.438496666667","24.97963","6501300","土城區"
"236039","271-VK","2019/09/27 17:49:35","新北市土城區城林路6巷80號","121.438468333333","24.9797733333333","6501300","土城區"
"247012","KED-0683","2019/09/27 17:49:29","新北市蘆洲區復興路109號","121.477091666667","25.087905","6501400","蘆洲區"
"236069","KEA-2877","2019/09/27 17:49:22","新北市土城區城林路6巷80號","121.438495","24.9798016666667","6501300","土城區"
"252001","KED-0821","2019/09/27 17:49:26","新北市三芝區中興街一段12號","121.497463333333","25.2593083333333","6502100","三芝區"
"236020","401-BY","2019/09/27 17:49:27","新北市土城區城林路6巷80號","121.43845","24.9795933333333","6501300","土城區"
"236059","912-UM","2019/09/27 17:49:23","新北市土城區中華路二段2號","121.439458333333","24.9795683333333","6501300","土城區"
"236048","913-UM","2019/09/27 17:49:25","新北市土城區城林路6巷80號","121.438586666667","24.9796716666667","6501300","土城區"
"236063","915-UM","2019/09/27 17:49:31","新北市土城區城林路6巷80號","121.438601666667","24.9797133333333","6501300","土城區"
"236055","AAC-216","2019/09/27 17:49:28","新北市土城區城林路6巷80號","121.438476666667","24.97962","6501300","土城區"
"242041","AAC-296","2019/09/27 17:49:22","新北市泰山區貴陽街29號","121.422323333333","25.0329816666667","6500500","新莊區"
"242060","986-R7","2019/09/27 17:49:33","新北市新莊區瓊林南路118-27號","121.433913333333","25.0107533333333","6500500","新莊區"
"242005","751-BX","2019/09/27 17:49:34","新北市新莊區自立街236號","121.45823","25.0454683333333","6500500","新莊區"
"242029","615-BX","2019/09/27 17:49:22","新北市新莊區復興路一段15號","121.445865","25.041665","6500500","新莊區"
"242027","613-BX","2019/09/27 17:49:22","新北市新莊區福壽街153號","121.458001666667","25.0532266666667","6500500","新莊區"
"242058","612-BX","2019/09/27 17:49:32","新北市新莊區中正路708號","121.416208333333","25.0246933333333","6500500","新莊區"
"242048","566-BX","2019/09/27 17:49:36","新北市新莊區萬安街60巷1號","121.420681666667","25.02361","6500500","新莊區"
"242054","497-BY","2019/09/27 17:49:29","新北市新莊區民安西路470-1號","121.431713333333","25.00784","6500500","新莊區"
"242019","442-UM","2019/09/27 17:49:27","新北市新莊區民樂街36號","121.457855","25.0410566666667","6500500","新莊區"
"242002","441-UM","2019/09/27 17:49:38","新北市新莊區景德路119號","121.451393333333","25.0343166666667","6500500","新莊區"
"242007","440-UM","2019/09/27 17:49:32","新北市新莊區福樂街65號","121.457273333333","25.047635","6500500","新莊區"
"242044","415-TV","2019/09/27 17:49:33","新北市新莊區中正路855巷17號","121.420198333333","25.0270216666667","6500500","新莊區"
"242013","413-TV","2019/09/27 17:49:20","新北市新莊區中和街82巷7號","121.448258333333","25.04648","6500500","新莊區"
"242050","400-BY","2019/09/27 17:49:37","新北市新莊區西盛街232巷1-1號","121.428015","25.0163666666667","6500500","新莊區"
"242025","362-BY","2019/09/27 17:49:27","新北市新莊區新北大道二段143號","121.465746666667","25.0612916666667","6500500","新莊區"
"242023","353-BY","2019/09/27 17:49:21","新北市新莊區福樂街62號","121.457733333333","25.04621","6500500","新莊區"
"242015","132-UY","2019/09/27 17:49:33","新北市新莊區新泰路480號","121.442741666667","25.04552","6500500","新莊區"
"242039","135-UY","2019/09/27 17:49:26","新北市新莊區民安路158號","121.424666666667","25.0246266666667","6500500","新莊區"
"242056","172-VK","2019/09/27 17:49:29","新北市新莊區瓊林路40巷15號","121.447171666667","25.0301133333333","6500500","新莊區"
"242017","173-VK","2019/09/27 17:49:36","新北市新莊區永安街80號","121.450808333333","25.0446466666667","6500500","新莊區"
"242032","175-VK","2019/09/27 17:49:34","新北市新莊區新泰路357巷1弄2號","121.44275","25.041265","6500500","新莊區"
"242021","KED-0687","2019/09/27 17:49:30","新北市新莊區永寧街35巷1號","121.45287","25.039305","6500500","新莊區"
"242037","348-TH","2019/09/27 17:49:34","新北市新莊區後港一路87號","121.42763","25.0267483333333","6500500","新莊區"
"242009","349-TH","2019/09/27 17:49:30","新北市新莊區昌明街40號","121.456361666667","25.052135","6500500","新莊區"
"242034","350-TH","2019/09/27 17:49:34","新北市新莊區新樹路13號","121.440808333333","25.0328833333333","6500500","新莊區"
"238015","755-BX","2019/09/27 17:49:37","新北市樹林區復興路141號","121.421348333333","24.9926683333333","6500700","樹林區"
"238023","601-UM","2019/09/27 17:49:38","新北市樹林區龍興街32巷26號","121.40194","25.0155633333333","6500700","樹林區"
"238019","599-UM","2019/09/27 17:49:34","新北市樹林區太順街34號","121.419116666667","24.98015","6500700","樹林區"
"238018","KEA-2217","2019/09/27 17:49:31","新北市樹林區博愛街3-1號","121.4276","24.9928016666667","6500700","樹林區"
"238022","KEA-2213","2019/09/27 17:49:24","新北市樹林區太順街62巷1弄30號","121.416718333333","24.9790716666667","6500700","樹林區"
"238021","KEA-2539","2019/09/27 17:49:38","新北市樹林區柑園街一段33巷26-6號","121.40568","24.9562233333333","6500700","樹林區"
"238025","303-VK","2019/09/27 17:49:35","新北市樹林區三俊街81巷2號","121.415675","25.0154533333333","6500700","樹林區"
"238017","283-BY","2019/09/27 17:49:35","新北市樹林區三德街41號","121.415973333333","25.013505","6500700","樹林區"
"238014","282-BY","2019/09/27 17:49:36","新北市樹林區大安路145巷11號","121.422565","24.99655","6500700","樹林區"
"238020","268-VK","2019/09/27 17:49:29","新北市樹林區俊英街276號","121.424185","25.0125116666667","6500700","樹林區"
"238026","172-UY","2019/09/27 17:49:36","新北市樹林區新興街19巷2弄27號","121.401745","24.9729983333333","6500700","樹林區"
"238016","169-UY","2019/09/27 17:49:31","新北市樹林區大安路493號","121.414601666667","24.9867","6500700","樹林區"
"239007","AAC-297","2019/09/27 17:49:35","新北市鶯歌區鶯桃路永富巷5號","121.338876666667","24.9546233333333","6500800","鶯歌區"
"239006","891-R6","2019/09/27 17:49:22","新北市鶯歌區永和街115巷66-1號","121.333783333333","24.9700216666667","6500800","鶯歌區"
"239008","527-UM","2019/09/27 17:49:24","新北市鶯歌區大湖路700巷22弄15號","121.333788333333","24.9773216666667","6500800","鶯歌區"
"239005","526-UM","2019/09/27 17:49:37","桃園市八德區桃鶯路18號","121.326575","24.9715066666667","6500800","鶯歌區"
"239001","417-VK","2019/09/27 17:49:32","新北市鶯歌區中正三路324號","121.328013333333","24.9352666666667","6500800","鶯歌區"
"239003","360-BY","2019/09/27 17:49:36","新北市鶯歌區鶯桃路285巷43號","121.33388","24.95785","6500800","鶯歌區"
"239002","359-BY","2019/09/27 17:49:37","新北市鶯歌區光明街121號","121.343978333333","24.9557216666667","6500800","鶯歌區"
"239004","193-VK","2019/09/27 17:49:28","新北市鶯歌區文化路393巷2弄2號","121.352841666667","24.9506933333333","6500800","鶯歌區"
"221008","489-VK","2019/09/27 17:49:24","新北市汐止區康寧街901號","121.651481666667","25.0750333333333","6501100","汐止區"
"244019","KED-0667","2019/09/27 17:49:24","新北市林口區文化一路一段84號","121.37239","25.0703716666667","6501700","林口區"
"221010","269-BY","2019/09/27 17:49:37","新北市汐止區汐萬路一段411號","121.649245","25.079395","6501100","汐止區"
"221023","279-VK","2019/09/27 17:49:26","新北市汐止區伯爵街1巷14號","121.641326666667","25.0751766666667","6501100","汐止區"
"221029","298-VK","2019/09/27 17:49:23","新北市汐止區康寧街901號","121.65175","25.0749666666667","6501100","汐止區"
"221031","353-TW","2019/09/27 17:49:20","新北市汐止區汐萬路一段333巷23號","121.64806","25.076215","6501100","汐止區"
"233001","KEA-2870","2019/09/27 17:49:21","新北市烏來區西羅岸路22號","121.54932","24.86737","6502900","烏來區"
"242046","281-VK","2019/09/27 17:49:32","新北市新莊區建國一路72號","121.434371666667","25.0305066666667","6500500","新莊區"
"242011","280-VK","2019/09/27 17:49:32","新北市新莊區中港路672號","121.450785","25.056515","6500500","新莊區"
"235061","KEA-2875","2019/09/27 17:49:23","新北市中和區員山路36巷16-4號","121.485323333333","24.9918516666667","6500300","中和區"
"235062","KEA-2876","2019/09/27 17:49:26","新北市中和區員山路36巷16-3號","121.485041666667","24.9913366666667","6500300","中和區"
