"lineid","car","time","location","longitude","latitude","cityid","cityname"
"234026","9371-KE","2019/09/27 17:59:31","新北市永和區水源街2巷15號","121.51203","25.0056983333333","6500400","永和區"
"249005","172-UM","2019/09/27 17:59:36","新北市八里區荖阡坑路16-8號","121.398781666667","25.1386366666667","6502300","八里區"
"249001","173-UM","2019/09/27 17:59:22","新北市八里區龍米路二段39號","121.448358333333","25.1401533333333","6502300","八里區"
"249004","303-UY","2019/09/27 17:59:31","新北市八里區龍米路三段15號","121.42811","25.158915","6502300","八里區"
"249002","305-UY","2019/09/27 17:59:23","新北市八里區龍形五街15號","121.450048333333","25.1334916666667","6502300","八里區"
"249003","593-UM","2019/09/27 17:59:36","新北市八里區中華路二段203號","121.405356666667","25.1495183333333","6502300","八里區"
"248008","KED-0815","2019/09/27 17:59:29","新北市五股區中興路二段150號","121.458603333333","25.0785566666667","6501500","五股區"
"248018","KED-0813","2019/09/27 17:59:34","新北市五股區中興路二段63巷17號","121.460333333333","25.0753766666667","6501500","五股區"
"248004","677-BX","2019/09/27 17:59:17","新北市五股區中興路二段182巷3號","121.45632","25.0781183333333","6501500","五股區"
"232011","375-UM","2019/09/27 17:59:29","新北市坪林區北宜路八段165號","121.70741","24.9345816666667","6502000","坪林區"
"244007","080-UY","2019/09/27 17:59:27","新北市林口區林口路154號","121.387891666667","25.0822116666667","6501700","林口區"
"244013","KEA-2802","2019/09/27 17:59:37","新北市林口區中山路34號","121.395698333333","25.0784566666667","6501700","林口區"
"244023","483-VK","2019/09/27 17:59:31","新北市林口區東湖路41巷22號","121.386311666667","25.0730366666667","6501700","林口區"
"244017","485-VK","2019/09/27 17:59:19","新北市林口區忠孝路498號","121.370581666667","25.0702633333333","6501700","林口區"
"244009","656-BX","2019/09/27 17:59:37","新北市林口區佳林路56巷6弄20號","121.3853","25.0824083333333","6501700","林口區"
"244011","701-TV","2019/09/27 17:59:29","新北市林口區中正路32號","121.395718333333","25.0775833333333","6501700","林口區"
"244025","837-TS","2019/09/27 17:59:20","新北市林口區三民路77-6號","121.358915","25.068585","6501700","林口區"
"244021","838-TS","2019/09/27 17:59:31","新北市林口區粉寮路一段1號","121.396338333333","25.075815","6501700","林口區"
"222003","436-BY","2019/09/27 17:59:30","新北市深坑區炮子崙23號","121.60716","24.990935","6501800","深坑區"
"222002","659-BX","2019/09/27 17:59:31","新北市深坑區文化街96號","121.617116666667","25.0019066666667","6501800","深坑區"
"241024","065-VK","2019/09/27 17:59:22","新北市三重區力行路二段30巷34號","121.480216666667","25.0728366666667","6500200","三重區"
"241016","266-UM","2019/09/27 17:59:36","新北市三重區大有街25號","121.46746","25.06483","6500200","三重區"
"235063","006-UY","2019/09/27 17:59:23","新北市中和區員山路36巷16-3號","121.485045","24.9912616666667","6500300","中和區"
"235065","098-UM","2019/09/27 17:59:30","新北市中和區民樂路69-2號","121.484111666667","25.00139","6500300","中和區"
"235058","151-BY","2019/09/27 17:59:20","新北市中和區圓通路367巷2號","121.491326666667","24.989415","6500300","中和區"
"235038","185-VK","2019/09/27 17:59:38","新北市中和區中正路273號","121.495703333333","24.9936633333333","6500300","中和區"
"235043","352-BY","2019/09/27 17:59:16","新北市中和區員山路36巷16-3號","121.4851","24.9914666666667","6500300","中和區"
"235042","KEA-2878","2019/09/27 17:59:35","新北市中和區錦和路350-1號","121.490293333333","24.99356","6500300","中和區"
"247016","KEA-2869","2019/09/27 17:59:36","新北市蘆洲區光華路110巷38號","121.465908333333","25.0840733333333","6501400","蘆洲區"
"235045","565-BX","2019/09/27 17:59:37","新北市中和區中正路637巷52弄1號","121.485506666667","24.9934066666667","6500300","中和區"
"235060","KED-0823","2019/09/27 17:59:32","新北市中和區員山路36巷13號","121.484301666667","24.990655","6500300","中和區"
"235054","640-BX","2019/09/27 17:59:30","新北市中和區連城路518巷1號","121.47667","24.9918466666667","6500300","中和區"
"235057","801-TS","2019/09/27 17:59:32","新北市中和區民利街20號","121.480401666667","24.99915","6500300","中和區"
"235041","802-TS","2019/09/27 17:59:36","新北市中和區員山路36巷16-2號","121.485381666667","24.9915233333333","6500300","中和區"
"235053","900-TW","2019/09/27 17:59:34","新北市中和區員山路36巷16-2號","121.485318333333","24.9915216666667","6500300","中和區"
"235064","911-UM","2019/09/27 17:59:36","新北市中和區錦和路350-1號","121.490411666667","24.9935533333333","6500300","中和區"
"235051","157-BY","2019/09/27 17:59:20","新北市中和區中正路637巷60弄61號","121.485448333333","24.99329","6500300","中和區"
"235037","AAC-213","2019/09/27 17:59:27","新北市中和區景平路245號","121.50918","24.9929166666667","6500300","中和區"
"247006","893-R6","2019/09/27 17:59:32","新北市蘆洲區中華街2號","121.463673333333","25.081735","6501400","蘆洲區"
"247014","056-VK","2019/09/27 17:59:37","新北市蘆洲區忠孝路110號","121.471425","25.08646","6501400","蘆洲區"
"247018","053-VK","2019/09/27 17:59:36","新北市蘆洲區復興路197號","121.47936","25.0894866666667","6501400","蘆洲區"
"247008","002-UY","2019/09/27 17:59:25","新北市蘆洲區中山一路263號","121.47273","25.080135","6501400","蘆洲區"
"247002","001-UY","2019/09/27 17:59:32","新北市蘆洲區永平街32巷64弄1號","121.460238333333","25.0931883333333","6501400","蘆洲區"
"226004","312-R5","2019/09/27 17:59:28","新北市平溪區石底里公園街18-3號","121.733363333333","25.0258933333333","6502400","平溪區"
"228002","663-BX","2019/09/27 17:59:24","新北市貢寮區福連里香蘭街2-1號","121.968945","25.02346","6502600","貢寮區"
"228001","670-TC","2019/09/27 17:59:23","新北市貢寮區仁理村仁愛路106巷36號","121.92912","25.0537383333333","6502600","貢寮區"
"228003","828-UM","2019/09/27 17:59:24","新北市貢寮區真理里美艷山街6-2號","121.928833333333","25.060745","6502600","貢寮區"
"224006","676-BX","2019/09/27 17:59:16","新北市瑞芳區傑魚坑路319-1號","121.785725","25.103495","6501200","瑞芳區"
"224007","285-BY","2019/09/27 17:59:20","新北市瑞芳區大寮路84號","121.780328333333","25.101255","6501200","瑞芳區"
"224009","275-VK","2019/09/27 17:59:26","新北市瑞芳區山尖路189號","121.851248333333","25.1124383333333","6501200","瑞芳區"
"224008","273-VK","2019/09/27 17:59:19","新北市瑞芳區明燈路一段45巷100號","121.821206666667","25.1040233333333","6501200","瑞芳區"
"224005","271-BY","2019/09/27 17:59:18","新北市瑞芳區深澳路189-8號","121.821068333333","25.1342483333333","6501200","瑞芳區"
"227002","400-TW","2019/09/27 17:59:21","新北市雙溪區共和里東榮街52號","121.866301666667","25.033685","6502500","雙溪區"
"253005","032-BX","2019/09/27 17:59:21","新北市石門區中山路62-7號","121.567346666667","25.290225","6502200","石門區"
"253006","295-VK","2019/09/27 17:59:35","新北市石門區大丘田45-1號","121.549778333333","25.27507","6502200","石門區"
"222001","KEA-2212","2019/09/27 17:59:37","新北市深坑區北深路二段189號","121.612186666667","25.00129","6501800","深坑區"
"208002","KEA-2872","2019/09/27 17:59:22","新北市金山區三界壇路5號","121.628793333333","25.22759","6502700","金山區"
"208003","665-BX","2019/09/27 17:59:25","新北市金山區磺港里磺港路203號","121.645023333333","25.2275133333333","6502700","金山區"
"251004","009-UM","2019/09/27 17:59:26","新北市淡水區民權路187號","121.459518333333","25.1335816666667","6501000","淡水區"
"251008","181-VK","2019/09/27 17:59:32","新北市淡水區八勢一街57號","121.46194","25.1553483333333","6501000","淡水區"
"251010","413-VK","2019/09/27 17:59:37","新北市淡水區淡海路46號","121.423133333333","25.179995","6501000","淡水區"
"251012","441-VK","2019/09/27 17:59:33","新北市淡水區北新路三段38巷7號","121.4845","25.1870016666667","6501000","淡水區"
"251005","443-VK","2019/09/27 17:59:23","新北市淡水區英專路133號","121.446445","25.172745","6501000","淡水區"
"251006","561-UM","2019/09/27 17:59:36","新北市淡水區新生街18號","121.438891666667","25.1735033333333","6501000","淡水區"
"251009","575-R6","2019/09/27 17:59:35","新北市淡水區中山路123號","121.4416","25.17098","6501000","淡水區"
"251011","650-BX","2019/09/27 17:57:20","新北市淡水區吳(仔)厝28號","121.479515","25.1492366666667","6501000","淡水區"
"251002","672-BX","2019/09/27 17:59:33","新北市淡水區中山路38號","121.444263333333","25.1698733333333","6501000","淡水區"
"251003","766-UM","2019/09/27 17:59:29","新北市淡水區大忠街45號","121.444676666667","25.1763783333333","6501000","淡水區"
"207003","550-UM","2019/09/27 17:59:21","新北市萬里區野柳里東澳路66號","121.6927","25.200915","6502800","萬里區"
"207004","291-VK","2019/09/27 17:59:25","新北市萬里區萬里里瑪鋉路5號","121.68612","25.174965","6502800","萬里區"
"252002","178-VK","2019/09/27 17:59:26","新北市三芝區中山路二段38號","121.50299","25.25515","6502100","三芝區"
"208001","170-UY","2019/09/27 17:59:36","新北市金山區磺港里磺港路228號","121.64463","25.2257216666667","6502700","金山區"
"237004","KEA-2597","2019/09/27 17:59:33","新北市三峽區大埔路115號","121.36652","24.9067983333333","6500900","三峽區"
"237007","153-BY","2019/09/27 17:59:26","新北市三峽區中園街122號","121.367181666667","24.92229","6500900","三峽區"
"237009","210-TH","2019/09/27 17:59:27","新北市三峽區大勇路36巷28號","121.365953333333","24.937275","6500900","三峽區"
"237013","252-BX","2019/09/27 17:59:27","新北市三峽區長泰街70-2號","121.376695","24.9335783333333","6500900","三峽區"
"237012","275-BY","2019/09/27 17:59:21","新北市三峽區民生街29號","121.375825","24.93635","6500900","三峽區"
"237008","302-VK","2019/09/27 17:59:24","新北市三峽區白雞28號","121.368978333333","24.9124383333333","6500900","三峽區"
"237014","433-BY","2019/09/27 17:59:25","新北市三峽區和平街36巷7弄3號","121.370808333333","24.93734","6500900","三峽區"
"237006","5529-G3","2019/09/27 17:59:24","新北市三峽區介壽路二段38巷104號","121.392296666667","24.93334","6500900","三峽區"
"237011","KEA-2596","2019/09/27 17:59:37","新北市三峽區光明路60號","121.37476","24.9295583333333","6500900","三峽區"
"237015","649-BX","2019/09/27 17:59:32","新北市三峽區紫微路74號","121.412128333333","24.9158766666667","6500900","三峽區"
"237010","706-TV","2019/09/27 17:59:31","新北市三峽區民權街162號","121.368011666667","24.930535","6500900","三峽區"
"237005","AKY-6261","2019/09/27 17:59:18","新北市三峽區復興路239-1號","121.368205","24.9386466666667","6500900","三峽區"
"236042","KED-0685","2019/09/27 17:59:25","新北市土城區城林路6巷80號","121.438706666667","24.9796683333333","6501300","土城區"
"233002","762-BX","2019/09/27 17:59:39","新北市烏來區烏來街139號","121.551545","24.8625783333333","6502900","烏來區"
"236079","166-UM","2019/09/27 17:59:35","新北市土城區永寧路32巷10弄23號","121.428896666667","24.96102","6501300","土城區"
"236030","253-BX","2019/09/27 17:59:20","新北市土城區城林路6巷80號","121.438673333333","24.9796683333333","6501300","土城區"
"236026","269-VK","2019/09/27 17:59:35","新北市土城區承天路18號","121.439226666667","24.96373","6501300","土城區"
"236014","270-VK","2019/09/27 17:59:28","新北市土城區城林路6巷80號","121.438601666667","24.979745","6501300","土城區"
"236039","271-VK","2019/09/27 17:59:35","新北市土城區員福街50號","121.440421666667","24.9790916666667","6501300","土城區"
"247012","KED-0683","2019/09/27 17:59:29","新北市蘆洲區民族路220號","121.479658333333","25.087935","6501400","蘆洲區"
"236069","KEA-2877","2019/09/27 17:59:22","新北市土城區員福街30號","121.441288333333","24.9787883333333","6501300","土城區"
"252001","KED-0821","2019/09/27 17:59:26","新北市三芝區中興街二段2號","121.498358333333","25.2567133333333","6502100","三芝區"
"236020","401-BY","2019/09/27 17:59:27","新北市土城區城林路6巷80號","121.438421666667","24.9796016666667","6501300","土城區"
"236059","912-UM","2019/09/27 17:59:23","新北市土城區中央路三段226號","121.429001666667","24.96441","6501300","土城區"
"236048","913-UM","2019/09/27 17:59:25","新北市土城區城林路6巷80號","121.438538333333","24.9800016666667","6501300","土城區"
"236063","915-UM","2019/09/27 17:59:31","新北市土城區城林路6巷80號","121.438625","24.9797233333333","6501300","土城區"
"236055","AAC-216","2019/09/27 17:59:28","新北市土城區城林路6巷80號","121.438461666667","24.9796166666667","6501300","土城區"
"242041","AAC-296","2019/09/27 17:59:22","新北市新莊區中正路723-7號","121.423138333333","25.02917","6500500","新莊區"
"242060","986-R7","2019/09/27 17:59:26","新北市新莊區新樹路583號","121.432955","25.0068033333333","6500500","新莊區"
"242005","751-BX","2019/09/27 17:59:35","新北市新莊區福樂街71巷13號","121.456768333333","25.0473916666667","6500500","新莊區"
"242029","615-BX","2019/09/27 17:59:22","新北市新莊區中平路110巷15號","121.44585","25.046165","6500500","新莊區"
"242027","613-BX","2019/09/27 17:59:33","新北市新莊區思源路373號","121.459755","25.05102","6500500","新莊區"
"242058","612-BX","2019/09/27 17:59:21","新北市新莊區中山路三段551號","121.412466666667","25.0270433333333","6500500","新莊區"
"242048","566-BX","2019/09/27 17:59:35","新北市新莊區萬安街34號","121.42131","25.0242583333333","6500500","新莊區"
"242054","497-BY","2019/09/27 17:59:29","新北市新莊區民安西路327巷4弄19號","121.428741666667","25.011195","6500500","新莊區"
"242019","442-UM","2019/09/27 17:59:26","新北市新莊區明中街51巷4號","121.45648","25.0394566666667","6500500","新莊區"
"242002","441-UM","2019/09/27 17:59:18","新北市新莊區中正路153-1號","121.455993333333","25.03675","6500500","新莊區"
"242007","440-UM","2019/09/27 17:59:32","新北市新莊區自信街63號","121.455405","25.048275","6500500","新莊區"
"242044","415-TV","2019/09/27 17:59:33","新北市新莊區雙鳳路121號","121.413361666667","25.02793","6500500","新莊區"
"242013","413-TV","2019/09/27 17:59:20","新北市新莊區中和街125巷3號","121.447115","25.0485833333333","6500500","新莊區"
"242050","400-BY","2019/09/27 17:59:37","新北市新莊區西盛街155號","121.428215","25.017965","6500500","新莊區"
"242025","362-BY","2019/09/27 17:59:25","新北市新莊區五工路58號","121.458805","25.0628266666667","6500500","新莊區"
"242023","353-BY","2019/09/27 17:59:21","新北市新莊區福壽街63號","121.458223333333","25.04924","6500500","新莊區"
"242015","132-UY","2019/09/27 17:59:33","新北市新莊區中平路119巷8號","121.444348333333","25.046705","6500500","新莊區"
"242039","135-UY","2019/09/27 17:59:26","新北市新莊區民安西路24巷9號","121.42643","25.021145","6500500","新莊區"
"242056","172-VK","2019/09/27 17:59:29","新北市新莊區豐年街122-3號","121.446336666667","25.0298616666667","6500500","新莊區"
"242017","173-VK","2019/09/27 17:59:36","新北市新莊區永樂街164號","121.448823333333","25.044725","6500500","新莊區"
"242032","175-VK","2019/09/27 17:59:37","新北市新莊區新泰路305巷6號","121.444873333333","25.0409783333333","6500500","新莊區"
"242021","KED-0687","2019/09/27 17:59:30","新北市新莊區建中街2號","121.44996","25.0375666666667","6500500","新莊區"
"242037","348-TH","2019/09/27 17:59:34","新北市新莊區建福路31號","121.426405","25.0286366666667","6500500","新莊區"
"242009","349-TH","2019/09/27 17:59:30","新北市新莊區中華路二段316號","121.452465","25.0540233333333","6500500","新莊區"
"242034","350-TH","2019/09/27 17:59:34","新北市新莊區景德路409-1號","121.445248333333","25.0333366666667","6500500","新莊區"
"238015","755-BX","2019/09/27 17:59:32","新北市樹林區大安路307巷2弄10號","121.417868333333","24.9917616666667","6500700","樹林區"
"238023","601-UM","2019/09/27 17:59:40","新北市樹林區龍興街46巷14號","121.402525","25.0153916666667","6500700","樹林區"
"238019","599-UM","2019/09/27 17:59:34","新北市樹林區太平路148號","121.418568333333","24.9781216666667","6500700","樹林區"
"238018","KEA-2217","2019/09/27 17:59:31","新北市樹林區樹新路80號","121.429331666667","24.9973466666667","6500700","樹林區"
"238022","KEA-2213","2019/09/27 17:59:24","新北市樹林區太平路150巷11號","121.418038333333","24.9777783333333","6500700","樹林區"
"238021","KEA-2539","2019/09/27 17:59:38","新北市樹林區柑園街二段18號","121.387983333333","24.9557816666667","6500700","樹林區"
"238025","303-VK","2019/09/27 17:59:35","新北市樹林區俊興街211巷8號","121.417191666667","25.014675","6500700","樹林區"
"238017","283-BY","2019/09/27 17:59:35","新北市樹林區中正路464號","121.412933333333","25.0128283333333","6500700","樹林區"
"238014","282-BY","2019/09/27 17:59:36","新北市樹林區中正路45巷4號","121.42668","24.9994533333333","6500700","樹林區"
"238020","268-VK","2019/09/27 17:59:29","新北市樹林區三俊街199巷35-3號","121.420901666667","25.018165","6500700","樹林區"
"238026","172-UY","2019/09/27 17:59:16","新北市樹林區中洲街30巷13弄15號","121.398021666667","24.971925","6500700","樹林區"
"238016","169-UY","2019/09/27 17:59:31","新北市樹林區育英街128號","121.419745","24.9893416666667","6500700","樹林區"
"239007","AAC-297","2019/09/27 17:59:35","新北市鶯歌區鶯桃路94巷33號","121.342145","24.9545","6500800","鶯歌區"
"239006","891-R6","2019/09/27 17:59:32","新北市鶯歌區鶯桃路413巷76號","121.329725","24.9630916666667","6500800","鶯歌區"
"239008","527-UM","2019/09/27 17:59:24","新北市鶯歌區香賓街11巷18號","121.336266666667","24.9798283333333","6500800","鶯歌區"
"239005","526-UM","2019/09/27 17:59:16","新北市鶯歌區鶯桃路668巷73號","121.329906666667","24.9717583333333","6500800","鶯歌區"
"239001","417-VK","2019/09/27 17:59:32","新北市鶯歌區中正三路238號","121.330186666667","24.93677","6500800","鶯歌區"
"239003","360-BY","2019/09/27 17:59:36","新北市鶯歌區鶯桃路246號","121.336138333333","24.959615","6500800","鶯歌區"
"239002","359-BY","2019/09/27 17:59:37","新北市鶯歌區光明街31號","121.348348333333","24.9558916666667","6500800","鶯歌區"
"239004","193-VK","2019/09/27 17:59:28","新北市鶯歌區中正二路91號","121.348638333333","24.9495466666667","6500800","鶯歌區"
"221008","489-VK","2019/09/27 17:59:29","新北市汐止區康寧街607號","121.635775","25.0710016666667","6501100","汐止區"
"244019","KED-0667","2019/09/27 17:59:29","新北市林口區麗園路54號","121.373596666667","25.0695066666667","6501700","林口區"
"221010","269-BY","2019/09/27 17:59:37","新北市汐止區汐萬路二段247號","121.646463333333","25.0882483333333","6501100","汐止區"
"221023","279-VK","2019/09/27 17:59:26","新北市汐止區明峰街84號","121.631438333333","25.0711866666667","6501100","汐止區"
"221029","298-VK","2019/09/27 17:59:23","新北市汐止區樟樹二路325號","121.641288333333","25.0702183333333","6501100","汐止區"
"221031","353-TW","2019/09/27 17:59:20","新北市汐止區中興路96巷1-3號","121.635245","25.0625316666667","6501100","汐止區"
"221035","622-UM","2019/09/27 17:59:29","新北市汐止區汐萬路一段306號","121.650458333333","25.07459","6501100","汐止區"
"221033","647-BX","2019/09/27 17:59:20","新北市汐止區合順街27號","121.620291666667","25.04318","6501100","汐止區"
"233001","KEA-2870","2019/09/27 17:59:20","新北市烏來區西羅岸路22號","121.549318333333","24.86738","6502900","烏來區"
"242046","281-VK","2019/09/27 17:59:32","新北市新莊區福營路165巷43號","121.432901666667","25.0299066666667","6500500","新莊區"
"242011","280-VK","2019/09/27 17:59:32","新北市新莊區中榮街56巷10號","121.449233333333","25.053495","6500500","新莊區"
"235061","KEA-2875","2019/09/27 17:59:23","新北市中和區連城路569巷9弄22號","121.479841666667","24.99347","6500300","中和區"
"235062","KEA-2876","2019/09/27 17:59:26","新北市中和區民樂路66號","121.484066666667","25.0012583333333","6500300","中和區"
