"lineid","car","time","location","longitude","latitude","cityid","cityname"
"249004","303-UY","2019/09/27 20:49:30","新北市八里區中山路一段63號","121.41839","25.1595666666667","6502300","八里區"
"234074","AAC-211","2019/09/27 20:49:39","新北市永和區竹林路91巷60弄70號","121.522913333333","25.0121933333333","6500400","永和區"
"222003","436-BY","2019/09/27 20:49:30","新北市深坑區文山路三段48-1號","121.609958333333","24.9984966666667","6501800","深坑區"
"222002","659-BX","2019/09/27 20:49:30","新北市深坑區北深路三段93巷37號","121.604718333333","25.0003483333333","6501800","深坑區"
"231060","001-UM","2019/09/27 20:49:31","新北市新店區安康路三段740號","121.473801666667","24.942015","6500600","新店區"
"231061","002-UM","2019/09/27 20:49:33","新北市新店區新和街93巷8號","121.52082","24.9866683333333","6500600","新店區"
"231044","046-UY","2019/09/27 20:49:28","新北市新店區溪園路401號","121.523766666667","24.9780583333333","6500600","新店區"
"231051","107-UY","2019/09/27 20:49:18","新北市新店區中正路663巷3弄8號","121.533183333333","24.9902816666667","6500600","新店區"
"231049","108-UY","2019/09/27 20:49:34","新北市新店區華潭街52號","121.52919","24.9551516666667","6500600","新店區"
"231065","110-UY","2019/09/27 20:49:21","新北市新店區安祥路69巷17號","121.481946666667","24.961375","6500600","新店區"
"231068","187-VK","2019/09/27 20:49:38","新北市新店區寶元路二段11號","121.546085","24.9823483333333","6500600","新店區"
"231062","256-BX","2019/09/27 20:49:23","新北市新店區和成街15巷31號","121.488831666667","24.9471616666667","6500600","新店區"
"231054","260-TV","2019/09/27 20:49:37","新北市新店區大新街1號","121.543715","24.9689083333333","6500600","新店區"
"231042","268-BY","2019/09/27 20:49:20","新北市新店區寶高路130號","121.555166666667","24.9760416666667","6500600","新店區"
"231064","278-BY","2019/09/27 20:49:35","新北市新店區安民街322巷12號","121.518308333333","24.9741216666667","6500600","新店區"
"231050","AAD-862","2019/09/27 20:49:36","新北市新店區三民路117巷2弄1號","121.53462","24.97181","6500600","新店區"
"231058","3713-VJ","2019/09/27 20:49:20","新北市新店區平等街71號","121.535856666667","24.9723133333333","6500600","新店區"
"231067","4772-VM","2019/09/27 20:49:18","新北市新店區安康路二段22號","121.515856666667","24.9637783333333","6500600","新店區"
"231053","512-UM","2019/09/27 20:49:33","新北市新店區新烏路二段42-1號","121.545895","24.9294466666667","6500600","新店區"
"231040","617-UM","2019/09/27 20:49:25","新北市新店區中正路270號","121.538955","24.9735666666667","6500600","新店區"
"231041","619-UM","2019/09/27 20:49:27","新北市新店區中正路707號","121.533796666667","24.9911266666667","6500600","新店區"
"231063","641-BX","2019/09/27 20:49:35","新北市新店區如意街18-1號","121.494263333333","24.9483616666667","6500600","新店區"
"231048","KED-0819","2019/09/27 20:49:33","新北市新店區文化路71巷1號","121.544756666667","24.9821733333333","6500600","新店區"
"231057","720-UM","2019/09/27 20:49:36","新北市新店區北宜路一段48號","121.538391666667","24.9564933333333","6500600","新店區"
"231059","897-TW","2019/09/27 20:49:29","新北市新店區僑愛五路32號","121.499045","24.9443616666667","6500600","新店區"
"231043","899-TW","2019/09/27 20:49:37","新北市新店區建國路129號","121.539623333333","24.9780616666667","6500600","新店區"
"231066","AKT-0513","2019/09/27 20:49:34","新北市新店區吉安街20號","121.516428333333","24.9658583333333","6500600","新店區"
"241011","013-R5","2019/09/27 20:49:36","新北市三重區龍濱路249號","121.50146","25.07255","6500200","三重區"
"241028","022-UY","2019/09/27 20:49:29","新北市三重區中正南路48號","121.493943333333","25.0599683333333","6500200","三重區"
"241008","059-VK","2019/09/27 20:49:35","新北市三重區永福街72巷11號","121.479421666667","25.07679","6500200","三重區"
"241026","060-VK","2019/09/27 20:49:32","新北市三重區和平街1號","121.500066666667","25.0623116666667","6500200","三重區"
"241015","062-VK","2019/09/27 20:49:35","新北市三重區自強路一段8號","121.49878","25.0682616666667","6500200","三重區"
"241017","063-VK","2019/09/27 20:49:20","新北市三重區自強路一段272號","121.492163333333","25.0676766666667","6500200","三重區"
"241024","065-VK","2019/09/27 20:49:22","新北市三重區中正北路253號","121.47556","25.070865","6500200","三重區"
"241007","066-VK","2019/09/27 20:49:33","新北市三重區慈愛街10號","121.484536666667","25.0783916666667","6500200","三重區"
"241002","090-VK","2019/09/27 20:49:24","新北市三重區仁義街157巷50號","121.498218333333","25.0815566666667","6500200","三重區"
"241003","091-VK","2019/09/27 20:49:24","新北市三重區集賢路87-1號","121.493623333333","25.0868233333333","6500200","三重區"
"241006","262-UM","2019/09/27 20:49:39","新北市三重區車路頭街137號","121.48401","25.0762366666667","6500200","三重區"
"241016","266-UM","2019/09/27 20:49:35","新北市三重區自強路一段232號","121.493426666667","25.0668466666667","6500200","三重區"
"241009","267-UM","2019/09/27 20:49:26","新北市三重區三和路四段197號","121.482101666667","25.079275","6500200","三重區"
"241018","268-UM","2019/09/27 20:49:36","新北市三重區自強路一段236號","121.493285","25.0670633333333","6500200","三重區"
"241032","269-UM","2019/09/27 20:49:23","新北市三重區重陽路一段120巷48號","121.485058333333","25.06014","6500200","三重區"
"241013","270-UM","2019/09/27 20:49:30","新北市三重區仁賢街12-1號","121.495751666667","25.0749066666667","6500200","三重區"
"241025","271-UM","2019/09/27 20:49:28","新北市三重區貴陽街14號","121.484238333333","25.0618333333333","6500200","三重區"
"241035","KEA-2210","2019/09/27 20:49:31","新北市三重區文化北路89號","121.498138333333","25.06777","6500200","三重區"
"241030","KED-0822","2019/09/27 20:49:21","新北市三重區昌隆街26號","121.492013333333","25.0522383333333","6500200","三重區"
"241004","475-VK","2019/09/27 20:49:33","新北市三重區分子尾街52號","121.489218333333","25.0815133333333","6500200","三重區"
"241020","478-VK","2019/09/27 20:49:36","新北市三重區忠孝路二段6號","121.486411666667","25.0712316666667","6500200","三重區"
"241014","543-UM","2019/09/27 20:49:38","新北市三重區長壽街120巷60號","121.501726666667","25.0703483333333","6500200","三重區"
"241023","545-UM","2019/09/27 20:49:32","新北市三重區忠孝路三段84巷1號","121.48032","25.06472","6500200","三重區"
"241001","547-UM","2019/09/27 20:49:22","新北市三重區自強路三段101號","121.487863333333","25.0754116666667","6500200","三重區"
"241019","KEA-2593","2019/09/27 20:49:24","新北市三重區三張街104號","121.487903333333","25.0698983333333","6500200","三重區"
"241005","AAD-863","2019/09/27 20:49:26","新北市三重區三信路182號","121.488011666667","25.0861516666667","6500200","三重區"
"241031","743-BX","2019/09/27 20:49:23","新北市三重區重陽路一段113巷1弄1號","121.487495","25.0597983333333","6500200","三重區"
"241022","KED-0820","2019/09/27 20:49:21","新北市三重區過圳街27-5號","121.48793","25.062425","6500200","三重區"
"241012","887-TS","2019/09/27 20:49:37","新北市三重區仁信街29號","121.501248333333","25.0755416666667","6500200","三重區"
"241029","942-UM","2019/09/27 20:49:17","新北市三重區重安街14號","121.490185","25.05811","6500200","三重區"
"235055","183-VK","2019/09/27 20:49:22","新北市八里區中山路三段227號","121.382115","25.1404366666667","6500300","中和區"
"235043","352-BY","2019/09/27 20:49:16","新北市五股區成泰路三段590-3號","121.45314","25.10575","6500300","中和區"
"247016","KEA-2869","2019/09/27 20:49:25","新北市蘆洲區中正路54-1號","121.470618333333","25.0829033333333","6501400","蘆洲區"
"247010","KED-0682","2019/09/27 20:49:22","新北市蘆洲區鷺江街91號","121.476903333333","25.0837683333333","6501400","蘆洲區"
"235069","4980-A6","2019/09/27 20:49:25","新北市中和區新生街197號","121.483785","25.00011","6500300","中和區"
"247006","893-R6","2019/09/27 20:49:25","新北市蘆洲區永安南路二段16巷8號","121.467758333333","25.077235","6501400","蘆洲區"
"247004","500-BY","2019/09/27 20:49:33","新北市蘆洲區長安街101號","121.461591666667","25.08083","6501400","蘆洲區"
"247024","057-VK","2019/09/27 20:49:27","新北市蘆洲區長樂路140號","121.46207","25.0902016666667","6501400","蘆洲區"
"247014","056-VK","2019/09/27 20:49:25","新北市蘆洲區三民路50號","121.47546","25.0830983333333","6501400","蘆洲區"
"247008","002-UY","2019/09/27 20:49:24","新北市蘆洲區重陽一街19號","121.480961666667","25.08177","6501400","蘆洲區"
"247002","001-UY","2019/09/27 20:49:31","新北市蘆洲區長安街240號","121.457645","25.0858666666667","6501400","蘆洲區"
"224009","275-VK","2019/09/27 20:44:53","新北市瑞芳區傑魚坑路245巷2-1號","121.787741666667","25.1064883333333","6501200","瑞芳區"
"222001","KEA-2212","2019/09/27 20:49:36","新北市深坑區北深路三段83號","121.60654","25.0015966666667","6501800","深坑區"
"251001","011-UM","2019/09/27 20:49:34","新北市淡水區淡金路57號","121.456091666667","25.16135","6501000","淡水區"
"251010","413-VK","2019/09/27 20:49:36","新北市淡水區沙崙路145-1號","121.423423333333","25.1831466666667","6501000","淡水區"
"251012","441-VK","2019/09/27 20:49:33","新北市淡水區興仁路162號","121.451583333333","25.2206933333333","6501000","淡水區"
"251007","442-VK","2019/09/27 20:49:30","新北市淡水區鄧公路29巷20號","121.452443333333","25.1701316666667","6501000","淡水區"
"251006","561-UM","2019/09/27 20:49:36","新北市淡水區新市一路一段12號","121.429746666667","25.18704","6501000","淡水區"
"251011","650-BX","2019/09/27 20:49:40","新北市淡水區新市一路一段281巷2號","121.434543333333","25.1865516666667","6501000","淡水區"
"251002","672-BX","2019/09/27 20:49:33","新北市淡水區鼻頭街18-1號","121.446828333333","25.1667233333333","6501000","淡水區"
"251003","766-UM","2019/09/27 20:49:28","新北市淡水區中山北路一段247巷90號","121.442363333333","25.1793933333333","6501000","淡水區"
"247012","KED-0683","2019/09/27 20:49:34","新北市三重區集賢路186號","121.484201666667","25.0883366666667","6501400","蘆洲區"
"242041","AAC-296","2019/09/27 20:49:23","新北市新莊區天祥街1巷1號","121.417223333333","25.0271","6500500","新莊區"
"242060","986-R7","2019/09/27 20:49:20","新北市新莊區新樹路282號","121.432616666667","25.0126516666667","6500500","新莊區"
"242027","613-BX","2019/09/27 20:49:34","新北市新莊區中正路115號","121.460493333333","25.0382933333333","6500500","新莊區"
"242058","612-BX","2019/09/27 20:49:30","新北市新莊區福營路114號","121.436181666667","25.0325483333333","6500500","新莊區"
"242002","441-UM","2019/09/27 20:49:38","新北市新莊區中港路五守新村1巷7號","121.455301666667","25.0381616666667","6500500","新莊區"
"242007","440-UM","2019/09/27 20:49:23","新北市新莊區思源路56號","121.460186666667","25.044155","6500500","新莊區"
"242044","415-TV","2019/09/27 20:49:25","新北市新莊區龍安路98號","121.418036666667","25.020675","6500500","新莊區"
"242013","413-TV","2019/09/27 20:49:18","新北市泰山區新五路一段149號","121.439251666667","25.0639383333333","6500500","新莊區"
"242050","400-BY","2019/09/27 20:49:21","新北市新莊區民安東路18號","121.42816","25.0209383333333","6500500","新莊區"
"242025","362-BY","2019/09/27 20:48:07","新北市五股區中直路21號","121.420916666667","25.1121483333333","6500500","新莊區"
"242023","353-BY","2019/09/27 20:49:33","新北市新莊區復興路三段48號","121.46167","25.044505","6500500","新莊區"
"242015","132-UY","2019/09/27 20:49:24","新北市新莊區頭前路155號","121.460851666667","25.0524166666667","6500500","新莊區"
"242032","175-VK","2019/09/27 20:49:34","新北市新莊區中正路457巷9號","121.442406666667","25.0335133333333","6500500","新莊區"
"242037","348-TH","2019/09/27 20:49:29","新北市新莊區新莊路664-1號","121.442295","25.0327066666667","6500500","新莊區"
"242009","349-TH","2019/09/27 20:49:29","新北市新莊區幸福路18號","121.458973333333","25.04948","6500500","新莊區"
"242034","350-TH","2019/09/27 20:49:26","新北市新莊區中正路275號","121.449218333333","25.0350216666667","6500500","新莊區"
"221036","130-UY","2019/09/27 20:49:36","新北市汐止區南昌街45號","121.66324","25.06859","6501100","汐止區"
"221015","131-UY","2019/09/27 20:49:35","新北市汐止區大同路二段613號","121.664145","25.0707833333333","6501100","汐止區"
"221012","278-VK","2019/09/27 20:49:39","新北市汐止區保新街21號","121.684195","25.0731566666667","6501100","汐止區"
"221023","279-VK","2019/09/27 20:49:25","新北市汐止區民族二街7-1號","121.635055","25.07172","6501100","汐止區"
"221032","280-BY","2019/09/27 20:49:18","新北市汐止區橫科路221巷19-1號","121.621496666667","25.04952","6501100","汐止區"
"221027","281-BY","2019/09/27 20:49:33","新北市汐止區大同路二段353號","121.657015","25.0672533333333","6501100","汐止區"
"221021","299-VK","2019/09/27 20:49:30","新北市汐止區莊敬街126號","121.655091666667","25.06108","6501100","汐止區"
"221035","622-UM","2019/09/27 20:49:28","新北市汐止區長江街101-5號","121.658728333333","25.07316","6501100","汐止區"
"221033","647-BX","2019/09/27 20:49:20","新北市汐止區合順街18巷8弄5號","121.620335","25.0419083333333","6501100","汐止區"
"220056","276-BY","2019/09/27 20:49:31","新北市板橋區華東街1-9號","121.448085","24.9949133333333","6500100","板橋區"
"242046","281-VK","2019/09/27 20:49:32","新北市三重區新北大道五段113號","121.43621","25.0486733333333","6500500","新莊區"
"242011","280-VK","2019/09/27 20:49:26","新北市五股區新五路二段123號","121.438516666667","25.0789133333333","6500500","新莊區"
