"lineid","car","time","location","longitude","latitude","cityid","cityname"
"231060","001-UM","2019/09/27 21:09:31","新北市新店區安康路三段29號","121.493176666667","24.953095","6500600","新店區"
"231061","002-UM","2019/09/27 21:09:33","新北市新店區永平街33號","121.516485","24.9836966666667","6500600","新店區"
"231051","107-UY","2019/09/27 21:09:18","新北市新店區中正路700巷38號","121.535531666667","24.991415","6500600","新店區"
"231065","110-UY","2019/09/27 21:09:21","新北市新店區安祥路35號","121.490105","24.9566033333333","6500600","新店區"
"231068","187-VK","2019/09/27 21:09:37","新北市新店區柴埕路38-8號","121.513405","24.964945","6500600","新店區"
"231062","256-BX","2019/09/27 21:09:23","新北市新店區薏仁坑路自強巷6號","121.496661666667","24.9584366666667","6500600","新店區"
"231054","260-TV","2019/09/27 21:09:37","新北市新店區北新路一段99號","121.539103333333","24.9620783333333","6500600","新店區"
"231042","268-BY","2019/09/27 21:09:20","新北市新店區安康路一段29巷4號","121.53359","24.9597233333333","6500600","新店區"
"231064","278-BY","2019/09/27 21:09:35","新北市新店區薏仁坑路自強巷1號","121.497515","24.9577933333333","6500600","新店區"
"231050","AAD-862","2019/09/27 21:09:36","新北市新店區中華路117巷3號","121.537843333333","24.9687316666667","6500600","新店區"
"231040","617-UM","2019/09/27 21:09:25","新北市新店區光明街229號","121.540173333333","24.96437","6500600","新店區"
"231063","641-BX","2019/09/27 21:09:25","新北市新店區玫瑰路57巷16號","121.496328333333","24.94626","6500600","新店區"
"231059","897-TW","2019/09/27 21:09:29","新北市新店區僑信路28號","121.499668333333","24.95215","6500600","新店區"
"241011","013-R5","2019/09/27 21:09:39","新北市三重區龍濱路126號","121.501815","25.071555","6500200","三重區"
"241028","022-UY","2019/09/27 21:09:29","新北市三重區正義南路169號","121.498963333333","25.0575233333333","6500200","三重區"
"241008","059-VK","2019/09/27 21:09:35","新北市三重區文化北路140巷21號","121.4977","25.0670183333333","6500200","三重區"
"241026","060-VK","2019/09/27 21:09:32","新北市三重區大同南路218號","121.496785","25.05635","6500200","三重區"
"241015","062-VK","2019/09/27 21:09:35","新北市三重區三和路一段39巷11號","121.50413","25.0652933333333","6500200","三重區"
"241017","063-VK","2019/09/27 21:09:20","新北市三重區國隆路30號","121.492288333333","25.0644183333333","6500200","三重區"
"241024","065-VK","2019/09/27 21:09:22","新北市三重區國道路一段58巷15號","121.481383333333","25.0720366666667","6500200","三重區"
"241007","066-VK","2019/09/27 21:09:34","新北市三重區三和路四段145巷81號","121.486445","25.078615","6500200","三重區"
"241002","090-VK","2019/09/27 21:09:24","新北市三重區五華街11號","121.494956666667","25.0802883333333","6500200","三重區"
"241003","091-VK","2019/09/27 21:09:24","新北市三重區仁義街228巷2號","121.494848333333","25.0846966666667","6500200","三重區"
"241006","262-UM","2019/09/27 21:09:36","新北市三重區中正北路2號","121.489303333333","25.0630583333333","6500200","三重區"
"241016","266-UM","2019/09/27 21:09:35","新北市三重區大智街12號","121.495315","25.0644116666667","6500200","三重區"
"241009","267-UM","2019/09/27 21:09:26","新北市三重區忠孝路二段122號","121.483005","25.0688316666667","6500200","三重區"
"241018","268-UM","2019/09/27 21:09:33","新北市三重區正義北路332-1號","121.494363333333","25.0705366666667","6500200","三重區"
"241032","269-UM","2019/09/27 21:09:23","新北市三重區中興北街235號","121.469043333333","25.0589216666667","6500200","三重區"
"241013","270-UM","2019/09/27 21:09:30","新北市三重區仁愛街81-1號","121.495885","25.0731666666667","6500200","三重區"
"241025","271-UM","2019/09/27 21:09:28","新北市三重區中正北路208巷8號","121.482325","25.066935","6500200","三重區"
"241030","KED-0822","2019/09/27 21:09:21","新北市三重區五谷王北街20巷15弄1號","121.475066666667","25.0484416666667","6500200","三重區"
"241004","475-VK","2019/09/27 21:09:33","新北市三重區仁愛街420號","121.490391666667","25.081415","6500200","三重區"
"241014","543-UM","2019/09/27 21:09:38","新北市三重區長安街82-1號","121.501393333333","25.0676683333333","6500200","三重區"
"241023","545-UM","2019/09/27 21:09:38","新北市三重區洛陽街45巷21號","121.482571666667","25.0639366666667","6500200","三重區"
"241001","547-UM","2019/09/27 21:09:22","新北市三重區福隆路99號","121.492373333333","25.0783366666667","6500200","三重區"
"241019","KEA-2593","2019/09/27 21:09:23","新北市三重區自強路二段74巷23-1號","121.487923333333","25.0698383333333","6500200","三重區"
"241005","AAD-863","2019/09/27 21:09:26","新北市三重區仁華街85號","121.485761666667","25.0829866666667","6500200","三重區"
"241031","743-BX","2019/09/27 21:09:37","新北市三重區重新路五段408巷19號","121.475796666667","25.0455416666667","6500200","三重區"
"241022","KED-0820","2019/09/27 21:09:22","新北市三重區中正北路64巷24號","121.486098333333","25.0636783333333","6500200","三重區"
"241012","887-TS","2019/09/27 21:09:37","新北市三重區龍門路274巷45號","121.501191666667","25.0754533333333","6500200","三重區"
"241029","942-UM","2019/09/27 21:09:37","新北市三重區正義南路111號","121.498205","25.0585066666667","6500200","三重區"
"235055","183-VK","2019/09/27 21:09:22","新北市板橋區民生路二段89-2號","121.471721666667","25.0177566666667","6500300","中和區"
"235043","352-BY","2019/09/27 21:09:36","新北市中和區員山路36巷13號","121.484116666667","24.9910466666667","6500300","中和區"
"247016","KEA-2869","2019/09/27 21:09:25","新北市蘆洲區中正路185巷80弄2號","121.465966666667","25.0841383333333","6501400","蘆洲區"
"247010","KED-0682","2019/09/27 21:09:22","新北市蘆洲區三民路26巷22號","121.477315","25.0829183333333","6501400","蘆洲區"
"235018","640-BX","2019/09/27 21:01:57","新北市中和區員山路36巷16-2號","121.485201666667","24.99146","6500300","中和區"
"247006","893-R6","2019/09/27 21:09:25","新北市蘆洲區長安街22巷6號","121.464493333333","25.0793566666667","6501400","蘆洲區"
"247020","546-UM","2019/09/27 21:09:35","新北市蘆洲區民族路351號","121.472221666667","25.0918366666667","6501400","蘆洲區"
"247004","500-BY","2019/09/27 21:09:33","新北市蘆洲區永安南路二段322號","121.456991666667","25.0827416666667","6501400","蘆洲區"
"247022","341-TH","2019/09/27 21:09:24","新北市蘆洲區三民路237號","121.469368333333","25.0886516666667","6501400","蘆洲區"
"247024","057-VK","2019/09/27 21:09:27","新北市蘆洲區長興路50巷1號","121.463731666667","25.0837566666667","6501400","蘆洲區"
"247014","056-VK","2019/09/27 21:09:24","新北市蘆洲區中央路155號","121.472626666667","25.0846816666667","6501400","蘆洲區"
"247008","002-UY","2019/09/27 21:09:32","新北市蘆洲區民生街53號","121.474753333333","25.07878","6501400","蘆洲區"
"247002","001-UY","2019/09/27 21:09:31","新北市蘆洲區永樂街38巷40號","121.458506666667","25.0900133333333","6501400","蘆洲區"
"224009","275-VK","2019/09/27 20:44:53","新北市瑞芳區傑魚坑路245巷2-1號","121.787741666667","25.1064883333333","6501200","瑞芳區"
"251004","009-UM","2019/09/27 21:09:32","新北市淡水區民族路33號","121.462346666667","25.13578","6501000","淡水區"
"251001","011-UM","2019/09/27 21:09:34","新北市淡水區新市一路三段2號","121.444846666667","25.1828933333333","6501000","淡水區"
"251008","181-VK","2019/09/27 21:09:31","新北市淡水區北投子99號","121.465305","25.1776533333333","6501000","淡水區"
"251010","413-VK","2019/09/27 21:09:36","新北市淡水區中正路一段63巷7弄2號","121.423085","25.177315","6501000","淡水區"
"251012","441-VK","2019/09/27 21:09:33","新北市淡水區六塊厝14-1號","121.452973333333","25.2409216666667","6501000","淡水區"
"251005","443-VK","2019/09/27 21:09:22","新北市淡水區英專路2巷27號","121.446478333333","25.1693516666667","6501000","淡水區"
"251009","575-R6","2019/09/27 21:09:33","新北市淡水區民族路112巷57號","121.46209","25.1342616666667","6501000","淡水區"
"251011","650-BX","2019/09/27 21:09:20","新北市淡水區新民街180巷7弄10號","121.43739","25.1797416666667","6501000","淡水區"
"251002","672-BX","2019/09/27 21:09:33","新北市淡水區水源街一段160號","121.448635","25.1713166666667","6501000","淡水區"
"251003","766-UM","2019/09/27 21:09:28","新北市淡水區新春街130號","121.440776666667","25.1817316666667","6501000","淡水區"
"247012","KED-0683","2019/09/27 21:09:34","新北市蘆洲區民族路10號","121.475731666667","25.083915","6501400","蘆洲區"
"242058","612-BX","2019/09/27 21:09:30","新北市八里區荖阡坑路16-8號","121.398653333333","25.139175","6500500","新莊區"
