"lineid","car","time","location","longitude","latitude","cityid","cityname"
"231051","107-UY","2019/09/27 21:19:18","新北市新店區溪園路247號","121.525555","24.9837433333333","6500600","新店區"
"231054","260-TV","2019/09/27 21:19:37","新北市新店區薏仁坑路自強巷1號","121.497026666667","24.9580366666667","6500600","新店區"
"231050","AAD-862","2019/09/27 21:19:36","新北市新店區中正路282-1號","121.53838","24.97397","6500600","新店區"
"231063","641-BX","2019/09/27 21:19:25","新北市新店區吉祥街3巷1號","121.497166666667","24.9480916666667","6500600","新店區"
"231059","897-TW","2019/09/27 21:19:29","新北市新店區安豐路30-1號","121.500696666667","24.9569433333333","6500600","新店區"
"241011","013-R5","2019/09/27 21:19:36","新北市三重區龍濱路122號","121.501815","25.07139","6500200","三重區"
"241028","022-UY","2019/09/27 21:19:29","新北市三重區中華路26號","121.48346","25.0610066666667","6500200","三重區"
"241008","059-VK","2019/09/27 21:19:35","新北市三重區重陽路四段1號","121.491051666667","25.068735","6500200","三重區"
"241026","060-VK","2019/09/27 21:19:32","新北市三重區大同南路218號","121.496761666667","25.0563516666667","6500200","三重區"
"241015","062-VK","2019/09/27 21:19:35","新北市三重區龍濱路283巷8號","121.501161666667","25.0736433333333","6500200","三重區"
"241017","063-VK","2019/09/27 21:19:40","新北市三重區中正北路25巷25弄2號","121.493193333333","25.062635","6500200","三重區"
"241024","065-VK","2019/09/27 21:19:22","新北市三重區中正北路145巷14號","121.484113333333","25.0677533333333","6500200","三重區"
"241007","066-VK","2019/09/27 21:19:33","新北市三重區正義北路235號","121.495786666667","25.0691033333333","6500200","三重區"
"241002","090-VK","2019/09/27 21:19:24","新北市三重區五華街141巷58號","121.493456666667","25.086675","6500200","三重區"
"241003","091-VK","2019/09/27 21:19:24","新北市三重區仁義街220巷3號","121.495091666667","25.0841766666667","6500200","三重區"
"241006","262-UM","2019/09/27 21:19:36","新北市三重區頂崁街99號","121.477091666667","25.0615633333333","6500200","三重區"
"241016","266-UM","2019/09/27 21:17:55","新北市三重區自強路一段95號","121.495866666667","25.0662733333333","6500200","三重區"
"241009","267-UM","2019/09/27 21:19:26","新北市五股區中興路三段1-6號","121.45187","25.075785","6500200","三重區"
"241018","268-UM","2019/09/27 21:19:33","新北市三重區光復路二段143巷16號","121.47504","25.061625","6500200","三重區"
"241032","269-UM","2019/09/27 21:19:23","新北市新莊區五權二路26-3號","121.459461666667","25.0688333333333","6500200","三重區"
"241013","270-UM","2019/09/27 21:19:30","新北市三重區仁愛街81號","121.495968333333","25.0731216666667","6500200","三重區"
"241025","271-UM","2019/09/27 21:19:28","新北市三重區忠孝路三段40巷6弄11號","121.482256666667","25.0668933333333","6500200","三重區"
"241030","KED-0822","2019/09/27 21:19:21","新北市三重區光復路二段99號","121.472158333333","25.058355","6500200","三重區"
"241004","475-VK","2019/09/27 21:19:33","新北市三重區集賢路87-1號","121.493711666667","25.0868416666667","6500200","三重區"
"241014","543-UM","2019/09/27 21:19:18","新北市三重區萬全街16號","121.499288333333","25.06973","6500200","三重區"
"241023","545-UM","2019/09/27 21:19:32","新北市三重區忠孝路三段40巷6-1號","121.481633333333","25.0666233333333","6500200","三重區"
"241001","547-UM","2019/09/27 21:19:22","新北市三重區碧華街299號","121.490616666667","25.08398","6500200","三重區"
"241005","AAD-863","2019/09/27 21:19:26","新北市三重區碧華街1號","121.483478333333","25.0812033333333","6500200","三重區"
"241031","743-BX","2019/09/27 21:19:23","新北市三重區五谷王南街46巷37號","121.475726666667","25.0454966666667","6500200","三重區"
"235055","183-VK","2019/09/27 21:19:22","新北市中和區連城路308號","121.483696666667","24.9964983333333","6500300","中和區"
"235043","352-BY","2019/09/27 21:19:36","新北市中和區員山路36巷13號","121.484356666667","24.9907016666667","6500300","中和區"
"247016","KEA-2869","2019/09/27 21:19:25","新北市五股區中興路三段2巷10號","121.448598333333","25.0826266666667","6501400","蘆洲區"
"235018","640-BX","2019/09/27 21:01:57","新北市中和區員山路36巷16-2號","121.485201666667","24.99146","6500300","中和區"
"247006","893-R6","2019/09/27 21:19:25","新北市蘆洲區中華街6號","121.463491666667","25.0816483333333","6501400","蘆洲區"
"247022","341-TH","2019/09/27 21:19:24","新北市蘆洲區三民路128巷89-1號","121.467971666667","25.093265","6501400","蘆洲區"
"247008","002-UY","2019/09/27 21:19:24","新北市蘆洲區信義路73巷15號","121.475936666667","25.0807333333333","6501400","蘆洲區"
"247002","001-UY","2019/09/27 21:19:31","新北市蘆洲區永樂街80號","121.456796666667","25.08864","6501400","蘆洲區"
"251004","009-UM","2019/09/27 21:19:32","新北市淡水區民族路33號","121.462338333333","25.135775","6501000","淡水區"
"251001","011-UM","2019/09/27 21:19:34","新北市淡水區濱海路一段308號","121.441065","25.1893566666667","6501000","淡水區"
"251008","181-VK","2019/09/27 21:19:31","新北市淡水區水源街二段205號","121.457718333333","25.176265","6501000","淡水區"
"251010","413-VK","2019/09/27 21:19:36","新北市淡水區淡海路69巷26號","121.421876666667","25.1808683333333","6501000","淡水區"
"251012","441-VK","2019/09/27 21:19:33","新北市淡水區淡金路五段35巷46號","121.452481666667","25.2347233333333","6501000","淡水區"
"251005","443-VK","2019/09/27 21:19:22","新北市淡水區仁愛街18巷10號","121.447041666667","25.1703466666667","6501000","淡水區"
"251009","575-R6","2019/09/27 21:19:33","新北市淡水區民族路33巷16號","121.463403333333","25.1358833333333","6501000","淡水區"
"251011","650-BX","2019/09/27 21:19:20","新北市淡水區新民街120巷29號","121.438891666667","25.178805","6501000","淡水區"
"251002","672-BX","2019/09/27 21:19:33","新北市淡水區學府路172巷21號","121.448266666667","25.17483","6501000","淡水區"
"251003","766-UM","2019/09/27 21:19:29","新北市淡水區崁頂17號","121.43915","25.18557","6501000","淡水區"
