"lineid","car","time","location","longitude","latitude","cityid","cityname"
"241002","090-VK","2019/09/27 21:59:24","新北市林口區太平里180號","121.36838","25.13438","6500200","三重區"
"251004","009-UM","2019/09/27 21:59:32","新北市淡水區自強路201巷39號","121.462168333333","25.1267866666667","6501000","淡水區"
"251001","011-UM","2019/09/27 21:59:34","新北市淡水區下圭柔山91-3號","121.430933333333","25.2096433333333","6501000","淡水區"
"251008","181-VK","2019/09/27 21:59:31","新北市淡水區學府路104號","121.449846666667","25.1717833333333","6501000","淡水區"
"251010","413-VK","2019/09/27 21:59:36","新北市淡水區中正路二段206號","121.426238333333","25.189005","6501000","淡水區"
"251007","442-VK","2019/09/27 21:59:30","新北市淡水區北新路184巷19號","121.450278333333","25.17806","6501000","淡水區"
"251005","443-VK","2019/09/27 21:59:22","新北市淡水區鄧公路30巷1弄65號","121.454485","25.1696083333333","6501000","淡水區"
"251011","650-BX","2019/09/27 21:59:20","新北市淡水區水碓街7號","121.443171666667","25.1771516666667","6501000","淡水區"
"251003","766-UM","2019/09/27 21:59:28","新北市淡水區新春街81號","121.43874","25.1823766666667","6501000","淡水區"
