"lineid","car","time","location","longitude","latitude","cityid","cityname"
"231007","189-VK","2019/08/20 09:59:43","新北市新店區新潭路三段215巷25號","121.50812","24.9040216666667","6500600","新店區"
"231009","515-UM","2019/08/20 09:59:36","新北市新店區小坑一路35巷2號","121.528156666667","24.9091566666667","6500600","新店區"
"227004","282-VK","2019/08/20 09:52:53","新北市雙溪區長源里柑腳58-1號","121.794126666667","25.0065116666667","6502500","雙溪區"
"227006","030-BX","2019/08/20 09:59:26","新北市雙溪區泰平里料角坑37-1號","121.794826666667","24.9589383333333","6502500","雙溪區"
"252004","249-BX","2019/08/20 09:59:45","新北市三芝區錫板里棟板頭24號","121.514501666667","25.2280483333333","6502100","三芝區"
"252007","AAC-283","2019/08/20 09:59:34","新北市三芝區新庄里新庄子51-13號","121.507618333333","25.2762516666667","6502100","三芝區"
"237014","760-BX","2019/08/20 09:59:45","新北市三峽區安坑2號","121.437723333333","24.926805","6500900","三峽區"
