"lineid","car","time","location","longitude","latitude","cityid","cityname"
"231007","189-VK","2019/08/20 10:09:23","新北市新店區新潭路三段256號","121.508196666667","24.90393","6500600","新店區"
"231009","515-UM","2019/08/20 10:09:36","新北市新店區廣興路2號","121.546485","24.9117783333333","6500600","新店區"
"227004","282-VK","2019/08/20 10:09:33","新北市雙溪區長源里盤山坑12號","121.772858333333","24.9960466666667","6502500","雙溪區"
"252004","249-BX","2019/08/20 10:09:45","新北市三芝區福德里埔尾7號","121.503625","25.2463283333333","6502100","三芝區"
"252007","AAC-283","2019/08/20 10:09:34","新北市三芝區古庄里古庄103號","121.494406666667","25.2718216666667","6502100","三芝區"
"237014","760-BX","2019/08/20 10:09:45","新北市三峽區溪東路218巷1號","121.40743","24.9316533333333","6500900","三峽區"
