"lineid","car","time","location","longitude","latitude","cityid","cityname"
"231007","189-VK","2019/08/20 10:18:23","新北市新店區新潭路三段215巷25號","121.50813","24.9040333333333","6500600","新店區"
"231009","515-UM","2019/08/20 10:19:44","新北市新店區成功路45-1號","121.539775","24.8989133333333","6500600","新店區"
"227004","282-VK","2019/08/20 10:19:33","新北市雙溪區長源里盤山坑4號","121.783708333333","25.00273","6502500","雙溪區"
"252007","AAC-283","2019/08/20 10:19:34","新北市三芝區新庄里番社后18號","121.497191666667","25.2742866666667","6502100","三芝區"
"237014","760-BX","2019/08/20 10:16:43","新北市三峽區介壽路一段554號","121.387381666667","24.9335216666667","6500900","三峽區"
