"lineid","car","time","location","longitude","latitude","cityid","cityname"
"234078","298-R6","2019/08/20 14:29:55","新北市永和區永貞路19號","121.521048333333","25.007065","6500400","永和區"
"234036","336-UY","2019/08/20 14:29:47","新北市永和區民樂街39巷23號","121.528908333333","25.0006666666667","6500400","永和區"
"234062","337-UY","2019/08/20 14:29:38","新北市永和區中正路417-1號","121.517223333333","25.0049466666667","6500400","永和區"
"234084","338-UY","2019/08/20 14:29:51","新北市永和區光復街21號","121.516483333333","25.017365","6500400","永和區"
"234068","552-UM","2019/08/20 14:30:02","新北市永和區永亨路31號","121.519726666667","25.006175","6500400","永和區"
"234052","553-UM","2019/08/20 14:29:41","新北市永和區環河東路一段76號","121.51939","25.01668","6500400","永和區"
"234028","746-BX","2019/08/20 14:29:48","新北市永和區中正路196號","121.515581666667","24.99725","6500400","永和區"
"234060","AAD-866","2019/08/20 14:29:55","新北市永和區永貞路131號","121.516788333333","25.004115","6500400","永和區"
"234040","862-TW","2019/08/20 14:29:56","新北市永和區安樂路330號","121.514408333333","25.0058766666667","6500400","永和區"
"234048","863-TW","2019/08/20 14:29:56","新北市永和區保安路75號","121.508645","25.014975","6500400","永和區"
"234025","9371-KE","2019/08/20 14:29:59","新北市中和區安平路208號","121.513598333333","24.9997783333333","6500400","永和區"
"234010","9373-KE","2019/08/20 14:29:47","新北市永和區中正路644號","121.516883333333","25.0083733333333","6500400","永和區"
"248017","KED-0813","2019/08/20 14:29:32","新北市五股區壟路11-1號","121.416101666667","25.084345","6501500","五股區"
"234072","AAC-211","2019/08/20 14:29:50","新北市永和區環河東路一段124號","121.52068","25.015405","6500400","永和區"
"234001","AAC-295","2019/08/20 14:29:52","新北市永和區大新街50號","121.516033333333","25.0083483333333","6500400","永和區"
"244002","248-BX","2019/08/20 14:29:44","新北市林口區南勢里34-8號","121.35241","25.07025","6501700","林口區"
"231030","002-UM","2019/08/20 14:29:54","新北市新店區安民街71號","121.51648","24.967055","6500600","新店區"
"231005","046-UY","2019/08/20 14:29:57","新北市新店區北新路三段218號","121.541111666667","24.9843016666667","6500600","新店區"
"231029","106-UY","2019/08/20 14:29:42","新北市新店區安康路二段382號","121.500483333333","24.9570283333333","6500600","新店區"
"231018","107-UY","2019/08/20 14:29:48","新北市新店區中央三街61號","121.52691","24.9750183333333","6500600","新店區"
"231013","108-UY","2019/08/20 14:29:55","新北市新店區民權路100-1號","121.536105","24.9832783333333","6500600","新店區"
"231036","110-UY","2019/08/20 14:29:53","新北市新店區安祥路106巷6弄1號","121.478891666667","24.96263","6500600","新店區"
"231032","256-BX","2019/08/20 14:29:55","新北市新店區溪洲路200-3號","121.529191666667","24.9678983333333","6500600","新店區"
"231023","260-TV","2019/08/20 14:29:57","新北市新店區光明街183號","121.539983333333","24.9630933333333","6500600","新店區"
"231003","268-BY","2019/08/20 14:26:52","","121.545285","24.9676266666667","6500600","新店區"
"231035","278-BY","2019/08/20 14:29:42","新北市新店區安光路10-1號","121.513788333333","24.9641233333333","6500600","新店區"
"231015","AAD-862","2019/08/20 14:29:47","新北市新店區北宜路三段88-1號","121.578226666667","24.9511433333333","6500600","新店區"
"231006","355-BY","2019/08/20 14:29:46","新北市新店區北宜路二段521號","121.563511666667","24.9536066666667","6500600","新店區"
"231038","3712-VJ","2019/08/20 14:29:54","新北市新店區溪洲路174號","121.529338333333","24.9653183333333","6500600","新店區"
"231027","3713-VJ","2019/08/20 14:29:53","新北市新店區北新路一段140號","121.542456666667","24.97053","6500600","新店區"
"231020","515-UM","2019/08/20 14:29:55","新北市新店區新烏路三段69號","121.555265","24.9038383333333","6500600","新店區"
"231034","616-UM","2019/08/20 14:29:44","新北市新店區車子路11號","121.502911666667","24.9516733333333","6500600","新店區"
"231001","617-UM","2019/08/20 14:30:00","新北市新店區中正路75巷71號","121.54312","24.968785","6500600","新店區"
"231002","618-UM","2019/08/20 14:29:47","新北市新店區中央路7號","121.533415","24.97864","6500600","新店區"
"231012","KED-0819","2019/08/20 14:29:54","新北市新店區寶宏路3-3號","121.549228333333","24.97665","6500600","新店區"
"231028","897-TW","2019/08/20 14:29:50","新北市新店區吉安街2號","121.517396666667","24.9656483333333","6500600","新店區"
"231004","899-TW","2019/08/20 14:29:56","新北市新店區中正路263-4號","121.538301666667","24.9738066666667","6500600","新店區"
"231037","AKT-0513","2019/08/20 14:29:44","新北市新店區安康路二段320巷6號","121.504745","24.9592183333333","6500600","新店區"
"235027","006-UY","2019/08/20 14:29:45","新北市中和區連城路174巷8-1號","121.492723333333","24.99793","6500300","中和區"
"235020","096-UM","2019/08/20 14:29:49","新北市中和區員山路514巷1號","121.479276666667","25.0096","6500300","中和區"
"235003","097-UM","2019/08/20 14:29:47","新北市中和區景平路310號","121.51256","24.99269","6500300","中和區"
"235029","098-UM","2019/08/20 14:29:47","新北市中和區福祥路100號","121.499106666667","25.0060583333333","6500300","中和區"
"235004","150-BY","2019/08/20 14:29:53","新北市中和區宜安路25號","121.512793333333","24.9958283333333","6500300","中和區"
"235022","151-BY","2019/08/20 14:29:48","新北市中和區員山路146巷17號","121.482311666667","24.99685","6500300","中和區"
"235019","183-VK","2019/08/20 14:29:57","新北市中和區民生街15號","121.471276666667","25.0058733333333","6500300","中和區"
"235002","185-VK","2019/08/20 14:29:55","新北市中和區自立路99巷1號","121.522058333333","24.9950466666667","6500300","中和區"
"235013","186-VK","2019/08/20 14:29:48","新北市中和區安平路13號","121.509141666667","24.9941083333333","6500300","中和區"
"235031","255-BX","2019/08/20 14:29:54","新北市中和區員山路148巷23弄28號","121.482276666667","24.9976733333333","6500300","中和區"
"235008","293-VK","2019/08/20 14:30:01","新北市中和區捷運路100-1號","121.505955","24.9915166666667","6500300","中和區"
"235036","301-VK","2019/08/20 14:29:47","新北市中和區中和路74號","121.50082","25.000185","6500300","中和區"
"235007","352-BY","2019/08/20 14:29:54","新北市中和區景平路438號","121.507011666667","24.99346","6500300","中和區"
"235006","KEA-2878","2019/08/20 14:29:48","新北市中和區宜安路160號","121.509196666667","24.9988466666667","6500300","中和區"
"247013","KEA-2869","2019/08/20 14:29:41","新北市蘆洲區中山二路179號","121.470968333333","25.08103","6501400","蘆洲區"
"247007","KED-0682","2019/08/20 14:29:54","新北市蘆洲區民生街18號","121.475296666667","25.0790533333333","6501400","蘆洲區"
"235034","558-UM","2019/08/20 14:29:40","新北市中和區連勝街49號","121.49801","24.9974366666667","6500300","中和區"
"235024","KED-0823","2019/08/20 14:29:54","新北市中和區中山路二段523巷18號","121.481618333333","25.00425","6500300","中和區"
"235018","640-BX","2019/08/20 14:29:54","新北市中和區莒光路200號","121.471931666667","24.9982","6500300","中和區"
"235011","732-UM","2019/08/20 14:29:56","新北市中和區景平路329巷1弄2號","121.505911666667","24.9928633333333","6500300","中和區"
"235010","733-UM","2019/08/20 14:29:47","新北市中和區忠孝街37巷40號","121.510925","24.9847666666667","6500300","中和區"
"235035","783-BX","2019/08/20 14:29:51","新北市中和區中正路653號","121.485236666667","24.99616","6500300","中和區"
"235026","800-TS","2019/08/20 14:29:55","新北市中和區中山路二段492號","121.487018333333","25.005025","6500300","中和區"
"235021","801-TS","2019/08/20 14:29:59","新北市中和區員山路152-3號","121.481353333333","24.998595","6500300","中和區"
"235016","805-TS","2019/08/20 14:29:47","新北市中和區華新街143巷11弄4號","121.506708333333","24.981145","6500300","中和區"
"235012","896-TW","2019/08/20 14:29:50","新北市中和區忠孝街76號","121.51204","24.9842533333333","6500300","中和區"
"235017","900-TW","2019/08/20 14:29:49","新北市中和區國光街215巷40號","121.46732","25.0000566666667","6500300","中和區"
"235030","911-UM","2019/08/20 14:29:52","新北市中和區景新街32號","121.503305","24.9994016666667","6500300","中和區"
"235015","157-BY","2019/08/20 14:29:58","新北市中和區中興街132巷6號","121.499488333333","24.992135","6500300","中和區"
"235001","AAC-213","2019/08/20 14:29:46","新北市中和區秀朗路三段107號","121.526553333333","24.9945616666667","6500300","中和區"
"235023","AAC-215","2019/08/20 14:29:59","新北市中和區錦和路203巷1號","121.49099","24.9904066666667","6500300","中和區"
"220003","015-TV","2019/08/20 14:29:52","新北市板橋區實踐路85號","121.46397","25.00562","6500100","板橋區"
"220013","072-UY","2019/08/20 14:29:44","新北市板橋區實踐路93巷101號","121.46731","25.0059433333333","6500100","板橋區"
"220034","073-UY","2019/08/20 14:29:44","新北市板橋區中正路216巷8號","121.456356666667","25.01841","6500100","板橋區"
"220105","075-UY","2019/08/20 14:29:40","新北市板橋區文化路二段548巷21-1號","121.476621666667","25.0338483333333","6500100","板橋區"
"220017","AAD-861","2019/08/20 14:29:47","新北市板橋區縣民大道一段64巷2號","121.455176666667","25.004035","6500100","板橋區"
"220016","120-SR","2019/08/20 14:29:41","新北市板橋區中山路二段595號","121.484915","25.0221466666667","6500100","板橋區"
"247003","893-R6","2019/08/20 14:29:56","新北市蘆洲區長安街267巷8弄2號","121.458288333333","25.0838","6501400","蘆洲區"
"247017","546-UM","2019/08/20 14:29:39","新北市蘆洲區復興路212號","121.478841666667","25.0890933333333","6501400","蘆洲區"
"247005","341-TH","2019/08/20 14:29:55","新北市蘆洲區長安街22巷31弄18號","121.464198333333","25.08053","6501400","蘆洲區"
"247001","336-TH","2019/08/20 14:29:58","新北市蘆洲區永樂街38巷33弄54號","121.456588333333","25.0900283333333","6501400","蘆洲區"
"247011","056-VK","2019/08/20 14:29:54","新北市蘆洲區復興路252號","121.479903333333","25.0896566666667","6501400","蘆洲區"
"247015","053-VK","2019/08/20 14:29:42","新北市蘆洲區中正路185巷78弄20號","121.465845","25.0847416666667","6501400","蘆洲區"
"247019","007-UY","2019/08/20 14:29:49","新北市蘆洲區水湳街257號","121.469468333333","25.0924016666667","6501400","蘆洲區"
"247023","001-UY","2019/08/20 14:29:55","新北市蘆洲區中正路263巷2號","121.467231666667","25.0875266666667","6501400","蘆洲區"
"235005","251-BX","2019/08/20 14:29:53","新北市中和區中和路252巷1號","121.507621666667","24.9993016666667","6500300","中和區"
"228004","212-TW","2019/08/20 14:29:43","新北市貢寮區雙玉里田寮洋街33-1號","121.933131666667","25.0138683333333","6502600","貢寮區"
"228005","828-UM","2019/08/20 14:29:36","新北市貢寮區美豐里巫里岸9-1號","121.901943333333","25.0701166666667","6502600","貢寮區"
"207002","749-BX","2019/08/20 14:29:50","新北市萬里區溪底里瑞泉路3號","121.610358333333","25.14377","6502800","萬里區"
"252005","178-VK","2019/08/20 14:29:51","新北市三芝區橫山里大坑23-5號","121.524536666667","25.2553516666667","6502100","三芝區"
"207001","662-BX","2019/08/20 14:29:54","新北市萬里區磺潭里清水12號","121.63982","25.199485","6502800","萬里區"
"236040","KED-0685","2019/08/20 14:29:45","新北市土城區學成路91巷2號","121.450825","24.9883116666667","6501300","土城區"
"236074","166-UM","2019/08/20 14:29:46","新北市土城區中央路四段27巷10弄2號","121.424721666667","24.9618616666667","6501300","土城區"
"236029","253-BX","2019/08/20 14:29:59","新北市土城區水源街12號","121.441275","24.97519","6501300","土城區"
"236024","269-VK","2019/08/20 14:29:41","新北市土城區承天路69-1號","121.43995","24.9633316666667","6501300","土城區"
"236013","270-VK","2019/08/20 14:29:44","新北市土城區青雲路39巷7號","121.460266666667","24.987555","6501300","土城區"
"236032","271-VK","2019/08/20 14:29:47","新北市土城區明德路一段311號","121.459491666667","24.9771616666667","6501300","土城區"
"247009","KED-0683","2019/08/20 14:29:52","新北市蘆洲區信義路136號","121.479591666667","25.0830166666667","6501400","蘆洲區"
"236065","KEA-2877","2019/08/20 14:29:53","新北市土城區永豐路358號","121.474276666667","24.9751666666667","6501300","土城區"
"236017","401-BY","2019/08/20 14:29:53","新北市土城區永豐路202巷14號","121.466143333333","24.9834116666667","6501300","土城區"
"236060","752-BX","2019/08/20 14:27:06","","121.469191666667","24.9939783333333","6501300","土城區"
"236057","912-UM","2019/08/20 14:29:59","新北市土城區中央路四段146號","121.417308333333","24.9583933333333","6501300","土城區"
"236045","913-UM","2019/08/20 14:29:48","新北市土城區明德路一段297號","121.460001666667","24.977215","6501300","土城區"
"236054","AAC-216","2019/08/20 14:29:42","新北市土城區中華路二段1號","121.43975","24.979285","6501300","土城區"
"221029","298-VK","2019/08/20 14:29:45","新北市汐止區福德一路86巷85號","121.636506666667","25.0684483333333","6501100","汐止區"
"220027","145-BY","2019/08/20 14:29:51","新北市板橋區民權路202巷14弄1號","121.46063","25.0159433333333","6500100","板橋區"
"220028","200-UY","2019/08/20 14:29:54","新北市板橋區大觀路二段3巷84號","121.44995","25.00324","6500100","板橋區"
"220030","610-BX","2019/08/20 14:29:58","新北市板橋區金門街342號","121.428071666667","24.984595","6500100","板橋區"
"220050","245-BX","2019/08/20 14:29:53","新北市板橋區莒光路196巷23號","121.473096666667","25.0224016666667","6500100","板橋區"
"220004","276-BY","2019/08/20 14:29:59","新北市板橋區信義路148號","121.458915","24.991965","6500100","板橋區"
"220020","277-BY","2019/08/20 14:29:50","新北市板橋區篤行路三段1號","121.429428333333","24.9877133333333","6500100","板橋區"
"220019","283-VK","2019/08/20 14:29:50","新北市板橋區忠孝路48巷4弄11號","121.46046","25.00065","6500100","板橋區"
"220043","285-UM","2019/08/20 14:29:39","新北市板橋區銘傳街35號","121.468555","25.0311016666667","6500100","板橋區"
"220001","285-VK","2019/08/20 14:29:47","新北市板橋區永豐街102號","121.475965","25.0206066666667","6500100","板橋區"
"220031","286-VK","2019/08/20 14:29:45","新北市板橋區龍興街73巷56號","121.441803333333","25.0031816666667","6500100","板橋區"
"220029","287-VK","2019/08/20 14:29:59","新北市板橋區大觀路一段75巷37號","121.448853333333","25.0041666666667","6500100","板橋區"
"220039","288-VK","2019/08/20 14:29:58","新北市板橋區新海路431巷20號","121.457755","25.0268866666667","6500100","板橋區"
"220009","293-UM","2019/08/20 14:29:51","新北市板橋區板新路200巷22號","121.468643333333","25.01663","6500100","板橋區"
"220032","296-UM","2019/08/20 14:29:59","新北市板橋區滿平街84巷100弄25號","121.425805","24.9858883333333","6500100","板橋區"
"220023","303-R5","2019/08/20 14:29:45","新北市板橋區南雅西路一段86號","121.453315","25.00579","6500100","板橋區"
"220010","305-R5","2019/08/20 14:29:46","新北市板橋區三民路二段123巷3號","121.479598333333","25.0156533333333","6500100","板橋區"
"220041","307-R5","2019/08/20 14:29:55","新北市板橋區民有街89巷8弄9-1號","121.464098333333","25.0277766666667","6500100","板橋區"
"220047","317-R6","2019/08/20 14:29:56","新北市板橋區民有街116號","121.464348333333","25.02858","6500100","板橋區"
"220038","487-VK","2019/08/20 14:29:52","新北市板橋區龍泉街118號","121.457038333333","25.0243133333333","6500100","板橋區"
"220037","491-VK","2019/08/20 14:30:01","新北市板橋區文化路二段182巷3弄77號","121.4729","25.0292966666667","6500100","板橋區"
"220052","561-BX","2019/08/20 14:29:48","新北市板橋區自由路20號","121.465561666667","25.0225883333333","6500100","板橋區"
"220011","609-BX","2019/08/20 14:29:42","新北市板橋區三民路一段1巷28號","121.480223333333","25.024425","6500100","板橋區"
"220104","630-UY","2019/08/20 14:29:43","新北市板橋區中正路433巷1號","121.454171666667","25.0232766666667","6500100","板橋區"
"220040","637-BX","2019/08/20 14:29:44","新北市板橋區文聖街149巷25號","121.479485","25.0286283333333","6500100","板橋區"
"220005","686-BX","2019/08/20 14:29:50","新北市板橋區廣和街60號","121.462016666667","24.993925","6500100","板橋區"
"220025","687-BX","2019/08/20 14:29:51","新北市板橋區大觀路二段55號","121.446676666667","25.0028933333333","6500100","板橋區"
"220042","689-BX","2019/08/20 14:29:49","新北市板橋區長江路一段134號","121.460531666667","25.0300833333333","6500100","板橋區"
"220002","741-BX","2019/08/20 14:29:06","","121.461208333333","25.0025516666667","6500100","板橋區"
"220051","KEA-2699","2019/08/20 14:29:50","新北市板橋區雙十路二段70巷7號","121.475491666667","25.02838","6500100","板橋區"
"220014","829-TW","2019/08/20 14:29:43","新北市板橋區長安街138巷7弄65號","121.474215","25.0095283333333","6500100","板橋區"
"220022","895-R6","2019/08/20 14:29:45","新北市板橋區北門街25號","121.456596666667","25.0112866666667","6500100","板橋區"
"220021","985-R7","2019/08/20 14:29:44","新北市板橋區英士路190巷2號","121.457626666667","25.0226316666667","6500100","板橋區"
"220046","AAC-210","2019/08/20 14:29:40","新北市板橋區漢生西路89巷1弄8號","121.46233","25.0194883333333","6500100","板橋區"
"220012","AAC-253","2019/08/20 14:29:46","新北市板橋區民權路14號","121.463221666667","25.0098516666667","6500100","板橋區"
"235032","KEA-2873","2019/08/20 14:29:48","新北市中和區福美路301巷21號","121.497665","25.0040516666667","6500300","中和區"
