"lineid","car","time","location","longitude","latitude","cityid","cityname"
"234048","863-TW","2019/08/20 15:29:56","新北市三重區疏洪西路399號","121.469106666667","25.0637633333333","6500400","永和區"
"231030","002-UM","2019/08/20 15:29:54","新北市新店區安和路三段61號","121.517928333333","24.9831533333333","6500600","新店區"
"231024","0291-UT","2019/08/20 15:29:42","新北市新店區安康路二段66號","121.514721666667","24.96368","6500600","新店區"
"231005","046-UY","2019/08/20 15:29:57","新北市新店區建國路293巷2號","121.536973333333","24.9859116666667","6500600","新店區"
"231029","106-UY","2019/08/20 15:29:42","新北市新店區安康路三段622號","121.479248333333","24.9461216666667","6500600","新店區"
"231018","107-UY","2019/08/20 15:29:48","新北市新店區民生路126號","121.529793333333","24.98257","6500600","新店區"
"231036","110-UY","2019/08/20 15:29:53","新北市新店區安祥路67巷50弄2號","121.484793333333","24.95911","6500600","新店區"
"231039","187-VK","2019/08/20 15:29:47","新北市新店區寶元路一段74巷1號","121.54412","24.9841783333333","6500600","新店區"
"231032","256-BX","2019/08/20 15:29:55","新北市新店區裕合街29號","121.489028333333","24.9498983333333","6500600","新店區"
"231023","260-TV","2019/08/20 15:29:37","新北市新店區五峰路24號","121.543793333333","24.9691883333333","6500600","新店區"
"231003","268-BY","2019/08/20 15:29:52","新北市新店區寶高路116號","121.554548333333","24.9761066666667","6500600","新店區"
"231035","278-BY","2019/08/20 15:29:42","新北市新店區安興路83-3號","121.515313333333","24.975435","6500600","新店區"
"231015","AAD-862","2019/08/20 15:27:07","新北市新店區明山路93號","121.56516","24.956915","6500600","新店區"
"231038","3712-VJ","2019/08/20 15:29:54","新北市新店區安康路二段16巷30號","121.51645","24.9649533333333","6500600","新店區"
"231025","4715-K9","2019/08/20 15:29:50","新北市新店區薏仁坑路7號","121.498875","24.9591666666667","6500600","新店區"
"231020","515-UM","2019/08/20 15:29:55","新北市新店區湖興路111號","121.560541666667","24.93545","6500600","新店區"
"231034","616-UM","2019/08/20 15:29:44","新北市新店區玫瑰路28號","121.495246666667","24.9501533333333","6500600","新店區"
"231002","618-UM","2019/08/20 15:29:46","新北市新店區環河路152號","121.535256666667","24.9667133333333","6500600","新店區"
"231012","KED-0819","2019/08/20 15:29:54","新北市新店區寶元路一段109號","121.545716666667","24.9831416666667","6500600","新店區"
"231026","720-UM","2019/08/20 15:29:43","新北市新店區三民路117巷6弄1號","121.534081666667","24.9712183333333","6500600","新店區"
"231028","897-TW","2019/08/20 15:29:50","新北市新店區僑信路130號","121.50066","24.9458283333333","6500600","新店區"
"231004","899-TW","2019/08/20 15:29:56","新北市新店區中正路156號","121.541548333333","24.9717383333333","6500600","新店區"
"231037","AKT-0513","2019/08/20 15:29:44","新北市新店區安興路91巷27號","121.514116666667","24.974515","6500600","新店區"
"241011","013-R5","2019/08/20 15:29:59","新北市三重區泉州街96巷6號","121.495736666667","25.0535466666667","6500200","三重區"
"241017","063-VK","2019/08/20 15:29:50","新北市三重區成功路187號","121.485375","25.0524833333333","6500200","三重區"
"241018","268-UM","2019/08/20 15:30:01","新北市三重區重新路四段121號","121.485066666667","25.0523","6500200","三重區"
"241013","270-UM","2019/08/20 15:29:59","新北市三重區重新路四段121號","121.485103333333","25.0521483333333","6500200","三重區"
"241007","398-BY","2019/08/20 15:29:46","新北市三重區重新路四段121號","121.48494","25.0519666666667","6500200","三重區"
"241020","478-VK","2019/08/20 15:29:54","新北市三重區重新路四段121號","121.484715","25.0524383333333","6500200","三重區"
"241029","942-UM","2019/08/20 15:29:57","新北市三重區成功路62號","121.488586666667","25.0509783333333","6500200","三重區"
"241033","AAC-255","2019/08/20 15:29:51","新北市三重區重新路五段506號","121.472935","25.0466866666667","6500200","三重區"
"235033","4980-A6","2019/08/20 15:29:43","新北市中和區中正路588號","121.485913333333","24.99494","6500300","中和區"
"235026","800-TS","2019/08/20 15:29:55","新北市中和區立業路83巷3號","121.491296666667","25.0072383333333","6500300","中和區"
"235023","AAC-215","2019/08/20 15:29:59","新北市中和區圓通路459號","121.484238333333","24.9857616666667","6500300","中和區"
"228005","828-UM","2019/08/20 15:29:56","新北市貢寮區龍門里復興街46-4號","121.928033333333","25.0291233333333","6502600","貢寮區"
"207001","662-BX","2019/08/20 15:29:54","新北市萬里區野柳里八斗60號","121.671518333333","25.2011516666667","6502800","萬里區"
"236040","KED-0685","2019/08/20 15:29:47","新北市土城區學成路22巷2弄2號","121.453148333333","24.9870733333333","6501300","土城區"
"236074","166-UM","2019/08/20 15:29:46","新北市三峽區介壽路三段245號","121.407876666667","24.9497183333333","6501300","土城區"
"236029","253-BX","2019/08/20 15:29:59","新北市土城區中央路一段237號","121.445485","24.9861366666667","6501300","土城區"
"236024","269-VK","2019/08/20 15:29:40","新北市土城區明德路二段102巷8號","121.445491666667","24.9844183333333","6501300","土城區"
"236013","270-VK","2019/08/20 15:29:44","新北市土城區德興街137號","121.455191666667","24.991695","6501300","土城區"
"236032","271-VK","2019/08/20 15:29:47","新北市土城區延吉街296巷1弄1號","121.464391666667","24.9843583333333","6501300","土城區"
"236065","KEA-2877","2019/08/20 15:29:53","新北市土城區水源街5號","121.441383333333","24.9748983333333","6501300","土城區"
"236017","401-BY","2019/08/20 15:29:52","新北市土城區延吉街60號","121.471448333333","24.9867866666667","6501300","土城區"
"236057","912-UM","2019/08/20 15:29:59","新北市土城區中央路一段186-4號","121.445376666667","24.9862616666667","6501300","土城區"
"236045","913-UM","2019/08/20 15:29:48","新北市土城區金城路二段396號","121.463911666667","24.9857283333333","6501300","土城區"
"236054","AAC-216","2019/08/20 15:29:42","新北市土城區延和路18巷6號","121.464461666667","24.9881","6501300","土城區"
"221033","647-BX","2019/08/20 15:26:27","新北市汐止區康寧街901號","121.651655","25.074975","6501100","汐止區"
"220031","286-VK","2019/08/20 15:29:45","新北市板橋區僑中二街104巷2號","121.445893333333","25.0079216666667","6500100","板橋區"
"220032","296-UM","2019/08/20 15:28:30","新北市樹林區中山路三段214號","121.379893333333","24.9676883333333","6500100","板橋區"
