"lineid","car","time","location","longitude","latitude","cityid","cityname"
"234048","863-TW","2019/08/20 15:39:43","新北市中和區橋和路241號","121.494465","25.0067","6500400","永和區"
"231030","002-UM","2019/08/20 15:39:54","新北市新店區永安街93-6號","121.520793333333","24.98658","6500600","新店區"
"231005","046-UY","2019/08/20 15:39:57","新北市新店區民族路192號","121.53623","24.9754033333333","6500600","新店區"
"231029","106-UY","2019/08/20 15:39:42","新北市新店區安康路三段206號","121.48875","24.9517666666667","6500600","新店區"
"231018","107-UY","2019/08/20 15:39:48","新北市新店區中正路663巷7弄15號","121.532908333333","24.99009","6500600","新店區"
"231013","108-UY","2019/08/20 15:39:55","新北市新店區永業路81巷1弄10號","121.5301","24.9499483333333","6500600","新店區"
"231036","110-UY","2019/08/20 15:39:53","新北市新店區安祥路65號","121.483763333333","24.960265","6500600","新店區"
"231039","187-VK","2019/08/20 15:39:47","新北市新店區寶中路77號","121.547553333333","24.98063","6500600","新店區"
"231032","256-BX","2019/08/20 15:39:55","新北市新店區雙城路36號","121.491998333333","24.950205","6500600","新店區"
"231023","260-TV","2019/08/20 15:39:57","新北市新店區大新街7巷7號","121.543635","24.968325","6500600","新店區"
"231003","268-BY","2019/08/20 15:39:53","新北市新店區寶興路58巷1號","121.549945","24.9722016666667","6500600","新店區"
"231035","278-BY","2019/08/20 15:39:41","新北市新店區安興路83-3號","121.515313333333","24.9755366666667","6500600","新店區"
"231015","AAD-862","2019/08/20 15:39:47","新北市新店區北宜路一段256號","121.545595","24.9529116666667","6500600","新店區"
"231038","3712-VJ","2019/08/20 15:39:54","新北市新店區安康路二段191號","121.50937","24.9591216666667","6500600","新店區"
"231020","515-UM","2019/08/20 15:39:55","新北市新店區花園二路三段17號","121.556185","24.9317033333333","6500600","新店區"
"231034","616-UM","2019/08/20 15:39:44","新北市新店區玫瑰路66巷1號","121.495931666667","24.94527","6500600","新店區"
"231012","KED-0819","2019/08/20 15:39:54","新北市新店區文化路33號","121.543791666667","24.9800633333333","6500600","新店區"
"231026","720-UM","2019/08/20 15:39:43","新北市新店區三民路51巷5弄4號","121.536428333333","24.9699866666667","6500600","新店區"
"231028","897-TW","2019/08/20 15:39:50","新北市新店區僑義路18號","121.500495","24.9503866666667","6500600","新店區"
"231037","AKT-0513","2019/08/20 15:39:44","新北市新店區安興路69號","121.515808333333","24.9748833333333","6500600","新店區"
"241011","013-R5","2019/08/20 15:39:39","新北市三重區龍濱路285號","121.501031666667","25.0734816666667","6500200","三重區"
"241028","022-UY","2019/08/20 15:39:42","新北市三重區重新路三段140-1號","121.491425","25.0598033333333","6500200","三重區"
"241015","062-VK","2019/08/20 15:39:44","新北市三重區重新路四段121號","121.48523","25.05229","6500200","三重區"
"241017","063-VK","2019/08/20 15:39:50","新北市三重區新北大道一段3-1號","121.490076666667","25.0612233333333","6500200","三重區"
"241024","065-VK","2019/08/20 15:39:58","新北市三重區重新路四段121號","121.48479","25.0525883333333","6500200","三重區"
"241002","090-VK","2019/08/20 15:39:42","新北市三重區重新路四段121號","121.485185","25.0520833333333","6500200","三重區"
"241018","268-UM","2019/08/20 15:39:41","新北市三重區重新路四段121號","121.485051666667","25.0522983333333","6500200","三重區"
"241013","270-UM","2019/08/20 15:39:59","新北市三重區正義北路291號","121.49488","25.0705516666667","6500200","三重區"
"241007","398-BY","2019/08/20 15:39:46","新北市三重區重新路四段121號","121.484893333333","25.051935","6500200","三重區"
"241004","475-VK","2019/08/20 15:39:47","新北市三重區重新路四段121號","121.485091666667","25.0520166666667","6500200","三重區"
"241020","478-VK","2019/08/20 15:39:54","新北市三重區忠孝路二段52號","121.485088333333","25.07051","6500200","三重區"
"241014","543-UM","2019/08/20 15:39:41","新北市三重區重新路四段121號","121.485135","25.05216","6500200","三重區"
"241023","545-UM","2019/08/20 15:39:58","新北市三重區重新路四段121號","121.484338333333","25.0522066666667","6500200","三重區"
"241005","AAD-863","2019/08/20 15:39:55","新北市三重區重新路四段121號","121.484538333333","25.0521083333333","6500200","三重區"
"241012","941-UM","2019/08/20 15:39:43","新北市三重區自強路一段68號","121.49705","25.0666566666667","6500200","三重區"
"241029","942-UM","2019/08/20 15:39:37","新北市三重區中正南路262號","121.493306666667","25.0528333333333","6500200","三重區"
"241033","AAC-255","2019/08/20 15:39:51","新北市三重區重新路五段416號","121.475563333333","25.0476266666667","6500200","三重區"
"235033","4980-A6","2019/08/20 15:39:43","新北市中和區員山路304號","121.481535","25.0027066666667","6500300","中和區"
"235026","800-TS","2019/08/20 15:39:55","新北市中和區立業路70號","121.491946666667","25.0073583333333","6500300","中和區"
"235023","AAC-215","2019/08/20 15:39:38","新北市中和區員山路28-12號","121.481101666667","24.9864833333333","6500300","中和區"
"227002","642-TC","2019/08/20 15:39:40","新北市雙溪區牡丹里中正路44號","121.864853333333","25.0386933333333","6502500","雙溪區"
"236074","166-UM","2019/08/20 15:39:46","新北市土城區中央路四段321巷46號","121.412306666667","24.951065","6501300","土城區"
"236029","253-BX","2019/08/20 15:39:39","新北市土城區學成路158號","121.448223333333","24.9892683333333","6501300","土城區"
"236024","269-VK","2019/08/20 15:39:40","新北市土城區裕生路83巷29弄2號","121.448271666667","24.9839066666667","6501300","土城區"
"236013","270-VK","2019/08/20 15:39:45","新北市土城區四川路2號","121.45573","24.9962933333333","6501300","土城區"
"236065","KEA-2877","2019/08/20 15:39:53","新北市土城區中央路三段142號","121.432983333333","24.9654866666667","6501300","土城區"
"236017","401-BY","2019/08/20 15:39:52","新北市土城區和城路二段253號","121.47305","24.9874716666667","6501300","土城區"
"236057","912-UM","2019/08/20 15:39:39","新北市土城區中央路一段264-1號","121.444061666667","24.9838566666667","6501300","土城區"
"236045","913-UM","2019/08/20 15:39:48","新北市土城區金城路三段205-1號","121.470345","24.989315","6501300","土城區"
"236054","AAC-216","2019/08/20 15:39:42","新北市土城區中華路一段14號","121.447776666667","24.990535","6501300","土城區"
"221033","647-BX","2019/08/20 15:26:27","新北市汐止區康寧街901號","121.651655","25.074975","6501100","汐止區"
"220032","296-UM","2019/08/20 15:39:49","新北市土城區福安街116-1號","121.416505","24.9648716666667","6500100","板橋區"
