"lineid","car","time","location","longitude","latitude","cityid","cityname"
"249005","172-UM","2019/08/20 16:39:57","新北市八里區龍米路二段123號","121.446818333333","25.14444","6502300","八里區"
"249002","305-UY","2019/08/20 16:39:46","新北市八里區渡船頭3-21號","121.433445","25.154775","6502300","八里區"
"249003","593-UM","2019/08/20 16:39:51","新北市八里區中山路二段283號","121.401506666667","25.1487766666667","6502300","八里區"
"231046","719-UM","2019/08/20 16:39:39","新北市新店區灣潭路3-5號","121.53812","24.950825","6500600","新店區"
"241011","013-R5","2019/08/20 16:39:59","新北市三重區仁愛街53巷4號","121.496585","25.0721183333333","6500200","三重區"
"241028","022-UY","2019/08/20 16:39:52","新北市三重區重新路三段27號","121.49466","25.0615733333333","6500200","三重區"
"241008","059-VK","2019/08/20 16:39:40","新北市三重區永安北路一段27巷43號","121.477651666667","25.075545","6500200","三重區"
"241031","061-VK","2019/08/20 16:39:56","新北市三重區重新路四段41巷2弄13號","121.487425","25.0579183333333","6500200","三重區"
"241015","062-VK","2019/08/20 16:39:44","新北市三重區信義街6號","121.499301666667","25.06489","6500200","三重區"
"241017","063-VK","2019/08/20 16:39:51","新北市三重區中正北路25巷2號","121.493101666667","25.062745","6500200","三重區"
"241024","065-VK","2019/08/20 16:39:58","新北市三重區中正北路315巷6弄12號","121.475603333333","25.0720533333333","6500200","三重區"
"241002","090-VK","2019/08/20 16:39:42","新北市三重區仁義街241巷50號","121.497396666667","25.0833433333333","6500200","三重區"
"241003","091-VK","2019/08/20 16:39:52","新北市三重區五華街71巷69號","121.493828333333","25.0836133333333","6500200","三重區"
"241006","262-UM","2019/08/20 16:39:54","新北市三重區力行路二段97號","121.482875","25.07587","6500200","三重區"
"241009","267-UM","2019/08/20 16:39:45","新北市三重區三和路四段203巷94號","121.484336666667","25.0801733333333","6500200","三重區"
"241018","268-UM","2019/08/20 16:39:41","新北市三重區六張街71號","121.493453333333","25.0701016666667","6500200","三重區"
"241032","269-UM","2019/08/20 16:39:42","新北市三重區新北大道一段33號","121.486065","25.06134","6500200","三重區"
"241013","270-UM","2019/08/20 16:39:59","新北市三重區仁愛街75號","121.496181666667","25.072995","6500200","三重區"
"241025","271-UM","2019/08/20 16:39:55","新北市三重區中正北路317巷1號","121.47404","25.071935","6500200","三重區"
"241007","398-BY","2019/08/20 16:39:46","新北市三重區三和路四段155巷33號","121.485016666667","25.0787233333333","6500200","三重區"
"241030","KED-0822","2019/08/20 16:39:51","新北市三重區環河南路253號","121.491216666667","25.050525","6500200","三重區"
"241004","475-VK","2019/08/20 16:39:47","新北市三重區五福街35號","121.492121666667","25.0811616666667","6500200","三重區"
"241020","478-VK","2019/08/20 16:39:54","新北市三重區忠孝路二段34號","121.485746666667","25.0710316666667","6500200","三重區"
"241026","480-VK","2019/08/20 16:39:43","新北市三重區和平街18號","121.500851666667","25.0625266666667","6500200","三重區"
"241014","543-UM","2019/08/20 16:39:42","新北市三重區龍濱路28號","121.502938333333","25.06804","6500200","三重區"
"241023","545-UM","2019/08/20 16:39:58","新北市三重區中華路107號","121.483603333333","25.0633966666667","6500200","三重區"
"241001","547-UM","2019/08/20 16:39:51","新北市三重區仁愛街264巷9號","121.49272","25.078135","6500200","三重區"
"241019","KEA-2593","2019/08/20 16:39:44","新北市三重區重陽路三段7-3號","121.489146666667","25.0667216666667","6500200","三重區"
"241005","AAD-863","2019/08/20 16:39:55","新北市三重區碧華街150號","121.485363333333","25.0819616666667","6500200","三重區"
"241022","KED-0820","2019/08/20 16:39:46","新北市三重區貴陽街20號","121.484186666667","25.0619916666667","6500200","三重區"
"241016","887-TS","2019/08/20 16:39:51","新北市三重區大智街24號","121.494703333333","25.0647183333333","6500200","三重區"
"241012","941-UM","2019/08/20 16:39:43","新北市三重區仁興街4巷13號","121.499553333333","25.0737483333333","6500200","三重區"
"241029","942-UM","2019/08/20 16:39:57","新北市三重區集美街112巷27號","121.490066666667","25.0542516666667","6500200","三重區"
"241033","AAC-255","2019/08/20 16:39:51","新北市三重區光復路二段112號","121.471996666667","25.05881","6500200","三重區"
"235064","005-UY","2019/08/20 16:39:41","新北市中和區員山路36巷16-3號","121.484896666667","24.9911333333333","6500300","中和區"
"235062","800-TS","2019/08/20 16:14:24","","121.485225","24.9912533333333","6500300","中和區"
"247006","341-TH","2019/08/20 16:39:49","新北市五股區中興路二段182巷1號","121.45726","25.0785616666667","6501400","蘆洲區"
"247012","056-VK","2019/08/20 16:39:43","新北市五股區中興路三段163號","121.4494","25.08073","6501400","蘆洲區"
"247024","001-UY","2019/08/20 16:39:47","新北市五股區凌雲路一段25號","121.452336666667","25.100135","6501400","蘆洲區"
"224007","285-BY","2019/08/20 16:39:52","新北市瑞芳區月眉路36-2號","121.76119","25.1120283333333","6501200","瑞芳區"
"224009","275-VK","2019/08/20 16:15:54","","121.809088333333","25.1083416666667","6501200","瑞芳區"
"224005","271-BY","2019/08/20 16:39:56","新北市瑞芳區洞頂路8-1號","121.862788333333","25.1211566666667","6501200","瑞芳區"
"227002","642-TC","2019/08/20 16:40:00","新北市雙溪區長源里土地公山1-1號","121.79958","25.0133383333333","6502500","雙溪區"
"227001","400-TW","2019/08/20 16:39:50","新北市雙溪區牡丹里聖南9號","121.859605","25.051825","6502500","雙溪區"
"251015","KEA-2871","2019/08/20 16:39:57","新北市淡水區學府路102巷104-1號","121.454446666667","25.17134","6501000","淡水區"
"251016","179-VK","2019/08/20 16:39:58","新北市淡水區北新路一段31號","121.454466666667","25.1810933333333","6501000","淡水區"
"251008","181-VK","2019/08/20 16:39:53","新北市淡水區樹梅坑9號","121.472816666667","25.1426783333333","6501000","淡水區"
"251013","182-VK","2019/08/20 16:40:00","新北市淡水區楓樹湖3-6號","121.496965","25.189245","6501000","淡水區"
"251014","577-R6","2019/08/20 16:40:00","新北市淡水區淡金路四段478號","121.45243","25.223955","6501000","淡水區"
"251011","650-BX","2019/08/20 16:40:01","新北市淡水區中正路二段31號","121.419295","25.1817283333333","6501000","淡水區"
"252002","178-VK","2019/08/20 16:39:46","新北市三芝區觀海街2號","121.510236666667","25.2581866666667","6502100","三芝區"
"252001","292-VK","2019/08/20 16:39:59","新北市三芝區埔坪里埔頭坑54號","121.507336666667","25.2651533333333","6502100","三芝區"
"237010","078-UY","2019/08/20 16:39:58","新北市三峽區中山路459巷135號","121.348885","24.9332283333333","6500900","三峽區"
