"lineid","car","time","location","longitude","latitude","cityid","cityname"
"249005","172-UM","2019/08/20 16:49:57","新北市八里區大堀湖2-9號","121.424351666667","25.1522833333333","6502300","八里區"
"249004","303-UY","2019/08/20 16:49:43","新北市八里區博物館路202巷92號","121.408896666667","25.163285","6502300","八里區"
"249002","305-UY","2019/08/20 16:49:46","新北市八里區牛寮埔31號","121.42988","25.145725","6502300","八里區"
"249003","593-UM","2019/08/20 16:49:51","新北市八里區中山路二段283號","121.401578333333","25.148685","6502300","八里區"
"244007","080-UY","2019/08/20 16:49:51","新北市林口區粉寮路31-2號","121.403906666667","25.087515","6501700","林口區"
"244025","837-TS","2019/08/20 16:49:40","新北市林口區粉寮69號","121.40491","25.0907983333333","6501700","林口區"
"231046","719-UM","2019/08/20 16:42:59","新北市新店區灣潭路3-3號","121.538133333333","24.950835","6500600","新店區"
"241011","013-R5","2019/08/20 16:49:39","新北市三重區龍濱路269號","121.501315","25.07308","6500200","三重區"
"241028","022-UY","2019/08/20 16:49:42","新北市三重區大同南路56號","121.496111666667","25.0597966666667","6500200","三重區"
"241008","059-VK","2019/08/20 16:49:39","新北市三重區永安北路一段11巷26號","121.477693333333","25.0748683333333","6500200","三重區"
"241031","061-VK","2019/08/20 16:49:56","新北市三重區過圳街19號","121.48848","25.060445","6500200","三重區"
"241015","062-VK","2019/08/20 16:49:44","新北市三重區文化北路43巷18號","121.499421666667","25.06558","6500200","三重區"
"241017","063-VK","2019/08/20 16:49:51","新北市三重區國隆路8巷19號","121.492933333333","25.063535","6500200","三重區"
"241024","065-VK","2019/08/20 16:49:38","新北市三重區中正北路317巷9號","121.474861666667","25.0729416666667","6500200","三重區"
"241002","090-VK","2019/08/20 16:49:42","新北市三重區仁義街143巷116號","121.499435","25.081625","6500200","三重區"
"241003","091-VK","2019/08/20 16:49:53","新北市三重區五華街87巷32號","121.492958333333","25.0840933333333","6500200","三重區"
"241006","262-UM","2019/08/20 16:49:41","新北市三重區車路頭街134號","121.483848333333","25.0754216666667","6500200","三重區"
"241009","267-UM","2019/08/20 16:49:45","新北市三重區溪尾街218巷13號","121.487338333333","25.0813466666667","6500200","三重區"
"241018","268-UM","2019/08/20 16:49:41","新北市三重區安慶街149巷14號","121.494236666667","25.0692516666667","6500200","三重區"
"241032","269-UM","2019/08/20 16:49:42","新北市三重區三光街30巷1號","121.484811666667","25.06047","6500200","三重區"
"241013","270-UM","2019/08/20 16:49:59","新北市三重區仁壽街22號","121.496816666667","25.073475","6500200","三重區"
"241025","271-UM","2019/08/20 16:49:55","新北市三重區中正北路357號","121.472703333333","25.0717516666667","6500200","三重區"
"241007","398-BY","2019/08/20 16:49:46","新北市三重區三和路四段181巷160號","121.486001666667","25.080075","6500200","三重區"
"241030","KED-0822","2019/08/20 16:49:51","新北市三重區新興路14號","121.492421666667","25.0530683333333","6500200","三重區"
"241004","475-VK","2019/08/20 16:49:47","新北市三重區仁愛街397巷58號","121.492068333333","25.081675","6500200","三重區"
"241020","478-VK","2019/08/20 16:49:54","新北市三重區忠孝路二段34號","121.485751666667","25.0710383333333","6500200","三重區"
"241026","480-VK","2019/08/20 16:49:43","新北市三重區福和街33號","121.501496666667","25.061725","6500200","三重區"
"241014","543-UM","2019/08/20 16:49:41","新北市三重區長壽街120巷11號","121.502523333333","25.069145","6500200","三重區"
"241023","545-UM","2019/08/20 16:49:58","新北市三重區中華路76巷25號","121.482553333333","25.06278","6500200","三重區"
"241001","547-UM","2019/08/20 16:49:51","新北市三重區仁政街54巷19號","121.492411666667","25.07684","6500200","三重區"
"241019","KEA-2593","2019/08/20 16:49:44","新北市三重區忠孝路二段38巷18號","121.48572","25.0700683333333","6500200","三重區"
"241005","AAD-863","2019/08/20 16:49:55","新北市三重區仁華街82號","121.485296666667","25.0831333333333","6500200","三重區"
"241022","KED-0820","2019/08/20 16:49:46","新北市三重區貴陽街47巷23號","121.484898333333","25.062545","6500200","三重區"
"241016","887-TS","2019/08/20 16:49:51","新北市三重區大同北路135巷38號","121.493715","25.06486","6500200","三重區"
"241012","941-UM","2019/08/20 16:49:43","新北市三重區河邊北街214號","121.501981666667","25.0748583333333","6500200","三重區"
"241029","942-UM","2019/08/20 16:49:57","新北市三重區集美街210-5號","121.491418333333","25.0545816666667","6500200","三重區"
"241033","AAC-255","2019/08/20 16:49:51","新北市三重區新北大道二段125號","121.466401666667","25.0614833333333","6500200","三重區"
"235064","005-UY","2019/08/20 16:49:11","新北市中和區員山路36巷16-3號","121.485173333333","24.99124","6500300","中和區"
"247014","KEA-2869","2019/08/20 16:49:37","新北市蘆洲區三民路89號","121.474213333333","25.0846116666667","6501400","蘆洲區"
"247008","KED-0682","2019/08/20 16:49:52","新北市蘆洲區中山二路45巷28號","121.474191666667","25.0812933333333","6501400","蘆洲區"
"247006","341-TH","2019/08/20 16:49:49","新北市蘆洲區永安南路二段132-1號","121.462586666667","25.0785083333333","6501400","蘆洲區"
"247012","056-VK","2019/08/20 16:49:43","新北市蘆洲區環堤大道365號","121.45736","25.09747","6501400","蘆洲區"
"247016","053-VK","2019/08/20 16:49:55","新北市蘆洲區正和街3號","121.47048","25.0826483333333","6501400","蘆洲區"
"247024","001-UY","2019/08/20 16:49:47","新北市蘆洲區長興路202號","121.460556666667","25.0874733333333","6501400","蘆洲區"
"228002","663-BX","2019/08/20 16:49:46","新北市貢寮區貢寮里長泰路24-2號","121.903861666667","25.0238566666667","6502600","貢寮區"
"228003","828-UM","2019/08/20 16:49:56","新北市貢寮區貢寮里朝陽街1-2號","121.912361666667","25.0212416666667","6502600","貢寮區"
"224007","285-BY","2019/08/20 16:49:55","新北市瑞芳區瑞竹路110號","121.762375","25.1038983333333","6501200","瑞芳區"
"224005","271-BY","2019/08/20 16:49:56","新北市瑞芳區明里路54號","121.868433333333","25.1222133333333","6501200","瑞芳區"
"227002","642-TC","2019/08/20 16:49:40","新北市雙溪區長源里柑腳32號","121.804078333333","25.0137033333333","6502500","雙溪區"
"227001","400-TW","2019/08/20 16:49:50","新北市雙溪區三貂里子崙坑1-6號","121.849925","25.0574766666667","6502500","雙溪區"
"251004","009-UM","2019/08/20 16:49:43","新北市淡水區中正路二段31號","121.419276666667","25.1817633333333","6501000","淡水區"
"251015","KEA-2871","2019/08/20 16:49:57","新北市淡水區忠愛街5-2號","121.460693333333","25.17158","6501000","淡水區"
"251016","179-VK","2019/08/20 16:49:58","新北市淡水區水頭42號","121.478165","25.1850816666667","6501000","淡水區"
"251008","181-VK","2019/08/20 16:49:53","新北市淡水區樹梅坑9號","121.47283","25.1426833333333","6501000","淡水區"
"251013","182-VK","2019/08/20 16:49:40","新北市淡水區楓樹湖1-5號","121.49477","25.1900766666667","6501000","淡水區"
"251007","442-VK","2019/08/20 16:49:47","新北市淡水區中正路32巷2號","121.430741666667","25.1752783333333","6501000","淡水區"
"251014","577-R6","2019/08/20 16:49:40","新北市淡水區淡金路四段478號","121.452431666667","25.2239566666667","6501000","淡水區"
"251011","650-BX","2019/08/20 16:49:41","新北市淡水區重建街82號","121.440016666667","25.1724383333333","6501000","淡水區"
"252002","178-VK","2019/08/20 16:49:46","新北市三芝區忠孝街116號","121.505915","25.257235","6502100","三芝區"
"252001","292-VK","2019/08/20 16:49:59","新北市三芝區淡金路二段89號","121.504011666667","25.260745","6502100","三芝區"
"237010","078-UY","2019/08/20 16:49:58","新北市三峽區中山路459巷135號","121.348875","24.9332266666667","6500900","三峽區"
"247010","KED-0683","2019/08/20 16:49:53","新北市蘆洲區環堤大道365號","121.457241666667","25.0974116666667","6501400","蘆洲區"
"242029","615-BX","2019/08/20 16:49:44","新北市新莊區三和路18-25號","121.44174","25.0392833333333","6500500","新莊區"
"242027","613-BX","2019/08/20 16:49:28","新北市新莊區新泰路255巷83號","121.442095","25.0390166666667","6500500","新莊區"
"242025","362-BY","2019/08/20 16:49:53","新北市新莊區三和路24-42號","121.439988333333","25.04076","6500500","新莊區"
"242017","176-VK","2019/08/20 16:49:57","新北市新莊區三和路12-21號","121.44205","25.0385383333333","6500500","新莊區"
"242019","347-TH","2019/08/20 16:49:55","新北市新莊區三和路12-21號","121.44228","25.038005","6500500","新莊區"
"238017","283-BY","2019/08/20 16:49:54","新北市樹林區育德街78號","121.38789","24.968615","6500700","樹林區"
"239007","AAC-297","2019/08/20 16:49:39","新北市鶯歌區二甲路13-16號","121.345118333333","24.935145","6500800","鶯歌區"
"239008","527-UM","2019/08/20 16:49:50","新北市鶯歌區二甲路13-16號","121.345181666667","24.9351133333333","6500800","鶯歌區"
"239003","360-BY","2019/08/20 16:49:51","新北市鶯歌區二甲路13-16號","121.345483333333","24.9351416666667","6500800","鶯歌區"
"233001","KEA-2870","2019/08/20 16:49:42","新北市烏來區烏來街45-1號","121.551878333333","24.8649733333333","6502900","烏來區"
"242009","280-VK","2019/08/20 16:49:41","新北市新莊區三和路12-21號","121.44193","25.0382733333333","6500500","新莊區"
