"lineid","car","time","location","longitude","latitude","cityid","cityname"
"234026","9371-KE","2019/08/20 17:39:52","新北市永和區中正路708號","121.516055","25.0099266666667","6500400","永和區"
"249005","172-UM","2019/08/20 17:39:56","新北市八里區荖阡坑路34-1號","121.402758333333","25.1297833333333","6502300","八里區"
"249001","173-UM","2019/08/20 17:39:42","新北市八里區龍米路二段148號","121.43691","25.155945","6502300","八里區"
"249004","303-UY","2019/08/20 17:39:43","新北市八里區中華路一段81巷15號","121.420501666667","25.1566466666667","6502300","八里區"
"249002","305-UY","2019/08/20 17:39:46","新北市八里區石壁腳19號","121.441738333333","25.135355","6502300","八里區"
"249003","593-UM","2019/08/20 17:39:51","新北市八里區中山路二段220號","121.405293333333","25.1515733333333","6502300","八里區"
"232011","076-UY","2019/08/20 17:39:56","新北市坪林區水柳腳36號","121.709965","24.9352283333333","6502000","坪林區"
"244007","080-UY","2019/08/20 17:39:50","新北市林口區林口路249號","121.386566666667","25.0841366666667","6501700","林口區"
"244019","402-UM","2019/08/20 17:39:47","新北市林口區忠孝路551號","121.372295","25.0687083333333","6501700","林口區"
"244013","KEA-2802","2019/08/20 17:39:54","新北市林口區中正路438號","121.38386","25.077725","6501700","林口區"
"244023","483-VK","2019/08/20 17:39:45","新北市林口區東明一街121巷11號","121.390116666667","25.0701816666667","6501700","林口區"
"244017","485-VK","2019/08/20 17:39:59","新北市林口區文化二路一段232-3號","121.369845","25.0726966666667","6501700","林口區"
"244009","656-BX","2019/08/20 17:39:51","新北市林口區寶林路42號","121.385088333333","25.0842483333333","6501700","林口區"
"244011","657-BX","2019/08/20 17:39:42","新北市林口區佳林路160號","121.38396","25.0767916666667","6501700","林口區"
"244025","837-TS","2019/08/20 17:39:40","新北市林口區文化三路一段249巷73號","121.362823333333","25.0723666666667","6501700","林口區"
"244021","838-TS","2019/08/20 17:39:44","新北市林口區仁愛路123巷1號","121.398771666667","25.0712783333333","6501700","林口區"
"231046","719-UM","2019/08/20 17:12:19","新北市新店區直潭路71號","121.532508333333","24.9422483333333","6500600","新店區"
"241015","062-VK","2019/08/20 17:39:44","新北市三重區龍濱路2號","121.503223333333","25.06679","6500200","三重區"
"241017","063-VK","2019/08/20 17:39:50","新北市三重區大同北路14號","121.495363333333","25.062175","6500200","三重區"
"241024","065-VK","2019/08/20 17:39:54","新北市三重區大勇街11號","121.483446666667","25.0714533333333","6500200","三重區"
"241007","398-BY","2019/08/20 17:39:46","新北市三重區力行路二段30巷46弄2號","121.480048333333","25.0729066666667","6500200","三重區"
"241014","543-UM","2019/08/20 17:39:41","新北市三重區龍濱路283巷8號","121.501195","25.0735683333333","6500200","三重區"
"241023","545-UM","2019/08/20 17:39:58","新北市三重區新北大道一段252號","121.480186666667","25.0617683333333","6500200","三重區"
"241016","887-TS","2019/08/20 17:39:56","新北市三重區正義南路1號","121.497875","25.062065","6500200","三重區"
"241012","941-UM","2019/08/20 17:39:43","新北市三重區河邊北街311號","121.50239","25.0747366666667","6500200","三重區"
"241033","AAC-255","2019/08/20 17:39:51","新北市三重區光復路一段47號","121.472243333333","25.0487716666667","6500200","三重區"
"235064","005-UY","2019/08/20 17:39:47","新北市中和區員山路36巷16-3號","121.485111666667","24.9912533333333","6500300","中和區"
"235065","098-UM","2019/08/20 17:39:46","新北市中和區員山路36巷16-3號","121.485248333333","24.99111","6500300","中和區"
"247014","KEA-2869","2019/08/20 17:39:57","新北市蘆洲區中山二路61號","121.473611666667","25.0819466666667","6501400","蘆洲區"
"247008","KED-0682","2019/08/20 17:39:52","新北市蘆洲區民生街139號","121.47225","25.079175","6501400","蘆洲區"
"235062","800-TS","2019/08/20 17:39:49","新北市中和區員山路36巷16-3號","121.485118333333","24.9913916666667","6500300","中和區"
"247004","893-R6","2019/08/20 17:39:44","新北市蘆洲區長安街249巷13號","121.458376666667","25.08288","6501400","蘆洲區"
"247018","546-UM","2019/08/20 17:39:43","新北市蘆洲區民權路61巷4弄2號","121.473445","25.08793","6501400","蘆洲區"
"247006","341-TH","2019/08/20 17:39:49","新北市蘆洲區長安街46巷7弄11號","121.463296666667","25.0805516666667","6501400","蘆洲區"
"247002","336-TH","2019/08/20 17:39:59","新北市蘆洲區永平街42-1號","121.458015","25.0912766666667","6501400","蘆洲區"
"247022","057-VK","2019/08/20 17:39:53","新北市蘆洲區民族路568號","121.467296666667","25.0887833333333","6501400","蘆洲區"
"247012","056-VK","2019/08/20 17:39:43","新北市蘆洲區民權路31巷11號","121.47549","25.08581","6501400","蘆洲區"
"247016","053-VK","2019/08/20 17:39:55","新北市蘆洲區中正路185巷31弄42號","121.467098333333","25.083135","6501400","蘆洲區"
"247020","007-UY","2019/08/20 17:39:45","新北市蘆洲區民族路343-1號","121.47262","25.0919716666667","6501400","蘆洲區"
"247024","001-UY","2019/08/20 17:39:47","新北市蘆洲區長樂路125-1號","121.462136666667","25.0880666666667","6501400","蘆洲區"
"228001","212-TW","2019/08/20 17:39:43","新北市貢寮區真理里新港街26巷28-6號","121.92771","25.0554016666667","6502600","貢寮區"
"228002","663-BX","2019/08/20 17:39:46","新北市貢寮區福隆里龜壽谷街11-1號","121.954005","25.0070183333333","6502600","貢寮區"
"228003","828-UM","2019/08/20 17:39:56","新北市貢寮區真理里延平街27號","121.924498333333","25.05498","6502600","貢寮區"
"224010","AGQ-8101","2019/08/20 17:39:54","新北市瑞芳區岳王路54-2號","121.808596666667","25.1112483333333","6501200","瑞芳區"
"224006","676-BX","2019/08/20 17:39:45","新北市瑞芳區中山路326號","121.796381666667","25.1101633333333","6501200","瑞芳區"
"224009","275-VK","2019/08/20 17:39:58","新北市瑞芳區山尖路209號","121.849086666667","25.1117933333333","6501200","瑞芳區"
"224008","273-VK","2019/08/20 17:39:56","新北市瑞芳區瑞柑新村11號","121.829333333333","25.1064766666667","6501200","瑞芳區"
"224005","271-BY","2019/08/20 17:39:56","新北市瑞芳區海濱路64號","121.831156666667","25.1246733333333","6501200","瑞芳區"
"227002","642-TC","2019/08/20 17:24:54","新北市雙溪區共和里東榮街42號","121.8661","25.0337266666667","6502500","雙溪區"
"227001","400-TW","2019/08/20 17:39:50","新北市雙溪區三貂里政光路3-1號","121.850763333333","25.063365","6502500","雙溪區"
"208003","665-BX","2019/08/20 17:39:52","新北市金山區磺清路135號","121.63945","25.2277583333333","6502700","金山區"
"251004","009-UM","2019/08/20 17:39:40","新北市淡水區中正東路二段88巷37號","121.459268333333","25.1466516666667","6501000","淡水區"
"251005","010-UM","2019/08/20 17:39:45","新北市淡水區鄧公路35巷4號","121.4516","25.17127","6501000","淡水區"
"251010","012-UM","2019/08/20 17:39:43","新北市淡水區淡海路276號","121.41987","25.1883516666667","6501000","淡水區"
"251015","KEA-2871","2019/08/20 17:38:17","新北市淡水區樹林口7-1號","121.479335","25.16718","6501000","淡水區"
"251016","179-VK","2019/08/20 17:39:58","新北市淡水區埤島39-15號","121.452703333333","25.19589","6501000","淡水區"
"251008","181-VK","2019/08/20 17:39:53","新北市淡水區中正東路二段143巷6弄3號","121.461293333333","25.147045","6501000","淡水區"
"251013","182-VK","2019/08/20 17:39:40","新北市淡水區演戲埔腳2號","121.474585","25.1925083333333","6501000","淡水區"
"251007","442-VK","2019/08/20 17:39:42","新北市淡水區民生路124巷23號","121.464223333333","25.1376183333333","6501000","淡水區"
"251012","443-VK","2019/08/20 17:39:47","新北市淡水區北新路200巷8號","121.451703333333","25.1797066666667","6501000","淡水區"
"251006","561-UM","2019/08/20 17:39:51","新北市淡水區大信街24巷2號","121.441975","25.1766816666667","6501000","淡水區"
"251009","575-R6","2019/08/20 17:39:44","新北市淡水區中正路70號","121.44298","25.1696666666667","6501000","淡水區"
"251014","577-R6","2019/08/20 17:39:40","新北市淡水區公埔子16-6號","121.481188333333","25.225685","6501000","淡水區"
"251011","650-BX","2019/08/20 17:40:01","新北市淡水區坪頂路718號","121.482803333333","25.1583533333333","6501000","淡水區"
"251002","672-BX","2019/08/20 17:39:56","新北市淡水區重建街永興巷13號","121.439553333333","25.17266","6501000","淡水區"
"251003","673-BX","2019/08/20 17:39:52","新北市淡水區中山北路一段50號","121.441825","25.175615","6501000","淡水區"
"207003","550-UM","2019/08/20 17:39:52","新北市萬里區龜吼里漁澳路61-1號","121.687205","25.1951716666667","6502800","萬里區"
"207004","291-VK","2019/08/20 17:39:56","新北市萬里區中幅里中福路26號","121.680686666667","25.16635","6502800","萬里區"
"252002","178-VK","2019/08/20 17:39:46","新北市三芝區中正路二段18號","121.504538333333","25.2553016666667","6502100","三芝區"
"252001","292-VK","2019/08/20 17:39:39","新北市三芝區中山路一段24號","121.501126666667","25.25823","6502100","三芝區"
"237009","210-TH","2019/08/20 17:39:43","新北市三峽區中山路240號","121.362483333333","24.9374766666667","6500900","三峽區"
"237013","252-BX","2019/08/20 17:39:56","新北市三峽區愛國路33-8號","121.374738333333","24.9332283333333","6500900","三峽區"
"237010","078-UY","2019/08/20 17:39:58","新北市三峽區中山路190號","121.363743333333","24.9368616666667","6500900","三峽區"
"237005","AKY-6261","2019/08/20 17:39:58","新北市三峽區中山路459巷135號","121.348601666667","24.9330483333333","6500900","三峽區"
"236014","270-VK","2019/08/20 17:39:41","新北市土城區城林路6巷80號","121.43853","24.979635","6501300","土城區"
"236038","271-VK","2019/08/20 17:39:41","新北市土城區城林路6巷80號","121.438485","24.9797283333333","6501300","土城區"
"247010","KED-0683","2019/08/20 17:39:53","新北市蘆洲區中山一路85號","121.477226666667","25.08139","6501400","蘆洲區"
"236070","KEA-2877","2019/08/20 17:39:55","新北市土城區城林路6巷80號","121.438323333333","24.9795283333333","6501300","土城區"
"236063","915-UM","2019/08/20 17:39:56","新北市土城區城林路6巷80號","121.438628333333","24.979745","6501300","土城區"
"242039","AAC-296","2019/08/20 17:39:47","新北市新莊區民全街7號","121.428996666667","25.0213933333333","6500500","新莊區"
"242061","986-R7","2019/08/20 17:39:43","新北市新莊區瓊林南路103巷8弄20號","121.435156666667","25.0112116666667","6500500","新莊區"
"242002","751-BX","2019/08/20 17:39:51","新北市新莊區新莊路393號","121.45127","25.03372","6500500","新莊區"
"242029","615-BX","2019/08/20 17:39:44","新北市新莊區復興路一段145號","121.450268333333","25.0433383333333","6500500","新莊區"
"242027","613-BX","2019/08/20 17:39:56","新北市新莊區福壽街95號","121.458031666667","25.0504333333333","6500500","新莊區"
"242058","612-BX","2019/08/20 17:39:43","新北市新莊區中正路618號","121.42379","25.0293966666667","6500500","新莊區"
"242046","566-BX","2019/08/20 17:39:58","新北市新莊區福營路114號","121.436218333333","25.0325733333333","6500500","新莊區"
"242051","497-BY","2019/08/20 17:39:53","新北市新莊區西盛街195號","121.428198333333","25.01725","6500500","新莊區"
"242056","441-UM","2019/08/20 17:39:53","新北市新莊區瓊林路13-1號","121.449251666667","25.0312933333333","6500500","新莊區"
"242005","440-UM","2019/08/20 17:39:45","新北市新莊區自立街180號","121.456031666667","25.0452466666667","6500500","新莊區"
"242042","415-TV","2019/08/20 17:40:00","新北市新莊區中正路514巷51號","121.432176666667","25.0336266666667","6500500","新莊區"
"242011","413-TV","2019/08/20 17:39:58","新北市新莊區中港路635號","121.451116666667","25.0544033333333","6500500","新莊區"
"242048","400-BY","2019/08/20 17:39:54","新北市新莊區萬安街153號","121.420365","25.0214783333333","6500500","新莊區"
"242025","362-BY","2019/08/20 17:39:53","新北市新莊區思源路118號","121.460131666667","25.0468833333333","6500500","新莊區"
"242023","353-BY","2019/08/20 17:39:57","新北市新莊區中港路132巷22號","121.456278333333","25.0406066666667","6500500","新莊區"
"242013","132-UY","2019/08/20 17:39:39","新北市新莊區中誠街100號","121.449855","25.0478416666667","6500500","新莊區"
"242037","135-UY","2019/08/20 17:39:51","新北市新莊區建福路59巷44號","121.42875","25.0277016666667","6500500","新莊區"
"242054","172-VK","2019/08/20 17:39:43","新北市新莊區新樹路699巷9號","121.432561666667","25.0018816666667","6500500","新莊區"
"242015","173-VK","2019/08/20 17:39:50","新北市新莊區新泰路287號","121.44556","25.0406933333333","6500500","新莊區"
"242021","175-VK","2019/08/20 17:39:41","新北市新莊區中華路一段92號","121.45223","25.0395366666667","6500500","新莊區"
"242017","176-VK","2019/08/20 17:39:57","新北市新莊區中和街30巷13號","121.448901666667","25.0438666666667","6500500","新莊區"
"242019","347-TH","2019/08/20 17:39:55","新北市新莊區中港路179號","121.454956666667","25.0414983333333","6500500","新莊區"
"242034","348-TH","2019/08/20 17:39:57","新北市新莊區新莊路496-1號","121.446343333333","25.0333","6500500","新莊區"
"242007","349-TH","2019/08/20 17:39:46","新北市新莊區福樂街120號","121.4571","25.0478333333333","6500500","新莊區"
"242032","350-TH","2019/08/20 17:39:54","新北市新莊區新泰路361巷15號","121.442925","25.0429633333333","6500500","新莊區"
"238015","755-BX","2019/08/20 17:39:51","新北市樹林區啟智街44巷1號","121.42051","24.9927516666667","6500700","樹林區"
"238023","601-UM","2019/08/20 17:39:49","新北市樹林區三福街114號","121.406425","25.0163416666667","6500700","樹林區"
"238019","599-UM","2019/08/20 17:39:50","新北市樹林區太平路1-4號","121.418528333333","24.9847116666667","6500700","樹林區"
"238024","5061-A6","2019/08/20 17:39:45","新北市樹林區環河路2-2號","121.425376666667","24.9768216666667","6500700","樹林區"
"238018","KEA-2217","2019/08/20 17:39:45","新北市樹林區鎮前街61號","121.424881666667","24.9910333333333","6500700","樹林區"
"238022","KEA-2213","2019/08/20 17:39:57","新北市樹林區中華路187巷22號","121.420771666667","24.9809883333333","6500700","樹林區"
"238021","KEA-2539","2019/08/20 17:39:46","新北市樹林區柑園街一段253巷26號","121.396983333333","24.9532566666667","6500700","樹林區"
"238017","283-BY","2019/08/20 17:39:54","新北市樹林區三德街4號","121.413113333333","25.0128166666667","6500700","樹林區"
"238014","282-BY","2019/08/20 17:39:43","新北市樹林區保安街一段313巷27號","121.417003333333","24.9974083333333","6500700","樹林區"
"238020","268-VK","2019/08/20 17:39:56","新北市樹林區俊英街116巷41弄19號","121.42872","25.0067233333333","6500700","樹林區"
"238026","172-UY","2019/08/20 17:39:50","新北市樹林區新興街19巷36弄2號","121.402318333333","24.9735233333333","6500700","樹林區"
"238016","169-UY","2019/08/20 17:39:43","新北市樹林區育英街128號","121.419711666667","24.98937","6500700","樹林區"
"239007","AAC-297","2019/08/20 17:39:59","新北市鶯歌區鶯桃路182巷32號","121.337603333333","24.95642","6500800","鶯歌區"
"239006","891-R6","2019/08/20 17:39:47","新北市鶯歌區鶯桃路472巷55號","121.333251666667","24.9660866666667","6500800","鶯歌區"
"239008","527-UM","2019/08/20 17:39:50","桃園市龜山區宏德司法新村28號","121.333318333333","24.9793883333333","6500800","鶯歌區"
"239005","526-UM","2019/08/20 17:39:54","新北市鶯歌區鶯桃路二段17號","121.32567","24.971995","6500800","鶯歌區"
"239001","417-VK","2019/08/20 17:39:48","新北市鶯歌區中正三路237號","121.334421666667","24.9389516666667","6500800","鶯歌區"
"239003","360-BY","2019/08/20 17:39:50","新北市鶯歌區鶯桃路206巷14號","121.337566666667","24.9594433333333","6500800","鶯歌區"
"239002","359-BY","2019/08/20 17:39:53","新北市鶯歌區育才街88號","121.34741","24.9546616666667","6500800","鶯歌區"
"239004","193-VK","2019/08/20 17:39:42","新北市鶯歌區三鶯路102號","121.359051666667","24.9438483333333","6500800","鶯歌區"
"221033","647-BX","2019/08/20 17:39:51","新北市汐止區大同路二段269號","121.652243333333","25.0669283333333","6501100","汐止區"
"233001","KEA-2870","2019/08/20 17:39:42","新北市烏來區瀑布路30號","121.550961666667","24.8480916666667","6502900","烏來區"
"242044","281-VK","2019/08/20 17:39:43","新北市新莊區富國路65巷10號","121.419978333333","25.0264883333333","6500500","新莊區"
"242009","280-VK","2019/08/20 17:40:01","新北市新莊區昌明街14巷5弄2號","121.457351666667","25.053215","6500500","新莊區"
"235061","KEA-2875","2019/08/20 17:15:00","新北市中和區員山路36巷16-2號","121.485361666667","24.9916433333333","6500300","中和區"
