"lineid","car","time","location","longitude","latitude","cityid","cityname"
"234026","9371-KE","2019/08/20 17:59:52","新北市永和區水源街2巷15號","121.51202","25.005715","6500400","永和區"
"249005","172-UM","2019/08/20 17:59:56","新北市八里區荖阡坑路18號","121.397846666667","25.1382783333333","6502300","八里區"
"249001","173-UM","2019/08/20 17:59:42","新北市八里區龍米路二段35號","121.448421666667","25.139975","6502300","八里區"
"249004","303-UY","2019/08/20 17:59:43","新北市八里區龍米路二段159-2號","121.439056666667","25.1541066666667","6502300","八里區"
"249002","305-UY","2019/08/20 17:59:46","新北市八里區龍形五街15號","121.450093333333","25.133515","6502300","八里區"
"249003","593-UM","2019/08/20 17:59:51","新北市八里區中華路二段173-1號","121.40702","25.1507966666667","6502300","八里區"
"248008","KED-0815","2019/08/20 17:59:45","新北市五股區中興路二段150號","121.458601666667","25.0785716666667","6501500","五股區"
"248020","KED-0813","2019/08/20 17:59:39","新北市五股區中興路二段57-6號","121.460398333333","25.0752733333333","6501500","五股區"
"248004","677-BX","2019/08/20 17:59:39","新北市五股區中興路二段157巷11-1號","121.458105","25.0767916666667","6501500","五股區"
"232011","076-UY","2019/08/20 17:59:56","新北市坪林區北宜路八段213號","121.708671666667","24.93485","6502000","坪林區"
"244007","080-UY","2019/08/20 17:59:51","新北市林口區林口路226號","121.386841666667","25.083845","6501700","林口區"
"244019","402-UM","2019/08/20 17:59:47","新北市林口區文化一路一段118號","121.37405","25.0718216666667","6501700","林口區"
"244013","KEA-2802","2019/08/20 17:59:54","新北市林口區中山路148號","121.391283333333","25.0787716666667","6501700","林口區"
"244023","483-VK","2019/08/20 17:59:45","新北市林口區育林街30號","121.385838333333","25.0736933333333","6501700","林口區"
"244017","485-VK","2019/08/20 17:59:59","新北市林口區忠孝路494號","121.370548333333","25.0703016666667","6501700","林口區"
"244009","656-BX","2019/08/20 17:59:51","新北市林口區佳林路41號","121.386438333333","25.0817966666667","6501700","林口區"
"244011","657-BX","2019/08/20 17:59:42","新北市林口區中正路60號","121.395016666667","25.07742","6501700","林口區"
"244025","837-TS","2019/08/20 18:00:00","新北市林口區三民路17號","121.358521666667","25.0665233333333","6501700","林口區"
"244021","838-TS","2019/08/20 17:59:44","新北市林口區仁愛路123巷1號","121.398821666667","25.0708783333333","6501700","林口區"
"222003","436-BY","2019/08/20 17:59:54","新北市深坑區炮子崙23號","121.607208333333","24.9909716666667","6501800","深坑區"
"222001","628-TS","2019/08/20 17:59:55","新北市深坑區北深路二段185號","121.612305","25.001215","6501800","深坑區"
"222002","659-BX","2019/08/20 17:59:57","新北市深坑區文化街102號","121.616786666667","25.0019033333333","6501800","深坑區"
"221035","KEA-2785","2019/08/20 17:59:51","新北市汐止區汐萬路一段211巷15號","121.65151","25.07186","6501100","汐止區"
"241024","065-VK","2019/08/20 17:59:58","新北市三重區中正北路193巷35弄25號","121.477133333333","25.0710566666667","6500200","三重區"
"241016","887-TS","2019/08/20 17:59:51","新北市五股區中興路三段5號","121.449248333333","25.0800983333333","6500200","三重區"
"241033","AAC-255","2019/08/20 17:59:51","新北市三重區重新路五段513-3號","121.471451666667","25.0463666666667","6500200","三重區"
"235064","005-UY","2019/08/20 17:59:47","新北市中和區錦和路350-1號","121.490486666667","24.9935883333333","6500300","中和區"
"235065","098-UM","2019/08/20 17:59:46","新北市中和區橋和路308號","121.497121666667","25.0071433333333","6500300","中和區"
"235058","151-BY","2019/08/20 17:59:50","新北市中和區圓通路367巷22弄12號","121.492073333333","24.9873766666667","6500300","中和區"
"235055","183-VK","2019/08/20 17:59:49","新北市中和區員山路36巷16-3號","121.485018333333","24.9913333333333","6500300","中和區"
"235038","185-VK","2019/08/20 17:59:44","新北市中和區中正路169號","121.498008333333","24.9937516666667","6500300","中和區"
"247014","KEA-2869","2019/08/20 17:59:41","新北市蘆洲區三民路105號","121.472601666667","25.0860266666667","6501400","蘆洲區"
"235070","558-UM","2019/08/20 17:59:55","新北市中和區員山路36巷16-8號","121.485395","24.9922933333333","6500300","中和區"
"235045","565-BX","2019/08/20 17:59:30","新北市中和區中正路637巷52弄1號","121.485518333333","24.9935","6500300","中和區"
"235060","KED-0823","2019/08/20 17:59:46","新北市中和區員山路36巷13號","121.484371666667","24.99071","6500300","中和區"
"235062","800-TS","2019/08/20 17:59:49","新北市中和區中正路790-1號","121.485288333333","25.0012883333333","6500300","中和區"
"235057","801-TS","2019/08/20 17:59:47","新北市中和區新生街288號","121.483691666667","24.9965683333333","6500300","中和區"
"235053","900-TW","2019/08/20 17:59:56","新北市中和區員山路36巷16-2號","121.485371666667","24.9914616666667","6500300","中和區"
"235051","157-BY","2019/08/20 17:59:58","新北市中和區中正路637巷52弄1號","121.485448333333","24.9933866666667","6500300","中和區"
"235037","AAC-213","2019/08/20 17:59:57","新北市中和區景平路149號","121.513968333333","24.9921566666667","6500300","中和區"
"247018","546-UM","2019/08/20 17:59:43","新北市蘆洲區復興路252號","121.479846666667","25.08967","6501400","蘆洲區"
"247006","341-TH","2019/08/20 17:59:49","新北市蘆洲區中華街2號","121.463618333333","25.08174","6501400","蘆洲區"
"247002","336-TH","2019/08/20 17:59:59","新北市蘆洲區永平街32巷45弄32號","121.458443333333","25.0930683333333","6501400","蘆洲區"
"247022","057-VK","2019/08/20 17:59:53","新北市蘆洲區三民路619號","121.459325","25.0949866666667","6501400","蘆洲區"
"247012","056-VK","2019/08/20 17:59:43","新北市蘆洲區民族路173號","121.479133333333","25.0885383333333","6501400","蘆洲區"
"247016","053-VK","2019/08/20 17:59:55","新北市蘆洲區中正路185巷59號","121.465191666667","25.0836466666667","6501400","蘆洲區"
"247024","001-UY","2019/08/20 17:59:47","新北市蘆洲區長榮路52號","121.462601666667","25.0833133333333","6501400","蘆洲區"
"228001","212-TW","2019/08/20 17:59:43","新北市貢寮區仁理村仁愛路106巷36號","121.929266666667","25.0538883333333","6502600","貢寮區"
"228002","663-BX","2019/08/20 17:59:46","新北市貢寮區福連里香蘭街3-3號","121.972266666667","25.0245333333333","6502600","貢寮區"
"228003","828-UM","2019/08/20 17:59:56","新北市貢寮區真理里美艷山街6-2號","121.928798333333","25.0607683333333","6502600","貢寮區"
"224006","676-BX","2019/08/20 17:59:43","新北市瑞芳區大寮路356-1號","121.784866666667","25.10325","6501200","瑞芳區"
"224007","285-BY","2019/08/20 17:59:52","新北市瑞芳區大寮路84號","121.780338333333","25.1012866666667","6501200","瑞芳區"
"224009","275-VK","2019/08/20 17:59:59","新北市瑞芳區金光路336號","121.850166666667","25.1095316666667","6501200","瑞芳區"
"224008","273-VK","2019/08/20 17:59:54","新北市瑞芳區明燈路一段45巷105號","121.822211666667","25.103985","6501200","瑞芳區"
"224005","271-BY","2019/08/20 17:59:55","新北市瑞芳區深澳路197-2號","121.819445","25.1338616666667","6501200","瑞芳區"
"227001","400-TW","2019/08/20 17:59:50","新北市雙溪區三貂里政光路3-1號","121.850796666667","25.0633683333333","6502500","雙溪區"
"253006","032-BX","2019/08/20 17:59:52","新北市石門區大丘田45-1號","121.549763333333","25.2751316666667","6502200","石門區"
"208002","KEA-2872","2019/08/20 17:59:56","新北市金山區三界壇路111巷8號","121.61933","25.2309983333333","6502700","金山區"
"208003","665-BX","2019/08/20 17:59:52","新北市金山區磺港里磺港路308號","121.644001666667","25.2274483333333","6502700","金山區"
"251004","009-UM","2019/08/20 18:00:00","新北市淡水區民權路82號","121.459221666667","25.1336566666667","6501000","淡水區"
"251005","010-UM","2019/08/20 17:59:45","新北市淡水區英專路134號","121.446803333333","25.1727133333333","6501000","淡水區"
"251010","012-UM","2019/08/20 17:59:43","新北市淡水區中正路一段87巷1號","121.421695","25.1791033333333","6501000","淡水區"
"251015","KEA-2871","2019/08/20 17:59:57","新北市淡水區興福寮1-6號","121.48813","25.1640166666667","6501000","淡水區"
"251016","179-VK","2019/08/20 17:59:58","新北市淡水區淡金路三段46巷13弄1號","121.448475","25.1993916666667","6501000","淡水區"
"251008","181-VK","2019/08/20 17:59:54","新北市淡水區八勢一街48號","121.461223333333","25.1548066666667","6501000","淡水區"
"251013","182-VK","2019/08/20 18:00:00","新北市淡水區泉洲厝31號","121.479623333333","25.1910033333333","6501000","淡水區"
"251012","443-VK","2019/08/20 17:59:47","新北市淡水區北新路三段38巷7號","121.484498333333","25.1870033333333","6501000","淡水區"
"251001","559-UM","2019/08/20 17:59:57","新北市淡水區民權路16號","121.463371666667","25.1243633333333","6501000","淡水區"
"251006","561-UM","2019/08/20 17:59:51","新北市淡水區真理街2號","121.438831666667","25.1730783333333","6501000","淡水區"
"251009","575-R6","2019/08/20 17:59:44","新北市淡水區中山路137-1號","121.440876666667","25.1714716666667","6501000","淡水區"
"251014","577-R6","2019/08/20 17:59:40","新北市淡水區公埔子16-6號","121.48086","25.2243066666667","6501000","淡水區"
"251011","650-BX","2019/08/20 17:58:41","新北市淡水區吳(仔)厝31號","121.479563333333","25.1495583333333","6501000","淡水區"
"251002","672-BX","2019/08/20 17:59:56","新北市淡水區中山路18-1號","121.44461","25.1691216666667","6501000","淡水區"
"251003","673-BX","2019/08/20 17:59:52","新北市淡水區大忠街47號","121.444711666667","25.176385","6501000","淡水區"
"207003","550-UM","2019/08/20 17:59:52","新北市萬里區野柳里東澳路66號","121.692601666667","25.2008466666667","6502800","萬里區"
"207004","291-VK","2019/08/20 17:59:53","新北市萬里區萬里里瑪鋉路5號","121.686078333333","25.1749383333333","6502800","萬里區"
"252002","178-VK","2019/08/20 17:59:46","新北市三芝區中山路二段39號","121.502946666667","25.2551133333333","6502100","三芝區"
"252001","292-VK","2019/08/20 17:59:39","新北市三芝區中興街二段2號","121.498426666667","25.2566383333333","6502100","三芝區"
"208001","170-UY","2019/08/20 17:59:56","新北市金山區磺港里青年路1號","121.642105","25.224745","6502700","金山區"
"237007","153-BY","2019/08/20 17:59:44","新北市三峽區中園街110號","121.367131666667","24.92291","6500900","三峽區"
"237009","210-TH","2019/08/20 17:59:43","新北市三峽區大勇路36巷26號","121.366041666667","24.9372166666667","6500900","三峽區"
"237013","252-BX","2019/08/20 17:59:56","新北市三峽區介壽路一段53號","121.375628333333","24.9329033333333","6500900","三峽區"
"237012","275-BY","2019/08/20 17:59:55","新北市三峽區民生街27巷22號","121.37603","24.9355983333333","6500900","三峽區"
"237008","302-VK","2019/08/20 17:59:56","新北市三峽區白雞30-16號","121.373333333333","24.911975","6500900","三峽區"
"237014","433-BY","2019/08/20 17:59:42","新北市三峽區和平街36巷3號","121.370471666667","24.9371683333333","6500900","三峽區"
"237006","5529-G3","2019/08/20 17:59:49","新北市三峽區介壽路二段138巷1弄5-1號","121.396138333333","24.9341883333333","6500900","三峽區"
"237011","KEA-2596","2019/08/20 17:59:54","新北市三峽區光明路67號","121.375676666667","24.928625","6500900","三峽區"
"237015","649-BX","2019/08/20 17:59:43","新北市三峽區紫微路109號","121.408193333333","24.9113616666667","6500900","三峽區"
"237010","078-UY","2019/08/20 17:59:58","新北市三峽區仁愛街18號","121.368331666667","24.9324183333333","6500900","三峽區"
"237005","AKY-6261","2019/08/20 17:59:54","新北市三峽區復興路175號","121.369893333333","24.93844","6500900","三峽區"
"236042","KED-0685","2019/08/20 17:59:55","新北市土城區城林路6巷80號","121.438511666667","24.979745","6501300","土城區"
"233002","762-BX","2019/08/20 17:59:56","新北市烏來區烏來街48號","121.551416666667","24.8633466666667","6502900","烏來區"
"236079","166-UM","2019/08/20 17:59:55","新北市土城區永寧路32巷10弄21號","121.429","24.9610466666667","6501300","土城區"
"236030","253-BX","2019/08/20 17:59:40","新北市土城區城林路6巷80號","121.438718333333","24.9795383333333","6501300","土城區"
"236026","269-VK","2019/08/20 17:59:46","新北市土城區中華路二段214號","121.437635","24.9683516666667","6501300","土城區"
"236014","270-VK","2019/08/20 17:59:41","新北市土城區員福街2號","121.441958333333","24.9784333333333","6501300","土城區"
"236038","271-VK","2019/08/20 18:00:01","新北市土城區員林街67號","121.444221666667","24.9774616666667","6501300","土城區"
"236070","KEA-2877","2019/08/20 17:59:55","新北市土城區青雲路669-3號","121.467131666667","24.9649266666667","6501300","土城區"
"236021","401-BY","2019/08/20 17:59:50","新北市土城區城林路6巷80號","121.43842","24.9795533333333","6501300","土城區"
"236059","912-UM","2019/08/20 17:59:56","新北市土城區中央路三段260號","121.427206666667","24.9639983333333","6501300","土城區"
"236049","913-UM","2019/08/20 17:59:39","新北市土城區城林路6巷80號","121.438436666667","24.9796016666667","6501300","土城區"
"236063","915-UM","2019/08/20 17:59:56","新北市土城區城林路6巷80號","121.438618333333","24.979745","6501300","土城區"
"236055","AAC-216","2019/08/20 17:59:43","新北市土城區城林路6巷80號","121.43861","24.9796183333333","6501300","土城區"
"242039","AAC-296","2019/08/20 17:59:47","新北市新莊區民安西路22號","121.426691666667","25.0213533333333","6500500","新莊區"
"242061","986-R7","2019/08/20 17:59:43","新北市新莊區新樹路457號","121.432688333333","25.0132366666667","6500500","新莊區"
"242002","751-BX","2019/08/20 17:59:56","新北市新莊區中正路149號","121.456191666667","25.0367666666667","6500500","新莊區"
"242029","615-BX","2019/08/20 17:59:44","新北市新莊區中平路110巷13號","121.445733333333","25.04606","6500500","新莊區"
"242027","613-BX","2019/08/20 17:59:48","新北市新莊區思源路377號","121.459688333333","25.0511733333333","6500500","新莊區"
"242058","612-BX","2019/08/20 17:59:59","新北市新莊區新北大道七段347號","121.412308333333","25.0273916666667","6500500","新莊區"
"242046","566-BX","2019/08/20 17:59:58","新北市新莊區福營路167號","121.431818333333","25.0312133333333","6500500","新莊區"
"242051","497-BY","2019/08/20 17:59:53","新北市新莊區西盛街153巷8號","121.42873","25.01799","6500500","新莊區"
"242056","441-UM","2019/08/20 17:59:53","新北市新莊區豐年街57-1號","121.446631666667","25.0297166666667","6500500","新莊區"
"242005","440-UM","2019/08/20 17:59:53","新北市新莊區福樂街72巷16號","121.458781666667","25.0465833333333","6500500","新莊區"
"242042","415-TV","2019/08/20 17:59:53","新北市新莊區丹鳳街24號","121.421578333333","25.029295","6500500","新莊區"
"242011","413-TV","2019/08/20 17:59:58","新北市新莊區中港路中慶巷16號","121.450358333333","25.0538333333333","6500500","新莊區"
"242048","400-BY","2019/08/20 17:59:54","新北市新莊區萬安街85號","121.421105","25.023605","6500500","新莊區"
"242025","362-BY","2019/08/20 17:59:53","新北市新莊區五工路58號","121.458816666667","25.0628483333333","6500500","新莊區"
"242023","353-BY","2019/08/20 17:59:57","新北市新莊區福壽街31號","121.458181666667","25.04835","6500500","新莊區"
"242013","132-UY","2019/08/20 17:59:59","新北市新莊區中和街125巷3號","121.44712","25.04853","6500500","新莊區"
"242037","135-UY","2019/08/20 17:59:51","新北市新莊區建福路17號","121.426136666667","25.0292366666667","6500500","新莊區"
"242054","172-VK","2019/08/20 17:59:43","新北市新莊區光華街12號","121.428771666667","25.010855","6500500","新莊區"
"242015","173-VK","2019/08/20 17:59:30","新北市新莊區中平路87巷2號","121.444793333333","25.045845","6500500","新莊區"
"242021","175-VK","2019/08/20 18:00:01","新北市新莊區中正路178號","121.450155","25.0357733333333","6500500","新莊區"
"242017","176-VK","2019/08/20 17:59:57","新北市新莊區中和街60巷17號","121.448688333333","25.0448716666667","6500500","新莊區"
"242019","347-TH","2019/08/20 17:59:55","新北市新莊區明中街43巷4號","121.457476666667","25.038995","6500500","新莊區"
"242034","348-TH","2019/08/20 17:59:57","新北市新莊區福海街11號","121.445191666667","25.033355","6500500","新莊區"
"242007","349-TH","2019/08/20 17:59:46","新北市新莊區自信街67號","121.455451666667","25.0482216666667","6500500","新莊區"
"242032","350-TH","2019/08/20 17:59:42","新北市新莊區新泰路320號","121.445071666667","25.0416116666667","6500500","新莊區"
"238015","755-BX","2019/08/20 17:59:51","新北市樹林區大安路307巷1弄3號","121.41815","24.9921516666667","6500700","樹林區"
"238023","601-UM","2019/08/20 17:59:49","新北市樹林區龍興街48號","121.40306","25.0155166666667","6500700","樹林區"
"238019","599-UM","2019/08/20 17:59:49","新北市樹林區太元街66號","121.41865","24.9790566666667","6500700","樹林區"
"238018","KEA-2217","2019/08/20 17:59:45","新北市樹林區中正路7-1號","121.430226666667","24.9976233333333","6500700","樹林區"
"238022","KEA-2213","2019/08/20 17:59:57","新北市樹林區太順街48號","121.418245","24.9793866666667","6500700","樹林區"
"238021","KEA-2539","2019/08/20 17:59:46","新北市樹林區柑園街一段136號","121.39952","24.9571283333333","6500700","樹林區"
"238017","283-BY","2019/08/20 17:59:54","新北市樹林區中正路492號","121.412443333333","25.013075","6500700","樹林區"
"238014","282-BY","2019/08/20 17:59:43","新北市樹林區中正路45巷6號","121.426678333333","24.9994116666667","6500700","樹林區"
"238020","268-VK","2019/08/20 17:59:41","新北市樹林區三俊街201號","121.420145","25.01556","6500700","樹林區"
"238026","172-UY","2019/08/20 17:59:50","新北市樹林區中洲街20巷1弄6號","121.39761","24.9717266666667","6500700","樹林區"
"238016","169-UY","2019/08/20 17:59:43","新北市樹林區啟智街137巷1號","121.417208333333","24.9883383333333","6500700","樹林區"
"239007","AAC-297","2019/08/20 17:59:39","新北市鶯歌區尖山埔路237號","121.344446666667","24.9502","6500800","鶯歌區"
"239006","891-R6","2019/08/20 17:59:47","新北市鶯歌區鶯桃路413巷34弄4號","121.33099","24.9635683333333","6500800","鶯歌區"
"239008","527-UM","2019/08/20 17:59:50","新北市鶯歌區香賓街11巷2號","121.336788333333","24.9795816666667","6500800","鶯歌區"
"239005","526-UM","2019/08/20 17:59:54","新北市鶯歌區鶯桃路668巷74-1號","121.330058333333","24.9718466666667","6500800","鶯歌區"
"239001","417-VK","2019/08/20 17:59:48","新北市鶯歌區中正三路280號","121.329043333333","24.9360533333333","6500800","鶯歌區"
"239003","360-BY","2019/08/20 17:59:50","新北市鶯歌區永吉街9巷1號","121.336528333333","24.95835","6500800","鶯歌區"
"239002","359-BY","2019/08/20 17:59:58","新北市鶯歌區國華路100-1號","121.343223333333","24.9535133333333","6500800","鶯歌區"
"221008","489-VK","2019/08/20 17:59:47","新北市汐止區康寧街753巷2弄20號","121.639928333333","25.0744433333333","6501100","汐止區"
"221036","130-UY","2019/08/20 17:59:42","新北市汐止區橋東街36號","121.665935","25.0754683333333","6501100","汐止區"
"221010","269-BY","2019/08/20 17:59:52","新北市汐止區汐萬路二段247號","121.646411666667","25.0882716666667","6501100","汐止區"
"221023","279-VK","2019/08/20 17:59:52","新北市汐止區明峰街27號","121.634268333333","25.0713833333333","6501100","汐止區"
"221029","298-VK","2019/08/20 17:59:46","新北市汐止區樟樹二路299號","121.641313333333","25.0701","6501100","汐止區"
"221031","353-TW","2019/08/20 18:00:02","新北市汐止區中興路96巷1-3號","121.635281666667","25.06259","6501100","汐止區"
"221025","623-UM","2019/08/20 17:59:40","新北市汐止區新台五路一段266號","121.659176666667","25.0639016666667","6501100","汐止區"
"221033","647-BX","2019/08/20 17:59:51","新北市汐止區合順街35號","121.620543333333","25.0432016666667","6501100","汐止區"
"221002","707-TV","2019/08/20 17:59:59","新北市汐止區中興路62號","121.635508333333","25.0615516666667","6501100","汐止區"
"221018","753-BX","2019/08/20 17:59:53","新北市汐止區忠孝東路339巷10號","121.66428","25.0702383333333","6501100","汐止區"
"233001","KEA-2870","2019/08/20 17:59:42","新北市烏來區西羅岸路22號","121.54921","24.8674416666667","6502900","烏來區"
"242044","281-VK","2019/08/20 17:59:50","新北市新莊區雙鳳路73巷1號","121.414996666667","25.0275933333333","6500500","新莊區"
"242009","280-VK","2019/08/20 17:59:41","新北市新莊區中華路二段260號","121.452611666667","25.053185","6500500","新莊區"
"235061","KEA-2875","2019/08/20 17:59:54","新北市中和區連城路583巷15號","121.47926","24.9934","6500300","中和區"
