"lineid","car","time","location","longitude","latitude","cityid","cityname"
"234007","KED-0605","2019/08/20 18:17:56","新北市永和區仁愛路306巷28號","121.502165","25.0087816666667","6500400","永和區"
"234026","9371-KE","2019/08/20 18:17:52","新北市永和區豫溪街42巷5號","121.515523333333","25.009545","6500400","永和區"
"234011","9373-KE","2019/08/20 18:17:57","新北市永和區博愛街49巷4號","121.519891666667","25.0164033333333","6500400","永和區"
"249005","172-UM","2019/08/20 18:17:56","新北市八里區荖阡坑路15-40號","121.401735","25.13985","6502300","八里區"
"249001","173-UM","2019/08/20 18:17:42","新北市八里區龍米路一段197號","121.451456666667","25.1311933333333","6502300","八里區"
"249004","303-UY","2019/08/20 18:17:43","新北市八里區龍米路二段232巷1弄2號","121.43152","25.1589866666667","6502300","八里區"
"249002","305-UY","2019/08/20 18:17:46","新北市八里區龍形二街2號","121.450693333333","25.13126","6502300","八里區"
"248014","025-BX","2019/08/20 18:17:42","新北市五股區自強路19巷5-1號","121.434605","25.073725","6501500","五股區"
"248016","026-BX","2019/08/20 18:17:52","新北市五股區成泰路三段477巷18號","121.449905","25.09892","6501500","五股區"
"248006","077-UY","2019/08/20 18:17:42","新北市五股區中興路一段132號","121.46543","25.0736066666667","6501500","五股區"
"248008","KED-0815","2019/08/20 18:17:45","新北市五股區更洲路32巷8弄14號","121.459253333333","25.0796233333333","6501500","五股區"
"248020","KED-0813","2019/08/20 18:17:39","新北市五股區孝義路32-5號","121.453563333333","25.1093533333333","6501500","五股區"
"248012","247-BX","2019/08/20 18:17:42","新北市五股區御史路1巷18號","121.441353333333","25.090405","6501500","五股區"
"248004","677-BX","2019/08/20 18:17:59","新北市五股區成泰路二段156號","121.438353333333","25.0842116666667","6501500","五股區"
"248010","682-TV","2019/08/20 18:17:42","新北市五股區成泰路一段189巷24-3號","121.433395","25.07737","6501500","五股區"
"232011","076-UY","2019/08/20 18:17:56","新北市坪林區坪雙路一段41號","121.711711666667","24.94243","6502000","坪林區"
"244007","080-UY","2019/08/20 18:17:51","新北市林口區湖子36-1號","121.386215","25.0942533333333","6501700","林口區"
"244019","402-UM","2019/08/20 18:17:47","新北市林口區忠孝路580巷16號","121.375201666667","25.06694","6501700","林口區"
"244013","KEA-2802","2019/08/20 18:17:54","新北市林口區文化一路二段190號","121.382815","25.0803","6501700","林口區"
"244023","483-VK","2019/08/20 18:17:45","新北市林口區東湖路153巷135號","121.382236666667","25.073535","6501700","林口區"
"244017","485-VK","2019/08/20 18:17:59","新北市林口區八德路56號","121.36631","25.065885","6501700","林口區"
"244009","656-BX","2019/08/20 18:17:51","新北市林口區文林一街115巷20號","121.378898333333","25.08768","6501700","林口區"
"244011","657-BX","2019/08/20 18:17:42","新北市林口區新寮1-61號","121.392805","25.076435","6501700","林口區"
"244025","837-TS","2019/08/20 18:18:00","新北市林口區文化北路一段279號","121.35916","25.07198","6501700","林口區"
"244021","838-TS","2019/08/20 18:17:44","新北市林口區自強一街10號","121.397963333333","25.07849","6501700","林口區"
"222003","436-BY","2019/08/20 18:17:54","新北市深坑區旺耽路67號","121.626256666667","25.0029866666667","6501800","深坑區"
"222001","628-TS","2019/08/20 18:17:55","新北市深坑區北深路二段66號","121.618978333333","25.0041666666667","6501800","深坑區"
"222002","659-BX","2019/08/20 18:17:57","新北市深坑區文山路一段62巷33號","121.621555","25.000655","6501800","深坑區"
"231055","0291-UT","2019/08/20 18:17:51","新北市新店區安康路一段222-2號","121.522921666667","24.96368","6500600","新店區"
"231044","046-UY","2019/08/20 18:17:41","新北市新店區安華路28-1號","121.519313333333","24.9608816666667","6500600","新店區"
"231060","106-UY","2019/08/20 18:17:53","新北市新店區安華路28-1號","121.519621666667","24.960805","6500600","新店區"
"231051","107-UY","2019/08/20 18:17:41","新北市新店區安一路一段1-1號","121.51966","24.96105","6500600","新店區"
"221035","KEA-2785","2019/08/20 18:17:51","新北市汐止區汐萬路一段39號","121.655231666667","25.06883","6501100","汐止區"
"231054","260-TV","2019/08/20 18:17:55","新北市新店區安一路一段1-1號","121.519293333333","24.9612816666667","6500600","新店區"
"231042","268-BY","2019/08/20 18:17:49","新北市新店區安一路一段1-1號","121.519731666667","24.96132","6500600","新店區"
"231050","AAD-862","2019/08/20 18:17:48","新北市新店區安一路一段1-1號","121.519735","24.9610683333333","6500600","新店區"
"231045","355-BY","2019/08/20 18:17:39","新北市新店區安華路28-1號","121.519198333333","24.9609366666667","6500600","新店區"
"231058","3713-VJ","2019/08/20 18:17:44","新北市新店區安康路一段355號","121.519765","24.96288","6500600","新店區"
"231056","4715-K9","2019/08/20 18:17:57","新北市新店區環河路116號","121.537085","24.9668766666667","6500600","新店區"
"231053","515-UM","2019/08/20 18:17:21","新北市新店區安康路一段319號","121.522158333333","24.9636716666667","6500600","新店區"
"231063","616-UM","2019/08/20 18:17:55","新北市新店區安華路28-1號","121.519491666667","24.96055","6500600","新店區"
"231040","617-UM","2019/08/20 18:17:54","新北市新店區安一路一段1-1號","121.519436666667","24.9610116666667","6500600","新店區"
"231041","618-UM","2019/08/20 18:17:44","新北市新店區安華路28-1號","121.519581666667","24.9609366666667","6500600","新店區"
"231043","899-TW","2019/08/20 18:17:58","新北市新店區安華路28-1號","121.519148333333","24.9608733333333","6500600","新店區"
"231066","AKT-0513","2019/08/20 18:17:45","新北市新店區安華路28-1號","121.519503333333","24.9606366666667","6500600","新店區"
"241024","065-VK","2019/08/20 18:17:58","新北市五股區凌雲路三段24巷7號","121.437616666667","25.106555","6500200","三重區"
"241033","AAC-255","2019/08/20 18:17:51","新北市三重區中興北街42巷17號","121.468936666667","25.0493783333333","6500200","三重區"
"235064","005-UY","2019/08/20 18:17:47","新北市中和區圓通路141巷48弄11號","121.498308333333","24.9942533333333","6500300","中和區"
"235063","006-UY","2019/08/20 18:17:44","新北市中和區中正路585號","121.486151666667","24.9945233333333","6500300","中和區"
"235056","096-UM","2019/08/20 18:17:56","新北市中和區中山路二段479號","121.483103333333","25.0048066666667","6500300","中和區"
"235039","097-UM","2019/08/20 18:18:00","新北市中和區景平路253號","121.508803333333","24.9928766666667","6500300","中和區"
"235065","098-UM","2019/08/20 18:17:46","新北市中和區莊敬路49巷18號","121.501675","25.0061583333333","6500300","中和區"
"235058","151-BY","2019/08/20 18:17:49","新北市中和區圓通路367巷29號","121.492055","24.9854016666667","6500300","中和區"
"235055","183-VK","2019/08/20 18:17:49","新北市土城區金城路三段262號","121.47436","24.99089","6500300","中和區"
"235038","185-VK","2019/08/20 18:17:44","新北市中和區自立路171號","121.523073333333","24.99238","6500300","中和區"
"235049","186-VK","2019/08/20 18:17:45","新北市中和區中正路637巷52弄1號","121.485475","24.9935533333333","6500300","中和區"
"235072","301-VK","2019/08/20 18:17:46","新北市中和區連城路251號","121.492786666667","24.9966966666667","6500300","中和區"
"235043","352-BY","2019/08/20 18:17:51","新北市中和區景平路379號","121.504026666667","24.9934033333333","6500300","中和區"
"235042","KEA-2878","2019/08/20 18:17:46","新北市中和區景平路159巷17弄2號","121.512801666667","24.9915016666667","6500300","中和區"
"235069","4980-A6","2019/08/20 18:17:55","新北市中和區錦和路216號","121.490373333333","24.9942883333333","6500300","中和區"
"235070","558-UM","2019/08/20 18:17:55","新北市中和區景平路580號","121.5014","24.99566","6500300","中和區"
"235045","565-BX","2019/08/20 18:17:50","新北市中和區復興路22號","121.505405","24.989925","6500300","中和區"
"235060","KED-0823","2019/08/20 18:17:46","新北市中和區員山路343號","121.48128","25.001675","6500300","中和區"
"235018","640-BX","2019/08/20 18:17:59","新北市中和區民享街116號","121.474496666667","24.998945","6500300","中和區"
"235047","732-UM","2019/08/20 18:17:47","新北市中和區板南路187號","121.499866666667","24.9926566666667","6500300","中和區"
"235046","733-UM","2019/08/20 18:17:44","新北市中和區員山路36巷13號","121.484195","24.9909916666667","6500300","中和區"
"235062","800-TS","2019/08/20 18:17:49","新北市中和區景平路754號","121.496453333333","25.0046216666667","6500300","中和區"
"235057","801-TS","2019/08/20 18:17:47","新北市中和區民享街97巷19號","121.475393333333","24.9995433333333","6500300","中和區"
"235052","805-TS","2019/08/20 18:17:58","新北市中和區南山路479號","121.507951666667","24.9882733333333","6500300","中和區"
"235048","896-TW","2019/08/20 18:17:41","新北市中和區中正路637巷52弄1號","121.48548","24.993405","6500300","中和區"
"235053","900-TW","2019/08/20 18:17:56","新北市中和區員山路36巷16-2號","121.485285","24.9915083333333","6500300","中和區"
"235051","157-BY","2019/08/20 18:17:57","新北市中和區信義街18號","121.510968333333","24.9893566666667","6500300","中和區"
"235037","AAC-213","2019/08/20 18:17:37","新北市中和區景新街383巷50號","121.514508333333","24.990885","6500300","中和區"
"235059","AAC-215","2019/08/20 18:17:44","新北市中和區員山路36巷16-3號","121.485096666667","24.9913416666667","6500300","中和區"
"220069","AAD-861","2019/08/20 18:17:54","新北市板橋區華東街1-10號","121.448368333333","24.9950983333333","6500100","板橋區"
"226004","312-R5","2019/08/20 18:17:39","新北市平溪區靜安路二段10號","121.706703333333","25.0185633333333","6502400","平溪區"
"235041","251-BX","2019/08/20 18:17:43","新北市中和區中正路131號","121.499755","24.9936","6500300","中和區"
"228001","212-TW","2019/08/20 18:17:43","新北市貢寮區真理里新港街26巷55弄2-1號","121.927371666667","25.0528666666667","6502600","貢寮區"
"228002","663-BX","2019/08/20 18:17:46","新北市貢寮區福連里馬崗街1號","121.998171666667","25.0158983333333","6502600","貢寮區"
"228003","828-UM","2019/08/20 18:17:56","新北市貢寮區真理里美艷山街61-2號","121.922913333333","25.0701166666667","6502600","貢寮區"
"224006","676-BX","2019/08/20 18:17:43","新北市瑞芳區三爪子坑路32巷126號","121.809145","25.1062183333333","6501200","瑞芳區"
"224002","639-TC","2019/08/20 18:17:55","新北市瑞芳區三爪子坑路107號","121.81078","25.10718","6501200","瑞芳區"
"224007","285-BY","2019/08/20 18:17:54","新北市瑞芳區大埔路38號","121.764566666667","25.10205","6501200","瑞芳區"
"224009","275-VK","2019/08/20 18:17:38","新北市瑞芳區五號路46號","121.855551666667","25.1096583333333","6501200","瑞芳區"
"224008","273-VK","2019/08/20 18:17:59","新北市瑞芳區逢甲路34號","121.811381666667","25.1083966666667","6501200","瑞芳區"
"224005","271-BY","2019/08/20 18:17:55","新北市瑞芳區建基新村35號","121.812186666667","25.1302083333333","6501200","瑞芳區"
"227002","642-TC","2019/08/20 18:17:45","新北市雙溪區共和里泰和街7號","121.863325","25.0339083333333","6502500","雙溪區"
"227001","400-TW","2019/08/20 18:17:50","新北市雙溪區牡丹里牡丹73號","121.851716666667","25.0593516666667","6502500","雙溪區"
"253006","032-BX","2019/08/20 18:17:52","新北市石門區老梅路99號","121.546923333333","25.289305","6502200","石門區"
"253005","295-VK","2019/08/20 18:17:48","新北市石門區崁子腳76-1號","121.570061666667","25.2967166666667","6502200","石門區"
"208002","KEA-2872","2019/08/20 18:17:56","新北市金山區清泉里清水路16巷12號","121.63399","25.2301733333333","6502700","金山區"
"208003","665-BX","2019/08/20 18:17:52","新北市金山區民生路88號","121.648188333333","25.22378","6502700","金山區"
"251004","009-UM","2019/08/20 18:17:40","新北市淡水區民族路134號","121.462876666667","25.1346483333333","6501000","淡水區"
"251005","010-UM","2019/08/20 18:17:44","新北市淡水區水源街一段122巷39號","121.447255","25.1703933333333","6501000","淡水區"
"251010","012-UM","2019/08/20 18:17:43","新北市淡水區淡海路218號","121.42024","25.1857416666667","6501000","淡水區"
"251015","KEA-2871","2019/08/20 18:17:57","新北市淡水區興福寮88巷1號","121.485293333333","25.164885","6501000","淡水區"
"251016","179-VK","2019/08/20 18:17:58","新北市淡水區淡金路三段228巷28號","121.449846666667","25.20505","6501000","淡水區"
"251008","181-VK","2019/08/20 18:17:53","新北市淡水區紅樹林路71號","121.459551666667","25.16094","6501000","淡水區"
"251013","182-VK","2019/08/20 18:18:00","新北市淡水區行忠路592號","121.468891666667","25.19927","6501000","淡水區"
"251012","443-VK","2019/08/20 18:17:47","新北市淡水區北新路二段79-7號","121.481055","25.1855066666667","6501000","淡水區"
"251001","559-UM","2019/08/20 18:17:57","新北市淡水區自強路110-6號","121.461655","25.1314083333333","6501000","淡水區"
"251006","561-UM","2019/08/20 18:17:51","新北市淡水區新民街76巷36弄1號","121.43947","25.1780433333333","6501000","淡水區"
"251014","577-R6","2019/08/20 18:17:40","新北市淡水區南平18號","121.491735","25.2193183333333","6501000","淡水區"
"251011","650-BX","2019/08/20 18:17:41","新北市淡水區三空泉9-2號","121.47409","25.1635583333333","6501000","淡水區"
"251002","672-BX","2019/08/20 18:17:56","新北市淡水區中正東路一段125號","121.455331666667","25.1595183333333","6501000","淡水區"
"251003","673-BX","2019/08/20 18:17:32","新北市淡水區北新路184巷3-1號","121.449405","25.178475","6501000","淡水區"
"207003","550-UM","2019/08/20 18:17:52","新北市萬里區野柳里港西路11-1號","121.685118333333","25.204145","6502800","萬里區"
"207004","291-VK","2019/08/20 18:17:53","新北市萬里區崁腳里內中福路1-1號","121.670998333333","25.1655133333333","6502800","萬里區"
"252002","178-VK","2019/08/20 18:17:46","新北市三芝區中山路二段39號","121.502853333333","25.25512","6502100","三芝區"
"252003","249-BX","2019/08/20 18:17:49","新北市三芝區古庄里四棧橋42號","121.481753333333","25.2637666666667","6502100","三芝區"
"252001","292-VK","2019/08/20 18:17:59","新北市三芝區中興街二段2號","121.49839","25.2566933333333","6502100","三芝區"
"208001","170-UY","2019/08/20 18:17:56","新北市金山區自強路13號","121.640388333333","25.2164966666667","6502700","金山區"
"237004","KEA-2597","2019/08/20 18:17:53","新北市三峽區圳頭119-1號","121.379601666667","24.880745","6500900","三峽區"
"237007","153-BY","2019/08/20 18:17:44","新北市三峽區中正路二段451號","121.361278333333","24.906355","6500900","三峽區"
"237009","210-TH","2019/08/20 18:17:43","新北市三峽區大勇路36巷27號","121.365485","24.93703","6500900","三峽區"
"237013","252-BX","2019/08/20 18:17:56","新北市三峽區永安街46-2號","121.376805","24.9305183333333","6500900","三峽區"
"237012","275-BY","2019/08/20 18:17:55","新北市三峽區三樹路46號","121.377756666667","24.9377433333333","6500900","三峽區"
"237008","302-VK","2019/08/20 18:17:56","新北市三峽區白雞68-317號","121.391606666667","24.9102916666667","6500900","三峽區"
"237014","433-BY","2019/08/20 18:17:42","新北市三峽區復興路36-7號","121.373943333333","24.9366416666667","6500900","三峽區"
"237006","5529-G3","2019/08/20 18:17:49","新北市三峽區溪東路235號","121.40664","24.9326216666667","6500900","三峽區"
"237011","KEA-2596","2019/08/20 18:17:54","新北市三峽區介壽路一段498號","121.385806666667","24.93236","6500900","三峽區"
"237015","649-BX","2019/08/20 18:17:43","新北市三峽區紫微路42-1號","121.422245","24.92006","6500900","三峽區"
"237010","078-UY","2019/08/20 18:17:58","新北市三峽區民族街32號","121.369353333333","24.93086","6500900","三峽區"
"237005","AKY-6261","2019/08/20 18:17:58","新北市三峽區秀川街59號","121.37046","24.933445","6500900","三峽區"
"236042","KED-0685","2019/08/20 18:17:56","新北市土城區裕生路21巷6弄16號","121.448583333333","24.986775","6501300","土城區"
"233002","762-BX","2019/08/20 18:17:56","新北市烏來區新烏路四段58號","121.54578","24.8840083333333","6502900","烏來區"
"236079","166-UM","2019/08/20 18:17:55","新北市土城區永平街29號","121.428571666667","24.9623916666667","6501300","土城區"
"236030","253-BX","2019/08/20 18:17:52","新北市土城區中央路二段180巷9號","121.441228333333","24.9763983333333","6501300","土城區"
"236026","269-VK","2019/08/20 18:17:46","新北市土城區承天路67號","121.439573333333","24.9634433333333","6501300","土城區"
"236014","270-VK","2019/08/20 18:17:41","新北市土城區青雲路39巷7號","121.460298333333","24.987445","6501300","土城區"
"236038","271-VK","2019/08/20 18:17:41","新北市土城區青雲路451巷2弄2號","121.458983333333","24.974555","6501300","土城區"
"236070","KEA-2877","2019/08/20 18:18:01","新北市土城區明德路一段128巷1號","121.463465","24.9792033333333","6501300","土城區"
"236021","401-BY","2019/08/20 18:17:50","新北市土城區明德路一段375-1號","121.454891666667","24.9781733333333","6501300","土城區"
"236059","912-UM","2019/08/20 18:17:56","新北市土城區中央路四段454號","121.410356666667","24.9510816666667","6501300","土城區"
"236049","913-UM","2019/08/20 18:18:00","新北市土城區明德路一段375-3號","121.454208333333","24.9784733333333","6501300","土城區"
"236063","915-UM","2019/08/20 18:17:56","新北市土城區金城路三段179號","121.469473333333","24.9886933333333","6501300","土城區"
"236055","AAC-216","2019/08/20 18:17:43","新北市土城區中華路二段92號","121.438293333333","24.9747766666667","6501300","土城區"
"242039","AAC-296","2019/08/20 18:17:47","新北市新莊區新樹路206巷4號","121.43363","25.0204033333333","6500500","新莊區"
"242061","986-R7","2019/08/20 18:17:43","新北市新莊區新樹路52-3號","121.437515","25.026995","6500500","新莊區"
"242002","751-BX","2019/08/20 18:17:51","新北市新莊區碧江街13-2號","121.455648333333","25.034775","6500500","新莊區"
"242027","613-BX","2019/08/20 18:17:48","新北市新莊區幸福路815號","121.445641666667","25.0490116666667","6500500","新莊區"
"242058","612-BX","2019/08/20 18:17:43","新北市新莊區新北大道七段720號","121.412471666667","25.0261516666667","6500500","新莊區"
"242046","566-BX","2019/08/20 18:17:58","新北市新莊區中正路855巷23弄6號","121.420808333333","25.0270583333333","6500500","新莊區"
"242051","497-BY","2019/08/20 18:17:53","新北市新莊區民本街1號","121.427478333333","25.0199766666667","6500500","新莊區"
"242056","441-UM","2019/08/20 18:17:53","新北市新莊區豐年街豐2巷9號","121.447038333333","25.0308083333333","6500500","新莊區"
"242042","415-TV","2019/08/20 18:18:00","新北市新莊區天祥街121巷16號","121.414205","25.0291633333333","6500500","新莊區"
"242011","413-TV","2019/08/20 18:17:49","新北市新莊區中港路591巷21號","121.450135","25.0524083333333","6500500","新莊區"
"242048","400-BY","2019/08/20 18:17:54","新北市新莊區民安路98巷7號","121.423663333333","25.0255266666667","6500500","新莊區"
"242025","362-BY","2019/08/20 18:17:57","新北市新莊區五工二路94巷7號","121.459643333333","25.0670483333333","6500500","新莊區"
"242037","135-UY","2019/08/20 18:17:51","新北市新莊區後港一路45號","121.425841666667","25.026245","6500500","新莊區"
"242054","172-VK","2019/08/20 18:17:43","新北市新莊區民安西路410巷10弄1號","121.42819","25.0092566666667","6500500","新莊區"
"242015","173-VK","2019/08/20 18:17:50","新北市新莊區中平路198巷19號","121.445941666667","25.04847","6500500","新莊區"
"242021","175-VK","2019/08/20 18:18:01","新北市新莊區新興街36巷2號","121.450748333333","25.0369516666667","6500500","新莊區"
"242017","176-VK","2019/08/20 18:17:57","新北市新莊區三和路12-21號","121.442001666667","25.038615","6500500","新莊區"
"242034","348-TH","2019/08/20 18:17:57","新北市新莊區新莊路362號","121.44959","25.0335783333333","6500500","新莊區"
"242007","349-TH","2019/08/20 18:17:46","新北市新莊區自治街35號","121.454101666667","25.0479966666667","6500500","新莊區"
"242032","350-TH","2019/08/20 18:18:01","新北市新莊區新泰路255巷38號","121.444541666667","25.0396633333333","6500500","新莊區"
"238015","755-BX","2019/08/20 18:17:51","新北市樹林區大安路323巷10弄10號","121.417333333333","24.9911266666667","6500700","樹林區"
"238023","601-UM","2019/08/20 18:17:49","新北市樹林區忠義街25號","121.409628333333","25.0149666666667","6500700","樹林區"
"238019","599-UM","2019/08/20 18:17:50","新北市樹林區水源街32巷48號","121.425246666667","24.980695","6500700","樹林區"
"238024","5061-A6","2019/08/20 18:17:45","新北市樹林區文化街87號","121.416666666667","24.98925","6500700","樹林區"
"238018","KEA-2217","2019/08/20 18:17:45","新北市樹林區鎮前街6號","121.426345","24.9935266666667","6500700","樹林區"
"238022","KEA-2213","2019/08/20 18:17:57","新北市樹林區味王街14號","121.403048333333","24.97603","6500700","樹林區"
"238017","283-BY","2019/08/20 18:17:54","新北市樹林區中正路675號","121.412075","25.0133333333333","6500700","樹林區"
"238014","282-BY","2019/08/20 18:17:43","新北市樹林區大安路109號","121.422628333333","24.9977766666667","6500700","樹林區"
"238020","268-VK","2019/08/20 18:18:01","新北市樹林區三龍街118巷17號","121.415345","25.0174733333333","6500700","樹林區"
"238026","172-UY","2019/08/20 18:17:50","新北市樹林區佳園路一段90巷10號","121.39291","24.9692383333333","6500700","樹林區"
"238016","169-UY","2019/08/20 18:17:43","新北市樹林區啟智街173巷10號","121.415956666667","24.9871983333333","6500700","樹林區"
"239007","AAC-297","2019/08/20 18:17:39","新北市鶯歌區文昌街27-9號","121.349671666667","24.9517033333333","6500800","鶯歌區"
"239006","891-R6","2019/08/20 18:17:47","新北市鶯歌區鶯桃路383號","121.33352","24.9636266666667","6500800","鶯歌區"
"239008","527-UM","2019/08/20 18:17:50","新北市鶯歌區朝陽街1號","121.336308333333","24.9765866666667","6500800","鶯歌區"
"239005","526-UM","2019/08/20 18:17:54","新北市鶯歌區鶯桃路668巷25號","121.329035","24.9703333333333","6500800","鶯歌區"
"239001","417-VK","2019/08/20 18:17:48","新北市鶯歌區中正三路福德巷2弄26號","121.339193333333","24.9409766666667","6500800","鶯歌區"
"239003","360-BY","2019/08/20 18:17:50","新北市鶯歌區福安街58號","121.335623333333","24.9652133333333","6500800","鶯歌區"
"239002","359-BY","2019/08/20 18:17:53","新北市鶯歌區中山路329巷20號","121.344421666667","24.9565366666667","6500800","鶯歌區"
"239004","193-VK","2019/08/20 18:17:42","新北市鶯歌區尖山路166巷36-1號","121.344966666667","24.9490733333333","6500800","鶯歌區"
"221036","130-UY","2019/08/20 18:17:42","新北市汐止區大同路三段243-1號","121.673168333333","25.0760616666667","6501100","汐止區"
"221015","131-UY","2019/08/20 18:17:43","新北市汐止區長江街365號","121.667998333333","25.0823866666667","6501100","汐止區"
"221010","269-BY","2019/08/20 18:17:52","新北市汐止區祥雲街14號","121.646203333333","25.089875","6501100","汐止區"
"221012","278-VK","2019/08/20 18:17:55","新北市汐止區保一街81-1號","121.674648333333","25.0801633333333","6501100","汐止區"
"221023","279-VK","2019/08/20 18:17:52","新北市汐止區明峰街200-1號","121.627635","25.069385","6501100","汐止區"
"221032","280-BY","2019/08/20 18:17:51","新北市汐止區力行街26號","121.616818333333","25.0505133333333","6501100","汐止區"
"221027","281-BY","2019/08/20 18:17:55","新北市汐止區和平街9號","121.66316","25.0707266666667","6501100","汐止區"
"221021","299-VK","2019/08/20 18:17:50","新北市汐止區龍安路17號","121.655613333333","25.0639483333333","6501100","汐止區"
"221031","353-TW","2019/08/20 18:17:42","新北市汐止區中興路181號","121.630296666667","25.06689","6501100","汐止區"
"221025","623-UM","2019/08/20 18:17:40","新北市汐止區勤進路12巷22號","121.659358333333","25.06227","6501100","汐止區"
"221038","646-BX","2019/08/20 18:17:59","新北市汐止區仁愛路201巷4號","121.664775","25.06597","6501100","汐止區"
"221033","647-BX","2019/08/20 18:17:51","新北市汐止區宜興街40巷1號","121.622028333333","25.0421133333333","6501100","汐止區"
"221002","707-TV","2019/08/20 18:17:46","新北市汐止區福德一路201巷19號","121.635973333333","25.06492","6501100","汐止區"
"221018","753-BX","2019/08/20 18:17:53","新北市汐止區茄苳路59號","121.666501666667","25.070785","6501100","汐止區"
"233001","KEA-2870","2019/08/20 18:17:43","新北市烏來區新烏路四段3號","121.551145","24.8904616666667","6502900","烏來區"
"242044","281-VK","2019/08/20 18:17:43","新北市新莊區天泉二街1號","121.415231666667","25.0246266666667","6500500","新莊區"
"242009","280-VK","2019/08/20 18:17:41","新北市新莊區自重街2號","121.453316666667","25.0473416666667","6500500","新莊區"
"220073","985-R7","2019/08/20 18:17:51","新北市板橋區華東街1-10號","121.448331666667","24.9950033333333","6500100","板橋區"
"235068","KEA-2873","2019/08/20 18:17:55","新北市中和區員山路36巷16-3號","121.485143333333","24.9911483333333","6500300","中和區"
"235061","KEA-2875","2019/08/20 18:17:54","新北市中和區民享街97巷1號","121.47503","24.99929","6500300","中和區"
