"lineid","car","time","location","longitude","latitude","cityid","cityname"
"234046","148-BY","2019/08/20 19:19:44","新北市永和區得和路359號","121.524476666667","24.9994783333333","6500400","永和區"
"234081","298-R6","2019/08/20 19:19:40","新北市永和區福和路7巷8-2號","121.525265","25.0077483333333","6500400","永和區"
"234038","336-UY","2019/08/20 19:19:43","新北市永和區民樂街70號","121.527391666667","24.9984366666667","6500400","永和區"
"234064","337-UY","2019/08/20 19:19:48","新北市永和區永元路17巷6弄1號","121.521436666667","25.00075","6500400","永和區"
"234086","338-UY","2019/08/20 19:19:59","新北市永和區永利路72號","121.520243333333","25.0043416666667","6500400","永和區"
"234070","552-UM","2019/08/20 19:19:57","新北市永和區豫溪街43號","121.516816666667","25.009885","6500400","永和區"
"234017","745-BX","2019/08/20 19:19:51","新北市永和區文化路144巷31弄12號","121.512231666667","25.0168116666667","6500400","永和區"
"234030","746-BX","2019/08/20 19:19:47","新北市永和區厚德街93號","121.523718333333","24.9988516666667","6500400","永和區"
"234054","KEA-2590","2019/08/20 19:19:52","新北市永和區中興街25號","121.516021666667","25.01195","6500400","永和區"
"234007","KED-0605","2019/08/20 19:19:56","新北市永和區中山路一段228號","121.50802","25.0082","6500400","永和區"
"234013","KEA-2591","2019/08/20 19:19:46","新北市永和區仁愛路104巷1號","121.512005","25.0133866666667","6500400","永和區"
"234061","AAD-866","2019/08/20 19:19:44","新北市永和區秀朗路一段175號","121.51702","25.0036716666667","6500400","永和區"
"234042","862-TW","2019/08/20 19:19:45","新北市永和區保平路177巷5弄1號","121.509893333333","25.0048783333333","6500400","永和區"
"234050","863-TW","2019/08/20 19:19:44","新北市永和區仁愛路104巷10號","121.512113333333","25.013735","6500400","永和區"
"234026","9371-KE","2019/08/20 19:19:52","新北市永和區得和路42巷23號","121.515335","24.9996933333333","6500400","永和區"
"234011","9373-KE","2019/08/20 19:19:57","新北市永和區保福路二段14-1號","121.510931666667","25.01132","6500400","永和區"
"249001","173-UM","2019/08/20 19:19:42","新北市八里區中華路二段145號","121.409031666667","25.1525083333333","6502300","八里區"
"249002","305-UY","2019/08/20 19:19:46","新北市八里區龍形一街33巷6-2號","121.44934","25.12949","6502300","八里區"
"249003","593-UM","2019/08/20 19:19:54","新北市八里區中山路二段462號","121.398975","25.14724","6502300","八里區"
"248014","025-BX","2019/08/20 19:19:44","新北市五股區民義路一段198號","121.432571666667","25.0881216666667","6501500","五股區"
"248008","KED-0815","2019/08/20 19:19:45","新北市五股區中興路二段83巷26-3號","121.460043333333","25.075355","6501500","五股區"
"248020","KED-0813","2019/08/20 19:20:00","新北市五股區凌雲路三段57號","121.425295","25.12499","6501500","五股區"
"248012","247-BX","2019/08/20 19:19:41","新北市五股區中興路四段38巷11號","121.438736666667","25.08347","6501500","五股區"
"248004","677-BX","2019/08/20 19:19:39","新北市五股區五福路147號","121.431891666667","25.091545","6501500","五股區"
"248002","678-BX","2019/08/20 19:19:44","新北市五股區凌雲路一段158巷6號","121.447816666667","25.1029633333333","6501500","五股區"
"234023","9380-KE","2019/08/20 19:19:54","新北市永和區竹林路124巷5號","121.519585","25.0113","6500400","永和區"
"234077","969-R7","2019/08/20 19:19:54","新北市永和區民治街72巷10號","121.518025","24.9984633333333","6500400","永和區"
"234074","AAC-211","2019/08/20 19:19:55","新北市永和區竹林路64號","121.518396666667","25.0136016666667","6500400","永和區"
"234067","AAC-212","2019/08/20 19:19:54","新北市永和區保平路59號","121.511595","25.00699","6500400","永和區"
"234003","AAC-295","2019/08/20 19:20:00","新北市永和區中山路一段101號","121.511126666667","25.010395","6500400","永和區"
"244023","483-VK","2019/08/20 19:19:45","新北市林口區文林六街13巷20號","121.370235","25.0807433333333","6501700","林口區"
"244025","837-TS","2019/08/20 19:19:39","新北市林口區文化北路一段542巷13弄75號","121.369823333333","25.079565","6501700","林口區"
"243012","AAD-798","2019/08/20 19:19:57","新北市泰山區同義街31號","121.431668333333","25.0563683333333","6501600","泰山區"
"243010","297-R6","2019/08/20 19:19:49","新北市泰山區明志路一段494號","121.430341666667","25.054665","6501600","泰山區"
"243014","KEA-2801","2019/08/20 19:19:49","新北市泰山區泰林路二段204號","121.433328333333","25.061315","6501600","泰山區"
"243016","421-VK","2019/08/20 19:20:00","新北市泰山區工專路51號","121.422778333333","25.0401983333333","6501600","泰山區"
"243009","KEA-2215","2019/08/20 19:19:44","新北市泰山區文化街1巷1號","121.43376","25.0639516666667","6501600","泰山區"
"243011","KEA-2216","2019/08/20 19:19:56","新北市泰山區中央路11巷14號","121.426613333333","25.042555","6501600","泰山區"
"243013","646-TV","2019/08/20 19:19:57","新北市泰山區明志路三段145巷2弄7號","121.425235","25.03967","6501600","泰山區"
"243015","680-BX","2019/08/20 19:19:56","新北市泰山區公園路54號","121.428248333333","25.054725","6501600","泰山區"
"222003","436-BY","2019/08/20 19:19:54","新北市深坑區深南路208號","121.626821666667","25.0161683333333","6501800","深坑區"
"222001","628-TS","2019/08/20 19:19:55","新北市深坑區北深路二段97號","121.617681666667","25.0035233333333","6501800","深坑區"
"222002","659-BX","2019/08/20 19:19:57","新北市深坑區北深路一段177號","121.632441666667","25.0107783333333","6501800","深坑區"
"231061","002-UM","2019/08/20 19:19:54","新北市新店區安康路一段48號","121.530378333333","24.9611583333333","6500600","新店區"
"231044","046-UY","2019/08/20 19:19:41","新北市新店區中興路三段305號","121.541971666667","24.9856366666667","6500600","新店區"
"231060","106-UY","2019/08/20 19:19:50","新北市新店區安康路二段156號","121.51234","24.9609","6500600","新店區"
"231051","107-UY","2019/08/20 19:19:41","新北市新店區中央路192號","121.530926666667","24.9746933333333","6500600","新店區"
"231049","108-UY","2019/08/20 19:19:47","新北市新店區北新路三段21號","121.541876666667","24.9798016666667","6500600","新店區"
"231065","110-UY","2019/08/20 19:19:47","新北市新店區安祥路110巷30弄15號","121.474293333333","24.9570883333333","6500600","新店區"
"231062","256-BX","2019/08/20 19:19:50","新北市新店區莒光路38巷2弄1號","121.52308","24.9589633333333","6500600","新店區"
"231054","260-TV","2019/08/20 19:19:55","新北市新店區國校路6號","121.5379","24.9563816666667","6500600","新店區"
"231042","268-BY","2019/08/20 19:19:49","新北市新店區北宜路一段3號","121.538526666667","24.9585766666667","6500600","新店區"
"231064","278-BY","2019/08/20 19:19:59","新北市新店區安忠路57巷26弄21號","121.512553333333","24.9582116666667","6500600","新店區"
"231050","AAD-862","2019/08/20 19:19:48","新北市新店區竹林路30巷1號","121.552198333333","24.9512933333333","6500600","新店區"
"231045","355-BY","2019/08/20 19:19:39","新北市新店區北宜路一段260號","121.545698333333","24.9527716666667","6500600","新店區"
"231058","3713-VJ","2019/08/20 19:19:44","新北市新店區光明街286巷2號","121.540588333333","24.963905","6500600","新店區"
"231056","4715-K9","2019/08/20 19:19:57","新北市新店區安康路二段414巷2號","121.49609","24.95784","6500600","新店區"
"231053","515-UM","2019/08/20 19:19:41","新北市新店區自強路237號","121.547218333333","24.9186866666667","6500600","新店區"
"231063","616-UM","2019/08/20 19:19:55","新北市新店區達觀路8巷2號","121.503971666667","24.9427966666667","6500600","新店區"
"231040","617-UM","2019/08/20 19:19:57","新北市新店區三民路40號","121.536226666667","24.9714916666667","6500600","新店區"
"231041","618-UM","2019/08/20 19:19:44","新北市新店區溪園路221號","121.526201666667","24.983985","6500600","新店區"
"231048","KED-0819","2019/08/20 19:19:56","新北市新店區中興路二段59-1號","121.546546666667","24.97054","6500600","新店區"
"231046","719-UM","2019/08/20 19:19:59","新北市新店區安康路一段9-2號","121.53374","24.9605183333333","6500600","新店區"
"231057","720-UM","2019/08/20 19:19:55","新北市新店區百齡一路12號","121.553045","24.9325016666667","6500600","新店區"
"231059","897-TW","2019/08/20 19:20:01","新北市新店區安和路二段222號","121.5175","24.975875","6500600","新店區"
"231043","899-TW","2019/08/20 19:19:58","新北市新店區北新路二段109號","121.54288","24.97468","6500600","新店區"
"231066","AKT-0513","2019/08/20 19:19:46","新北市新店區安祥路35-2號","121.490698333333","24.9567916666667","6500600","新店區"
"241028","022-UY","2019/08/20 19:19:50","新北市三重區中正北路23號","121.49211","25.0613333333333","6500200","三重區"
"241031","061-VK","2019/08/20 19:19:56","新北市三重區重新路四段97-1號","121.485848333333","25.0547233333333","6500200","三重區"
"241006","262-UM","2019/08/20 19:19:40","新北市三重區力行路二段143號","121.483535","25.077175","6500200","三重區"
"241009","267-UM","2019/08/20 19:19:45","新北市三重區溪尾街230巷57號","121.486435","25.0812916666667","6500200","三重區"
"241007","398-BY","2019/08/20 19:19:46","新北市三重區慈愛街62號","121.486903333333","25.0794366666667","6500200","三重區"
"241030","KED-0822","2019/08/20 19:19:51","新北市三重區成功路41巷72號","121.491385","25.0532083333333","6500200","三重區"
"241035","462-BY","2019/08/20 19:19:51","新北市三重區信義西街41號","121.495318333333","25.0643833333333","6500200","三重區"
"241020","478-VK","2019/08/20 19:19:44","新北市三重區大智街250號","121.48924","25.073275","6500200","三重區"
"241026","480-VK","2019/08/20 19:19:56","新北市三重區文化南路65巷46弄7號","121.49864","25.0604","6500200","三重區"
"241022","KED-0820","2019/08/20 19:19:39","新北市三重區重陽路二段50號","121.487236666667","25.0634083333333","6500200","三重區"
"241029","942-UM","2019/08/20 19:20:01","新北市三重區重安街15號","121.490665","25.0575566666667","6500200","三重區"
"235064","005-UY","2019/08/20 19:19:47","新北市中和區南山路131-11號","121.502375","24.9962933333333","6500300","中和區"
"235063","006-UY","2019/08/20 19:19:44","新北市中和區連城路224號","121.491208333333","24.9964883333333","6500300","中和區"
"235056","096-UM","2019/08/20 19:19:56","新北市中和區員山路476號","121.479955","25.0067116666667","6500300","中和區"
"235039","097-UM","2019/08/20 19:19:40","新北市中和區秀峰街103巷6弄12號","121.519813333333","24.99007","6500300","中和區"
"235065","098-UM","2019/08/20 19:19:46","新北市中和區中山路二段64巷16弄1號","121.503238333333","25.0061216666667","6500300","中和區"
"235004","150-BY","2019/08/20 19:19:45","新北市中和區保健路50巷66號","121.509163333333","24.9952183333333","6500300","中和區"
"235058","151-BY","2019/08/20 19:19:49","新北市中和區連城路360號","121.482013333333","24.9954","6500300","中和區"
"235055","183-VK","2019/08/20 19:19:49","新北市中和區莒光路120巷14號","121.471505","25.00201","6500300","中和區"
"235038","185-VK","2019/08/20 19:19:44","新北市中和區大仁街108號","121.520556666667","24.9927883333333","6500300","中和區"
"235049","186-VK","2019/08/20 19:19:45","新北市中和區景新街238號","121.508848333333","24.993905","6500300","中和區"
"235067","255-BX","2019/08/20 19:19:38","新北市中和區連城路328號","121.483268333333","24.995885","6500300","中和區"
"235044","293-VK","2019/08/20 19:19:58","新北市中和區復興路283號","121.502058333333","24.9902716666667","6500300","中和區"
"235072","301-VK","2019/08/20 19:19:46","新北市中和區連城路265號","121.491378333333","24.9962016666667","6500300","中和區"
"235043","352-BY","2019/08/20 19:19:51","新北市中和區景平路333號","121.505746666667","24.99342","6500300","中和區"
"235042","KEA-2878","2019/08/20 19:19:46","新北市中和區安樂路217巷35弄12號","121.514011666667","24.9977066666667","6500300","中和區"
"235069","4980-A6","2019/08/20 19:19:55","新北市中和區福美路301巷17號","121.497573333333","25.0041283333333","6500300","中和區"
"235070","558-UM","2019/08/20 19:19:54","新北市中和區圓通路50號","121.500718333333","24.9975783333333","6500300","中和區"
"235045","565-BX","2019/08/20 19:19:50","新北市中和區景新街383巷36號","121.5138","24.9905566666667","6500300","中和區"
"235060","KED-0823","2019/08/20 19:19:46","新北市中和區新生街114巷9號","121.48317","25.0023616666667","6500300","中和區"
"235054","640-BX","2019/08/20 19:19:59","新北市中和區國光街112巷20弄5號","121.470595","25.0018533333333","6500300","中和區"
"235047","732-UM","2019/08/20 19:19:47","新北市中和區景平路239巷53弄8號","121.508913333333","24.9918366666667","6500300","中和區"
"235046","733-UM","2019/08/20 19:19:49","新北市中和區忠孝街37巷5號","121.510913333333","24.9835183333333","6500300","中和區"
"235071","783-BX","2019/08/20 19:19:58","新北市中和區連城路469巷54號","121.48346","24.9943083333333","6500300","中和區"
"235057","801-TS","2019/08/20 19:19:47","新北市中和區員山路457號","121.480501666667","25.004345","6500300","中和區"
"235052","805-TS","2019/08/20 19:19:58","新北市中和區興南路二段128巷4號","121.504083333333","24.983715","6500300","中和區"
"235048","896-TW","2019/08/20 19:19:54","新北市中和區景新街432號","121.512866666667","24.988465","6500300","中和區"
"235053","900-TW","2019/08/20 19:19:56","新北市中和區華安街17巷3號","121.466623333333","24.9982316666667","6500300","中和區"
"235066","911-UM","2019/08/20 19:19:56","新北市中和區中和路102號","121.50277","24.9995366666667","6500300","中和區"
"235051","157-BY","2019/08/20 19:19:57","新北市中和區和平街7-2號","121.509133333333","24.9903083333333","6500300","中和區"
"235037","AAC-213","2019/08/20 19:19:57","新北市中和區秀朗路三段10巷14弄18號","121.52492","24.996695","6500300","中和區"
"235059","AAC-215","2019/08/20 19:19:44","新北市中和區圓通路286巷2號","121.4916","24.991045","6500300","中和區"
"220055","015-TV","2019/08/20 19:19:43","新北市板橋區新民街2號","121.464381666667","25.00891","6500100","板橋區"
"220065","072-UY","2019/08/20 19:19:50","新北市板橋區民族路129巷1號","121.46749","25.008235","6500100","板橋區"
"220086","073-UY","2019/08/20 19:19:41","新北市板橋區幸福路70巷1號","121.460563333333","25.02","6500100","板橋區"
"220106","075-UY","2019/08/20 19:19:52","新北市板橋區長江路三段62號","121.473641666667","25.0338283333333","6500100","板橋區"
"220069","AAD-861","2019/08/20 19:20:00","新北市板橋區稚暉街54號","121.456681666667","25.00413","6500100","板橋區"
"220068","120-SR","2019/08/20 19:19:43","新北市板橋區萬安街121號","121.483468333333","25.0250733333333","6500100","板橋區"
"226004","312-R5","2019/08/20 19:19:58","新北市平溪區南山里南山坪58號","121.77592","25.0400266666667","6502400","平溪區"
"235041","251-BX","2019/08/20 19:19:43","新北市中和區中和路316號","121.509333333333","25.0005583333333","6500300","中和區"
"228001","212-TW","2019/08/20 19:19:43","新北市貢寮區真理里新港街10號","121.925456666667","25.0543333333333","6502600","貢寮區"
"228002","663-BX","2019/08/20 19:19:46","新北市貢寮區雙玉里田寮洋街21號","121.926781666667","25.0242433333333","6502600","貢寮區"
"228003","828-UM","2019/08/20 19:19:55","新北市貢寮區和美里和美街19-2號","121.912833333333","25.0825466666667","6502600","貢寮區"
"224008","273-VK","2019/08/20 19:19:59","新北市瑞芳區明燈路三段291號","121.798295","25.1123133333333","6501200","瑞芳區"
"227002","642-TC","2019/08/20 19:19:45","新北市雙溪區平林里梅竹蹊66-1號","121.860156666667","25.0358366666667","6502500","雙溪區"
"253006","032-BX","2019/08/20 19:19:52","新北市石門區楓林23-21號","121.537193333333","25.29146","6502200","石門區"
"253005","295-VK","2019/08/20 19:19:48","新北市石門區阿里荖33-1號","121.60689","25.2810316666667","6502200","石門區"
"208002","KEA-2872","2019/08/20 19:19:56","新北市金山區中華路131號","121.633156666667","25.2208933333333","6502700","金山區"
"208003","665-BX","2019/08/20 19:19:51","新北市金山區中山路147號","121.638905","25.2202483333333","6502700","金山區"
"251005","010-UM","2019/08/20 19:19:44","新北市淡水區水源街一段25號","121.44308","25.1724166666667","6501000","淡水區"
"251010","012-UM","2019/08/20 19:19:43","新北市淡水區沙崙路181巷27號","121.422718333333","25.18501","6501000","淡水區"
"251015","KEA-2871","2019/08/20 19:19:57","新北市淡水區山子邊3-1號","121.4836","25.1843533333333","6501000","淡水區"
"251016","179-VK","2019/08/20 19:19:58","新北市淡水區淡金路三段350巷18號","121.450756666667","25.20833","6501000","淡水區"
"251013","182-VK","2019/08/20 19:19:39","新北市淡水區安子內12-1號","121.481513333333","25.2191166666667","6501000","淡水區"
"251007","442-VK","2019/08/20 19:20:02","新北市淡水區民生路117巷7號","121.46492","25.1391","6501000","淡水區"
"251001","559-UM","2019/08/20 19:19:57","新北市淡水區民權路92巷35-1號","121.461993333333","25.126725","6501000","淡水區"
"251009","575-R6","2019/08/20 19:19:44","新北市淡水區清水街81號","121.441335","25.1702016666667","6501000","淡水區"
"251014","577-R6","2019/08/20 19:19:40","新北市淡水區小中寮19-7號","121.48473","25.229625","6501000","淡水區"
"251002","672-BX","2019/08/20 19:19:55","新北市淡水區重建街永興巷2號","121.439665","25.17243","6501000","淡水區"
"251003","673-BX","2019/08/20 19:19:52","新北市淡水區中山北路一段85號","121.442223333333","25.1761816666667","6501000","淡水區"
"207003","550-UM","2019/08/20 19:19:52","新北市萬里區大鵬里萬里加投29-11號","121.64706","25.2078866666667","6502800","萬里區"
"207004","291-VK","2019/08/20 19:19:53","新北市萬里區萬里里成功新村63號","121.688296666667","25.1745533333333","6502800","萬里區"
"252002","178-VK","2019/08/20 19:19:46","新北市三芝區淡金路二段21號","121.50272","25.259515","6502100","三芝區"
"252001","292-VK","2019/08/20 19:19:59","新北市三芝區長勤街37巷11號","121.501096666667","25.2552516666667","6502100","三芝區"
"208001","170-UY","2019/08/20 19:19:56","新北市金山區金包里街48號","121.639431666667","25.2210933333333","6502700","金山區"
"237004","KEA-2597","2019/08/20 19:19:53","新北市三峽區有木206號","121.439165","24.8516516666667","6500900","三峽區"
"237007","153-BY","2019/08/20 19:19:44","新北市三峽區二鬮路122-1號","121.360006666667","24.9085216666667","6500900","三峽區"
"237009","210-TH","2019/08/20 19:19:53","新北市三峽區和平街2號","121.37062","24.9353783333333","6500900","三峽區"
"237013","252-BX","2019/08/20 19:19:56","新北市三峽區大同路39巷9號","121.377335","24.9275383333333","6500900","三峽區"
"237012","275-BY","2019/08/20 19:19:55","新北市三峽區三樹路222巷236弄8-3號","121.391473333333","24.9429816666667","6500900","三峽區"
"237008","302-VK","2019/08/20 19:19:56","新北市三峽區光明路106巷22號","121.375951666667","24.9273233333333","6500900","三峽區"
"237014","433-BY","2019/08/20 19:19:42","新北市三峽區中山路257巷20-1號","121.362135","24.93657","6500900","三峽區"
"237006","5529-G3","2019/08/20 19:19:49","新北市三峽區大同路41號","121.376485","24.9280533333333","6500900","三峽區"
"237011","KEA-2596","2019/08/20 19:19:54","新北市三峽區介壽路三段168號","121.402221666667","24.9439","6500900","三峽區"
"237015","649-BX","2019/08/20 19:19:43","新北市三峽區安坑46-6號","121.457745","24.93216","6500900","三峽區"
"237010","078-UY","2019/08/20 19:19:58","新北市三峽區民生街60巷1號","121.375046666667","24.9364533333333","6500900","三峽區"
"237005","AKY-6261","2019/08/20 19:19:58","新北市三峽區中山路459巷50-2號","121.356138333333","24.9375216666667","6500900","三峽區"
"236042","KED-0685","2019/08/20 19:19:55","新北市土城區學府路一段239號","121.450411666667","24.9833516666667","6501300","土城區"
"236079","166-UM","2019/08/20 19:19:55","新北市土城區中央路四段181號","121.414998333333","24.9567666666667","6501300","土城區"
"236026","269-VK","2019/08/20 19:19:46","新北市土城區中央路二段177巷15號","121.443526666667","24.9761933333333","6501300","土城區"
"236014","270-VK","2019/08/20 19:19:52","新北市土城區廣福街9號","121.457145","24.9888733333333","6501300","土城區"
"236070","KEA-2877","2019/08/20 19:19:55","新北市土城區學成路114號","121.449733333333","24.9893416666667","6501300","土城區"
"236021","401-BY","2019/08/20 19:19:50","新北市土城區峰廷街3號","121.46906","24.9873433333333","6501300","土城區"
"236059","912-UM","2019/08/20 19:19:56","新北市土城區中央路二段276號","121.440963333333","24.9740683333333","6501300","土城區"
"238015","755-BX","2019/08/20 19:19:59","新北市樹林區備內街1巷29號","121.41269","24.9864","6500700","樹林區"
"238023","601-UM","2019/08/20 19:19:48","新北市樹林區中正路865號","121.408788333333","25.0181366666667","6500700","樹林區"
"238019","599-UM","2019/08/20 19:19:50","新北市樹林區東榮街106號","121.415506666667","24.9823233333333","6500700","樹林區"
"238024","5061-A6","2019/08/20 19:19:45","新北市樹林區福德街36-2號","121.400318333333","24.975225","6500700","樹林區"
"238018","KEA-2217","2019/08/20 19:19:53","新北市樹林區中華路211號","121.419751666667","24.9814983333333","6500700","樹林區"
"238022","KEA-2213","2019/08/20 19:19:56","新北市樹林區中山路二段151巷8弄8號","121.406295","24.9778733333333","6500700","樹林區"
"238021","KEA-2539","2019/08/20 19:19:47","新北市樹林區柑園街二段203巷21號","121.377273333333","24.9510683333333","6500700","樹林區"
"238017","283-BY","2019/08/20 19:19:54","新北市樹林區光興街153-6號","121.407888333333","25.0031216666667","6500700","樹林區"
"238014","282-BY","2019/08/20 19:19:43","新北市樹林區中正路22-1號","121.427735","24.999485","6500700","樹林區"
"238020","268-VK","2019/08/20 19:19:41","新北市樹林區俊英街123巷1號","121.424441666667","25.010655","6500700","樹林區"
"238026","172-UY","2019/08/20 19:19:50","新北市樹林區佳園路一段41巷6號","121.393411666667","24.9708133333333","6500700","樹林區"
"238016","169-UY","2019/08/20 19:19:47","新北市樹林區中山路一段306巷50號","121.418393333333","24.9862033333333","6500700","樹林區"
"239007","AAC-297","2019/08/20 19:19:59","新北市鶯歌區大湖路18號","121.342893333333","24.960555","6500800","鶯歌區"
"239006","891-R6","2019/08/20 19:19:47","新北市鶯歌區鶯桃路296巷94弄33號","121.337818333333","24.961335","6500800","鶯歌區"
"239008","527-UM","2019/08/20 19:19:50","新北市鶯歌區國際二路6巷12號","121.338788333333","24.9737366666667","6500800","鶯歌區"
"239005","526-UM","2019/08/20 19:19:54","新北市鶯歌區中湖街315巷1號","121.346433333333","24.978215","6500800","鶯歌區"
"239001","417-VK","2019/08/20 19:19:48","新北市鶯歌區鶯桃路95巷40號","121.337983333333","24.9532116666667","6500800","鶯歌區"
"239003","360-BY","2019/08/20 19:19:50","新北市鶯歌區德昌街19號","121.333486666667","24.95999","6500800","鶯歌區"
"239002","359-BY","2019/08/20 19:19:53","新北市鶯歌區中正一路371號","121.358146666667","24.9571116666667","6500800","鶯歌區"
"239004","193-VK","2019/08/20 19:19:41","新北市鶯歌區中正三路406巷16弄2號","121.325166666667","24.9357","6500800","鶯歌區"
"221008","489-VK","2019/08/20 19:19:47","新北市汐止區康寧街310號","121.626638333333","25.0672166666667","6501100","汐止區"
"221031","353-TW","2019/08/20 19:19:41","新北市汐止區康寧街901號","121.65084","25.0752983333333","6501100","汐止區"
"221002","707-TV","2019/08/20 19:19:46","新北市汐止區大同路一段335號","121.63854","25.059395","6501100","汐止區"
"220079","145-BY","2019/08/20 19:19:58","新北市板橋區民權路260巷1弄3號","121.458021666667","25.0156066666667","6500100","板橋區"
"220080","200-UY","2019/08/20 19:19:59","新北市板橋區大觀路二段1巷38號","121.450013333333","25.003675","6500100","板橋區"
"220082","610-BX","2019/08/20 19:20:02","新北市板橋區滿平街84巷114號","121.426818333333","24.9864866666667","6500100","板橋區"
"220101","245-BX","2019/08/20 19:19:50","新北市板橋區莊敬路261號","121.473978333333","25.0216933333333","6500100","板橋區"
"220056","276-BY","2019/08/20 19:19:41","新北市土城區青雲路1-1號","121.460403333333","24.9899583333333","6500100","板橋區"
"220072","277-BY","2019/08/20 19:19:41","新北市板橋區金門街337巷12弄1號","121.430313333333","24.984695","6500100","板橋區"
"220071","283-VK","2019/08/20 19:19:53","新北市板橋區重慶路269巷13號","121.463828333333","24.9995016666667","6500100","板橋區"
"220094","285-UM","2019/08/20 19:20:01","新北市板橋區松江街124巷7號","121.469538333333","25.030345","6500100","板橋區"
"220053","285-VK","2019/08/20 19:19:57","新北市板橋區富山街100號","121.476323333333","25.0219333333333","6500100","板橋區"
"220083","286-VK","2019/08/20 19:19:46","新北市板橋區大觀路二段174巷196弄4號","121.442563333333","25.0037616666667","6500100","板橋區"
"220081","287-VK","2019/08/20 19:19:37","新北市板橋區南雅西路二段3號","121.45308","25.00898","6500100","板橋區"
"220090","288-VK","2019/08/20 19:19:55","新北市板橋區裕民街54號","121.461405","25.0286933333333","6500100","板橋區"
"220061","293-UM","2019/08/20 19:19:55","新北市板橋區中山路二段255巷7號","121.476921666667","25.01788","6500100","板橋區"
"220084","296-UM","2019/08/20 19:19:43","新北市板橋區溪崑二街73巷5號","121.42841","24.9898866666667","6500100","板橋區"
"220097","299-UM","2019/08/20 19:19:52","新北市板橋區新海路69號","121.46171","25.0216483333333","6500100","板橋區"
"220075","303-R5","2019/08/20 19:19:49","新北市板橋區南雅西路一段126號","121.452291666667","25.0067116666667","6500100","板橋區"
"220062","305-R5","2019/08/20 19:19:47","新北市板橋區三民路二段居仁巷1弄31號","121.480121666667","25.0136383333333","6500100","板橋區"
"220092","307-R5","2019/08/20 19:19:56","新北市板橋區陽明街27巷1號","121.465696666667","25.0218366666667","6500100","板橋區"
"220098","317-R6","2019/08/20 19:19:48","新北市板橋區四維路100號","121.465713333333","25.02439","6500100","板橋區"
"220089","487-VK","2019/08/20 19:18:30","新北市板橋區英士路18號","121.461948333333","25.025265","6500100","板橋區"
"220088","491-VK","2019/08/20 19:19:51","新北市板橋區雙十路二段146號","121.473395","25.02917","6500100","板橋區"
"220103","561-BX","2019/08/20 19:19:52","新北市板橋區文化路一段280-3號","121.46734","25.02147","6500100","板橋區"
"220063","609-BX","2019/08/20 19:19:48","新北市板橋區三民路一段1巷33號","121.48023","25.0245916666667","6500100","板橋區"
"220035","630-UY","2019/08/20 19:19:58","新北市板橋區中正路360巷53號","121.456308333333","25.022915","6500100","板橋區"
"220091","637-BX","2019/08/20 19:19:59","新北市板橋區萬板路476號","121.479781666667","25.0261783333333","6500100","板橋區"
"220057","686-BX","2019/08/20 19:19:51","新北市板橋區和平路61號","121.461081666667","24.9946666666667","6500100","板橋區"
"220077","687-BX","2019/08/20 19:19:55","新北市板橋區大觀路二段123號","121.445948333333","25.00134","6500100","板橋區"
"220093","689-BX","2019/08/20 19:19:53","新北市板橋區新海路386號","121.459005","25.0262116666667","6500100","板橋區"
"220054","741-BX","2019/08/20 19:19:52","新北市板橋區校前街38號","121.461073333333","25.0031366666667","6500100","板橋區"
"220102","KEA-2699","2019/08/20 19:19:46","新北市板橋區雙十路二段130巷2弄19號","121.474628333333","25.0288366666667","6500100","板橋區"
"220067","829-TW","2019/08/20 19:19:57","新北市板橋區長安街138巷3弄45號","121.473995","25.0097116666667","6500100","板橋區"
"220074","895-R6","2019/08/20 19:20:02","新北市板橋區中正路1巷16弄1號","121.454998333333","25.0118716666667","6500100","板橋區"
"220073","985-R7","2019/08/20 19:19:51","新北市板橋區新生街37號","121.456701666667","25.0211483333333","6500100","板橋區"
"220064","AAC-253","2019/08/20 19:19:56","新北市板橋區公園街34巷2號","121.462455","25.0084916666667","6500100","板橋區"
"235068","KEA-2873","2019/08/20 19:19:55","新北市中和區景平路545巷1弄17號","121.498955","24.9987783333333","6500300","中和區"
"235061","KEA-2875","2019/08/20 19:19:54","新北市中和區民利街67號","121.47872","24.99841","6500300","中和區"
