"lineid","car","time","location","longitude","latitude","cityid","cityname"
"234046","148-BY","2019/08/20 19:29:48","新北市永和區秀朗路二段231號","121.526456666667","25.00024","6500400","永和區"
"234081","298-R6","2019/08/20 19:29:40","新北市永和區林森路10巷10號","121.526055","25.0061466666667","6500400","永和區"
"234038","336-UY","2019/08/20 19:29:55","新北市永和區民樂街38號","121.527496666667","25.0007166666667","6500400","永和區"
"234064","337-UY","2019/08/20 19:29:48","新北市永和區中正路368巷1弄88號","121.520465","25.0005916666667","6500400","永和區"
"234086","338-UY","2019/08/20 19:29:59","新北市永和區成功路一段18巷20號","121.52618","25.0051716666667","6500400","永和區"
"234070","552-UM","2019/08/20 19:29:57","新北市永和區警光街12號","121.519758333333","25.0095516666667","6500400","永和區"
"234017","745-BX","2019/08/20 19:29:42","新北市永和區環河西路一段87-1號","121.512556666667","25.0181","6500400","永和區"
"234030","746-BX","2019/08/20 19:29:41","新北市永和區民生路55號","121.52267","24.9976566666667","6500400","永和區"
"234054","KEA-2590","2019/08/20 19:29:52","新北市永和區復興街3號","121.515666666667","25.0129266666667","6500400","永和區"
"234007","KED-0605","2019/08/20 19:29:56","新北市永和區永和路一段107號","121.513963333333","25.008015","6500400","永和區"
"234013","KEA-2591","2019/08/20 19:29:46","新北市永和區永和路二段82號","121.51495","25.0113966666667","6500400","永和區"
"234061","AAD-866","2019/08/20 19:29:44","新北市永和區中正路506號","121.517315","25.0045016666667","6500400","永和區"
"234042","862-TW","2019/08/20 19:29:45","新北市永和區中和路603號","121.512396666667","25.0042366666667","6500400","永和區"
"234050","863-TW","2019/08/20 19:29:44","新北市永和區信義路102號","121.512435","25.0139583333333","6500400","永和區"
"234026","9371-KE","2019/08/20 19:29:52","新北市中和區安樂路245號","121.51416","24.9995766666667","6500400","永和區"
"234011","9373-KE","2019/08/20 19:29:57","新北市永和區保生路55號","121.504726666667","25.0107333333333","6500400","永和區"
"249002","305-UY","2019/08/20 19:29:46","新北市八里區龍形一街33巷6-2號","121.449346666667","25.1294816666667","6502300","八里區"
"249003","593-UM","2019/08/20 19:29:42","新北市八里區中山路二段448號","121.399366666667","25.14728","6502300","八里區"
"248014","025-BX","2019/08/20 19:29:44","新北市五股區民義路一段152號","121.4331","25.0874366666667","6501500","五股區"
"248008","KED-0815","2019/08/20 19:29:45","新北市五股區中興路一段201號","121.463543333333","25.074185","6501500","五股區"
"248020","KED-0813","2019/08/20 19:29:39","新北市五股區凌雲路三段92-2號","121.428046666667","25.1199533333333","6501500","五股區"
"248012","247-BX","2019/08/20 19:29:41","新北市五股區成泰路二段91巷9號","121.43754","25.0841433333333","6501500","五股區"
"248004","677-BX","2019/08/20 19:29:39","新北市五股區工商路151號","121.434935","25.08657","6501500","五股區"
"248002","678-BX","2019/08/20 19:29:44","新北市五股區凌雲路一段158巷6號","121.447773333333","25.1030183333333","6501500","五股區"
"234023","9380-KE","2019/08/20 19:29:54","新北市永和區竹林路91巷45號","121.52136","25.0129433333333","6500400","永和區"
"234077","969-R7","2019/08/20 19:29:54","新北市永和區民族街43巷11號","121.518981666667","24.9984116666667","6500400","永和區"
"234074","AAC-211","2019/08/20 19:29:55","新北市永和區竹林路75巷33弄45號","121.521213333333","25.014775","6500400","永和區"
"234067","AAC-212","2019/08/20 19:29:54","新北市永和區保平路182號","121.51065","25.006615","6500400","永和區"
"234003","AAC-295","2019/08/20 19:29:40","新北市永和區福和路385號","121.514195","25.007685","6500400","永和區"
"244023","483-VK","2019/08/20 19:29:45","新北市林口區文化三路一段617巷126號","121.371155","25.0785883333333","6501700","林口區"
"243012","AAD-798","2019/08/20 19:29:46","新北市泰山區仁義路220巷2號","121.433013333333","25.0537816666667","6501600","泰山區"
"243010","297-R6","2019/08/20 19:29:49","新北市泰山區民生路17巷6號","121.429878333333","25.0523066666667","6501600","泰山區"
"243014","KEA-2801","2019/08/20 19:29:49","新北市泰山區中港西路420號","121.433871666667","25.053945","6501600","泰山區"
"243016","421-VK","2019/08/20 19:30:00","新北市泰山區明志路三段204巷16號","121.421801666667","25.0378166666667","6501600","泰山區"
"243009","KEA-2215","2019/08/20 19:29:44","新北市泰山區明志路一段10號","121.433573333333","25.065905","6501600","泰山區"
"243011","KEA-2216","2019/08/20 19:29:56","新北市泰山區中山路二段561-9號","121.42999","25.040595","6501600","泰山區"
"243013","646-TV","2019/08/20 19:29:57","新北市泰山區貴子路36巷22號","121.425808333333","25.0408433333333","6501600","泰山區"
"243015","680-BX","2019/08/20 19:29:56","新北市泰山區明志路二段136巷1-1號","121.427356666667","25.0511966666667","6501600","泰山區"
"222003","436-BY","2019/08/20 19:29:54","新北市深坑區深南路88巷1號","121.621188333333","25.01127","6501800","深坑區"
"222001","628-TS","2019/08/20 19:29:55","新北市深坑區深坑街10號","121.615886666667","25.0028483333333","6501800","深坑區"
"222002","659-BX","2019/08/20 19:29:57","新北市深坑區北深路一段177號","121.632483333333","25.01085","6501800","深坑區"
"231061","002-UM","2019/08/20 19:29:54","新北市新店區安康路一段302-2號","121.517285","24.964025","6500600","新店區"
"231044","046-UY","2019/08/20 19:29:41","新北市新店區中興路三段133號","121.544475","24.9796016666667","6500600","新店區"
"231060","106-UY","2019/08/20 19:29:50","新北市新店區安康路二段3-3號","121.515955","24.9635933333333","6500600","新店區"
"231051","107-UY","2019/08/20 19:29:57","新北市新店區中央五街29號","121.528981666667","24.9748766666667","6500600","新店區"
"231049","108-UY","2019/08/20 19:29:47","新北市新店區二十張路1巷3弄3號","121.540583333333","24.98207","6500600","新店區"
"231065","110-UY","2019/08/20 19:29:47","新北市新店區安祥路109巷1弄60號","121.476893333333","24.960175","6500600","新店區"
"231062","256-BX","2019/08/20 19:29:40","新北市新店區莒光路21號","121.525513333333","24.96003","6500600","新店區"
"231054","260-TV","2019/08/20 19:29:55","新北市新店區文中路40號","121.539698333333","24.956575","6500600","新店區"
"231042","268-BY","2019/08/20 19:29:49","新北市新店區中興路一段92號","121.539968333333","24.9604933333333","6500600","新店區"
"231064","278-BY","2019/08/20 19:29:39","新北市新店區安康路二段85巷10號","121.513468333333","24.962495","6500600","新店區"
"231050","AAD-862","2019/08/20 19:29:48","新北市新店區竹林路72巷15號","121.554158333333","24.950735","6500600","新店區"
"231045","355-BY","2019/08/20 19:29:39","新北市新店區北宜路二段207號","121.553135","24.9532866666667","6500600","新店區"
"231058","3713-VJ","2019/08/20 19:29:44","新北市新店區北新路二段228巷13號","121.543496666667","24.9771566666667","6500600","新店區"
"231056","4715-K9","2019/08/20 19:29:57","新北市新店區安民街121巷12號","121.5154","24.9692066666667","6500600","新店區"
"231067","4772-VM","2019/08/20 19:29:44","新北市新店區薏仁坑路自強巷1號","121.496905","24.9582016666667","6500600","新店區"
"231053","515-UM","2019/08/20 19:30:01","新北市新店區新烏路二段200巷11號","121.547728333333","24.916815","6500600","新店區"
"231063","616-UM","2019/08/20 19:29:55","新北市新店區達觀路14巷2號","121.503433333333","24.9411666666667","6500600","新店區"
"231040","617-UM","2019/08/20 19:29:54","新北市新店區三民路43號","121.537186666667","24.97095","6500600","新店區"
"231041","618-UM","2019/08/20 19:29:44","新北市新店區中正路602號","121.534241666667","24.9881933333333","6500600","新店區"
"231048","KED-0819","2019/08/20 19:29:56","新北市新店區中興路一段268巷12號","121.545675","24.9673416666667","6500600","新店區"
"231046","719-UM","2019/08/20 19:29:39","新北市新店區北新路一段261號","121.541015","24.9662966666667","6500600","新店區"
"231057","720-UM","2019/08/20 19:30:00","新北市新店區花園一路二段17號","121.550826666667","24.93328","6500600","新店區"
"231059","897-TW","2019/08/20 19:29:54","新北市新店區安和路三段7號","121.51812","24.980535","6500600","新店區"
"231043","899-TW","2019/08/20 19:29:38","新北市新店區北新路二段190號","121.543011666667","24.9764983333333","6500600","新店區"
"231066","AKT-0513","2019/08/20 19:29:46","新北市新店區安康路三段359巷12弄16號","121.484191666667","24.9496","6500600","新店區"
"241028","022-UY","2019/08/20 19:29:51","新北市三重區中寮街31號","121.492588333333","25.05891","6500200","三重區"
"241008","059-VK","2019/08/20 19:29:56","新北市三重區永福街135巷32弄28號","121.477385","25.07692","6500200","三重區"
"241031","061-VK","2019/08/20 19:29:56","新北市三重區集美街100號","121.488576666667","25.0541616666667","6500200","三重區"
"241006","262-UM","2019/08/20 19:30:01","新北市三重區車路頭街90號","121.48423","25.0741883333333","6500200","三重區"
"241009","267-UM","2019/08/20 19:29:44","新北市三重區仁美街128號","121.485493333333","25.08128","6500200","三重區"
"241013","270-UM","2019/08/20 19:29:59","新北市三重區仁愛街127號","121.495451666667","25.074825","6500200","三重區"
"241025","271-UM","2019/08/20 19:29:46","新北市三重區頂崁街210巷28弄12號","121.475733333333","25.067335","6500200","三重區"
"241007","398-BY","2019/08/20 19:29:46","新北市三重區溪尾街126巷14號","121.488948333333","25.0791883333333","6500200","三重區"
"241030","KED-0822","2019/08/20 19:29:51","新北市三重區成功路41巷6號","121.49025","25.0515016666667","6500200","三重區"
"241035","462-BY","2019/08/20 19:29:51","新北市三重區長元西街37號","121.498028333333","25.0653683333333","6500200","三重區"
"241020","478-VK","2019/08/20 19:29:44","新北市三重區三和路四段20巷22號","121.490078333333","25.0736516666667","6500200","三重區"
"241026","480-VK","2019/08/20 19:29:56","新北市三重區光興街43號","121.499403333333","25.0601333333333","6500200","三重區"
"241023","545-UM","2019/08/20 19:29:58","新北市三重區頂崁街99號","121.47798","25.0638716666667","6500200","三重區"
"241022","KED-0820","2019/08/20 19:29:55","新北市三重區三民街165巷12號","121.484148333333","25.0655016666667","6500200","三重區"
"241012","941-UM","2019/08/20 19:29:42","新北市三重區河邊北街385號","121.501641666667","25.0766683333333","6500200","三重區"
"241029","942-UM","2019/08/20 19:28:52","新北市三重區重安街148巷7號","121.495838333333","25.0549666666667","6500200","三重區"
"235064","005-UY","2019/08/20 19:29:47","新北市中和區南華路47號","121.50376","24.9968266666667","6500300","中和區"
"235063","006-UY","2019/08/20 19:29:44","新北市中和區連勝街121巷14號","121.495048333333","24.994565","6500300","中和區"
"235056","096-UM","2019/08/20 19:29:56","新北市中和區員山路581巷31弄7號","121.477053333333","25.010335","6500300","中和區"
"235039","097-UM","2019/08/20 19:29:40","新北市中和區秀峰街127巷1號","121.519791666667","24.990865","6500300","中和區"
"235065","098-UM","2019/08/20 19:29:46","新北市中和區莊敬路4號","121.499601666667","25.0042233333333","6500300","中和區"
"235004","150-BY","2019/08/20 19:29:45","新北市中和區保健路46巷22弄2號","121.508775","24.9958766666667","6500300","中和區"
"235058","151-BY","2019/08/20 19:29:49","新北市中和區連城路477巷6弄13號","121.482656666667","24.9950583333333","6500300","中和區"
"235055","183-VK","2019/08/20 19:29:49","新北市中和區民享街5號","121.47394","25.0056266666667","6500300","中和區"
"235038","185-VK","2019/08/20 19:29:44","新北市中和區自立路125號","121.52195","24.9941583333333","6500300","中和區"
"235049","186-VK","2019/08/20 19:29:45","新北市中和區景新街273巷16號","121.510133333333","24.9938966666667","6500300","中和區"
"235067","255-BX","2019/08/20 19:29:58","新北市中和區新生街186巷1弄2號","121.48322","24.9996316666667","6500300","中和區"
"235044","293-VK","2019/08/20 19:29:58","新北市中和區捷運路119號","121.507796666667","24.9903466666667","6500300","中和區"
"235072","301-VK","2019/08/20 19:29:46","新北市中和區錦和路93巷4弄1號","121.490555","24.9957416666667","6500300","中和區"
"235043","352-BY","2019/08/20 19:29:54","新北市中和區安和路27號","121.51046","24.9942866666667","6500300","中和區"
"235042","KEA-2878","2019/08/20 19:29:46","新北市中和區中和路262巷49號","121.510213333333","25.000015","6500300","中和區"
"235070","558-UM","2019/08/20 19:29:54","新北市中和區連勝街33號","121.498325","24.9977716666667","6500300","中和區"
"235045","565-BX","2019/08/20 19:29:54","新北市中和區景平路151巷28號","121.514218333333","24.9910666666667","6500300","中和區"
"235060","KED-0823","2019/08/20 19:29:46","新北市中和區中山路二段523巷35號","121.482191666667","25.0033483333333","6500300","中和區"
"235054","640-BX","2019/08/20 19:29:59","新北市中和區莒光路65號","121.472458333333","25.0035166666667","6500300","中和區"
"235047","732-UM","2019/08/20 19:29:47","新北市中和區景平路259巷28號","121.507185","24.9927333333333","6500300","中和區"
"235046","733-UM","2019/08/20 19:29:44","新北市中和區忠孝街66號","121.511931666667","24.98399","6500300","中和區"
"235071","783-BX","2019/08/20 19:29:58","新北市中和區新生街238號","121.483805","24.9980133333333","6500300","中和區"
"235057","801-TS","2019/08/20 19:29:47","新北市中和區員山路152-3號","121.481563333333","24.9987416666667","6500300","中和區"
"235052","805-TS","2019/08/20 19:29:38","新北市中和區華新街143巷65弄3號","121.506655","24.9791816666667","6500300","中和區"
"235048","896-TW","2019/08/20 19:29:41","新北市中和區忠孝街1巷2-1號","121.509186666667","24.98303","6500300","中和區"
"235053","900-TW","2019/08/20 19:29:56","新北市中和區民德路126號","121.468856666667","25.0010433333333","6500300","中和區"
"235066","911-UM","2019/08/20 19:29:56","新北市中和區中和路138號","121.503531666667","24.99958","6500300","中和區"
"235051","157-BY","2019/08/20 19:29:57","新北市中和區景新街132巷1號","121.505045","24.9979216666667","6500300","中和區"
"235037","AAC-213","2019/08/20 19:29:57","新北市中和區秀朗路三段50巷4弄4號","121.52572","24.9957","6500300","中和區"
"235059","AAC-215","2019/08/20 19:29:44","新北市中和區圓通路252巷2號","121.493295","24.9916083333333","6500300","中和區"
"220055","015-TV","2019/08/20 19:29:43","新北市板橋區重慶路278巷20-3號","121.46273","24.9995966666667","6500100","板橋區"
"220065","072-UY","2019/08/20 19:29:50","新北市板橋區國泰街75巷28弄62號","121.467443333333","25.0046","6500100","板橋區"
"220086","073-UY","2019/08/20 19:29:41","新北市板橋區中正路216巷80號","121.458121666667","25.0189333333333","6500100","板橋區"
"220106","075-UY","2019/08/20 19:29:52","新北市板橋區雙十路三段17號","121.47083","25.0311766666667","6500100","板橋區"
"220069","AAD-861","2019/08/20 19:29:54","新北市板橋區貴興路106巷16弄2號","121.455018333333","25.0032433333333","6500100","板橋區"
"220068","120-SR","2019/08/20 19:29:47","新北市板橋區萬安街55號","121.483936666667","25.0238333333333","6500100","板橋區"
"247004","893-R6","2019/08/20 19:29:46","新北市蘆洲區長安街138號","121.46033","25.0820483333333","6501400","蘆洲區"
"226004","312-R5","2019/08/20 19:29:59","新北市平溪區十分里十分街158號","121.778181666667","25.04345","6502400","平溪區"
"235041","251-BX","2019/08/20 19:29:43","新北市中和區中和路400巷14弄2號","121.511556666667","25.0022033333333","6500300","中和區"
"228001","212-TW","2019/08/20 19:29:43","新北市貢寮區真理里大澳街46號","121.925091666667","25.056385","6502600","貢寮區"
"228002","663-BX","2019/08/20 19:29:46","新北市貢寮區龍門里龍門街69號","121.930998333333","25.0265716666667","6502600","貢寮區"
"228003","828-UM","2019/08/20 19:29:55","新北市貢寮區和美里和美街19-2號","121.912818333333","25.08256","6502600","貢寮區"
"224008","273-VK","2019/08/20 19:29:59","新北市瑞芳區一坑路173-3號","121.801835","25.107985","6501200","瑞芳區"
"227002","642-TC","2019/08/20 19:29:45","新北市雙溪區雙溪里光復街3號","121.865183333333","25.0355166666667","6502500","雙溪區"
"227001","400-TW","2019/08/20 19:29:50","新北市雙溪區新基里新基北街64號","121.868801666667","25.0397383333333","6502500","雙溪區"
"253006","032-BX","2019/08/20 19:29:52","新北市石門區中央路2號","121.56326","25.2908616666667","6502200","石門區"
"208002","KEA-2872","2019/08/20 19:29:56","新北市金山區中正路6號","121.636476666667","25.2224383333333","6502700","金山區"
"208003","665-BX","2019/08/20 19:29:51","新北市金山區中山路263巷10號","121.636358333333","25.2216366666667","6502700","金山區"
"251005","010-UM","2019/08/20 19:29:45","新北市淡水區水源街一段47巷46號","121.444183333333","25.1738683333333","6501000","淡水區"
"251010","012-UM","2019/08/20 19:29:43","新北市淡水區濱海路三段138號","121.42713","25.1909583333333","6501000","淡水區"
"251015","KEA-2871","2019/08/20 19:29:57","新北市淡水區山子頂24-1號","121.491375","25.18722","6501000","淡水區"
"251016","179-VK","2019/08/20 19:29:58","新北市淡水區淡金路三段350巷18號","121.450791666667","25.208345","6501000","淡水區"
"251008","181-VK","2019/08/20 19:29:53","新北市淡水區中正路一段27號","121.426098333333","25.1763416666667","6501000","淡水區"
"251013","182-VK","2019/08/20 19:30:00","新北市淡水區大牛稠4號","121.469656666667","25.2201366666667","6501000","淡水區"
"251007","442-VK","2019/08/20 19:29:42","新北市淡水區八勢一街48號","121.46105","25.1547016666667","6501000","淡水區"
"251001","559-UM","2019/08/20 19:29:57","新北市淡水區民權路141號","121.459908333333","25.1364633333333","6501000","淡水區"
"251006","561-UM","2019/08/20 19:29:51","新北市淡水區大義街51號","121.44138","25.178295","6501000","淡水區"
"251009","575-R6","2019/08/20 19:29:44","新北市淡水區中山路159-10號","121.441001666667","25.17341","6501000","淡水區"
"251014","577-R6","2019/08/20 19:30:00","新北市淡水區小中寮15-1號","121.485458333333","25.2303316666667","6501000","淡水區"
"251002","672-BX","2019/08/20 19:29:55","新北市淡水區新民街一段117號","121.428686666667","25.1873583333333","6501000","淡水區"
"251003","673-BX","2019/08/20 19:29:52","新北市淡水區中山北路三段77號","121.444515","25.1918466666667","6501000","淡水區"
"207003","550-UM","2019/08/20 19:29:52","新北市萬里區大鵬里萬里加投113號","121.645733333333","25.213215","6502800","萬里區"
"207004","291-VK","2019/08/20 19:29:52","新北市萬里區萬里里瑪鋉路89號","121.688703333333","25.1772866666667","6502800","萬里區"
"252002","178-VK","2019/08/20 19:29:46","新北市三芝區淡金路二段18-1號","121.502691666667","25.2595583333333","6502100","三芝區"
"252001","292-VK","2019/08/20 19:29:59","新北市三芝區長春街2號","121.499923333333","25.2571083333333","6502100","三芝區"
"208001","170-UY","2019/08/20 19:29:56","新北市金山區南勢73號","121.62586","25.2201916666667","6502700","金山區"
"237004","KEA-2597","2019/08/20 19:29:53","新北市三峽區有木206號","121.439105","24.8517616666667","6500900","三峽區"
"237007","153-BY","2019/08/20 19:29:44","新北市三峽區二鬮路136巷20弄83號","121.35814","24.9091116666667","6500900","三峽區"
"237009","210-TH","2019/08/20 19:29:42","新北市三峽區仁愛街2號","121.368398333333","24.9340383333333","6500900","三峽區"
"237013","252-BX","2019/08/20 19:29:56","新北市三峽區介壽路一段309號","121.381275","24.930315","6500900","三峽區"
"237012","275-BY","2019/08/20 19:29:55","新北市三峽區三樹路98巷169號","121.384651666667","24.939565","6500900","三峽區"
"237008","302-VK","2019/08/20 19:29:56","新北市三峽區大同路156號","121.373005","24.926765","6500900","三峽區"
"237014","433-BY","2019/08/20 19:29:42","新北市三峽區中山路117號","121.36556","24.9358216666667","6500900","三峽區"
"237006","5529-G3","2019/08/20 19:29:49","新北市三峽區中正路一段336巷15弄2號","121.369961666667","24.924975","6500900","三峽區"
"237011","KEA-2596","2019/08/20 19:29:54","新北市三峽區介壽路三段163-1號","121.40109","24.9433516666667","6500900","三峽區"
"237015","649-BX","2019/08/20 19:29:43","新北市三峽區成福路337號","121.432335","24.9239883333333","6500900","三峽區"
"237010","078-UY","2019/08/20 19:29:58","新北市三峽區復興路131號","121.371351666667","24.9381333333333","6500900","三峽區"
"237005","AKY-6261","2019/08/20 19:29:58","新北市三峽區中山路233號","121.362838333333","24.9371166666667","6500900","三峽區"
"236042","KED-0685","2019/08/20 19:29:55","新北市土城區學府路一段239號","121.450491666667","24.983335","6501300","土城區"
"236079","166-UM","2019/08/20 19:30:01","新北市土城區中州路27巷26號","121.413228333333","24.95716","6501300","土城區"
"236070","KEA-2877","2019/08/20 19:29:55","新北市土城區學府路一段192號","121.453183333333","24.98599","6501300","土城區"
"236021","401-BY","2019/08/20 19:29:50","新北市土城區峰廷街3號","121.469163333333","24.9873416666667","6501300","土城區"
"236059","912-UM","2019/08/20 19:29:56","新北市土城區中央路二段63號","121.442688333333","24.9789316666667","6501300","土城區"
"236049","913-UM","2019/08/20 19:29:56","新北市土城區立仁街50號","121.460685","24.9823016666667","6501300","土城區"
"236055","AAC-216","2019/08/20 19:29:43","新北市土城區學府路一段276號","121.450278333333","24.9832833333333","6501300","土城區"
"238015","755-BX","2019/08/20 19:29:59","新北市樹林區復興路200號","121.41976","24.9908283333333","6500700","樹林區"
"238023","601-UM","2019/08/20 19:29:48","新北市樹林區三福街41號","121.408343333333","25.0165366666667","6500700","樹林區"
"238019","599-UM","2019/08/20 19:29:49","新北市樹林區東榮街90號","121.415933333333","24.9826683333333","6500700","樹林區"
"238024","5061-A6","2019/08/20 19:29:45","新北市樹林區中山路三段155巷12號","121.396065","24.9725566666667","6500700","樹林區"
"238018","KEA-2217","2019/08/20 19:29:53","新北市樹林區中華路105號","121.422356666667","24.98276","6500700","樹林區"
"238022","KEA-2213","2019/08/20 19:29:56","新北市樹林區中華路337號","121.415571666667","24.9801933333333","6500700","樹林區"
"238021","KEA-2539","2019/08/20 19:29:55","新北市樹林區佳園路三段215號","121.385125","24.946535","6500700","樹林區"
"238017","283-BY","2019/08/20 19:29:59","新北市樹林區光興街221號","121.408163333333","25.0049883333333","6500700","樹林區"
"238014","282-BY","2019/08/20 19:29:43","新北市樹林區保安二街40巷27號","121.425698333333","24.9946516666667","6500700","樹林區"
"238020","268-VK","2019/08/20 19:29:41","新北市樹林區俊英街121巷53號","121.423428333333","25.00938","6500700","樹林區"
"238026","172-UY","2019/08/20 19:29:50","新北市樹林區佳園路二段167號","121.389726666667","24.956535","6500700","樹林區"
"238016","169-UY","2019/08/20 19:29:43","新北市樹林區中山路二段110-1號","121.414033333333","24.9833683333333","6500700","樹林區"
"239007","AAC-297","2019/08/20 19:29:39","新北市鶯歌區大湖路326巷7號","121.345758333333","24.97029","6500800","鶯歌區"
"239006","891-R6","2019/08/20 19:29:47","新北市鶯歌區鶯桃路91巷31弄4號","121.338061666667","24.95214","6500800","鶯歌區"
"239008","527-UM","2019/08/20 19:29:50","新北市鶯歌區大湖路564號","121.336735","24.9731383333333","6500800","鶯歌區"
"239001","417-VK","2019/08/20 19:29:48","新北市鶯歌區建國路409號","121.337893333333","24.9510116666667","6500800","鶯歌區"
"239003","360-BY","2019/08/20 19:29:50","新北市鶯歌區中正二路54號","121.350906666667","24.9513716666667","6500800","鶯歌區"
"239002","359-BY","2019/08/20 19:29:53","新北市鶯歌區西湖街45巷13號","121.339988333333","24.9589783333333","6500800","鶯歌區"
"239004","193-VK","2019/08/20 19:29:41","新北市鶯歌區中正三路鄭厝巷12-7號","121.332375","24.9337666666667","6500800","鶯歌區"
"221008","489-VK","2019/08/20 19:29:47","新北市汐止區康寧街235號","121.62398","25.0668233333333","6501100","汐止區"
"221027","281-BY","2019/08/20 19:29:54","新北市汐止區忠孝東路9號","121.658246666667","25.0660166666667","6501100","汐止區"
"221031","353-TW","2019/08/20 19:29:41","新北市汐止區康寧街901號","121.650775","25.0753083333333","6501100","汐止區"
"221025","623-UM","2019/08/20 19:30:00","新北市汐止區新台五路二段10號","121.660323333333","25.0650083333333","6501100","汐止區"
"221002","707-TV","2019/08/20 19:29:58","新北市汐止區中興路20號","121.637111666667","25.0597216666667","6501100","汐止區"
"220079","145-BY","2019/08/20 19:29:58","新北市板橋區公館街84號","121.461126666667","25.0152666666667","6500100","板橋區"
"220080","200-UY","2019/08/20 19:29:48","新北市板橋區大觀路二段3巷35號","121.448543333333","25.003625","6500100","板橋區"
"220082","610-BX","2019/08/20 19:30:02","新北市板橋區金門街271號","121.431511666667","24.9884483333333","6500100","板橋區"
"220101","245-BX","2019/08/20 19:29:56","新北市板橋區莒光路196巷30號","121.472893333333","25.0225416666667","6500100","板橋區"
"220056","276-BY","2019/08/20 19:29:41","新北市板橋區信義路91-2號","121.457371666667","24.993725","6500100","板橋區"
"220072","277-BY","2019/08/20 19:29:48","新北市板橋區篤行路二段137號","121.429915","24.98831","6500100","板橋區"
"220071","283-VK","2019/08/20 19:29:53","新北市板橋區忠孝路48巷9弄19號","121.462066666667","25.000445","6500100","板橋區"
"220094","285-UM","2019/08/20 19:29:41","新北市板橋區銘傳街41-2號","121.469055","25.03148","6500100","板橋區"
"220053","285-VK","2019/08/20 19:29:57","新北市板橋區富山街53巷1弄112號","121.477726666667","25.0195916666667","6500100","板橋區"
"220083","286-VK","2019/08/20 19:29:46","新北市板橋區龍興街73巷2號","121.443933333333","25.0020883333333","6500100","板橋區"
"220081","287-VK","2019/08/20 19:29:57","新北市板橋區南雅南路一段108號","121.454888333333","25.0042916666667","6500100","板橋區"
"220090","288-VK","2019/08/20 19:29:55","新北市板橋區長江路一段48巷12號","121.459488333333","25.0279033333333","6500100","板橋區"
"220061","293-UM","2019/08/20 19:29:55","新北市板橋區中山路一段265巷36弄2號","121.469178333333","25.0151216666667","6500100","板橋區"
"220084","296-UM","2019/08/20 19:29:43","新北市板橋區篤行路三段45號","121.428268333333","24.9863416666667","6500100","板橋區"
"220097","299-UM","2019/08/20 19:29:52","新北市板橋區文化路一段285巷68號","121.46313","25.01995","6500100","板橋區"
"220075","303-R5","2019/08/20 19:29:49","新北市板橋區中正路275巷93號","121.450765","25.0181483333333","6500100","板橋區"
"220062","305-R5","2019/08/20 19:29:47","新北市板橋區三民路二段153巷5弄1號","121.479973333333","25.0150666666667","6500100","板橋區"
"220092","307-R5","2019/08/20 19:29:56","新北市板橋區陽明街164巷21號","121.464303333333","25.0245516666667","6500100","板橋區"
"220098","317-R6","2019/08/20 19:29:48","新北市板橋區四維路266巷2弄25-1號","121.464093333333","25.0281316666667","6500100","板橋區"
"220089","487-VK","2019/08/20 19:29:50","新北市板橋區龍泉街114號","121.45695","25.0244683333333","6500100","板橋區"
"220088","491-VK","2019/08/20 19:29:51","新北市板橋區長江路三段151-2號","121.476715","25.0348866666667","6500100","板橋區"
"220103","561-BX","2019/08/20 19:29:52","新北市板橋區陽明街29巷26號","121.464013333333","25.0225283333333","6500100","板橋區"
"220063","609-BX","2019/08/20 19:29:48","新北市板橋區三民路一段31巷2-4號","121.481858333333","25.0231616666667","6500100","板橋區"
"220035","630-UY","2019/08/20 19:29:58","新北市板橋區中正路332-9號","121.454281666667","25.0228966666667","6500100","板橋區"
"220091","637-BX","2019/08/20 19:29:54","新北市板橋區文聖街149巷22號","121.479531666667","25.02853","6500100","板橋區"
"220057","686-BX","2019/08/20 19:29:51","新北市板橋區和平路安樂巷27號","121.461656666667","24.993545","6500100","板橋區"
"220077","687-BX","2019/08/20 19:29:54","新北市板橋區大觀路一段28巷54號","121.449865","25.0102533333333","6500100","板橋區"
"220093","689-BX","2019/08/20 19:29:52","新北市板橋區長江路一段373號","121.461811666667","25.0307566666667","6500100","板橋區"
"220054","741-BX","2019/08/20 19:29:32","新北市板橋區重慶路155巷19號","121.463066666667","25.0038533333333","6500100","板橋區"
"220102","KEA-2699","2019/08/20 19:29:51","新北市板橋區雙十路二段46巷19號","121.476275","25.0282583333333","6500100","板橋區"
"220067","829-TW","2019/08/20 19:29:57","新北市板橋區漢生東路313巷1號","121.471935","25.0083216666667","6500100","板橋區"
"220074","895-R6","2019/08/20 19:30:02","新北市板橋區文化路一段27-1號","121.459906666667","25.0128466666667","6500100","板橋區"
"220073","985-R7","2019/08/20 19:29:31","新北市板橋區中正路302號","121.454915","25.0207366666667","6500100","板橋區"
"220064","AAC-253","2019/08/20 19:29:56","新北市板橋區民權路33號","121.462165","25.0109983333333","6500100","板橋區"
"235068","KEA-2873","2019/08/20 19:29:55","新北市中和區景平路493巷12弄23號","121.49865","24.99704","6500300","中和區"
"235061","KEA-2875","2019/08/20 19:29:54","新北市中和區民安街2巷29號","121.48003","25.0014733333333","6500300","中和區"
