"lineid","car","time","location","longitude","latitude","cityid","cityname"
"234046","148-BY","2019/08/20 19:49:43","新北市永和區永利路125號","121.524063333333","25.0029183333333","6500400","永和區"
"234081","298-R6","2019/08/20 19:49:40","新北市永和區永亨路100號","121.523131666667","25.004855","6500400","永和區"
"234038","336-UY","2019/08/20 19:49:51","新北市永和區成功路二段100號","121.526371666667","24.9982183333333","6500400","永和區"
"234064","337-UY","2019/08/20 19:49:48","新北市永和區中正路370號","121.517806666667","25.0008983333333","6500400","永和區"
"234086","338-UY","2019/08/20 19:49:39","新北市永和區永利路6號","121.517433333333","25.0058133333333","6500400","永和區"
"234070","552-UM","2019/08/20 19:49:57","新北市永和區竹林路117-1號","121.519975","25.0115966666667","6500400","永和區"
"234017","745-BX","2019/08/20 19:49:42","新北市永和區永和路二段299號","121.515965","25.0162783333333","6500400","永和區"
"234030","746-BX","2019/08/20 19:49:41","新北市永和區民生路67巷46號","121.52513","24.9974133333333","6500400","永和區"
"234054","KEA-2590","2019/08/20 19:49:52","新北市永和區竹林路73號","121.518906666667","25.013255","6500400","永和區"
"234007","KED-0605","2019/08/20 19:49:56","新北市中和區中山路二段65號","121.504181666667","25.00463","6500400","永和區"
"234013","KEA-2591","2019/08/20 19:49:46","新北市永和區永平路256號","121.508421666667","25.0115133333333","6500400","永和區"
"234061","AAD-866","2019/08/20 19:49:47","新北市永和區中正路59號","121.514661666667","24.996315","6500400","永和區"
"234042","862-TW","2019/08/20 19:49:56","新北市永和區中和路305巷18弄1號","121.507585","25.00166","6500400","永和區"
"234050","863-TW","2019/08/20 19:49:44","新北市永和區保安路148號","121.508415","25.0147566666667","6500400","永和區"
"234026","9371-KE","2019/08/20 19:49:52","新北市永和區雙和街20巷1號","121.509158333333","25.00219","6500400","永和區"
"234011","9373-KE","2019/08/20 19:49:57","新北市永和區仁愛路352巷112弄7號","121.500771666667","25.0084783333333","6500400","永和區"
"249005","172-UM","2019/08/20 19:49:59","新北市八里區長坑口38-8號","121.389663333333","25.1281383333333","6502300","八里區"
"249001","173-UM","2019/08/20 19:49:51","新北市八里區中華路二段248號","121.405643333333","25.149895","6502300","八里區"
"249004","303-UY","2019/08/20 19:49:45","新北市八里區中山路一段268巷50號","121.414753333333","25.16094","6502300","八里區"
"249002","305-UY","2019/08/20 19:49:46","新北市八里區頂寮五街17號","121.451488333333","25.1260116666667","6502300","八里區"
"249003","593-UM","2019/08/20 19:49:42","新北市八里區華峰三街35號","121.39852","25.1453816666667","6502300","八里區"
"248014","025-BX","2019/08/20 19:49:44","新北市五股區五福路22巷6號","121.434626666667","25.0890066666667","6501500","五股區"
"248016","026-BX","2019/08/20 19:49:52","新北市五股區成泰路四段22巷22號","121.4549","25.1077133333333","6501500","五股區"
"248008","KED-0815","2019/08/20 19:49:45","新北市五股區四維路116-5號","121.468225","25.0745416666667","6501500","五股區"
"248020","KED-0813","2019/08/20 19:49:39","新北市五股區中直路37-3號","121.419773333333","25.1157483333333","6501500","五股區"
"248012","247-BX","2019/08/20 19:49:41","新北市五股區蓬萊路4號","121.43554","25.0794433333333","6501500","五股區"
"248004","677-BX","2019/08/20 19:49:59","新北市五股區成泰路一段106-1號","121.435706666667","25.0717433333333","6501500","五股區"
"248002","678-BX","2019/08/20 19:49:44","新北市五股區成泰路3段651-1號","121.452928333333","25.1053933333333","6501500","五股區"
"248010","682-TV","2019/08/20 19:49:42","新北市五股區登林路76-5號","121.430515","25.06959","6501500","五股區"
"234023","9380-KE","2019/08/20 19:49:54","新北市永和區永貞路375號","121.508255","25.0081683333333","6500400","永和區"
"234077","969-R7","2019/08/20 19:49:54","新北市永和區智光街55號","121.517191666667","24.9978983333333","6500400","永和區"
"234074","AAC-211","2019/08/20 19:49:56","新北市永和區豫溪街136巷5號","121.521253333333","25.0099916666667","6500400","永和區"
"234067","AAC-212","2019/08/20 19:49:54","新北市永和區中山路一段207號","121.508841666667","25.0085333333333","6500400","永和區"
"234003","AAC-295","2019/08/20 19:49:54","新北市永和區福和路316-2號","121.51596","25.0072933333333","6500400","永和區"
"244023","483-VK","2019/08/20 19:49:45","新北市林口區文林四街56號","121.373546666667","25.0850916666667","6501700","林口區"
"243012","AAD-798","2019/08/20 19:49:46","新北市泰山區仁愛路100巷27號","121.433521666667","25.0550933333333","6501600","泰山區"
"243016","421-VK","2019/08/20 19:50:00","新北市泰山區明志路三段521衖519號","121.421326666667","25.031675","6501600","泰山區"
"243009","KEA-2215","2019/08/20 19:49:44","新北市泰山區美寧街69號","121.430981666667","25.0647583333333","6501600","泰山區"
"243011","KEA-2216","2019/08/20 19:49:56","新北市泰山區明志路三段204巷10弄15號","121.422875","25.0387133333333","6501600","泰山區"
"222003","436-BY","2019/08/20 19:49:54","新北市深坑區深南路51-1號","121.621248333333","25.0097266666667","6501800","深坑區"
"222001","628-TS","2019/08/20 19:49:55","新北市深坑區北深路三段83號","121.606488333333","25.0014366666667","6501800","深坑區"
"222002","659-BX","2019/08/20 19:49:57","新北市深坑區北深路一段361號","121.622338333333","25.0049433333333","6501800","深坑區"
"231061","002-UM","2019/08/20 19:49:57","新北市新店區安民街241號","121.517295","24.9722933333333","6500600","新店區"
"231055","0291-UT","2019/08/20 19:49:51","新北市新店區力行路52號","121.538741666667","24.9655516666667","6500600","新店區"
"231044","046-UY","2019/08/20 19:49:53","新北市新店區復興路76號","121.537635","24.98693","6500600","新店區"
"231060","106-UY","2019/08/20 19:49:50","新北市新店區安康路二段159巷6號","121.510186666667","24.9592266666667","6500600","新店區"
"231051","107-UY","2019/08/20 19:49:41","新北市新店區中央三街54號","121.527338333333","24.9747033333333","6500600","新店區"
"231049","108-UY","2019/08/20 19:49:47","新北市新店區民權路98號","121.536515","24.9829633333333","6500600","新店區"
"231065","110-UY","2019/08/20 19:49:47","新北市新店區安祥路109巷151弄9號","121.477845","24.958655","6500600","新店區"
"231068","187-VK","2019/08/20 19:49:40","新北市新店區安一路一段1-1號","121.51953","24.9612016666667","6500600","新店區"
"231062","256-BX","2019/08/20 19:49:40","新北市新店區永業路94號","121.530736666667","24.9511933333333","6500600","新店區"
"231054","260-TV","2019/08/20 19:49:56","新北市新店區北新路一段2-20號","121.538685","24.959935","6500600","新店區"
"231042","268-BY","2019/08/20 19:49:49","新北市新店區中興路一段270號","121.54543","24.9678866666667","6500600","新店區"
"231064","278-BY","2019/08/20 19:49:39","新北市新店區光華街6號","121.517805","24.969015","6500600","新店區"
"231050","AAD-862","2019/08/20 19:49:48","新北市新店區北宜路二段535號","121.564016666667","24.9535116666667","6500600","新店區"
"231045","355-BY","2019/08/20 19:49:39","新北市新店區北宜路二段461號","121.561828333333","24.95404","6500600","新店區"
"231056","4715-K9","2019/08/20 19:49:56","新北市新店區民權路42巷36號","121.539091666667","24.9838066666667","6500600","新店區"
"231067","4772-VM","2019/08/20 19:49:44","新北市新店區精忠路10-1號","121.532626666667","24.9590366666667","6500600","新店區"
"231053","515-UM","2019/08/20 19:49:41","新北市新店區新烏路二段444號","121.55164","24.9081733333333","6500600","新店區"
"231063","616-UM","2019/08/20 19:49:55","新北市新店區車子路11號","121.503028333333","24.95201","6500600","新店區"
"231040","617-UM","2019/08/20 19:49:54","新北市新店區北新路一段96巷23號","121.542993333333","24.9687966666667","6500600","新店區"
"231041","618-UM","2019/08/20 19:49:44","新北市新店區中央六街1號","121.530618333333","24.9743333333333","6500600","新店區"
"231048","KED-0819","2019/08/20 19:49:55","新北市新店區五峰路61巷2號","121.547363333333","24.9701266666667","6500600","新店區"
"231046","719-UM","2019/08/20 19:47:19","新北市新店區福園街10巷1號","121.532713333333","24.9728183333333","6500600","新店區"
"231057","720-UM","2019/08/20 19:49:54","新北市新店區梅崗三路1號","121.558125","24.9311583333333","6500600","新店區"
"231059","897-TW","2019/08/20 19:49:54","新北市新店區安和路二段227號","121.517241666667","24.976025","6500600","新店區"
"231043","899-TW","2019/08/20 19:49:58","新北市新店區中正路263-2號","121.538416666667","24.9737283333333","6500600","新店區"
"231066","AKT-0513","2019/08/20 19:49:46","新北市新店區安康路三段165巷5號","121.489656666667","24.9513583333333","6500600","新店區"
"241011","013-R5","2019/08/20 19:49:59","新北市三重區三和路二段173巷43號","121.49914","25.0702233333333","6500200","三重區"
"241028","022-UY","2019/08/20 19:49:51","新北市三重區中正南路117號","121.494036666667","25.0572783333333","6500200","三重區"
"241008","059-VK","2019/08/20 19:49:56","新北市三重區永福街98巷4號","121.479088333333","25.0759283333333","6500200","三重區"
"241031","061-VK","2019/08/20 19:49:56","新北市三重區重新路一段206-1號","121.485991666667","25.0545683333333","6500200","三重區"
"241015","062-VK","2019/08/20 19:49:58","新北市三重區三和路一段15號","121.503751666667","25.0645916666667","6500200","三重區"
"241017","063-VK","2019/08/20 19:49:50","新北市三重區重陽路三段27巷2弄4號","121.489603333333","25.0666933333333","6500200","三重區"
"241003","091-VK","2019/08/20 19:49:50","新北市三重區五華街93巷56號","121.493863333333","25.0850566666667","6500200","三重區"
"241006","262-UM","2019/08/20 19:50:00","新北市三重區力行路二段76巷1弄2號","121.48158","25.073465","6500200","三重區"
"241009","267-UM","2019/08/20 19:49:44","新北市三重區三和路四段396巷40號","121.479585","25.0787433333333","6500200","三重區"
"241018","268-UM","2019/08/20 19:49:46","新北市三重區雙園街57巷9號","121.494853333333","25.06785","6500200","三重區"
"241013","270-UM","2019/08/20 19:49:39","新北市三重區仁愛街112巷16號","121.494735","25.0739033333333","6500200","三重區"
"241025","271-UM","2019/08/20 19:49:46","新北市三重區頂崁街210巷16號","121.47651","25.0677416666667","6500200","三重區"
"241007","398-BY","2019/08/20 19:49:46","新北市三重區慈愛街8號","121.4845","25.0784266666667","6500200","三重區"
"241030","KED-0822","2019/08/20 19:49:51","新北市三重區環河南路254巷62號","121.489198333333","25.0515116666667","6500200","三重區"
"241035","462-BY","2019/08/20 19:49:51","新北市三重區大榮街31號","121.498756666667","25.0634416666667","6500200","三重區"
"241004","475-VK","2019/08/20 19:49:47","新北市三重區五華街74號","121.493418333333","25.0820083333333","6500200","三重區"
"241020","478-VK","2019/08/20 19:49:44","新北市三重區忠孝路一段101號","121.489625","25.0721366666667","6500200","三重區"
"241026","480-VK","2019/08/20 19:49:56","新北市三重區中央南路37號","121.501325","25.0619883333333","6500200","三重區"
"241014","543-UM","2019/08/20 19:50:01","新北市三重區長安街69號","121.501328333333","25.0674033333333","6500200","三重區"
"241023","545-UM","2019/08/20 19:49:58","新北市三重區頂崁街172號","121.477603333333","25.0659166666667","6500200","三重區"
"241001","547-UM","2019/08/20 19:49:41","新北市三重區仁愛街327巷27號","121.493025","25.0798283333333","6500200","三重區"
"241019","KEA-2593","2019/08/20 19:49:53","新北市三重區三張街107號","121.489151666667","25.070415","6500200","三重區"
"241005","AAD-863","2019/08/20 19:49:55","新北市三重區五華街255號","121.488873333333","25.0863516666667","6500200","三重區"
"241016","887-TS","2019/08/20 19:49:51","新北市三重區正義北路48巷41-2號","121.496111666667","25.0636316666667","6500200","三重區"
"241012","941-UM","2019/08/20 19:49:42","新北市三重區仁興街41號","121.49919","25.0758116666667","6500200","三重區"
"241029","942-UM","2019/08/20 19:49:52","新北市三重區重新路三段204號","121.490083333333","25.0584283333333","6500200","三重區"
"241033","AAC-255","2019/08/20 19:49:52","新北市三重區中興南街66號","121.470656666667","25.0440583333333","6500200","三重區"
"235063","006-UY","2019/08/20 19:49:44","新北市中和區連城路263巷5弄2號","121.492121666667","24.9960816666667","6500300","中和區"
"235056","096-UM","2019/08/20 19:49:56","新北市中和區漢民路401號","121.47226","25.0071666666667","6500300","中和區"
"235039","097-UM","2019/08/20 19:49:40","新北市中和區大勇街25巷38弄9號","121.516031666667","24.9939116666667","6500300","中和區"
"235065","098-UM","2019/08/20 19:49:47","新北市中和區永和路39巷2號","121.497943333333","25.0048766666667","6500300","中和區"
"235004","150-BY","2019/08/20 19:49:45","新北市中和區安平路59號","121.509688333333","24.9949816666667","6500300","中和區"
"235058","151-BY","2019/08/20 19:49:49","新北市中和區員山路146巷12號","121.481936666667","24.996705","6500300","中和區"
"235055","183-VK","2019/08/20 19:49:49","新北市中和區德光路26-1號","121.470723333333","25.00448","6500300","中和區"
"235038","185-VK","2019/08/20 19:49:44","新北市中和區自立路7號","121.522528333333","24.9965266666667","6500300","中和區"
"235049","186-VK","2019/08/20 19:49:47","新北市中和區景平路385巷51號","121.501685","24.9942916666667","6500300","中和區"
"235067","255-BX","2019/08/20 19:49:38","新北市中和區中正路751巷3弄4號","121.484366666667","24.9995883333333","6500300","中和區"
"235044","293-VK","2019/08/20 19:49:38","新北市中和區南山路146巷13號","121.503326666667","24.9924433333333","6500300","中和區"
"235072","301-VK","2019/08/20 19:49:46","新北市五股區五工二路136號","121.455056666667","25.072405","6500300","中和區"
"235043","352-BY","2019/08/20 19:49:50","新北市中和區興南路二段159巷7號","121.505276666667","24.9831633333333","6500300","中和區"
"235042","KEA-2878","2019/08/20 19:49:46","新北市永和區中正路2巷1號","121.512726666667","24.9934866666667","6500300","中和區"
"247014","KEA-2869","2019/08/20 19:49:49","新北市蘆洲區中央路93號","121.472543333333","25.084315","6501400","蘆洲區"
"235070","558-UM","2019/08/20 19:49:54","新北市中和區中正路262-1號","121.495415","24.9942","6500300","中和區"
"235054","640-BX","2019/08/20 19:49:59","新北市中和區中正路1180號","121.481035","25.0099116666667","6500300","中和區"
"235047","732-UM","2019/08/20 19:49:47","新北市中和區和平街80號","121.50773","24.9911716666667","6500300","中和區"
"235046","733-UM","2019/08/20 19:49:44","新北市中和區捷運路6號","121.510208333333","24.9897616666667","6500300","中和區"
"235052","805-TS","2019/08/20 19:49:58","新北市中和區華新街30巷16號","121.506831666667","24.9845","6500300","中和區"
"235048","896-TW","2019/08/20 19:49:41","新北市中和區興南路一段67號","121.51033","24.9894583333333","6500300","中和區"
"235053","900-TW","2019/08/20 19:49:56","新北市中和區民德路220號","121.468205","24.9977816666667","6500300","中和區"
"235066","911-UM","2019/08/20 19:49:56","新北市中和區南工路40號","121.505845","25.0012283333333","6500300","中和區"
"235051","157-BY","2019/08/20 19:49:57","新北市中和區中興街180巷52弄6號","121.498641666667","24.9885666666667","6500300","中和區"
"235037","AAC-213","2019/08/20 19:49:57","新北市中和區自立路26號","121.522486666667","24.993045","6500300","中和區"
"235059","AAC-215","2019/08/20 19:49:44","新北市中和區圓通路305巷19號","121.49455","24.9892816666667","6500300","中和區"
"220055","015-TV","2019/08/20 19:49:43","新北市板橋區國慶路149巷31號","121.460918333333","24.9977533333333","6500100","板橋區"
"220065","072-UY","2019/08/20 19:49:54","新北市板橋區民族路276巷7號","121.469735","25.0061916666667","6500100","板橋區"
"220086","073-UY","2019/08/20 19:49:41","新北市板橋區中正路13號","121.456173333333","25.0122416666667","6500100","板橋區"
"220106","075-UY","2019/08/20 19:49:52","新北市板橋區民治街52巷24號","121.478688333333","25.0327366666667","6500100","板橋區"
"220069","AAD-861","2019/08/20 19:49:54","新北市板橋區大明街44號","121.45791","25.00281","6500100","板橋區"
"220068","120-SR","2019/08/20 19:49:43","新北市板橋區光復街150號","121.484746666667","25.01949","6500100","板橋區"
"247004","893-R6","2019/08/20 19:49:46","新北市蘆洲區中原路79號","121.458281666667","25.0817783333333","6501400","蘆洲區"
"247002","500-BY","2019/08/20 19:49:41","新北市蘆洲區永樂街38巷65號","121.458561666667","25.0903816666667","6501400","蘆洲區"
"247006","341-TH","2019/08/20 19:49:59","新北市蘆洲區永安南路二段14號","121.467313333333","25.0769533333333","6501400","蘆洲區"
"247016","053-VK","2019/08/20 19:49:45","新北市蘆洲區中正路259號","121.467658333333","25.0871033333333","6501400","蘆洲區"
"226004","312-R5","2019/08/20 19:49:39","新北市平溪區十分里十分街66巷8號","121.775235","25.042235","6502400","平溪區"
"235041","251-BX","2019/08/20 19:49:43","新北市中和區中安街122號","121.511236666667","25.000535","6500300","中和區"
"228001","212-TW","2019/08/20 19:49:43","新北市貢寮區真理里新港街113-1號","121.9265","25.056565","6502600","貢寮區"
"228003","828-UM","2019/08/20 19:49:55","新北市貢寮區真理里美艷山街3-1號","121.925761666667","25.0596833333333","6502600","貢寮區"
"224010","AGQ-8101","2019/08/20 19:49:54","新北市瑞芳區輕便路260號","121.844725","25.10875","6501200","瑞芳區"
"224002","639-TC","2019/08/20 19:49:55","新北市瑞芳區民享新村26號","121.817123333333","25.10584","6501200","瑞芳區"
"227002","642-TC","2019/08/20 19:49:45","新北市雙溪區雙溪里內挖路36號","121.86318","25.0367916666667","6502500","雙溪區"
"227001","400-TW","2019/08/20 19:49:50","新北市雙溪區新基里中華路61號","121.865818333333","25.0380333333333","6502500","雙溪區"
"253006","032-BX","2019/08/20 19:49:52","新北市石門區小坑9號","121.59441","25.2883883333333","6502200","石門區"
"208002","KEA-2872","2019/08/20 19:49:56","新北市金山區中正路135號","121.632388333333","25.22155","6502700","金山區"
"208003","665-BX","2019/08/20 19:49:52","新北市金山區海興路112號","121.631373333333","25.238935","6502700","金山區"
"251004","009-UM","2019/08/20 19:49:50","新北市淡水區民權路177巷53號","121.4605","25.133865","6501000","淡水區"
"251005","010-UM","2019/08/20 19:49:44","新北市淡水區中正東路6號","121.447121666667","25.16724","6501000","淡水區"
"251015","KEA-2871","2019/08/20 19:49:57","新北市淡水區山子頂24-1號","121.491328333333","25.187275","6501000","淡水區"
"251016","179-VK","2019/08/20 19:49:58","新北市淡水區三塊厝3-3號","121.457136666667","25.2098583333333","6501000","淡水區"
"251008","181-VK","2019/08/20 19:49:53","新北市淡水區中正路一段24巷2-4號","121.42687","25.1770516666667","6501000","淡水區"
"251013","182-VK","2019/08/20 19:50:00","新北市淡水區頂田寮2-1號","121.460735","25.2131016666667","6501000","淡水區"
"251007","442-VK","2019/08/20 19:49:42","新北市淡水區竿蓁一街113號","121.455096666667","25.166415","6501000","淡水區"
"251012","443-VK","2019/08/20 19:49:47","新北市淡水區淡金路三段66號","121.448231666667","25.1998816666667","6501000","淡水區"
"251001","559-UM","2019/08/20 19:49:57","新北市淡水區淡金路101號","121.45726","25.1642016666667","6501000","淡水區"
"251006","561-UM","2019/08/20 19:49:51","新北市淡水區中山北路一段163號","121.443361666667","25.1775066666667","6501000","淡水區"
"251009","575-R6","2019/08/20 19:49:44","新北市淡水區中正路36號","121.443778333333","25.1692566666667","6501000","淡水區"
"251014","577-R6","2019/08/20 19:49:47","新北市淡水區石頭厝14-33號","121.465355","25.2368433333333","6501000","淡水區"
"251011","650-BX","2019/08/20 19:49:43","新北市淡水區紅樹林路151號","121.460538333333","25.1577416666667","6501000","淡水區"
"251002","672-BX","2019/08/20 19:49:56","新北市淡水區下圭柔山91-3號","121.430978333333","25.2100566666667","6501000","淡水區"
"207003","550-UM","2019/08/20 19:49:52","新北市萬里區大鵬里下社9-4號","121.647083333333","25.21728","6502800","萬里區"
"207004","291-VK","2019/08/20 19:49:53","新北市萬里區萬里里瑪鋉路146號","121.690386666667","25.1794733333333","6502800","萬里區"
"252002","178-VK","2019/08/20 19:49:46","新北市三芝區三民街33號","121.504688333333","25.25845","6502100","三芝區"
"252001","292-VK","2019/08/20 19:49:39","新北市三芝區長安街89號","121.499675","25.2575083333333","6502100","三芝區"
"208001","170-UY","2019/08/20 19:49:56","新北市金山區重和里六股林口10號","121.599151666667","25.21168","6502700","金山區"
"237004","KEA-2597","2019/08/20 19:49:58","新北市三峽區添福263號","121.375516666667","24.89352","6500900","三峽區"
"237007","153-BY","2019/08/20 19:49:44","新北市三峽區二鬮路136巷39號","121.358358333333","24.9085183333333","6500900","三峽區"
"237009","210-TH","2019/08/20 19:49:42","新北市三峽區中園街13-1號","121.368563333333","24.9271016666667","6500900","三峽區"
"237013","252-BX","2019/08/20 19:49:55","新北市三峽區溪北街1號","121.395973333333","24.9363383333333","6500900","三峽區"
"237012","275-BY","2019/08/20 19:49:55","新北市三峽區光明路1-10號","121.372766666667","24.9321716666667","6500900","三峽區"
"237008","302-VK","2019/08/20 19:49:56","新北市三峽區永安街177號","121.373225","24.9270333333333","6500900","三峽區"
"237014","433-BY","2019/08/20 19:49:42","新北市三峽區添福14-31號","121.373223333333","24.900325","6500900","三峽區"
"237006","5529-G3","2019/08/20 19:49:49","新北市三峽區中正路一段336巷15弄2號","121.369963333333","24.9250033333333","6500900","三峽區"
"237011","KEA-2596","2019/08/20 19:49:54","新北市三峽區介壽路一段169號","121.377015","24.931145","6500900","三峽區"
"237015","649-BX","2019/08/20 19:49:43","新北市三峽區橫溪路99巷42號","121.400111666667","24.9367733333333","6500900","三峽區"
"237005","AKY-6261","2019/08/20 19:49:47","新北市三峽區長泰街18巷1號","121.379078333333","24.9317116666667","6500900","三峽區"
"236042","KED-0685","2019/08/20 19:49:55","新北市土城區裕民路259巷5-1號","121.455208333333","24.9830866666667","6501300","土城區"
"236079","166-UM","2019/08/20 19:49:55","新北市土城區溪頭路110號","121.40883","24.95059","6501300","土城區"
"236030","253-BX","2019/08/20 19:49:40","新北市土城區中央路一段286號","121.443595","24.982565","6501300","土城區"
"236026","269-VK","2019/08/20 19:49:54","新北市土城區中央路二段61巷40號","121.443815","24.9785133333333","6501300","土城區"
"236070","KEA-2877","2019/08/20 19:49:55","新北市土城區中央路二段252號","121.441635","24.9746216666667","6501300","土城區"
"236021","401-BY","2019/08/20 19:49:50","新北市土城區延吉街74號","121.471096666667","24.9866316666667","6501300","土城區"
"236059","912-UM","2019/08/20 19:49:55","新北市土城區中央路一段112號","121.44663","24.98814","6501300","土城區"
"236049","913-UM","2019/08/20 19:49:59","新北市土城區青雲路147-2號","121.458873333333","24.983825","6501300","土城區"
"236063","915-UM","2019/08/20 19:49:56","新北市土城區延和路146巷20號","121.468241666667","24.989465","6501300","土城區"
"236055","AAC-216","2019/08/20 19:49:43","新北市土城區延和路225號","121.470063333333","24.9894583333333","6501300","土城區"
"242039","AAC-296","2019/08/20 19:49:50","新北市新莊區民安路299巷49號","121.42962","25.0234616666667","6500500","新莊區"
"242005","440-UM","2019/08/20 19:49:44","新北市新莊區化成路63巷24弄15號","121.462693333333","25.045945","6500500","新莊區"
"242048","400-BY","2019/08/20 19:49:54","新北市新莊區建安街76巷3弄18號","121.425651666667","25.02469","6500500","新莊區"
"242025","362-BY","2019/08/20 19:49:53","新北市新莊區五權一路12巷21弄4號","121.457863333333","25.0643733333333","6500500","新莊區"
"242023","353-BY","2019/08/20 19:49:50","新北市新莊區化成路218號","121.465631666667","25.046645","6500500","新莊區"
"242013","132-UY","2019/08/20 19:49:54","新北市新莊區中泰街62巷3號","121.450141666667","25.0470666666667","6500500","新莊區"
"242037","135-UY","2019/08/20 19:49:52","新北市新莊區民安路207巷30弄26號","121.428166666667","25.02403","6500500","新莊區"
"242015","173-VK","2019/08/20 19:49:53","新北市新莊區新泰路502巷54號","121.444371666667","25.0463233333333","6500500","新莊區"
"242034","348-TH","2019/08/20 19:49:58","新北市新莊區仁愛街71號","121.444165","25.0377683333333","6500500","新莊區"
"242032","350-TH","2019/08/20 19:49:42","新北市新莊區公園一路138號","121.446346666667","25.0380716666667","6500500","新莊區"
"238023","601-UM","2019/08/20 19:49:48","新北市樹林區中正路105號","121.425005","25.0009833333333","6500700","樹林區"
"238019","599-UM","2019/08/20 19:49:49","新北市樹林區中華路190-6號","121.410815","24.9806433333333","6500700","樹林區"
"238024","5061-A6","2019/08/20 19:49:45","新北市樹林區中山路三段210-2號","121.382145","24.965775","6500700","樹林區"
"238022","KEA-2213","2019/08/20 19:49:56","新北市樹林區國凱街50巷31號","121.42093","24.9782","6500700","樹林區"
"238021","KEA-2539","2019/08/20 19:49:47","新北市樹林區佳園路三段101巷38弄36號","121.39209","24.9491","6500700","樹林區"
"238017","283-BY","2019/08/20 19:49:54","新北市樹林區保安街二段167巷15號","121.414425","25.0027766666667","6500700","樹林區"
"238014","282-BY","2019/08/20 19:49:43","新北市樹林區千歲街30巷11號","121.426025","24.9963683333333","6500700","樹林區"
"238026","172-UY","2019/08/20 19:49:50","新北市樹林區佳園路二段15巷21號","121.394663333333","24.9629116666667","6500700","樹林區"
"239006","891-R6","2019/08/20 19:49:53","新北市鶯歌區永昌街38號","121.342618333333","24.949785","6500800","鶯歌區"
"239002","359-BY","2019/08/20 19:49:53","新北市鶯歌區大湖路380號","121.345661666667","24.9730883333333","6500800","鶯歌區"
"239004","193-VK","2019/08/20 19:49:42","新北市鶯歌區二甲路50-6號","121.337338333333","24.9346383333333","6500800","鶯歌區"
"221008","489-VK","2019/08/20 19:49:47","新北市汐止區康寧街61巷22弄9號","121.619715","25.0669516666667","6501100","汐止區"
"221010","269-BY","2019/08/20 19:49:52","新北市汐止區汐萬路一段409號","121.649233333333","25.0793016666667","6501100","汐止區"
"221012","278-VK","2019/08/20 19:49:55","新北市汐止區大同路三段356號","121.6802","25.07107","6501100","汐止區"
"221023","279-VK","2019/08/20 19:49:41","新北市汐止區中興路201號","121.629206666667","25.0684466666667","6501100","汐止區"
"221021","299-VK","2019/08/20 19:49:50","新北市汐止區水源路一段143號","121.656001666667","25.062255","6501100","汐止區"
"221031","353-TW","2019/08/20 19:49:41","新北市汐止區伯爵街1巷4號","121.64162","25.075255","6501100","汐止區"
"221025","623-UM","2019/08/20 19:49:40","新北市汐止區秀峰路81巷15弄13號","121.660958333333","25.0647766666667","6501100","汐止區"
"221038","646-BX","2019/08/20 19:49:59","新北市汐止區忠孝東路417號","121.665848333333","25.0714166666667","6501100","汐止區"
"220079","145-BY","2019/08/20 19:49:58","新北市板橋區民權路202巷21弄2號","121.46059","25.0173733333333","6500100","板橋區"
"220080","200-UY","2019/08/20 19:49:51","新北市板橋區大觀路二段37巷61號","121.449555","25.0025816666667","6500100","板橋區"
"220082","610-BX","2019/08/20 19:49:59","新北市板橋區溪崑一街50號","121.429635","24.9903966666667","6500100","板橋區"
"220101","245-BX","2019/08/20 19:49:50","新北市板橋區莒光路182號","121.473926666667","25.02281","6500100","板橋區"
"220056","276-BY","2019/08/20 19:49:41","新北市板橋區四川路二段47巷2弄1號","121.454111666667","24.9949016666667","6500100","板橋區"
"220072","277-BY","2019/08/20 19:49:41","新北市板橋區金門街151巷25號","121.434003333333","24.9901883333333","6500100","板橋區"
"220071","283-VK","2019/08/20 19:49:53","新北市板橋區和平路174巷28號","121.464631666667","24.9944433333333","6500100","板橋區"
"220094","285-UM","2019/08/20 19:49:41","新北市板橋區雨農路18巷4號","121.46194","25.0248816666667","6500100","板橋區"
"220053","285-VK","2019/08/20 19:49:57","新北市板橋區永豐街26號","121.474631666667","25.0171183333333","6500100","板橋區"
"220083","286-VK","2019/08/20 19:49:46","新北市板橋區龍興街65巷57號","121.44215","25.001935","6500100","板橋區"
"220081","287-VK","2019/08/20 19:49:57","新北市板橋區大觀路一段29巷179弄21號","121.449518333333","25.0046016666667","6500100","板橋區"
"220090","288-VK","2019/08/20 19:49:55","新北市板橋區新海路72巷64號","121.46181","25.0235566666667","6500100","板橋區"
"220061","293-UM","2019/08/20 19:49:55","新北市板橋區板新路156號","121.470276666667","25.015715","6500100","板橋區"
"220084","296-UM","2019/08/20 19:49:43","新北市板橋區溪崑二街112巷33弄10號","121.42532","24.98868","6500100","板橋區"
"220097","299-UM","2019/08/20 19:49:52","新北市板橋區光正街40號","121.461821666667","25.0173","6500100","板橋區"
"220075","303-R5","2019/08/20 19:49:49","新北市板橋區大勇街10巷2號","121.453913333333","25.017065","6500100","板橋區"
"220062","305-R5","2019/08/20 19:49:47","新北市板橋區三民路二段29巷2號","121.481326666667","25.01805","6500100","板橋區"
"220092","307-R5","2019/08/20 19:49:56","新北市板橋區新海路2號","121.462648333333","25.0206466666667","6500100","板橋區"
"220098","317-R6","2019/08/20 19:49:48","新北市板橋區裕民街109號","121.459715","25.0275733333333","6500100","板橋區"
"220089","487-VK","2019/08/20 19:49:50","新北市板橋區四維路175號","121.464598333333","25.0262383333333","6500100","板橋區"
"220088","491-VK","2019/08/20 19:49:51","新北市板橋區懷德街181巷5號","121.479453333333","25.03004","6500100","板橋區"
"220103","561-BX","2019/08/20 19:49:53","新北市板橋區陽明街279巷32-1號","121.461033333333","25.025725","6500100","板橋區"
"220063","609-BX","2019/08/20 19:49:51","新北市板橋區三民路一段3巷2號","121.478913333333","25.0234866666667","6500100","板橋區"
"220035","630-UY","2019/08/20 19:49:58","新北市板橋區金華街85巷42號","121.459168333333","25.0214383333333","6500100","板橋區"
"220091","637-BX","2019/08/20 19:49:54","新北市板橋區民治街81巷15號","121.480358333333","25.0321883333333","6500100","板橋區"
"220057","686-BX","2019/08/20 19:49:51","新北市板橋區德興街39號","121.453578333333","24.9937216666667","6500100","板橋區"
"220077","687-BX","2019/08/20 19:49:54","新北市板橋區僑中二街124巷2號","121.445445","25.0056766666667","6500100","板橋區"
"220093","689-BX","2019/08/20 19:49:52","新北市板橋區長江路二段279號","121.470108333333","25.033075","6500100","板橋區"
"220054","741-BX","2019/08/20 19:50:01","新北市板橋區忠孝路239巷6號","121.46642","25.0030016666667","6500100","板橋區"
"220102","KEA-2699","2019/08/20 19:49:46","新北市板橋區雙十路二段138-1號","121.473776666667","25.029295","6500100","板橋區"
"220067","829-TW","2019/08/20 19:49:57","新北市板橋區長安街138巷1弄294號","121.47493","25.011285","6500100","板橋區"
"220074","895-R6","2019/08/20 19:49:42","新北市板橋區府中路29-2號","121.458528333333","25.008075","6500100","板橋區"
"220073","985-R7","2019/08/20 19:49:51","新北市板橋區國光路51號","121.458093333333","25.0178183333333","6500100","板橋區"
"220064","AAC-253","2019/08/20 19:49:56","新北市板橋區民族路220號","121.46855","25.007435","6500100","板橋區"
"235068","KEA-2873","2019/08/20 19:49:55","新北市中和區莊敬路14號","121.499878333333","25.004235","6500300","中和區"
