"lineid","car","time","location","longitude","latitude","cityid","cityname"
"251004","009-UM","2019/08/20 21:49:44","新北市淡水區自強路201巷39號","121.46217","25.126775","6501000","淡水區"
"251005","010-UM","2019/08/20 21:49:44","新北市淡水區鄧公路30巷32弄2號","121.453556666667","25.170035","6501000","淡水區"
"251010","012-UM","2019/08/20 21:49:43","新北市淡水區中正路二段206號","121.426365","25.1890233333333","6501000","淡水區"
"251008","181-VK","2019/08/20 21:49:33","新北市淡水區水源街二段4號","121.449138333333","25.173505","6501000","淡水區"
"251007","442-VK","2019/08/20 21:49:42","新北市淡水區水源街二段177巷53號","121.452138333333","25.1772133333333","6501000","淡水區"
"251012","443-VK","2019/08/20 21:49:27","新北市淡水區淡金路三段325號","121.449038333333","25.20608","6501000","淡水區"
"251001","559-UM","2019/08/20 21:49:37","新北市淡水區新市二路三段152號","121.435393333333","25.1942983333333","6501000","淡水區"
"251006","561-UM","2019/08/20 21:43:11","新北市淡水區中正路11巷3號","121.437861666667","25.170745","6501000","淡水區"
"251011","650-BX","2019/08/20 21:49:23","新北市淡水區新民街322巷6號","121.436141666667","25.1830833333333","6501000","淡水區"
"251002","672-BX","2019/08/20 21:49:35","新北市淡水區大忠街115號","121.446765","25.1772133333333","6501000","淡水區"
"251003","673-BX","2019/08/20 21:49:32","新北市淡水區新春街81號","121.438786666667","25.1823616666667","6501000","淡水區"
