"lineid","car","time","location","longitude","latitude","cityid","cityname"
"251004","009-UM","2019/08/20 21:59:44","新北市淡水區自強路201巷39號","121.462173333333","25.1267816666667","6501000","淡水區"
"251005","010-UM","2019/08/20 21:59:24","新北市淡水區鄧公路30巷1弄67號","121.45437","25.1696216666667","6501000","淡水區"
"251010","012-UM","2019/08/20 21:59:43","新北市淡水區中正路二段211號","121.426213333333","25.1891033333333","6501000","淡水區"
"251008","181-VK","2019/08/20 21:59:33","新北市淡水區學府路104號","121.449831666667","25.1717733333333","6501000","淡水區"
"251007","442-VK","2019/08/20 21:59:42","新北市淡水區北新路182巷3弄7號","121.449633333333","25.17819","6501000","淡水區"
"251006","561-UM","2019/08/20 21:43:11","新北市淡水區中正路11巷3號","121.437861666667","25.170745","6501000","淡水區"
"251011","650-BX","2019/08/20 21:59:43","新北市淡水區水碓街3號","121.443066666667","25.1770183333333","6501000","淡水區"
"251003","673-BX","2019/08/20 21:59:32","新北市淡水區新春街85巷1號","121.438693333333","25.1825233333333","6501000","淡水區"
