"lineid","car","time","location","longitude","latitude","cityid","cityname"
"251004","009-UM","2019/08/20 22:29:44","新北市淡水區民族路33號","121.462255","25.135785","6501000","淡水區"
"251010","012-UM","2019/08/20 22:29:43","新北市淡水區沙崙路220號","121.425241666667","25.1843733333333","6501000","淡水區"
"251008","181-VK","2019/08/20 22:29:33","新北市淡水區學府路104號","121.449855","25.1717933333333","6501000","淡水區"
"251007","442-VK","2019/08/20 22:29:42","新北市淡水區北新路180號","121.44944","25.1786766666667","6501000","淡水區"
"251011","650-BX","2019/08/20 22:29:43","新北市淡水區水碓街7號","121.443171666667","25.1771633333333","6501000","淡水區"
