"lineid","car","time","location","longitude","latitude","cityid","cityname"
"232017","290-BY","2019/11/11 07:59:34","新北市坪林區坪雙路二段128號","121.756876666667","24.9615983333333","6502000","坪林區"
"232005","291-BY","2019/11/11 07:59:31","新北市坪林區九芎林25-4號","121.703468333333","24.924255","6502000","坪林區"
"232010","375-UM","2019/11/11 07:59:22","新北市坪林區磨壁潭10-1號","121.722666666667","24.938255","6502000","坪林區"
"232012","705-BZ","2019/11/11 07:59:26","新北市坪林區金瓜寮24-3號","121.679461666667","24.9093183333333","6502000","坪林區"
"232001","758-BX","2019/11/11 07:59:38","新北市坪林區下坑子口6-15號","121.711626666667","24.9434283333333","6502000","坪林區"
"244006","080-UY","2019/11/11 07:59:37","新北市林口區粉寮路一段77號","121.39693","25.0789133333333","6501700","林口區"
"244001","248-BX","2019/11/11 07:59:22","新北市林口區嘉寶里67-5號","121.337716666667","25.1091366666667","6501700","林口區"
"244012","KEA-2802","2019/11/11 07:59:40","新北市林口區粉寮69號","121.404808333333","25.0908","6501700","林口區"
"244022","483-VK","2019/11/11 07:59:24","新北市林口區粉寮69號","121.405058333333","25.0907433333333","6501700","林口區"
"244008","656-BX","2019/11/11 07:59:30","新北市林口區粉寮69號","121.405071666667","25.0908533333333","6501700","林口區"
"244024","837-TS","2019/11/11 07:59:25","新北市林口區粉寮路二段160巷28號","121.405128333333","25.09078","6501700","林口區"
"244020","838-TS","2019/11/11 07:59:39","新北市林口區粉寮路二段167-1號","121.40447","25.088495","6501700","林口區"
"222004","289-BY","2019/11/11 07:59:20","新北市深坑區文化街45號","121.616931666667","25.0017183333333","6501800","深坑區"
"231008","192-VK","2019/11/11 07:59:29","新北市新店區新烏路一段145-5號","121.546563333333","24.9364133333333","6500600","新店區"
"223003","205-TH","2019/11/11 07:56:23","新北市石碇區樟空子10-2號","121.666933333333","24.9622483333333","6501900","石碇區"
"223008","406-TH","2019/11/11 07:32:13","新北市石碇區靜安路一段337號","121.698821666667","25.014595","6501900","石碇區"
"223004","437-BY","2019/11/11 07:59:34","新北市石碇區楓子林61-2號","121.644955","25.0107216666667","6501900","石碇區"
"223001","592-UM","2019/11/11 07:58:02","新北市石碇區樟空子1號","121.666708333333","24.9595883333333","6501900","石碇區"
"223007","661-BX","2019/11/11 07:50:13","新北市石碇區靜安路一段337號","121.698851666667","25.01444","6501900","石碇區"
"227003","282-VK","2019/11/11 07:59:38","新北市雙溪區平林里梅竹蹊16號","121.862001666667","25.0359183333333","6502500","雙溪區"
"252006","073-UM","2019/11/11 07:59:22","新北市三芝區海景一街2-1號","121.474128333333","25.2457733333333","6502100","三芝區"
"252004","249-BX","2019/11/11 07:59:25","新北市三芝區店子里菜公坑81號","121.512968333333","25.2019716666667","6502100","三芝區"
"237013","760-BX","2019/11/11 07:58:20","新北市三峽區東眼45號","121.406305","24.857955","6500900","三峽區"
"242040","AAC-296","2019/11/11 07:59:25","新北市新莊區新樹路113巷33號","121.439535","25.026405","6500500","新莊區"
"242059","986-R7","2019/11/11 07:59:29","新北市新莊區中正路471號","121.441906666667","25.0333483333333","6500500","新莊區"
"242003","751-BX","2019/11/11 07:59:38","新北市新莊區中港路286號","121.452936666667","25.044215","6500500","新莊區"
"242028","615-BX","2019/11/11 07:59:32","新北市新莊區復興路二段169號","121.4586","25.0444483333333","6500500","新莊區"
"242026","613-BX","2019/11/11 07:59:35","新北市新莊區思源路32號","121.460188333333","25.0409316666667","6500500","新莊區"
"242057","612-BX","2019/11/11 07:59:33","新北市新莊區中正路400號","121.441906666667","25.0343416666667","6500500","新莊區"
"242047","566-BX","2019/11/11 07:59:26","新北市新莊區四維路210號","121.421313333333","25.0201233333333","6500500","新莊區"
"242038","497-BY","2019/11/11 07:59:38","新北市新莊區建國二路1號","121.434931666667","25.0236833333333","6500500","新莊區"
"242001","442-UM","2019/11/11 07:59:20","新北市新莊區碧江街18-3號","121.455265","25.0344783333333","6500500","新莊區"
"242043","415-TV","2019/11/11 07:59:35","新北市新莊區富國路101-1號","121.421365","25.0255066666667","6500500","新莊區"
"242012","413-TV","2019/11/11 07:59:42","新北市新莊區中和街63號","121.447496666667","25.0471983333333","6500500","新莊區"
"242049","400-BY","2019/11/11 07:59:29","新北市新莊區新樹路443號","121.43271","25.0135716666667","6500500","新莊區"
"242024","362-BY","2019/11/11 07:59:41","新北市新莊區中港路281號","121.453203333333","25.0438483333333","6500500","新莊區"
"242022","353-BY","2019/11/11 07:59:31","新北市新莊區公園路37號","121.453118333333","25.040155","6500500","新莊區"
"242014","132-UY","2019/11/11 07:59:34","新北市新莊區新泰路136號","121.447943333333","25.0370566666667","6500500","新莊區"
"242055","172-VK","2019/11/11 07:59:26","新北市新莊區景德路206號","121.449203333333","25.033835","6500500","新莊區"
"242016","173-VK","2019/11/11 07:59:38","新北市新莊區中港路286號","121.452965","25.0443116666667","6500500","新莊區"
"242030","175-VK","2019/11/11 07:59:28","新北市新莊區新泰路440號","121.443273333333","25.0446883333333","6500500","新莊區"
"242020","KED-0687","2019/11/11 07:59:36","新北市新莊區中正路175號","121.454041666667","25.0364916666667","6500500","新莊區"
"242006","346-TH","2019/11/11 07:59:39","新北市新莊區自信街37號","121.454183333333","25.0482933333333","6500500","新莊區"
"242052","347-TH","2019/11/11 07:59:23","新北市新莊區瓊林南路305巷35號","121.435933333333","25.0050216666667","6500500","新莊區"
"242035","348-TH","2019/11/11 07:59:33","新北市新莊區建國二路5-3號","121.434853333333","25.0236666666667","6500500","新莊區"
"242008","349-TH","2019/11/11 07:59:29","新北市新莊區昌德街167號","121.453398333333","25.054625","6500500","新莊區"
"242033","350-TH","2019/11/11 07:59:33","新北市新莊區新莊路382號","121.44909","25.0334266666667","6500500","新莊區"
"242018","351-TH","2019/11/11 07:59:41","新北市新莊區中港路61號","121.455346666667","25.0384966666667","6500500","新莊區"
"242045","281-VK","2019/11/11 07:59:27","新北市新莊區新樹路49號","121.44015","25.0320333333333","6500500","新莊區"
"242010","280-VK","2019/11/11 07:59:33","新北市新莊區中港路392號","121.452285","25.0494133333333","6500500","新莊區"
