"lineid","car","time","location","longitude","latitude","cityid","cityname"
"244022","483-VK","2019/11/11 10:13:35","新北市林口區文化三路一段486號","121.37041","25.07553","6501700","林口區"
"231007","189-VK","2019/11/11 10:13:34","新北市新店區新潭路二段132號","121.513361666667","24.921775","6500600","新店區"
"231008","192-VK","2019/11/11 10:13:29","新北市新店區小坑一路22號","121.533233333333","24.9135533333333","6500600","新店區"
"227003","282-VK","2019/11/11 10:07:58","新北市雙溪區泰平里灣潭路35-1號","121.813118333333","24.9291616666667","6502500","雙溪區"
"252006","AAC-283","2019/11/11 10:13:31","新北市三芝區車新路118號","121.492991666667","25.266965","6502100","三芝區"
"237013","760-BX","2019/11/11 10:13:13","新北市三峽區中山路459巷135號","121.349345","24.9333666666667","6500900","三峽區"
"242059","986-R7","2019/11/11 10:13:29","新北市新莊區新樹路12號","121.440065","25.0318766666667","6500500","新莊區"
"242003","751-BX","2019/11/11 10:13:25","新北市八里區荖阡坑路15-66號","121.398671666667","25.1396866666667","6500500","新莊區"
