"lineid","car","time","location","longitude","latitude","cityid","cityname"
"234005","KED-0605","2019/11/11 14:43:25","新北市永和區仁愛路289號","121.505388333333","25.0094166666667","6500400","永和區"
"234040","862-TW","2019/11/11 14:43:32","新北市永和區永和路二段61號","121.51478","25.0110933333333","6500400","永和區"
"234025","9371-KE","2019/11/11 14:43:41","新北市永和區雙和街7巷11號","121.509468333333","25.0013566666667","6500400","永和區"
"248013","025-BX","2019/11/11 14:43:36","新北市五股區五福路32巷26號","121.435011666667","25.089685","6501500","五股區"
"248015","026-BX","2019/11/11 14:43:37","新北市五股區成泰路三段577巷80弄50號","121.449715","25.1048666666667","6501500","五股區"
"248007","KED-0815","2019/11/11 14:43:40","新北市五股區中興路一段95巷15號","121.466605","25.072195","6501500","五股區"
"248019","KED-0813","2019/11/11 14:43:28","新北市五股區凌雲路三段45-1號","121.42787","25.1194483333333","6501500","五股區"
"248011","247-BX","2019/11/11 14:43:38","新北市五股區工商路199號","121.43341","25.0870316666667","6501500","五股區"
"248003","677-BX","2019/11/11 14:43:41","新北市五股區成泰路一段169號","121.43518","25.0746016666667","6501500","五股區"
"248001","678-BX","2019/11/11 14:43:28","新北市五股區成泰路三段281號","121.447208333333","25.0941933333333","6501500","五股區"
"248009","682-TV","2019/11/11 14:43:39","新北市五股區水碓五路3號","121.427395","25.0705533333333","6501500","五股區"
"244001","248-BX","2019/11/11 14:43:27","新北市林口區瑞平里66號","121.346023333333","25.1278216666667","6501700","林口區"
"243004","AAD-798","2019/11/11 14:43:30","新北市泰山區全興路21號","121.432455","25.0587716666667","6501600","泰山區"
"243002","297-R6","2019/11/11 14:43:23","新北市泰山區明志路二段214巷13號","121.426541666667","25.04901","6501600","泰山區"
"243006","KEA-2801","2019/11/11 14:43:37","新北市泰山區明志路一段52號","121.433451666667","25.0649416666667","6501600","泰山區"
"243008","421-VK","2019/11/11 14:43:39","新北市泰山區中山路二段841號","121.42565","25.0354166666667","6501600","泰山區"
"243001","KEA-2215","2019/11/11 14:43:33","新北市泰山區泰林路二段164巷17號","121.434575","25.0608516666667","6501600","泰山區"
"243003","KEA-2216","2019/11/11 14:43:30","新北市泰山區明志路三段196巷37號","121.421951666667","25.039775","6501600","泰山區"
"231003","001-UM","2019/11/11 14:43:40","新北市新店區中興路一段290號","121.545951666667","24.9689733333333","6500600","新店區"
"231030","002-UM","2019/11/11 14:43:41","新北市新店區安民街136號","121.516591666667","24.9694866666667","6500600","新店區"
"231027","0293-UT","2019/11/11 14:43:38","新北市新店區中正路76巷11弄19號","121.543676666667","24.9717366666667","6500600","新店區"
"231005","046-UY","2019/11/11 14:43:27","新北市新店區復興路31號","121.538606666667","24.98663","6500600","新店區"
"231029","106-UY","2019/11/11 14:43:26","新北市新店區安康路三段440-5號","121.484623333333","24.9513216666667","6500600","新店區"
"231018","107-UY","2019/11/11 14:43:25","新北市新店區中央路216-1號","121.529836666667","24.9732566666667","6500600","新店區"
"231013","108-UY","2019/11/11 14:43:39","新北市新店區北新路二段139巷12弄1號","121.542148333333","24.976015","6500600","新店區"
"231036","110-UY","2019/11/11 14:43:30","新北市新店區安祥路106巷26號","121.477705","24.9620916666667","6500600","新店區"
"231031","256-BX","2019/11/11 14:43:33","新北市新店區光華街29號","121.515531666667","24.9697183333333","6500600","新店區"
"231023","260-TV","2019/11/11 14:43:22","新北市新店區檳榔路109號","121.544488333333","24.9616766666667","6500600","新店區"
"231035","278-BY","2019/11/11 14:43:37","新北市新店區安和路一段55號","121.517551666667","24.96615","6500600","新店區"
"231014","AAD-862","2019/11/11 14:43:36","新北市新店區北宜路三段221號","121.592323333333","24.9531766666667","6500600","新店區"
"231006","355-BY","2019/11/11 14:43:29","新北市新店區北宜路二段82-14號","121.554778333333","24.9535116666667","6500600","新店區"
"231038","3712-VJ","2019/11/11 14:40:44","新北市新店區安華路28-1號","121.519661666667","24.9609266666667","6500600","新店區"
"231025","4715-K9","2019/11/11 14:43:38","新北市新店區中央路17號","121.533278333333","24.97828","6500600","新店區"
"231019","513-UM","2019/11/11 14:43:25","新北市新店區桂山路38號","121.55824","24.902945","6500600","新店區"
"231001","617-UM","2019/11/11 14:43:36","新北市新店區中興路一段294號","121.546023333333","24.96927","6500600","新店區"
"231002","618-UM","2019/11/11 14:43:31","新北市新店區民權路137號","121.534838333333","24.98276","6500600","新店區"
"231034","641-BX","2019/11/11 14:43:27","新北市新店區車子路10-1號","121.504645","24.9548716666667","6500600","新店區"
"231011","KED-0819","2019/11/11 14:43:40","新北市新店區寶宏路38號","121.549498333333","24.97554","6500600","新店區"
"231028","897-TW","2019/11/11 14:43:24","新北市新店區安德街42號","121.51133","24.96259","6500600","新店區"
"231004","899-TW","2019/11/11 14:43:29","新北市新店區民族路108號","121.538395","24.97759","6500600","新店區"
"231037","AKT-0513","2019/11/11 14:43:27","新北市新店區柴埕路52巷12號","121.51182","24.9648633333333","6500600","新店區"
"235030","003-UY","2019/11/11 14:43:39","新北市中和區中和路196巷11號","121.5052","24.9991316666667","6500300","中和區"
"235027","006-UY","2019/11/11 14:43:33","新北市中和區連城路263巷5弄2號","121.492125","24.9960533333333","6500300","中和區"
"235020","096-UM","2019/11/11 14:43:31","新北市中和區中山路三段114巷46號","121.475798333333","25.00719","6500300","中和區"
"235003","097-UM","2019/11/11 14:43:23","新北市中和區安樂路139號","121.514553333333","24.9968133333333","6500300","中和區"
"235029","098-UM","2019/11/11 14:43:39","新北市中和區永和路90巷9號","121.49755","25.00608","6500300","中和區"
"235004","150-BY","2019/11/11 14:43:40","新北市中和區宜安路23巷37號","121.511855","24.994545","6500300","中和區"
"235022","151-BY","2019/11/11 14:43:37","新北市中和區員山路150巷2弄2號","121.481536666667","24.9983316666667","6500300","中和區"
"235019","183-VK","2019/11/11 14:43:32","新北市中和區德光路72號","121.469278333333","25.003915","6500300","中和區"
"235002","185-VK","2019/11/11 14:43:25","新北市中和區立人街67號","121.519858333333","24.99414","6500300","中和區"
"235031","255-BX","2019/11/11 14:43:36","新北市中和區新生街190號","121.483771666667","24.9995383333333","6500300","中和區"
"235008","293-VK","2019/11/11 14:43:40","新北市中和區南山路417號","121.507186666667","24.9896016666667","6500300","中和區"
"235036","301-VK","2019/11/11 14:43:36","新北市中和區保平路300號","121.507846666667","25.0045116666667","6500300","中和區"
"235007","352-BY","2019/11/11 14:43:21","新北市中和區景安路85號","121.50633","24.9967833333333","6500300","中和區"
"235006","KEA-2878","2019/11/11 14:43:40","新北市中和區宜安路169號","121.50845","24.9990316666667","6500300","中和區"
"247015","KEA-2869","2019/11/11 14:43:40","新北市蘆洲區正和街26號","121.469805","25.0822883333333","6501400","蘆洲區"
"235034","558-UM","2019/11/11 14:43:40","新北市中和區連勝街45號","121.498081666667","24.9975583333333","6500300","中和區"
"235018","640-BX","2019/11/11 14:43:40","新北市中和區莒光路114號","121.47244","25.0019916666667","6500300","中和區"
"235035","647-TV","2019/11/11 14:43:24","新北市中和區建一路120號","121.487776666667","25.00021","6500300","中和區"
"235011","732-UM","2019/11/11 14:43:41","新北市中和區和平街29-1號","121.50764","24.9911033333333","6500300","中和區"
"235010","733-UM","2019/11/11 14:43:22","新北市中和區四維街37巷1號","121.512501666667","24.9869333333333","6500300","中和區"
"235005","802-TS","2019/11/11 14:43:33","新北市中和區景安路5號","121.508036666667","24.9992133333333","6500300","中和區"
"235016","805-TS","2019/11/11 14:43:20","新北市中和區華新街192巷31號","121.506271666667","24.98324","6500300","中和區"
"235012","896-TW","2019/11/11 14:43:39","新北市中和區忠孝街129號","121.512721666667","24.9880716666667","6500300","中和區"
"235017","900-TW","2019/11/11 14:43:23","新北市中和區國光街205巷2號","121.466861666667","25.0019766666667","6500300","中和區"
"235015","157-BY","2019/11/11 14:43:34","新北市中和區復興路337號","121.500061666667","24.99028","6500300","中和區"
"235001","AAC-213","2019/11/11 14:43:36","新北市中和區自立路66號","121.523905","24.9913616666667","6500300","中和區"
"235023","AAC-215","2019/11/11 14:43:39","新北市中和區圓通路305巷27弄1號","121.495045","24.98914","6500300","中和區"
"220013","072-UY","2019/11/11 14:43:23","新北市板橋區國泰街83號","121.467243333333","25.0065316666667","6500100","板橋區"
"220034","073-UY","2019/11/11 14:43:40","新北市板橋區中正路216巷150弄11號","121.460896666667","25.01891","6500100","板橋區"
"220017","AAD-861","2019/11/11 14:43:22","新北市板橋區貴興路54號","121.456805","25.0031333333333","6500100","板橋區"
"220105","120-SR","2019/11/11 14:43:28","新北市板橋區民治街71巷1弄5號","121.480185","25.0328633333333","6500100","板橋區"
"247005","893-R6","2019/11/11 14:43:39","新北市蘆洲區中華街65號","121.462293333333","25.0808083333333","6501400","蘆洲區"
"247019","546-UM","2019/11/11 14:43:26","新北市蘆洲區民義街86巷16號","121.473826666667","25.0901816666667","6501400","蘆洲區"
"247023","057-VK","2019/11/11 14:43:30","新北市蘆洲區正和街63巷24號","121.469233333333","25.08034","6501400","蘆洲區"
"247013","056-VK","2019/11/11 14:43:23","新北市蘆洲區成功路156-1號","121.471601666667","25.0833733333333","6501400","蘆洲區"
"247011","007-UY","2019/11/11 14:43:25","新北市蘆洲區中興街77號","121.48202","25.08784","6501400","蘆洲區"
"247007","002-UY","2019/11/11 14:43:33","新北市蘆洲區信義路4號","121.473465","25.0790633333333","6501400","蘆洲區"
"247001","001-UY","2019/11/11 14:43:41","新北市蘆洲區長安街369號","121.45735","25.0876433333333","6501400","蘆洲區"
"235013","251-BX","2019/11/11 14:43:38","新北市中和區景平路431巷120號","121.500565","24.9941566666667","6500300","中和區"
"253003","6232-TK","2019/11/11 14:43:31","新北市石門區尖子鹿103-1號","121.579663333333","25.2940766666667","6502200","石門區"
"253004","6251-TK","2019/11/11 14:43:42","新北市石門區內阿里磅47-1號","121.58187","25.2403983333333","6502200","石門區"
"253002","637-UY","2019/11/11 14:40:24","新北市三芝區橫山里橫山39-7號","121.545761666667","25.25465","6502200","石門區"
"253001","KEC-0718","2019/11/11 14:43:23","新北市石門區崁子腳35號","121.536425","25.2762066666667","6502200","石門區"
"207002","749-BX","2019/11/11 14:43:23","新北市萬里區崁腳里內崁路4號","121.64296","25.159545","6502800","萬里區"
"252005","073-UM","2019/11/11 14:43:35","新北市三芝區埔坪里埔頭坑143號","121.511865","25.2483916666667","6502100","三芝區"
"207001","662-BX","2019/11/11 14:43:33","新北市萬里區雙興里豐稟路26號","121.641366666667","25.1876683333333","6502800","萬里區"
"236040","KED-0685","2019/11/11 14:43:36","新北市土城區裕民路92巷25弄10號","121.449826666667","24.9856416666667","6501300","土城區"
"220038","KED-0812","2019/11/11 14:43:24","新北市板橋區龍泉街77-4號","121.456583333333","25.02518","6500100","板橋區"
"236074","166-UM","2019/11/11 14:43:21","新北市土城區中央路四段52巷10號","121.42001","24.9608733333333","6501300","土城區"
"236029","253-BX","2019/11/11 14:43:30","新北市土城區忠義路36巷24號","121.43965","24.96953","6501300","土城區"
"236024","269-VK","2019/11/11 14:43:33","新北市土城區農豐街16號","121.44267","24.9739466666667","6501300","土城區"
"236012","270-VK","2019/11/11 14:43:39","新北市土城區清水路278巷28弄16號","121.46241","24.9824466666667","6501300","土城區"
"236032","271-VK","2019/11/11 14:43:42","新北市土城區明德路一段239號","121.46273","24.9782583333333","6501300","土城區"
"247021","KED-0683","2019/11/11 14:43:33","新北市蘆洲區三民路142號","121.470521666667","25.087795","6501400","蘆洲區"
"236064","KEA-2877","2019/11/11 14:43:29","新北市土城區永豐路220號","121.467063333333","24.9825116666667","6501300","土城區"
"236016","401-BY","2019/11/11 14:43:41","新北市土城區延安街39巷1號","121.46824","24.983845","6501300","土城區"
"236057","912-UM","2019/11/11 14:43:39","新北市土城區中央路三段93號","121.437568333333","24.9677133333333","6501300","土城區"
"236045","913-UM","2019/11/11 14:43:30","新北市土城區金城路三段8號","121.464675","24.986005","6501300","土城區"
"236060","915-UM","2019/11/11 14:43:32","新北市土城區金城路三段207巷8弄2號","121.470088333333","24.9901216666667","6501300","土城區"
"236054","AAC-216","2019/11/11 14:43:38","新北市土城區裕民路83號","121.450016666667","24.9873016666667","6501300","土城區"
"238002","571-TV","2019/11/11 14:15:40","新北市樹林區育德街78-1號","121.387968333333","24.9680833333333","6500700","樹林區"
"220027","145-BY","2019/11/11 14:43:27","新北市板橋區民權路202巷17弄55號","121.458808333333","25.016585","6500100","板橋區"
"220028","200-UY","2019/11/11 14:43:40","新北市板橋區大觀路二段153巷46弄10號","121.44896","24.9995916666667","6500100","板橋區"
"220030","610-BX","2019/11/11 14:43:43","新北市板橋區金門街215號","121.432395","24.9899416666667","6500100","板橋區"
"220004","276-BY","2019/11/11 14:43:34","新北市板橋區國慶路49巷1號","121.459418333333","24.9957316666667","6500100","板橋區"
"220020","277-BY","2019/11/11 14:43:26","新北市板橋區金門街165號","121.432845","24.989925","6500100","板橋區"
"220050","280-UM","2019/11/11 14:43:40","新北市板橋區縣民大道三段93巷34號","121.474715","25.022465","6500100","板橋區"
"220043","283-UM","2019/11/11 14:43:36","新北市板橋區陽明街269號","121.462216666667","25.0258383333333","6500100","板橋區"
"220019","283-VK","2019/11/11 14:43:23","新北市板橋區四川路一段338號","121.456848333333","24.99677","6500100","板橋區"
"220001","285-VK","2019/11/11 14:43:28","新北市板橋區民享街62號","121.47634","25.0152166666667","6500100","板橋區"
"220031","286-VK","2019/11/11 14:43:38","新北市板橋區大觀路二段22巷38-2號","121.4447","25.00375","6500100","板橋區"
"220029","287-VK","2019/11/11 14:43:31","新北市板橋區大觀路一段29巷131弄33-16號","121.450503333333","25.0042366666667","6500100","板橋區"
"220039","288-VK","2019/11/11 14:43:29","新北市板橋區龍泉街108巷3號","121.45659","25.024505","6500100","板橋區"
"220009","293-UM","2019/11/11 14:43:43","新北市板橋區觀光街30號","121.471361666667","25.01625","6500100","板橋區"
"220032","296-UM","2019/11/11 14:43:30","新北市板橋區溪崑二街124巷24號","121.425323333333","24.988655","6500100","板橋區"
"220023","303-R5","2019/11/11 14:43:35","新北市板橋區中正路253巷7號","121.45534","25.0181783333333","6500100","板橋區"
"220010","305-R5","2019/11/11 14:43:28","新北市板橋區三民路二段83號","121.479373333333","25.0167","6500100","板橋區"
"220041","307-R5","2019/11/11 14:43:40","新北市板橋區裕民街135號","121.459035","25.0272733333333","6500100","板橋區"
"220047","317-R6","2019/11/11 14:43:36","新北市板橋區民生路三段299巷5號","121.463253333333","25.0303816666667","6500100","板橋區"
"241031","AAD-800","2019/11/11 14:43:26","新北市板橋區四維路221號","121.463266666667","25.02696","6500200","三重區"
"220037","491-VK","2019/11/11 14:43:42","新北市板橋區文化路二段402號","121.47376","25.0314316666667","6500100","板橋區"
"220104","560-BX","2019/11/11 14:43:32","新北市板橋區新生街89巷22號","121.457293333333","25.0225316666667","6500100","板橋區"
"220052","561-BX","2019/11/11 14:43:34","新北市板橋區文化路一段435巷31弄11號","121.466863333333","25.0228966666667","6500100","板橋區"
"220011","609-BX","2019/11/11 14:43:40","新北市板橋區三民路一段3巷30號","121.480118333333","25.0237066666667","6500100","板橋區"
"220040","637-BX","2019/11/11 14:43:36","新北市板橋區懷德街139巷20弄8號","121.480175","25.0305383333333","6500100","板橋區"
"220005","686-BX","2019/11/11 14:43:24","新北市板橋區廣和街67號","121.4628","24.9928783333333","6500100","板橋區"
"220025","687-BX","2019/11/11 14:43:26","新北市板橋區僑中二街88巷1號","121.446403333333","25.0093016666667","6500100","板橋區"
"220042","689-BX","2019/11/11 14:43:31","新北市板橋區長江路二段59號","121.464685","25.0315283333333","6500100","板橋區"
"220002","741-BX","2019/11/11 14:43:37","新北市板橋區實踐路79號","121.46396","25.0061133333333","6500100","板橋區"
"220051","KEA-2699","2019/11/11 14:43:25","新北市板橋區仁化街5號","121.474715","25.0317233333333","6500100","板橋區"
"220003","827-TW","2019/11/11 14:43:35","新北市板橋區國慶路147號","121.461408333333","24.996095","6500100","板橋區"
"220016","830-TW","2019/11/11 14:43:35","新北市板橋區中山路二段416巷50弄2號","121.483076666667","25.0197666666667","6500100","板橋區"
"220014","831-TW","2019/11/11 14:43:22","新北市板橋區長安街259巷31號","121.472823333333","25.01119","6500100","板橋區"
"220022","895-R6","2019/11/11 14:43:37","新北市板橋區東門街32號","121.458236666667","25.0081466666667","6500100","板橋區"
"220021","985-R7","2019/11/11 14:43:36","新北市板橋區瑞安街26號","121.455226666667","25.02288","6500100","板橋區"
"220046","AAC-210","2019/11/11 14:43:28","新北市板橋區光正街18巷2號","121.462736666667","25.01719","6500100","板橋區"
"220012","AAC-253","2019/11/11 14:43:32","新北市板橋區公園街34巷2號","121.462401666667","25.0083766666667","6500100","板橋區"
"235032","KEA-2873","2019/11/11 14:43:29","新北市中和區中山路二段252號","121.497528333333","25.0028116666667","6500300","中和區"
"235025","KEA-2875","2019/11/11 14:43:27","新北市中和區員山路36巷16號","121.484526666667","24.9912766666667","6500300","中和區"
