"lineid","car","time","location","longitude","latitude","cityid","cityname"
"234025","9371-KE","2019/11/11 14:59:21","新北市永和區水源街27巷6號","121.511248333333","25.0039933333333","6500400","永和區"
"248015","026-BX","2019/11/11 14:59:37","新北市五股區凌雲路一段158巷39弄12號","121.446521666667","25.10408","6501500","五股區"
"248007","KED-0815","2019/11/11 14:59:40","新北市五股區國道路三段1號","121.469903333333","25.0750466666667","6501500","五股區"
"248019","KED-0813","2019/11/11 14:59:28","新北市五股區中直路28-5號","121.424758333333","25.1119083333333","6501500","五股區"
"248003","677-BX","2019/11/11 14:59:41","新北市五股區成泰路一段65號","121.43453","25.067575","6501500","五股區"
"248001","678-BX","2019/11/11 14:59:28","新北市五股區成泰路三段74號","121.444146666667","25.0895466666667","6501500","五股區"
"248009","682-TV","2019/11/11 14:59:29","新北市五股區成泰路一段7巷18號","121.433136666667","25.06682","6501500","五股區"
"243004","AAD-798","2019/11/11 14:59:30","新北市泰山區楓江路121號","121.439086666667","25.0645833333333","6501600","泰山區"
"243006","KEA-2801","2019/11/11 14:59:36","新北市泰山區泰林路二段573號","121.422285","25.0635683333333","6501600","泰山區"
"243008","421-VK","2019/11/11 14:59:39","新北市泰山區新生路22巷1號","121.42865","25.044735","6501600","泰山區"
"243001","KEA-2215","2019/11/11 14:59:33","新北市泰山區全興路47巷48號","121.43422","25.05909","6501600","泰山區"
"243003","KEA-2216","2019/11/11 14:59:30","新北市新莊區壽山路160巷21號","121.417405","25.0319233333333","6501600","泰山區"
"243005","646-TV","2019/11/11 14:59:34","新北市泰山區新民路34號","121.426961666667","25.0444633333333","6501600","泰山區"
"243007","680-BX","2019/11/11 14:59:41","新北市泰山區仁德路105號","121.43316","25.0562233333333","6501600","泰山區"
"231003","001-UM","2019/11/11 14:59:40","新北市新店區中興路一段308號","121.546435","24.9699833333333","6500600","新店區"
"231030","002-UM","2019/11/11 14:59:41","新北市新店區安民街309號","121.517593333333","24.973965","6500600","新店區"
"231005","046-UY","2019/11/11 14:59:27","新北市新店區復興路44-2號","121.538508333333","24.9867533333333","6500600","新店區"
"231029","106-UY","2019/11/11 14:59:21","新北市新店區錦秀路11巷90弄2號","121.480343333333","24.9430616666667","6500600","新店區"
"231018","107-UY","2019/11/11 14:59:25","新北市新店區中央路155號","121.529723333333","24.97279","6500600","新店區"
"231013","108-UY","2019/11/11 14:59:39","新北市新店區華城路11號","121.529586666667","24.9600833333333","6500600","新店區"
"231036","110-UY","2019/11/11 14:59:30","新北市新店區安祥路102巷19號","121.484705","24.9646083333333","6500600","新店區"
"231039","187-VK","2019/11/11 14:59:36","新北市新店區中興路二段207號","121.547665","24.973695","6500600","新店區"
"231031","256-BX","2019/11/11 14:59:33","新北市新店區安康路三段132號","121.490815","24.9517866666667","6500600","新店區"
"231023","260-TV","2019/11/11 14:59:42","新北市新店區檳榔路111號","121.544606666667","24.9615433333333","6500600","新店區"
"231035","278-BY","2019/11/11 14:59:37","新北市新店區安業街1號","121.516686666667","24.978895","6500600","新店區"
"231014","AAD-862","2019/11/11 14:59:36","新北市新店區北宜路三段187號","121.588141666667","24.9521833333333","6500600","新店區"
"231006","355-BY","2019/11/11 14:59:29","新北市新店區北宜路一段107-2號","121.53958","24.9550183333333","6500600","新店區"
"231038","3712-VJ","2019/11/11 14:40:44","新北市新店區安華路28-1號","121.519661666667","24.9609266666667","6500600","新店區"
"231024","4716-K9","2019/11/11 14:59:40","新北市新店區力行路5號","121.539425","24.964605","6500600","新店區"
"231025","4715-K9","2019/11/11 14:59:38","新北市新店區建國路218號","121.537865","24.98113","6500600","新店區"
"231019","513-UM","2019/11/11 14:59:25","新北市新店區新烏路二段9-1號","121.545275","24.929225","6500600","新店區"
"231001","617-UM","2019/11/11 14:59:36","新北市新店區中正路261號","121.538763333333","24.9736","6500600","新店區"
"231002","618-UM","2019/11/11 14:59:23","新北市新店區民權路120號","121.535333333333","24.982915","6500600","新店區"
"231034","641-BX","2019/11/11 14:59:27","新北市新店區玫瑰路4-1號","121.493553333333","24.9513983333333","6500600","新店區"
"231011","KED-0819","2019/11/11 14:59:40","新北市新店區寶橋路80號","121.546188333333","24.97553","6500600","新店區"
"231026","720-UM","2019/11/11 14:59:41","新北市新店區安康路一段104號","121.527258333333","24.9624816666667","6500600","新店區"
"231028","897-TW","2019/11/11 14:59:24","新北市新店區安豐路3號","121.501818333333","24.9573283333333","6500600","新店區"
"231004","899-TW","2019/11/11 14:59:29","新北市新店區民族路37號","121.540808333333","24.978635","6500600","新店區"
"231037","AKT-0513","2019/11/11 14:59:26","新北市新店區安民街365巷14號","121.515803333333","24.9753683333333","6500600","新店區"
"235030","003-UY","2019/11/11 14:59:39","新北市中和區中山路二段68號","121.503986666667","25.0046516666667","6500300","中和區"
"235020","096-UM","2019/11/11 14:59:27","新北市中和區中山路三段146號","121.473508333333","25.006945","6500300","中和區"
"235003","097-UM","2019/11/11 14:59:26","新北市中和區安樂路217巷24號","121.513756666667","24.9984916666667","6500300","中和區"
"235029","098-UM","2019/11/11 14:59:39","新北市中和區福美路312巷1號","121.496675","25.0050233333333","6500300","中和區"
"235004","150-BY","2019/11/11 14:59:40","新北市中和區保健路19巷9號","121.50832","24.998455","6500300","中和區"
"235019","183-VK","2019/11/11 14:59:32","新北市板橋區三民路二段正隆巷75號","121.476175","25.012555","6500300","中和區"
"235036","301-VK","2019/11/11 14:59:36","新北市中和區橋和路172號","121.494596666667","25.0063533333333","6500300","中和區"
"235007","352-BY","2019/11/11 14:59:21","新北市中和區興南路一段129號","121.508928333333","24.9876866666667","6500300","中和區"
"235014","4979-A6","2019/11/11 14:59:25","新北市中和區景平路155號","121.513415","24.9919233333333","6500300","中和區"
"235033","4980-A6","2019/11/11 14:59:41","新北市中和區景新街34巷2弄7號","121.502883333333","24.9991066666667","6500300","中和區"
"235034","558-UM","2019/11/11 14:59:39","新北市中和區圓通路138號","121.49836","24.995775","6500300","中和區"
"235035","647-TV","2019/11/11 14:59:24","新北市中和區建三路58號","121.486105","25.00068","6500300","中和區"
"235010","733-UM","2019/11/11 14:59:21","新北市中和區興南路一段105巷20弄9號","121.510323333333","24.9854616666667","6500300","中和區"
"235012","896-TW","2019/11/11 14:59:39","新北市中和區忠孝街1巷2-1號","121.509175","24.9831716666667","6500300","中和區"
"235015","157-BY","2019/11/11 14:59:34","新北市中和區景安路220巷20號","121.502743333333","24.9914316666667","6500300","中和區"
"235001","AAC-213","2019/11/11 14:59:36","新北市中和區自強路60號","121.520033333333","24.994475","6500300","中和區"
"235023","AAC-215","2019/11/11 14:59:39","新北市中和區圓通路337號","121.491685","24.9905383333333","6500300","中和區"
"220013","072-UY","2019/11/11 14:59:43","新北市板橋區民族路69巷18弄1號","121.466546666667","25.009935","6500100","板橋區"
"220034","073-UY","2019/11/11 14:59:40","新北市板橋區西門街18-5號","121.454405","25.0112033333333","6500100","板橋區"
"220017","AAD-861","2019/11/11 14:59:22","新北市板橋區貴興路113號","121.455766666667","25.0025766666667","6500100","板橋區"
"220105","120-SR","2019/11/11 14:59:31","新北市板橋區民治街129號","121.477873333333","25.0308983333333","6500100","板橋區"
"247013","056-VK","2019/11/11 14:59:23","新北市蘆洲區得勝街78號","121.472501666667","25.0834983333333","6501400","蘆洲區"
"253004","6251-TK","2019/11/11 14:59:22","新北市石門區茂林社區86號","121.592756666667","25.2696133333333","6502200","石門區"
"253002","637-UY","2019/11/11 14:59:24","新北市石門區楓林53-2號","121.540043333333","25.2774383333333","6502200","石門區"
"207002","749-BX","2019/11/11 14:59:23","新北市萬里區崁腳里崁腳路73號","121.647568333333","25.1595933333333","6502800","萬里區"
"207001","662-BX","2019/11/11 14:59:33","新北市萬里區雙興里麗水路2號","121.653475","25.1797983333333","6502800","萬里區"
"236040","KED-0685","2019/11/11 14:59:39","新北市土城區學士路18巷12號","121.452736666667","24.9837066666667","6501300","土城區"
"220038","KED-0812","2019/11/11 14:59:24","新北市板橋區新海路403巷2號","121.458363333333","25.0267066666667","6500100","板橋區"
"236074","166-UM","2019/11/11 14:59:41","新北市土城區中央路四段69號","121.417545","24.957915","6501300","土城區"
"236029","253-BX","2019/11/11 14:59:30","新北市土城區中央路二段152巷1號","121.441741666667","24.9769066666667","6501300","土城區"
"236024","269-VK","2019/11/11 14:59:27","新北市土城區中正路56巷13號","121.444065","24.9747583333333","6501300","土城區"
"236012","270-VK","2019/11/11 14:59:37","新北市土城區立德路13巷18號","121.461596666667","24.9886533333333","6501300","土城區"
"236032","271-VK","2019/11/11 14:59:42","新北市土城區清水路161號","121.458745","24.9815516666667","6501300","土城區"
"247021","KED-0683","2019/11/11 14:59:33","新北市蘆洲區中正路489號","121.462011666667","25.0961216666667","6501400","蘆洲區"
"236064","KEA-2877","2019/11/11 14:59:32","新北市土城區明德路二段116號","121.444898333333","24.9841933333333","6501300","土城區"
"236016","401-BY","2019/11/11 14:59:21","新北市土城區延吉街217巷3弄1號","121.468658333333","24.984885","6501300","土城區"
"236057","912-UM","2019/11/11 14:59:39","新北市土城區金城路二段227號","121.455455","24.9823783333333","6501300","土城區"
"236045","913-UM","2019/11/11 14:59:30","新北市土城區青雲路234號","121.459066666667","24.9806983333333","6501300","土城區"
"236060","915-UM","2019/11/11 14:59:32","新北市土城區金城路三段93巷8號","121.466955","24.9879566666667","6501300","土城區"
"236054","AAC-216","2019/11/11 14:59:40","新北市土城區學成路147號","121.448701666667","24.9895033333333","6501300","土城區"
"238006","599-UM","2019/11/11 14:59:31","新北市樹林區育德街78-1號","121.388448333333","24.9682","6500700","樹林區"
"238002","571-TV","2019/11/11 14:59:31","新北市樹林區育德街78-1號","121.388021666667","24.968125","6500700","樹林區"
"238005","KEA-2217","2019/11/11 14:59:38","新北市樹林區佳園路一段94號","121.393508333333","24.968585","6500700","樹林區"
"238009","KEA-2213","2019/11/11 14:59:36","新北市樹林區八德街828-7號","121.392841666667","24.9685633333333","6500700","樹林區"
"238008","KEA-2539","2019/11/11 14:59:23","新北市樹林區育德街78-1號","121.38795","24.9680283333333","6500700","樹林區"
"238004","283-BY","2019/11/11 14:59:31","新北市樹林區八德街824號","121.394445","24.96863","6500700","樹林區"
"238001","282-BY","2019/11/11 14:59:37","新北市樹林區中山路三段204號","121.387093333333","24.9678933333333","6500700","樹林區"
"238007","268-VK","2019/11/11 14:59:26","新北市樹林區八德街828-3號","121.393245","24.9685783333333","6500700","樹林區"
"220027","145-BY","2019/11/11 14:59:27","新北市板橋區民權路202巷36號","121.4607","25.0175983333333","6500100","板橋區"
"220028","200-UY","2019/11/11 14:59:20","新北市板橋區大觀路二段163巷23號","121.44667","25.0000866666667","6500100","板橋區"
"220030","610-BX","2019/11/11 14:59:23","新北市板橋區存德街25號","121.430448333333","24.9916533333333","6500100","板橋區"
"220004","276-BY","2019/11/11 14:59:36","新北市板橋區德興街37巷24號","121.454206666667","24.9939583333333","6500100","板橋區"
"220020","277-BY","2019/11/11 14:59:26","新北市板橋區篤行路二段79號","121.431806666667","24.9918933333333","6500100","板橋區"
"220050","280-UM","2019/11/11 14:59:37","新北市板橋區莒光路213號","121.474158333333","25.022815","6500100","板橋區"
"220043","283-UM","2019/11/11 14:59:36","新北市板橋區文化路一段371號","121.466813333333","25.0215983333333","6500100","板橋區"
"220019","283-VK","2019/11/11 14:59:23","新北市板橋區五權街30巷37弄5號","121.463483333333","24.9925083333333","6500100","板橋區"
"220001","285-VK","2019/11/11 14:59:28","新北市板橋區永豐街131號","121.474715","25.01984","6500100","板橋區"
"220031","286-VK","2019/11/11 14:59:40","新北市板橋區大觀路一段38巷156弄213號","121.444955","25.0106783333333","6500100","板橋區"
"220029","287-VK","2019/11/11 14:59:31","新北市板橋區僑中一街80巷3弄1號","121.447651666667","25.0121866666667","6500100","板橋區"
"220009","293-UM","2019/11/11 14:59:22","新北市板橋區中山路一段30號","121.46043","25.00853","6500100","板橋區"
"220023","303-R5","2019/11/11 14:59:35","新北市板橋區金華街1號","121.455463333333","25.0201433333333","6500100","板橋區"
"220010","305-R5","2019/11/11 14:59:28","新北市板橋區中山路二段光榮巷30弄28號","121.484881666667","25.020785","6500100","板橋區"
"220041","307-R5","2019/11/11 14:59:40","新北市板橋區光正街23巷46號","121.461681666667","25.0156883333333","6500100","板橋區"
"220047","317-R6","2019/11/11 14:59:36","新北市板橋區四維路269巷94弄18號","121.45942","25.0268933333333","6500100","板橋區"
"220037","491-VK","2019/11/11 14:59:22","新北市板橋區仁化街76號","121.476203333333","25.0317816666667","6500100","板橋區"
"220104","560-BX","2019/11/11 14:59:32","新北市板橋區金華街21巷17號","121.45598","25.020725","6500100","板橋區"
"220052","561-BX","2019/11/11 14:59:34","新北市板橋區漢生西路73號","121.462948333333","25.0188133333333","6500100","板橋區"
"220011","609-BX","2019/11/11 14:59:20","新北市板橋區萬安街27巷22號","121.48385","25.02286","6500100","板橋區"
"220040","637-BX","2019/11/11 14:59:16","新北市板橋區文聖街115號","121.47802","25.0290883333333","6500100","板橋區"
"220005","686-BX","2019/11/11 14:59:24","新北市板橋區德興街20號","121.453416666667","24.9943233333333","6500100","板橋區"
"220025","687-BX","2019/11/11 14:59:36","新北市板橋區僑中三街39號","121.445076666667","25.0046983333333","6500100","板橋區"
"220042","689-BX","2019/11/11 14:59:31","新北市板橋區文化路二段620號","121.477806666667","25.03589","6500100","板橋區"
"220002","741-BX","2019/11/11 14:59:37","新北市板橋區忠孝路201巷93號","121.464655","25.0047833333333","6500100","板橋區"
"220051","KEA-2699","2019/11/11 14:59:25","新北市板橋區莒光路15巷7號","121.469946666667","25.0252966666667","6500100","板橋區"
"220003","827-TW","2019/11/11 14:59:35","新北市板橋區仁愛路49巷1號","121.459883333333","24.9994633333333","6500100","板橋區"
"220016","830-TW","2019/11/11 14:59:35","新北市板橋區中山路二段408號","121.48274","25.0208116666667","6500100","板橋區"
"220014","831-TW","2019/11/11 14:59:22","新北市板橋區中山路一段206巷2弄14號","121.469598333333","25.0127166666667","6500100","板橋區"
"220022","895-R6","2019/11/11 14:59:36","新北市板橋區民權路65號","121.461553333333","25.011215","6500100","板橋區"
"220021","985-R7","2019/11/11 14:59:27","新北市板橋區南雅西路二段126號","121.452005","25.0125783333333","6500100","板橋區"
"220046","AAC-210","2019/11/11 14:59:28","新北市板橋區公館街108號","121.461026666667","25.0167616666667","6500100","板橋區"
"220012","AAC-253","2019/11/11 14:59:39","新北市板橋區實踐路38號","121.463576666667","25.0068983333333","6500100","板橋區"
"235032","KEA-2873","2019/11/11 14:59:29","新北市中和區勝利路35巷1弄36號","121.500428333333","25.0079366666667","6500300","中和區"
