"lineid","car","time","location","longitude","latitude","cityid","cityname"
"244002","248-BX","2019/11/11 15:32:07","新北市林口區粉寮路二段160巷28號","121.40515","25.09082","6501700","林口區"
"231003","001-UM","2019/11/11 15:59:20","新北市新店區中興路二段221號","121.54816","24.9744866666667","6500600","新店區"
"231030","002-UM","2019/11/11 15:59:41","新北市新店區永平街56號","121.516198333333","24.984625","6500600","新店區"
"231018","107-UY","2019/11/11 15:59:25","新北市新店區中正路680巷35號","121.534633333333","24.989625","6500600","新店區"
"231013","108-UY","2019/11/11 15:59:39","新北市新店區安康路二段308-1號","121.506833333333","24.9581916666667","6500600","新店區"
"231035","278-BY","2019/11/11 15:59:37","新北市新店區安民街65巷21-2號","121.515278333333","24.9674566666667","6500600","新店區"
"231014","AAD-862","2019/11/11 15:59:36","新北市新店區中正路267號","121.537938333333","24.9742066666667","6500600","新店區"
"231034","641-BX","2019/11/11 15:59:27","新北市新店區如意街91號","121.495143333333","24.9470266666667","6500600","新店區"
"231046","719-UM","2019/11/11 15:59:29","新北市新店區安一路一段1-1號","121.520008333333","24.9612","6500600","新店區"
"231026","720-UM","2019/11/11 15:59:21","新北市新店區民生路45-1號","121.531903333333","24.9854033333333","6500600","新店區"
"231037","AKT-0513","2019/11/11 15:59:26","新北市新店區薏仁坑路6號","121.500466666667","24.9580433333333","6500600","新店區"
"241011","013-R5","2019/11/11 15:59:30","新北市三重區雙園街1巷7號","121.497213333333","25.06836","6500200","三重區"
"241028","022-UY","2019/11/11 15:59:26","新北市三重區電信街18號","121.497585","25.058535","6500200","三重區"
"241008","059-VK","2019/11/11 15:59:40","新北市三重區三陽路170-1號","121.481116666667","25.0584866666667","6500200","三重區"
"241023","060-VK","2019/11/11 15:59:35","新北市三重區中正北路188號","121.482996666667","25.067115","6500200","三重區"
"241015","062-VK","2019/11/11 15:59:38","新北市三重區重新路四段121號","121.485071666667","25.0522316666667","6500200","三重區"
"241017","063-VK","2019/11/11 15:59:30","新北市三重區大仁街48巷31號","121.491083333333","25.0644766666667","6500200","三重區"
"241024","065-VK","2019/11/11 15:59:35","新北市三重區三民街136號","121.4829","25.0651516666667","6500200","三重區"
"241007","066-VK","2019/11/11 15:59:37","新北市三重區三和路四段147號","121.484088333333","25.07819","6500200","三重區"
"241006","262-UM","2019/11/11 15:59:35","新北市三重區重新路四段121號","121.48447","25.052","6500200","三重區"
"241014","316-R6","2019/11/11 15:59:40","新北市三重區重新路四段121號","121.485116666667","25.05212","6500200","三重區"
"241016","266-UM","2019/11/11 15:59:44","新北市三重區重新路四段121號","121.485343333333","25.0522216666667","6500200","三重區"
"241018","268-UM","2019/11/11 15:59:40","新北市三重區中正北路27-1號","121.492146666667","25.0620733333333","6500200","三重區"
"241013","270-UM","2019/11/11 15:59:30","新北市三重區文化北路232-1號","121.497515","25.069475","6500200","三重區"
"241025","271-UM","2019/11/11 15:59:27","新北市三重區三民街193號","121.482216666667","25.0656833333333","6500200","三重區"
"241020","478-VK","2019/11/11 15:59:33","新北市三重區忠孝路二段105號","121.483856666667","25.0696966666667","6500200","三重區"
"241026","480-VK","2019/11/11 15:59:39","新北市三重區重新路四段116號","121.487113333333","25.0567783333333","6500200","三重區"
"241001","547-UM","2019/11/11 15:59:27","新北市三重區忠孝路三段56-1號","121.480463333333","25.0652066666667","6500200","三重區"
"241019","KEA-2593","2019/11/11 15:59:37","新北市三重區新北大道一段252號","121.479593333333","25.0614383333333","6500200","三重區"
"241005","AAD-863","2019/11/11 15:59:25","新北市三重區三民街157巷1號","121.48383","25.06454","6500200","三重區"
"241012","743-BX","2019/11/11 15:59:41","新北市三重區文化北路118巷65號","121.497193333333","25.0661733333333","6500200","三重區"
"241022","KED-0820","2019/11/11 15:59:39","新北市三重區中正北路172-1號","121.484081666667","25.0664533333333","6500200","三重區"
"241029","942-UM","2019/11/11 15:59:40","新北市三重區大同南路212巷70號","121.498515","25.056905","6500200","三重區"
"241033","AAC-255","2019/11/11 15:59:25","新北市三重區五谷王南街1-1號","121.474603333333","25.0465633333333","6500200","三重區"
"235019","183-VK","2019/11/11 15:59:32","新北市板橋區文化路二段656號","121.480161666667","25.0407233333333","6500300","中和區"
"235026","800-TS","2019/11/11 15:59:30","新北市中和區立業路61巷3弄8號","121.492608333333","25.006555","6500300","中和區"
"247008","002-UY","2019/11/11 15:46:17","新北市五股區中興路三段163號","121.449251666667","25.080855","6501400","蘆洲區"
"224007","285-BY","2019/11/11 15:59:32","新北市瑞芳區粗坑口路5號","121.761683333333","25.098","6501200","瑞芳區"
"224005","271-BY","2019/11/11 15:47:39","新北市瑞芳區明燈路二段66號","121.809328333333","25.1074433333333","6501200","瑞芳區"
"227001","642-TC","2019/11/11 15:59:22","新北市雙溪區三港里雙澳路72號","121.881598333333","25.0544566666667","6502500","雙溪區"
"227002","400-TW","2019/11/11 15:59:24","新北市雙溪區上林里內平林24號","121.83408","25.0315866666667","6502500","雙溪區"
"251013","182-VK","2019/11/11 15:59:23","新北市淡水區中正路二段31號","121.419513333333","25.18154","6501000","淡水區"
"236074","166-UM","2019/11/11 15:59:40","新北市土城區福安街30號","121.419496666667","24.9648733333333","6501300","土城區"
"236016","401-BY","2019/11/11 15:59:41","新北市土城區成功街9號","121.424978333333","24.967925","6501300","土城區"
"236057","912-UM","2019/11/11 15:59:39","新北市土城區中央路三段38號","121.4384","24.9687966666667","6501300","土城區"
"238010","601-UM","2019/11/11 15:59:42","新北市樹林區三福街67巷9號","121.407681666667","25.0158016666667","6500700","樹林區"
"238006","599-UM","2019/11/11 15:59:31","新北市樹林區八德街102號","121.421025","24.9802166666667","6500700","樹林區"
"238002","571-TV","2019/11/11 15:59:31","新北市樹林區啟智街82-1號","121.419048333333","24.99065","6500700","樹林區"
"238011","5061-A6","2019/11/11 15:59:38","新北市樹林區山佳街19號","121.393745","24.97281","6500700","樹林區"
"238005","KEA-2217","2019/11/11 15:59:38","新北市樹林區博愛街158號","121.426096666667","24.9909816666667","6500700","樹林區"
"238009","KEA-2213","2019/11/11 15:59:36","新北市樹林區八德街634號","121.396848333333","24.96949","6500700","樹林區"
"238012","303-VK","2019/11/11 15:59:33","新北市樹林區保安二街52號","121.424406666667","24.9952","6500700","樹林區"
"238004","283-BY","2019/11/11 15:59:31","新北市樹林區中正路433-1號","121.414983333333","25.007985","6500700","樹林區"
"238001","282-BY","2019/11/11 15:59:37","新北市樹林區千歲街30巷26弄12號","121.426111666667","24.9956283333333","6500700","樹林區"
"238007","268-VK","2019/11/11 15:59:26","新北市樹林區三俊街175號","121.419478333333","25.0156","6500700","樹林區"
"238013","172-UY","2019/11/11 15:59:30","新北市樹林區育德街45號","121.391683333333","24.9702633333333","6500700","樹林區"
"238003","169-UY","2019/11/11 15:59:29","新北市樹林區文化街25巷2號","121.418931666667","24.98719","6500700","樹林區"
