"lineid","car","time","location","longitude","latitude","cityid","cityname"
"234046","148-BY","2019/11/11 19:13:40","新北市永和區秀朗路二段163號","121.525188333333","25.00161","6500400","永和區"
"234081","298-R6","2019/11/11 19:13:33","新北市永和區永貞路39巷6弄2號","121.521725","25.0065666666667","6500400","永和區"
"234038","336-UY","2019/11/11 19:13:37","新北市永和區民樂街59巷24號","121.528376666667","24.9981816666667","6500400","永和區"
"234064","337-UY","2019/11/11 19:13:34","新北市永和區永元路95號","121.522315","25.0018016666667","6500400","永和區"
"234086","338-UY","2019/11/11 19:13:30","","121.518301666667","25.0043783333333","6500400","永和區"
"234070","552-UM","2019/11/11 19:13:38","新北市永和區豫溪街137號","121.519853333333","25.0103866666667","6500400","永和區"
"234017","745-BX","2019/11/11 19:13:38","新北市永和區文化路90巷15弄17號","121.513413333333","25.0163033333333","6500400","永和區"
"234030","746-BX","2019/11/11 19:13:26","","121.523306666667","24.9989183333333","6500400","永和區"
"234054","KEA-2590","2019/11/11 19:13:22","","121.51905","25.0122833333333","6500400","永和區"
"234007","KED-0605","2019/11/11 19:13:23","","121.504008333333","25.0047233333333","6500400","永和區"
"234013","KEA-2591","2019/11/11 19:13:27","","121.510913333333","25.0119083333333","6500400","永和區"
"234061","AAD-866","2019/11/11 19:13:42","新北市永和區秀朗路一段70號","121.515405","25.0061416666667","6500400","永和區"
"234042","748-BX","2019/11/11 19:13:23","","121.509421666667","25.0043766666667","6500400","永和區"
"234050","863-TW","2019/11/11 19:13:39","新北市永和區保福路二段78號","121.510506666667","25.0133616666667","6500400","永和區"
"234026","9371-KE","2019/11/11 19:13:40","新北市永和區安樂路198巷4弄2號","121.515543333333","25.0019533333333","6500400","永和區"
"234011","9373-KE","2019/11/11 19:13:34","新北市永和區保福路二段9巷4號","121.51033","25.010885","6500400","永和區"
"249005","172-UM","2019/11/11 19:13:27","","121.393585","25.1397283333333","6502300","八里區"
"249001","173-UM","2019/11/11 19:13:38","新北市八里區龍米路三段58號","121.42451","25.1591383333333","6502300","八里區"
"249002","305-UY","2019/11/11 19:13:31","新北市八里區頂寮二街138號","121.449323333333","25.129435","6502300","八里區"
"249003","593-UM","2019/11/11 19:13:30","","121.397735","25.1503","6502300","八里區"
"248008","KED-0815","2019/11/11 19:13:23","新北市五股區中興路二段37巷24號","121.460658333333","25.0750966666667","6501500","五股區"
"248018","KED-0813","2019/11/11 19:13:31","新北市五股區民義路一段222號","121.429368333333","25.0904866666667","6501500","五股區"
"248004","677-BX","2019/11/11 19:13:41","新北市五股區五福路56號","121.43335","25.0896433333333","6501500","五股區"
"248002","678-BX","2019/11/11 19:13:36","新北市五股區凌雲路一段158巷6號","121.447801666667","25.102965","6501500","五股區"
"248010","682-TV","2019/11/11 19:13:27","新北市五股區水碓一路23號","121.430645","25.0713116666667","6501500","五股區"
"234023","9380-KE","2019/11/11 19:13:38","新北市永和區竹林路124巷34號","121.518186666667","25.011265","6500400","永和區"
"234077","969-R7","2019/11/11 19:13:28","","121.518653333333","24.99966","6500400","永和區"
"234074","AAC-211","2019/11/11 19:13:31","新北市永和區竹林路125-1號","121.520056666667","25.0112083333333","6500400","永和區"
"234067","AAC-212","2019/11/11 19:13:26","","121.512728333333","25.00749","6500400","永和區"
"234003","AAC-295","2019/11/11 19:13:37","新北市永和區永平路156號","121.511113333333","25.008645","6500400","永和區"
"244023","483-VK","2019/11/11 19:13:34","新北市林口區文林六街20號","121.371176666667","25.0806766666667","6501700","林口區"
"244011","701-TV","2019/11/11 19:13:29","新北市林口區中正路262號","121.389585","25.077845","6501700","林口區"
"244025","837-TS","2019/11/11 19:13:23","","121.36652","25.0749266666667","6501700","林口區"
"243012","AAD-798","2019/11/11 19:13:31","新北市泰山區犁頭窠7號","121.430015","25.0577683333333","6501600","泰山區"
"243010","297-R6","2019/11/11 19:13:37","新北市泰山區明志路一段468號","121.430538333333","25.0552416666667","6501600","泰山區"
"243014","KEA-2801","2019/11/11 19:13:28","","121.431815","25.06225","6501600","泰山區"
"243016","421-VK","2019/11/11 19:13:36","新北市泰山區明志路三段83號","121.425071666667","25.04167","6501600","泰山區"
"243009","KEA-2215","2019/11/11 19:13:21","","121.434983333333","25.0630283333333","6501600","泰山區"
"243011","KEA-2216","2019/11/11 19:13:34","新北市泰山區明志路二段325號","121.425785","25.0450716666667","6501600","泰山區"
"243013","646-TV","2019/11/11 19:13:30","","121.4245","25.0382466666667","6501600","泰山區"
"243015","680-BX","2019/11/11 19:13:23","","121.430648333333","25.0547583333333","6501600","泰山區"
"222003","436-BY","2019/11/11 19:13:32","新北市深坑區深南路204號","121.626665","25.01605","6501800","深坑區"
"222002","659-BX","2019/11/11 19:13:30","","121.63236","25.0137166666667","6501800","深坑區"
"231042","001-UM","2019/11/11 19:13:36","新北市新店區中興路一段123號","121.541686666667","24.963115","6500600","新店區"
"231061","002-UM","2019/11/11 19:13:27","","121.52285","24.9636483333333","6500600","新店區"
"231044","046-UY","2019/11/11 19:13:29","","121.543811666667","24.9819433333333","6500600","新店區"
"231060","106-UY","2019/11/11 19:13:35","新北市新店區安康路二段169號","121.509855","24.9593166666667","6500600","新店區"
"231051","107-UY","2019/11/11 19:13:39","新北市新店區中正路382巷19號","121.535408333333","24.9780466666667","6500600","新店區"
"231049","108-UY","2019/11/11 19:13:24","","121.542051666667","24.9804683333333","6500600","新店區"
"231065","110-UY","2019/11/11 19:13:35","新北市新店區安祥路110巷45號","121.473568333333","24.9565716666667","6500600","新店區"
"231062","256-BX","2019/11/11 19:13:25","","121.524363333333","24.9663366666667","6500600","新店區"
"231054","260-TV","2019/11/11 19:13:36","新北市新店區國校路28號","121.538048333333","24.95464","6500600","新店區"
"231064","278-BY","2019/11/11 19:13:33","新北市新店區安忠路97號","121.510938333333","24.9564483333333","6500600","新店區"
"231050","AAD-862","2019/11/11 19:13:30","","121.55033","24.95029","6500600","新店區"
"231045","355-BY","2019/11/11 19:13:23","","121.543966666667","24.953115","6500600","新店區"
"231058","3713-VJ","2019/11/11 19:13:41","新北市新店區光明街87號","121.538965","24.9608966666667","6500600","新店區"
"231056","4715-K9","2019/11/11 19:13:35","新北市新店區安民街65巷15-2號","121.515458333333","24.9668183333333","6500600","新店區"
"231067","4772-VM","2019/11/11 19:13:30","新北市新店區安康路一段247巷29號","121.524563333333","24.9620483333333","6500600","新店區"
"231052","513-UM","2019/11/11 19:13:35","新北市新店區屈尺路190號","121.545126666667","24.9235233333333","6500600","新店區"
"231040","617-UM","2019/11/11 19:13:30","新北市新店區三民路155-1號","121.533848333333","24.973395","6500600","新店區"
"231041","618-UM","2019/11/11 19:13:39","新北市新店區溪園路375號","121.523266666667","24.97991","6500600","新店區"
"231063","641-BX","2019/11/11 19:13:32","新北市新店區達觀路8巷5號","121.504278333333","24.9443216666667","6500600","新店區"
"231047","KED-0819","2019/11/11 19:13:25","","121.544515","24.9713366666667","6500600","新店區"
"231046","719-UM","2019/11/11 19:13:29","","121.529218333333","24.9578383333333","6500600","新店區"
"231057","720-UM","2019/11/11 19:13:34","新北市新店區百齡一路12號","121.5531","24.932435","6500600","新店區"
"231059","897-TW","2019/11/11 19:13:24","","121.518075","24.9674266666667","6500600","新店區"
"231043","899-TW","2019/11/11 19:13:22","","121.545485","24.975015","6500600","新店區"
"231066","AKT-0513","2019/11/11 19:13:42","新北市新店區安祥路35-2號","121.490761666667","24.95675","6500600","新店區"
"241031","061-VK","2019/11/11 19:13:33","新北市三重區重新路四段85巷22號","121.485275","25.055415","6500200","三重區"
"241017","063-VK","2019/11/11 19:13:39","新北市三重區大同北路181號","121.49259","25.0652983333333","6500200","三重區"
"241013","270-UM","2019/11/11 19:13:27","新北市三重區仁愛街101號","121.49573","25.0738983333333","6500200","三重區"
"241035","462-BY","2019/11/11 19:13:23","","121.495541666667","25.0643383333333","6500200","三重區"
"241020","478-VK","2019/11/11 19:13:33","新北市三重區後竹圍街136號","121.488026666667","25.0725083333333","6500200","三重區"
"241026","480-VK","2019/11/11 19:13:39","新北市三重區中正南路201號","121.493236666667","25.0541966666667","6500200","三重區"
"241022","KED-0820","2019/11/11 19:13:26","","121.485365","25.065415","6500200","三重區"
"241029","942-UM","2019/11/11 19:13:24","","121.493178333333","25.055075","6500200","三重區"
"235064","005-UY","2019/11/11 19:13:37","新北市中和區南山路81巷29號","121.502825","24.99818","6500300","中和區"
"235063","006-UY","2019/11/11 19:13:24","","121.494035","24.9956816666667","6500300","中和區"
"235056","096-UM","2019/11/11 19:13:29","","121.479726666667","25.0069716666667","6500300","中和區"
"235039","097-UM","2019/11/11 19:13:33","新北市中和區景平路3號","121.523688333333","24.9902066666667","6500300","中和區"
"235065","098-UM","2019/11/11 19:13:38","新北市中和區中山路二段64巷7弄21號","121.502956666667","25.0046583333333","6500300","中和區"
"235004","150-BY","2019/11/11 19:13:25","","121.50933","24.9958866666667","6500300","中和區"
"235058","151-BY","2019/11/11 19:13:29","","121.482265","24.9948133333333","6500300","中和區"
"235055","183-VK","2019/11/11 19:13:34","新北市中和區莒光路60-4號","121.472275","25.0032766666667","6500300","中和區"
"235038","185-VK","2019/11/11 19:13:24","","121.518108333333","24.992575","6500300","中和區"
"235067","255-BX","2019/11/11 19:13:26","","121.482905","25.0012116666667","6500300","中和區"
"235044","293-VK","2019/11/11 19:13:41","新北市中和區中興街250號","121.499371666667","24.9880116666667","6500300","中和區"
"235072","301-VK","2019/11/11 19:13:40","新北市中和區連城路214號","121.491543333333","24.99652","6500300","中和區"
"235043","352-BY","2019/11/11 19:13:38","新北市中和區景平路404號","121.509041666667","24.99314","6500300","中和區"
"235042","KEA-2878","2019/11/11 19:13:36","新北市中和區大勇街60巷8號","121.518658333333","24.9947183333333","6500300","中和區"
"235050","4979-A6","2019/11/11 19:13:23","","121.501676666667","24.99211","6500300","中和區"
"235069","4980-A6","2019/11/11 19:13:25","","121.50059","25.0025633333333","6500300","中和區"
"235070","558-UM","2019/11/11 19:13:37","新北市中和區中和路51號","121.500345","25.0011583333333","6500300","中和區"
"235045","565-BX","2019/11/11 19:13:37","新北市中和區景新街383巷30號","121.513593333333","24.9904883333333","6500300","中和區"
"235060","KED-0823","2019/11/11 19:13:41","新北市中和區新生街114巷3號","121.483328333333","25.00235","6500300","中和區"
"235054","640-BX","2019/11/11 19:13:41","新北市中和區國光街112巷18弄1號","121.469705","25.0019333333333","6500300","中和區"
"235071","647-TV","2019/11/11 19:13:42","新北市中和區連城路467-4號","121.483821666667","24.9961416666667","6500300","中和區"
"235047","732-UM","2019/11/11 19:13:34","新北市中和區和平街40號","121.50914","24.9905216666667","6500300","中和區"
"235046","733-UM","2019/11/11 19:13:30","","121.508675","24.9827566666667","6500300","中和區"
"235057","801-TS","2019/11/11 19:13:33","新北市中和區中山路三段37巷47號","121.480031666667","25.0045966666667","6500300","中和區"
"235041","802-TS","2019/11/11 19:13:21","","121.5085","24.999825","6500300","中和區"
"235052","805-TS","2019/11/11 19:13:29","","121.50214","24.9832433333333","6500300","中和區"
"235048","896-TW","2019/11/11 19:13:42","新北市中和區忠孝街112號","121.512165","24.9852983333333","6500300","中和區"
"235053","900-TW","2019/11/11 19:13:26","","121.467165","24.9979133333333","6500300","中和區"
"235051","157-BY","2019/11/11 19:13:29","","121.510015","24.990575","6500300","中和區"
"235037","AAC-213","2019/11/11 19:13:27","新北市中和區自立路15巷1號","121.522425","24.9962033333333","6500300","中和區"
"235059","AAC-215","2019/11/11 19:13:35","新北市中和區圓通路419號","121.488401666667","24.9889716666667","6500300","中和區"
"220065","072-UY","2019/11/11 19:13:31","","121.467655","25.0084583333333","6500100","板橋區"
"220086","073-UY","2019/11/11 19:13:36","新北市板橋區中正路250巷107號","121.460035","25.0201633333333","6500100","板橋區"
"220069","AAD-861","2019/11/11 19:13:20","","121.457638333333","25.00324","6500100","板橋區"
"220106","120-SR","2019/11/11 19:13:26","","121.473191666667","25.0332916666667","6500100","板橋區"
"226004","312-R5","2019/11/11 19:13:28","","121.762601666667","25.033195","6502400","平溪區"
"235049","251-BX","2019/11/11 19:13:34","新北市中和區景新街239號","121.508145","24.9944716666667","6500300","中和區"
"228003","097-TW","2019/11/11 19:13:31","新北市貢寮區和美里和美街23號","121.913013333333","25.0826283333333","6502600","貢寮區"
"228001","212-TW","2019/11/11 19:13:24","","121.925456666667","25.054305","6502600","貢寮區"
"228002","663-BX","2019/11/11 19:13:32","新北市貢寮區福隆里興隆街36號","121.941038333333","25.0175033333333","6502600","貢寮區"
"224009","275-VK","2019/11/11 19:13:40","新北市瑞芳區洞頂路8號","121.861998333333","25.1217466666667","6501200","瑞芳區"
"224008","273-VK","2019/11/11 19:13:25","","121.802788333333","25.10999","6501200","瑞芳區"
"227001","642-TC","2019/11/11 19:13:37","新北市雙溪區牡丹里中正路46-3號","121.865011666667","25.0390133333333","6502500","雙溪區"
"227002","400-TW","2019/11/11 19:13:30","","121.860563333333","25.0368966666667","6502500","雙溪區"
"253005","032-BX","2019/11/11 19:13:38","新北市石門區阿里荖10號","121.608763333333","25.2799666666667","6502200","石門區"
"253006","295-VK","2019/11/11 19:13:30","","121.533023333333","25.287495","6502200","石門區"
"222001","KEA-2212","2019/11/11 19:13:33","新北市深坑區北深路二段46號","121.619495","25.00429","6501800","深坑區"
"208002","KEA-2872","2019/11/11 19:13:40","新北市金山區環金路376巷1號","121.632","25.22223","6502700","金山區"
"208003","665-BX","2019/11/11 19:13:40","新北市金山區中正路135號","121.632433333333","25.2215016666667","6502700","金山區"
"251009","008-UM","2019/11/11 19:13:33","新北市淡水區重建街36號","121.439913333333","25.1712233333333","6501000","淡水區"
"251005","010-UM","2019/11/11 19:13:38","新北市淡水區原德路63號","121.442263333333","25.1723216666667","6501000","淡水區"
"251002","012-UM","2019/11/11 19:13:21","","121.44258","25.17043","6501000","淡水區"
"251015","KEA-2871","2019/11/11 19:13:29","","121.481521666667","25.1786","6501000","淡水區"
"251016","180-VK","2019/11/11 19:13:23","","121.45072","25.2085016666667","6501000","淡水區"
"251008","181-VK","2019/11/11 19:13:26","","121.424235","25.1836716666667","6501000","淡水區"
"251013","182-VK","2019/11/11 19:13:43","新北市淡水區安子內12號","121.481168333333","25.2193216666667","6501000","淡水區"
"251010","413-VK","2019/11/11 19:13:37","新北市淡水區沙崙路28號","121.42146","25.1814466666667","6501000","淡水區"
"251007","442-VK","2019/11/11 19:13:39","新北市淡水區民生路145巷58號","121.46817","25.1388666666667","6501000","淡水區"
"251001","559-UM","2019/11/11 19:13:25","","121.462111666667","25.1268016666667","6501000","淡水區"
"251014","577-R6","2019/11/11 19:13:31","新北市淡水區小中寮19-7號","121.484726666667","25.229625","6501000","淡水區"
"251003","673-BX","2019/11/11 19:13:41","新北市淡水區中山北路一段6號","121.441496666667","25.1746433333333","6501000","淡水區"
"207003","681-TV","2019/11/11 19:13:39","新北市萬里區大鵬里頂社15號","121.655853333333","25.209535","6502800","萬里區"
"207004","291-VK","2019/11/11 19:13:27","","121.690031666667","25.1768766666667","6502800","萬里區"
"252002","178-VK","2019/11/11 19:13:32","新北市三芝區淡金路二段18-1號","121.502718333333","25.2595466666667","6502100","三芝區"
"208001","170-UY","2019/11/11 19:13:32","新北市金山區金包里街7號","121.639895","25.220715","6502700","金山區"
"237004","KEA-2597","2019/11/11 19:13:29","","121.439055","24.8516083333333","6500900","三峽區"
"237007","153-BY","2019/11/11 19:13:36","新北市三峽區麻園12-2號","121.362281666667","24.9162983333333","6500900","三峽區"
"237012","275-BY","2019/11/11 19:13:41","新北市三峽區三樹路222巷236弄59號","121.39313","24.9430333333333","6500900","三峽區"
"237008","302-VK","2019/11/11 19:13:36","新北市三峽區永安街183號","121.373211666667","24.92675","6500900","三峽區"
"237014","433-BY","2019/11/11 19:13:32","新北市鶯歌區三鶯路5號","121.356918333333","24.9406666666667","6500900","三峽區"
"237013","280-TH","2019/11/11 19:13:40","新北市三峽區光明路69巷24號","121.376563333333","24.9291166666667","6500900","三峽區"
"237006","5529-G3","2019/11/11 19:13:22","","121.398455","24.9354516666667","6500900","三峽區"
"237011","KEA-2596","2019/11/11 19:13:36","新北市三峽區介壽路三段107號","121.39549","24.9393116666667","6500900","三峽區"
"237015","649-BX","2019/11/11 19:13:37","新北市三峽區安坑34-10號","121.450858333333","24.9296016666667","6500900","三峽區"
"237010","706-TV","2019/11/11 19:13:37","新北市三峽區國光街364巷2號","121.371073333333","24.9399933333333","6500900","三峽區"
"237005","AKY-6261","2019/11/11 19:13:34","新北市三峽區中山路459巷121號","121.351943333333","24.9352866666667","6500900","三峽區"
"220089","KED-0812","2019/11/11 19:13:33","新北市板橋區幸福路61號","121.460773333333","25.019745","6500100","板橋區"
"236078","166-UM","2019/11/11 19:13:32","新北市土城區龍泉路22號","121.410521666667","24.9481866666667","6501300","土城區"
"236026","269-VK","2019/11/11 19:13:30","","121.444103333333","24.9754133333333","6501300","土城區"
"236014","270-VK","2019/11/11 19:13:28","","121.456658333333","24.9882133333333","6501300","土城區"
"236039","271-VK","2019/11/11 19:08:10","新北市土城區清水路32巷16號","121.45737","24.9811166666667","6501300","土城區"
"236069","KEA-2877","2019/11/11 19:13:40","新北市土城區中央路一段186-2號","121.445495","24.9863283333333","6501300","土城區"
"252001","KED-0821","2019/11/11 19:13:40","新北市三芝區長勤街16號","121.501321666667","25.255725","6502100","三芝區"
"236020","401-BY","2019/11/11 19:13:25","","121.46883","24.986325","6501300","土城區"
"236059","912-UM","2019/11/11 19:13:33","新北市土城區中央路三段67號","121.438731666667","24.9693683333333","6501300","土城區"
"236063","915-UM","2019/11/11 19:13:43","新北市土城區金城路三段202-3號","121.469473333333","24.9885","6501300","土城區"
"242022","353-BY","2019/11/11 19:13:32","新北市新莊區新泰路357巷3弄57號","121.441946666667","25.0392466666667","6500500","新莊區"
"242009","349-TH","2019/11/11 19:13:40","新北市新莊區三和路12-21號","121.442258333333","25.0382816666667","6500500","新莊區"
"238023","601-UM","2019/11/11 19:13:22","","121.392301666667","25.0135766666667","6500700","樹林區"
"238019","599-UM","2019/11/11 19:13:31","","121.416285","24.9822933333333","6500700","樹林區"
"238022","KEA-2213","2019/11/11 19:13:36","新北市樹林區中山路二段151巷2號","121.407198333333","24.977975","6500700","樹林區"
"238021","KEA-2539","2019/11/11 19:13:30","新北市樹林區柑園街二段382巷16號","121.368001666667","24.949835","6500700","樹林區"
"238025","303-VK","2019/11/11 19:13:32","","121.385048333333","24.967655","6500700","樹林區"
"238017","283-BY","2019/11/11 19:13:34","新北市樹林區光華街4號","121.413601666667","25.0035866666667","6500700","樹林區"
"238014","282-BY","2019/11/11 19:13:37","新北市樹林區千歲街75號","121.42741","24.9990933333333","6500700","樹林區"
"238020","268-VK","2019/11/11 19:13:25","","121.423611666667","25.0111233333333","6500700","樹林區"
"238026","172-UY","2019/11/11 19:13:30","新北市樹林區佳園路一段41巷18號","121.39387","24.9710516666667","6500700","樹林區"
"238016","169-UY","2019/11/11 19:13:29","新北市樹林區文化街45號","121.4181","24.9882466666667","6500700","樹林區"
"239007","AAC-297","2019/11/11 19:13:21","","121.35659","24.9578233333333","6500800","鶯歌區"
"239006","891-R6","2019/11/11 19:13:25","","121.337843333333","24.9548266666667","6500800","鶯歌區"
"239008","527-UM","2019/11/11 19:13:30","新北市鶯歌區國際二路70巷22號","121.335921666667","24.9756683333333","6500800","鶯歌區"
"239005","526-UM","2019/11/11 19:13:22","","121.331021666667","24.97737","6500800","鶯歌區"
"239001","417-VK","2019/11/11 19:13:30","","121.34272","24.9491616666667","6500800","鶯歌區"
"239003","360-BY","2019/11/11 19:13:41","新北市鶯歌區鶯桃路658巷1號","121.329243333333","24.9693216666667","6500800","鶯歌區"
"239004","193-VK","2019/11/11 19:13:38","新北市鶯歌區中正三路282巷12弄1號","121.32841","24.93712","6500800","鶯歌區"
"221008","489-VK","2019/11/11 19:13:38","新北市汐止區康寧街374號","121.628965","25.0676933333333","6501100","汐止區"
"221036","130-UY","2019/11/11 19:13:39","新北市汐止區忠孝東路314巷19弄4號","121.664571666667","25.0684666666667","6501100","汐止區"
"221031","353-TW","2019/11/11 19:13:34","新北市汐止區中興路181巷29弄8號","121.62978","25.06577","6501100","汐止區"
"221035","622-UM","2019/11/11 19:13:32","新北市汐止區汐萬路一段215號","121.652011666667","25.072345","6501100","汐止區"
"221002","707-TV","2019/11/11 19:13:29","","121.63794","25.059","6501100","汐止區"
"220079","145-BY","2019/11/11 19:13:37","新北市板橋區民權路202巷7弄2號","121.46005","25.0147666666667","6500100","板橋區"
"220080","200-UY","2019/11/11 19:13:37","新北市板橋區大觀路二段7巷41號","121.44828","25.0034116666667","6500100","板橋區"
"220082","610-BX","2019/11/11 19:13:31","","121.426578333333","24.98875","6500100","板橋區"
"220056","276-BY","2019/11/11 19:13:26","","121.457678333333","24.9926566666667","6500100","板橋區"
"220072","277-BY","2019/11/11 19:13:42","新北市板橋區金門街369巷83號","121.428523333333","24.9826133333333","6500100","板橋區"
"220101","280-UM","2019/11/11 19:13:35","新北市板橋區雙十路二段4-1號","121.477041666667","25.02545","6500100","板橋區"
"220094","283-UM","2019/11/11 19:13:35","新北市板橋區光武街110巷10弄1號","121.466316666667","25.02958","6500100","板橋區"
"220071","283-VK","2019/11/11 19:13:30","","121.464131666667","24.9978316666667","6500100","板橋區"
"220053","285-VK","2019/11/11 19:13:38","新北市板橋區永豐街148號","121.478203333333","25.0212383333333","6500100","板橋區"
"220083","286-VK","2019/11/11 19:13:33","新北市板橋區大觀路二段174巷179弄19號","121.441346666667","25.0042083333333","6500100","板橋區"
"220081","287-VK","2019/11/11 19:13:35","新北市板橋區南雅西路二段156巷2號","121.451736666667","25.013375","6500100","板橋區"
"220090","288-VK","2019/11/11 19:13:34","新北市板橋區長江路一段106巷12弄3號","121.459915","25.0289733333333","6500100","板橋區"
"220061","293-UM","2019/11/11 19:13:38","新北市板橋區中山路二段318巷10號","121.480261666667","25.0189283333333","6500100","板橋區"
"220084","296-UM","2019/11/11 19:13:42","新北市板橋區溪崑二街56巷20號","121.427886666667","24.9911933333333","6500100","板橋區"
"220075","303-R5","2019/11/11 19:13:26","","121.455473333333","25.00539","6500100","板橋區"
"220062","305-R5","2019/11/11 19:13:37","新北市板橋區三民路二段居仁巷2弄23號","121.479955","25.01291","6500100","板橋區"
"220092","307-R5","2019/11/11 19:13:30","","121.469116666667","25.0261616666667","6500100","板橋區"
"220098","317-R6","2019/11/11 19:13:35","新北市板橋區四維路103巷3號","121.465291666667","25.02441","6500100","板橋區"
"220088","491-VK","2019/11/11 19:13:37","新北市板橋區雙十路二段4-7號","121.476966666667","25.0259033333333","6500100","板橋區"
"220035","560-BX","2019/11/11 19:13:34","新北市板橋區中正路379巷22號","121.453575","25.02187","6500100","板橋區"
"220103","561-BX","2019/11/11 19:13:36","新北市板橋區介壽街3號","121.46713","25.0203533333333","6500100","板橋區"
"220063","609-BX","2019/11/11 19:13:34","新北市板橋區三民路二段13號","121.479303333333","25.0184133333333","6500100","板橋區"
"220091","637-BX","2019/11/11 19:13:38","新北市板橋區萬板路460號","121.479596666667","25.0257633333333","6500100","板橋區"
"220057","686-BX","2019/11/11 19:13:35","新北市板橋區五權街30巷1號","121.464813333333","24.9933766666667","6500100","板橋區"
"220077","687-BX","2019/11/11 19:13:43","新北市板橋區大觀路二段50號","121.445383333333","25.0007233333333","6500100","板橋區"
"220093","689-BX","2019/11/11 19:13:35","新北市板橋區漢生西路117號","121.462723333333","25.02037","6500100","板橋區"
"220054","741-BX","2019/11/11 19:13:33","新北市板橋區重慶路64號","121.46178","25.00681","6500100","板橋區"
"220102","KEA-2699","2019/11/11 19:13:38","新北市板橋區松柏街13號","121.474208333333","25.0297883333333","6500100","板橋區"
"220055","827-TW","2019/11/11 19:13:33","新北市板橋區新民街9號","121.463693333333","25.0098683333333","6500100","板橋區"
"220067","829-TW","2019/11/11 19:13:29","","121.474543333333","25.010755","6500100","板橋區"
"220068","830-TW","2019/11/11 19:13:40","新北市板橋區翠華街6巷16號","121.48104","25.0242716666667","6500100","板橋區"
"220074","895-R6","2019/11/11 19:13:26","","121.45486","25.013915","6500100","板橋區"
"220073","985-R7","2019/11/11 19:13:33","新北市板橋區中正路366號","121.454288333333","25.0240733333333","6500100","板橋區"
"220097","AAC-210","2019/11/11 19:13:37","新北市板橋區新海路134號","121.460916666667","25.0231616666667","6500100","板橋區"
"220064","AAC-253","2019/11/11 19:13:44","新北市板橋區公園街30號","121.46265","25.0086266666667","6500100","板橋區"
"235068","KEA-2873","2019/11/11 19:13:13","","121.497861666667","24.9978016666667","6500300","中和區"
"235061","KEA-2875","2019/11/11 19:13:32","新北市中和區員山路394巷12弄1號","121.48135","25.004315","6500300","中和區"
