"lineid","car","time","location","longitude","latitude","cityid","cityname"
"234046","148-BY","2019/11/11 19:29:41","新北市永和區秀朗路二段114號","121.524455","25.001585","6500400","永和區"
"234081","298-R6","2019/11/11 19:29:23","新北市永和區環河東路三段54號","121.526598333333","25.00611","6500400","永和區"
"234038","336-UY","2019/11/11 19:29:37","新北市永和區民樂街38號","121.527493333333","25.0007066666667","6500400","永和區"
"234064","337-UY","2019/11/11 19:29:28","新北市永和區得和路243巷28弄1號","121.520835","25.0012883333333","6500400","永和區"
"234086","338-UY","2019/11/11 19:29:30","新北市永和區林森路74號","121.523583333333","25.0037833333333","6500400","永和區"
"234070","552-UM","2019/11/11 19:29:38","新北市永和區警光街12號","121.519746666667","25.0095383333333","6500400","永和區"
"234017","745-BX","2019/11/11 19:29:38","新北市永和區環河西路一段87號","121.512366666667","25.01788","6500400","永和區"
"234030","746-BX","2019/11/11 19:29:27","新北市永和區民生路2號","121.522476666667","24.9980783333333","6500400","永和區"
"234054","KEA-2590","2019/11/11 19:29:42","新北市永和區復興街19巷4號","121.516196666667","25.0131483333333","6500400","永和區"
"234007","KED-0605","2019/11/11 19:29:42","新北市永和區永和路一段112-1號","121.513425","25.0073766666667","6500400","永和區"
"234013","KEA-2591","2019/11/11 19:29:44","新北市永和區中山路一段214號","121.508525","25.00847","6500400","永和區"
"234061","AAD-866","2019/11/11 19:29:42","新北市永和區中正路526號","121.51722","25.0049616666667","6500400","永和區"
"234042","748-BX","2019/11/11 19:29:43","新北市永和區水源街39巷5號","121.510511666667","25.0040616666667","6500400","永和區"
"234050","863-TW","2019/11/11 19:29:39","新北市永和區仁愛路150號","121.51087","25.01294","6500400","永和區"
"234026","9371-KE","2019/11/11 19:29:40","新北市永和區安樂路108號","121.514175","24.99961","6500400","永和區"
"234011","9373-KE","2019/11/11 19:29:33","新北市永和區保生路55-1號","121.504503333333","25.0108883333333","6500400","永和區"
"249002","305-UY","2019/11/11 19:29:31","新北市八里區頂寮二街138號","121.449343333333","25.1294383333333","6502300","八里區"
"249003","593-UM","2019/11/11 19:29:30","新北市八里區中山路二段448號","121.399231666667","25.1472966666667","6502300","八里區"
"248014","025-BX","2019/11/11 19:29:34","新北市五股區民義路一段172巷11號","121.433628333333","25.0882116666667","6501500","五股區"
"248008","KED-0815","2019/11/11 19:29:23","新北市五股區中興路一段164-1號","121.464156666667","25.0739416666667","6501500","五股區"
"248018","KED-0813","2019/11/11 19:29:31","新北市五股區壟路11-3號","121.415573333333","25.08535","6501500","五股區"
"248012","247-BX","2019/11/11 19:29:28","新北市五股區成泰路二段91巷9號","121.437475","25.0842066666667","6501500","五股區"
"248004","677-BX","2019/11/11 19:29:41","新北市五股區工商路99巷1號","121.43736","25.0853833333333","6501500","五股區"
"248002","678-BX","2019/11/11 19:29:36","新北市五股區凌雲路一段158巷6號","121.447801666667","25.1029616666667","6501500","五股區"
"248010","682-TV","2019/11/11 19:29:27","新北市五股區水碓一路23號","121.430631666667","25.07128","6501500","五股區"
"234023","9380-KE","2019/11/11 19:29:38","新北市永和區竹林路91巷45號","121.521395","25.012845","6500400","永和區"
"234077","969-R7","2019/11/11 19:29:25","新北市永和區民治街29號","121.519625","24.9977333333333","6500400","永和區"
"234074","AAC-211","2019/11/11 19:29:34","新北市永和區福和路76巷4號","121.523036666667","25.00835","6500400","永和區"
"234067","AAC-212","2019/11/11 19:29:34","新北市永和區保平路109號","121.51107","25.0066183333333","6500400","永和區"
"234003","AAC-295","2019/11/11 19:29:41","新北市永和區福和路385號","121.514293333333","25.00759","6500400","永和區"
"244023","483-VK","2019/11/11 19:29:40","新北市林口區民富街198號","121.370755","25.0754266666667","6501700","林口區"
"243012","AAD-798","2019/11/11 19:29:36","新北市泰山區仁愛路36-6號","121.431635","25.0547616666667","6501600","泰山區"
"243010","297-R6","2019/11/11 19:19:37","新北市泰山區明志路一段504號","121.43048","25.0542983333333","6501600","泰山區"
"243014","KEA-2801","2019/11/11 19:29:27","新北市泰山區仁愛路6巷28號","121.431651666667","25.0529716666667","6501600","泰山區"
"243016","421-VK","2019/11/11 19:29:37","新北市泰山區明志路三段204巷3號","121.42177","25.0378433333333","6501600","泰山區"
"243009","KEA-2215","2019/11/11 19:29:41","新北市泰山區半山雅3號","121.431276666667","25.0674666666667","6501600","泰山區"
"243011","KEA-2216","2019/11/11 19:29:34","新北市泰山區貴子路17-15號","121.427335","25.04125","6501600","泰山區"
"243013","646-TV","2019/11/11 19:29:30","新北市泰山區貴子路36巷22號","121.425775","25.0408066666667","6501600","泰山區"
"243015","680-BX","2019/11/11 19:29:43","新北市泰山區明志路二段125號","121.427916666667","25.0513083333333","6501600","泰山區"
"222003","436-BY","2019/11/11 19:29:32","新北市深坑區深南路51-1號","121.62131","25.009785","6501800","深坑區"
"222002","659-BX","2019/11/11 19:29:30","新北市深坑區北深路一段177號","121.632466666667","25.0108833333333","6501800","深坑區"
"231042","001-UM","2019/11/11 19:29:36","新北市新店區中興路一段146號","121.542456666667","24.96376","6500600","新店區"
"231061","002-UM","2019/11/11 19:29:27","新北市新店區安康路一段222-1號","121.52278","24.9637583333333","6500600","新店區"
"231044","046-UY","2019/11/11 19:29:29","新北市新店區中興路三段197號","121.543866666667","24.9815216666667","6500600","新店區"
"231060","106-UY","2019/11/11 19:29:35","新北市新店區安康路二段3-1號","121.516035","24.9636816666667","6500600","新店區"
"231051","107-UY","2019/11/11 19:29:39","新北市新店區中央路133巷15弄64號","121.53202","24.9746033333333","6500600","新店區"
"231049","108-UY","2019/11/11 19:29:24","新北市新店區二十張路1巷3弄1號","121.540376666667","24.9821233333333","6500600","新店區"
"231065","110-UY","2019/11/11 19:29:35","新北市新店區安祥路109巷5號","121.47562","24.9588433333333","6500600","新店區"
"231062","256-BX","2019/11/11 19:29:25","新北市新店區莒光路99號","121.52209","24.9534916666667","6500600","新店區"
"231054","260-TV","2019/11/11 19:29:36","新北市新店區文中路40號","121.539691666667","24.9565216666667","6500600","新店區"
"231064","278-BY","2019/11/11 19:29:33","新北市新店區安康路二段85巷1號","121.51357","24.9624616666667","6500600","新店區"
"231050","AAD-862","2019/11/11 19:29:30","新北市新店區北宜路二段82巷11號","121.553845","24.9519383333333","6500600","新店區"
"231045","355-BY","2019/11/11 19:29:23","新北市新店區北宜路二段207號","121.553123333333","24.953295","6500600","新店區"
"231058","3713-VJ","2019/11/11 19:29:41","新北市新店區北新路一段128-1號","121.542786666667","24.9696983333333","6500600","新店區"
"231056","4715-K9","2019/11/11 19:29:35","新北市新店區安民街121巷14號","121.515348333333","24.9690816666667","6500600","新店區"
"231067","4772-VM","2019/11/11 19:29:30","新北市新店區薏仁坑路自強巷1號","121.497683333333","24.95785","6500600","新店區"
"231052","513-UM","2019/11/11 19:29:35","新北市新店區新烏路二段301號","121.549365","24.91163","6500600","新店區"
"231040","617-UM","2019/11/11 19:29:30","新北市新店區中華路66號","121.53918","24.9690183333333","6500600","新店區"
"231041","618-UM","2019/11/11 19:29:39","新北市新店區中正路678號","121.533993333333","24.9899866666667","6500600","新店區"
"231063","641-BX","2019/11/11 19:29:32","新北市新店區達觀路14巷2號","121.503463333333","24.94108","6500600","新店區"
"231047","KED-0819","2019/11/11 19:29:27","新北市新店區五峰路97號","121.545808333333","24.9672166666667","6500600","新店區"
"231046","719-UM","2019/11/11 19:29:28","新北市新店區北新路一段14號","121.540856666667","24.9656166666667","6500600","新店區"
"231057","720-UM","2019/11/11 19:29:34","新北市新店區花園一路三段45號","121.550593333333","24.932855","6500600","新店區"
"231059","897-TW","2019/11/11 19:29:24","新北市新店區安和路三段7號","121.51804","24.9806133333333","6500600","新店區"
"231043","899-TW","2019/11/11 19:29:22","新北市新店區北新路二段256號","121.54284","24.9778116666667","6500600","新店區"
"231066","AKT-0513","2019/11/11 19:29:22","新北市新店區安康路三段466-2號","121.484058333333","24.9508266666667","6500600","新店區"
"241011","013-R5","2019/11/11 19:29:30","新北市三重區龍濱路189號","121.502166666667","25.0711033333333","6500200","三重區"
"241028","022-UY","2019/11/11 19:29:41","新北市三重區中寮街20-6號","121.492416666667","25.059195","6500200","三重區"
"241008","059-VK","2019/11/11 19:29:23","新北市三重區永福街135巷32弄1號","121.47745","25.0769783333333","6500200","三重區"
"241023","060-VK","2019/11/11 19:29:35","新北市三重區頂崁街99號","121.477956666667","25.0638616666667","6500200","三重區"
"241031","061-VK","2019/11/11 19:29:33","新北市三重區重新路四段184巷40號","121.48819","25.0550116666667","6500200","三重區"
"241017","063-VK","2019/11/11 19:29:31","新北市三重區中正北路25巷8號","121.493406666667","25.06292","6500200","三重區"
"241007","066-VK","2019/11/11 19:29:26","新北市三重區溪尾街126巷4號","121.489121666667","25.07928","6500200","三重區"
"241009","742-BX","2019/11/11 19:29:36","新北市三重區溪尾街242巷75號","121.485926666667","25.0814383333333","6500200","三重區"
"241006","262-UM","2019/11/11 19:29:35","新北市三重區三和路四段95號","121.48788","25.0758916666667","6500200","三重區"
"241032","269-UM","2019/11/11 19:29:23","新北市三重區三陽路39號","121.485178333333","25.05879","6500200","三重區"
"241013","270-UM","2019/11/11 19:29:41","新北市三重區仁愛街125巷6號","121.49655","25.07539","6500200","三重區"
"241025","271-UM","2019/11/11 19:29:33","新北市三重區頂崁街210巷23弄1號","121.475886666667","25.06822","6500200","三重區"
"241030","KED-0822","2019/11/11 19:29:34","新北市三重區成功路41巷6號","121.490216666667","25.05152","6500200","三重區"
"241035","462-BY","2019/11/11 19:29:23","新北市三重區信義西街1號","121.49815","25.0648283333333","6500200","三重區"
"241020","478-VK","2019/11/11 19:29:33","新北市三重區三和路四段20巷22-1號","121.490161666667","25.073675","6500200","三重區"
"241026","480-VK","2019/11/11 19:29:39","新北市三重區文化南路38-2號","121.500338333333","25.060785","6500200","三重區"
"241001","547-UM","2019/11/11 19:29:33","新北市三重區仁政街116號","121.492021666667","25.078195","6500200","三重區"
"241012","743-BX","2019/11/11 19:29:40","新北市三重區仁興街39巷14-5號","121.499831666667","25.0760983333333","6500200","三重區"
"241022","KED-0820","2019/11/11 19:29:26","新北市三重區三民街165巷2號","121.483758333333","25.0651633333333","6500200","三重區"
"241029","942-UM","2019/11/11 19:29:24","新北市三重區泉州街84巷18號","121.495843333333","25.054305","6500200","三重區"
"235066","003-UY","2019/11/11 19:29:23","新北市中和區景新街48號","121.503946666667","24.999155","6500300","中和區"
"235064","005-UY","2019/11/11 19:29:37","新北市中和區南華路19號","121.50283","24.9959283333333","6500300","中和區"
"235063","006-UY","2019/11/11 19:29:25","新北市中和區連城路219巷17號","121.494933333333","24.9961783333333","6500300","中和區"
"235056","096-UM","2019/11/11 19:29:29","新北市中和區員山路581巷2弄30號","121.477373333333","25.0100366666667","6500300","中和區"
"235039","097-UM","2019/11/11 19:29:33","新北市中和區秀峰街66號","121.520561666667","24.9904483333333","6500300","中和區"
"235065","098-UM","2019/11/11 19:29:38","新北市中和區莊敬路49巷18號","121.501653333333","25.0061416666667","6500300","中和區"
"235004","150-BY","2019/11/11 19:29:25","新北市中和區保健路44巷31號","121.508706666667","24.99629","6500300","中和區"
"235058","151-BY","2019/11/11 19:29:29","新北市中和區連城路372-3號","121.481505","24.9952183333333","6500300","中和區"
"235055","183-VK","2019/11/11 19:29:34","新北市中和區中山路三段179巷6號","121.47336","25.005835","6500300","中和區"
"235038","185-VK","2019/11/11 19:29:24","新北市中和區自立路115號","121.522006666667","24.994465","6500300","中和區"
"235067","255-BX","2019/11/11 19:29:26","新北市中和區連城路340巷10弄28號","121.483406666667","24.9965766666667","6500300","中和區"
"235044","293-VK","2019/11/11 19:29:41","新北市中和區捷運路95號","121.508073333333","24.9902816666667","6500300","中和區"
"235072","301-VK","2019/11/11 19:29:40","新北市中和區連城路265巷6弄4號","121.491196666667","24.9958933333333","6500300","中和區"
"235043","352-BY","2019/11/11 19:29:38","新北市中和區安和路25號","121.51059","24.9941916666667","6500300","中和區"
"235042","KEA-2878","2019/11/11 19:29:36","新北市中和區中安街172號","121.510933333333","24.99977","6500300","中和區"
"235070","558-UM","2019/11/11 19:29:37","新北市中和區景平路523號","121.49903","24.99896","6500300","中和區"
"235045","565-BX","2019/11/11 19:29:37","新北市中和區景新街551號","121.515011666667","24.986565","6500300","中和區"
"235060","KED-0823","2019/11/11 19:29:21","新北市中和區中山路二段523巷2號","121.481653333333","25.00503","6500300","中和區"
"235054","640-BX","2019/11/11 19:29:21","新北市中和區莒光路63號","121.472301666667","25.0037933333333","6500300","中和區"
"235071","647-TV","2019/11/11 19:29:42","新北市中和區中正路637巷18弄20號","121.484256666667","24.9951033333333","6500300","中和區"
"235047","732-UM","2019/11/11 19:29:34","新北市中和區景平路259巷30號","121.507096666667","24.9927933333333","6500300","中和區"
"235046","733-UM","2019/11/11 19:29:30","新北市中和區興南路一段105巷20弄35號","121.510581666667","24.98481","6500300","中和區"
"235057","801-TS","2019/11/11 19:29:41","新北市中和區員山路150-13號","121.481386666667","24.997685","6500300","中和區"
"235041","802-TS","2019/11/11 19:29:41","新北市永和區中和路517號","121.51107","25.002625","6500300","中和區"
"235052","805-TS","2019/11/11 19:29:29","新北市中和區華新街143巷69弄8號","121.507486666667","24.9788366666667","6500300","中和區"
"235048","896-TW","2019/11/11 19:29:42","新北市中和區忠孝街1巷2-1號","121.509146666667","24.9830333333333","6500300","中和區"
"235053","900-TW","2019/11/11 19:29:26","新北市中和區民德路197-1號","121.46838","24.9987916666667","6500300","中和區"
"235051","157-BY","2019/11/11 19:29:29","新北市中和區景新街130號","121.50518","24.9980283333333","6500300","中和區"
"235037","AAC-213","2019/11/11 19:29:27","新北市中和區秀朗路三段50巷4弄4號","121.525703333333","24.9956983333333","6500300","中和區"
"235059","AAC-215","2019/11/11 19:29:35","新北市中和區圓通路252巷12號","121.492556666667","24.9920433333333","6500300","中和區"
"220065","072-UY","2019/11/11 19:29:31","新北市板橋區國泰街111巷15號","121.466128333333","25.0060566666667","6500100","板橋區"
"220086","073-UY","2019/11/11 19:29:36","新北市板橋區中正路216巷96號","121.45869","25.019145","6500100","板橋區"
"220069","AAD-861","2019/11/11 19:29:40","新北市板橋區貴興路106巷16弄2號","121.454843333333","25.0034983333333","6500100","板橋區"
"220106","120-SR","2019/11/11 19:29:26","新北市板橋區民治街26巷4號","121.477648333333","25.0339633333333","6500100","板橋區"
"247004","341-TH","2019/11/11 19:29:25","新北市蘆洲區長安街225號","121.45956","25.08251","6501400","蘆洲區"
"226004","312-R5","2019/11/11 19:29:28","新北市平溪區十分里十分街193號","121.778441666667","25.04379","6502400","平溪區"
"235049","251-BX","2019/11/11 19:29:40","新北市中和區安平路29號","121.509298333333","24.9943866666667","6500300","中和區"
"228003","097-TW","2019/11/11 19:29:31","新北市貢寮區和美里和美街22-1號","121.912813333333","25.0826533333333","6502600","貢寮區"
"228001","212-TW","2019/11/11 19:29:24","新北市貢寮區真理里大澳街48號","121.925095","25.056415","6502600","貢寮區"
"224008","273-VK","2019/11/11 19:29:25","新北市瑞芳區一坑路199號","121.801615","25.108755","6501200","瑞芳區"
"227001","642-TC","2019/11/11 19:29:37","新北市雙溪區新基里新基北街43號","121.868216666667","25.0397166666667","6502500","雙溪區"
"227002","400-TW","2019/11/11 19:29:24","新北市雙溪區雙溪里光復街14號","121.865066666667","25.0354616666667","6502500","雙溪區"
"222001","KEA-2212","2019/11/11 19:29:28","新北市深坑區深坑街10號","121.615903333333","25.00288","6501800","深坑區"
"208002","KEA-2872","2019/11/11 19:29:40","新北市金山區中正路6號","121.636435","25.22238","6502700","金山區"
"208003","665-BX","2019/11/11 19:29:40","新北市金山區忠孝一路74號","121.637211666667","25.22073","6502700","金山區"
"251009","008-UM","2019/11/11 19:29:33","新北市淡水區清水街99-1號","121.440903333333","25.170515","6501000","淡水區"
"251005","010-UM","2019/11/11 19:29:38","新北市淡水區水源街一段47巷32號","121.444051666667","25.1732716666667","6501000","淡水區"
"251002","012-UM","2019/11/11 19:29:41","新北市淡水區沙崙路232號","121.425503333333","25.1845816666667","6501000","淡水區"
"251015","KEA-2871","2019/11/11 19:29:29","新北市淡水區山子頂22號","121.491526666667","25.187515","6501000","淡水區"
"251016","180-VK","2019/11/11 19:29:43","新北市淡水區下圭柔山119-51號","121.450698333333","25.2085083333333","6501000","淡水區"
"251008","181-VK","2019/11/11 19:29:26","新北市淡水區中正路一段3號","121.426616666667","25.176105","6501000","淡水區"
"251013","182-VK","2019/11/11 19:29:23","新北市淡水區安子內18號","121.47197","25.2187816666667","6501000","淡水區"
"251010","413-VK","2019/11/11 19:29:37","新北市淡水區中正路二段387號","121.426548333333","25.1910166666667","6501000","淡水區"
"251007","442-VK","2019/11/11 19:29:39","新北市淡水區中正東路二段143巷8弄2號","121.461363333333","25.14756","6501000","淡水區"
"251001","559-UM","2019/11/11 19:29:31","新北市淡水區民權路155號","121.460015","25.13618","6501000","淡水區"
"251006","561-UM","2019/11/11 19:29:31","新北市淡水區大義街29巷18號","121.441465","25.178105","6501000","淡水區"
"251014","577-R6","2019/11/11 19:29:31","新北市淡水區小中寮19-7號","121.484716666667","25.2296416666667","6501000","淡水區"
"251003","673-BX","2019/11/11 19:29:41","新北市淡水區中山北路二段375號","121.444243333333","25.187145","6501000","淡水區"
"207003","681-TV","2019/11/11 19:29:39","新北市萬里區大鵬里萬里加投105號","121.645905","25.213045","6502800","萬里區"
"207004","291-VK","2019/11/11 19:29:27","新北市萬里區萬里里瑪鋉路87-1號","121.688713333333","25.1772233333333","6502800","萬里區"
"252002","178-VK","2019/11/11 19:29:32","新北市三芝區淡金路二段18-1號","121.502691666667","25.2595066666667","6502100","三芝區"
"208001","170-UY","2019/11/11 19:29:32","新北市金山區中正路26號","121.635693333333","25.2222166666667","6502700","金山區"
"237004","KEA-2597","2019/11/11 19:29:29","新北市三峽區有木205-1號","121.439068333333","24.851665","6500900","三峽區"
"237007","153-BY","2019/11/11 19:29:36","新北市三峽區二鬮路136巷20弄99號","121.358321666667","24.9088433333333","6500900","三峽區"
"237012","275-BY","2019/11/11 19:29:22","新北市三峽區三樹路98巷106號","121.384913333333","24.9410983333333","6500900","三峽區"
"237008","302-VK","2019/11/11 19:29:36","新北市三峽區永安街151號","121.373415","24.9279133333333","6500900","三峽區"
"237014","433-BY","2019/11/11 19:29:32","新北市三峽區中山路277巷10號","121.361685","24.9370383333333","6500900","三峽區"
"237013","280-TH","2019/11/11 19:29:38","新北市三峽區大同路39巷8號","121.376838333333","24.9279683333333","6500900","三峽區"
"237006","5529-G3","2019/11/11 19:29:22","新北市三峽區中正路一段336巷15弄2號","121.369975","24.92496","6500900","三峽區"
"237011","KEA-2596","2019/11/11 19:29:36","新北市三峽區介壽路一段273號","121.380276666667","24.9303","6500900","三峽區"
"237015","649-BX","2019/11/11 19:29:37","新北市三峽區安坑35-7號","121.453253333333","24.9314533333333","6500900","三峽區"
"237010","706-TV","2019/11/11 19:29:37","新北市三峽區國光街25號","121.375415","24.936935","6500900","三峽區"
"237005","AKY-6261","2019/11/11 19:29:34","新北市三峽區中山路175號","121.363728333333","24.936845","6500900","三峽區"
"220089","KED-0812","2019/11/11 19:29:33","新北市板橋區龍泉街94-4號","121.456561666667","25.0250933333333","6500100","板橋區"
"236078","166-UM","2019/11/11 19:29:32","新北市土城區中州路22號","121.414606666667","24.95745","6501300","土城區"
"236030","253-BX","2019/11/11 19:29:23","新北市土城區中央路一段320號","121.443118333333","24.98171","6501300","土城區"
"236026","269-VK","2019/11/11 19:29:30","新北市土城區員林街1號","121.442256666667","24.9781883333333","6501300","土城區"
"236039","271-VK","2019/11/11 19:08:10","新北市土城區清水路32巷16號","121.45737","24.9811166666667","6501300","土城區"
"236069","KEA-2877","2019/11/11 19:29:40","新北市土城區學府路一段159號","121.453271666667","24.98576","6501300","土城區"
"252001","KED-0821","2019/11/11 19:29:40","新北市三芝區長勤街62號","121.500181666667","25.2560333333333","6502100","三芝區"
"236020","401-BY","2019/11/11 19:29:25","新北市土城區峰廷街8號","121.46869","24.9877583333333","6501300","土城區"
"236048","913-UM","2019/11/11 19:29:41","新北市土城區清水路200號","121.46042","24.9818666666667","6501300","土城區"
"236063","915-UM","2019/11/11 19:29:23","新北市土城區金城路三段202-3號","121.469485","24.9884966666667","6501300","土城區"
"236055","AAC-216","2019/11/11 19:29:29","新北市土城區學府路一段276號","121.450103333333","24.98306","6501300","土城區"
"242004","751-BX","2019/11/11 19:29:35","新北市新莊區思源路155號","121.459646666667","25.0444466666667","6500500","新莊區"
"242022","353-BY","2019/11/11 19:29:44","新北市新莊區中平路82巷18號","121.4456","25.0448583333333","6500500","新莊區"
"242009","349-TH","2019/11/11 19:29:39","新北市新莊區三和路12-21號","121.442185","25.03826","6500500","新莊區"
"238023","601-UM","2019/11/11 19:29:42","新北市樹林區中正路825號","121.409246666667","25.0172683333333","6500700","樹林區"
"238019","599-UM","2019/11/11 19:29:31","新北市樹林區鎮前街347巷1弄2號","121.41677","24.9836166666667","6500700","樹林區"
"238024","5061-A6","2019/11/11 19:29:42","新北市樹林區福德街47號","121.399703333333","24.97486","6500700","樹林區"
"238018","KEA-2217","2019/11/11 19:29:31","新北市樹林區中華路227號","121.418765","24.9809766666667","6500700","樹林區"
"238022","KEA-2213","2019/11/11 19:29:36","新北市樹林區中華路188號","121.41354","24.9803016666667","6500700","樹林區"
"238021","KEA-2539","2019/11/11 19:29:30","新北市樹林區大雅路2-1號","121.380628333333","24.9443816666667","6500700","樹林區"
"238025","303-VK","2019/11/11 19:29:32","新北市樹林區中山路二段120號","121.413465","24.9829783333333","6500700","樹林區"
"238017","283-BY","2019/11/11 19:29:30","新北市樹林區光興街196號","121.407986666667","25.00473","6500700","樹林區"
"238014","282-BY","2019/11/11 19:29:37","新北市樹林區千歲街4號","121.424966666667","24.9956266666667","6500700","樹林區"
"238020","268-VK","2019/11/11 19:29:25","新北市樹林區俊英街121巷53號","121.423336666667","25.00937","6500700","樹林區"
"238026","172-UY","2019/11/11 19:29:30","新北市樹林區佳園路三段71號","121.387606666667","24.9528066666667","6500700","樹林區"
"238016","169-UY","2019/11/11 19:29:29","新北市樹林區復興路464巷56號","121.412718333333","24.9836016666667","6500700","樹林區"
"239007","AAC-297","2019/11/11 19:29:41","新北市鶯歌區中山路202號","121.34592","24.9570383333333","6500800","鶯歌區"
"239006","891-R6","2019/11/11 19:29:25","新北市鶯歌區建國路512巷31號","121.339678333333","24.9511633333333","6500800","鶯歌區"
"239008","527-UM","2019/11/11 19:29:30","新北市鶯歌區國際二路6巷2號","121.33838","24.9735966666667","6500800","鶯歌區"
"239005","526-UM","2019/11/11 19:29:42","新北市鶯歌區中湖街88號","121.348258333333","24.97285","6500800","鶯歌區"
"239001","417-VK","2019/11/11 19:29:30","新北市鶯歌區永安街45號","121.338205","24.9562683333333","6500800","鶯歌區"
"239003","360-BY","2019/11/11 19:29:41","新北市鶯歌區鶯桃路352號","121.333903333333","24.9626283333333","6500800","鶯歌區"
"239002","359-BY","2019/11/11 19:29:39","新北市鶯歌區大湖路351號","121.338716666667","24.9712183333333","6500800","鶯歌區"
"239004","193-VK","2019/11/11 19:29:27","新北市鶯歌區二甲路97-3號","121.332988333333","24.9319416666667","6500800","鶯歌區"
"221008","489-VK","2019/11/11 19:29:30","新北市汐止區三民街1巷1號","121.624288333333","25.0668316666667","6501100","汐止區"
"221027","281-BY","2019/11/11 19:29:27","新北市汐止區忠孝東路9號","121.658261666667","25.0659233333333","6501100","汐止區"
"221025","623-UM","2019/11/11 19:29:39","新北市汐止區忠孝東路201號","121.659528333333","25.0654066666667","6501100","汐止區"
"221002","707-TV","2019/11/11 19:29:29","新北市汐止區大同路一段331號","121.638315","25.0592883333333","6501100","汐止區"
"220079","145-BY","2019/11/11 19:29:34","新北市板橋區民權路202巷9弄16號","121.459758333333","25.0155566666667","6500100","板橋區"
"220080","200-UY","2019/11/11 19:29:37","新北市板橋區大觀路二段3巷48號","121.448761666667","25.0034683333333","6500100","板橋區"
"220082","610-BX","2019/11/11 19:29:24","新北市板橋區金門街262號","121.429981666667","24.9865333333333","6500100","板橋區"
"220056","276-BY","2019/11/11 19:29:26","新北市板橋區和平路4-1號","121.458263333333","24.9943466666667","6500100","板橋區"
"220072","277-BY","2019/11/11 19:29:42","新北市板橋區篤行路二段161巷16-1號","121.429701666667","24.9874666666667","6500100","板橋區"
"220101","280-UM","2019/11/11 19:29:34","新北市板橋區莊敬路231號","121.472533333333","25.0214733333333","6500100","板橋區"
"220094","283-UM","2019/11/11 19:29:35","新北市板橋區銘傳街58號","121.468693333333","25.0310233333333","6500100","板橋區"
"220071","283-VK","2019/11/11 19:29:30","新北市板橋區忠孝路48巷9弄28號","121.461978333333","25.0001483333333","6500100","板橋區"
"220053","285-VK","2019/11/11 19:29:38","新北市板橋區懷仁街77巷18號","121.477588333333","25.0188733333333","6500100","板橋區"
"220083","286-VK","2019/11/11 19:29:40","新北市板橋區大觀路二段174巷163弄1號","121.44163","25.0031316666667","6500100","板橋區"
"220081","287-VK","2019/11/11 19:29:35","新北市板橋區南雅南路一段106號","121.454986666667","25.00439","6500100","板橋區"
"220090","288-VK","2019/11/11 19:29:34","新北市板橋區長江路一段48巷9號","121.459206666667","25.0284416666667","6500100","板橋區"
"220061","293-UM","2019/11/11 19:29:27","新北市板橋區中山路二段87號","121.473905","25.015815","6500100","板橋區"
"220084","296-UM","2019/11/11 19:29:41","新北市板橋區篤行路三段2號","121.429143333333","24.9879516666667","6500100","板橋區"
"220075","303-R5","2019/11/11 19:29:26","新北市板橋區中正路275巷93號","121.450793333333","25.0180666666667","6500100","板橋區"
"220062","305-R5","2019/11/11 19:29:30","新北市板橋區三民路二段161號","121.479183333333","25.0147316666667","6500100","板橋區"
"220092","307-R5","2019/11/11 19:29:42","新北市板橋區四維路103巷33號","121.464311666667","25.0238116666667","6500100","板橋區"
"220098","317-R6","2019/11/11 19:29:27","新北市板橋區民有街89巷4號","121.464493333333","25.0274916666667","6500100","板橋區"
"220088","491-VK","2019/11/11 19:29:36","新北市板橋區文化路二段578號","121.476656666667","25.0346083333333","6500100","板橋區"
"220035","560-BX","2019/11/11 19:29:34","新北市板橋區中正路362號","121.454386666667","25.0238316666667","6500100","板橋區"
"220103","561-BX","2019/11/11 19:29:36","新北市板橋區陽明街27巷6號","121.465563333333","25.02159","6500100","板橋區"
"220063","609-BX","2019/11/11 19:29:34","新北市板橋區中山路二段531巷17弄22號","121.482123333333","25.0220033333333","6500100","板橋區"
"220091","637-BX","2019/11/11 19:29:38","新北市板橋區文聖街149巷25號","121.479496666667","25.0285683333333","6500100","板橋區"
"220057","686-BX","2019/11/11 19:29:35","新北市板橋區國慶路147號","121.461335","24.9960516666667","6500100","板橋區"
"220077","687-BX","2019/11/11 19:29:29","新北市板橋區大觀路一段28巷62號","121.449868333333","25.0104166666667","6500100","板橋區"
"220093","689-BX","2019/11/11 19:29:26","新北市板橋區長江路一段109號","121.459735","25.029745","6500100","板橋區"
"220054","741-BX","2019/11/11 19:29:33","新北市板橋區重慶路155巷25號","121.463251666667","25.0040516666667","6500100","板橋區"
"220102","KEA-2699","2019/11/11 19:29:29","新北市板橋區松柏街42-1號","121.475196666667","25.0299816666667","6500100","板橋區"
"220055","827-TW","2019/11/11 19:29:33","新北市板橋區實踐路108號","121.464126666667","25.00454","6500100","板橋區"
"220067","829-TW","2019/11/11 19:29:28","新北市板橋區漢生東路313巷2弄1號","121.472271666667","25.008245","6500100","板橋區"
"220068","830-TW","2019/11/11 19:29:34","新北市板橋區萬安街55-1號","121.483923333333","25.0238483333333","6500100","板橋區"
"220074","895-R6","2019/11/11 19:29:26","新北市板橋區後菜園街4號","121.457663333333","25.010455","6500100","板橋區"
"220073","985-R7","2019/11/11 19:29:33","新北市板橋區中正路387號","121.454326666667","25.02179","6500100","板橋區"
"220097","AAC-210","2019/11/11 19:29:37","新北市板橋區漢生西路58巷10號","121.463545","25.0189566666667","6500100","板橋區"
"220064","AAC-253","2019/11/11 19:29:35","新北市板橋區館前東路96號","121.462338333333","25.007475","6500100","板橋區"
"235068","KEA-2873","2019/11/11 19:29:13","新北市中和區景平路493巷12弄21號","121.498726666667","24.9971316666667","6500300","中和區"
"235061","KEA-2875","2019/11/11 19:29:32","新北市中和區員山路146-3號","121.481215","24.9969566666667","6500300","中和區"
