"lineid","car","time","location","longitude","latitude","cityid","cityname"
"231042","001-UM","2019/11/11 21:13:36","新北市新店區薏仁坑路23號","121.498133333333","24.9589883333333","6500600","新店區"
"231060","106-UY","2019/11/11 21:13:35","新北市新店區安康路二段391號","121.494478333333","24.9542516666667","6500600","新店區"
"231051","107-UY","2019/11/11 21:13:39","新北市新店區中正路680巷51弄11號","121.535511666667","24.98949","6500600","新店區"
"231068","187-VK","2019/11/11 21:13:26","新北市新店區安德街148巷31號","121.506681666667","24.9609883333333","6500600","新店區"
"231050","AAD-862","2019/11/11 21:13:30","新北市新店區華興街6號","121.538038333333","24.9699183333333","6500600","新店區"
"231040","617-UM","2019/11/11 21:13:30","新北市新店區北新路一段129號","121.5395","24.9627783333333","6500600","新店區"
"231063","641-BX","2019/11/11 21:13:32","新北市新店區玫瑰路57巷11號","121.496165","24.9463033333333","6500600","新店區"
"231059","897-TW","2019/11/11 21:13:24","新北市新店區僑義路39號","121.500583333333","24.9502283333333","6500600","新店區"
"241011","013-R5","2019/11/11 21:13:30","新北市三重區龍濱路114號","121.502091666667","25.0701833333333","6500200","三重區"
"241028","022-UY","2019/11/11 21:13:41","新北市三重區同安街113號","121.494316666667","25.0563316666667","6500200","三重區"
"241008","059-VK","2019/11/11 21:13:23","新北市三重區自強路一段60號","121.497335","25.0667016666667","6500200","三重區"
"241023","060-VK","2019/11/11 21:13:35","新北市三重區中正北路176巷27號","121.482651666667","25.06594","6500200","三重區"
"241031","061-VK","2019/11/11 21:13:33","新北市三重區重新路五段408巷19號","121.475726666667","25.0455533333333","6500200","三重區"
"241015","062-VK","2019/11/11 21:13:25","新北市三重區河邊北街23號","121.504283333333","25.0654466666667","6500200","三重區"
"241017","063-VK","2019/11/11 21:13:30","新北市三重區國隆路31號","121.492468333333","25.0645666666667","6500200","三重區"
"241024","065-VK","2019/11/11 21:13:40","新北市三重區中正北路145巷5弄11號","121.484928333333","25.0673033333333","6500200","三重區"
"241007","066-VK","2019/11/11 21:13:26","新北市三重區車路頭街135-1號","121.484228333333","25.0761866666667","6500200","三重區"
"241002","090-VK","2019/11/11 21:13:26","新北市三重區五華街19號","121.494916666667","25.0804383333333","6500200","三重區"
"241003","091-VK","2019/11/11 21:13:29","新北市三重區仁義街228巷1號","121.494913333333","25.0848233333333","6500200","三重區"
"241009","742-BX","2019/11/11 21:13:36","新北市三重區忠孝路三段32號","121.481365","25.06676","6500200","三重區"
"241006","262-UM","2019/11/11 21:13:35","新北市三重區重陽路二段67號","121.487803333333","25.0637716666667","6500200","三重區"
"241014","316-R6","2019/11/11 21:13:39","新北市三重區長安街82-1號","121.501355","25.0677016666667","6500200","三重區"
"241016","266-UM","2019/11/11 21:13:23","新北市三重區信義西街35號","121.495088333333","25.064365","6500200","三重區"
"241018","268-UM","2019/11/11 21:13:40","新北市三重區忠孝路一段38號","121.491195","25.07193","6500200","三重區"
"241032","269-UM","2019/11/11 21:13:23","新北市三重區中興北街134-1號","121.468973333333","25.0559333333333","6500200","三重區"
"241013","270-UM","2019/11/11 21:13:41","新北市三重區仁愛街81-1號","121.495901666667","25.073135","6500200","三重區"
"241025","271-UM","2019/11/11 21:13:33","新北市三重區中正北路208巷8號","121.482283333333","25.0669533333333","6500200","三重區"
"241030","KED-0822","2019/11/11 21:13:34","新北市三重區五谷王北街20巷15弄1號","121.475093333333","25.0484483333333","6500200","三重區"
"241004","475-VK","2019/11/11 21:13:35","新北市三重區仁愛街423-1號","121.490398333333","25.0814366666667","6500200","三重區"
"241026","480-VK","2019/11/11 21:13:39","新北市三重區中正南路184-1號","121.494148333333","25.0563116666667","6500200","三重區"
"241001","547-UM","2019/11/11 21:13:32","新北市三重區福隆路101號","121.492405","25.07834","6500200","三重區"
"241019","KEA-2593","2019/11/11 21:13:37","新北市三重區重陽路四段2號","121.49056","25.0686716666667","6500200","三重區"
"241005","AAD-863","2019/11/11 21:13:25","新北市三重區仁華街85號","121.485838333333","25.0829866666667","6500200","三重區"
"241012","743-BX","2019/11/11 21:13:40","新北市三重區龍門路229號","121.501586666667","25.0739133333333","6500200","三重區"
"241022","KED-0820","2019/11/11 21:13:26","新北市三重區中正北路64巷24號","121.486086666667","25.0636933333333","6500200","三重區"
"241029","942-UM","2019/11/11 21:13:24","新北市三重區正義南路111號","121.498236666667","25.0585533333333","6500200","三重區"
"241033","AAC-255","2019/11/11 21:13:23","新北市三重區光復路二段126巷3號","121.47175","25.0589266666667","6500200","三重區"
"235055","183-VK","2019/11/11 21:13:34","新北市中和區員山路36巷12號","121.484046666667","24.9906983333333","6500300","中和區"
"247010","KED-0682","2019/11/11 21:13:37","新北市蘆洲區鷺江街19號","121.47898","25.0824733333333","6501400","蘆洲區"
"247006","893-R6","2019/11/11 21:13:36","新北市蘆洲區長安街22巷6號","121.464438333333","25.0794566666667","6501400","蘆洲區"
"247020","546-UM","2019/11/11 21:13:32","新北市蘆洲區民族路426巷19號","121.472926666667","25.092945","6501400","蘆洲區"
"247004","341-TH","2019/11/11 21:13:24","新北市蘆洲區永安南路二段312號","121.457046666667","25.082655","6501400","蘆洲區"
"247024","057-VK","2019/11/11 21:13:40","新北市蘆洲區長興路50巷1號","121.463766666667","25.083755","6501400","蘆洲區"
"247014","056-VK","2019/11/11 21:13:34","新北市蘆洲區中央路155號","121.472596666667","25.084735","6501400","蘆洲區"
"247018","053-VK","2019/11/11 21:13:35","新北市蘆洲區復興路111-6號","121.476473333333","25.0883833333333","6501400","蘆洲區"
"247011","007-UY","2019/11/11 21:13:40","新北市蘆洲區三民路202號","121.469176666667","25.0889683333333","6501400","蘆洲區"
"247008","002-UY","2019/11/11 21:13:24","新北市蘆洲區信義路34巷15號","121.474791666667","25.07894","6501400","蘆洲區"
"247002","001-UY","2019/11/11 21:13:40","新北市蘆洲區永樂街38巷40號","121.458548333333","25.09014","6501400","蘆洲區"
"251009","008-UM","2019/11/11 21:13:33","新北市淡水區民族路112巷66號","121.461991666667","25.1343133333333","6501000","淡水區"
"251004","009-UM","2019/11/11 21:13:35","新北市淡水區民族路33號","121.4623","25.1358466666667","6501000","淡水區"
"251005","010-UM","2019/11/11 21:13:38","新北市淡水區仁愛街4號","121.446283333333","25.1703616666667","6501000","淡水區"
"251002","012-UM","2019/11/11 21:13:36","新北市淡水區水源街二段34巷3號","121.450205","25.1732983333333","6501000","淡水區"
"251015","KEA-2871","2019/11/11 21:13:29","新北市淡水區淡金路四段542巷85號","121.455353333333","25.2264983333333","6501000","淡水區"
"251016","180-VK","2019/11/11 21:13:23","新北市淡水區前洲子5-2號","121.444851666667","25.2178933333333","6501000","淡水區"
"251008","181-VK","2019/11/11 21:13:26","新北市淡水區北投子95號","121.465886666667","25.1772016666667","6501000","淡水區"
"251013","182-VK","2019/11/11 21:13:23","新北市淡水區行忠路330號","121.460676666667","25.1998983333333","6501000","淡水區"
"251010","413-VK","2019/11/11 21:13:37","新北市淡水區中正路一段63巷1弄1號","121.423598333333","25.1774583333333","6501000","淡水區"
"251012","441-VK","2019/11/11 21:13:37","新北市淡水區淡金路五段91號","121.456238333333","25.2363966666667","6501000","淡水區"
"251001","559-UM","2019/11/11 21:13:25","新北市淡水區中山北路二段163號","121.444375","25.1842716666667","6501000","淡水區"
"251014","577-R6","2019/11/11 21:13:31","新北市淡水區六塊厝2-1號","121.450138333333","25.2404533333333","6501000","淡水區"
"251011","650-BX","2019/11/11 21:13:38","新北市淡水區新民街120巷45弄10號","121.43802","25.1797383333333","6501000","淡水區"
"251003","673-BX","2019/11/11 21:13:41","新北市淡水區新春街94號","121.439076666667","25.1823766666667","6501000","淡水區"
"247012","KED-0683","2019/11/11 21:13:36","新北市蘆洲區民族路236巷15號","121.479865","25.08855","6501400","蘆洲區"
"242022","353-BY","2019/11/11 21:12:44","新北市五股區中直路17-4號","121.422905","25.1113183333333","6500500","新莊區"
"242015","132-UY","2019/11/11 21:13:39","新北市八里區商港路105巷15號","121.39084","25.1488283333333","6500500","新莊區"
