"lineid","car","time","location","longitude","latitude","cityid","cityname"
"244012","KEA-2802","2019/09/30 09:29:37","新北市林口區麗園一街6巷9-1號","121.375545","25.07159","6501700","林口區"
"244022","483-VK","2019/09/30 09:29:29","新北市林口區仁愛路二段62巷19號","121.384018333333","25.0762283333333","6501700","林口區"
"244016","485-VK","2019/09/30 09:29:32","新北市林口區公園路133-3號","121.369466666667","25.0707033333333","6501700","林口區"
"244008","656-BX","2019/09/30 09:29:29","新北市林口區竹林路330巷9號","121.392285","25.0829733333333","6501700","林口區"
"244010","701-TV","2019/09/30 09:29:33","新北市林口區中正路332號","121.387356666667","25.0779733333333","6501700","林口區"
"244024","837-TS","2019/09/30 09:29:35","新北市林口區文化三路一段555巷66號","121.369163333333","25.0762","6501700","林口區"
"222004","289-BY","2019/09/30 09:29:28","新北市深坑區土庫尖路27-1號","121.636596666667","25.0169633333333","6501800","深坑區"
"231007","189-VK","2019/09/30 09:29:26","新北市新店區新潭路三段119號","121.509251666667","24.9109633333333","6500600","新店區"
"231008","192-VK","2019/09/30 09:24:33","新北市新店區平廣路一段256號","121.507863333333","24.8883366666667","6500600","新店區"
"227003","282-VK","2019/09/30 09:29:33","新北市雙溪區泰平里溪尾寮1號","121.819586666667","24.9675366666667","6502500","雙溪區"
"252006","AAC-283","2019/09/30 09:29:21","新北市三芝區新庄里新庄子125-1號","121.50871","25.2674066666667","6502100","三芝區"
"242040","AAC-296","2019/09/30 09:29:33","新北市新莊區中正路694巷10號","121.418413333333","25.0284233333333","6500500","新莊區"
"242059","986-R7","2019/09/30 09:29:31","新北市新莊區瓊林路瓊英巷4弄4號","121.44368","25.02753","6500500","新莊區"
"242003","751-BX","2019/09/30 09:29:21","新北市新莊區化成路287號","121.466095","25.05491","6500500","新莊區"
"242057","612-BX","2019/09/30 09:29:34","新北市新莊區四維路188巷2號","121.421821666667","25.020775","6500500","新莊區"
"242047","566-BX","2019/09/30 09:29:30","新北市新莊區龍安路218號","121.420176666667","25.0198783333333","6500500","新莊區"
"242001","441-UM","2019/09/30 09:29:33","新北市新莊區中港路59號","121.455055","25.0385233333333","6500500","新莊區"
"242043","415-TV","2019/09/30 09:29:20","新北市新莊區中正路新建巷28弄27號","121.414041666667","25.02158","6500500","新莊區"
"242012","413-TV","2019/09/30 09:29:26","新北市新莊區建中街32巷24號","121.448601666667","25.038845","6500500","新莊區"
"242049","400-BY","2019/09/30 09:29:18","新北市新莊區新樹路206巷4號","121.433645","25.0204366666667","6500500","新莊區"
"242024","362-BY","2019/09/30 09:29:34","新北市新莊區新泰路357巷3弄57號","121.442016666667","25.0390733333333","6500500","新莊區"
"242014","132-UY","2019/09/30 09:29:30","新北市新莊區中和街19號","121.448213333333","25.0436516666667","6500500","新莊區"
"242038","135-UY","2019/09/30 09:29:26","新北市新莊區瓊林路59-66號","121.44114","25.0226866666667","6500500","新莊區"
"242055","172-VK","2019/09/30 09:29:27","新北市新莊區新莊路713巷5弄3號","121.443783333333","25.032105","6500500","新莊區"
"242030","175-VK","2019/09/30 09:29:31","新北市新莊區三泰路4號","121.440741666667","25.0340266666667","6500500","新莊區"
"242010","346-TH","2019/09/30 09:29:27","新北市新莊區中榮街128號","121.446375","25.0527866666667","6500500","新莊區"
"242052","347-TH","2019/09/30 09:29:21","新北市新莊區西盛街323巷6號","121.428553333333","25.0146716666667","6500500","新莊區"
"242035","348-TH","2019/09/30 09:29:37","新北市新莊區建安街62巷14號","121.426923333333","25.0251883333333","6500500","新莊區"
"242008","349-TH","2019/09/30 09:29:34","新北市新莊區環河路116-1號","121.460645","25.0378116666667","6500500","新莊區"
"242033","350-TH","2019/09/30 09:29:25","新北市新莊區新泰路168號","121.447563333333","25.0377366666667","6500500","新莊區"
"244018","KED-0667","2019/09/30 09:29:31","新北市林口區麗園二街38巷13號","121.380515","25.068805","6501700","林口區"
"220021","259-TC","2019/09/30 09:29:26","新北市板橋區華東街1-10號","121.448601666667","24.9948866666667","6500100","板橋區"
"242045","281-VK","2019/09/30 09:29:27","新北市新莊區裕民街72巷19號","121.4178","25.0242933333333","6500500","新莊區"
