"lineid","car","time","location","longitude","latitude","cityid","cityname"
"244022","483-VK","2019/09/30 09:59:38","新北市林口區民權路66號","121.372795","25.0813","6501700","林口區"
"231007","189-VK","2019/09/30 09:59:23","新北市新店區新潭路二段66號","121.520953333333","24.9263833333333","6500600","新店區"
"231008","192-VK","2019/09/30 09:49:38","新北市新店區小坑一路21-1號","121.531018333333","24.9119183333333","6500600","新店區"
"227003","282-VK","2019/09/30 09:59:33","新北市雙溪區泰平里灣潭路36號","121.811278333333","24.928835","6502500","雙溪區"
"252006","AAC-283","2019/09/30 09:59:21","新北市三芝區新庄里新庄子51-25號","121.50751","25.2780683333333","6502100","三芝區"
"242059","986-R7","2019/09/30 09:59:31","新北市新莊區新樹路288-23號","121.432628333333","25.01206","6500500","新莊區"
"242001","441-UM","2019/09/30 09:59:33","新北市樹林區中山路三段214號","121.380166666667","24.96795","6500500","新莊區"
"220021","259-TC","2019/09/30 09:59:26","新北市板橋區華東街1-10號","121.448545","24.99496","6500100","板橋區"
