"lineid","car","time","location","longitude","latitude","cityid","cityname"
"232006","291-BY","2019/10/01 06:39:22","新北市坪林區北宜路八段558號","121.71801","24.909165","6502000","坪林區"
"232002","758-BX","2019/10/01 06:39:20","新北市坪林區北宜路八段558號","121.718018333333","24.9093866666667","6502000","坪林區"
"223006","022-BY","2019/10/01 06:39:21","新北市石碇區楓子林55-5號","121.642876666667","25.0080583333333","6501900","石碇區"
"223002","KEA-2673","2019/10/01 06:39:27","新北市石碇區石碇東街135號","121.659223333333","24.9898166666667","6501900","石碇區"
"223003","205-TH","2019/10/01 06:39:16","新北市石碇區小粗坑(潭邊里)2-1號","121.671723333333","24.9825","6501900","石碇區"
"223008","406-TH","2019/10/01 06:39:29","新北市石碇區小粗坑(潭邊里)15-3號","121.678748333333","24.9782533333333","6501900","石碇區"
"223001","592-UM","2019/10/01 06:39:32","新北市石碇區小粗坑(潭邊里)1-7號","121.672681666667","24.982805","6501900","石碇區"
"223007","661-BX","2019/10/01 06:39:25","新北市石碇區碇坪路一段10號","121.651641666667","25.006015","6501900","石碇區"
"227004","282-VK","2019/10/01 06:39:22","新北市雙溪區牡丹里聖南19號","121.857706666667","25.0526466666667","6502500","雙溪區"
