"lineid","car","time","location","longitude","latitude","cityid","cityname"
"222004","016-RS","2019/06/22 09:09:34","新北市深坑區王軍寮15號","121.613136666667","24.9817483333333","6501800","深坑區"
"231008","512-UM","2019/06/22 09:09:23","新北市新店區平廣路一段92巷7號","121.529953333333","24.8983066666667","6500600","新店區"
"226007","7418-A5","2019/06/22 09:09:33","新北市平溪區東勢里芊蓁林31號","121.751553333333","25.0194733333333","6502400","平溪區"
"226003","AGD-0702","2019/06/22 09:08:38","新北市平溪區嶺腳里嶺腳寮114號","121.745646666667","25.0333566666667","6502400","平溪區"
"223003","205-TH","2019/06/22 09:07:49","新北市石碇區北宜路六段十三股巷1號","121.649031666667","24.9459083333333","6501900","石碇區"
"223008","406-TH","2019/06/22 08:56:32","新北市石碇區光明路13號","121.679991666667","25.0335916666667","6501900","石碇區"
"223001","592-UM","2019/06/22 09:09:37","新北市石碇區北宜路六段十三股巷1號","121.64907","24.9477416666667","6501900","石碇區"
"223004","660-BX","2019/06/22 09:09:30","新北市石碇區磨石坑36號","121.692166666667","24.9666866666667","6501900","石碇區"
"223007","661-BX","2019/06/22 09:09:33","新北市石碇區光明路10-3號","121.681391666667","25.029695","6501900","石碇區"
"223005","677-TV","2019/06/22 09:09:33","新北市石碇區磨石坑36-10號","121.691556666667","24.9671033333333","6501900","石碇區"
"224009","275-VK","2019/06/22 09:09:30","新北市瑞芳區九芎橋路16號","121.832488333333","25.0920266666667","6501200","瑞芳區"
"227004","282-VK","2019/06/22 09:09:37","新北市雙溪區外柑里土地公後4-1號","121.816258333333","25.0232683333333","6502500","雙溪區"
"252004","249-BX","2019/06/22 09:09:33","新北市三芝區興華里車埕69-1號","121.493396666667","25.1935433333333","6502100","三芝區"
"252007","AAC-283","2019/06/22 09:09:20","新北市三芝區樂全街2號","121.487675","25.259655","6502100","三芝區"
"237014","760-BX","2019/06/22 09:09:20","新北市三峽區中山路459巷163-3號","121.348858333333","24.9331616666667","6500900","三峽區"
