"lineid","car","time","location","longitude","latitude","cityid","cityname"
"222004","016-RS","2019/06/22 09:29:34","新北市深坑區文山路三段15號","121.613106666667","24.9977033333333","6501800","深坑區"
"231008","512-UM","2019/06/22 09:21:23","新北市新店區平廣路一段290號","121.504361666667","24.8856366666667","6500600","新店區"
"223003","205-TH","2019/06/22 09:29:29","新北市石碇區北宜路五段火燒樟巷11號","121.625806666667","24.9545216666667","6501900","石碇區"
"223001","592-UM","2019/06/22 09:29:36","新北市石碇區北宜路五段火燒樟巷11號","121.625735","24.9545","6501900","石碇區"
"223004","660-BX","2019/06/22 09:29:30","新北市石碇區磨石坑14-2號","121.687693333333","24.9727483333333","6501900","石碇區"
"223007","661-BX","2019/06/22 09:29:33","新北市石碇區光明路32號","121.695136666667","25.0225833333333","6501900","石碇區"
"223005","677-TV","2019/06/22 09:28:21","新北市石碇區大崙13-1號","121.689045","24.9793916666667","6501900","石碇區"
"224009","275-VK","2019/06/22 09:29:30","新北市瑞芳區明燈路三段35號","121.807121666667","25.1078716666667","6501200","瑞芳區"
"227004","282-VK","2019/06/22 09:29:37","新北市雙溪區長源里土地公山1-1號","121.79983","25.0140683333333","6502500","雙溪區"
"252004","249-BX","2019/06/22 09:29:33","新北市三芝區店子里店子112-4號","121.510406666667","25.20957","6502100","三芝區"
"252007","AAC-283","2019/06/22 09:29:40","新北市三芝區淡金路二段76-2號","121.50413","25.261395","6502100","三芝區"
"237014","760-BX","2019/06/22 09:13:15","新北市三峽區中山路459巷163-3號","121.348828333333","24.9330283333333","6500900","三峽區"
