"lineid","car","time","location","longitude","latitude","cityid","cityname"
"231008","512-UM","2019/06/22 09:21:23","新北市新店區平廣路一段290號","121.504361666667","24.8856366666667","6500600","新店區"
"223005","677-TV","2019/06/22 09:46:53","新北市石碇區小粗坑(潭邊里)1-6號","121.672356666667","24.9827366666667","6501900","石碇區"
"227004","282-VK","2019/06/22 09:43:57","新北市雙溪區長源里盤山坑16號","121.777076666667","24.9985416666667","6502500","雙溪區"
"252004","249-BX","2019/06/22 09:48:53","新北市三芝區福德里大水堀26號","121.512455","25.2191216666667","6502100","三芝區"
"252007","AAC-283","2019/06/22 09:49:00","新北市三芝區新庄里新庄子95-8號","121.513891666667","25.2743933333333","6502100","三芝區"
