"lineid","car","time","location","longitude","latitude","cityid","cityname"
"234044","148-BY","2019/06/22 12:59:06","新北市永和區得和路373巷16弄1號","121.525133333333","25.000315","6500400","永和區"
"234036","336-UY","2019/06/22 12:59:09","新北市永和區成功路二段207號","121.526588333333","24.9958733333333","6500400","永和區"
"234062","337-UY","2019/06/22 12:59:07","新北市永和區秀朗路一段198號","121.519348333333","25.0032116666667","6500400","永和區"
"234084","338-UY","2019/06/22 12:59:07","新北市永和區中正路446號","121.51742","25.00284","6500400","永和區"
"234068","552-UM","2019/06/22 12:59:12","新北市永和區竹林路96巷21號","121.518665","25.0118733333333","6500400","永和區"
"234015","745-BX","2019/06/22 12:59:15","新北市永和區永和路二段299號","121.51605","25.0160983333333","6500400","永和區"
"234028","746-BX","2019/06/22 12:59:10","新北市永和區得和路420號","121.526208333333","24.9988433333333","6500400","永和區"
"234052","KEA-2590","2019/06/22 12:59:14","新北市永和區竹林路66巷15-7號","121.51835","25.0132316666667","6500400","永和區"
"234005","KED-0605","2019/06/22 12:59:07","新北市永和區永和路二段98號","121.51517","25.011715","6500400","永和區"
"234012","KEA-2591","2019/06/22 12:59:03","新北市永和區信義路19號","121.514101666667","25.0119366666667","6500400","永和區"
"234060","AAD-866","2019/06/22 12:59:07","新北市永和區福和路307號","121.51625","25.0072016666667","6500400","永和區"
"234078","748-BX","2019/06/22 12:59:14","新北市永和區永亨路67-1號","121.521268333333","25.0060183333333","6500400","永和區"
"234040","862-TW","2019/06/22 12:59:05","新北市永和區永貞路267號","121.511791666667","25.0047883333333","6500400","永和區"
"234048","863-TW","2019/06/22 12:58:59","新北市永和區文化路208號","121.510265","25.01653","6500400","永和區"
"234025","9371-KE","2019/06/22 12:59:14","新北市永和區永和路一段1號","121.513036666667","25.0051116666667","6500400","永和區"
"234010","9373-KE","2019/06/22 12:59:16","新北市永和區文化路113巷23弄7號","121.51348","25.0139866666667","6500400","永和區"
"248017","KED-0813","2019/06/22 12:59:12","新北市五股區中興路二段57-6號","121.460335","25.0752983333333","6501500","五股區"
"234022","9380-KE","2019/06/22 12:59:12","新北市永和區環河東路二段8號","121.522208333333","25.01348","6500400","永和區"
"234076","969-R7","2019/06/22 12:59:00","新北市永和區智光街126號","121.514971666667","24.9956633333333","6500400","永和區"
"234072","AAC-211","2019/06/22 12:59:05","新北市永和區環河東路二段100號","121.524145","25.0103333333333","6500400","永和區"
"234066","AAC-212","2019/06/22 12:59:02","新北市永和區自由街76號","121.513318333333","25.00527","6500400","永和區"
"234001","AAC-295","2019/06/22 12:59:11","新北市永和區永平路28號","121.51322","25.00879","6500400","永和區"
"244005","248-BX","2019/06/22 12:59:09","新北市林口區粉寮路一段147號","121.399161666667","25.0812833333333","6501700","林口區"
"231029","001-UM","2019/06/22 12:58:55","新北市新店區安華路28-1號","121.519541666667","24.9609166666667","6500600","新店區"
"231030","002-UM","2019/06/22 12:59:03","新北市新店區安華路28-1號","121.519618333333","24.9608583333333","6500600","新店區"
"231028","046-UY","2019/06/22 12:59:04","新北市新店區安華路28-1號","121.519576666667","24.9607666666667","6500600","新店區"
"231018","107-UY","2019/06/22 12:59:00","新北市新店區安一路一段1-1號","121.519685","24.9613033333333","6500600","新店區"
"231036","110-UY","2019/06/22 12:59:01","新北市新店區安一路一段1-1號","121.519503333333","24.961175","6500600","新店區"
"231023","260-TV","2019/06/22 12:59:10","新北市新店區安一路一段1-1號","121.519425","24.9611166666667","6500600","新店區"
"231003","268-BY","2019/06/22 12:59:06","新北市新店區安一路一段1-1號","121.519773333333","24.9613683333333","6500600","新店區"
"231017","AAD-862","2019/06/22 12:59:01","新北市新店區安一路一段1-1號","121.519653333333","24.961205","6500600","新店區"
"231024","4716-K9","2019/06/22 12:58:59","新北市新店區安華路28-1號","121.519611666667","24.960535","6500600","新店區"
"231020","513-UM","2019/06/22 12:58:59","新北市新店區安一路一段1-1號","121.519635","24.9611233333333","6500600","新店區"
"231001","617-UM","2019/06/22 12:59:17","新北市新店區安華路28-1號","121.519478333333","24.9609733333333","6500600","新店區"
"231010","719-UM","2019/06/22 12:59:05","新北市新店區安一路一段1-1號","121.519548333333","24.9612633333333","6500600","新店區"
"231026","720-UM","2019/06/22 12:59:08","新北市新店區安一路一段1-1號","121.519075","24.9613533333333","6500600","新店區"
"231004","899-TW","2019/06/22 12:58:56","新北市新店區安華路3號","121.518603333333","24.9607566666667","6500600","新店區"
"235027","006-UY","2019/06/22 12:59:10","新北市中和區員山路36巷16-3號","121.48512","24.9913566666667","6500300","中和區"
"235022","151-BY","2019/06/22 12:59:13","新北市中和區圓通路367巷29號","121.492623333333","24.9856183333333","6500300","中和區"
"235002","185-VK","2019/06/22 12:59:05","新北市中和區成功路70號","121.525995","24.991985","6500300","中和區"
"235031","255-BX","2019/06/22 12:59:11","新北市中和區中山路二段550號","121.484126666667","25.005205","6500300","中和區"
"235006","KEA-2878","2019/06/22 12:59:09","新北市中和區中正路221號","121.496081666667","24.9936183333333","6500300","中和區"
"235033","4980-A6","2019/06/22 12:59:12","新北市中和區員山路36巷16-2號","121.485356666667","24.9917833333333","6500300","中和區"
"235005","551-UM","2019/06/22 12:58:57","新北市中和區員山路36巷16-2號","121.485388333333","24.9916666666667","6500300","中和區"
"235034","558-UM","2019/06/22 12:58:56","新北市中和區和城路一段271巷1號","121.4854","24.9917583333333","6500300","中和區"
"235024","KED-0823","2019/06/22 12:58:57","新北市中和區和城路一段271巷1號","121.48552","24.99165","6500300","中和區"
"235035","783-BX","2019/06/22 12:59:00","新北市中和區連城路469巷7號","121.483636666667","24.995665","6500300","中和區"
"235026","800-TS","2019/06/22 12:59:15","新北市中和區中正路548號","121.487046666667","24.9944233333333","6500300","中和區"
"235021","801-TS","2019/06/22 12:59:12","新北市中和區員山路36巷16-3號","121.485118333333","24.9914466666667","6500300","中和區"
"235017","900-TW","2019/06/22 12:58:54","新北市中和區員山路36巷16-2號","121.48524","24.9915066666667","6500300","中和區"
"235028","911-UM","2019/06/22 12:59:13","新北市中和區員山路36巷16-3號","121.48507","24.9914","6500300","中和區"
"235015","157-BY","2019/06/22 12:59:02","新北市中和區和城路一段271巷1號","121.485415","24.9917266666667","6500300","中和區"
"235001","AAC-213","2019/06/22 12:59:00","新北市中和區景平路149號","121.513746666667","24.9922333333333","6500300","中和區"
"235023","AAC-215","2019/06/22 12:58:58","新北市中和區員山路36巷16-3號","121.48503","24.9914166666667","6500300","中和區"
"247011","056-VK","2019/06/22 12:59:11","新北市五股區中興路三段2巷10號","121.449151666667","25.0809766666667","6501400","蘆洲區"
"228004","212-TW","2019/06/22 12:58:55","新北市貢寮區吉林里內寮街10號","121.888071666667","24.98996","6502600","貢寮區"
"228005","828-UM","2019/06/22 12:58:54","新北市貢寮區仁理村研海街45號","121.926451666667","25.0407766666667","6502600","貢寮區"
"207002","749-BX","2019/06/22 12:59:09","新北市萬里區雙興里大坪路39號","121.625373333333","25.1714333333333","6502800","萬里區"
"207001","662-BX","2019/06/22 12:59:01","新北市萬里區萬里里獅頭路22-1號","121.693021666667","25.178275","6502800","萬里區"
"220002","741-BX","2019/06/22 12:59:10","新北市板橋區華東街1-9號","121.448176666667","24.9949233333333","6500100","板橋區"
"235032","KEA-2873","2019/06/22 12:58:52","新北市中和區員山路36巷16-3號","121.48498","24.99128","6500300","中和區"
"235025","KEA-2875","2019/06/22 12:58:53","新北市中和區員山路36巷16-2號","121.485276666667","24.991655","6500300","中和區"
