"lineid","car","time","location","longitude","latitude","cityid","cityname"
"234044","148-BY","2019/06/22 13:09:06","新北市永和區永元路18巷30號","121.523546666667","25.0001566666667","6500400","永和區"
"234036","336-UY","2019/06/22 13:09:18","新北市永和區民樂街75巷1號","121.527376666667","24.9970516666667","6500400","永和區"
"234062","337-UY","2019/06/22 13:09:07","新北市永和區秀朗路二段48號","121.521655","25.0022183333333","6500400","永和區"
"234084","338-UY","2019/06/22 13:09:10","新北市永和區永貞路113號","121.51758","25.0043083333333","6500400","永和區"
"234068","552-UM","2019/06/22 13:09:12","新北市永和區豫溪街95巷8號","121.518158333333","25.01077","6500400","永和區"
"234015","745-BX","2019/06/22 13:08:56","新北市永和區文化路90巷12號","121.513866666667","25.0157966666667","6500400","永和區"
"234028","746-BX","2019/06/22 13:09:10","新北市永和區民生路23號","121.522911666667","24.9988116666667","6500400","永和區"
"234052","KEA-2590","2019/06/22 13:08:56","新北市永和區中興街133巷8號","121.518745","25.012765","6500400","永和區"
"234005","KED-0605","2019/06/22 13:09:07","新北市永和區中山路一段137號","121.510438333333","25.0098533333333","6500400","永和區"
"234012","KEA-2591","2019/06/22 13:09:03","新北市永和區保福路二段48號","121.510996666667","25.012075","6500400","永和區"
"234060","AAD-866","2019/06/22 13:09:07","新北市永和區安樂路338號","121.514416666667","25.006095","6500400","永和區"
"234078","748-BX","2019/06/22 13:09:10","新北市永和區永亨路67-1號","121.521221666667","25.00604","6500400","永和區"
"234040","862-TW","2019/06/22 13:09:05","新北市永和區永貞路330號","121.511288333333","25.005545","6500400","永和區"
"234048","863-TW","2019/06/22 13:09:05","新北市永和區文化路135巷24弄2號","121.510573333333","25.0146933333333","6500400","永和區"
"234025","9371-KE","2019/06/22 13:09:14","新北市永和區自由街60號","121.51357","25.0060066666667","6500400","永和區"
"234010","9373-KE","2019/06/22 13:09:16","新北市永和區仁愛路31巷2弄2號","121.51422","25.0129866666667","6500400","永和區"
"248017","KED-0813","2019/06/22 13:09:12","新北市五股區成泰路三段101-1號","121.444241666667","25.090105","6501500","五股區"
"234022","9380-KE","2019/06/22 13:09:12","新北市永和區中興街17號","121.515855","25.0119966666667","6500400","永和區"
"234076","969-R7","2019/06/22 13:09:00","新北市永和區民光街7號","121.51542","24.996265","6500400","永和區"
"234072","AAC-211","2019/06/22 13:09:12","新北市永和區竹林路198號","121.520506666667","25.0095333333333","6500400","永和區"
"234066","AAC-212","2019/06/22 13:09:02","新北市永和區永和路一段65巷3號","121.51273","25.0071533333333","6500400","永和區"
"234001","AAC-295","2019/06/22 13:09:11","新北市永和區永和路二段2號","121.51452","25.009975","6500400","永和區"
"244005","248-BX","2019/06/22 13:09:09","新北市林口區頭湖92-2號","121.368865","25.08073","6501700","林口區"
"231029","001-UM","2019/06/22 13:09:15","新北市新店區安華路28-1號","121.519583333333","24.9608683333333","6500600","新店區"
"231030","002-UM","2019/06/22 13:09:03","新北市新店區安華路28-1號","121.51967","24.96081","6500600","新店區"
"231028","046-UY","2019/06/22 13:09:04","新北市新店區安華路28-1號","121.519585","24.9608316666667","6500600","新店區"
"231018","107-UY","2019/06/22 13:09:00","新北市新店區安一路一段1-1號","121.519806666667","24.961535","6500600","新店區"
"231013","108-UY","2019/06/22 13:09:04","新北市新店區安一路一段1-1號","121.519458333333","24.9611833333333","6500600","新店區"
"231036","110-UY","2019/06/22 13:09:01","新北市新店區安華路28-1號","121.518885","24.9609033333333","6500600","新店區"
"231033","256-BX","2019/06/22 13:09:05","新北市新店區安一路一段1-1號","121.519666666667","24.9611283333333","6500600","新店區"
"231023","260-TV","2019/06/22 13:09:10","新北市新店區安一路一段1-1號","121.5193","24.96128","6500600","新店區"
"231003","268-BY","2019/06/22 13:09:06","新北市新店區安康路一段235-1號","121.525133333333","24.96325","6500600","新店區"
"231035","278-BY","2019/06/22 13:09:07","新北市新店區安一路一段1-1號","121.519495","24.9610533333333","6500600","新店區"
"231017","AAD-862","2019/06/22 13:09:01","新北市新店區安一路一段1-1號","121.519786666667","24.961065","6500600","新店區"
"231006","355-BY","2019/06/22 13:08:56","新北市新店區安華路28-1號","121.51925","24.9609183333333","6500600","新店區"
"231038","3712-VJ","2019/06/22 13:09:14","新北市新店區安華路28-1號","121.519243333333","24.960635","6500600","新店區"
"231027","3713-VJ","2019/06/22 13:09:07","新北市新店區安華路28-1號","121.51935","24.9605766666667","6500600","新店區"
"231024","4716-K9","2019/06/22 13:08:59","新北市新店區安華路28-1號","121.519638333333","24.9605383333333","6500600","新店區"
"231025","4715-K9","2019/06/22 13:09:12","新北市新店區安華路28-1號","121.51941","24.960575","6500600","新店區"
"231020","513-UM","2019/06/22 13:08:59","新北市新店區安一路一段1-1號","121.519635","24.9611333333333","6500600","新店區"
"231001","617-UM","2019/06/22 13:08:56","新北市新店區安華路28-1號","121.519496666667","24.9609916666667","6500600","新店區"
"231012","KED-0819","2019/06/22 13:08:58","新北市新店區安一路一段1-1號","121.519783333333","24.9612266666667","6500600","新店區"
"231010","719-UM","2019/06/22 13:09:04","新北市新店區安一路一段1-1號","121.519506666667","24.9612866666667","6500600","新店區"
"231026","720-UM","2019/06/22 13:09:08","新北市新店區安一路一段1-1號","121.51928","24.9611883333333","6500600","新店區"
"231004","899-TW","2019/06/22 13:09:16","新北市新店區安華路3號","121.518771666667","24.9608316666667","6500600","新店區"
"235027","006-UY","2019/06/22 13:09:10","新北市中和區員山路36巷16-3號","121.485021666667","24.9912866666667","6500300","中和區"
"235029","098-UM","2019/06/22 13:09:15","新北市中和區連城路174巷39號","121.494298333333","25.0003483333333","6500300","中和區"
"235004","150-BY","2019/06/22 13:09:14","新北市中和區中正路589巷15號","121.485646666667","24.99347","6500300","中和區"
"235022","151-BY","2019/06/22 13:09:13","新北市中和區圓通路367巷62-8號","121.493233333333","24.98293","6500300","中和區"
"235002","185-VK","2019/06/22 13:09:05","新北市中和區景平路154號","121.517776666667","24.9923516666667","6500300","中和區"
"235031","255-BX","2019/06/22 13:09:11","新北市中和區新生街177巷7號","121.484173333333","25.0007133333333","6500300","中和區"
"235036","301-VK","2019/06/22 13:09:01","新北市中和區中正路589巷15號","121.485928333333","24.993705","6500300","中和區"
"235007","352-BY","2019/06/22 13:09:04","新北市中和區景平路381號","121.503898333333","24.99333","6500300","中和區"
"235006","KEA-2878","2019/06/22 13:09:13","新北市中和區景平路177號","121.511826666667","24.9925683333333","6500300","中和區"
"235014","4979-A6","2019/06/22 13:09:13","新北市中和區錦和路350-1號","121.49047","24.993565","6500300","中和區"
"235033","4980-A6","2019/06/22 13:09:12","新北市中和區中正路281-1號","121.494851666667","24.993705","6500300","中和區"
"235005","551-UM","2019/06/22 13:08:57","新北市中和區中正路282號","121.494623333333","24.993945","6500300","中和區"
"235034","558-UM","2019/06/22 13:09:16","新北市中和區圓通路176-1號","121.497215","24.9944966666667","6500300","中和區"
"235009","565-BX","2019/06/22 13:09:00","新北市中和區中正路171號","121.49787","24.9935516666667","6500300","中和區"
"235024","KED-0823","2019/06/22 13:09:17","新北市中和區和城路一段271巷1號","121.485351666667","24.9918166666667","6500300","中和區"
"235035","783-BX","2019/06/22 13:09:10","新北市中和區立德街218號","121.483868333333","25.00987","6500300","中和區"
"235026","800-TS","2019/06/22 13:09:15","新北市中和區景平路999巷1號","121.495435","25.0059133333333","6500300","中和區"
"235021","801-TS","2019/06/22 13:09:12","新北市中和區員山路159號","121.481131666667","24.996575","6500300","中和區"
"235016","805-TS","2019/06/22 13:09:08","新北市中和區中正路13號","121.503016666667","24.9933516666667","6500300","中和區"
"235017","900-TW","2019/06/22 13:09:14","新北市中和區員山路36巷16-2號","121.485285","24.9914533333333","6500300","中和區"
"235028","911-UM","2019/06/22 13:09:13","新北市中和區中正路173號","121.497653333333","24.993555","6500300","中和區"
"235015","157-BY","2019/06/22 13:09:02","新北市中和區捷運路8-8號","121.50981","24.98968","6500300","中和區"
"235001","AAC-213","2019/06/22 13:09:00","新北市中和區景德街61號","121.517245","24.9914783333333","6500300","中和區"
"235023","AAC-215","2019/06/22 13:08:58","新北市中和區員山路36巷16-3號","121.484995","24.9912883333333","6500300","中和區"
"247011","056-VK","2019/06/22 13:09:11","新北市五股區中興路三段2巷10號","121.449168333333","25.0809916666667","6501400","蘆洲區"
"235018","251-BX","2019/06/22 13:09:12","新北市土城區延壽路113巷21號","121.468261666667","24.9942033333333","6500300","中和區"
"228004","212-TW","2019/06/22 13:09:15","新北市貢寮區吉林里內寮街75號","121.891173333333","24.9722066666667","6502600","貢寮區"
"228005","828-UM","2019/06/22 13:09:14","新北市貢寮區仁理村仁和路19號","121.92317","25.0535583333333","6502600","貢寮區"
"253003","4710-YM","2019/06/22 13:09:11","新北市石門區石崩山1號","121.564426666667","25.2854116666667","6502200","石門區"
"253004","6251-TK","2019/06/22 13:09:01","新北市石門區小坑12-8號","121.597756666667","25.2887833333333","6502200","石門區"
"253002","637-UY","2019/06/22 13:09:09","新北市石門區老崩山31號","121.557731666667","25.276925","6502200","石門區"
"253001","KEC-0718","2019/06/22 13:08:58","新北市石門區楓林23-10號","121.538925","25.2913033333333","6502200","石門區"
"207002","749-BX","2019/06/22 13:09:09","新北市萬里區崁腳里內崁路9號","121.644675","25.1590633333333","6502800","萬里區"
"207001","662-BX","2019/06/22 13:09:01","新北市萬里區萬里里瑪鋉路183號","121.69027","25.17858","6502800","萬里區"
"252005","AAC-283","2019/06/22 13:09:08","新北市三芝區埔坪里埔頭坑164-1號","121.50777","25.24828","6502100","三芝區"
"220002","741-BX","2019/06/22 13:09:10","新北市板橋區華東街1-9號","121.448113333333","24.9949633333333","6500100","板橋區"
"235032","KEA-2873","2019/06/22 13:08:52","新北市中和區員山路36巷16-3號","121.484946666667","24.9913083333333","6500300","中和區"
"235025","KEA-2875","2019/06/22 13:08:53","新北市中和區莒光路213號","121.468981666667","24.9946283333333","6500300","中和區"
