"lineid","car","time","location","longitude","latitude","cityid","cityname"
"234036","336-UY","2019/06/22 14:29:09","新北市永和區民樂街31巷10弄12號","121.528885","25.0008033333333","6500400","永和區"
"234062","337-UY","2019/06/22 14:29:07","新北市永和區永貞路164號","121.51707","25.004365","6500400","永和區"
"234084","338-UY","2019/06/22 14:29:07","新北市永和區光復街27號","121.516463333333","25.0175","6500400","永和區"
"234068","552-UM","2019/06/22 14:29:12","新北市永和區永寧街10號","121.52039","25.00663","6500400","永和區"
"234028","746-BX","2019/06/22 14:29:10","新北市永和區民權路51號","121.520006666667","24.9969733333333","6500400","永和區"
"234052","KEA-2590","2019/06/22 14:29:14","新北市永和區環河東路一段80號","121.519493333333","25.01643","6500400","永和區"
"234005","KED-0605","2019/06/22 14:29:07","新北市永和區中正路417號","121.517103333333","25.0048733333333","6500400","永和區"
"234060","AAD-866","2019/06/22 14:29:07","新北市永和區秀安街13巷1號","121.515948333333","25.0034733333333","6500400","永和區"
"234078","748-BX","2019/06/22 14:29:10","新北市永和區福和路57巷14弄1號","121.522778333333","25.00681","6500400","永和區"
"234040","862-TW","2019/06/22 14:29:05","新北市永和區秀朗路一段55號","121.514348333333","25.0065766666667","6500400","永和區"
"234048","863-TW","2019/06/22 14:28:59","新北市永和區保安路134號","121.50863","25.01544","6500400","永和區"
"234025","9371-KE","2019/06/22 14:29:14","新北市中和區安樂路161-1號","121.514751666667","24.9973866666667","6500400","永和區"
"248017","KED-0813","2019/06/22 14:29:12","新北市五股區外寮路13-1號","121.424856666667","25.0812483333333","6501500","五股區"
"234072","AAC-211","2019/06/22 14:29:05","新北市永和區竹林路121號","121.520116666667","25.0113733333333","6500400","永和區"
"234001","AAC-295","2019/06/22 14:29:11","新北市永和區大新街16號","121.515095","25.0084","6500400","永和區"
"243010","297-R6","2019/06/22 14:14:52","新北市泰山區黎明路25號","121.422073333333","25.0610533333333","6501600","泰山區"
"231029","001-UM","2019/06/22 14:29:15","新北市新店區安康路二段337-1號","121.498071666667","24.9558066666667","6500600","新店區"
"231030","002-UM","2019/06/22 14:29:02","新北市新店區安民街48號","121.516086666667","24.9657166666667","6500600","新店區"
"231028","046-UY","2019/06/22 14:29:11","新北市新店區安和路一段1號","121.516811666667","24.9638783333333","6500600","新店區"
"231018","107-UY","2019/06/22 14:29:00","新北市新店區中央二街39號","121.527696666667","24.9740366666667","6500600","新店區"
"231013","108-UY","2019/06/22 14:29:05","新北市新店區民權路108-4號","121.535906666667","24.9833616666667","6500600","新店區"
"231036","110-UY","2019/06/22 14:28:41","新北市新店區安祥路109巷151弄8號","121.478346666667","24.958985","6500600","新店區"
"231033","256-BX","2019/06/22 14:29:05","新北市新店區安樂街21號","121.526171666667","24.969735","6500600","新店區"
"231023","260-TV","2019/06/22 14:29:10","新北市新店區光明街185號","121.539966666667","24.9631783333333","6500600","新店區"
"231003","268-BY","2019/06/22 14:29:05","新北市新店區中興路一段267-2號","121.544968333333","24.9677883333333","6500600","新店區"
"231035","278-BY","2019/06/22 14:29:06","新北市新店區安民街26號","121.515763333333","24.964915","6500600","新店區"
"231017","AAD-862","2019/06/22 14:29:01","新北市新店區北宜路三段51-1號","121.569146666667","24.9503166666667","6500600","新店區"
"231006","355-BY","2019/06/22 14:29:16","新北市新店區北宜路二段535號","121.564128333333","24.9534033333333","6500600","新店區"
"231038","3712-VJ","2019/06/22 14:28:56","新北市新店區溪洲路200號","121.528693333333","24.9664566666667","6500600","新店區"
"231027","3713-VJ","2019/06/22 14:29:07","新北市新店區北新路二段228巷5號","121.54317","24.9773566666667","6500600","新店區"
"231020","513-UM","2019/06/22 14:28:58","新北市新店區新烏路三段69號","121.554631666667","24.903555","6500600","新店區"
"231001","617-UM","2019/06/22 14:29:17","新北市新店區北新路一段126巷32號","121.54332","24.9689083333333","6500600","新店區"
"231002","619-UM","2019/06/22 14:29:19","新北市新店區中央路81號","121.53219","24.9766833333333","6500600","新店區"
"231034","641-BX","2019/06/22 14:29:02","新北市新店區車子路11號","121.503106666667","24.9520766666667","6500600","新店區"
"231012","KED-0819","2019/06/22 14:28:58","新北市新店區寶興路61巷2號","121.55088","24.97202","6500600","新店區"
"231005","897-TW","2019/06/22 14:29:11","新北市新店區北新路三段23號","121.541998333333","24.9797266666667","6500600","新店區"
"231004","899-TW","2019/06/22 14:29:16","新北市新店區中正路263-4號","121.538263333333","24.9738366666667","6500600","新店區"
"231037","AKT-0513","2019/06/22 14:28:58","新北市新店區車子路67號","121.503685","24.9513683333333","6500600","新店區"
"235030","003-UY","2019/06/22 14:29:03","新北市中和區中和路132號","121.503808333333","24.9994033333333","6500300","中和區"
"235027","006-UY","2019/06/22 14:29:10","新北市中和區安邦街61號","121.496635","24.997","6500300","中和區"
"235020","096-UM","2019/06/22 14:29:08","新北市中和區中正路1215號","121.479776666667","25.0099666666667","6500300","中和區"
"235029","098-UM","2019/06/22 14:29:15","新北市中和區永和路9巷1號","121.499243333333","25.00395","6500300","中和區"
"235004","150-BY","2019/06/22 14:29:14","新北市中和區安樂路51巷2號","121.512021666667","24.9937466666667","6500300","中和區"
"235022","151-BY","2019/06/22 14:29:13","新北市中和區員山路124巷3號","121.481553333333","24.99601","6500300","中和區"
"235019","183-VK","2019/06/22 14:29:12","新北市中和區莒光路37巷5號","121.472561666667","25.00518","6500300","中和區"
"235002","185-VK","2019/06/22 14:29:05","新北市中和區自立路107號","121.521928333333","24.9947133333333","6500300","中和區"
"235013","186-VK","2019/06/22 14:29:15","新北市中和區景新街273巷8號","121.509783333333","24.99379","6500300","中和區"
"235031","255-BX","2019/06/22 14:29:11","新北市中和區員山路148巷38號","121.482355","24.9970216666667","6500300","中和區"
"235008","293-VK","2019/06/22 14:29:11","新北市中和區捷運路157號","121.506391666667","24.9911333333333","6500300","中和區"
"235036","301-VK","2019/06/22 14:29:01","新北市中和區中和路74號","121.50068","25.00013","6500300","中和區"
"235007","352-BY","2019/06/22 14:29:04","新北市中和區景平路243-1號","121.509358333333","24.9929133333333","6500300","中和區"
"235006","KEA-2878","2019/06/22 14:29:04","新北市中和區秀朗路三段22巷12號","121.525763333333","24.996255","6500300","中和區"
"247013","KEA-2869","2019/06/22 14:29:04","新北市蘆洲區中正路28號","121.47135","25.0822366666667","6501400","蘆洲區"
"247007","KED-0682","2019/06/22 14:29:14","新北市蘆洲區信義路30巷15號","121.47453","25.078785","6501400","蘆洲區"
"235033","4980-A6","2019/06/22 14:29:12","新北市中和區連城路87號","121.49671","25.0002766666667","6500300","中和區"
"235005","551-UM","2019/06/22 14:29:10","新北市中和區宜安路173號","121.50838","24.9993466666667","6500300","中和區"
"235034","558-UM","2019/06/22 14:28:56","新北市中和區景平路666號","121.497281666667","25.000795","6500300","中和區"
"235009","565-BX","2019/06/22 14:29:00","新北市中和區安樂路23號","121.51174","24.992305","6500300","中和區"
"235024","KED-0823","2019/06/22 14:29:17","新北市中和區中山路二段523巷17號","121.481875","25.0039883333333","6500300","中和區"
"235011","732-UM","2019/06/22 14:28:58","新北市中和區景平路241巷33號","121.508775","24.99226","6500300","中和區"
"235010","733-UM","2019/06/22 14:28:58","新北市中和區忠孝街37巷50號","121.51123","24.9848016666667","6500300","中和區"
"235035","783-BX","2019/06/22 14:29:00","新北市中和區連城路469巷50號","121.483465","24.9944533333333","6500300","中和區"
"235026","800-TS","2019/06/22 14:29:15","新北市中和區立業路83巷23號","121.491378333333","25.0065166666667","6500300","中和區"
"235021","801-TS","2019/06/22 14:29:12","新北市中和區員山路192號","121.48139","25.000415","6500300","中和區"
"235016","805-TS","2019/06/22 14:29:08","新北市中和區華新街143巷67弄1號","121.50677","24.978835","6500300","中和區"
"235012","896-TW","2019/06/22 14:29:14","新北市中和區忠孝街60巷2弄2號","121.51167","24.9837283333333","6500300","中和區"
"235017","900-TW","2019/06/22 14:29:14","新北市中和區民德路197號","121.469423333333","24.99795","6500300","中和區"
"235028","911-UM","2019/06/22 14:29:13","新北市中和區南山路127巷34弄2號","121.504171666667","24.9976866666667","6500300","中和區"
"235015","157-BY","2019/06/22 14:29:09","新北市中和區中興街132號","121.499835","24.9923666666667","6500300","中和區"
"235001","AAC-213","2019/06/22 14:29:00","新北市中和區秀朗路三段50巷4弄4號","121.525675","24.995795","6500300","中和區"
"235023","AAC-215","2019/06/22 14:29:18","新北市中和區圓通路319-5號","121.492715","24.990725","6500300","中和區"
"220013","072-UY","2019/06/22 14:29:04","新北市板橋區國泰街75巷3號","121.467516666667","25.0063033333333","6500100","板橋區"
"220034","073-UY","2019/06/22 14:29:10","新北市板橋區中正路218號","121.456046666667","25.0184666666667","6500100","板橋區"
"220105","075-UY","2019/06/22 14:29:15","新北市板橋區雙十路三段6號","121.471958333333","25.030165","6500100","板橋區"
"220017","AAD-861","2019/06/22 14:29:08","新北市板橋區稚暉街18號","121.456005","25.004455","6500100","板橋區"
"247003","893-R6","2019/06/22 14:29:01","新北市蘆洲區長安街267巷7弄1號","121.458208333333","25.0836116666667","6501400","蘆洲區"
"247017","546-UM","2019/06/22 14:29:16","新北市蘆洲區民族路267號","121.47613","25.0906416666667","6501400","蘆洲區"
"247001","500-BY","2019/06/22 14:29:07","新北市蘆洲區永樂街38巷33弄29號","121.456893333333","25.0897216666667","6501400","蘆洲區"
"247023","337-TH","2019/06/22 14:29:14","新北市蘆洲區中正路263巷2號","121.467361666667","25.0876666666667","6501400","蘆洲區"
"247011","056-VK","2019/06/22 14:29:11","新北市蘆洲區中興街163號","121.48208","25.0897083333333","6501400","蘆洲區"
"247015","053-VK","2019/06/22 14:29:07","新北市蘆洲區中正路185巷78弄19號","121.465586666667","25.084995","6501400","蘆洲區"
"247019","007-UY","2019/06/22 14:29:16","新北市蘆洲區仁愛街127號","121.470453333333","25.094535","6501400","蘆洲區"
"247005","002-UY","2019/06/22 14:29:03","新北市蘆洲區長安街46巷6號","121.463638333333","25.07982","6501400","蘆洲區"
"235018","251-BX","2019/06/22 14:29:05","新北市中和區莒光路63號","121.472311666667","25.00381","6500300","中和區"
"228004","212-TW","2019/06/22 14:29:15","新北市貢寮區雙玉里田寮洋街34-1號","121.931073333333","25.0150116666667","6502600","貢寮區"
"228005","828-UM","2019/06/22 14:29:14","新北市貢寮區美豐里巫里岸9-1號","121.901926666667","25.070115","6502600","貢寮區"
"253003","4710-YM","2019/06/22 14:29:11","新北市石門區尖子鹿29號","121.583083333333","25.2603283333333","6502200","石門區"
"253004","6251-TK","2019/06/22 14:29:01","新北市石門區內阿里磅1號","121.592345","25.2544733333333","6502200","石門區"
"253002","637-UY","2019/06/22 14:29:09","新北市石門區七股9-1號","121.547666666667","25.264765","6502200","石門區"
"253001","KEC-0718","2019/06/22 14:28:18","新北市石門區崁子腳74號","121.53285","25.283275","6502200","石門區"
"207002","749-BX","2019/06/22 14:29:09","新北市萬里區溪底里香員林路17-1號","121.635376666667","25.1599883333333","6502800","萬里區"
"207001","662-BX","2019/06/22 14:29:01","新北市萬里區磺潭里清水9號","121.640453333333","25.1999316666667","6502800","萬里區"
"252005","AAC-283","2019/06/22 14:29:08","新北市三芝區橫山里橫山8號","121.533041666667","25.2619866666667","6502100","三芝區"
"236040","KED-0685","2019/06/22 14:29:17","新北市土城區裕民路67巷18號","121.449963333333","24.988235","6501300","土城區"
"220038","KED-0812","2019/06/22 14:29:04","新北市板橋區英士路39號","121.461556666667","25.024895","6500100","板橋區"
"236074","166-UM","2019/06/22 14:29:16","新北市土城區中央路四段27巷1號","121.424435","24.96245","6501300","土城區"
"236029","253-BX","2019/06/22 14:29:10","新北市土城區水源街38-1號","121.440703333333","24.9758266666667","6501300","土城區"
"236024","269-VK","2019/06/22 14:29:17","新北市土城區承天路18號","121.439458333333","24.9634616666667","6501300","土城區"
"236013","270-VK","2019/06/22 14:28:58","新北市土城區青雲路39巷7號","121.460328333333","24.98743","6501300","土城區"
"236032","271-VK","2019/06/22 14:29:04","新北市土城區青雲路451巷2弄2號","121.459075","24.9746116666667","6501300","土城區"
"247009","KED-0683","2019/06/22 14:29:15","新北市蘆洲區鷺江街19號","121.478958333333","25.082475","6501400","蘆洲區"
"236068","KEA-2877","2019/06/22 14:29:10","新北市土城區永豐路205-5號","121.474548333333","24.977825","6501300","土城區"
"236017","401-BY","2019/06/22 14:29:13","新北市土城區永豐路202巷14號","121.466226666667","24.9834","6501300","土城區"
"236057","912-UM","2019/06/22 14:29:17","新北市土城區中央路四段280號","121.414443333333","24.9563766666667","6501300","土城區"
"236045","913-UM","2019/06/22 14:29:11","新北市土城區青雲路453號","121.458701666667","24.9746583333333","6501300","土城區"
"236060","915-UM","2019/06/22 14:29:06","新北市土城區延壽路111巷23號","121.46837","24.993555","6501300","土城區"
"236054","AAC-216","2019/06/22 14:28:59","新北市土城區中華路一段247號","121.440815","24.9814983333333","6501300","土城區"
"220027","145-BY","2019/06/22 14:29:01","新北市板橋區光正街23巷46號","121.461515","25.0156716666667","6500100","板橋區"
"220028","200-UY","2019/06/22 14:29:10","新北市板橋區大觀路二段3巷32號","121.448256666667","25.0036266666667","6500100","板橋區"
"220030","610-BX","2019/06/22 14:29:04","新北市板橋區溪城路85號","121.426835","24.98348","6500100","板橋區"
"220050","245-BX","2019/06/22 14:29:17","新北市板橋區莊敬路199號","121.47252","25.0221466666667","6500100","板橋區"
"220040","267-BY","2019/06/22 14:29:15","新北市板橋區文聖街149巷20號","121.479355","25.0284333333333","6500100","板橋區"
"220004","276-BY","2019/06/22 14:29:16","新北市板橋區和平路4號","121.457926666667","24.9942566666667","6500100","板橋區"
"220020","277-BY","2019/06/22 14:29:01","新北市板橋區篤行路三段1號","121.429426666667","24.9877766666667","6500100","板橋區"
"220019","283-VK","2019/06/22 14:29:08","新北市板橋區忠孝路48巷9弄3-1號","121.46128","25.0001233333333","6500100","板橋區"
"220043","285-UM","2019/06/22 14:29:07","新北市板橋區松江街126號","121.469503333333","25.0307966666667","6500100","板橋區"
"220001","285-VK","2019/06/22 14:29:09","新北市板橋區富山街71巷18號","121.477046666667","25.021265","6500100","板橋區"
"220031","286-VK","2019/06/22 14:28:09","新北市板橋區大觀路二段174巷175號","121.441995","25.0035733333333","6500100","板橋區"
"220029","287-VK","2019/06/22 14:29:13","新北市板橋區大觀路一段75巷28號","121.448261666667","25.0041766666667","6500100","板橋區"
"220039","288-VK","2019/06/22 14:29:02","新北市板橋區新海路431巷14號","121.457956666667","25.027055","6500100","板橋區"
"220009","293-UM","2019/06/22 14:29:11","新北市板橋區中山路一段275號","121.469133333333","25.01357","6500100","板橋區"
"220010","295-UM","2019/06/22 14:29:14","新北市板橋區三民路二段121號","121.479491666667","25.0156233333333","6500100","板橋區"
"220032","296-UM","2019/06/22 14:28:59","新北市板橋區篤行路三段玉平巷76弄4號","121.427811666667","24.98563","6500100","板橋區"
"220023","303-R5","2019/06/22 14:29:07","新北市板橋區南雅西路二段287巷18號","121.450183333333","25.0161783333333","6500100","板橋區"
"220041","307-R5","2019/06/22 14:29:07","新北市板橋區四維路103巷33號","121.46425","25.0238383333333","6500100","板橋區"
"220047","317-R6","2019/06/22 14:29:15","新北市板橋區四維路206號","121.464046666667","25.0273283333333","6500100","板橋區"
"220037","491-VK","2019/06/22 14:28:59","新北市板橋區雙十路二段83-3號","121.47589","25.0273566666667","6500100","板橋區"
"220052","561-BX","2019/06/22 14:29:07","新北市板橋區陽明街29巷20號","121.464416666667","25.0223116666667","6500100","板橋區"
"220011","609-BX","2019/06/22 14:29:11","新北市板橋區三民路一段1巷39號","121.4803","25.0247866666667","6500100","板橋區"
"220104","630-UY","2019/06/22 14:29:11","新北市板橋區中正路399巷11號","121.453573333333","25.0223816666667","6500100","板橋區"
"220005","686-BX","2019/06/22 14:29:10","新北市板橋區國慶路160-3號","121.462025","24.9960433333333","6500100","板橋區"
"220025","687-BX","2019/06/22 14:29:19","新北市板橋區大觀路一段28巷73號","121.449678333333","25.01117","6500100","板橋區"
"220042","689-BX","2019/06/22 14:29:14","新北市板橋區長江路一段124號","121.460178333333","25.0299233333333","6500100","板橋區"
"220002","741-BX","2019/06/22 14:28:50","新北市板橋區忠孝路101號","121.46249","25.0023216666667","6500100","板橋區"
"220051","KEA-2699","2019/06/22 14:29:10","新北市板橋區雙十路二段70巷35號","121.476223333333","25.0288166666667","6500100","板橋區"
"220003","827-TW","2019/06/22 14:29:13","新北市板橋區重慶路278巷2-3號","121.462806666667","24.9997216666667","6500100","板橋區"
"220014","829-TW","2019/06/22 14:28:59","新北市板橋區漢生東路339號","121.472238333333","25.00735","6500100","板橋區"
"220016","831-TW","2019/06/22 14:29:15","新北市板橋區萬安街85號","121.483716666667","25.0244433333333","6500100","板橋區"
"220022","895-R6","2019/06/22 14:29:15","新北市板橋區府中路83號","121.457241666667","25.0094833333333","6500100","板橋區"
"220021","985-R7","2019/06/22 14:29:17","新北市板橋區新生街89巷6號","121.45807","25.0221816666667","6500100","板橋區"
"220046","AAC-210","2019/06/22 14:29:08","新北市板橋區文化路一段285巷74號","121.462981666667","25.0200283333333","6500100","板橋區"
"220012","AAC-253","2019/06/22 14:29:06","新北市板橋區中山路一段23號","121.46031","25.0084816666667","6500100","板橋區"
"235032","KEA-2873","2019/06/22 14:28:52","新北市中和區福美路299號","121.497273333333","25.0047316666667","6500300","中和區"
"235025","KEA-2875","2019/06/22 14:29:11","新北市中和區員山路174巷6號","121.481908333333","24.999825","6500300","中和區"
