"lineid","car","time","location","longitude","latitude","cityid","cityname"
"231046","719-UM","2019/06/22 16:29:06","新北市新店區灣潭路3-3號","121.538246666667","24.9508333333333","6500600","新店區"
"241011","013-R5","2019/06/22 16:29:13","新北市三重區龍濱路257號","121.501408333333","25.072835","6500200","三重區"
"241028","022-UY","2019/06/22 16:29:18","新北市三重區中正南路157號","121.49382","25.05606","6500200","三重區"
"241008","059-VK","2019/06/22 16:29:06","新北市三重區力行路二段136巷45弄12號","121.479138333333","25.075405","6500200","三重區"
"241012","060-VK","2019/06/22 16:29:12","新北市三重區河邊北街329號","121.502288333333","25.0751966666667","6500200","三重區"
"241031","061-VK","2019/06/22 16:29:07","新北市三重區重陽路一段59號","121.486708333333","25.0584466666667","6500200","三重區"
"241015","062-VK","2019/06/22 16:29:04","新北市三重區信義街63號","121.501336666667","25.0651183333333","6500200","三重區"
"241017","063-VK","2019/06/22 16:29:00","新北市三重區大同北路81號","121.494963333333","25.0636483333333","6500200","三重區"
"241024","065-VK","2019/06/22 16:29:07","新北市三重區中正北路315巷16弄17號","121.47591","25.071745","6500200","三重區"
"241001","066-VK","2019/06/22 16:29:14","新北市三重區仁政街116號","121.491976666667","25.078185","6500200","三重區"
"241003","091-VK","2019/06/22 16:29:15","新北市三重區五華街71巷75號","121.493966666667","25.0836133333333","6500200","三重區"
"241005","262-UM","2019/06/22 16:29:14","新北市三重區溪尾街305號","121.487591666667","25.083755","6500200","三重區"
"241016","266-UM","2019/06/22 16:29:15","新北市三重區自強路一段160巷2弄53號","121.494398333333","25.0657783333333","6500200","三重區"
"241009","267-UM","2019/06/22 16:29:07","新北市三重區三和路四段191巷35號","121.483336666667","25.0794883333333","6500200","三重區"
"241018","268-UM","2019/06/22 16:29:15","新北市三重區重陽路四段79號","121.492663333333","25.070865","6500200","三重區"
"241032","269-UM","2019/06/22 16:29:17","新北市三重區三陽路100巷3弄13號","121.482938333333","25.0581516666667","6500200","三重區"
"241013","270-UM","2019/06/22 16:29:06","新北市三重區三和路三段83巷148號","121.498431666667","25.0733016666667","6500200","三重區"
"241025","271-UM","2019/06/22 16:29:06","新北市三重區中正北路560巷100弄17-2號","121.472691666667","25.0685433333333","6500200","三重區"
"241007","398-BY","2019/06/22 16:29:17","新北市三重區三和路四段163巷167號","121.488516666667","25.080185","6500200","三重區"
"241002","462-BY","2019/06/22 16:29:10","新北市三重區自強路五段47號","121.494325","25.0814816666667","6500200","三重區"
"241004","475-VK","2019/06/22 16:29:05","新北市三重區仁愛街377巷21號","121.492495","25.080885","6500200","三重區"
"241020","478-VK","2019/06/22 16:29:01","新北市三重區車路頭街37巷16號","121.484253333333","25.0717516666667","6500200","三重區"
"241026","480-VK","2019/06/22 16:29:09","新北市三重區文化南路44號","121.500793333333","25.0602933333333","6500200","三重區"
"241014","543-UM","2019/06/22 16:29:05","新北市三重區河邊北街84號","121.504138333333","25.0692833333333","6500200","三重區"
"241019","743-BX","2019/06/22 16:29:06","新北市三重區安慶街325號","121.487935","25.0670533333333","6500200","三重區"
"241022","KED-0820","2019/06/22 16:29:05","新北市三重區重陽路二段3號","121.486858333333","25.0618133333333","6500200","三重區"
"241029","942-UM","2019/06/22 16:29:15","新北市三重區集美街126巷27號","121.490131666667","25.05371","6500200","三重區"
"235046","733-UM","2019/06/22 16:14:29","新北市中和區員山路36巷13號","121.484216666667","24.9908616666667","6500300","中和區"
"247012","056-VK","2019/06/22 16:29:09","新北市五股區中興路三段2巷10號","121.449181666667","25.0810533333333","6501400","蘆洲區"
"247006","002-UY","2019/06/22 16:29:03","新北市五股區中興路三段2巷10號","121.449343333333","25.080965","6501400","蘆洲區"
"224007","285-BY","2019/06/22 16:29:19","新北市瑞芳區瑞竹路77號","121.763825","25.1025716666667","6501200","瑞芳區"
"224009","275-VK","2019/06/22 16:23:44","新北市瑞芳區民權街3-1號","121.80935","25.108375","6501200","瑞芳區"
"224005","271-BY","2019/06/22 16:29:08","新北市瑞芳區阿美家園26號","121.82157","25.1166283333333","6501200","瑞芳區"
"227002","642-TC","2019/06/22 16:29:03","新北市雙溪區外柑里外柑腳56號","121.807963333333","25.01785","6502500","雙溪區"
"251015","KEA-2871","2019/06/22 16:29:16","新北市淡水區中正路二段31號","121.419696666667","25.1815716666667","6501000","淡水區"
"251016","179-VK","2019/06/22 16:29:04","新北市淡水區沙崙路2號","121.420723333333","25.1808816666667","6501000","淡水區"
"251008","181-VK","2019/06/22 16:29:06","新北市淡水區民權路41號","121.459633333333","25.1403716666667","6501000","淡水區"
"251013","182-VK","2019/06/22 16:29:21","新北市淡水區北新路三段171-1號","121.491771666667","25.1914283333333","6501000","淡水區"
"251014","577-R6","2019/06/22 16:29:18","新北市淡水區崁頂36-7號","121.438483333333","25.19281","6501000","淡水區"
"252001","KED-0821","2019/06/22 16:29:03","新北市三芝區埔坪里埔頭坑41號","121.50465","25.2646083333333","6502100","三芝區"
