"lineid","car","time","location","longitude","latitude","cityid","cityname"
"234007","KED-0605","2019/06/22 18:19:14","新北市永和區仁愛路306巷28號","121.502161666667","25.008845","6500400","永和區"
"234026","9371-KE","2019/06/22 18:19:11","新北市永和區豫溪街26號","121.515303333333","25.009775","6500400","永和區"
"249005","172-UM","2019/06/22 18:19:10","新北市八里區荖阡坑路15-40號","121.401703333333","25.139985","6502300","八里區"
"249001","173-UM","2019/06/22 18:19:20","新北市八里區龍米路一段198號","121.452075","25.127705","6502300","八里區"
"249004","303-UY","2019/06/22 18:19:05","新北市八里區龍米路二段232巷3號","121.431668333333","25.1589516666667","6502300","八里區"
"249002","305-UY","2019/06/22 18:15:05","新北市八里區龍形二街48號","121.45042","25.133025","6502300","八里區"
"248014","025-BX","2019/06/22 18:19:22","新北市五股區自強路50號","121.433473333333","25.0739233333333","6501500","五股區"
"248016","026-BX","2019/06/22 18:19:09","新北市五股區成泰路三段477巷9號","121.44992","25.09887","6501500","五股區"
"248006","077-UY","2019/06/22 18:19:14","新北市五股區中興路一段94號","121.466453333333","25.073225","6501500","五股區"
"248008","KED-0815","2019/06/22 18:19:09","新北市五股區更洲路32巷8弄14號","121.459263333333","25.0796166666667","6501500","五股區"
"248020","KED-0813","2019/06/22 18:19:08","新北市五股區孝義路52號","121.4543","25.1104883333333","6501500","五股區"
"248012","247-BX","2019/06/22 18:19:06","新北市五股區御成路33號","121.441055","25.09119","6501500","五股區"
"248010","272-BY","2019/06/22 18:19:13","新北市五股區成泰路一段187號","121.435023333333","25.0765133333333","6501500","五股區"
"248004","677-BX","2019/06/22 18:19:16","新北市五股區成泰路二段238號","121.439981666667","25.0868533333333","6501500","五股區"
"248002","678-BX","2019/06/22 18:19:10","新北市五股區西雲路46號","121.443518333333","25.0909066666667","6501500","五股區"
"232011","375-UM","2019/06/22 18:19:12","新北市坪林區坪雙路一段43號","121.711736666667","24.9424366666667","6502000","坪林區"
"244007","080-UY","2019/06/22 18:19:03","新北市林口區後湖11-63號","121.387093333333","25.0975966666667","6501700","林口區"
"244019","402-UM","2019/06/22 18:19:16","新北市林口區忠孝路616巷15號","121.377256666667","25.06773","6501700","林口區"
"244013","KEA-2802","2019/06/22 18:19:08","新北市林口區中山路297巷86號","121.383171666667","25.079605","6501700","林口區"
"244023","483-VK","2019/06/22 18:19:12","新北市林口區東湖路212號","121.382893333333","25.0736566666667","6501700","林口區"
"244017","485-VK","2019/06/22 18:19:09","新北市林口區公園路28號","121.366785","25.0674633333333","6501700","林口區"
"244009","656-BX","2019/06/22 18:19:22","新北市林口區文林一街59號","121.377383333333","25.0868983333333","6501700","林口區"
"244011","701-TV","2019/06/22 18:19:22","新北市林口區仁愛路一段272巷2號","121.393671666667","25.07601","6501700","林口區"
"244025","837-TS","2019/06/22 18:19:19","新北市林口區南勢七街51號","121.355695","25.06928","6501700","林口區"
"244021","838-TS","2019/06/22 18:19:13","新北市林口區自強一街10號","121.397975","25.078455","6501700","林口區"
"243013","646-TV","2019/06/22 18:19:12","新北市泰山區南林路93號","121.415485","25.05117","6501600","泰山區"
"222003","436-BY","2019/06/22 18:19:16","新北市深坑區旺耽路67號","121.626275","25.0029766666667","6501800","深坑區"
"222002","659-BX","2019/06/22 18:19:04","新北市深坑區文化街1號","121.620748333333","25.0012183333333","6501800","深坑區"
"231060","001-UM","2019/06/22 18:19:16","新北市新店區安華路28-1號","121.519441666667","24.9609166666667","6500600","新店區"
"231061","002-UM","2019/06/22 18:19:04","新北市新店區安華路28-1號","121.519621666667","24.960765","6500600","新店區"
"231058","0293-UT","2019/06/22 18:19:08","新北市新店區安康路一段228號","121.523188333333","24.96364","6500600","新店區"
"231059","046-UY","2019/06/22 18:19:17","新北市新店區安華路28-1號","121.5196","24.9608366666667","6500600","新店區"
"231051","107-UY","2019/06/22 18:19:10","新北市新店區秀山路72號","121.531311666667","24.9609116666667","6500600","新店區"
"231049","108-UY","2019/06/22 18:19:20","新北市新店區安一路一段1-1號","121.519466666667","24.9612533333333","6500600","新店區"
"231054","260-TV","2019/06/22 18:19:17","新北市新店區安一路一段1-1號","121.519293333333","24.96118","6500600","新店區"
"231042","268-BY","2019/06/22 18:19:07","新北市新店區安一路一段1-1號","121.519763333333","24.9613166666667","6500600","新店區"
"231050","AAD-862","2019/06/22 18:19:18","新北市新店區安華路28-1號","121.519633333333","24.9609483333333","6500600","新店區"
"231045","355-BY","2019/06/22 18:19:20","新北市新店區安華路28-1號","121.519311666667","24.9608233333333","6500600","新店區"
"231055","4716-K9","2019/06/22 18:19:16","新北市新店區安一路一段1-1號","121.51971","24.9614383333333","6500600","新店區"
"231056","4715-K9","2019/06/22 18:19:14","新北市新店區中央路212號","121.529998333333","24.9735316666667","6500600","新店區"
"231067","4772-VM","2019/06/22 18:19:20","新北市新店區安華路1-1號","121.51914","24.9605483333333","6500600","新店區"
"231052","513-UM","2019/06/22 18:19:09","新北市新店區安一路一段1-1號","121.519573333333","24.9611416666667","6500600","新店區"
"231040","617-UM","2019/06/22 18:19:20","新北市新店區安華路28-1號","121.519368333333","24.96089","6500600","新店區"
"231041","619-UM","2019/06/22 18:19:08","新北市新店區安華路28-1號","121.519496666667","24.9608033333333","6500600","新店區"
"231048","KED-0819","2019/06/22 18:19:04","新北市新店區安一路一段1-1號","121.51971","24.9610966666667","6500600","新店區"
"231046","719-UM","2019/06/22 18:18:46","新北市新店區直潭七街60號","121.532283333333","24.93981","6500600","新店區"
"231057","720-UM","2019/06/22 18:19:22","新北市新店區安一路一段1-1號","121.519413333333","24.961115","6500600","新店區"
"231044","897-TW","2019/06/22 18:19:20","新北市新店區安華路28-1號","121.519431666667","24.9607833333333","6500600","新店區"
"231066","AKT-0513","2019/06/22 18:19:15","新北市新店區安華路28-1號","121.519401666667","24.9605316666667","6500600","新店區"
"235066","003-UY","2019/06/22 18:19:07","新北市中和區中山路二段120號","121.50279","25.0037666666667","6500300","中和區"
"235063","006-UY","2019/06/22 18:19:07","新北市中和區中正路540號","121.48743","24.9944316666667","6500300","中和區"
"235039","097-UM","2019/06/22 18:19:18","新北市中和區景平路257號","121.508546666667","24.9930016666667","6500300","中和區"
"235065","098-UM","2019/06/22 18:19:08","新北市中和區莊敬路49巷18號","121.501656666667","25.006155","6500300","中和區"
"235040","150-BY","2019/06/22 18:18:45","新北市中和區景安路203巷7號","121.505168333333","24.9931116666667","6500300","中和區"
"235058","151-BY","2019/06/22 18:19:15","新北市中和區圓通路369巷39-23號","121.490108333333","24.98525","6500300","中和區"
"235055","183-VK","2019/06/22 18:19:12","新北市中和區中山路三段145號","121.473855","25.0059083333333","6500300","中和區"
"235038","185-VK","2019/06/22 18:19:15","新北市中和區大智街42巷13號","121.522738333333","24.99211","6500300","中和區"
"235049","186-VK","2019/06/22 18:19:13","新北市中和區錦和路350-1號","121.490378333333","24.9935733333333","6500300","中和區"
"235036","301-VK","2019/06/22 18:19:13","新北市中和區連城路185號","121.495148333333","24.9981416666667","6500300","中和區"
"235043","352-BY","2019/06/22 18:19:18","新北市中和區景平路381號","121.503843333333","24.99343","6500300","中和區"
"235042","KEA-2878","2019/06/22 18:19:09","新北市中和區大仁街20巷25弄8號","121.518581666667","24.9935366666667","6500300","中和區"
"235050","4979-A6","2019/06/22 18:19:18","新北市中和區捷運路185號","121.505471666667","24.9914533333333","6500300","中和區"
"235069","4980-A6","2019/06/22 18:19:07","新北市中和區錦和路79號","121.489878333333","24.9960566666667","6500300","中和區"
"235041","551-UM","2019/06/22 18:19:04","新北市中和區錦和路350-1號","121.490556666667","24.993615","6500300","中和區"
"235070","558-UM","2019/06/22 18:19:13","新北市中和區景平路445號","121.500848333333","24.99619","6500300","中和區"
"235045","565-BX","2019/06/22 18:19:17","新北市中和區南山路236巷20弄5號","121.505685","24.9893116666667","6500300","中和區"
"235060","KED-0823","2019/06/22 18:19:12","新北市中和區員山路298號","121.4813","25.00261","6500300","中和區"
"235047","732-UM","2019/06/22 18:19:18","新北市中和區中正路21號","121.502738333333","24.9935183333333","6500300","中和區"
"235046","733-UM","2019/06/22 18:19:09","新北市中和區中正路395號","121.489755","24.9935366666667","6500300","中和區"
"235062","800-TS","2019/06/22 18:19:24","新北市中和區景平路761-3號","121.496151666667","25.0049466666667","6500300","中和區"
"235057","801-TS","2019/06/22 18:19:15","新北市中和區民享街97巷19號","121.475416666667","24.9995516666667","6500300","中和區"
"235052","805-TS","2019/06/22 18:19:04","新北市中和區興南路二段3巷1號","121.50812","24.9865516666667","6500300","中和區"
"235048","896-TW","2019/06/22 18:19:19","新北市中和區錦和路350-1號","121.490308333333","24.99355","6500300","中和區"
"235053","900-TW","2019/06/22 18:19:15","新北市中和區員山路36巷16-2號","121.48526","24.991445","6500300","中和區"
"235064","911-UM","2019/06/22 18:19:21","新北市中和區圓通路141巷48弄9號","121.498606666667","24.9942766666667","6500300","中和區"
"235051","157-BY","2019/06/22 18:19:21","新北市中和區興南路二段192號","121.503161666667","24.982375","6500300","中和區"
"235037","AAC-213","2019/06/22 18:19:04","新北市中和區景德街95-3號","121.51537","24.9912783333333","6500300","中和區"
"235059","AAC-215","2019/06/22 18:19:16","新北市中和區員山路36巷16-2號","121.48519","24.9915133333333","6500300","中和區"
"226004","312-R5","2019/06/22 18:19:10","新北市平溪區薯榔里薯榔寮32-3號","121.710966666667","25.019605","6502400","平溪區"
"235054","251-BX","2019/06/22 18:19:11","新北市中和區民享街119巷2號","121.474441666667","24.99874","6500300","中和區"
"228001","212-TW","2019/06/22 18:19:03","新北市貢寮區真理里新港街26巷55弄2-1號","121.927381666667","25.05283","6502600","貢寮區"
"228002","663-BX","2019/06/22 18:19:08","新北市貢寮區福連里馬崗街1號","121.99914","25.0161583333333","6502600","貢寮區"
"228003","828-UM","2019/06/22 18:19:05","新北市貢寮區真理里美艷山街63-1號","121.920636666667","25.072145","6502600","貢寮區"
"224006","676-BX","2019/06/22 18:19:09","新北市瑞芳區三爪子坑路106巷1-10號","121.808316666667","25.1052883333333","6501200","瑞芳區"
"224007","285-BY","2019/06/22 18:19:10","新北市瑞芳區大埔路國宅新村1號","121.764935","25.1008866666667","6501200","瑞芳區"
"224009","275-VK","2019/06/22 18:19:06","新北市瑞芳區五號路4號","121.8548","25.1103716666667","6501200","瑞芳區"
"224008","273-VK","2019/06/22 18:19:19","新北市瑞芳區逢甲路148-1號","121.808265","25.109305","6501200","瑞芳區"
"224005","271-BY","2019/06/22 18:19:08","新北市瑞芳區建基新村25號","121.812385","25.12959","6501200","瑞芳區"
"227002","642-TC","2019/06/22 18:19:23","新北市雙溪區共和里中山路2號","121.863851666667","25.03364","6502500","雙溪區"
"253006","032-BX","2019/06/22 18:19:10","新北市石門區老梅路65號","121.545865","25.2892616666667","6502200","石門區"
"253005","295-VK","2019/06/22 18:19:19","新北市石門區中央路37-5號","121.56978","25.2966316666667","6502200","石門區"
"222001","KEA-2212","2019/06/22 18:19:13","新北市深坑區北深路二段51號","121.619026666667","25.0040116666667","6501800","深坑區"
"208002","KEA-2872","2019/06/22 18:19:08","新北市金山區清泉里清水路16巷12號","121.633253333333","25.2305133333333","6502700","金山區"
"208003","665-BX","2019/06/22 18:19:12","新北市金山區民生路192號","121.646541666667","25.2225733333333","6502700","金山區"
"251004","009-UM","2019/06/22 18:19:06","新北市淡水區民權路215巷102號","121.46275","25.1335683333333","6501000","淡水區"
"251005","010-UM","2019/06/22 18:19:08","新北市淡水區水源街一段122巷37號","121.447063333333","25.170425","6501000","淡水區"
"251001","011-UM","2019/06/22 18:19:20","新北市淡水區自強路299號","121.461716666667","25.131595","6501000","淡水區"
"251015","KEA-2871","2019/06/22 18:18:56","新北市淡水區興福寮66巷535號","121.484628333333","25.1649633333333","6501000","淡水區"
"251016","179-VK","2019/06/22 18:19:04","新北市淡水區淡金路三段228巷9號","121.449475","25.2049966666667","6501000","淡水區"
"251008","181-VK","2019/06/22 18:19:06","新北市淡水區坪頂路27號","121.456405","25.1619416666667","6501000","淡水區"
"251013","182-VK","2019/06/22 18:19:01","新北市淡水區行忠路659號","121.471073333333","25.19937","6501000","淡水區"
"251010","413-VK","2019/06/22 18:19:24","新北市淡水區淡海路202號","121.420243333333","25.1854466666667","6501000","淡水區"
"251012","441-VK","2019/06/22 18:19:19","新北市淡水區北新路二段155號","121.483041666667","25.1855683333333","6501000","淡水區"
"251007","442-VK","2019/06/22 18:19:06","新北市淡水區中正東路二段143巷2弄1號","121.460601666667","25.1472916666667","6501000","淡水區"
"251006","561-UM","2019/06/22 18:19:05","新北市淡水區新民街53巷2號","121.438635","25.1759816666667","6501000","淡水區"
"251014","577-R6","2019/06/22 18:19:17","新北市淡水區崙頂16號","121.491995","25.2212216666667","6501000","淡水區"
"251011","650-BX","2019/06/22 18:19:15","新北市淡水區三空泉8號","121.475695","25.1627766666667","6501000","淡水區"
"251002","672-BX","2019/06/22 18:19:04","新北市淡水區中正東路一段125號","121.455483333333","25.1594566666667","6501000","淡水區"
"251003","766-UM","2019/06/22 18:19:19","新北市淡水區北新路180號","121.449478333333","25.1786916666667","6501000","淡水區"
"207003","550-UM","2019/06/22 18:19:20","新北市萬里區野柳里港東路23號","121.687385","25.2036833333333","6502800","萬里區"
"207004","225-TW","2019/06/22 18:19:18","新北市萬里區中幅里中福路131-3號","121.675061666667","25.1655666666667","6502800","萬里區"
"252002","178-VK","2019/06/22 18:19:06","新北市三芝區中山路二段43號","121.502996666667","25.2550733333333","6502100","三芝區"
"252003","249-BX","2019/06/22 18:19:18","新北市三芝區錫板里南勢崗2號","121.481031666667","25.2633616666667","6502100","三芝區"
"208001","170-UY","2019/06/22 18:19:05","新北市金山區磺港里磺港路122號","121.645511666667","25.2253866666667","6502700","金山區"
"237004","KEA-2597","2019/06/22 18:19:02","新北市三峽區五寮41-2號","121.367998333333","24.8648333333333","6500900","三峽區"
"237007","153-BY","2019/06/22 18:19:19","新北市三峽區中正路二段574號","121.359526666667","24.90606","6500900","三峽區"
"237009","210-TH","2019/06/22 18:19:18","新北市三峽區大勇路36巷46號","121.365433333333","24.93707","6500900","三峽區"
"237013","252-BX","2019/06/22 18:19:18","新北市三峽區永安街41號","121.376328333333","24.9302766666667","6500900","三峽區"
"237012","275-BY","2019/06/22 18:19:19","新北市三峽區三樹路74號","121.378008333333","24.938315","6500900","三峽區"
"237008","302-VK","2019/06/22 18:19:01","新北市三峽區白雞68-85號","121.392613333333","24.9086333333333","6500900","三峽區"
"237014","433-BY","2019/06/22 18:19:18","新北市三峽區國光街93號","121.373438333333","24.938885","6500900","三峽區"
"237006","5529-G3","2019/06/22 18:19:14","新北市三峽區溪東路235號","121.406548333333","24.932595","6500900","三峽區"
"237011","KEA-2596","2019/06/22 18:19:10","新北市三峽區溪東路134號","121.40481","24.9332966666667","6500900","三峽區"
"237015","649-BX","2019/06/22 18:19:21","新北市三峽區紫微路23-1號","121.42334","24.9202233333333","6500900","三峽區"
"237010","706-TV","2019/06/22 18:19:05","新北市三峽區民權街147號","121.36888","24.931655","6500900","三峽區"
"237005","AKY-6261","2019/06/22 18:19:10","新北市三峽區民族街3-2號","121.369456666667","24.9313533333333","6500900","三峽區"
"236042","KED-0685","2019/06/22 18:19:10","新北市土城區裕生路21巷6弄45號","121.448606666667","24.9866116666667","6501300","土城區"
"233002","762-BX","2019/06/22 18:19:09","新北市烏來區新烏路五段2號","121.544285","24.88431","6502900","烏來區"
"236079","166-UM","2019/06/22 18:19:11","新北市土城區永安街115巷36號","121.428863333333","24.962915","6501300","土城區"
"236030","253-BX","2019/06/22 18:19:14","新北市土城區順風路46號","121.44015","24.9771016666667","6501300","土城區"
"236026","269-VK","2019/06/22 18:19:10","新北市土城區承天路20號","121.439536666667","24.9634183333333","6501300","土城區"
"236014","270-VK","2019/06/22 18:19:01","新北市土城區青雲路39巷7號","121.460326666667","24.9874266666667","6501300","土城區"
"236038","271-VK","2019/06/22 18:19:05","新北市土城區青雲路483巷9號","121.459393333333","24.9735833333333","6501300","土城區"
"236070","KEA-2877","2019/06/22 18:19:21","新北市土城區永豐路202巷14號","121.466131666667","24.9834566666667","6501300","土城區"
"252001","KED-0821","2019/06/22 18:19:22","新北市三芝區中興街二段2號","121.498355","25.2566366666667","6502100","三芝區"
"236021","401-BY","2019/06/22 18:19:03","新北市土城區明德路一段323號","121.45906","24.9770383333333","6501300","土城區"
"236059","912-UM","2019/06/22 18:19:10","新北市土城區中央路四段466號","121.41","24.9506033333333","6501300","土城區"
"236049","913-UM","2019/06/22 18:19:19","新北市土城區明德路一段369號","121.455606666667","24.9779616666667","6501300","土城區"
"236063","915-UM","2019/06/22 18:19:06","新北市土城區金城路三段195號","121.470131666667","24.98895","6501300","土城區"
"236055","AAC-216","2019/06/22 18:19:20","新北市土城區中華路二段92號","121.438321666667","24.9747333333333","6501300","土城區"
"242039","AAC-296","2019/06/22 18:19:13","新北市新莊區民安東路176號","121.433028333333","25.0204116666667","6500500","新莊區"
"242061","986-R7","2019/06/22 18:19:08","新北市新莊區後港一路135號","121.429566666667","25.0273783333333","6500500","新莊區"
"242002","751-BX","2019/06/22 18:19:15","新北市新莊區碧江街31號","121.452251666667","25.0331366666667","6500500","新莊區"
"242029","615-BX","2019/06/22 18:19:02","新北市新莊區新泰路528號","121.44207","25.047275","6500500","新莊區"
"242027","613-BX","2019/06/22 18:18:41","新北市新莊區幸福路817巷1號","121.445428333333","25.04888","6500500","新莊區"
"242058","612-BX","2019/06/22 18:19:11","新北市新莊區新北大道七段786號","121.413011666667","25.02469","6500500","新莊區"
"242046","566-BX","2019/06/22 18:19:05","新北市新莊區福營路334號","121.421726666667","25.02681","6500500","新莊區"
"242056","441-UM","2019/06/22 18:19:19","新北市新莊區豐年街51巷27號","121.44791","25.0318666666667","6500500","新莊區"
"242042","415-TV","2019/06/22 18:19:10","新北市新莊區天祥街90號","121.41531","25.02969","6500500","新莊區"
"242011","413-TV","2019/06/22 18:19:20","新北市新莊區中榮街49巷1號","121.449513333333","25.0525483333333","6500500","新莊區"
"242025","362-BY","2019/06/22 18:19:19","新北市新莊區五權一路12巷16號","121.457375","25.0645883333333","6500500","新莊區"
"242053","172-VK","2019/06/22 18:19:02","新北市新莊區民安西路410巷19號","121.42759","25.00912","6500500","新莊區"
"242015","173-VK","2019/06/22 18:19:20","新北市新莊區中平路198巷10號","121.44555","25.0483833333333","6500500","新莊區"
"242048","175-VK","2019/06/22 18:19:13","新北市新莊區富國路154號","121.42323","25.0249083333333","6500500","新莊區"
"242007","176-VK","2019/06/22 18:19:20","新北市新莊區自重街32號","121.454138333333","25.0476083333333","6500500","新莊區"
"242021","346-TH","2019/06/22 18:19:18","新北市新莊區新興街36巷2號","121.450695","25.0369266666667","6500500","新莊區"
"242031","347-TH","2019/06/22 18:19:16","新北市新莊區新泰路271號","121.445648333333","25.04021","6500500","新莊區"
"242034","348-TH","2019/06/22 18:19:02","新北市新莊區新泰路55號","121.44935","25.03392","6500500","新莊區"
"242051","350-TH","2019/06/22 18:19:08","新北市新莊區民安西路71號","121.427305","25.0199216666667","6500500","新莊區"
"238015","755-BX","2019/06/22 18:19:19","新北市樹林區文化街79巷1號","121.416816666667","24.9891066666667","6500700","樹林區"
"238023","601-UM","2019/06/22 18:19:12","新北市樹林區中正路793號","121.409551666667","25.0161066666667","6500700","樹林區"
"238019","599-UM","2019/06/22 18:19:23","新北市樹林區國凱街140巷15號","121.424266666667","24.9800933333333","6500700","樹林區"
"238024","5061-A6","2019/06/22 18:19:21","新北市樹林區中山路一段155-2號","121.422286666667","24.9886966666667","6500700","樹林區"
"238018","KEA-2217","2019/06/22 18:19:13","新北市樹林區保安街一段20巷23號","121.428018333333","24.9942066666667","6500700","樹林區"
"238022","KEA-2213","2019/06/22 18:19:16","新北市樹林區民和街1號","121.385393333333","24.9682216666667","6500700","樹林區"
"238025","303-VK","2019/06/22 18:19:17","新北市樹林區保安街一段112號","121.423708333333","24.9948633333333","6500700","樹林區"
"238017","283-BY","2019/06/22 18:19:11","新北市樹林區保安街二段136號","121.413366666667","25.0040533333333","6500700","樹林區"
"238014","282-BY","2019/06/22 18:19:16","新北市樹林區大安路111巷41號","121.423316666667","24.9976633333333","6500700","樹林區"
"238020","268-VK","2019/06/22 18:19:20","新北市樹林區三龍街37號","121.414091666667","25.0187083333333","6500700","樹林區"
"238026","172-UY","2019/06/22 18:19:03","新北市樹林區育德街11號","121.392485","24.9705316666667","6500700","樹林區"
"239007","AAC-297","2019/06/22 18:19:15","新北市鶯歌區建國路166號","121.350231666667","24.9536366666667","6500800","鶯歌區"
"239006","891-R6","2019/06/22 18:19:21","新北市鶯歌區德昌街140巷30號","121.332368333333","24.9615366666667","6500800","鶯歌區"
"239008","527-UM","2019/06/22 18:19:22","新北市鶯歌區朝陽街1號","121.336286666667","24.9765966666667","6500800","鶯歌區"
"239005","526-UM","2019/06/22 18:19:09","新北市鶯歌區鳳七路101巷8號","121.32955","24.9704883333333","6500800","鶯歌區"
"239001","417-VK","2019/06/22 18:19:12","新北市鶯歌區國中街71-1號","121.340793333333","24.9409083333333","6500800","鶯歌區"
"239003","360-BY","2019/06/22 18:19:20","新北市鶯歌區福安街58號","121.33561","24.9651883333333","6500800","鶯歌區"
"239002","359-BY","2019/06/22 18:18:57","新北市樹林區中山路三段214號","121.380035","24.96788","6500800","鶯歌區"
"239004","193-VK","2019/06/22 18:19:04","新北市鶯歌區黃厝街7巷10號","121.343868333333","24.94625","6500800","鶯歌區"
"221036","130-UY","2019/06/22 18:19:19","新北市汐止區大同路三段199號","121.671406666667","25.0772516666667","6501100","汐止區"
"221015","131-UY","2019/06/22 18:19:07","新北市汐止區長江街348號","121.667398333333","25.08194","6501100","汐止區"
"221010","269-BY","2019/06/22 18:19:14","新北市汐止區祥雲街18巷6號","121.64654","25.0897666666667","6501100","汐止區"
"221012","278-VK","2019/06/22 18:19:20","新北市汐止區保一街81號","121.674548333333","25.080095","6501100","汐止區"
"221023","279-VK","2019/06/22 18:19:09","新北市汐止區中興路201號","121.629225","25.0684533333333","6501100","汐止區"
"221032","280-BY","2019/06/22 18:19:16","新北市汐止區力行街2號","121.617205","25.0513366666667","6501100","汐止區"
"221027","281-BY","2019/06/22 18:19:05","新北市汐止區和平街6巷5弄1號","121.66348","25.0717216666667","6501100","汐止區"
"221029","298-VK","2019/06/22 18:19:18","新北市汐止區樟樹二路330巷68號","121.642906666667","25.0698466666667","6501100","汐止區"
"221021","299-VK","2019/06/22 18:19:18","新北市汐止區龍安路202巷8號","121.652665","25.0632583333333","6501100","汐止區"
"221031","353-TW","2019/06/22 18:19:12","新北市汐止區中興路158-1號","121.632311666667","25.0651266666667","6501100","汐止區"
"221035","622-UM","2019/06/22 18:19:09","新北市汐止區汐萬路一段20號","121.656053333333","25.0675883333333","6501100","汐止區"
"221038","646-BX","2019/06/22 18:19:16","新北市汐止區仁愛路201巷4號","121.6647","25.0660416666667","6501100","汐止區"
"221033","647-BX","2019/06/22 18:19:10","新北市汐止區宜興街40巷8號","121.622276666667","25.0416366666667","6501100","汐止區"
"221002","707-TV","2019/06/22 18:19:02","新北市汐止區福德一路201巷34號","121.635743333333","25.06496","6501100","汐止區"
"221018","753-BX","2019/06/22 18:19:08","新北市汐止區茄苳路55號","121.666428333333","25.0709166666667","6501100","汐止區"
"233001","KEA-2870","2019/06/22 18:19:19","新北市新店區新烏路三段251號","121.546313333333","24.8953466666667","6502900","烏來區"
"220082","610-BX","2019/06/22 18:19:15","新北市板橋區華東街1-9號","121.448241666667","24.99493","6500100","板橋區"
"224002","257-TC","2019/06/22 18:19:05","新北市瑞芳區三爪子坑路149巷8號","121.81103","25.1064133333333","6501200","瑞芳區"
"242044","281-VK","2019/06/22 18:19:22","新北市新莊區天泉二街26巷1號","121.414448333333","25.0256833333333","6500500","新莊區"
"242009","280-VK","2019/06/22 18:19:07","新北市新莊區幸福路600號","121.453115","25.0494416666667","6500500","新莊區"
"220073","985-R7","2019/06/22 18:19:08","新北市板橋區華東街1-10號","121.448266666667","24.9950516666667","6500100","板橋區"
"235068","KEA-2873","2019/06/22 18:19:19","新北市中和區員山路36巷16-3號","121.485126666667","24.99125","6500300","中和區"
"235061","KEA-2875","2019/06/22 18:19:10","新北市中和區民享街97巷16號","121.475295","24.99986","6500300","中和區"
