"lineid","car","time","location","longitude","latitude","cityid","cityname"
"234046","148-BY","2019/06/22 18:39:15","新北市永和區秀朗路二段66巷1號","121.522661666667","25.00154","6500400","永和區"
"234064","337-UY","2019/06/22 18:39:11","新北市永和區福和路1號","121.526516666667","25.0099416666667","6500400","永和區"
"234030","746-BX","2019/06/22 18:39:05","新北市永和區豫溪街217巷29號","121.524258333333","25.0102266666667","6500400","永和區"
"234007","KED-0605","2019/06/22 18:39:14","新北市永和區文化路170號","121.511893333333","25.0155","6500400","永和區"
"234013","KEA-2591","2019/06/22 18:39:17","新北市永和區竹林路91巷60弄70號","121.522981666667","25.01235","6500400","永和區"
"234081","748-BX","2019/06/22 18:39:08","新北市永和區永亨路127號","121.524595","25.0041316666667","6500400","永和區"
"234011","9373-KE","2019/06/22 18:39:04","新北市永和區文化路9巷22弄59號","121.514158333333","25.0144683333333","6500400","永和區"
"249005","172-UM","2019/06/22 18:39:22","新北市八里區中華路三段200號","121.388593333333","25.125725","6502300","八里區"
"249001","173-UM","2019/06/22 18:39:20","新北市八里區龍米路一段380號","121.451623333333","25.13178","6502300","八里區"
"249004","303-UY","2019/06/22 18:39:05","新北市八里區中山路一段7號","121.422425","25.15903","6502300","八里區"
"249002","305-UY","2019/06/22 18:38:45","新北市八里區龍形一街12巷8號","121.4499","25.1307716666667","6502300","八里區"
"248014","025-BX","2019/06/22 18:39:06","新北市五股區中興路四段70號","121.437015","25.0834083333333","6501500","五股區"
"248016","026-BX","2019/06/22 18:39:09","新北市五股區凌雲路一段149巷7號","121.448955","25.1016666666667","6501500","五股區"
"248008","KED-0815","2019/06/22 18:39:08","新北市五股區中興路一段154號","121.464605","25.0740833333333","6501500","五股區"
"248020","KED-0813","2019/06/22 18:39:08","新北市五股區孝義路94號","121.446786666667","25.119195","6501500","五股區"
"248012","247-BX","2019/06/22 18:39:06","新北市五股區西雲路1號","121.442338333333","25.090055","6501500","五股區"
"248010","272-BY","2019/06/22 18:39:13","新北市五股區水碓一路12號","121.432636666667","25.0729683333333","6501500","五股區"
"248004","677-BX","2019/06/22 18:39:16","新北市五股區民義路一段255-29號","121.42744","25.0912033333333","6501500","五股區"
"248002","678-BX","2019/06/22 18:39:10","新北市五股區西雲路199-1號","121.447936666667","25.0960983333333","6501500","五股區"
"234077","969-R7","2019/06/22 18:39:18","新北市永和區中正路416號","121.517493333333","25.002045","6500400","永和區"
"234067","AAC-212","2019/06/22 18:39:06","新北市永和區豫溪街217巷19號","121.524408333333","25.0099566666667","6500400","永和區"
"234003","AAC-295","2019/06/22 18:39:23","新北市永和區福和路1號","121.525951666667","25.0091583333333","6500400","永和區"
"232011","375-UM","2019/06/22 18:19:36","新北市坪林區坪雙路一段43號","121.711736666667","24.9424366666667","6502000","坪林區"
"244007","080-UY","2019/06/22 18:39:03","新北市林口區太平嶺2-3號","121.377705","25.1124766666667","6501700","林口區"
"244019","402-UM","2019/06/22 18:39:16","新北市林口區麗園二街60巷80號","121.381468333333","25.0675633333333","6501700","林口區"
"244013","KEA-2802","2019/06/22 18:39:08","新北市林口區麗園一街6巷7-3號","121.375196666667","25.0709716666667","6501700","林口區"
"244023","483-VK","2019/06/22 18:39:12","新北市林口區四維路156-2號","121.380913333333","25.0758033333333","6501700","林口區"
"244017","485-VK","2019/06/22 18:39:09","新北市林口區文化二路一段156號","121.368481666667","25.0714316666667","6501700","林口區"
"244009","656-BX","2019/06/22 18:39:02","新北市林口區竹林路326巷102號","121.393071666667","25.0832866666667","6501700","林口區"
"244011","701-TV","2019/06/22 18:39:22","新北市林口區新寮1-84號","121.392788333333","25.0768033333333","6501700","林口區"
"244025","837-TS","2019/06/22 18:39:19","新北市林口區南勢六街238號","121.355725","25.07433","6501700","林口區"
"244021","838-TS","2019/06/22 18:39:13","新北市林口區工六路8號","121.39792","25.0791816666667","6501700","林口區"
"243010","297-R6","2019/06/22 18:26:05","新北市泰山區黎明路25號","121.422086666667","25.0613","6501600","泰山區"
"243016","421-VK","2019/06/22 18:39:13","新北市泰山區泰林路二段360號","121.42891","25.0635966666667","6501600","泰山區"
"243015","680-BX","2019/06/22 18:39:23","新北市泰山區泰林路二段408號","121.427593333333","25.0643216666667","6501600","泰山區"
"222003","436-BY","2019/06/22 18:39:16","新北市深坑區翠谷街34巷10號","121.626816666667","25.008925","6501800","深坑區"
"222002","659-BX","2019/06/22 18:39:05","新北市深坑區雲鄉路27巷2號","121.622336666667","24.999755","6501800","深坑區"
"231060","001-UM","2019/06/22 18:39:16","新北市新店區安華路28-1號","121.519483333333","24.96092","6500600","新店區"
"231061","002-UM","2019/06/22 18:39:04","新北市新店區安華路28-1號","121.519593333333","24.9608283333333","6500600","新店區"
"231058","0293-UT","2019/06/22 18:37:48","新北市新店區新店後街18號","121.538066666667","24.953185","6500600","新店區"
"231059","046-UY","2019/06/22 18:39:17","新北市新店區安華路28-1號","121.51954","24.96082","6500600","新店區"
"231051","107-UY","2019/06/22 18:39:10","新北市新店區中央路81號","121.532306666667","24.9767233333333","6500600","新店區"
"231049","108-UY","2019/06/22 18:39:20","新北市新店區安一路一段1-1號","121.519511666667","24.96114","6500600","新店區"
"221025","KEA-2785","2019/06/22 18:26:27","新北市汐止區秀峰路137巷6號","121.660731666667","25.06238","6501100","汐止區"
"231054","260-TV","2019/06/22 18:39:17","新北市新店區安一路一段1-1號","121.519353333333","24.9612283333333","6500600","新店區"
"231042","268-BY","2019/06/22 18:39:07","新北市新店區北新路一段146號","121.543183333333","24.9703766666667","6500600","新店區"
"231064","278-BY","2019/06/22 18:39:11","新北市新店區安一路一段1-1號","121.519546666667","24.9611","6500600","新店區"
"231050","AAD-862","2019/06/22 18:39:18","新北市新店區安一路一段1-1號","121.519698333333","24.961085","6500600","新店區"
"231045","355-BY","2019/06/22 18:39:20","新北市新店區安華路28-1號","121.519363333333","24.9609133333333","6500600","新店區"
"231055","4716-K9","2019/06/22 18:39:16","新北市新店區中正路154巷6號","121.541826666667","24.97201","6500600","新店區"
"231056","4715-K9","2019/06/22 18:39:14","新北市新店區建國路198巷2號","121.538033333333","24.9803716666667","6500600","新店區"
"231067","4772-VM","2019/06/22 18:39:20","新北市新店區安華路28-1號","121.519246666667","24.9606216666667","6500600","新店區"
"231052","513-UM","2019/06/22 18:39:09","新北市新店區新烏路一段21號","121.546195","24.9502933333333","6500600","新店區"
"231040","617-UM","2019/06/22 18:39:20","新北市新店區安華路28-1號","121.519418333333","24.9608283333333","6500600","新店區"
"231041","619-UM","2019/06/22 18:39:08","新北市新店區安華路28-1號","121.519446666667","24.96078","6500600","新店區"
"231063","641-BX","2019/06/22 18:39:13","新北市新店區安華路28-1號","121.519536666667","24.960515","6500600","新店區"
"231048","KED-0819","2019/06/22 18:39:03","新北市新店區安一路一段1-1號","121.519766666667","24.961185","6500600","新店區"
"231046","719-UM","2019/06/22 18:39:06","新北市新店區直潭二街1號","121.535351666667","24.9431216666667","6500600","新店區"
"231057","720-UM","2019/06/22 18:39:02","新北市新店區北宜路一段123-1號","121.540425","24.9534716666667","6500600","新店區"
"231044","897-TW","2019/06/22 18:39:20","新北市新店區安華路28-1號","121.519458333333","24.9607366666667","6500600","新店區"
"231043","899-TW","2019/06/22 18:39:10","新北市新店區安華路28-1號","121.519271666667","24.9608616666667","6500600","新店區"
"231066","AKT-0513","2019/06/22 18:39:14","新北市新店區安華路28-1號","121.519438333333","24.9605816666667","6500600","新店區"
"241005","262-UM","2019/06/22 18:39:14","新北市蘆洲區中正路507號","121.460136666667","25.0979783333333","6500200","三重區"
"235066","003-UY","2019/06/22 18:39:07","新北市中和區水源路45號","121.50484","25.0035866666667","6500300","中和區"
"235063","006-UY","2019/06/22 18:39:07","新北市中和區連城路389巷5號","121.48664","24.9957366666667","6500300","中和區"
"235056","096-UM","2019/06/22 18:39:10","新北市中和區員山路611巷1號","121.477898333333","25.0113016666667","6500300","中和區"
"235039","097-UM","2019/06/22 18:39:18","新北市中和區宜安路13號","121.513218333333","24.9956333333333","6500300","中和區"
"235065","098-UM","2019/06/22 18:38:08","新北市中和區莊敬路33巷7號","121.50007","25.0066533333333","6500300","中和區"
"235040","150-BY","2019/06/22 18:39:05","新北市中和區宜安路47巷2號","121.511763333333","24.9964533333333","6500300","中和區"
"235058","151-BY","2019/06/22 18:39:15","新北市中和區員山路143巷10號","121.480455","24.99613","6500300","中和區"
"235055","183-VK","2019/06/22 18:39:12","新北市中和區民生街59號","121.469381666667","25.0050533333333","6500300","中和區"
"235038","185-VK","2019/06/22 18:39:15","新北市中和區大勇街60巷18號","121.51882","24.994705","6500300","中和區"
"235049","186-VK","2019/06/22 18:39:13","新北市中和區明義街34號","121.50389","24.9951183333333","6500300","中和區"
"235067","255-BX","2019/06/22 18:39:09","新北市中和區中正路839巷17號","121.483996666667","25.0022616666667","6500300","中和區"
"235044","293-VK","2019/06/22 18:39:22","新北市中和區復興路280巷13號","121.502245","24.9912466666667","6500300","中和區"
"235036","301-VK","2019/06/22 18:39:13","新北市中和區中山路二段23號","121.504876666667","25.0053316666667","6500300","中和區"
"235043","352-BY","2019/06/22 18:39:17","新北市中和區景平路111巷2號","121.516483333333","24.9919283333333","6500300","中和區"
"235042","KEA-2878","2019/06/22 18:39:09","新北市中和區成功路97巷5弄27號","121.526541666667","24.99276","6500300","中和區"
"235050","4979-A6","2019/06/22 18:39:18","新北市中和區忠孝街123號","121.512531666667","24.9880316666667","6500300","中和區"
"235069","4980-A6","2019/06/22 18:39:07","新北市中和區連城路99巷43號","121.497116666667","24.9988816666667","6500300","中和區"
"235041","551-UM","2019/06/22 18:39:24","新北市中和區中安街178巷16號","121.51054","24.9992183333333","6500300","中和區"
"235070","558-UM","2019/06/22 18:39:06","新北市中和區圓通路40號","121.500938333333","24.9977733333333","6500300","中和區"
"235045","565-BX","2019/06/22 18:39:17","新北市中和區景安路213號","121.504386666667","24.9916083333333","6500300","中和區"
"235060","KED-0823","2019/06/22 18:39:12","新北市中和區中山路三段81號","121.47583","25.0058016666667","6500300","中和區"
"235047","732-UM","2019/06/22 18:39:18","新北市中和區南山路320巷10弄21號","121.506835","24.9867216666667","6500300","中和區"
"235046","733-UM","2019/06/22 18:39:18","新北市中和區忠孝街99-3號","121.512061666667","24.9862","6500300","中和區"
"235062","800-TS","2019/06/22 18:39:16","新北市中和區景平路703巷1號","121.496261666667","25.00346","6500300","中和區"
"235057","801-TS","2019/06/22 18:39:15","新北市中和區民安街33號","121.480138333333","25.0003833333333","6500300","中和區"
"235052","805-TS","2019/06/22 18:39:04","新北市中和區興南路三段40號","121.496415","24.9777116666667","6500300","中和區"
"235048","896-TW","2019/06/22 18:39:19","新北市中和區南山路250巷1號","121.507693333333","24.989105","6500300","中和區"
"235053","900-TW","2019/06/22 18:39:15","新北市中和區民德路264號","121.468023333333","24.9966066666667","6500300","中和區"
"235064","911-UM","2019/06/22 18:39:05","新北市中和區景平路595號","121.497261666667","25.0005233333333","6500300","中和區"
"235051","157-BY","2019/06/22 18:39:21","新北市中和區華新街143巷71弄13號","121.50834","24.9788316666667","6500300","中和區"
"235037","AAC-213","2019/06/22 18:39:04","新北市中和區秀朗路三段128巷1弄1號","121.524635","24.9923116666667","6500300","中和區"
"235059","AAC-215","2019/06/22 18:39:16","新北市中和區錦和路354巷15號","121.489363333333","24.9915583333333","6500300","中和區"
"220065","072-UY","2019/06/22 18:39:08","新北市板橋區實踐路25號","121.463635","25.0073083333333","6500100","板橋區"
"220086","073-UY","2019/06/22 18:39:05","新北市板橋區南雅南路二段120-2號","121.452405","25.000075","6500100","板橋區"
"220106","075-UY","2019/06/22 18:39:14","新北市板橋區民生路二段89-6號","121.470428333333","25.01895","6500100","板橋區"
"220069","AAD-861","2019/06/22 18:39:13","新北市板橋區大華街11號","121.459003333333","25.0061383333333","6500100","板橋區"
"226004","312-R5","2019/06/22 18:39:10","新北市平溪區石底里公園街18-3號","121.733396666667","25.0257683333333","6502400","平溪區"
"235054","251-BX","2019/06/22 18:39:11","新北市中和區民享街68巷2號","121.474016666667","25.0018666666667","6500300","中和區"
"228001","212-TW","2019/06/22 18:39:03","新北市貢寮區仁理村研海街12-1號","121.923756666667","25.0516766666667","6502600","貢寮區"
"228002","663-BX","2019/06/22 18:39:08","新北市貢寮區福隆里桂安街11號","121.95959","25.0204616666667","6502600","貢寮區"
"228003","828-UM","2019/06/22 18:39:05","新北市貢寮區和美里龍洞街40-1號","121.915648333333","25.1116383333333","6502600","貢寮區"
"224006","676-BX","2019/06/22 18:39:09","新北市瑞芳區一坑路46號","121.80379","25.10882","6501200","瑞芳區"
"224007","285-BY","2019/06/22 18:39:09","新北市瑞芳區大埔路115巷18號","121.762898333333","25.101335","6501200","瑞芳區"
"224009","275-VK","2019/06/22 18:39:06","新北市瑞芳區祈堂路53-1號","121.859605","25.1111433333333","6501200","瑞芳區"
"224008","273-VK","2019/06/22 18:39:19","新北市瑞芳區瑞芳街52號","121.805858333333","25.10969","6501200","瑞芳區"
"224005","271-BY","2019/06/22 18:39:08","新北市瑞芳區建基路一段22號","121.819918333333","25.1210016666667","6501200","瑞芳區"
"227002","642-TC","2019/06/22 18:39:03","新北市雙溪區魚行里坤溪3-5號","121.87622","25.0207783333333","6502500","雙溪區"
"253006","032-BX","2019/06/22 18:39:04","新北市石門區崁子腳28-1號","121.539653333333","25.289885","6502200","石門區"
"253005","295-VK","2019/06/22 18:39:19","新北市石門區石門街9號","121.565913333333","25.2908783333333","6502200","石門區"
"222001","KEA-2212","2019/06/22 18:39:13","新北市深坑區北深路一段82號","121.636345","25.010765","6501800","深坑區"
"208002","KEA-2872","2019/06/22 18:39:08","新北市金山區忠孝一路19巷9號","121.637776666667","25.2179366666667","6502700","金山區"
"208003","665-BX","2019/06/22 18:39:07","新北市金山區中山路397號","121.63328","25.22539","6502700","金山區"
"251004","009-UM","2019/06/22 18:39:06","新北市淡水區大同路2號","121.461565","25.1407833333333","6501000","淡水區"
"251001","011-UM","2019/06/22 18:39:20","新北市淡水區自強路419號","121.465565","25.1343366666667","6501000","淡水區"
"251015","KEA-2871","2019/06/22 18:39:16","新北市淡水區興福寮66巷317號","121.484881666667","25.1618616666667","6501000","淡水區"
"251016","179-VK","2019/06/22 18:39:04","新北市淡水區下圭柔山83號","121.437775","25.2054883333333","6501000","淡水區"
"251008","181-VK","2019/06/22 18:39:06","新北市淡水區北投子85-5號","121.46846","25.1788683333333","6501000","淡水區"
"251013","182-VK","2019/06/22 18:37:41","新北市淡水區椿子林2號","121.486458333333","25.2040866666667","6501000","淡水區"
"251010","413-VK","2019/06/22 18:39:24","新北市淡水區沙崙路126號","121.423428333333","25.182885","6501000","淡水區"
"251012","441-VK","2019/06/22 18:39:19","新北市淡水區北新路121號","121.449023333333","25.1786316666667","6501000","淡水區"
"251007","442-VK","2019/06/22 18:39:06","新北市淡水區中正東路二段143巷2弄1號","121.460616666667","25.1473133333333","6501000","淡水區"
"251006","561-UM","2019/06/22 18:39:05","新北市淡水區崁頂37-11號","121.438736666667","25.1945733333333","6501000","淡水區"
"251014","577-R6","2019/06/22 18:39:17","新北市淡水區崙頂12-8號","121.495586666667","25.2172316666667","6501000","淡水區"
"251011","650-BX","2019/06/22 18:39:15","新北市淡水區中正東路83-2號","121.448203333333","25.1663316666667","6501000","淡水區"
"251002","672-BX","2019/06/22 18:39:13","新北市淡水區中正東路一段13號","121.45124","25.1637883333333","6501000","淡水區"
"251003","766-UM","2019/06/22 18:39:19","新北市淡水區北新路69巷26號","121.4467","25.1800683333333","6501000","淡水區"
"207003","550-UM","2019/06/22 18:39:20","新北市萬里區大鵬里頂社2-1號","121.660368333333","25.2072133333333","6502800","萬里區"
"207004","225-TW","2019/06/22 18:39:18","新北市萬里區萬里里獅頭路7號","121.692001666667","25.178315","6502800","萬里區"
"252002","178-VK","2019/06/22 18:39:06","新北市三芝區民生街64巷11號","121.503663333333","25.2550883333333","6502100","三芝區"
"252003","249-BX","2019/06/22 18:39:18","新北市三芝區後厝里土地公坑73-2號","121.460666666667","25.2475933333333","6502100","三芝區"
"237004","KEA-2597","2019/06/22 18:39:22","新北市三峽區插角82號","121.406213333333","24.8708883333333","6500900","三峽區"
"237007","153-BY","2019/06/22 18:39:11","新北市三峽區中正路三段37號","121.34812","24.90352","6500900","三峽區"
"237009","210-TH","2019/06/22 18:39:18","新北市三峽區大同路277號","121.36612","24.925415","6500900","三峽區"
"237013","252-BX","2019/06/22 18:39:17","新北市三峽區大同路52號","121.37682","24.9290866666667","6500900","三峽區"
"237012","275-BY","2019/06/22 18:39:19","新北市三峽區三樹路340號","121.384","24.943335","6500900","三峽區"
"237008","302-VK","2019/06/22 18:39:21","新北市三峽區白雞42-3號","121.378945","24.9113816666667","6500900","三峽區"
"237014","433-BY","2019/06/22 18:39:18","新北市三峽區復興路465-1號","121.36169","24.9386216666667","6500900","三峽區"
"237006","5529-G3","2019/06/22 18:39:14","新北市三峽區溪東路315巷108號","121.412123333333","24.9316266666667","6500900","三峽區"
"237011","KEA-2596","2019/06/22 18:39:10","新北市三峽區溪東路436號","121.41575","24.9276383333333","6500900","三峽區"
"237015","649-BX","2019/06/22 18:39:21","新北市三峽區竹崙路29號","121.429518333333","24.922565","6500900","三峽區"
"237010","706-TV","2019/06/22 18:39:05","新北市三峽區復興路485號","121.361311666667","24.93847","6500900","三峽區"
"237005","AKY-6261","2019/06/22 18:39:10","新北市三峽區中山路186號","121.363983333333","24.9368666666667","6500900","三峽區"
"236042","KED-0685","2019/06/22 18:39:24","新北市土城區裕民路55巷15號","121.449525","24.9888833333333","6501300","土城區"
"220089","KED-0812","2019/06/22 18:39:08","新北市板橋區民生路二段177號","121.469773333333","25.0202516666667","6500100","板橋區"
"236079","166-UM","2019/06/22 18:39:07","新北市土城區中央路四段47號","121.422391666667","24.9616","6501300","土城區"
"236030","253-BX","2019/06/22 18:39:14","新北市土城區慶利街21號","121.439086666667","24.97423","6501300","土城區"
"236026","269-VK","2019/06/22 18:39:10","新北市土城區千歲路13號","121.441176666667","24.96961","6501300","土城區"
"236014","270-VK","2019/06/22 18:39:21","新北市土城區清水路207巷25號","121.459756666667","24.9826316666667","6501300","土城區"
"236038","271-VK","2019/06/22 18:39:05","新北市土城區明德路一段313巷3弄2號","121.459623333333","24.9763733333333","6501300","土城區"
"236070","KEA-2877","2019/06/22 18:39:21","新北市土城區永豐路240號","121.467508333333","24.9807733333333","6501300","土城區"
"252001","KED-0821","2019/06/22 18:39:22","新北市三芝區中興街二段260號","121.501863333333","25.2529383333333","6502100","三芝區"
"236021","401-BY","2019/06/22 18:39:03","新北市土城區延吉街327-1號","121.465491666667","24.9841716666667","6501300","土城區"
"236059","912-UM","2019/06/22 18:39:18","新北市土城區中央路三段205號","121.429916666667","24.9645716666667","6501300","土城區"
"236049","913-UM","2019/06/22 18:39:11","新北市土城區明德路一段97號","121.465595","24.98293","6501300","土城區"
"236063","915-UM","2019/06/22 18:39:06","新北市土城區延壽路13巷19號","121.469921666667","24.9913383333333","6501300","土城區"
"236055","AAC-216","2019/06/22 18:39:14","新北市土城區中華路一段23號","121.446741666667","24.9893116666667","6501300","土城區"
"242061","986-R7","2019/06/22 18:39:08","新北市新莊區新樹路206巷4號","121.433648333333","25.0204116666667","6500500","新莊區"
"242058","612-BX","2019/06/22 18:39:11","新北市新莊區中正路881-12號","121.417235","25.0252233333333","6500500","新莊區"
"242056","441-UM","2019/06/22 18:39:18","新北市新莊區瓊林南路77-39號","121.43771","25.0140033333333","6500500","新莊區"
"242042","415-TV","2019/06/22 18:39:10","新北市泰山區德安街2號","121.419523333333","25.0320633333333","6500500","新莊區"
"242025","362-BY","2019/06/22 18:39:15","新北市新莊區新泰路255巷83號","121.442075","25.038995","6500500","新莊區"
"238023","601-UM","2019/06/22 18:39:12","新北市樹林區三福街114號","121.406428333333","25.0163583333333","6500700","樹林區"
"238024","5061-A6","2019/06/22 18:39:18","新北市樹林區太順街79巷17號","121.41717","24.9781066666667","6500700","樹林區"
"238018","KEA-2217","2019/06/22 18:39:13","新北市樹林區樹新路30-3號","121.42719","24.9946916666667","6500700","樹林區"
"238022","KEA-2213","2019/06/22 18:39:16","新北市樹林區中華路190-8號","121.41134","24.9805333333333","6500700","樹林區"
"238025","303-VK","2019/06/22 18:39:17","新北市樹林區中山路三段22號","121.395556666667","24.9728683333333","6500700","樹林區"
"238017","283-BY","2019/06/22 18:39:11","新北市樹林區光興街50號","121.409836666667","25.00275","6500700","樹林區"
"238014","282-BY","2019/06/22 18:39:16","新北市樹林區大安路111巷25號","121.42321","24.99767","6500700","樹林區"
"238020","268-VK","2019/06/22 18:39:20","新北市樹林區俊安街26號","121.419638333333","25.0140066666667","6500700","樹林區"
"238026","172-UY","2019/06/22 18:39:03","新北市樹林區八德街828-16號","121.392595","24.969045","6500700","樹林區"
"239007","AAC-297","2019/06/22 18:39:15","新北市鶯歌區成功街6巷20號","121.359156666667","24.9574","6500800","鶯歌區"
"239006","891-R6","2019/06/22 18:39:01","新北市鶯歌區鶯桃路296巷55弄24號","121.33629","24.961885","6500800","鶯歌區"
"239008","527-UM","2019/06/22 18:39:02","新北市鶯歌區朝陽街1號","121.336328333333","24.976565","6500800","鶯歌區"
"239005","526-UM","2019/06/22 18:39:09","新北市鶯歌區鳳吉二街50號","121.326535","24.973665","6500800","鶯歌區"
"239001","417-VK","2019/06/22 18:39:12","新北市鶯歌區國中街171號","121.337286666667","24.938475","6500800","鶯歌區"
"239003","360-BY","2019/06/22 18:39:20","新北市鶯歌區永和街182號","121.336251666667","24.970575","6500800","鶯歌區"
"239002","359-BY","2019/06/22 18:39:16","新北市鶯歌區中正一路98號","121.352288333333","24.9547433333333","6500800","鶯歌區"
"239004","193-VK","2019/06/22 18:39:04","新北市鶯歌區中正三路194巷46號","121.331096666667","24.9407916666667","6500800","鶯歌區"
"221036","130-UY","2019/06/22 18:39:19","新北市汐止區長興街一段13號","121.66958","25.07867","6501100","汐止區"
"221015","131-UY","2019/06/22 18:39:07","新北市汐止區鄉長路二段18巷1號","121.668403333333","25.0821733333333","6501100","汐止區"
"221010","269-BY","2019/06/22 18:39:14","新北市汐止區瑞松街47巷6號","121.64525","25.10636","6501100","汐止區"
"221012","278-VK","2019/06/22 18:39:20","新北市汐止區保長路51巷7號","121.673623333333","25.0789183333333","6501100","汐止區"
"221023","279-VK","2019/06/22 18:39:09","新北市汐止區民族二街86號","121.63324","25.0699333333333","6501100","汐止區"
"221032","280-BY","2019/06/22 18:39:16","新北市汐止區民權街二段79號","121.619205","25.0479816666667","6501100","汐止區"
"221029","298-VK","2019/06/22 18:39:18","新北市汐止區樟樹一路131號","121.642083333333","25.0649583333333","6501100","汐止區"
"221021","299-VK","2019/06/22 18:39:18","新北市汐止區復興路48巷2號","121.656783333333","25.0627066666667","6501100","汐止區"
"221031","353-TW","2019/06/22 18:39:12","新北市汐止區光復街8巷22號","121.638076666667","25.057235","6501100","汐止區"
"221035","622-UM","2019/06/22 18:39:06","新北市汐止區大同路二段105號","121.649968333333","25.0633933333333","6501100","汐止區"
"221002","707-TV","2019/06/22 18:39:22","新北市汐止區大同路一段293號","121.636923333333","25.0587033333333","6501100","汐止區"
"221018","753-BX","2019/06/22 18:39:08","新北市汐止區茄苳路224巷3弄3號","121.670878333333","25.0682966666667","6501100","汐止區"
"220079","145-BY","2019/06/22 18:39:09","新北市板橋區大觀路一段51號","121.447625","25.0067383333333","6500100","板橋區"
"220080","200-UY","2019/06/22 18:39:15","新北市板橋區大觀路二段435-10號","121.445653333333","24.994635","6500100","板橋區"
"220082","610-BX","2019/06/22 18:39:15","新北市板橋區大觀路二段443-2號","121.439865","24.9951266666667","6500100","板橋區"
"220101","245-BX","2019/06/22 18:39:07","新北市板橋區民生路二段161巷1號","121.4701","25.0198916666667","6500100","板橋區"
"224002","257-TC","2019/06/22 18:39:05","新北市瑞芳區國中新村26號","121.817026666667","25.107515","6501200","瑞芳區"
"220056","276-BY","2019/06/22 18:39:04","新北市板橋區南雅南路二段28號","121.454373333333","25.0031416666667","6500100","板橋區"
"220072","277-BY","2019/06/22 18:39:05","新北市板橋區板城路421號","121.447958333333","24.9964016666667","6500100","板橋區"
"220071","283-VK","2019/06/22 18:39:06","新北市板橋區四川路二段245巷3號","121.450638333333","24.99347","6500100","板橋區"
"220094","285-UM","2019/06/22 18:39:19","新北市板橋區民生路二段161巷1號","121.470023333333","25.019885","6500100","板橋區"
"220083","286-VK","2019/06/22 18:39:14","新北市板橋區板城路271號","121.450271666667","24.99782","6500100","板橋區"
"220081","287-VK","2019/06/22 18:39:16","新北市板橋區板城路421號","121.447906666667","24.9964883333333","6500100","板橋區"
"220090","288-VK","2019/06/22 18:39:23","新北市板橋區民生路二段120號","121.470385","25.0198266666667","6500100","板橋區"
"220061","293-UM","2019/06/22 18:39:11","新北市板橋區民生路二段161巷9號","121.470288333333","25.0196733333333","6500100","板橋區"
"220084","296-UM","2019/06/22 18:39:21","新北市板橋區大觀路二段179巷34號","121.4463","24.9994216666667","6500100","板橋區"
"220062","305-R5","2019/06/22 18:39:16","新北市板橋區民生路二段120號","121.47045","25.0197883333333","6500100","板橋區"
"220092","307-R5","2019/06/22 18:39:11","新北市板橋區民生路二段123號","121.470766666667","25.0186016666667","6500100","板橋區"
"220088","491-VK","2019/06/22 18:39:22","新北市板橋區民生路二段161巷1號","121.470035","25.0201066666667","6500100","板橋區"
"220103","561-BX","2019/06/22 18:39:21","新北市板橋區民生路二段89-4號","121.471226666667","25.018225","6500100","板橋區"
"220063","609-BX","2019/06/22 18:39:12","新北市板橋區民生路二段161巷1號","121.470046666667","25.0200983333333","6500100","板橋區"
"220057","686-BX","2019/06/22 18:39:22","新北市板橋區館前西路4-1號","121.459278333333","25.0071783333333","6500100","板橋區"
"220077","687-BX","2019/06/22 18:39:14","新北市板橋區華東街1-10號","121.448303333333","24.9950366666667","6500100","板橋區"
"220093","689-BX","2019/06/22 18:39:22","新北市板橋區民生路二段175號","121.469925","25.0202716666667","6500100","板橋區"
"220102","KEA-2699","2019/06/22 18:39:06","新北市板橋區民生路二段161巷1號","121.470151666667","25.0200533333333","6500100","板橋區"
"220055","827-TW","2019/06/22 18:39:04","新北市板橋區忠孝路31-1號","121.460715","25.0020216666667","6500100","板橋區"
"220074","895-R6","2019/06/22 18:39:14","新北市板橋區南雅南路二段140號","121.451793333333","24.9962216666667","6500100","板橋區"
"220073","985-R7","2019/06/22 18:39:13","新北市板橋區四川路二段23-3號","121.454733333333","24.9957633333333","6500100","板橋區"
"220097","AAC-210","2019/06/22 18:39:17","新北市板橋區民生路二段161巷5號","121.470298333333","25.019725","6500100","板橋區"
"220064","AAC-253","2019/06/22 18:39:19","新北市板橋區民生路二段17號","121.472435","25.0164133333333","6500100","板橋區"
"235068","KEA-2873","2019/06/22 18:39:19","新北市中和區中正路211巷13弄7號","121.497045","24.993145","6500300","中和區"
"235061","KEA-2875","2019/06/22 18:39:10","新北市中和區民享街56號","121.474055","25.00244","6500300","中和區"
