"lineid","car","time","location","longitude","latitude","cityid","cityname"
"234046","148-BY","2019/06/22 19:49:15","新北市永和區永利路125號","121.524095","25.002875","6500400","永和區"
"234038","336-UY","2019/06/22 19:49:11","新北市永和區民樂街59巷5號","121.52793","24.9984866666667","6500400","永和區"
"234064","337-UY","2019/06/22 19:49:11","新北市永和區中正路376號","121.517626666667","25.001145","6500400","永和區"
"234086","338-UY","2019/06/22 19:49:21","新北市永和區福和路260號","121.51822","25.0075366666667","6500400","永和區"
"234070","552-UM","2019/06/22 19:49:07","新北市永和區竹林路81號","121.519506666667","25.0125516666667","6500400","永和區"
"234017","745-BX","2019/06/22 19:49:15","新北市永和區永和路二段299號","121.516013333333","25.0161383333333","6500400","永和區"
"234030","746-BX","2019/06/22 19:49:05","新北市永和區民生路67巷23號","121.524015","24.997265","6500400","永和區"
"234054","KEA-2590","2019/06/22 19:49:14","新北市永和區竹林路75巷25弄8號","121.520155","25.0143866666667","6500400","永和區"
"234007","KED-0605","2019/06/22 19:49:14","新北市中和區光華街59-1號","121.506311666667","25.0032583333333","6500400","永和區"
"234013","KEA-2591","2019/06/22 19:49:17","新北市永和區永平路300號","121.507326666667","25.01227","6500400","永和區"
"234061","AAD-866","2019/06/22 19:49:11","新北市永和區中正路98號","121.514136666667","24.99553","6500400","永和區"
"234081","748-BX","2019/06/22 19:49:08","新北市永和區林森路42號","121.525265","25.0049583333333","6500400","永和區"
"234042","862-TW","2019/06/22 19:49:25","新北市永和區中和路389巷51號","121.507991666667","25.0021283333333","6500400","永和區"
"234050","863-TW","2019/06/22 19:49:16","新北市永和區保安路150號","121.508368333333","25.014685","6500400","永和區"
"234026","9371-KE","2019/06/22 19:49:19","新北市永和區雙和街25巷7號","121.508921666667","25.0018316666667","6500400","永和區"
"249005","172-UM","2019/06/22 19:49:10","新北市八里區中華路三段185號","121.39205","25.12828","6502300","八里區"
"249001","173-UM","2019/06/22 19:49:20","新北市八里區中華路二段177號","121.406806666667","25.15077","6502300","八里區"
"249004","303-UY","2019/06/22 19:49:16","新北市八里區中山路一段268巷31號","121.413458333333","25.160505","6502300","八里區"
"249002","305-UY","2019/06/22 19:48:28","新北市八里區頂寮三街18號","121.451521666667","25.125825","6502300","八里區"
"249003","593-UM","2019/06/22 19:49:19","新北市八里區華峰三街78號","121.398308333333","25.145465","6502300","八里區"
"248014","025-BX","2019/06/22 19:49:22","新北市五股區五福路22巷6號","121.434648333333","25.088985","6501500","五股區"
"248016","026-BX","2019/06/22 19:49:09","新北市五股區成泰路四段22巷29號","121.455581666667","25.1082516666667","6501500","五股區"
"248008","KED-0815","2019/06/22 19:49:18","新北市五股區國道路三段6號","121.469643333333","25.075125","6501500","五股區"
"248020","KED-0813","2019/06/22 19:49:08","新北市五股區中直路48號","121.41794","25.1196583333333","6501500","五股區"
"248012","247-BX","2019/06/22 19:49:06","新北市五股區蓬萊路4號","121.435566666667","25.0794466666667","6501500","五股區"
"248010","272-BY","2019/06/22 19:49:13","新北市五股區登林路貿商巷1弄1號","121.43049","25.06963","6501500","五股區"
"248004","677-BX","2019/06/22 19:49:16","新北市五股區成泰路一段135號","121.435548333333","25.0728583333333","6501500","五股區"
"248002","678-BX","2019/06/22 19:49:10","新北市五股區成泰路三段544-18號","121.452788333333","25.1034933333333","6501500","五股區"
"234023","9380-KE","2019/06/22 19:49:03","新北市永和區保生路2號","121.506773333333","25.0074483333333","6500400","永和區"
"234077","969-R7","2019/06/22 19:49:18","新北市永和區民治街87號","121.517466666667","24.9982433333333","6500400","永和區"
"234074","AAC-211","2019/06/22 19:49:05","新北市永和區竹林路189號","121.52056","25.0093966666667","6500400","永和區"
"234067","AAC-212","2019/06/22 19:49:07","新北市永和區永平路179號","121.51038","25.0091066666667","6500400","永和區"
"234003","AAC-295","2019/06/22 19:49:23","新北市永和區福和路310-1號","121.516248333333","25.0073566666667","6500400","永和區"
"243016","421-VK","2019/06/22 19:49:21","新北市泰山區貴陽街32號","121.423035","25.03247","6501600","泰山區"
"243012","539-UM","2019/06/22 19:49:15","新北市泰山區仁愛路100巷60號","121.433853333333","25.0543516666667","6501600","泰山區"
"243009","KEA-2215","2019/06/22 19:49:08","新北市泰山區美寧街60號","121.430961666667","25.0646616666667","6501600","泰山區"
"243011","KEA-2216","2019/06/22 19:49:18","新北市泰山區明志路三段196巷21弄22號","121.422695","25.03854","6501600","泰山區"
"222003","436-BY","2019/06/22 19:49:16","新北市深坑區深南路51-1號","121.621261666667","25.0098016666667","6501800","深坑區"
"222002","659-BX","2019/06/22 19:49:04","新北市深坑區北深路一段240號","121.629986666667","25.0088133333333","6501800","深坑區"
"231060","001-UM","2019/06/22 19:49:16","新北市新店區安康路二段161號","121.510231666667","24.959355","6500600","新店區"
"231061","002-UM","2019/06/22 19:49:24","新北市新店區安民街195號","121.517078333333","24.971645","6500600","新店區"
"231059","046-UY","2019/06/22 19:49:17","新北市新店區安和路二段185號","121.518305","24.97488","6500600","新店區"
"231051","107-UY","2019/06/22 19:49:10","新北市新店區中央路210-1號","121.530098333333","24.9736016666667","6500600","新店區"
"231049","108-UY","2019/06/22 19:49:20","新北市新店區民權路111-3號","121.53551","24.982345","6500600","新店區"
"231065","110-UY","2019/06/22 19:49:13","新北市新店區安祥路109巷143號","121.477356666667","24.958405","6500600","新店區"
"231062","256-BX","2019/06/22 19:49:22","新北市新店區永業路51巷1號","121.53209","24.9548033333333","6500600","新店區"
"231054","260-TV","2019/06/22 19:49:22","新北市新店區光明街1號","121.53813","24.9589833333333","6500600","新店區"
"231042","268-BY","2019/06/22 19:49:07","新北市新店區中興路一段267-3號","121.54493","24.9678733333333","6500600","新店區"
"231064","278-BY","2019/06/22 19:49:11","新北市新店區光華街8巷10號","121.51806","24.9693383333333","6500600","新店區"
"231050","AAD-862","2019/06/22 19:49:18","新北市新店區北宜路二段204號","121.55917","24.954295","6500600","新店區"
"231045","355-BY","2019/06/22 19:49:20","新北市新店區北宜路二段455號","121.561543333333","24.9540716666667","6500600","新店區"
"231055","4716-K9","2019/06/22 19:49:16","新北市新店區力行路42號","121.538891666667","24.965145","6500600","新店區"
"231056","4715-K9","2019/06/22 19:49:14","新北市新店區民權路42巷59弄12號","121.538028333333","24.983325","6500600","新店區"
"231067","4772-VM","2019/06/22 19:49:19","新北市新店區精忠路10-1號","121.532533333333","24.9591183333333","6500600","新店區"
"231052","513-UM","2019/06/22 19:49:09","新北市新店區新烏路三段212號","121.550743333333","24.9014666666667","6500600","新店區"
"231040","617-UM","2019/06/22 19:49:20","新北市新店區中正路75巷71號","121.54316","24.9688883333333","6500600","新店區"
"231041","619-UM","2019/06/22 19:49:08","新北市新店區中央路125號","121.530648333333","24.9740633333333","6500600","新店區"
"231063","641-BX","2019/06/22 19:49:13","新北市新店區車子路11號","121.503035","24.95206","6500600","新店區"
"231048","KED-0819","2019/06/22 19:49:03","新北市新店區中興路二段186號","121.548341666667","24.9724416666667","6500600","新店區"
"231046","719-UM","2019/06/22 19:46:26","新北市新店區福園街17巷2號","121.532815","24.97279","6500600","新店區"
"231057","720-UM","2019/06/22 19:49:22","新北市新店區梅崗三路1號","121.558243333333","24.9312133333333","6500600","新店區"
"231044","897-TW","2019/06/22 19:49:20","新北市新店區復興路29巷2號","121.539","24.9864766666667","6500600","新店區"
"231043","899-TW","2019/06/22 19:49:10","新北市新店區中正路263-4號","121.53827","24.9738483333333","6500600","新店區"
"231066","AKT-0513","2019/06/22 19:49:14","新北市新店區安康路三段165巷2弄7號","121.489161666667","24.9513166666667","6500600","新店區"
"241011","013-R5","2019/06/22 19:49:22","新北市三重區介壽路39巷6號","121.498895","25.0701333333333","6500200","三重區"
"241028","022-UY","2019/06/22 19:49:10","新北市三重區中正南路135號","121.494051666667","25.056885","6500200","三重區"
"241008","059-VK","2019/06/22 19:49:14","新北市三重區永福街147-8號","121.478695","25.0761133333333","6500200","三重區"
"241012","060-VK","2019/06/22 19:49:19","新北市三重區仁興街56巷46號","121.498071666667","25.07542","6500200","三重區"
"241031","061-VK","2019/06/22 19:49:07","新北市三重區重新路四段101-1號","121.485716666667","25.0543816666667","6500200","三重區"
"241015","062-VK","2019/06/22 19:49:14","新北市三重區三和路一段2號","121.503845","25.0642866666667","6500200","三重區"
"241017","063-VK","2019/06/22 19:49:20","新北市三重區重陽路三段5巷8弄22號","121.489645","25.06639","6500200","三重區"
"241024","065-VK","2019/06/22 19:49:07","新北市三重區國道路一段58巷20號","121.481303333333","25.07204","6500200","三重區"
"241001","066-VK","2019/06/22 19:49:24","新北市三重區仁愛街285號","121.49274","25.0790133333333","6500200","三重區"
"241005","262-UM","2019/06/22 19:49:14","新北市三重區仁華街146-1號","121.487371666667","25.0830466666667","6500200","三重區"
"241016","266-UM","2019/06/22 19:49:15","新北市三重區正德街41巷1號","121.495955","25.062655","6500200","三重區"
"241009","267-UM","2019/06/22 19:49:07","新北市三重區三和路四段396巷28號","121.480125","25.0788166666667","6500200","三重區"
"241018","268-UM","2019/06/22 19:48:59","新北市三重區雙園街57巷32號","121.494443333333","25.068345","6500200","三重區"
"241032","269-UM","2019/06/22 19:49:20","新北市三重區三陽路1號","121.486473333333","25.0589733333333","6500200","三重區"
"241013","270-UM","2019/06/22 19:49:15","新北市三重區仁愛街92巷13號","121.49478","25.073825","6500200","三重區"
"241025","271-UM","2019/06/22 19:49:10","新北市三重區頂崁街210巷3號","121.476845","25.0676683333333","6500200","三重區"
"241007","398-BY","2019/06/22 19:49:16","新北市三重區三和路四段145巷9號","121.484566666667","25.078345","6500200","三重區"
"241035","KEA-2210","2019/06/22 19:49:19","新北市三重區文化北路15號","121.49966","25.06364","6500200","三重區"
"241004","475-VK","2019/06/22 19:49:05","新北市三重區五華街74號","121.493358333333","25.08206","6500200","三重區"
"241020","478-VK","2019/06/22 19:49:17","新北市三重區大智街163號","121.489813333333","25.0724416666667","6500200","三重區"
"241026","480-VK","2019/06/22 19:49:22","新北市三重區文化南路42號","121.50039","25.0602816666667","6500200","三重區"
"241014","543-UM","2019/06/22 19:49:04","新北市三重區長元街98巷18弄32號","121.501796666667","25.067395","6500200","三重區"
"241023","545-UM","2019/06/22 19:42:07","新北市三重區忠孝路三段111號","121.480003333333","25.0638133333333","6500200","三重區"
"241006","AAD-863","2019/06/22 19:49:16","新北市三重區永福街263號","121.48157","25.0742216666667","6500200","三重區"
"241019","743-BX","2019/06/22 19:49:05","新北市三重區自強路二段74巷23-1號","121.487781666667","25.0697433333333","6500200","三重區"
"241022","KED-0820","2019/06/22 19:49:12","新北市三重區過圳街19號","121.488688333333","25.0605433333333","6500200","三重區"
"241029","942-UM","2019/06/22 19:49:12","新北市三重區重安街1號","121.489938333333","25.0583183333333","6500200","三重區"
"235066","003-UY","2019/06/22 19:49:07","新北市中和區南工路66號","121.506366666667","25.00204","6500300","中和區"
"235056","096-UM","2019/06/22 19:49:10","新北市中和區中山路三段136巷39號","121.473978333333","25.00699","6500300","中和區"
"235039","097-UM","2019/06/22 19:49:17","新北市中和區大勇街27巷29號","121.51624","24.9939016666667","6500300","中和區"
"235065","098-UM","2019/06/22 19:49:08","新北市中和區福祥路98號","121.499123333333","25.00604","6500300","中和區"
"235040","150-BY","2019/06/22 19:49:05","新北市中和區保健路10巷20-3號","121.507793333333","24.996725","6500300","中和區"
"235058","151-BY","2019/06/22 19:49:15","新北市中和區員山路150巷1號","121.481553333333","24.9983683333333","6500300","中和區"
"235055","183-VK","2019/06/22 19:49:12","新北市中和區德光路15巷17號","121.471416666667","25.0035316666667","6500300","中和區"
"235038","185-VK","2019/06/22 19:49:15","新北市中和區自立路6號","121.522446666667","24.99653","6500300","中和區"
"235049","186-VK","2019/06/22 19:49:13","新北市中和區景平路401號","121.502345","24.9947233333333","6500300","中和區"
"235067","255-BX","2019/06/22 19:49:09","新北市中和區新生街220巷29弄2號","121.482521666667","24.9985416666667","6500300","中和區"
"235044","293-VK","2019/06/22 19:49:02","新北市中和區中正路2-1號","121.503193333333","24.9935","6500300","中和區"
"235043","352-BY","2019/06/22 19:49:17","新北市中和區興南路二段159巷25號","121.505453333333","24.9829766666667","6500300","中和區"
"235042","KEA-2878","2019/06/22 19:49:09","新北市中和區宜安路171號","121.508411666667","24.9991083333333","6500300","中和區"
"247014","KEA-2869","2019/06/22 19:49:10","新北市蘆洲區中央路153號","121.472478333333","25.084455","6501400","蘆洲區"
"235041","551-UM","2019/06/22 19:49:04","新北市中和區中安街76號","121.512351666667","25.00188","6500300","中和區"
"235070","558-UM","2019/06/22 19:49:06","新北市中和區圓通路165號","121.497851666667","24.9954566666667","6500300","中和區"
"235047","732-UM","2019/06/22 19:49:17","新北市中和區和平街3-2號","121.50961","24.98999","6500300","中和區"
"235046","733-UM","2019/06/22 19:49:09","新北市中和區興南路一段63-6號","121.510451666667","24.9894533333333","6500300","中和區"
"235052","805-TS","2019/06/22 19:49:07","新北市中和區華新街30巷15號","121.50718","24.9842766666667","6500300","中和區"
"235048","896-TW","2019/06/22 19:49:19","新北市中和區捷運路6號","121.510166666667","24.9895333333333","6500300","中和區"
"235053","900-TW","2019/06/22 19:49:15","新北市中和區國光街146號","121.46819","25.0013933333333","6500300","中和區"
"235051","157-BY","2019/06/22 19:49:21","新北市中和區中興街214號","121.499608333333","24.9900616666667","6500300","中和區"
"235037","AAC-213","2019/06/22 19:49:23","新北市中和區自立路36-8號","121.522696666667","24.9926483333333","6500300","中和區"
"235059","AAC-215","2019/06/22 19:49:16","新北市中和區圓通路305巷6號","121.493965","24.9898916666667","6500300","中和區"
"220065","072-UY","2019/06/22 19:49:08","新北市板橋區國泰街39巷3弄4號","121.468625","25.0062783333333","6500100","板橋區"
"220086","073-UY","2019/06/22 19:49:05","新北市板橋區中正路236巷108號","121.459051666667","25.0195683333333","6500100","板橋區"
"220106","075-UY","2019/06/22 19:49:15","新北市板橋區民治街52巷11號","121.478951666667","25.03288","6500100","板橋區"
"220069","AAD-861","2019/06/22 19:49:12","新北市板橋區貴興路79號","121.45683","25.00296","6500100","板橋區"
"247004","893-R6","2019/06/22 19:49:19","新北市蘆洲區中原路85號","121.457955","25.081655","6501400","蘆洲區"
"247024","337-TH","2019/06/22 19:49:03","新北市蘆洲區光復路11號","121.462405","25.084425","6501400","蘆洲區"
"247002","336-TH","2019/06/22 19:49:10","新北市蘆洲區永樂街38巷71號","121.458668333333","25.0906166666667","6501400","蘆洲區"
"226004","312-R5","2019/06/22 19:49:09","新北市平溪區靜安路三段392巷3號","121.784495","25.0495666666667","6502400","平溪區"
"228001","212-TW","2019/06/22 19:49:22","新北市貢寮區真理里新港街26巷26號","121.927561666667","25.0552966666667","6502600","貢寮區"
"228003","828-UM","2019/06/22 19:49:25","新北市貢寮區真理里美艷山街5-1號","121.92655","25.0597233333333","6502600","貢寮區"
"224010","AGQ-8101","2019/06/22 19:49:07","新北市瑞芳區基山街172號","121.842916666667","25.10783","6501200","瑞芳區"
"227002","642-TC","2019/06/22 19:49:23","新北市雙溪區雙溪里內挖路47號","121.863255","25.03668","6502500","雙溪區"
"222001","KEA-2212","2019/06/22 19:49:13","新北市深坑區北深路三段114號","121.606663333333","25.0015216666667","6501800","深坑區"
"208001","AAC-292","2019/06/22 19:49:12","新北市金山區重和里六股林口21-7號","121.604106666667","25.2199816666667","6502700","金山區"
"208002","KEA-2872","2019/06/22 19:49:08","新北市金山區中華路366-1號","121.633256666667","25.2244916666667","6502700","金山區"
"208003","665-BX","2019/06/22 19:49:07","新北市金山區海興路188號","121.633201666667","25.2405083333333","6502700","金山區"
"251009","008-UM","2019/06/22 19:49:06","新北市淡水區中正路38-1號","121.44372","25.169325","6501000","淡水區"
"251004","009-UM","2019/06/22 19:49:14","新北市淡水區民權路177巷53號","121.460546666667","25.133855","6501000","淡水區"
"251005","010-UM","2019/06/22 19:49:08","新北市淡水區中正東路37號","121.44596","25.1680333333333","6501000","淡水區"
"251001","011-UM","2019/06/22 19:49:20","新北市淡水區淡金路18號","121.457095","25.159935","6501000","淡水區"
"251015","KEA-2871","2019/06/22 19:49:16","新北市淡水區山子頂24-1號","121.49137","25.18719","6501000","淡水區"
"251016","179-VK","2019/06/22 19:49:04","新北市淡水區三塊厝3-2號","121.45613","25.2092033333333","6501000","淡水區"
"251008","181-VK","2019/06/22 19:49:06","新北市淡水區中正路一段24巷2-4號","121.42679","25.1769983333333","6501000","淡水區"
"251013","182-VK","2019/06/22 19:49:21","新北市淡水區頂田寮路109號","121.458756666667","25.2161866666667","6501000","淡水區"
"251012","441-VK","2019/06/22 19:49:18","新北市淡水區淡金路三段56號","121.448165","25.199435","6501000","淡水區"
"251007","442-VK","2019/06/22 19:49:06","新北市淡水區中正東路一段3巷37號","121.452031666667","25.1658866666667","6501000","淡水區"
"251006","561-UM","2019/06/22 19:49:25","新北市淡水區水碓街15號","121.443431666667","25.1769416666667","6501000","淡水區"
"251014","577-R6","2019/06/22 19:49:17","新北市淡水區番社前2-7號","121.470623333333","25.23715","6501000","淡水區"
"251011","650-BX","2019/06/22 19:49:20","新北市淡水區中正東路二段5巷31號","121.460576666667","25.1584916666667","6501000","淡水區"
"251002","672-BX","2019/06/22 19:49:04","新北市淡水區下圭柔山90-8號","121.431266666667","25.210325","6501000","淡水區"
"207003","550-UM","2019/06/22 19:49:20","新北市萬里區大鵬里萬里加投67-2號","121.642238333333","25.213265","6502800","萬里區"
"207004","225-TW","2019/06/22 19:49:18","新北市萬里區萬里里瑪鋉路197號","121.69056","25.17899","6502800","萬里區"
"252002","178-VK","2019/06/22 19:49:06","新北市三芝區三民街33號","121.504678333333","25.2585316666667","6502100","三芝區"
"237004","KEA-2597","2019/06/22 19:49:21","新北市三峽區添福285-5號","121.376608333333","24.8909533333333","6500900","三峽區"
"237007","153-BY","2019/06/22 19:49:11","新北市三峽區二鬮路136巷20弄37號","121.357228333333","24.9099666666667","6500900","三峽區"
"237009","210-TH","2019/06/22 19:49:22","新北市三峽區清水街416號","121.368838333333","24.9265416666667","6500900","三峽區"
"237013","252-BX","2019/06/22 19:49:17","新北市三峽區溪北街7號","121.396193333333","24.9364","6500900","三峽區"
"237012","275-BY","2019/06/22 19:49:19","新北市三峽區中華路24號","121.373961666667","24.93242","6500900","三峽區"
"237008","302-VK","2019/06/22 19:49:21","新北市三峽區中華路46-2號","121.372045","24.9303766666667","6500900","三峽區"
"237014","433-BY","2019/06/22 19:49:17","新北市三峽區添福14-38號","121.37281","24.90032","6500900","三峽區"
"237006","5529-G3","2019/06/22 19:49:14","新北市三峽區中正路一段336巷15弄2號","121.369941666667","24.92496","6500900","三峽區"
"237015","649-BX","2019/06/22 19:49:21","新北市三峽區溪東路35號","121.40033","24.934965","6500900","三峽區"
"237005","AKY-6261","2019/06/22 19:49:10","新北市三峽區長泰街18巷6號","121.379128333333","24.93166","6500900","三峽區"
"236042","KED-0685","2019/06/22 19:49:24","新北市土城區金城路二段245巷5號","121.455666666667","24.9830433333333","6501300","土城區"
"220089","KED-0812","2019/06/22 19:49:09","新北市板橋區互助街37號","121.461338333333","25.0267216666667","6500100","板橋區"
"236079","166-UM","2019/06/22 19:49:07","新北市土城區中央路四段254號","121.414965","24.9569283333333","6501300","土城區"
"236030","253-BX","2019/06/22 19:49:14","新北市土城區中央路一段290號","121.443311666667","24.98242","6501300","土城區"
"236026","269-VK","2019/06/22 19:49:13","新北市土城區中央路二段61巷40號","121.443828333333","24.9784833333333","6501300","土城區"
"236038","271-VK","2019/06/22 19:49:18","新北市土城區國際路158巷24弄1號","121.468408333333","24.9758366666667","6501300","土城區"
"236070","KEA-2877","2019/06/22 19:49:21","新北市土城區水源街32巷3號","121.44108","24.975865","6501300","土城區"
"252001","KED-0821","2019/06/22 19:49:22","新北市三芝區公正街9號","121.499721666667","25.25746","6502100","三芝區"
"236021","401-BY","2019/06/22 19:49:03","新北市土城區延吉街137巷11號","121.470931666667","24.9857983333333","6501300","土城區"
"236059","912-UM","2019/06/22 19:49:10","新北市土城區中央路一段166號","121.445793333333","24.9868516666667","6501300","土城區"
"236049","913-UM","2019/06/22 19:49:11","新北市土城區青雲路220號","121.458983333333","24.9813483333333","6501300","土城區"
"236063","915-UM","2019/06/22 19:49:05","新北市土城區延和路105巷6弄1號","121.467368333333","24.9911566666667","6501300","土城區"
"236055","AAC-216","2019/06/22 19:49:14","新北市土城區延和路205號","121.46966","24.9900983333333","6501300","土城區"
"242039","AAC-296","2019/06/22 19:49:09","新北市新莊區民安路299巷49號","121.429585","25.0234066666667","6500500","新莊區"
"242061","986-R7","2019/06/22 19:49:19","新北市新莊區瓊林路59-75號","121.444148333333","25.0272716666667","6500500","新莊區"
"242002","751-BX","2019/06/22 19:49:16","新北市新莊區武前街29號","121.45022","25.0325183333333","6500500","新莊區"
"242004","440-UM","2019/06/22 19:49:10","新北市新莊區化成路63巷26弄15號","121.4628","25.04601","6500500","新莊區"
"242025","362-BY","2019/06/22 19:49:16","新北市新莊區五權一路12巷21弄6號","121.457898333333","25.064575","6500500","新莊區"
"242023","353-BY","2019/06/22 19:49:16","新北市新莊區化成路198號","121.465585","25.0461766666667","6500500","新莊區"
"242013","132-UY","2019/06/22 19:49:23","新北市新莊區中泰街66號","121.44997","25.04683","6500500","新莊區"
"242036","135-UY","2019/06/22 19:49:06","新北市新莊區民安路207巷30弄16號","121.42811","25.0239416666667","6500500","新莊區"
"242015","173-VK","2019/06/22 19:49:17","新北市新莊區中港一街142號","121.44662","25.0448966666667","6500500","新莊區"
"242048","175-VK","2019/06/22 19:49:13","新北市新莊區建安街76巷3弄18號","121.425686666667","25.0246933333333","6500500","新莊區"
"242021","346-TH","2019/06/22 19:49:17","新北市新莊區新泰路121號","121.448378333333","25.0360416666667","6500500","新莊區"
"242031","347-TH","2019/06/22 19:49:14","新北市新莊區公園一路112號","121.444923333333","25.0378916666667","6500500","新莊區"
"242034","348-TH","2019/06/22 19:49:22","新北市新莊區仁愛街73號","121.444171666667","25.037775","6500500","新莊區"
"238015","755-BX","2019/06/22 19:49:19","新北市樹林區八德街598巷4號","121.397476666667","24.9705683333333","6500700","樹林區"
"238019","599-UM","2019/06/22 19:49:23","新北市樹林區中華路188-4號","121.412601666667","24.9804766666667","6500700","樹林區"
"238021","KEA-2539","2019/06/22 19:49:18","新北市樹林區佳園路三段101巷80弄3號","121.394963333333","24.94965","6500700","樹林區"
"238025","303-VK","2019/06/22 19:49:17","新北市樹林區中山路二段139號","121.406411666667","24.979075","6500700","樹林區"
"238017","283-BY","2019/06/22 19:49:11","新北市樹林區保安街二段107巷1弄3號","121.415191666667","25.00085","6500700","樹林區"
"238014","282-BY","2019/06/22 19:49:16","新北市樹林區大安路82號","121.423675","24.999385","6500700","樹林區"
"238026","172-UY","2019/06/22 19:49:23","新北市樹林區佳園路二段15巷11號","121.393721666667","24.9628016666667","6500700","樹林區"
"239002","359-BY","2019/06/22 19:49:16","新北市樹林區中山路三段214號","121.380481666667","24.9668716666667","6500800","鶯歌區"
"221008","489-VK","2019/06/22 19:49:06","新北市汐止區康寧街61巷22弄3號","121.619485","25.067085","6501100","汐止區"
"221010","269-BY","2019/06/22 19:49:14","新北市汐止區汐萬路一段411號","121.649131666667","25.07947","6501100","汐止區"
"221012","278-VK","2019/06/22 19:49:20","新北市汐止區茄安路242-1號","121.679318333333","25.0708133333333","6501100","汐止區"
"221023","279-VK","2019/06/22 19:49:19","新北市汐止區中興路270號","121.628851666667","25.068825","6501100","汐止區"
"221021","299-VK","2019/06/22 19:49:18","新北市汐止區水源路一段143號","121.655991666667","25.062135","6501100","汐止區"
"221031","353-TW","2019/06/22 19:49:12","新北市汐止區康寧街777-1號","121.645141666667","25.0759216666667","6501100","汐止區"
"221038","646-BX","2019/06/22 19:49:07","新北市汐止區忠孝東路415號","121.66576","25.07135","6501100","汐止區"
"221033","647-BX","2019/06/22 19:49:10","新北市汐止區東勢街130號","121.633213333333","25.0400683333333","6501100","汐止區"
"221018","753-BX","2019/06/22 19:49:07","新北市汐止區汐萬路一段81號","121.654676666667","25.0700583333333","6501100","汐止區"
"220079","145-BY","2019/06/22 19:49:14","新北市板橋區公館街110號","121.460871666667","25.016785","6500100","板橋區"
"220080","200-UY","2019/06/22 19:49:16","新北市板橋區大觀路二段37巷83號","121.45019","25.00238","6500100","板橋區"
"220082","610-BX","2019/06/22 19:49:15","新北市板橋區溪崑一街22號","121.430161666667","24.9911666666667","6500100","板橋區"
"220101","245-BX","2019/06/22 19:49:18","新北市板橋區莒光路180巷23號","121.473103333333","25.0225683333333","6500100","板橋區"
"224002","257-TC","2019/06/22 19:49:11","新北市瑞芳區民享新村14號","121.816416666667","25.105835","6501200","瑞芳區"
"220091","267-BY","2019/06/22 19:49:17","新北市板橋區懷德街127巷35-3號","121.48004","25.0315216666667","6500100","板橋區"
"220056","276-BY","2019/06/22 19:49:04","新北市板橋區信義路7號","121.45717","24.9969816666667","6500100","板橋區"
"220072","277-BY","2019/06/22 19:49:05","新北市板橋區金門街215巷41號","121.433376666667","24.98961","6500100","板橋區"
"220071","283-VK","2019/06/22 19:49:26","新北市板橋區和平路174巷17-2號","121.464508333333","24.9947316666667","6500100","板橋區"
"220094","285-UM","2019/06/22 19:49:18","新北市板橋區雨農路15號","121.462205","25.0246466666667","6500100","板橋區"
"220053","285-VK","2019/06/22 19:49:08","新北市板橋區中山路二段92號","121.475348333333","25.016255","6500100","板橋區"
"220083","286-VK","2019/06/22 19:49:14","新北市板橋區龍興街63巷1號","121.442876666667","25.0013583333333","6500100","板橋區"
"220081","287-VK","2019/06/22 19:49:16","新北市板橋區大觀路一段29巷131弄33-16號","121.45053","25.0042516666667","6500100","板橋區"
"220090","288-VK","2019/06/22 19:49:23","新北市板橋區新海路202號","121.461051666667","25.023625","6500100","板橋區"
"220061","293-UM","2019/06/22 19:49:18","新北市板橋區觀光街5號","121.47174","25.0159133333333","6500100","板橋區"
"220084","296-UM","2019/06/22 19:49:14","新北市板橋區滿平街45號","121.427103333333","24.9895483333333","6500100","板橋區"
"220075","303-R5","2019/06/22 19:49:17","新北市板橋區大勇街59號","121.45358","25.0168433333333","6500100","板橋區"
"220062","305-R5","2019/06/22 19:49:16","新北市板橋區光復街33巷28號","121.482411666667","25.0189483333333","6500100","板橋區"
"220092","307-R5","2019/06/22 19:49:11","新北市板橋區幸福路32巷2弄41號","121.460736666667","25.0221816666667","6500100","板橋區"
"220098","317-R6","2019/06/22 19:49:19","新北市板橋區四維路257號","121.463336666667","25.0281516666667","6500100","板橋區"
"220088","491-VK","2019/06/22 19:49:22","新北市板橋區懷德街174巷2-3號","121.479413333333","25.029975","6500100","板橋區"
"220103","561-BX","2019/06/22 19:49:21","新北市板橋區陽明街279巷35-1號","121.4611","25.02556","6500100","板橋區"
"220063","609-BX","2019/06/22 19:49:18","新北市板橋區三民路一段3巷2號","121.478921666667","25.0235583333333","6500100","板橋區"
"220035","630-UY","2019/06/22 19:49:10","新北市板橋區中正路415號","121.454105","25.02262","6500100","板橋區"
"220057","686-BX","2019/06/22 19:49:22","新北市板橋區四川路二段63號","121.453451666667","24.9951133333333","6500100","板橋區"
"220077","687-BX","2019/06/22 19:49:14","新北市板橋區僑中三街17號","121.446116666667","25.0046033333333","6500100","板橋區"
"220093","689-BX","2019/06/22 19:49:23","新北市板橋區文化路二段656號","121.479758333333","25.036205","6500100","板橋區"
"220054","741-BX","2019/06/22 19:49:13","新北市板橋區國泰街75巷28弄66號","121.467173333333","25.0044816666667","6500100","板橋區"
"220102","KEA-2699","2019/06/22 19:49:06","新北市板橋區松柏街14號","121.474306666667","25.0296616666667","6500100","板橋區"
"220055","827-TW","2019/06/22 19:49:03","新北市板橋區國慶路149巷13弄12-4號","121.460373333333","24.9970466666667","6500100","板橋區"
"220067","829-TW","2019/06/22 19:49:20","新北市板橋區長安街138巷1弄342號","121.475016666667","25.01131","6500100","板橋區"
"220068","831-TW","2019/06/22 19:49:17","新北市板橋區中山路二段412巷29弄35號","121.485031666667","25.0200283333333","6500100","板橋區"
"220074","895-R6","2019/06/22 19:49:14","新北市板橋區館前西路140號","121.456318333333","25.0081083333333","6500100","板橋區"
"220073","985-R7","2019/06/22 19:49:08","新北市板橋區國光路67巷14號","121.459006666667","25.01876","6500100","板橋區"
"220097","AAC-210","2019/06/22 19:49:19","新北市板橋區光正街18巷1號","121.46253","25.0172266666667","6500100","板橋區"
"220064","AAC-253","2019/06/22 19:49:20","新北市板橋區民族路83號","121.465743333333","25.0086016666667","6500100","板橋區"
"235068","KEA-2873","2019/06/22 19:49:19","新北市中和區莊敬路2號","121.499498333333","25.0042816666667","6500300","中和區"
