"lineid","car","time","location","longitude","latitude","cityid","cityname"
"234046","148-BY","2019/06/22 19:59:15","新北市永和區成功路一段77號","121.52686","25.0032166666667","6500400","永和區"
"234038","336-UY","2019/06/22 19:59:16","新北市永和區成功路二段126號","121.52657","24.99768","6500400","永和區"
"234064","337-UY","2019/06/22 19:59:11","新北市永和區中正路368巷1弄51號","121.519308333333","25.0011133333333","6500400","永和區"
"234086","338-UY","2019/06/22 19:59:23","新北市永和區福和路186號","121.520348333333","25.00774","6500400","永和區"
"234070","552-UM","2019/06/22 19:59:14","新北市永和區國光路37號","121.51926","25.0083433333333","6500400","永和區"
"234017","745-BX","2019/06/22 19:59:15","新北市永和區文化路55號","121.51424","25.0150783333333","6500400","永和區"
"234030","746-BX","2019/06/22 19:59:05","新北市永和區民生路67巷5號","121.522956666667","24.9972533333333","6500400","永和區"
"234054","KEA-2590","2019/06/22 19:59:14","新北市永和區環河東路一段122號","121.52067","25.01547","6500400","永和區"
"234007","KED-0605","2019/06/22 19:59:14","新北市永和區保生路22巷8號","121.507173333333","25.0080216666667","6500400","永和區"
"234013","KEA-2591","2019/06/22 19:59:17","新北市永和區保生路55號","121.504733333333","25.0105916666667","6500400","永和區"
"234061","AAD-866","2019/06/22 19:59:11","新北市永和區中正路283巷31號","121.516278333333","24.9997366666667","6500400","永和區"
"234081","748-BX","2019/06/22 19:59:08","新北市永和區林森路101巷4號","121.52321","25.0035166666667","6500400","永和區"
"234042","862-TW","2019/06/22 19:59:17","新北市永和區中和路305巷4弄26號","121.50743","25.0002116666667","6500400","永和區"
"234050","863-TW","2019/06/22 19:59:16","新北市永和區保安路264號","121.505871666667","25.0123683333333","6500400","永和區"
"234026","9371-KE","2019/06/22 19:59:19","新北市永和區水源街27巷7號","121.511255","25.0041183333333","6500400","永和區"
"234011","9373-KE","2019/06/22 19:59:04","新北市永和區仁愛路352巷112弄10號","121.501108333333","25.0085316666667","6500400","永和區"
"249005","172-UM","2019/06/22 19:59:10","新北市八里區楓林路8號","121.386926666667","25.1314733333333","6502300","八里區"
"249001","173-UM","2019/06/22 19:59:20","新北市八里區中華路二段310號","121.40384","25.1483416666667","6502300","八里區"
"249004","303-UY","2019/06/22 19:59:16","新北市八里區文昌五街126號","121.411363333333","25.1559266666667","6502300","八里區"
"249002","305-UY","2019/06/22 19:59:16","新北市八里區頂寮一街48號","121.450576666667","25.12417","6502300","八里區"
"249003","593-UM","2019/06/22 19:59:19","新北市八里區中華路二段538-4號","121.398763333333","25.1451433333333","6502300","八里區"
"248014","025-BX","2019/06/22 19:59:02","新北市五股區成泰路二段147巷15號","121.438923333333","25.0863516666667","6501500","五股區"
"248016","026-BX","2019/06/22 19:59:09","新北市五股區成泰路三段601巷21號","121.451736666667","25.10331","6501500","五股區"
"248008","KED-0815","2019/06/22 19:59:13","新北市五股區四維路155巷36弄8號","121.466838333333","25.0747716666667","6501500","五股區"
"248020","KED-0813","2019/06/22 19:59:08","新北市五股區凌雲路三段21號","121.43066","25.1093066666667","6501500","五股區"
"248012","247-BX","2019/06/22 19:59:06","新北市五股區民義路一段109號","121.434088333333","25.0864316666667","6501500","五股區"
"248010","272-BY","2019/06/22 19:59:13","新北市五股區登林路75號","121.428228333333","25.06994","6501500","五股區"
"248004","677-BX","2019/06/22 19:59:16","新北市五股區成泰路一段32巷32號","121.435088333333","25.067185","6501500","五股區"
"248002","678-BX","2019/06/22 19:59:10","新北市五股區成泰路三段597號","121.452505","25.1030483333333","6501500","五股區"
"234023","9380-KE","2019/06/22 19:59:23","新北市永和區中正路704號","121.516243333333","25.0099166666667","6500400","永和區"
"234077","969-R7","2019/06/22 19:59:18","新北市永和區民有街23巷1號","121.516773333333","24.996385","6500400","永和區"
"234074","AAC-211","2019/06/22 19:59:25","新北市永和區豫溪街215巷27號","121.523485","25.0104083333333","6500400","永和區"
"234067","AAC-212","2019/06/22 19:59:26","新北市永和區保平路236巷24弄1號","121.508161666667","25.0068883333333","6500400","永和區"
"234003","AAC-295","2019/06/22 19:59:03","新北市永和區中正路734號","121.51544","25.01018","6500400","永和區"
"243010","297-R6","2019/06/22 19:59:14","新北市泰山區民生路33號","121.430755","25.0521516666667","6501600","泰山區"
"243016","421-VK","2019/06/22 19:59:12","新北市泰山區明志路三段405號","121.421226666667","25.03404","6501600","泰山區"
"243012","539-UM","2019/06/22 19:59:15","新北市泰山區全興路13號","121.432278333333","25.0589516666667","6501600","泰山區"
"243009","KEA-2215","2019/06/22 19:59:13","新北市泰山區楓江路16巷19號","121.433956666667","25.06165","6501600","泰山區"
"243011","KEA-2216","2019/06/22 19:59:18","新北市泰山區工專路65號","121.422136666667","25.040445","6501600","泰山區"
"222003","436-BY","2019/06/22 19:59:16","新北市深坑區埔新街14號","121.620765","25.003915","6501800","深坑區"
"222002","659-BX","2019/06/22 19:59:24","新北市深坑區北深路二段81巷8弄3號","121.618278333333","25.0030183333333","6501800","深坑區"
"231060","001-UM","2019/06/22 19:59:23","新北市新店區安豐路3號","121.501803333333","24.9572816666667","6500600","新店區"
"231061","002-UM","2019/06/22 19:59:05","新北市新店區安民街337號","121.517215","24.9748766666667","6500600","新店區"
"231059","046-UY","2019/06/22 19:59:17","新北市新店區安和路一段15號","121.516806666667","24.9640866666667","6500600","新店區"
"231051","107-UY","2019/06/22 19:59:10","新北市新店區中央三街43號","121.527831666667","24.9744533333333","6500600","新店區"
"231049","108-UY","2019/06/22 19:59:19","新北市新店區民族路22號","121.541015","24.9787066666667","6500600","新店區"
"231065","110-UY","2019/06/22 19:59:13","新北市新店區安祥路106巷6弄1號","121.478821666667","24.9626316666667","6500600","新店區"
"231068","187-VK","2019/06/22 19:59:07","新北市新店區安一路一段1-1號","121.519601666667","24.961295","6500600","新店區"
"231062","256-BX","2019/06/22 19:59:02","新北市新店區華城路36巷1-1號","121.528083333333","24.95545","6500600","新店區"
"231054","260-TV","2019/06/22 19:59:17","新北市新店區光明街139號","121.53949","24.9620366666667","6500600","新店區"
"231042","268-BY","2019/06/22 19:59:07","新北市新店區中興路一段290號","121.545836666667","24.969065","6500600","新店區"
"231064","278-BY","2019/06/22 19:59:11","新北市新店區吉安街9號","121.516701666667","24.9657216666667","6500600","新店區"
"231050","AAD-862","2019/06/22 19:59:18","新北市新店區北宜路二段185號","121.552641666667","24.9532116666667","6500600","新店區"
"231045","355-BY","2019/06/22 19:59:20","新北市新店區北宜路二段419-2號","121.560316666667","24.9544133333333","6500600","新店區"
"231055","4716-K9","2019/06/22 19:59:16","新北市新店區力行路14巷16弄2號","121.539143333333","24.96536","6500600","新店區"
"231056","4715-K9","2019/06/22 19:59:24","新北市新店區北新路二段59巷1號","121.542375","24.97297","6500600","新店區"
"231067","4772-VM","2019/06/22 19:59:19","新北市新店區秀山路11巷24號","121.5315","24.9586816666667","6500600","新店區"
"231052","513-UM","2019/06/22 19:59:09","新北市新店區新烏路三段寶島巷2弄3號","121.55202","24.8986416666667","6500600","新店區"
"231040","617-UM","2019/06/22 19:59:20","新北市新店區中正路75巷71號","121.543215","24.9688883333333","6500600","新店區"
"231041","619-UM","2019/06/22 19:59:08","新北市新店區中央路17號","121.53324","24.9783283333333","6500600","新店區"
"231063","641-BX","2019/06/22 19:59:13","新北市新店區車子路11號","121.503035","24.9520366666667","6500600","新店區"
"231048","KED-0819","2019/06/22 19:59:23","新北市新店區寶宏路38號","121.549381666667","24.97557","6500600","新店區"
"231057","720-UM","2019/06/22 19:59:02","新北市新店區花園二路一段11號","121.555456666667","24.9325433333333","6500600","新店區"
"231044","897-TW","2019/06/22 19:59:20","新北市新店區復興路27號","121.539018333333","24.98673","6500600","新店區"
"231043","899-TW","2019/06/22 19:59:10","新北市新店區中正路263-4號","121.538256666667","24.973795","6500600","新店區"
"231066","AKT-0513","2019/06/22 19:59:14","新北市新店區安康路二段341巷38號","121.49665","24.9543666666667","6500600","新店區"
"241011","013-R5","2019/06/22 19:59:22","新北市三重區三和路三段37號","121.495795","25.0711783333333","6500200","三重區"
"241028","022-UY","2019/06/22 19:59:10","新北市三重區中正南路47號","121.493961666667","25.0596183333333","6500200","三重區"
"241008","059-VK","2019/06/22 19:59:14","新北市三重區永福街179巷21號","121.478195","25.0749516666667","6500200","三重區"
"241012","060-VK","2019/06/22 19:59:12","新北市三重區仁厚街35號","121.500046666667","25.0764033333333","6500200","三重區"
"241031","061-VK","2019/06/22 19:59:07","新北市三重區重新路四段144巷15號","121.486838333333","25.05537","6500200","三重區"
"241015","062-VK","2019/06/22 19:59:14","新北市三重區三和路二段6-1號","121.501315","25.0666766666667","6500200","三重區"
"241017","063-VK","2019/06/22 19:59:20","新北市三重區重陽路三段97號","121.490291666667","25.06818","6500200","三重區"
"241024","065-VK","2019/06/22 19:59:07","新北市三重區大勇街38號","121.481396666667","25.0717033333333","6500200","三重區"
"241001","066-VK","2019/06/22 19:59:24","新北市三重區福隆路7號","121.489535","25.0770633333333","6500200","三重區"
"241005","262-UM","2019/06/22 19:59:14","新北市三重區溪尾街325巷40弄1號","121.488721666667","25.0833016666667","6500200","三重區"
"241016","266-UM","2019/06/22 19:59:15","新北市三重區正義北路36巷13號","121.496805","25.0634333333333","6500200","三重區"
"241009","267-UM","2019/06/22 19:59:12","新北市三重區三和路四段388-2號","121.48207","25.07918","6500200","三重區"
"241018","268-UM","2019/06/22 19:59:19","新北市三重區雙園街57巷14號","121.494675","25.0677866666667","6500200","三重區"
"241032","269-UM","2019/06/22 19:59:20","新北市三重區朝陽街55號","121.483471666667","25.0575483333333","6500200","三重區"
"241013","270-UM","2019/06/22 19:59:15","新北市三重區三和路三段125巷33號","121.49384","25.07363","6500200","三重區"
"241025","271-UM","2019/06/22 19:59:10","新北市三重區頂崁街210巷26號","121.476056666667","25.0678833333333","6500200","三重區"
"241007","398-BY","2019/06/22 19:59:16","新北市三重區溪尾街154號","121.488976666667","25.0799816666667","6500200","三重區"
"241035","KEA-2210","2019/06/22 19:59:19","新北市三重區大榮街9號","121.498256666667","25.0631316666667","6500200","三重區"
"241002","462-BY","2019/06/22 19:59:10","新北市三重區仁愛街351號","121.492176666667","25.0799333333333","6500200","三重區"
"241004","475-VK","2019/06/22 19:59:25","新北市三重區仁愛街425巷91-1號","121.49224","25.082685","6500200","三重區"
"241020","478-VK","2019/06/22 19:59:25","新北市三重區忠孝路一段101號","121.489463333333","25.072135","6500200","三重區"
"241026","480-VK","2019/06/22 19:59:22","新北市三重區中央南路1號","121.50123","25.0631016666667","6500200","三重區"
"241014","543-UM","2019/06/22 19:59:24","新北市三重區三和路二段156號","121.499418333333","25.068445","6500200","三重區"
"241023","545-UM","2019/06/22 19:56:27","新北市三重區頂崁街172號","121.477763333333","25.0659833333333","6500200","三重區"
"241006","AAD-863","2019/06/22 19:59:11","新北市三重區下竹圍街93巷17號","121.48203","25.0748483333333","6500200","三重區"
"241019","743-BX","2019/06/22 19:59:07","新北市三重區重陽路四段25號","121.491321666667","25.0694483333333","6500200","三重區"
"241022","KED-0820","2019/06/22 19:59:12","新北市三重區過圳街19號","121.488735","25.0605633333333","6500200","三重區"
"241029","942-UM","2019/06/22 19:59:12","新北市三重區重安街1號","121.489813333333","25.05832","6500200","三重區"
"235066","003-UY","2019/06/22 19:59:07","新北市中和區中山路二段26號","121.504645","25.00527","6500300","中和區"
"235056","096-UM","2019/06/22 19:59:10","新北市中和區中山路三段165號","121.473271666667","25.0062416666667","6500300","中和區"
"235039","097-UM","2019/06/22 19:59:17","新北市中和區景平路278巷16弄24號","121.514426666667","24.99377","6500300","中和區"
"235065","098-UM","2019/06/22 19:59:08","新北市中和區永和路90巷2弄22號","121.498225","25.00551","6500300","中和區"
"235040","150-BY","2019/06/22 19:59:25","新北市中和區保健路31號","121.508675","24.9977533333333","6500300","中和區"
"235058","151-BY","2019/06/22 19:59:15","新北市中和區員山路127-1號","121.481043333333","24.995635","6500300","中和區"
"235055","183-VK","2019/06/22 19:59:12","新北市中和區民生街4號","121.471175","25.0063766666667","6500300","中和區"
"235067","255-BX","2019/06/22 19:59:09","新北市板橋區民生路二段89-1號","121.471553333333","25.0180733333333","6500300","中和區"
"235044","293-VK","2019/06/22 19:59:22","新北市中和區景安路218號","121.503858333333","24.9905383333333","6500300","中和區"
"247014","KEA-2869","2019/06/22 19:59:10","新北市蘆洲區成功路164號","121.471438333333","25.0834833333333","6501400","蘆洲區"
"247008","KED-0682","2019/06/22 19:59:17","新北市蘆洲區信義路115號","121.478453333333","25.0802983333333","6501400","蘆洲區"
"235050","4979-A6","2019/06/22 19:59:18","新北市中和區景平路241巷64弄1號","121.507635","24.9924333333333","6500300","中和區"
"235070","558-UM","2019/06/22 19:59:06","新北市中和區錦和路79號","121.489858333333","24.9960633333333","6500300","中和區"
"235047","732-UM","2019/06/22 19:59:17","新北市中和區和平街164-4號","121.505593333333","24.9921333333333","6500300","中和區"
"235046","733-UM","2019/06/22 19:59:16","新北市中和區忠孝街31巷56號","121.509866666667","24.9857233333333","6500300","中和區"
"235026","800-TS","2019/06/22 19:59:15","新北市中和區員山路36巷16-2號","121.485321666667","24.9914883333333","6500300","中和區"
"235052","805-TS","2019/06/22 19:59:24","新北市中和區華新街83號","121.508353333333","24.9836033333333","6500300","中和區"
"235048","896-TW","2019/06/22 19:59:19","新北市中和區景新街524號","121.514415","24.9866533333333","6500300","中和區"
"235051","157-BY","2019/06/22 19:59:20","新北市中和區景安路221號","121.504323333333","24.9913566666667","6500300","中和區"
"235037","AAC-213","2019/06/22 19:59:23","新北市中和區秀朗路三段128巷17弄43號","121.522841666667","24.9930966666667","6500300","中和區"
"235059","AAC-215","2019/06/22 19:59:16","新北市中和區圓通路305巷5弄1號","121.493603333333","24.990305","6500300","中和區"
"220065","072-UY","2019/06/22 19:59:08","新北市板橋區民族路256號","121.469135","25.0071166666667","6500100","板橋區"
"220086","073-UY","2019/06/22 19:59:05","新北市板橋區中正路1巷2弄2號","121.455803333333","25.0119616666667","6500100","板橋區"
"220106","075-UY","2019/06/22 19:59:14","新北市板橋區懷德街66巷22號","121.476883333333","25.0319216666667","6500100","板橋區"
"220069","AAD-861","2019/06/22 19:59:12","新北市板橋區大明街25巷2弄23號","121.457513333333","25.0025183333333","6500100","板橋區"
"247004","893-R6","2019/06/22 19:59:19","新北市蘆洲區長安街196號","121.458741666667","25.08396","6501400","蘆洲區"
"247018","546-UM","2019/06/22 19:59:10","新北市蘆洲區民族路290巷11號","121.478385","25.08985","6501400","蘆洲區"
"247024","337-TH","2019/06/22 19:59:03","新北市蘆洲區光榮路120巷12號","121.465301666667","25.0884566666667","6501400","蘆洲區"
"247002","336-TH","2019/06/22 19:59:10","新北市蘆洲區長安街272號","121.457423333333","25.087","6501400","蘆洲區"
"247012","056-VK","2019/06/22 19:59:07","新北市蘆洲區民族路151號","121.479573333333","25.0879833333333","6501400","蘆洲區"
"247016","053-VK","2019/06/22 19:59:15","新北市蘆洲區光華路23-1號","121.469395","25.08321","6501400","蘆洲區"
"247020","007-UY","2019/06/22 19:59:18","新北市蘆洲區民義街53號","121.472838333333","25.089775","6501400","蘆洲區"
"247006","002-UY","2019/06/22 19:59:18","新北市蘆洲區九芎街143號","121.465691666667","25.0792583333333","6501400","蘆洲區"
"226004","312-R5","2019/06/22 19:59:09","新北市平溪區十分里十分街129號","121.776955","25.04331","6502400","平溪區"
"228003","828-UM","2019/06/22 19:59:05","新北市貢寮區仁理村仁和路23號","121.923858333333","25.0535766666667","6502600","貢寮區"
"224010","AGQ-8101","2019/06/22 19:59:08","新北市瑞芳區輕便路220號","121.844986666667","25.1090566666667","6501200","瑞芳區"
"227002","642-TC","2019/06/22 19:59:23","新北市雙溪區雙溪里長安街16號","121.864995","25.0347516666667","6502500","雙溪區"
"222001","KEA-2212","2019/06/22 19:59:13","新北市深坑區北深路三段120號","121.606533333333","25.00164","6501800","深坑區"
"208001","AAC-292","2019/06/22 19:59:25","新北市金山區重和里林口18號","121.597668333333","25.2107816666667","6502700","金山區"
"208002","KEA-2872","2019/06/22 19:59:08","新北市金山區中山路16號","121.641775","25.2182616666667","6502700","金山區"
"208003","665-BX","2019/06/22 19:59:07","新北市金山區永興里忠義路3號","121.632566666667","25.2596233333333","6502700","金山區"
"251009","008-UM","2019/06/22 19:59:06","新北市淡水區英專路21巷21號","121.444845","25.1697483333333","6501000","淡水區"
"251004","009-UM","2019/06/22 19:59:14","新北市淡水區民權路177巷7號","121.460788333333","25.1355333333333","6501000","淡水區"
"251005","010-UM","2019/06/22 19:59:08","新北市淡水區學府路136巷14號","121.451035","25.1728666666667","6501000","淡水區"
"251001","011-UM","2019/06/22 19:59:20","新北市淡水區北新路一段2-15號","121.4537","25.1803316666667","6501000","淡水區"
"251015","KEA-2871","2019/06/22 19:59:16","新北市三芝區興華里田心子26號","121.492491666667","25.195415","6501000","淡水區"
"251016","179-VK","2019/06/22 19:54:44","新北市淡水區淡金路三段446號","121.450691666667","25.2143183333333","6501000","淡水區"
"251008","181-VK","2019/06/22 19:59:06","新北市淡水區淡海路63巷18號","121.422518333333","25.180565","6501000","淡水區"
"251013","182-VK","2019/06/22 19:59:21","新北市淡水區奎柔山路63號","121.451756666667","25.2060633333333","6501000","淡水區"
"251012","441-VK","2019/06/22 19:59:18","新北市淡水區下圭柔山91巷6號","121.437901666667","25.210705","6501000","淡水區"
"251007","442-VK","2019/06/22 19:59:06","新北市淡水區淡金路73號","121.455995","25.16189","6501000","淡水區"
"251006","561-UM","2019/06/22 19:59:05","新北市淡水區水碓街39號","121.44391","25.1773133333333","6501000","淡水區"
"251014","577-R6","2019/06/22 19:59:17","新北市淡水區石頭厝12-3號","121.461643333333","25.23644","6501000","淡水區"
"251011","650-BX","2019/06/22 19:59:20","新北市淡水區淡金路二段138號","121.447016666667","25.1881733333333","6501000","淡水區"
"251002","672-BX","2019/06/22 19:59:04","新北市淡水區新市一路一段6號","121.429045","25.1873283333333","6501000","淡水區"
"207003","550-UM","2019/06/22 19:59:20","新北市萬里區磺潭里公館崙5號","121.641913333333","25.21425","6502800","萬里區"
"207004","225-TW","2019/06/22 19:59:18","新北市萬里區北基里忠二街35號","121.685655","25.175755","6502800","萬里區"
"252002","178-VK","2019/06/22 19:59:25","新北市三芝區三民街39巷5號","121.505473333333","25.2576483333333","6502100","三芝區"
"237004","KEA-2597","2019/06/22 19:59:21","新北市三峽區添福15-32號","121.37255","24.90477","6500900","三峽區"
"237009","210-TH","2019/06/22 19:59:18","新北市三峽區民族街78巷2弄2號","121.368865","24.9299216666667","6500900","三峽區"
"237012","275-BY","2019/06/22 19:59:19","新北市三峽區中華路66號","121.371625","24.9296833333333","6500900","三峽區"
"237008","302-VK","2019/06/22 19:59:21","新北市三峽區中正路一段174巷16號","121.371845","24.9289016666667","6500900","三峽區"
"237014","433-BY","2019/06/22 19:59:17","新北市三峽區添福9-3號","121.371415","24.9072783333333","6500900","三峽區"
"237006","5529-G3","2019/06/22 19:59:14","新北市三峽區中正路二段168號","121.366023333333","24.9156283333333","6500900","三峽區"
"237015","649-BX","2019/06/22 19:59:21","新北市三峽區介壽路二段138巷1弄13-1號","121.3963","24.9338533333333","6500900","三峽區"
"237005","AKY-6261","2019/06/22 19:59:10","新北市三峽區民生街1巷19-15號","121.379275","24.936285","6500900","三峽區"
"236042","KED-0685","2019/06/22 19:59:04","新北市土城區學府路一段98巷16號","121.455855","24.9886166666667","6501300","土城區"
"220089","KED-0812","2019/06/22 19:59:10","新北市板橋區四維路137巷1弄1號","121.464875","25.02515","6500100","板橋區"
"236079","166-UM","2019/06/22 19:59:07","新北市土城區溪頭路108號","121.40868","24.9508716666667","6501300","土城區"
"236030","253-BX","2019/06/22 19:59:14","新北市土城區中央路一段252號","121.444278333333","24.9846366666667","6501300","土城區"
"236026","269-VK","2019/06/22 19:59:10","新北市土城區員林街1號","121.442495","24.9781483333333","6501300","土城區"
"236014","270-VK","2019/06/22 19:59:21","新北市土城區廣福街123號","121.456243333333","24.9929283333333","6501300","土城區"
"236038","271-VK","2019/06/22 19:59:05","新北市土城區國際路57號","121.466676666667","24.9768666666667","6501300","土城區"
"236070","KEA-2877","2019/06/22 19:59:21","新北市土城區千歲路11號","121.440878333333","24.9697233333333","6501300","土城區"
"252001","KED-0821","2019/06/22 19:59:22","新北市三芝區公正街9號","121.499716666667","25.257485","6502100","三芝區"
"236021","401-BY","2019/06/22 19:59:23","新北市土城區延吉街111巷12弄20號","121.47151","24.9854783333333","6501300","土城區"
"236059","912-UM","2019/06/22 19:59:10","新北市土城區中央路一段289-1號","121.444223333333","24.9841716666667","6501300","土城區"
"236049","913-UM","2019/06/22 19:59:16","新北市土城區金城路三段262號","121.4744","24.9907933333333","6501300","土城區"
"236063","915-UM","2019/06/22 19:59:11","新北市土城區延和路64號","121.465831666667","24.9889433333333","6501300","土城區"
"236055","AAC-216","2019/06/22 19:59:17","新北市土城區學府路一段81號","121.456693333333","24.9881483333333","6501300","土城區"
"242039","AAC-296","2019/06/22 19:59:09","新北市新莊區民安路314號","121.42846","25.0220316666667","6500500","新莊區"
"242061","986-R7","2019/06/22 19:59:19","新北市新莊區瓊泰路53號","121.443435","25.0284666666667","6500500","新莊區"
"242002","751-BX","2019/06/22 19:59:16","新北市新莊區新泰路103號","121.449003333333","25.034935","6500500","新莊區"
"242029","615-BX","2019/06/22 19:59:15","新北市新莊區中榮街152巷42號","121.445486666667","25.0537583333333","6500500","新莊區"
"242058","612-BX","2019/06/22 19:59:04","新北市新莊區八德街100號","121.42422","25.0213316666667","6500500","新莊區"
"242017","442-UM","2019/06/22 19:59:22","新北市新莊區中安街1號","121.452775","25.045305","6500500","新莊區"
"242056","441-UM","2019/06/22 19:59:18","新北市新莊區中正路347巷19號","121.44721","25.03419","6500500","新莊區"
"242004","440-UM","2019/06/22 19:59:10","新北市新莊區化成路478號","121.46612","25.0515933333333","6500500","新莊區"
"242011","413-TV","2019/06/22 19:59:20","新北市新莊區中港路531巷54號","121.45007","25.0515383333333","6500500","新莊區"
"242025","362-BY","2019/06/22 19:59:16","新北市新莊區五工一路86號","121.461326666667","25.0674116666667","6500500","新莊區"
"242023","353-BY","2019/06/22 19:59:16","新北市新莊區化成路199號","121.46588","25.050675","6500500","新莊區"
"242013","132-UY","2019/06/22 19:59:08","新北市新莊區中港路417巷18號","121.451575","25.047525","6500500","新莊區"
"242036","135-UY","2019/06/22 19:59:06","新北市新莊區建安街25巷2號","121.429135","25.025895","6500500","新莊區"
"242053","172-VK","2019/06/22 19:59:22","新北市新莊區西盛街422號","121.427101666667","25.0120616666667","6500500","新莊區"
"242015","173-VK","2019/06/22 19:59:15","新北市新莊區泰順街46號","121.447115","25.042855","6500500","新莊區"
"242048","175-VK","2019/06/22 19:59:13","新北市新莊區富國路109巷3號","121.423725","25.02518","6500500","新莊區"
"242019","KED-0687","2019/06/22 19:59:25","新北市新莊區民生街15巷9號","121.455295","25.0426183333333","6500500","新莊區"
"242021","346-TH","2019/06/22 19:59:17","新北市新莊區建中街16巷33號","121.448818333333","25.0385833333333","6500500","新莊區"
"242031","347-TH","2019/06/22 19:59:07","新北市新莊區中正路352號","121.443941666667","25.0345283333333","6500500","新莊區"
"242034","348-TH","2019/06/22 19:59:22","新北市新莊區建中街94號","121.446718333333","25.0365766666667","6500500","新莊區"
"242051","350-TH","2019/06/22 19:59:08","新北市新莊區西盛街131號","121.428265","25.0186183333333","6500500","新莊區"
"238021","KEA-2539","2019/06/22 19:59:07","新北市樹林區佳園路三段99巷19-1號","121.388356666667","24.952185","6500700","樹林區"
"238017","283-BY","2019/06/22 19:59:11","新北市樹林區保安街二段45巷28號","121.414543333333","25.0002483333333","6500700","樹林區"
"239002","359-BY","2019/06/22 19:59:16","新北市鶯歌區環河路155-8號","121.346928333333","24.93911","6500800","鶯歌區"
"221008","489-VK","2019/06/22 19:59:05","新北市汐止區康寧街83巷42-1號","121.620911666667","25.0674216666667","6501100","汐止區"
"221015","131-UY","2019/06/22 19:59:07","新北市汐止區橋東街20號","121.666406666667","25.07566","6501100","汐止區"
"221010","269-BY","2019/06/22 19:59:14","新北市汐止區汐萬路一段353號","121.650156666667","25.0773583333333","6501100","汐止區"
"221012","278-VK","2019/06/22 19:59:20","新北市汐止區保長路273巷1號","121.681053333333","25.0741566666667","6501100","汐止區"
"221023","279-VK","2019/06/22 19:59:18","新北市汐止區民族三街42號","121.629678333333","25.070035","6501100","汐止區"
"221027","281-BY","2019/06/22 19:59:05","新北市汐止區中正路87號","121.661275","25.0694333333333","6501100","汐止區"
"221029","298-VK","2019/06/22 19:58:21","新北市汐止區樟樹一路139巷9號","121.641845","25.0660483333333","6501100","汐止區"
"221021","299-VK","2019/06/22 19:59:18","新北市汐止區莊敬街128-3號","121.6547","25.0613766666667","6501100","汐止區"
"221031","353-TW","2019/06/22 19:59:11","新北市汐止區福德二路55巷6弄11號","121.634658333333","25.0664783333333","6501100","汐止區"
"221035","622-UM","2019/06/22 19:59:17","新北市汐止區長江街9號","121.654686666667","25.071205","6501100","汐止區"
"221038","646-BX","2019/06/22 19:59:24","新北市汐止區忠孝東路487-8號","121.666255","25.074095","6501100","汐止區"
"221033","647-BX","2019/06/22 19:59:10","新北市汐止區東勢街190巷3號","121.633873333333","25.041615","6501100","汐止區"
"220079","145-BY","2019/06/22 19:59:09","新北市板橋區建國街5號","121.457276666667","25.01688","6500100","板橋區"
"220080","200-UY","2019/06/22 19:59:15","新北市板橋區大觀路二段79巷2弄16號","121.447401666667","25.001625","6500100","板橋區"
"220082","610-BX","2019/06/22 19:59:14","新北市板橋區存德街24號","121.429885","24.9917733333333","6500100","板橋區"
"220101","245-BX","2019/06/22 19:59:07","新北市板橋區莒光路165巷32號","121.474456666667","25.0246833333333","6500100","板橋區"
"224002","257-TC","2019/06/22 19:59:25","新北市瑞芳區員山子路3-1號","121.81901","25.1046533333333","6501200","瑞芳區"
"220091","267-BY","2019/06/22 19:59:17","新北市板橋區懷德街174巷1-18號","121.47905","25.029495","6500100","板橋區"
"220056","276-BY","2019/06/22 19:59:24","新北市板橋區四川路二段99巷11號","121.45311","24.9942616666667","6500100","板橋區"
"220072","277-BY","2019/06/22 19:59:06","新北市板橋區篤行路二段77巷13-1號","121.432695","24.9917183333333","6500100","板橋區"
"220071","283-VK","2019/06/22 19:59:06","新北市板橋區五權街32巷32號","121.463733333333","24.99263","6500100","板橋區"
"220094","285-UM","2019/06/22 19:59:18","新北市板橋區文化路一段371號","121.466791666667","25.0215533333333","6500100","板橋區"
"220053","285-VK","2019/06/22 19:59:21","新北市板橋區懷仁街61號","121.477133333333","25.0187983333333","6500100","板橋區"
"220083","286-VK","2019/06/22 19:59:14","新北市板橋區僑中二街10巷21號","121.446043333333","25.0110116666667","6500100","板橋區"
"220081","287-VK","2019/06/22 19:59:16","新北市板橋區大觀路一段28巷113號","121.449805","25.0123616666667","6500100","板橋區"
"220090","288-VK","2019/06/22 19:59:23","新北市板橋區新海路72巷3號","121.46214","25.0220016666667","6500100","板橋區"
"220061","293-UM","2019/06/22 19:59:11","新北市板橋區觀光街4巷2弄2-3號","121.472301666667","25.01581","6500100","板橋區"
"220084","296-UM","2019/06/22 19:59:21","新北市樹林區水源街213號","121.424235","24.9870916666667","6500100","板橋區"
"242044","281-VK","2019/06/22 19:59:22","新北市新莊區中正路746巷43-3號","121.41198","25.0242516666667","6500500","新莊區"
"220075","303-R5","2019/06/22 19:59:17","新北市板橋區金華街10巷52號","121.45705","25.0201833333333","6500100","板橋區"
"220062","305-R5","2019/06/22 19:59:22","新北市板橋區中山路二段318巷4號","121.480213333333","25.01915","6500100","板橋區"
"220092","307-R5","2019/06/22 19:59:11","新北市板橋區光正街45巷35號","121.461771666667","25.0157016666667","6500100","板橋區"
"220098","317-R6","2019/06/22 19:59:19","新北市板橋區裕民街111巷1號","121.459831666667","25.0274133333333","6500100","板橋區"
"220088","491-VK","2019/06/22 19:59:17","新北市板橋區民治街92號","121.479255","25.0318816666667","6500100","板橋區"
"220103","561-BX","2019/06/22 19:59:21","新北市板橋區漢生東路23巷49號","121.465958333333","25.0181316666667","6500100","板橋區"
"220063","609-BX","2019/06/22 19:59:12","新北市板橋區中山路二段88號","121.475203333333","25.016385","6500100","板橋區"
"220035","630-UY","2019/06/22 19:59:10","新北市板橋區新生街88巷7號","121.458361666667","25.0214816666667","6500100","板橋區"
"220057","686-BX","2019/06/22 19:59:22","新北市板橋區四川路二段245巷32號","121.451436666667","24.9927966666667","6500100","板橋區"
"220077","687-BX","2019/06/22 19:59:14","新北市板橋區僑中一街150號","121.44476","25.0121","6500100","板橋區"
"220093","689-BX","2019/06/22 19:59:22","新北市板橋區民生路三段252號","121.464453333333","25.0312083333333","6500100","板橋區"
"220054","741-BX","2019/06/22 19:59:13","新北市板橋區忠孝路忠義巷9弄44號","121.465266666667","25.0045633333333","6500100","板橋區"
"220102","KEA-2699","2019/06/22 19:59:05","新北市板橋區文化路一段370-1號","121.46978","25.0235233333333","6500100","板橋區"
"220055","827-TW","2019/06/22 19:59:23","新北市板橋區國慶路149巷4弄18-3號","121.461921666667","24.9970216666667","6500100","板橋區"
"220067","829-TW","2019/06/22 19:59:20","新北市板橋區漢生東路193巷27號","121.471088333333","25.012315","6500100","板橋區"
"220068","831-TW","2019/06/22 19:59:17","新北市板橋區中山路二段492號","121.485355","25.021885","6500100","板橋區"
"220074","895-R6","2019/06/22 19:59:22","新北市板橋區明德街2-2號","121.459731666667","25.009985","6500100","板橋區"
"220073","985-R7","2019/06/22 19:59:08","新北市板橋區中正路170號","121.456523333333","25.0172216666667","6500100","板橋區"
"220097","AAC-210","2019/06/22 19:59:17","新北市板橋區光正街18巷2號","121.462708333333","25.017195","6500100","板橋區"
"220064","AAC-253","2019/06/22 19:59:21","新北市板橋區長安街331巷91-2號","121.471963333333","25.012645","6500100","板橋區"
"235068","KEA-2873","2019/06/22 19:59:19","新北市中和區中山路二段250巷13號","121.497248333333","25.0032566666667","6500300","中和區"
