"lineid","car","time","location","longitude","latitude","cityid","cityname"
"234064","337-UY","2019/06/22 20:49:11","新北市中和區環河西路三段123號","121.489443333333","25.0103133333333","6500400","永和區"
"234081","748-BX","2019/06/22 20:49:08","新北市永和區永貞路72號","121.520296666667","25.0053116666667","6500400","永和區"
"249004","303-UY","2019/06/22 20:49:16","新北市八里區中山路一段150巷2號","121.418151666667","25.1597","6502300","八里區"
"234074","AAC-211","2019/06/22 20:49:25","新北市永和區豫溪街191巷7弄8號","121.523833333333","25.0108916666667","6500400","永和區"
"222003","436-BY","2019/06/22 20:49:16","新北市深坑區文山路三段48-1號","121.609871666667","24.9985183333333","6501800","深坑區"
"222002","659-BX","2019/06/22 20:49:24","新北市深坑區北深路三段107巷29號","121.60418","25.000565","6501800","深坑區"
"231060","001-UM","2019/06/22 20:48:56","新北市新店區安康路三段738號","121.473923333333","24.9419633333333","6500600","新店區"
"231061","002-UM","2019/06/22 20:49:24","新北市新店區新和街120號","121.521235","24.9865766666667","6500600","新店區"
"231058","0293-UT","2019/06/22 20:49:08","新北市新店區平等街48巷2號","121.536131666667","24.9729016666667","6500600","新店區"
"231059","046-UY","2019/06/22 20:49:17","新北市新店區僑愛七路9號","121.500625","24.9442866666667","6500600","新店區"
"231051","107-UY","2019/06/22 20:49:10","新北市新店區溪園路249號","121.524086666667","24.982315","6500600","新店區"
"231049","108-UY","2019/06/22 20:49:20","新北市新店區華潭街10號","121.529698333333","24.95222","6500600","新店區"
"231065","110-UY","2019/06/22 20:49:12","新北市新店區安祥路104巷6弄34號","121.482948333333","24.962915","6500600","新店區"
"231068","187-VK","2019/06/22 20:49:07","新北市新店區中興路三段228巷28號","121.544763333333","24.9834666666667","6500600","新店區"
"231062","256-BX","2019/06/22 20:49:22","新北市新店區和成街19巷22號","121.48764","24.9460433333333","6500600","新店區"
"231054","260-TV","2019/06/22 20:49:17","新北市新店區五峰路26號","121.54369","24.9689233333333","6500600","新店區"
"231042","268-BY","2019/06/22 20:49:07","新北市新店區寶高路120巷1號","121.554631666667","24.97612","6500600","新店區"
"231064","278-BY","2019/06/22 20:49:11","新北市新店區安民街365巷7弄2號","121.516111666667","24.9755483333333","6500600","新店區"
"231050","AAD-862","2019/06/22 20:49:18","新北市新店區三民路20巷13號","121.537726666667","24.9710483333333","6500600","新店區"
"231045","355-BY","2019/06/22 20:48:59","新北市新店區新坡一街80-3號","121.547316666667","24.9641233333333","6500600","新店區"
"231067","4772-VM","2019/06/22 20:49:19","新北市新店區安德街100號","121.50948","24.9609733333333","6500600","新店區"
"231052","513-UM","2019/06/22 20:49:09","新北市新店區新烏路二段198巷2弄6號","121.548048333333","24.9176733333333","6500600","新店區"
"231040","617-UM","2019/06/22 20:49:20","新北市新店區中正路268號","121.538996666667","24.9735583333333","6500600","新店區"
"231041","619-UM","2019/06/22 20:49:07","台北市文山區景文街146巷26號","121.533335","24.9915483333333","6500600","新店區"
"231063","641-BX","2019/06/22 20:49:14","新北市新店區富貴街11巷34號","121.494931666667","24.948345","6500600","新店區"
"231048","KED-0819","2019/06/22 20:49:03","新北市新店區文化路73巷1號","121.544753333333","24.9826316666667","6500600","新店區"
"231057","720-UM","2019/06/22 20:49:22","新北市新店區新烏路一段109號","121.545665","24.9401983333333","6500600","新店區"
"231044","897-TW","2019/06/22 20:49:20","新北市新店區民族路105號","121.53843","24.977435","6500600","新店區"
"231043","899-TW","2019/06/22 20:49:10","新北市新店區建國路35巷2號","121.540476666667","24.9746483333333","6500600","新店區"
"231066","AKT-0513","2019/06/22 20:49:14","新北市新店區安民街365巷1弄10號","121.516578333333","24.9752066666667","6500600","新店區"
"241011","013-R5","2019/06/22 20:49:22","新北市三重區龍濱路251號","121.5015","25.072655","6500200","三重區"
"241028","022-UY","2019/06/22 20:49:10","新北市三重區中正南路46號","121.493923333333","25.060025","6500200","三重區"
"241008","059-VK","2019/06/22 20:49:14","新北市三重區永福街72巷11號","121.479386666667","25.0767583333333","6500200","三重區"
"241012","060-VK","2019/06/22 20:49:12","新北市三重區龍門路274巷45號","121.501206666667","25.0755383333333","6500200","三重區"
"241031","061-VK","2019/06/22 20:48:47","新北市三重區重陽路一段113巷2弄4號","121.487308333333","25.06007","6500200","三重區"
"241015","062-VK","2019/06/22 20:49:14","新北市三重區三和路二段115號","121.499233333333","25.06873","6500200","三重區"
"241017","063-VK","2019/06/22 20:49:20","新北市三重區民生街23號","121.491673333333","25.067065","6500200","三重區"
"241024","065-VK","2019/06/22 20:49:07","新北市三重區中正北路253號","121.475538333333","25.0709416666667","6500200","三重區"
"241001","066-VK","2019/06/22 20:49:04","新北市三重區三和路四段124號","121.489195","25.0751833333333","6500200","三重區"
"241003","091-VK","2019/06/22 20:49:22","新北市三重區集賢路87-1號","121.493603333333","25.086825","6500200","三重區"
"241005","262-UM","2019/06/22 20:49:14","新北市三重區五華街141巷32號","121.49226","25.0857616666667","6500200","三重區"
"241016","266-UM","2019/06/22 20:49:15","新北市三重區自強路一段162號","121.495706666667","25.0661916666667","6500200","三重區"
"241009","267-UM","2019/06/22 20:49:07","新北市三重區三和路四段205號","121.481923333333","25.0793833333333","6500200","三重區"
"241018","268-UM","2019/06/22 20:49:18","新北市三重區正義北路223號","121.496031666667","25.0688516666667","6500200","三重區"
"241032","269-UM","2019/06/22 20:49:20","新北市三重區興華街73號","121.48494","25.0601083333333","6500200","三重區"
"241013","270-UM","2019/06/22 20:49:15","新北市三重區仁愛街131號","121.495586666667","25.074905","6500200","三重區"
"241025","271-UM","2019/06/22 20:49:10","新北市三重區貴陽街21號","121.484336666667","25.0618766666667","6500200","三重區"
"241007","398-BY","2019/06/22 20:49:16","新北市三重區慈愛街10號","121.484513333333","25.0784366666667","6500200","三重區"
"241035","KEA-2210","2019/06/22 20:49:19","新北市三重區自強路一段61號","121.497795","25.0671933333333","6500200","三重區"
"241002","462-BY","2019/06/22 20:49:10","新北市三重區仁義街157巷96號","121.499175","25.0822516666667","6500200","三重區"
"241004","475-VK","2019/06/22 20:49:05","新北市三重區分子尾街19號","121.489518333333","25.0810216666667","6500200","三重區"
"241020","478-VK","2019/06/22 20:49:25","新北市三重區忠孝路一段101號","121.489441666667","25.072235","6500200","三重區"
"241026","480-VK","2019/06/22 20:49:22","新北市三重區文化南路19號","121.50016","25.0620666666667","6500200","三重區"
"241014","543-UM","2019/06/22 20:49:24","新北市三重區長壽街120巷60號","121.501731666667","25.07039","6500200","三重區"
"241023","545-UM","2019/06/22 20:48:47","新北市三重區忠孝路三段84巷5號","121.48049","25.0644916666667","6500200","三重區"
"241006","AAD-863","2019/06/22 20:49:11","新北市三重區車路頭街139巷14號","121.484315","25.076195","6500200","三重區"
"241019","743-BX","2019/06/22 20:49:05","新北市三重區三張街69號","121.490176666667","25.07071","6500200","三重區"
"241022","KED-0820","2019/06/22 20:49:13","新北市三重區中正北路20巷12號","121.488028333333","25.0624516666667","6500200","三重區"
"241029","942-UM","2019/06/22 20:49:21","新北市三重區重安街34-1號","121.490791666667","25.0577316666667","6500200","三重區"
"235067","255-BX","2019/06/22 20:49:09","新北市板橋區文化路二段656號","121.480331666667","25.0403366666667","6500300","中和區"
"247014","KEA-2869","2019/06/22 20:49:10","新北市蘆洲區復興路56號","121.472858333333","25.0855466666667","6501400","蘆洲區"
"247008","KED-0682","2019/06/22 20:49:17","新北市三重區仁愛街747號","121.481215","25.0805916666667","6501400","蘆洲區"
"235069","4980-A6","2019/06/22 20:49:07","新北市中和區員山路379號","121.481183333333","25.002465","6500300","中和區"
"247004","893-R6","2019/06/22 20:49:19","新北市蘆洲區長安街100號","121.461733333333","25.0808433333333","6501400","蘆洲區"
"247018","546-UM","2019/06/22 20:49:19","新北市蘆洲區民權路70號","121.47497","25.08732","6501400","蘆洲區"
"247024","337-TH","2019/06/22 20:49:03","新北市蘆洲區長樂路140號","121.462133333333","25.0901866666667","6501400","蘆洲區"
"247002","336-TH","2019/06/22 20:49:16","新北市蘆洲區長安街240號","121.45771","25.0857","6501400","蘆洲區"
"247022","057-VK","2019/06/22 20:49:22","新北市蘆洲區民義街9巷2號","121.471271666667","25.08862","6501400","蘆洲區"
"247012","056-VK","2019/06/22 20:49:07","新北市三重區集賢路186號","121.48422","25.0883","6501400","蘆洲區"
"247016","053-VK","2019/06/22 20:49:15","新北市蘆洲區中正路69號","121.470345","25.0827083333333","6501400","蘆洲區"
"247006","002-UY","2019/06/22 20:49:18","新北市蘆洲區永安南路二段16巷5號","121.467728333333","25.077165","6501400","蘆洲區"
"222001","KEA-2212","2019/06/22 20:49:13","新北市深坑區北深路三段137號","121.603918333333","25.002585","6501800","深坑區"
"251001","011-UM","2019/06/22 20:49:20","新北市淡水區淡金路218號","121.460036666667","25.1669666666667","6501000","淡水區"
"251015","KEA-2871","2019/06/22 20:49:16","新北市淡水區淡金路三段446號","121.450856666667","25.2144066666667","6501000","淡水區"
"251016","179-VK","2019/06/22 20:49:05","新北市淡水區淡金路四段469號","121.451688333333","25.2238616666667","6501000","淡水區"
"251013","182-VK","2019/06/22 20:49:01","新北市淡水區行忠路115號","121.453673333333","25.1988766666667","6501000","淡水區"
"251010","413-VK","2019/06/22 20:49:24","新北市淡水區沙崙路141-1號","121.423333333333","25.183035","6501000","淡水區"
"251012","441-VK","2019/06/22 20:49:18","新北市淡水區淡金路四段514號","121.452053333333","25.2257666666667","6501000","淡水區"
"251007","442-VK","2019/06/22 20:49:26","新北市淡水區鄧公路29巷27號","121.452536666667","25.170325","6501000","淡水區"
"251006","561-UM","2019/06/22 20:49:25","新北市淡水區濱海路一段221號","121.437575","25.1898516666667","6501000","淡水區"
"251014","577-R6","2019/06/22 20:49:17","新北市淡水區公埔子32-8號","121.461631666667","25.2324","6501000","淡水區"
"251011","650-BX","2019/06/22 20:49:20","新北市淡水區新民街一段11號","121.433181666667","25.1845683333333","6501000","淡水區"
"251002","672-BX","2019/06/22 20:49:24","新北市淡水區鼻頭街18-1號","121.446838333333","25.1666716666667","6501000","淡水區"
"251003","766-UM","2019/06/22 20:49:19","新北市淡水區中山北路一段247巷106號","121.441961666667","25.1795183333333","6501000","淡水區"
"242039","AAC-296","2019/06/22 20:49:09","新北市新莊區新莊路769號","121.442345","25.0326133333333","6500500","新莊區"
"242002","751-BX","2019/06/22 20:49:16","新北市新莊區中港路五守新村10號","121.454781666667","25.0387683333333","6500500","新莊區"
"242058","612-BX","2019/06/22 20:49:04","新北市新莊區民安路106號","121.42412","25.0254666666667","6500500","新莊區"
"242056","441-UM","2019/06/22 20:49:18","新北市新莊區新莊路751巷126號","121.442413333333","25.0294666666667","6500500","新莊區"
"242004","440-UM","2019/06/22 20:49:10","新北市三重區新北大道二段69號","121.468763333333","25.0612883333333","6500500","新莊區"
"242042","415-TV","2019/06/22 20:49:19","新北市新莊區中正路700-38號","121.417508333333","25.0278283333333","6500500","新莊區"
"242011","413-TV","2019/06/22 20:49:20","新北市新莊區新北大道四段217號","121.443951666667","25.0569466666667","6500500","新莊區"
"242025","362-BY","2019/06/22 20:49:15","新北市五股區中直路13-7號","121.424948333333","25.11042","6500500","新莊區"
"242013","132-UY","2019/06/22 20:49:08","新北市新莊區中和街191巷33號","121.447021666667","25.0508","6500500","新莊區"
"242036","135-UY","2019/06/22 20:49:15","新北市新莊區中正路461號","121.442335","25.0339366666667","6500500","新莊區"
"242007","176-VK","2019/06/22 20:49:20","新北市新莊區思源路45號","121.459951666667","25.03993","6500500","新莊區"
"242031","347-TH","2019/06/22 20:49:26","新北市新莊區中正路508巷5弄2號","121.434995","25.0338583333333","6500500","新莊區"
"242034","348-TH","2019/06/22 20:49:22","新北市新莊區中正路250號","121.447953333333","25.03539","6500500","新莊區"
"242051","350-TH","2019/06/22 20:49:08","新北市新莊區民安東路45號","121.429301666667","25.0208966666667","6500500","新莊區"
"221036","130-UY","2019/06/22 20:49:19","新北市汐止區南昌街21號","121.66344","25.0692566666667","6501100","汐止區"
"221015","131-UY","2019/06/22 20:49:07","新北市汐止區大同路二段603號","121.663958333333","25.0706133333333","6501100","汐止區"
"221012","278-VK","2019/06/22 20:49:20","新北市汐止區保新街21號","121.684195","25.0731516666667","6501100","汐止區"
"221023","279-VK","2019/06/22 20:49:18","新北市汐止區民族二街30巷1號","121.635065","25.0718116666667","6501100","汐止區"
"221027","281-BY","2019/06/22 20:49:25","新北市汐止區大同路二段375號","121.657408333333","25.0672966666667","6501100","汐止區"
"221021","299-VK","2019/06/22 20:49:18","新北市汐止區莊敬街126號","121.655045","25.061135","6501100","汐止區"
"221035","622-UM","2019/06/22 20:49:17","新北市汐止區長江街101-5號","121.658728333333","25.0731866666667","6501100","汐止區"
"221038","646-BX","2019/06/22 20:49:24","新北市汐止區汐萬路一段220號","121.651683333333","25.0728116666667","6501100","汐止區"
"221033","647-BX","2019/06/22 20:49:10","新北市汐止區合順街18巷8弄5號","121.62035","25.0419583333333","6501100","汐止區"
"220021","259-TC","2019/06/22 20:48:50","新北市板橋區華東街1-10號","121.448368333333","24.99496","6500100","板橋區"
"242044","281-VK","2019/06/22 20:49:01","新北市新莊區龍安路108號","121.41835","25.0204833333333","6500500","新莊區"
"242009","280-VK","2019/06/22 20:49:07","新北市新莊區思源路71號","121.459881666667","25.0407533333333","6500500","新莊區"
