"lineid","car","time","location","longitude","latitude","cityid","cityname"
"244004","248-BX","2019/08/23 08:19:44","新北市林口區嘉寶里32-1號","121.360015","25.0972966666667","6501700","林口區"
"222004","289-BY","2019/08/23 08:19:30","新北市深坑區萬福路75巷8號","121.601068333333","25.00954","6501800","深坑區"
"231007","189-VK","2019/08/23 08:19:42","新北市新店區新潭路二段2號","121.528166666667","24.92693","6500600","新店區"
"231009","515-UM","2019/08/23 08:19:43","新北市新店區中興路一段203號","121.543465","24.9656566666667","6500600","新店區"
"226005","5620-A6","2019/08/23 08:19:36","新北市平溪區南山里南山坪106號","121.782203333333","25.0431416666667","6502400","平溪區"
"226001","8452-VL","2019/08/23 08:19:34","新北市平溪區望古里灰3號","121.75846","25.0303716666667","6502400","平溪區"
"226006","AGD-0702","2019/08/23 08:19:24","新北市平溪區十分里十分街238號","121.778078333333","25.0440883333333","6502400","平溪區"
"223008","406-TH","2019/08/23 08:19:26","新北市石碇區靜安路一段125號","121.67065","25.0053933333333","6501900","石碇區"
"223001","592-UM","2019/08/23 08:19:45","新北市石碇區小粗坑(格頭里)1號","121.652911666667","24.9538883333333","6501900","石碇區"
"223004","660-BX","2019/08/23 08:19:26","新北市石碇區外按16-1號","121.650635","24.9976866666667","6501900","石碇區"
"223007","661-BX","2019/08/23 08:19:34","新北市石碇區靜安路一段180號","121.670291666667","25.0053666666667","6501900","石碇區"
"223005","677-TV","2019/08/23 08:19:34","新北市石碇區外按16-1號","121.650673333333","24.99761","6501900","石碇區"
"227003","282-VK","2019/08/23 08:19:30","新北市雙溪區上林里大瀨10號","121.822085","25.0225283333333","6502500","雙溪區"
