"lineid","car","time","location","longitude","latitude","cityid","cityname"
"222004","289-BY","2019/08/23 09:29:46","新北市深坑區土庫尖路27-1號","121.636836666667","25.01688","6501800","深坑區"
"231007","189-VK","2019/08/23 09:29:46","新北市新店區新潭路三段215巷25號","121.508128333333","24.90407","6500600","新店區"
"231009","515-UM","2019/08/23 09:29:43","新北市新店區平廣路一段240號","121.50991","24.88915","6500600","新店區"
"223003","205-TH","2019/08/23 09:29:41","新北市石碇區北宜路五段12號","121.629586666667","24.9538266666667","6501900","石碇區"
"223008","406-TH","2019/08/23 09:29:44","新北市石碇區光明路32號","121.695086666667","25.0226783333333","6501900","石碇區"
"223001","592-UM","2019/08/23 09:29:45","新北市石碇區北宜路五段12號","121.629488333333","24.9539133333333","6501900","石碇區"
"223004","660-BX","2019/08/23 09:29:46","新北市石碇區碇坪路二段26號","121.688658333333","24.9742583333333","6501900","石碇區"
"223007","661-BX","2019/08/23 09:29:34","新北市石碇區光明路32號","121.69508","25.0226066666667","6501900","石碇區"
"227003","282-VK","2019/08/23 09:29:30","新北市雙溪區泰平里溪尾寮2號","121.819536666667","24.96644","6502500","雙溪區"
