"lineid","car","time","location","longitude","latitude","cityid","cityname"
"222004","289-BY","2019/08/23 09:39:26","新北市深坑區北深路一段278巷16號","121.62909","25.0107516666667","6501800","深坑區"
"231007","189-VK","2019/08/23 09:39:26","新北市新店區新潭路三段215巷25號","121.508146666667","24.9040383333333","6500600","新店區"
"231009","515-UM","2019/08/23 09:39:43","新北市新店區平廣路一段230號","121.510338333333","24.88931","6500600","新店區"
"223001","592-UM","2019/08/23 09:39:45","新北市石碇區北宜路四段3-1號","121.612371666667","24.958255","6501900","石碇區"
"223004","660-BX","2019/08/23 09:39:26","新北市石碇區碇坪路一段242號","121.675661666667","24.9789466666667","6501900","石碇區"
"227003","282-VK","2019/08/23 09:30:30","新北市雙溪區泰平里溪尾寮6號","121.819753333333","24.9627283333333","6502500","雙溪區"
