"lineid","car","time","location","longitude","latitude","cityid","cityname"
"234062","337-UY","2019/08/23 14:39:44","新北市永和區保順路59號","121.502573333333","25.01159","6500400","永和區"
"234084","338-UY","2019/08/23 14:39:44","新北市中和區環河西路三段123號","121.488813333333","25.0112566666667","6500400","永和區"
"234068","552-UM","2019/08/23 14:39:38","新北市中和區環河西路三段123號","121.48897","25.0110016666667","6500400","永和區"
"234028","746-BX","2019/08/23 14:39:48","新北市中和區景平路358號","121.511136666667","24.992825","6500400","永和區"
"234040","862-TW","2019/08/23 14:39:33","新北市永和區永和路二段233號","121.515558333333","25.0141483333333","6500400","永和區"
"234025","9371-KE","2019/08/23 14:39:43","新北市永和區中和路499號","121.510571666667","25.002295","6500400","永和區"
"234072","AAC-211","2019/08/23 14:39:38","新北市永和區環河東路二段30號","121.522528333333","25.0127083333333","6500400","永和區"
"244004","248-BX","2019/08/23 14:39:37","新北市林口區南勢里34-8號","121.35237","25.0702166666667","6501700","林口區"
"231030","002-UM","2019/08/23 14:39:43","新北市新店區安民街179號","121.516765","24.9706733333333","6500600","新店區"
"231027","0293-UT","2019/08/23 14:39:47","新北市新店區中正路76巷11弄19號","121.543666666667","24.971735","6500600","新店區"
"231005","046-UY","2019/08/23 14:39:37","新北市新店區復興路2號","121.532393333333","24.9883","6500600","新店區"
"231029","106-UY","2019/08/23 14:39:31","新北市新店區安康路三段250號","121.48756","24.9518416666667","6500600","新店區"
"231018","107-UY","2019/08/23 14:39:26","新北市新店區中央路224號","121.529663333333","24.9729433333333","6500600","新店區"
"231013","108-UY","2019/08/23 14:39:46","新北市新店區明德路83號","121.541383333333","24.9782316666667","6500600","新店區"
"231036","110-UY","2019/08/23 14:39:35","新北市新店區安祥路106巷167號","121.47375","24.9594133333333","6500600","新店區"
"231032","256-BX","2019/08/23 14:39:41","新北市新店區安業街8巷1號","121.515648333333","24.977365","6500600","新店區"
"231023","260-TV","2019/08/23 14:39:37","新北市新店區檳榔路122號","121.543753333333","24.962125","6500600","新店區"
"231003","268-BY","2019/08/23 14:39:47","新北市新店區中興路二段100巷1號","121.547438333333","24.9715316666667","6500600","新店區"
"231035","278-BY","2019/08/23 14:39:31","新北市新店區安德街20號","121.512348333333","24.9631116666667","6500600","新店區"
"231016","AAD-862","2019/08/23 14:39:30","新北市新店區北宜路三段215號","121.591121666667","24.9529833333333","6500600","新店區"
"231006","355-BY","2019/08/23 14:39:36","新北市新店區北宜路二段155號","121.551978333333","24.953255","6500600","新店區"
"231038","3712-VJ","2019/08/23 14:39:29","新北市新店區安華路28-1號","121.519573333333","24.9608816666667","6500600","新店區"
"231022","513-UM","2019/08/23 14:39:47","新北市新店區桂山路61巷58號","121.568103333333","24.8954633333333","6500600","新店區"
"231034","616-UM","2019/08/23 14:39:31","新北市新店區黎明路53巷1號","121.502333333333","24.948735","6500600","新店區"
"231001","617-UM","2019/08/23 14:39:28","新北市新店區中正路60號","121.544346666667","24.970105","6500600","新店區"
"231002","619-UM","2019/08/23 14:39:35","新北市新店區中正路460號","121.534013333333","24.9793383333333","6500600","新店區"
"231012","KED-0819","2019/08/23 14:39:41","新北市新店區寶宏路6-2號","121.549145","24.9766683333333","6500600","新店區"
"231028","897-TW","2019/08/23 14:39:35","新北市新店區安成街25號","121.510101666667","24.9608883333333","6500600","新店區"
"231004","899-TW","2019/08/23 14:39:42","新北市新店區中正路314號","121.537245","24.9746633333333","6500600","新店區"
"231037","AKT-0513","2019/08/23 14:39:37","新北市新店區柴埕路52巷3號","121.511803333333","24.9644416666667","6500600","新店區"
"241020","478-VK","2019/08/23 14:39:28","新北市三重區重新路四段121號","121.484788333333","25.052455","6500200","三重區"
"235027","006-UY","2019/08/23 14:39:34","新北市中和區連城路184號","121.492876666667","24.9968383333333","6500300","中和區"
"235020","096-UM","2019/08/23 14:39:31","新北市中和區員山路581巷31弄22號","121.476648333333","25.0103833333333","6500300","中和區"
"235003","097-UM","2019/08/23 14:39:46","新北市中和區安平路192-1號","121.513321666667","24.999305","6500300","中和區"
"235029","098-UM","2019/08/23 14:39:40","新北市中和區永和路59號","121.497011666667","25.0053766666667","6500300","中和區"
"235004","150-BY","2019/08/23 14:39:37","新北市中和區安平路38號","121.509698333333","24.9949716666667","6500300","中和區"
"235002","185-VK","2019/08/23 14:39:40","新北市中和區自強路27巷7號","121.521113333333","24.99315","6500300","中和區"
"235013","186-VK","2019/08/23 14:39:41","新北市中和區中正路2號","121.50323","24.9938583333333","6500300","中和區"
"235031","255-BX","2019/08/23 14:39:29","新北市中和區員山路148巷23弄60號","121.482318333333","24.9980483333333","6500300","中和區"
"235008","293-VK","2019/08/23 14:39:30","新北市中和區興南路一段160號","121.508255","24.9866966666667","6500300","中和區"
"235036","301-VK","2019/08/23 14:39:30","新北市中和區光華街31巷22弄26號","121.505851666667","25.0044416666667","6500300","中和區"
"235007","352-BY","2019/08/23 14:39:38","新北市中和區景新街153號","121.50654","24.996495","6500300","中和區"
"235006","KEA-2878","2019/08/23 14:39:40","新北市中和區宜安路176號","121.508813333333","24.9993233333333","6500300","中和區"
"247013","KEA-2869","2019/08/23 14:39:42","新北市蘆洲區中山二路126號","121.471983333333","25.081705","6501400","蘆洲區"
"247007","KED-0682","2019/08/23 14:39:39","新北市蘆洲區成功路38巷2號","121.473295","25.0793783333333","6501400","蘆洲區"
"235034","558-UM","2019/08/23 14:39:31","新北市中和區連勝街50號","121.497791666667","24.997325","6500300","中和區"
"235009","565-BX","2019/08/23 14:39:31","新北市中和區中正路128號","121.49959","24.9939166666667","6500300","中和區"
"235024","KED-0823","2019/08/23 14:39:47","新北市中和區連城路467-4號","121.483765","24.9960933333333","6500300","中和區"
"235018","640-BX","2019/08/23 14:39:29","新北市中和區莒光路3巷1號","121.471853333333","25.0061216666667","6500300","中和區"
"235011","732-UM","2019/08/23 14:39:34","新北市中和區和平街5-2號","121.509426666667","24.99009","6500300","中和區"
"235010","733-UM","2019/08/23 14:39:38","新北市中和區景新街500號","121.513823333333","24.9869816666667","6500300","中和區"
"235035","783-BX","2019/08/23 14:39:33","新北市中和區建八路116號","121.488066666667","24.99828","6500300","中和區"
"235016","805-TS","2019/08/23 14:39:39","新北市中和區華新街206巷6-3號","121.506476666667","24.98231","6500300","中和區"
"235012","896-TW","2019/08/23 14:39:37","新北市新店區安和路三段134號","121.51641","24.986005","6500300","中和區"
"235017","900-TW","2019/08/23 14:39:47","新北市中和區國光街215巷8弄2-1號","121.466741666667","25.0009033333333","6500300","中和區"
"235030","911-UM","2019/08/23 14:39:27","新北市中和區景新街133號","121.505898333333","24.9972533333333","6500300","中和區"
"235015","157-BY","2019/08/23 14:39:31","新北市中和區中興街204號","121.499971666667","24.9902733333333","6500300","中和區"
"235001","AAC-213","2019/08/23 14:39:46","新北市中和區秀朗路三段175巷2號","121.524461666667","24.991155","6500300","中和區"
"235023","AAC-215","2019/08/23 14:39:27","新北市中和區圓通路256號","121.493421666667","24.990955","6500300","中和區"
"220013","072-UY","2019/08/23 14:39:34","新北市板橋區國泰街111巷4-2號","121.465628333333","25.0061433333333","6500100","板橋區"
"220034","073-UY","2019/08/23 14:39:33","新北市板橋區幸福路70巷1號","121.460603333333","25.0199416666667","6500100","板橋區"
"220105","075-UY","2019/08/23 14:39:38","新北市板橋區文化路二段608巷64號","121.480083333333","25.034345","6500100","板橋區"
"220017","AAD-861","2019/08/23 14:39:42","新北市板橋區貴興路121號","121.455545","25.0023816666667","6500100","板橋區"
"220016","120-SR","2019/08/23 14:39:39","新北市板橋區中山路二段412巷16-1號","121.483316666667","25.02018","6500100","板橋區"
"247001","336-TH","2019/08/23 14:39:45","新北市蘆洲區永樂街38巷41號","121.458231666667","25.0896266666667","6501400","蘆洲區"
"247011","056-VK","2019/08/23 14:39:29","新北市蘆洲區集賢路224巷37弄1號","121.480743333333","25.087985","6501400","蘆洲區"
"247015","053-VK","2019/08/23 14:39:38","新北市蘆洲區正和街65號","121.468758333333","25.08108","6501400","蘆洲區"
"247019","007-UY","2019/08/23 14:39:42","新北市蘆洲區民義街88號","121.473651666667","25.0903633333333","6501400","蘆洲區"
"247005","002-UY","2019/08/23 14:39:37","新北市蘆洲區中華街26號","121.462808333333","25.081275","6501400","蘆洲區"
"247023","001-UY","2019/08/23 14:39:44","新北市蘆洲區正和街63巷12號","121.468986666667","25.08086","6501400","蘆洲區"
"235005","251-BX","2019/08/23 14:39:28","新北市中和區中安街70號","121.512508333333","25.00207","6500300","中和區"
"208001","AAC-292","2019/08/23 14:39:28","新北市新店區車子路10-4號","121.505015","24.9545633333333","6502700","金山區"
"207002","749-BX","2019/08/23 14:39:30","新北市萬里區溪底里溪底路2號","121.618955","25.1517483333333","6502800","萬里區"
"207001","662-BX","2019/08/23 14:39:25","新北市萬里區磺潭里員潭路59號","121.642651666667","25.1899966666667","6502800","萬里區"
"236040","KED-0685","2019/08/23 14:39:29","新北市土城區裕民路55巷5號","121.449133333333","24.988235","6501300","土城區"
"236077","166-UM","2019/08/23 14:39:40","新北市土城區頂埔街38號","121.417226666667","24.9591716666667","6501300","土城區"
"236029","253-BX","2019/08/23 14:39:42","新北市土城區中華路二段128號","121.437721666667","24.9735","6501300","土城區"
"236024","269-VK","2019/08/23 14:39:35","新北市土城區忠義路47-1號","121.440833333333","24.9694916666667","6501300","土城區"
"236013","270-VK","2019/08/23 14:39:31","新北市土城區青雲路183巷2號","121.459326666667","24.9827333333333","6501300","土城區"
"236032","271-VK","2019/08/23 14:39:27","新北市土城區明德路一段232號","121.460488333333","24.9773833333333","6501300","土城區"
"236067","KEA-2877","2019/08/23 14:39:34","新北市土城區永豐路284號","121.470865","24.977935","6501300","土城區"
"236016","401-BY","2019/08/23 14:39:36","新北市土城區明德路一段57號","121.465496666667","24.9846416666667","6501300","土城區"
"236057","912-UM","2019/08/23 14:39:42","新北市土城區中央路三段149號","121.432366666667","24.9655783333333","6501300","土城區"
"236045","913-UM","2019/08/23 14:39:46","新北市土城區金城路三段8-1號","121.46466","24.98588","6501300","土城區"
"236060","915-UM","2019/08/23 14:39:39","新北市土城區延和路177巷26號","121.470333333333","24.990875","6501300","土城區"
"236038","970-R7","2019/08/23 14:39:31","新北市土城區裕民路136巷15號","121.451125","24.9856533333333","6501300","土城區"
"236054","AAC-216","2019/08/23 14:39:44","新北市土城區裕民路29號","121.448121666667","24.9884216666667","6501300","土城區"
"220027","145-BY","2019/08/23 14:39:46","新北市板橋區民權路202巷13弄34號","121.45866","25.0163533333333","6500100","板橋區"
"220030","610-BX","2019/08/23 14:39:46","新北市板橋區金門街131號","121.43295","24.9913316666667","6500100","板橋區"
"220040","267-BY","2019/08/23 14:39:26","新北市板橋區懷德街201巷3號","121.480871666667","25.0293133333333","6500100","板橋區"
"220004","276-BY","2019/08/23 14:39:36","新北市板橋區和平路16號","121.45958","24.9943383333333","6500100","板橋區"
"220020","277-BY","2019/08/23 14:39:39","新北市板橋區金門街235巷8號","121.432621666667","24.9891883333333","6500100","板橋區"
"220050","280-UM","2019/08/23 14:39:33","新北市板橋區縣民大道三段95號","121.475775","25.0221733333333","6500100","板橋區"
"220019","283-VK","2019/08/23 14:39:33","新北市板橋區四川路一段387號","121.45793","24.99906","6500100","板橋區"
"220043","285-UM","2019/08/23 14:39:29","新北市板橋區長江路二段165號","121.466558333333","25.0320266666667","6500100","板橋區"
"220001","285-VK","2019/08/23 14:39:27","新北市板橋區中山路二段148巷14號","121.476921666667","25.0164466666667","6500100","板橋區"
"220031","286-VK","2019/08/23 14:39:44","新北市板橋區龍興街63巷46號","121.442068333333","25.00181","6500100","板橋區"
"220029","287-VK","2019/08/23 14:39:35","新北市板橋區大觀路一段75巷3號","121.447418333333","25.00453","6500100","板橋區"
"220039","288-VK","2019/08/23 14:39:42","新北市板橋區新海路135巷2號","121.459995","25.02304","6500100","板橋區"
"220009","293-UM","2019/08/23 14:39:40","新北市板橋區板新路128號","121.470968333333","25.0157333333333","6500100","板橋區"
"220032","296-UM","2019/08/23 14:39:34","新北市板橋區溪崑二街118巷4號","121.426021666667","24.988355","6500100","板橋區"
"220023","303-R5","2019/08/23 14:39:33","新北市板橋區中正路275巷93號","121.450881666667","25.01816","6500100","板橋區"
"220010","305-R5","2019/08/23 14:39:36","新北市板橋區三民路二段29巷31弄15號","121.482061666667","25.0178383333333","6500100","板橋區"
"220041","307-R5","2019/08/23 14:39:35","新北市板橋區四維路259巷74號","121.460106666667","25.0266","6500100","板橋區"
"220047","317-R6","2019/08/23 14:39:36","新北市板橋區四維路291號","121.46331","25.028195","6500100","板橋區"
"220038","487-VK","2019/08/23 14:39:42","新北市板橋區英士路192-1號","121.458411666667","25.0235983333333","6500100","板橋區"
"220037","491-VK","2019/08/23 14:39:43","新北市板橋區仁化街124號","121.477195","25.032615","6500100","板橋區"
"220052","561-BX","2019/08/23 14:39:38","新北市板橋區英士路58巷7號","121.46064","25.0251266666667","6500100","板橋區"
"220028","568-UM","2019/08/23 14:39:35","新北市板橋區大觀路二段153巷46弄10號","121.44894","24.9995783333333","6500100","板橋區"
"220011","609-BX","2019/08/23 14:39:40","新北市板橋區三民路一段31巷2-4號","121.48195","25.0230566666667","6500100","板橋區"
"220104","630-UY","2019/08/23 14:39:32","新北市板橋區金華街85巷31號","121.458698333333","25.0213166666667","6500100","板橋區"
"220005","686-BX","2019/08/23 14:39:33","新北市板橋區廣和街79號","121.462793333333","24.9921183333333","6500100","板橋區"
"220025","687-BX","2019/08/23 14:39:43","新北市板橋區僑中二街52號","121.446601666667","25.0101283333333","6500100","板橋區"
"220042","689-BX","2019/08/23 14:39:33","新北市板橋區長江路一段413號","121.462776666667","25.0310416666667","6500100","板橋區"
"220002","741-BX","2019/08/23 14:39:41","新北市板橋區忠孝路237號","121.46605","25.0029416666667","6500100","板橋區"
"220051","KEA-2699","2019/08/23 14:39:36","新北市板橋區仁化街3-1號","121.474608333333","25.031725","6500100","板橋區"
"220003","827-TW","2019/08/23 14:39:38","新北市板橋區國慶路167巷27號","121.461703333333","24.9978183333333","6500100","板橋區"
"220014","829-TW","2019/08/23 14:39:42","新北市板橋區長安街259巷1-1號","121.47302","25.0104","6500100","板橋區"
"220022","895-R6","2019/08/23 14:39:46","新北市板橋區大東街151巷9號","121.456451666667","25.0080866666667","6500100","板橋區"
"220021","985-R7","2019/08/23 14:39:43","新北市板橋區瑞安街8號","121.454726666667","25.0232833333333","6500100","板橋區"
"220046","AAC-210","2019/08/23 14:39:31","新北市板橋區民權路182號","121.459426666667","25.0134283333333","6500100","板橋區"
"220012","AAC-253","2019/08/23 14:39:44","新北市板橋區公園街50號","121.462168333333","25.0079783333333","6500100","板橋區"
"235032","KEA-2873","2019/08/23 14:39:34","新北市中和區福美路297號","121.497321666667","25.004895","6500300","中和區"
