"lineid","car","time","location","longitude","latitude","cityid","cityname"
"234084","338-UY","2019/08/23 14:59:44","新北市八里區商港路88-4號","121.393783333333","25.1486616666667","6500400","永和區"
"234025","9371-KE","2019/08/23 14:59:39","新北市永和區水源街27巷14號","121.511326666667","25.0037583333333","6500400","永和區"
"244004","248-BX","2019/08/23 14:59:36","新北市林口區南勢里34-8號","121.352395","25.0701933333333","6501700","林口區"
"231030","002-UM","2019/08/23 14:59:36","新北市新店區安民街339號","121.516948333333","24.9748233333333","6500600","新店區"
"231005","046-UY","2019/08/23 14:59:37","新北市新店區復興路44號","121.53865","24.9867366666667","6500600","新店區"
"231029","106-UY","2019/08/23 14:59:31","新北市新店區錦秀路11巷36號","121.480878333333","24.9440716666667","6500600","新店區"
"231018","107-UY","2019/08/23 14:59:26","新北市新店區中央路196號","121.530801666667","24.9745633333333","6500600","新店區"
"231013","108-UY","2019/08/23 14:59:45","新北市新店區光明街179號","121.539741666667","24.96282","6500600","新店區"
"231036","110-UY","2019/08/23 14:59:35","新北市新店區安祥路102巷46弄15號","121.485245","24.96402","6500600","新店區"
"231039","187-VK","2019/08/23 14:59:39","新北市新店區中興路三段88號","121.545323333333","24.9787566666667","6500600","新店區"
"231032","256-BX","2019/08/23 14:59:41","新北市新店區安泰路18-1號","121.485523333333","24.9487016666667","6500600","新店區"
"231023","260-TV","2019/08/23 14:59:30","新北市新店區檳榔路109號","121.544518333333","24.96155","6500600","新店區"
"231003","268-BY","2019/08/23 14:59:27","新北市新店區中興路二段85號","121.547158333333","24.971105","6500600","新店區"
"231035","278-BY","2019/08/23 14:59:31","新北市新店區安和路二段240號","121.516603333333","24.9783133333333","6500600","新店區"
"231016","AAD-862","2019/08/23 14:59:30","新北市新店區北宜路三段229號","121.594046666667","24.95265","6500600","新店區"
"231006","355-BY","2019/08/23 14:59:36","新北市新店區五峰路145巷7號","121.546103333333","24.9649583333333","6500600","新店區"
"231038","3712-VJ","2019/08/23 14:59:29","新北市新店區安華路28-1號","121.519566666667","24.96087","6500600","新店區"
"231024","4716-K9","2019/08/23 14:59:39","新北市新店區力行路30號","121.539163333333","24.96471","6500600","新店區"
"231025","4715-K9","2019/08/23 14:59:32","新北市新店區二十張路46巷37弄13號","121.536473333333","24.9817466666667","6500600","新店區"
"231022","513-UM","2019/08/23 14:59:27","新北市新店區桂山路37號","121.559868333333","24.9022183333333","6500600","新店區"
"231034","616-UM","2019/08/23 14:59:31","新北市新店區玫瑰路4-1號","121.493565","24.95141","6500600","新店區"
"231001","617-UM","2019/08/23 14:59:28","新北市新店區中正路276號","121.538803333333","24.9736483333333","6500600","新店區"
"231002","619-UM","2019/08/23 14:59:35","新北市新店區民權路139號","121.534701666667","24.9826216666667","6500600","新店區"
"231012","KED-0819","2019/08/23 14:59:40","新北市新店區中興路三段205巷3號","121.543353333333","24.9816016666667","6500600","新店區"
"231026","720-UM","2019/08/23 14:59:44","新北市新店區中正路188號","121.54089","24.9722733333333","6500600","新店區"
"231028","897-TW","2019/08/23 14:59:35","新北市新店區安德街173號","121.50865","24.958975","6500600","新店區"
"231004","899-TW","2019/08/23 14:59:29","新北市新店區民族路11號","121.54158","24.978815","6500600","新店區"
"231037","AKT-0513","2019/08/23 14:59:37","新北市新店區安興路69-1號","121.515741666667","24.9752416666667","6500600","新店區"
"241011","013-R5","2019/08/23 14:59:40","新北市三重區重新路四段121號","121.48524","25.05225","6500200","三重區"
"241020","478-VK","2019/08/23 14:59:28","新北市三重區重新路四段121號","121.484791666667","25.0525366666667","6500200","三重區"
"235020","096-UM","2019/08/23 14:59:31","新北市板橋區漢生東路344號","121.471986666667","25.007465","6500300","中和區"
"235003","097-UM","2019/08/23 14:59:26","新北市中和區安樂路217巷40弄1號","121.513321666667","24.997915","6500300","中和區"
"235004","150-BY","2019/08/23 14:59:37","新北市中和區保健路15號","121.508018333333","24.9982083333333","6500300","中和區"
"235036","301-VK","2019/08/23 14:59:30","新北市中和區連城路8號","121.499068333333","25.0023066666667","6500300","中和區"
"235007","352-BY","2019/08/23 14:59:38","新北市中和區興南路二段159巷31號","121.505481666667","24.98271","6500300","中和區"
"235014","4979-A6","2019/08/23 14:59:27","新北市中和區景平路155巷2弄1號","121.513453333333","24.9918783333333","6500300","中和區"
"235033","4980-A6","2019/08/23 14:58:41","新北市中和區景平路634-2號","121.500815","24.99842","6500300","中和區"
"235034","558-UM","2019/08/23 14:59:31","新北市中和區圓通路208號","121.495965","24.99397","6500300","中和區"
"235010","733-UM","2019/08/23 14:59:38","新北市中和區忠孝街31巷39號","121.509866666667","24.9848933333333","6500300","中和區"
"235035","783-BX","2019/08/23 14:59:33","新北市中和區建八路1號","121.485606666667","24.9986166666667","6500300","中和區"
"235012","896-TW","2019/08/23 14:59:37","新北市中和區忠孝街1巷2-1號","121.509078333333","24.9830066666667","6500300","中和區"
"235030","911-UM","2019/08/23 14:59:47","新北市中和區中山路二段23號","121.50495","25.0054466666667","6500300","中和區"
"235015","157-BY","2019/08/23 14:59:31","新北市中和區仁愛街128號","121.511923333333","24.986575","6500300","中和區"
"235001","AAC-213","2019/08/23 14:59:46","新北市中和區自強路52號","121.520143333333","24.99477","6500300","中和區"
"235023","AAC-215","2019/08/23 14:59:27","新北市中和區圓通路339號","121.49154","24.990495","6500300","中和區"
"220013","072-UY","2019/08/23 14:59:34","新北市板橋區民族路69巷18弄30號","121.46681","25.0098616666667","6500100","板橋區"
"220034","073-UY","2019/08/23 14:59:33","新北市板橋區中正路13號","121.45615","25.0122366666667","6500100","板橋區"
"220105","075-UY","2019/08/23 14:59:29","新北市板橋區民治街126巷9號","121.477595","25.0313816666667","6500100","板橋區"
"220017","AAD-861","2019/08/23 14:59:42","新北市板橋區南雅南路二段11-2號","121.454213333333","25.0024683333333","6500100","板橋區"
"220016","120-SR","2019/08/23 14:59:39","新北市板橋區光復街234-1號","121.484635","25.0215416666667","6500100","板橋區"
"247018","546-UM","2019/08/23 14:56:33","新北市五股區中興路三段163號","121.44928","25.0808016666667","6501400","蘆洲區"
"208001","AAC-292","2019/08/23 14:59:48","新北市新店區車子路115-11號","121.506796666667","24.9544433333333","6502700","金山區"
"207002","749-BX","2019/08/23 14:59:30","新北市萬里區崁腳里崁腳路40號","121.650968333333","25.160785","6502800","萬里區"
"207001","662-BX","2019/08/23 14:59:38","新北市萬里區雙興里二坪路11號","121.646161666667","25.1750733333333","6502800","萬里區"
"236040","KED-0685","2019/08/23 14:59:29","新北市土城區裕民路172號","121.452551666667","24.985495","6501300","土城區"
"236077","166-UM","2019/08/23 14:59:40","新北市土城區中州路24巷3號","121.414721666667","24.9576083333333","6501300","土城區"
"236029","253-BX","2019/08/23 14:59:42","新北市土城區慶利街16號","121.439716666667","24.973615","6501300","土城區"
"236024","269-VK","2019/08/23 14:59:34","新北市土城區中正路74巷3弄2號","121.444816666667","24.9747216666667","6501300","土城區"
"236013","270-VK","2019/08/23 14:59:31","新北市土城區立德路13巷22號","121.461666666667","24.9888066666667","6501300","土城區"
"236032","271-VK","2019/08/23 14:59:47","新北市土城區清水路143號","121.458353333333","24.981565","6501300","土城區"
"236067","KEA-2877","2019/08/23 14:59:35","新北市土城區裕生路82巷1號","121.447355","24.9855566666667","6501300","土城區"
"236016","401-BY","2019/08/23 14:59:36","新北市土城區延吉街166號","121.468416666667","24.9853316666667","6501300","土城區"
"236057","912-UM","2019/08/23 14:59:42","新北市土城區金城路二段266號","121.458103333333","24.9840766666667","6501300","土城區"
"236045","913-UM","2019/08/23 14:59:46","新北市土城區青雲路322巷2弄3號","121.458393333333","24.977225","6501300","土城區"
"236038","970-R7","2019/08/23 14:59:31","新北市土城區城林路6巷80號","121.43854","24.9800283333333","6501300","土城區"
"236054","AAC-216","2019/08/23 14:59:44","新北市土城區學成路12號","121.453366666667","24.9866766666667","6501300","土城區"
"220027","145-BY","2019/08/23 14:59:30","新北市板橋區復興街56-2號","121.458748333333","25.017565","6500100","板橋區"
"220030","610-BX","2019/08/23 14:59:42","新北市板橋區存德街9號","121.429978333333","24.9919916666667","6500100","板橋區"
"220040","267-BY","2019/08/23 14:59:26","新北市板橋區懷德街174巷32號","121.478153333333","25.029145","6500100","板橋區"
"220004","276-BY","2019/08/23 14:59:36","新北市板橋區德興街23號","121.45344","24.994125","6500100","板橋區"
"220020","277-BY","2019/08/23 14:59:34","新北市板橋區金門街107號","121.433248333333","24.9921283333333","6500100","板橋區"
"220050","280-UM","2019/08/23 14:59:32","新北市板橋區莒光路165巷22號","121.474016666667","25.0245833333333","6500100","板橋區"
"220019","283-VK","2019/08/23 14:59:34","新北市板橋區五權街30巷24弄15號","121.463831666667","24.9933766666667","6500100","板橋區"
"220043","285-UM","2019/08/23 14:59:29","新北市板橋區文化路一段247號","121.464378333333","25.01807","6500100","板橋區"
"220001","285-VK","2019/08/23 14:59:45","新北市板橋區永豐街46號","121.47448","25.0195983333333","6500100","板橋區"
"220031","286-VK","2019/08/23 14:59:30","新北市板橋區僑中二街50號","121.44673","25.0105266666667","6500100","板橋區"
"220029","287-VK","2019/08/23 14:59:35","新北市板橋區僑中一街80巷3弄1號","121.447626666667","25.012075","6500100","板橋區"
"220009","293-UM","2019/08/23 14:59:40","新北市板橋區四川路一段274巷2-1號","121.45809","25.0013566666667","6500100","板橋區"
"220023","303-R5","2019/08/23 14:59:33","新北市板橋區中正路283號","121.455408333333","25.0191666666667","6500100","板橋區"
"220010","305-R5","2019/08/23 14:59:36","新北市板橋區萬安街85巷13號","121.484308333333","25.025275","6500100","板橋區"
"220041","307-R5","2019/08/23 14:59:31","新北市板橋區幸福路32巷4弄1號","121.460895","25.0213066666667","6500100","板橋區"
"220047","317-R6","2019/08/23 14:59:36","新北市板橋區新海路385巷24號","121.457958333333","25.0255216666667","6500100","板橋區"
"220038","487-VK","2019/08/23 14:59:42","新北市板橋區四維路174號","121.464618333333","25.026375","6500100","板橋區"
"220037","491-VK","2019/08/23 14:59:43","新北市板橋區懷德街78巷1號","121.47828","25.03152","6500100","板橋區"
"220052","561-BX","2019/08/23 14:59:41","新北市板橋區漢生東路53巷27號","121.466636666667","25.0174216666667","6500100","板橋區"
"220028","568-UM","2019/08/23 14:59:35","新北市板橋區大觀路二段163巷17號","121.446383333333","25.0001583333333","6500100","板橋區"
"220011","609-BX","2019/08/23 14:59:40","新北市板橋區縣民大道三段310號","121.47863","25.0235983333333","6500100","板橋區"
"220104","630-UY","2019/08/23 14:59:32","新北市板橋區新生街29巷4弄1號","121.456638333333","25.0218233333333","6500100","板橋區"
"220005","686-BX","2019/08/23 14:59:32","新北市板橋區四川路二段245巷54號","121.452063333333","24.9923383333333","6500100","板橋區"
"220025","687-BX","2019/08/23 14:59:44","新北市板橋區僑中一街90號","121.447078333333","25.0116516666667","6500100","板橋區"
"220042","689-BX","2019/08/23 14:59:26","新北市板橋區長江路二段266號","121.469536666667","25.0327933333333","6500100","板橋區"
"220002","741-BX","2019/08/23 14:59:41","新北市板橋區忠孝路201巷102號","121.464635","25.0049166666667","6500100","板橋區"
"220051","KEA-2699","2019/08/23 14:59:33","新北市板橋區莊敬路167號","121.471078333333","25.02396","6500100","板橋區"
"220003","827-TW","2019/08/23 14:59:38","新北市板橋區仁愛路74號","121.460511666667","24.99942","6500100","板橋區"
"220014","829-TW","2019/08/23 14:59:43","新北市板橋區中山路一段206巷105號","121.472576666667","25.0137566666667","6500100","板橋區"
"220022","895-R6","2019/08/23 14:59:38","新北市板橋區文化路一段46巷19號","121.460096666667","25.0116433333333","6500100","板橋區"
"220021","985-R7","2019/08/23 14:59:42","新北市板橋區館前西路168-1號","121.451871666667","25.0085433333333","6500100","板橋區"
"220046","AAC-210","2019/08/23 14:59:31","新北市板橋區光正街45巷2弄4號","121.461753333333","25.017475","6500100","板橋區"
"220012","AAC-253","2019/08/23 14:59:44","新北市板橋區民族路215號","121.469495","25.0072833333333","6500100","板橋區"
"235032","KEA-2873","2019/08/23 14:59:34","新北市中和區中山路二段224號","121.499441666667","25.0025816666667","6500300","中和區"
