"lineid","car","time","location","longitude","latitude","cityid","cityname"
"231030","002-UM","2019/08/23 15:29:36","新北市新店區安和路三段68號","121.518015","24.9829933333333","6500600","新店區"
"231005","046-UY","2019/08/23 15:29:37","新北市新店區建國路293巷2號","121.53702","24.9858033333333","6500600","新店區"
"231029","106-UY","2019/08/23 15:29:31","新北市新店區安康路三段628-3號","121.477358333333","24.9450083333333","6500600","新店區"
"231018","107-UY","2019/08/23 15:29:46","新北市新店區民生路134號","121.529225","24.9816433333333","6500600","新店區"
"231013","108-UY","2019/08/23 15:29:45","新北市新店區永業路81巷1弄1-1號","121.529423333333","24.9493933333333","6500600","新店區"
"231036","110-UY","2019/08/23 15:29:45","新北市新店區安祥路67巷50弄5號","121.484746666667","24.9590133333333","6500600","新店區"
"231039","187-VK","2019/08/23 15:29:39","新北市新店區寶元路一段74巷1號","121.54411","24.9841733333333","6500600","新店區"
"231032","256-BX","2019/08/23 15:29:41","新北市新店區裕合街2號","121.489896666667","24.949925","6500600","新店區"
"231023","260-TV","2019/08/23 15:29:30","新北市新店區五峰路24號","121.543763333333","24.9690933333333","6500600","新店區"
"231003","268-BY","2019/08/23 15:29:27","新北市新店區寶高路116號","121.55453","24.9760633333333","6500600","新店區"
"231035","278-BY","2019/08/23 15:29:31","新北市新店區安民街341-1號","121.516623333333","24.974975","6500600","新店區"
"231016","AAD-862","2019/08/23 15:29:30","新北市新店區明山路45號","121.563636666667","24.95579","6500600","新店區"
"231038","3712-VJ","2019/08/23 15:29:29","新北市新店區安康路一段355-3號","121.519773333333","24.9622766666667","6500600","新店區"
"231024","4716-K9","2019/08/23 15:29:39","新北市新店區安德街60巷35號","121.510803333333","24.9636966666667","6500600","新店區"
"231022","513-UM","2019/08/23 15:29:27","新北市新店區永福路54-2號","121.558105","24.9287266666667","6500600","新店區"
"231034","616-UM","2019/08/23 15:29:31","新北市新店區玫瑰路28號","121.495251666667","24.95016","6500600","新店區"
"231002","619-UM","2019/08/23 15:29:35","新北市新店區環河路121-2號","121.530456666667","24.971225","6500600","新店區"
"231012","KED-0819","2019/08/23 15:29:40","新北市新店區文化路92號","121.545025","24.9825583333333","6500600","新店區"
"231026","720-UM","2019/08/23 15:29:44","新北市新店區三民路117巷4弄1號","121.534375","24.9714833333333","6500600","新店區"
"231028","897-TW","2019/08/23 15:29:35","新北市新店區僑信路99號","121.500188333333","24.94698","6500600","新店區"
"231004","899-TW","2019/08/23 15:29:29","新北市新店區中正路226號","121.540083333333","24.972735","6500600","新店區"
"231037","AKT-0513","2019/08/23 15:29:37","新北市新店區安興路91巷6號","121.514441666667","24.9757683333333","6500600","新店區"
"241011","013-R5","2019/08/23 15:29:40","新北市三重區中正南路293號","121.49327","25.0514033333333","6500200","三重區"
"241007","742-BX","2019/08/23 15:29:42","新北市三重區重新路四段121號","121.484986666667","25.0524416666667","6500200","三重區"
"241018","268-UM","2019/08/23 15:29:43","新北市三重區重新路四段121號","121.485226666667","25.0521533333333","6500200","三重區"
"241013","270-UM","2019/08/23 15:29:31","新北市三重區重新路四段121號","121.485068333333","25.0521466666667","6500200","三重區"
"241020","478-VK","2019/08/23 15:29:28","新北市三重區重新路四段121號","121.484558333333","25.0521333333333","6500200","三重區"
"241026","743-BX","2019/08/23 15:29:29","新北市三重區重新路四段121號","121.484816666667","25.052115","6500200","三重區"
"241012","941-UM","2019/08/23 15:29:29","新北市三重區成功路92號","121.48791","25.0513683333333","6500200","三重區"
"241033","AAC-255","2019/08/23 15:29:34","新北市三重區重新路四段121號","121.482255","25.0506733333333","6500200","三重區"
"235014","4979-A6","2019/08/23 15:29:27","新北市中和區景平路568號","121.50205","24.9954233333333","6500300","中和區"
"235033","4980-A6","2019/08/23 15:29:32","新北市中和區連城路308號","121.483761666667","24.9963083333333","6500300","中和區"
"235054","640-BX","2019/08/23 15:29:29","新北市中和區員山路36巷16-2號","121.485268333333","24.9914766666667","6500300","中和區"
"235026","800-TS","2019/08/23 15:29:38","新北市中和區橋和路108號","121.491115","25.0054366666667","6500300","中和區"
"235023","AAC-215","2019/08/23 15:29:47","新北市中和區員山路24-1號","121.484095","24.9855816666667","6500300","中和區"
"208001","AAC-292","2019/08/23 15:29:28","基隆市安樂區基金二路25號","121.702466666667","25.1437983333333","6502700","金山區"
"207001","662-BX","2019/08/23 15:29:38","新北市萬里區野柳里八斗60號","121.667775","25.2036816666667","6502800","萬里區"
"236040","KED-0685","2019/08/23 15:29:38","新北市土城區學成路20號","121.453033333333","24.9869783333333","6501300","土城區"
"236077","166-UM","2019/08/23 15:29:40","新北市土城區福安街55巷6號","121.418713333333","24.964185","6501300","土城區"
"236029","253-BX","2019/08/23 15:29:42","新北市土城區日新街8巷2號","121.445355","24.9871966666667","6501300","土城區"
"236024","269-VK","2019/08/23 15:29:35","新北市土城區裕生路102巷19號","121.445826666667","24.984955","6501300","土城區"
"236013","270-VK","2019/08/23 15:29:31","新北市土城區德興街135號","121.45512","24.9917866666667","6501300","土城區"
"236032","271-VK","2019/08/23 15:29:47","新北市土城區延吉街296巷1弄1號","121.464448333333","24.98434","6501300","土城區"
"236067","KEA-2877","2019/08/23 15:29:32","新北市土城區水源街32巷3號","121.441015","24.9758533333333","6501300","土城區"
"236016","401-BY","2019/08/23 15:29:36","新北市土城區延吉街96號","121.47058","24.98633","6501300","土城區"
"236057","912-UM","2019/08/23 15:29:42","新北市土城區中央路一段260號","121.444155","24.984175","6501300","土城區"
"236045","913-UM","2019/08/23 15:29:46","新北市土城區金城路二段392號","121.463675","24.9856116666667","6501300","土城區"
"236038","970-R7","2019/08/23 15:29:31","新北市土城區自強街11巷4號","121.429506666667","24.9708033333333","6501300","土城區"
"236054","AAC-216","2019/08/23 15:29:44","新北市土城區青雲路38號","121.45992","24.9884016666667","6501300","土城區"
"220031","286-VK","2019/08/23 15:29:45","新北市板橋區僑中二街108巷26號","121.444736666667","25.0075016666667","6500100","板橋區"
