"lineid","car","time","location","longitude","latitude","cityid","cityname"
"249005","172-UM","2019/08/23 17:29:37","新北市八里區荖阡坑路28-1號","121.404023333333","25.1298533333333","6502300","八里區"
"249001","173-UM","2019/08/23 17:29:45","新北市八里區中華路一段106號","121.420385","25.1572533333333","6502300","八里區"
"249004","303-UY","2019/08/23 17:29:29","新北市八里區賢三街162號","121.414766666667","25.15688","6502300","八里區"
"249002","305-UY","2019/08/23 17:29:31","新北市八里區龍米路二段50號","121.448093333333","25.1406916666667","6502300","八里區"
"249003","593-UM","2019/08/23 17:29:34","新北市八里區中山路二段315號","121.400591666667","25.1477716666667","6502300","八里區"
"244007","080-UY","2019/08/23 17:29:48","新北市林口區中華路283號","121.38376","25.0908466666667","6501700","林口區"
"244019","402-UM","2019/08/23 17:29:31","新北市林口區文化一路一段83巷14弄41號","121.371816666667","25.07105","6501700","林口區"
"244013","KEA-2802","2019/08/23 17:29:42","新北市林口區中山路250號","121.386006666667","25.0794233333333","6501700","林口區"
"244023","483-VK","2019/08/23 17:29:32","新北市林口區東湖路2號","121.389373333333","25.07392","6501700","林口區"
"244017","485-VK","2019/08/23 17:29:37","新北市林口區文化一路一段95號","121.372083333333","25.070385","6501700","林口區"
"244009","656-BX","2019/08/23 17:29:35","新北市林口區中北三街292號","121.382356666667","25.0828433333333","6501700","林口區"
"244011","701-TV","2019/08/23 17:29:38","新北市林口區竹林路2號","121.38658","25.0770766666667","6501700","林口區"
"244025","837-TS","2019/08/23 17:29:40","新北市林口區文化二路一段241巷26號","121.366273333333","25.0716666666667","6501700","林口區"
"244021","838-TS","2019/08/23 17:29:38","新北市林口區粉寮路一段39號","121.396551666667","25.07719","6501700","林口區"
"231046","719-UM","2019/08/23 17:12:28","新北市新店區直潭路65號","121.532625","24.9422866666667","6500600","新店區"
"241011","013-R5","2019/08/23 17:29:40","新北市三重區河邊北街124巷11號","121.503305","25.071395","6500200","三重區"
"241008","059-VK","2019/08/23 17:29:29","新北市三重區永福街130號","121.479425","25.0748383333333","6500200","三重區"
"241015","062-VK","2019/08/23 17:29:43","新北市三重區開元街1號","121.503688333333","25.066155","6500200","三重區"
"241017","063-VK","2019/08/23 17:29:35","新北市三重區重新路三段47巷3弄2號","121.492913333333","25.0618183333333","6500200","三重區"
"241024","065-VK","2019/08/23 17:29:43","新北市三重區大勇街82巷15弄5號","121.479945","25.0717383333333","6500200","三重區"
"241007","742-BX","2019/08/23 17:29:42","新北市三重區三和路四段324號","121.483806666667","25.077935","6500200","三重區"
"241013","270-UM","2019/08/23 17:29:31","新北市三重區仁愛街141巷17號","121.496008333333","25.0756683333333","6500200","三重區"
"241030","KED-0822","2019/08/23 17:29:28","新北市三重區中正南路269號","121.493271666667","25.0522216666667","6500200","三重區"
"241020","478-VK","2019/08/23 17:29:28","新北市三重區忠孝路三段84巷16-1號","121.480666666667","25.0647666666667","6500200","三重區"
"241014","543-UM","2019/08/23 17:29:35","新北市三重區安和路17號","121.50144","25.0684466666667","6500200","三重區"
"241023","545-UM","2019/08/23 17:29:32","新北市三重區忠孝路三段50巷41弄13號","121.482136666667","25.06415","6500200","三重區"
"241019","KEA-2593","2019/08/23 17:29:32","新北市三重區六張街239號","121.487916666667","25.06852","6500200","三重區"
"241016","887-TS","2019/08/23 17:29:46","新北市三重區信義西街41號","121.495228333333","25.0641033333333","6500200","三重區"
"241012","941-UM","2019/08/23 17:29:29","新北市三重區河邊北街379-1號","121.501683333333","25.0764733333333","6500200","三重區"
"241033","AAC-255","2019/08/23 17:29:34","新北市三重區興德路145-2號","121.469085","25.052765","6500200","三重區"
"235064","005-UY","2019/08/23 17:29:43","新北市中和區員山路36巷16-3號","121.485025","24.99134","6500300","中和區"
"247014","KEA-2869","2019/08/23 17:29:40","新北市蘆洲區三民路33號","121.47544","25.08294","6501400","蘆洲區"
"247008","KED-0682","2019/08/23 17:29:27","新北市蘆洲區民生街93號","121.473693333333","25.0783266666667","6501400","蘆洲區"
"235054","640-BX","2019/08/23 17:01:12","新北市中和區員山路36巷16-2號","121.485333333333","24.9916116666667","6500300","中和區"
"247004","893-R6","2019/08/23 17:29:41","新北市蘆洲區長安街160號","121.45943","25.082985","6501400","蘆洲區"
"247018","546-UM","2019/08/23 17:29:34","新北市蘆洲區水湳街26號","121.472208333333","25.088295","6501400","蘆洲區"
"247002","336-TH","2019/08/23 17:29:39","新北市蘆洲區環堤大道198號","121.456883333333","25.09083","6501400","蘆洲區"
"247022","057-VK","2019/08/23 17:29:41","新北市蘆洲區中正路294號","121.465695","25.0907316666667","6501400","蘆洲區"
"247012","056-VK","2019/08/23 17:29:33","新北市蘆洲區民族路31-12號","121.477961666667","25.0850816666667","6501400","蘆洲區"
"247020","007-UY","2019/08/23 17:29:26","新北市蘆洲區水湳街150號","121.470065","25.09374","6501400","蘆洲區"
"247006","002-UY","2019/08/23 17:29:35","新北市蘆洲區九芎街90巷5號","121.465121666667","25.0808333333333","6501400","蘆洲區"
"247024","001-UY","2019/08/23 17:29:43","新北市蘆洲區長興路296-8號","121.46056","25.0901983333333","6501400","蘆洲區"
"228002","663-BX","2019/08/23 17:29:43","新北市貢寮區福隆里虎子山街21號","121.938546666667","25.0183466666667","6502600","貢寮區"
"228001","670-TC","2019/08/23 17:29:41","新北市貢寮區仁理村仁愛路48號","121.925261666667","25.0533633333333","6502600","貢寮區"
"228003","828-UM","2019/08/23 17:29:33","新北市貢寮區仁理村仁和路2-2號","121.923223333333","25.0485916666667","6502600","貢寮區"
"224010","AGQ-8101","2019/08/23 17:29:44","新北市瑞芳區逢甲路71號","121.807683333333","25.109265","6501200","瑞芳區"
"224006","676-BX","2019/08/23 17:29:38","新北市瑞芳區靜安路四段67-2號","121.793345","25.1088633333333","6501200","瑞芳區"
"224009","275-VK","2019/08/23 17:29:38","新北市瑞芳區輕便路17-1號","121.846186666667","25.1110483333333","6501200","瑞芳區"
"224008","273-VK","2019/08/23 17:29:30","新北市瑞芳區九芎橋路16號","121.832206666667","25.09156","6501200","瑞芳區"
"224005","271-BY","2019/08/23 17:29:36","新北市瑞芳區籠山路10號","121.8322","25.126085","6501200","瑞芳區"
"227002","642-TC","2019/08/23 17:22:08","新北市雙溪區共和里東榮街52號","121.86631","25.033665","6502500","雙溪區"
"227001","400-TW","2019/08/23 17:29:28","新北市雙溪區三貂里政光路3-1號","121.85077","25.0633716666667","6502500","雙溪區"
"251009","008-UM","2019/08/23 17:29:44","新北市淡水區新生街66號","121.438996666667","25.1743666666667","6501000","淡水區"
"251004","009-UM","2019/08/23 17:15:03","新北市淡水區中正東路二段88巷15號","121.459041666667","25.1505066666667","6501000","淡水區"
"251010","012-UM","2019/08/23 17:29:45","新北市淡水區中正路二段206號","121.426218333333","25.1889933333333","6501000","淡水區"
"251008","181-VK","2019/08/23 17:29:33","新北市淡水區大同路100巷10號","121.462796666667","25.1396516666667","6501000","淡水區"
"251007","182-VK","2019/08/23 17:29:38","新北市淡水區民生路47-4號","121.46209","25.138","6501000","淡水區"
"251012","441-VK","2019/08/23 17:29:39","新北市淡水區北新路126號","121.448095","25.1783133333333","6501000","淡水區"
"251005","443-VK","2019/08/23 17:29:40","新北市淡水區鄧公路31巷1號","121.451276666667","25.1708933333333","6501000","淡水區"
"251006","561-UM","2019/08/23 17:29:35","新北市淡水區大仁街15號","121.442295","25.1751116666667","6501000","淡水區"
"251011","650-BX","2019/08/23 17:29:40","新北市淡水區三空泉8-1號","121.475921666667","25.1612683333333","6501000","淡水區"
"251002","672-BX","2019/08/23 17:29:30","新北市淡水區中正路一段21號","121.426355","25.1762933333333","6501000","淡水區"
"251003","766-UM","2019/08/23 17:29:41","新北市淡水區中山路157號","121.44068","25.172685","6501000","淡水區"
"207003","550-UM","2019/08/23 17:29:33","新北市萬里區龜吼里美崙路96號","121.684448333333","25.1852933333333","6502800","萬里區"
"207004","291-VK","2019/08/23 17:29:35","新北市萬里區萬里里成功新村51號","121.68802","25.1745733333333","6502800","萬里區"
"252002","178-VK","2019/08/23 17:29:31","新北市三芝區忠孝街1-14號","121.505571666667","25.2539533333333","6502100","三芝區"
"233002","762-BX","2019/08/23 17:29:30","新北市烏來區烏來街29號","121.551328333333","24.8653266666667","6502900","烏來區"
"247010","KED-0683","2019/08/23 17:29:32","新北市蘆洲區信義路173號","121.479781666667","25.0822066666667","6501400","蘆洲區"
"252001","KED-0821","2019/08/23 17:29:31","新北市三芝區長安街119號","121.498045","25.25966","6502100","三芝區"
"242039","AAC-296","2019/08/23 17:29:33","新北市新莊區民安路272號","121.427596666667","25.02137","6500500","新莊區"
"242060","986-R7","2019/08/23 17:29:33","新北市新莊區瓊林路59-1號","121.439735","25.0213016666667","6500500","新莊區"
"242002","751-BX","2019/08/23 17:29:32","新北市新莊區新莊路154號","121.455211666667","25.0354633333333","6500500","新莊區"
"242029","615-BX","2019/08/23 17:29:40","新北市新莊區復興路二段174號","121.458641666667","25.0443933333333","6500500","新莊區"
"242027","613-BX","2019/08/23 17:29:33","新北市新莊區思源路32號","121.460235","25.0410366666667","6500500","新莊區"
"242058","612-BX","2019/08/23 17:29:30","新北市新莊區義豐街35-1號","121.441928333333","25.0352033333333","6500500","新莊區"
"242046","566-BX","2019/08/23 17:29:33","新北市新莊區新樹路65-5號","121.439441666667","25.0308466666667","6500500","新莊區"
"242050","497-BY","2019/08/23 17:29:44","新北市新莊區新樹路439號","121.432651666667","25.01368","6500500","新莊區"
"242056","442-UM","2019/08/23 17:29:43","新北市新莊區新泰路22號","121.449566666667","25.03383","6500500","新莊區"
"242048","441-UM","2019/08/23 17:29:41","新北市新莊區四維路213號","121.42166","25.020015","6500500","新莊區"
"242005","440-UM","2019/08/23 17:29:41","新北市新莊區中港路280號","121.453085","25.0441383333333","6500500","新莊區"
"242041","415-TV","2019/08/23 17:29:33","新北市新莊區新樹路113巷33號","121.439515","25.0264033333333","6500500","新莊區"
"242011","413-TV","2019/08/23 17:29:34","新北市新莊區幸福路602-1號","121.452281666667","25.049345","6500500","新莊區"
"242025","362-BY","2019/08/23 17:29:38","新北市新莊區中港路266號","121.453248333333","25.0438616666667","6500500","新莊區"
"242023","353-BY","2019/08/23 17:29:31","新北市新莊區公園路152號","121.453206666667","25.0401283333333","6500500","新莊區"
"242013","132-UY","2019/08/23 17:29:32","新北市新莊區中誠街16巷2號","121.451993333333","25.0482916666667","6500500","新莊區"
"242037","135-UY","2019/08/23 17:29:36","新北市新莊區建國一路288巷41號","121.434238333333","25.02567","6500500","新莊區"
"242054","172-VK","2019/08/23 17:29:43","新北市新莊區瓊林南路305巷25號","121.435555","25.005055","6500500","新莊區"
"242015","173-VK","2019/08/23 17:29:26","新北市新莊區新泰路157號","121.447643333333","25.0368966666667","6500500","新莊區"
"242021","175-VK","2019/08/23 17:29:43","新北市新莊區中正路134號","121.45273","25.0362666666667","6500500","新莊區"
"242044","176-VK","2019/08/23 17:29:30","新北市新莊區富國路87號","121.42054","25.025825","6500500","新莊區"
"242019","346-TH","2019/08/23 17:29:32","新北市新莊區中港路50號","121.455393333333","25.0384933333333","6500500","新莊區"
"242034","347-TH","2019/08/23 17:29:40","新北市新莊區瓊林路6號","121.449645","25.0319016666667","6500500","新莊區"
"242032","348-TH","2019/08/23 17:29:43","新北市新莊區新泰路462號","121.44337","25.0449233333333","6500500","新莊區"
"242007","349-TH","2019/08/23 17:29:42","新北市新莊區自強街28號","121.454745","25.0461633333333","6500500","新莊區"
"242017","351-TH","2019/08/23 17:29:35","新北市新莊區中華路一段103號","121.452748333333","25.0438783333333","6500500","新莊區"
"238015","755-BX","2019/08/23 17:29:31","新北市樹林區復興路3號","121.422821666667","24.9947716666667","6500700","樹林區"
"238023","601-UM","2019/08/23 17:29:32","新北市樹林區三福街114號","121.406408333333","25.0162733333333","6500700","樹林區"
"238019","599-UM","2019/08/23 17:29:37","新北市樹林區八德街269號","121.422185","24.9784133333333","6500700","樹林區"
"238024","5061-A6","2019/08/23 17:29:25","新北市樹林區中華路6-3號","121.42464","24.98408","6500700","樹林區"
"238018","KEA-2217","2019/08/23 17:29:40","新北市樹林區鎮前街273號","121.419595","24.9858016666667","6500700","樹林區"
"238022","KEA-2213","2019/08/23 17:29:31","新北市樹林區信義街17號","121.42284","24.98203","6500700","樹林區"
"238021","KEA-2539","2019/08/23 17:29:32","新北市樹林區佳園路二段36-5號","121.391355","24.9619866666667","6500700","樹林區"
"238025","303-VK","2019/08/23 17:29:37","新北市樹林區保安街一段298號","121.419031666667","24.997315","6500700","樹林區"
"238017","283-BY","2019/08/23 17:29:39","新北市樹林區中正路236號","121.41843","25.0072766666667","6500700","樹林區"
"238014","282-BY","2019/08/23 17:29:31","新北市樹林區長壽街84號","121.420108333333","24.9956533333333","6500700","樹林區"
"238020","268-VK","2019/08/23 17:29:37","新北市樹林區千歲街111-1號","121.429291666667","25.00154","6500700","樹林區"
"238026","172-UY","2019/08/23 17:29:27","新北市樹林區中山路二段249巷35號","121.40364","24.9753916666667","6500700","樹林區"
"238016","169-UY","2019/08/23 17:29:42","新北市樹林區中山路一段2巷6號","121.424131666667","24.9940666666667","6500700","樹林區"
"239007","AAC-297","2019/08/23 17:29:48","新北市鶯歌區中山路48號","121.352063333333","24.957085","6500800","鶯歌區"
"239006","891-R6","2019/08/23 17:29:29","新北市鶯歌區德昌街1號","121.333993333333","24.9609583333333","6500800","鶯歌區"
"239008","527-UM","2019/08/23 17:29:45","新北市鶯歌區大湖路578號","121.336251666667","24.9734866666667","6500800","鶯歌區"
"239005","526-UM","2019/08/23 17:29:30","新北市鶯歌區鶯桃路551號","121.330281666667","24.9678666666667","6500800","鶯歌區"
"239001","417-VK","2019/08/23 17:29:45","新北市鶯歌區中正三路101號","121.338228333333","24.940985","6500800","鶯歌區"
"239003","360-BY","2019/08/23 17:29:32","新北市鶯歌區德昌街201號","121.330025","24.96033","6500800","鶯歌區"
"239002","359-BY","2019/08/23 17:29:33","新北市鶯歌區南雅路61號","121.347911666667","24.9541166666667","6500800","鶯歌區"
"239004","193-VK","2019/08/23 17:29:36","新北市鶯歌區文化路324巷1-35號","121.353","24.9450766666667","6500800","鶯歌區"
"233001","KEA-2870","2019/08/23 17:29:46","新北市烏來區娃娃谷16號","121.526956666667","24.83837","6502900","烏來區"
"242009","280-VK","2019/08/23 17:29:42","新北市新莊區中原路228號","121.453181666667","25.0545566666667","6500500","新莊區"
