"lineid","car","time","location","longitude","latitude","cityid","cityname"
"234007","KED-0605","2019/08/23 18:09:39","新北市永和區環河東路二段92號","121.524448333333","25.010615","6500400","永和區"
"234026","9371-KE","2019/08/23 18:09:39","新北市永和區自由街33號","121.514313333333","25.0063216666667","6500400","永和區"
"249005","172-UM","2019/08/23 18:09:37","新北市八里區荖阡坑路15-40號","121.40173","25.139815","6502300","八里區"
"249001","173-UM","2019/08/23 18:09:45","新北市八里區龍米路二段35號","121.448505","25.1400216666667","6502300","八里區"
"249004","303-UY","2019/08/23 18:09:49","新北市八里區龍米路二段168號","121.434815","25.1581333333333","6502300","八里區"
"249002","305-UY","2019/08/23 18:09:31","新北市八里區龍米路一段356巷48號","121.452125","25.1301666666667","6502300","八里區"
"249003","593-UM","2019/08/23 18:09:34","新北市八里區松子腳3-2號","121.403101666667","25.1445966666667","6502300","八里區"
"248014","025-BX","2019/08/23 18:09:25","新北市五股區成泰路一段189巷29號","121.433555","25.0763083333333","6501500","五股區"
"248006","077-UY","2019/08/23 18:09:40","新北市五股區中興路二段53號","121.461873333333","25.0765183333333","6501500","五股區"
"248008","KED-0815","2019/08/23 18:09:21","新北市蘆洲區永安南路二段298號","121.457193333333","25.0820866666667","6501500","五股區"
"248018","KED-0813","2019/08/23 18:09:28","新北市五股區成泰路三段101-1號","121.443953333333","25.0902616666667","6501500","五股區"
"248004","677-BX","2019/08/23 18:09:32","新北市五股區成泰路二段122號","121.438063333333","25.083395","6501500","五股區"
"248002","678-BX","2019/08/23 18:09:44","新北市五股區更洲路70號","121.45326","25.078625","6501500","五股區"
"232011","375-UM","2019/08/23 18:09:32","新北市坪林區坪林街16-1號","121.712511666667","24.93626","6502000","坪林區"
"244007","080-UY","2019/08/23 18:09:28","新北市林口區竹林路548號","121.387586666667","25.0847233333333","6501700","林口區"
"244019","402-UM","2019/08/23 18:09:31","新北市林口區麗園路77號","121.37393","25.0691466666667","6501700","林口區"
"244013","KEA-2802","2019/08/23 18:09:42","新北市林口區中山路188-2號","121.389236666667","25.07896","6501700","林口區"
"244023","483-VK","2019/08/23 18:09:32","新北市林口區東湖路120號","121.384803333333","25.073465","6501700","林口區"
"244017","485-VK","2019/08/23 18:09:37","新北市林口區八德路20巷1號","121.368316666667","25.0672783333333","6501700","林口區"
"244009","656-BX","2019/08/23 18:09:35","新北市林口區民生路166號","121.379803333333","25.08766","6501700","林口區"
"244011","701-TV","2019/08/23 18:09:38","新北市林口區中正路74巷5弄2號","121.394595","25.078015","6501700","林口區"
"244025","837-TS","2019/08/23 18:09:40","新北市林口區文化北路一段297號","121.359993333333","25.0731066666667","6501700","林口區"
"244021","838-TS","2019/08/23 18:09:39","新北市林口區自強六街2號","121.400053333333","25.0769166666667","6501700","林口區"
"222003","436-BY","2019/08/23 18:09:43","新北市深坑區阿柔洋47號","121.612198333333","24.99724","6501800","深坑區"
"222001","628-TS","2019/08/23 18:09:33","新北市深坑區北深路二段184號","121.614098333333","25.0023","6501800","深坑區"
"222002","659-BX","2019/08/23 18:09:39","新北市深坑區文化街42號","121.619106666667","25.0016416666667","6501800","深坑區"
"231044","046-UY","2019/08/23 18:09:25","新北市新店區安華路28-1號","121.51953","24.96079","6500600","新店區"
"221035","KEA-2785","2019/08/23 18:09:27","新北市汐止區汐萬路一段115巷2號","121.654233333333","25.0708483333333","6501100","汐止區"
"231042","268-BY","2019/08/23 18:09:27","新北市新店區安一路一段1-1號","121.519775","24.96141","6500600","新店區"
"231064","278-BY","2019/08/23 18:09:40","新北市新店區安華路28-1號","121.519768333333","24.96105","6500600","新店區"
"231050","AAD-862","2019/08/23 18:09:32","新北市新店區安華路28-1號","121.519813333333","24.96102","6500600","新店區"
"231056","4715-K9","2019/08/23 18:09:37","新北市新店區安華路28-1號","121.519283333333","24.9605683333333","6500600","新店區"
"231053","513-UM","2019/08/23 18:09:29","新北市新店區安一路一段1-1號","121.519778333333","24.9613233333333","6500600","新店區"
"231040","617-UM","2019/08/23 18:09:47","新北市新店區安華路28-1號","121.519348333333","24.9609033333333","6500600","新店區"
"231057","720-UM","2019/08/23 18:09:26","新北市新店區安一路一段1-1號","121.5192","24.9612316666667","6500600","新店區"
"231043","899-TW","2019/08/23 18:09:36","新北市新店區安華路28-1號","121.519148333333","24.960955","6500600","新店區"
"241024","065-VK","2019/08/23 18:09:43","新北市三重區中正北路193巷35弄4號","121.476076666667","25.0708316666667","6500200","三重區"
"241033","AAC-255","2019/08/23 18:09:34","新北市三重區中興北街62號","121.468983333333","25.0518033333333","6500200","三重區"
"235064","005-UY","2019/08/23 18:09:45","新北市中和區中正路130號","121.499525","24.993815","6500300","中和區"
"235063","006-UY","2019/08/23 18:09:31","新北市中和區中正路637巷52弄1號","121.485513333333","24.9934466666667","6500300","中和區"
"235056","096-UM","2019/08/23 18:09:41","新北市中和區連城路308號","121.483656666667","24.9964216666667","6500300","中和區"
"235039","097-UM","2019/08/23 18:09:44","新北市中和區錦和路350-1號","121.4901","24.9935283333333","6500300","中和區"
"235065","098-UM","2019/08/23 18:09:39","新北市中和區莊敬路49巷18號","121.501666666667","25.0061616666667","6500300","中和區"
"235040","150-BY","2019/08/23 18:09:32","新北市中和區錦和路350-1號","121.490023333333","24.9935683333333","6500300","中和區"
"235058","151-BY","2019/08/23 18:09:30","新北市中和區圓通路367巷66號","121.49329","24.9832116666667","6500300","中和區"
"235055","183-VK","2019/08/23 18:09:29","新北市中和區連城路467-6號","121.483556666667","24.9959716666667","6500300","中和區"
"235038","185-VK","2019/08/23 18:09:45","新北市中和區景平路85號","121.517876666667","24.9916316666667","6500300","中和區"
"235043","352-BY","2019/08/23 18:09:43","新北市中和區中正路169號","121.498","24.9935933333333","6500300","中和區"
"235042","KEA-2878","2019/08/23 18:09:41","新北市中和區安樂路2巷30弄55號","121.512875","24.99089","6500300","中和區"
"235070","558-UM","2019/08/23 18:09:40","新北市中和區圓通路162-1號","121.497533333333","24.99532","6500300","中和區"
"235045","565-BX","2019/08/23 18:09:28","新北市中和區板南路108號","121.503381666667","24.992465","6500300","中和區"
"235060","KED-0823","2019/08/23 18:09:29","新北市中和區員山路105號","121.48083","24.9945366666667","6500300","中和區"
"235054","640-BX","2019/08/23 18:09:43","新北市土城區金城路三段212號","121.47194","24.9899633333333","6500300","中和區"
"235047","732-UM","2019/08/23 18:09:32","新北市中和區中正路637巷52弄1號","121.485435","24.9936633333333","6500300","中和區"
"235062","800-TS","2019/08/23 18:09:45","新北市中和區橋和路119號","121.491785","25.0057533333333","6500300","中和區"
"235057","801-TS","2019/08/23 18:09:38","新北市中和區民享街97巷17號","121.47542","24.999615","6500300","中和區"
"235052","805-TS","2019/08/23 18:09:38","新北市中和區中正路13號","121.503116666667","24.9933983333333","6500300","中和區"
"235053","900-TW","2019/08/23 18:09:12","新北市中和區員山路36巷16-2號","121.485213333333","24.9914683333333","6500300","中和區"
"235051","157-BY","2019/08/23 18:09:36","新北市中和區復興路276號","121.502713333333","24.9903866666667","6500300","中和區"
"235037","AAC-213","2019/08/23 18:09:32","新北市中和區景德街54號","121.517478333333","24.9914916666667","6500300","中和區"
"235059","AAC-215","2019/08/23 18:05:46","新北市中和區員山路36巷16-3號","121.484983333333","24.991085","6500300","中和區"
"247002","336-TH","2019/08/23 18:09:39","新北市蘆洲區永平街32巷57弄13號","121.4594","25.0929883333333","6501400","蘆洲區"
"226004","312-R5","2019/08/23 18:09:38","新北市平溪區白石里白石腳19號","121.720973333333","25.021615","6502400","平溪區"
"235041","251-BX","2019/08/23 18:09:26","新北市中和區員山路36巷16-2號","121.485185","24.991605","6500300","中和區"
"228002","663-BX","2019/08/23 18:09:43","新北市貢寮區福連里馬崗街35-1號","122.001886666667","25.0116683333333","6502600","貢寮區"
"228001","670-TC","2019/08/23 18:09:41","新北市貢寮區真理里新港街26巷55弄2-1號","121.927408333333","25.05285","6502600","貢寮區"
"228003","828-UM","2019/08/23 18:09:33","新北市貢寮區真理里美艷山街6-2號","121.928803333333","25.0607583333333","6502600","貢寮區"
"224006","676-BX","2019/08/23 18:09:38","新北市瑞芳區中山路93號","121.803588333333","25.106225","6501200","瑞芳區"
"224002","639-TC","2019/08/23 18:09:39","新北市瑞芳區三爪子坑路199號","121.81153","25.1057466666667","6501200","瑞芳區"
"224009","275-VK","2019/08/23 18:09:38","新北市瑞芳區金光路278號","121.853218333333","25.1073366666667","6501200","瑞芳區"
"224008","273-VK","2019/08/23 18:09:30","新北市瑞芳區員山子路23號","121.821418333333","25.1030283333333","6501200","瑞芳區"
"224005","271-BY","2019/08/23 18:09:36","新北市瑞芳區建基新村7-4號","121.812688333333","25.131385","6501200","瑞芳區"
"227002","642-TC","2019/08/23 18:09:45","新北市雙溪區共和里東榮街52號","121.866403333333","25.0336866666667","6502500","雙溪區"
"227001","400-TW","2019/08/23 18:09:29","新北市雙溪區三貂里政光路3-1號","121.850788333333","25.0633616666667","6502500","雙溪區"
"253006","032-BX","2019/08/23 18:09:29","新北市石門區老梅路52巷21號","121.546353333333","25.288515","6502200","石門區"
"253005","295-VK","2019/08/23 18:09:36","新北市石門區福安街37號","121.568601666667","25.292185","6502200","石門區"
"208002","KEA-2872","2019/08/23 18:09:44","新北市金山區法鼓路93號","121.624621666667","25.2338133333333","6502700","金山區"
"208003","665-BX","2019/08/23 18:09:34","新北市金山區磺港里磺港路311號","121.644111666667","25.2278083333333","6502700","金山區"
"251009","008-UM","2019/08/23 18:09:44","新北市淡水區大仁街6巷33號","121.443126666667","25.1755283333333","6501000","淡水區"
"251004","009-UM","2019/08/23 18:09:36","新北市淡水區民族路110巷43弄4號","121.461426666667","25.1351333333333","6501000","淡水區"
"251001","011-UM","2019/08/23 18:09:33","新北市淡水區自立路1巷19號","121.462678333333","25.1296866666667","6501000","淡水區"
"251010","012-UM","2019/08/23 18:09:46","新北市淡水區中正路二段50巷10號","121.419918333333","25.183305","6501000","淡水區"
"251008","181-VK","2019/08/23 18:09:33","新北市淡水區中正東路二段7號","121.458191666667","25.1588266666667","6501000","淡水區"
"251012","441-VK","2019/08/23 18:09:39","新北市淡水區泉洲厝13-1號","121.488488333333","25.1900783333333","6501000","淡水區"
"251005","443-VK","2019/08/23 18:09:40","新北市淡水區水源街一段145號","121.447375","25.1718483333333","6501000","淡水區"
"251006","561-UM","2019/08/23 18:09:35","新北市淡水區新民街76巷2號","121.438833333333","25.1764633333333","6501000","淡水區"
"251011","650-BX","2019/08/23 18:09:41","新北市淡水區三空泉6-3號","121.476961666667","25.1623866666667","6501000","淡水區"
"251002","672-BX","2019/08/23 18:09:30","新北市淡水區中正東路40號","121.450073333333","25.165125","6501000","淡水區"
"251003","766-UM","2019/08/23 18:09:41","新北市淡水區大忠街113巷29號","121.447543333333","25.17755","6501000","淡水區"
"207003","550-UM","2019/08/23 18:09:33","新北市萬里區港東路野柳風景區攤販98號","121.690773333333","25.20546","6502800","萬里區"
"207004","291-VK","2019/08/23 18:09:34","新北市萬里區中幅里中福路97號","121.675441666667","25.170085","6502800","萬里區"
"252002","178-VK","2019/08/23 18:09:31","新北市三芝區中山路二段39號","121.502911666667","25.2551133333333","6502100","三芝區"
"252003","249-BX","2019/08/23 18:09:44","新北市三芝區埔頭里埔頭37號","121.498483333333","25.2602983333333","6502100","三芝區"
"208001","170-UY","2019/08/23 18:09:34","新北市金山區磺港里磺港路73號","121.647546666667","25.2271483333333","6502700","金山區"
"237004","KEA-2597","2019/08/23 18:09:26","新北市三峽區大埔1-3號","121.374816666667","24.8904466666667","6500900","三峽區"
"237007","153-BY","2019/08/23 18:09:22","新北市三峽區中正路二段370巷9-1號","121.365306666667","24.91011","6500900","三峽區"
"237009","210-TH","2019/08/23 18:09:41","新北市三峽區大仁路61號","121.365155","24.93738","6500900","三峽區"
"237013","252-BX","2019/08/23 18:09:39","新北市三峽區長泰街5巷11號","121.378201666667","24.9310783333333","6500900","三峽區"
"237008","302-VK","2019/08/23 18:09:30","新北市三峽區白雞47號","121.38277","24.9123","6500900","三峽區"
"237014","433-BY","2019/08/23 18:09:43","新北市三峽區國光街81巷7號","121.373633333333","24.9381383333333","6500900","三峽區"
"237006","5529-G3","2019/08/23 18:09:37","新北市三峽區介壽路二段167號","121.394831666667","24.9360616666667","6500900","三峽區"
"237011","KEA-2596","2019/08/23 18:09:45","新北市三峽區大同路3-2號","121.37762","24.9290816666667","6500900","三峽區"
"237015","649-BX","2019/08/23 18:08:07","新北市三峽區紫微路23-1號","121.423315","24.92015","6500900","三峽區"
"237010","706-TV","2019/08/23 18:09:46","新北市三峽區大同路202-2號","121.368008333333","24.92735","6500900","三峽區"
"237005","AKY-6261","2019/08/23 18:09:41","新北市三峽區忠孝街20號","121.37088","24.9341333333333","6500900","三峽區"
"236042","KED-0685","2019/08/23 18:09:36","新北市土城區員福街50號","121.440656666667","24.97903","6501300","土城區"
"233002","762-BX","2019/08/23 18:09:29","新北市烏來區新烏路五段120號","121.547231666667","24.8709233333333","6502900","烏來區"
"236079","166-UM","2019/08/23 18:09:36","新北市土城區永安街85號","121.430973333333","24.9638116666667","6501300","土城區"
"236030","253-BX","2019/08/23 18:09:34","新北市土城區城林路6巷80號","121.43856","24.9795533333333","6501300","土城區"
"236026","269-VK","2019/08/23 18:09:39","新北市土城區承天路43巷4號","121.439203333333","24.9638066666667","6501300","土城區"
"236014","270-VK","2019/08/23 18:09:36","新北市土城區學府路一段191號","121.45205","24.9849783333333","6501300","土城區"
"236039","271-VK","2019/08/23 18:09:38","新北市土城區青雲路453號","121.458958333333","24.9745733333333","6501300","土城區"
"236069","KEA-2877","2019/08/23 18:09:36","新北市土城區明德路一段128巷9號","121.463273333333","24.9789816666667","6501300","土城區"
"252001","KED-0821","2019/08/23 18:09:31","新北市三芝區中興街二段2號","121.498363333333","25.25664","6502100","三芝區"
"236020","401-BY","2019/08/23 18:09:29","新北市土城區明德路二段112號","121.444963333333","24.98418","6501300","土城區"
"236059","912-UM","2019/08/23 18:09:40","新北市土城區中央路四段252-1號","121.415103333333","24.956895","6501300","土城區"
"236048","913-UM","2019/08/23 18:09:36","新北市土城區金城路二段26號","121.450133333333","24.97793","6501300","土城區"
"236063","915-UM","2019/08/23 18:09:40","新北市土城區金城路二段26號","121.450185","24.9779533333333","6501300","土城區"
"236055","AAC-216","2019/08/23 18:09:33","新北市土城區中華路二段92號","121.438263333333","24.9747566666667","6501300","土城區"
"242039","AAC-296","2019/08/23 18:09:32","新北市新莊區民安西路40號","121.427276666667","25.0210233333333","6500500","新莊區"
"242060","986-R7","2019/08/23 18:09:33","新北市新莊區新樹路255號","121.434875","25.0220016666667","6500500","新莊區"
"242002","751-BX","2019/08/23 18:09:32","新北市新莊區新莊路120號","121.456023333333","25.0359633333333","6500500","新莊區"
"242029","615-BX","2019/08/23 18:09:40","新北市新莊區中平路202-1號","121.444781666667","25.04887","6500500","新莊區"
"242027","613-BX","2019/08/23 18:09:43","新北市新莊區幸福路55號","121.457548333333","25.0493516666667","6500500","新莊區"
"242058","612-BX","2019/08/23 18:09:30","新北市新莊區中山路三段172號","121.416353333333","25.0316416666667","6500500","新莊區"
"242046","566-BX","2019/08/23 18:09:33","新北市新莊區福營路241號","121.429246666667","25.0300516666667","6500500","新莊區"
"242050","497-BY","2019/08/23 18:09:44","新北市新莊區民本街11巷35號","121.42909","25.0202866666667","6500500","新莊區"
"242056","442-UM","2019/08/23 18:09:43","新北市新莊區泰豐街1巷7號","121.448166666667","25.030965","6500500","新莊區"
"242048","441-UM","2019/08/23 18:09:41","新北市新莊區富國路154號","121.423236666667","25.0250016666667","6500500","新莊區"
"242005","440-UM","2019/08/23 18:09:42","新北市新莊區自立街117號","121.455801666667","25.045645","6500500","新莊區"
"242041","415-TV","2019/08/23 18:09:42","新北市新莊區天祥街127號","121.414243333333","25.02971","6500500","新莊區"
"242011","413-TV","2019/08/23 18:09:34","新北市新莊區中信街88號","121.447865","25.05333","6500500","新莊區"
"242025","362-BY","2019/08/23 18:09:38","新北市新莊區五權一路78號","121.458883333333","25.0669633333333","6500500","新莊區"
"242013","132-UY","2019/08/23 18:09:32","新北市新莊區中正路400號","121.441908333333","25.034385","6500500","新莊區"
"242037","135-UY","2019/08/23 18:09:33","新北市新莊區後港一路49巷5弄3號","121.42555","25.02706","6500500","新莊區"
"242054","172-VK","2019/08/23 18:09:43","新北市新莊區民安西路354號","121.427318333333","25.0112133333333","6500500","新莊區"
"242015","173-VK","2019/08/23 18:09:41","新北市新莊區中平路152巷38號","121.446381666667","25.04733","6500500","新莊區"
"242021","175-VK","2019/08/23 18:09:42","新北市新莊區新興街37巷1號","121.45071","25.0377583333333","6500500","新莊區"
"242044","176-VK","2019/08/23 18:09:30","新北市新莊區中正路力行巷8號","121.417058333333","25.02632","6500500","新莊區"
"242034","347-TH","2019/08/23 18:09:40","新北市新莊區新豐街65號","121.446353333333","25.033595","6500500","新莊區"
"242032","348-TH","2019/08/23 18:09:39","新北市新莊區新泰路277巷55號","121.443583333333","25.0401116666667","6500500","新莊區"
"242007","349-TH","2019/08/23 18:09:42","新北市新莊區中華路二段82號","121.453668333333","25.0469583333333","6500500","新莊區"
"242017","351-TH","2019/08/23 18:09:35","新北市新莊區中港路293號","121.452888333333","25.0442166666667","6500500","新莊區"
"238015","755-BX","2019/08/23 18:09:31","新北市樹林區啟智街82-1號","121.419101666667","24.9908133333333","6500700","樹林區"
"238023","601-UM","2019/08/23 18:09:32","新北市樹林區三福街47巷12號","121.40792","25.0155733333333","6500700","樹林區"
"238019","599-UM","2019/08/23 18:09:37","新北市樹林區中華路71號","121.4231","24.9831983333333","6500700","樹林區"
"238018","KEA-2217","2019/08/23 18:09:40","新北市樹林區樹新路207號","121.429791666667","24.9980966666667","6500700","樹林區"
"238022","KEA-2213","2019/08/23 18:09:40","新北市樹林區太平路174巷32弄7號","121.417233333333","24.9767316666667","6500700","樹林區"
"238021","KEA-2539","2019/08/23 18:09:32","新北市樹林區柑園街二段175號","121.380558333333","24.9529216666667","6500700","樹林區"
"238025","303-VK","2019/08/23 18:09:36","新北市樹林區保安街二段136號","121.413381666667","25.004165","6500700","樹林區"
"238017","283-BY","2019/08/23 18:09:47","新北市樹林區中正路849號","121.408961666667","25.0178","6500700","樹林區"
"238014","282-BY","2019/08/23 18:09:30","新北市樹林區千歲街61巷52號","121.425285","24.9987633333333","6500700","樹林區"
"238020","268-VK","2019/08/23 18:09:47","新北市樹林區俊興街286號","121.41865","25.0170033333333","6500700","樹林區"
"238026","172-UY","2019/08/23 18:09:47","新北市樹林區佳園路一段50號","121.392868333333","24.9706433333333","6500700","樹林區"
"238016","169-UY","2019/08/23 18:09:42","新北市樹林區中山路一段242巷16弄1號","121.420601666667","24.988015","6500700","樹林區"
"239007","AAC-297","2019/08/23 18:09:27","新北市鶯歌區育英街53號","121.347063333333","24.9526816666667","6500800","鶯歌區"
"239006","891-R6","2019/08/23 18:09:29","新北市鶯歌區鶯桃路457號","121.332076666667","24.9656583333333","6500800","鶯歌區"
"239008","527-UM","2019/08/23 18:09:45","新北市鶯歌區朝陽街53巷19號","121.338275","24.9778566666667","6500800","鶯歌區"
"239005","526-UM","2019/08/23 18:09:30","新北市鶯歌區鶯桃路668巷73號","121.329893333333","24.971735","6500800","鶯歌區"
"239001","417-VK","2019/08/23 18:09:45","新北市鶯歌區高職東街19巷16號","121.34054","24.9416466666667","6500800","鶯歌區"
"239003","360-BY","2019/08/23 18:09:32","新北市鶯歌區福安街30號","121.334486666667","24.9641433333333","6500800","鶯歌區"
"239002","359-BY","2019/08/23 18:09:33","新北市鶯歌區中山路249巷10號","121.34686","24.956505","6500800","鶯歌區"
"221008","489-VK","2019/08/23 18:09:27","新北市汐止區明峰街216號","121.627181666667","25.06897","6501100","汐止區"
"221036","130-UY","2019/08/23 18:09:35","新北市汐止區大同路三段116號","121.672126666667","25.0767216666667","6501100","汐止區"
"221015","131-UY","2019/08/23 18:09:39","新北市汐止區長江街293號","121.665468333333","25.0812933333333","6501100","汐止區"
"221010","269-BY","2019/08/23 18:09:40","新北市汐止區汐萬路二段275巷1弄25號","121.646285","25.0881033333333","6501100","汐止區"
"221012","278-VK","2019/08/23 18:09:32","新北市汐止區保一街35巷20號","121.67459","25.08102","6501100","汐止區"
"221023","279-VK","2019/08/23 18:09:31","新北市汐止區民族五街69號","121.628195","25.0704266666667","6501100","汐止區"
"221032","280-BY","2019/08/23 18:09:36","新北市汐止區橫科路73巷2-2號","121.61957","25.0506166666667","6501100","汐止區"
"221029","298-VK","2019/08/23 18:09:46","新北市汐止區樟樹二路134號","121.640011666667","25.0657466666667","6501100","汐止區"
"221021","299-VK","2019/08/23 18:09:46","新北市汐止區新興路14號","121.65635","25.0647016666667","6501100","汐止區"
"221031","353-TW","2019/08/23 18:09:36","新北市汐止區中興路167號","121.6309","25.0662483333333","6501100","汐止區"
"221025","623-UM","2019/08/23 18:09:40","新北市汐止區秀峰路139號","121.66027","25.0624066666667","6501100","汐止區"
"221038","646-BX","2019/08/23 18:09:41","新北市汐止區南興路82巷3號","121.652848333333","25.058995","6501100","汐止區"
"221033","647-BX","2019/08/23 18:09:39","新北市汐止區宜興街10巷21號","121.621985","25.0407166666667","6501100","汐止區"
"221002","707-TV","2019/08/23 18:09:42","新北市汐止區福德一路213巷1號","121.63489","25.065345","6501100","汐止區"
"233001","KEA-2870","2019/08/23 18:09:26","新北市烏來區新烏路五段170號","121.547485","24.869875","6502900","烏來區"
"242009","280-VK","2019/08/23 18:09:41","新北市新莊區中華路二段250號","121.452696666667","25.0528733333333","6500500","新莊區"
"235068","KEA-2873","2019/08/23 18:09:33","新北市中和區員山路36巷16-3號","121.485228333333","24.991105","6500300","中和區"
"235061","KEA-2875","2019/08/23 18:09:21","新北市土城區金城路三段216號","121.472281666667","24.99007","6500300","中和區"
