"lineid","car","time","location","longitude","latitude","cityid","cityname"
"234046","148-BY","2019/08/23 18:39:28","新北市永和區永元路68號","121.522508333333","25.0016016666667","6500400","永和區"
"234081","298-R6","2019/08/23 18:39:44","新北市永和區林森路83號","121.523831666667","25.0038233333333","6500400","永和區"
"234086","338-UY","2019/08/23 18:39:42","新北市永和區中正路134號","121.514653333333","24.9960533333333","6500400","永和區"
"234017","745-BX","2019/08/23 18:39:30","新北市永和區福和路1號","121.526338333333","25.009545","6500400","永和區"
"234030","746-BX","2019/08/23 18:39:28","新北市永和區成功路一段70號","121.526893333333","25.003585","6500400","永和區"
"234007","KED-0605","2019/08/23 18:39:39","新北市永和區文化路164號","121.512163333333","25.0153883333333","6500400","永和區"
"234013","KEA-2591","2019/08/23 18:39:41","新北市永和區保安路13號","121.51035","25.0168166666667","6500400","永和區"
"234026","9371-KE","2019/08/23 18:39:39","新北市永和區自由街58號","121.51376","25.0059566666667","6500400","永和區"
"234011","9373-KE","2019/08/23 18:39:45","新北市永和區永和路二段233-1號","121.515263333333","25.0142866666667","6500400","永和區"
"249005","172-UM","2019/08/23 18:39:37","新北市八里區中華路三段196號","121.388138333333","25.1255566666667","6502300","八里區"
"249001","173-UM","2019/08/23 18:39:45","新北市八里區龍米路一段420號","121.451058333333","25.1335616666667","6502300","八里區"
"249004","303-UY","2019/08/23 18:39:29","新北市八里區忠四街9號","121.425006666667","25.1608116666667","6502300","八里區"
"249002","305-UY","2019/08/23 18:39:31","新北市八里區龍形一街19巷2號","121.449851666667","25.1304166666667","6502300","八里區"
"249003","593-UM","2019/08/23 18:18:45","新北市八里區博物館路10-1號","121.415081666667","25.1639483333333","6502300","八里區"
"248014","025-BX","2019/08/23 18:39:45","新北市五股區成泰路一段231號","121.43505","25.0779616666667","6501500","五股區"
"248016","026-BX","2019/08/23 18:39:48","新北市五股區凌雲路一段149巷5-1號","121.448981666667","25.1016966666667","6501500","五股區"
"248008","KED-0815","2019/08/23 18:39:42","新北市五股區中興路一段150巷14號","121.464663333333","25.0744616666667","6501500","五股區"
"248018","KED-0813","2019/08/23 18:39:28","新北市五股區民義路二段52巷2號","121.412165","25.1053883333333","6501500","五股區"
"248012","247-BX","2019/08/23 18:39:30","新北市五股區成泰路三段2巷1-20號","121.441025","25.0864816666667","6501500","五股區"
"248010","272-BY","2019/08/23 18:39:33","新北市五股區明德路12巷20號","121.433078333333","25.072135","6501500","五股區"
"248004","677-BX","2019/08/23 18:39:32","新北市五股區民義路一段270號","121.425878333333","25.0927583333333","6501500","五股區"
"248002","678-BX","2019/08/23 18:39:44","新北市五股區西雲路205號","121.448588333333","25.0965","6501500","五股區"
"234023","9380-KE","2019/08/23 18:39:40","新北市永和區福和路76巷5弄14號","121.52236","25.00836","6500400","永和區"
"234077","969-R7","2019/08/23 18:39:43","新北市永和區中正路175號","121.516665","24.9987116666667","6500400","永和區"
"234003","AAC-295","2019/08/23 18:39:47","新北市永和區福和路1號","121.526171666667","25.0096683333333","6500400","永和區"
"232011","375-UM","2019/08/23 18:39:32","新北市坪林區坪雙路一段41號","121.71172","24.942425","6502000","坪林區"
"244007","080-UY","2019/08/23 18:39:28","新北市林口區太平里12-3號","121.378611666667","25.114615","6501700","林口區"
"244019","402-UM","2019/08/23 18:39:31","新北市林口區麗園二街62-1號","121.381351666667","25.068285","6501700","林口區"
"244013","KEA-2802","2019/08/23 18:39:42","新北市林口區麗園一街6巷6-3號","121.375213333333","25.0705683333333","6501700","林口區"
"244023","483-VK","2019/08/23 18:39:32","新北市林口區文化一路二段2號","121.380346666667","25.0768116666667","6501700","林口區"
"244017","485-VK","2019/08/23 18:39:37","新北市林口區文化二路一段68巷14號","121.366185","25.06841","6501700","林口區"
"244009","656-BX","2019/08/23 18:39:35","新北市林口區竹林路332號","121.391243333333","25.0832566666667","6501700","林口區"
"244011","701-TV","2019/08/23 18:39:38","新北市林口區新寮1-69號","121.392376666667","25.0766283333333","6501700","林口區"
"244025","837-TS","2019/08/23 18:39:40","新北市林口區南勢三街19號","121.358203333333","25.0772416666667","6501700","林口區"
"244021","838-TS","2019/08/23 18:39:38","新北市林口區工六路62-1號","121.399498333333","25.0778483333333","6501700","林口區"
"243010","297-R6","2019/08/23 18:39:34","新北市泰山區明志路二段6號","121.430075","25.0538416666667","6501600","泰山區"
"222003","436-BY","2019/08/23 18:39:43","新北市深坑區翠谷街17巷1號","121.626505","25.0084483333333","6501800","深坑區"
"222001","628-TS","2019/08/23 18:39:34","新北市深坑區北深路一段84號","121.63617","25.0107383333333","6501800","深坑區"
"222002","659-BX","2019/08/23 18:39:39","新北市深坑區文山路一段62巷33號","121.621315","25.000395","6501800","深坑區"
"231061","002-UM","2019/08/23 18:39:31","新北市新店區安華路28-1號","121.519866666667","24.96088","6500600","新店區"
"231044","046-UY","2019/08/23 18:39:25","新北市新店區安華路28-1號","121.519531666667","24.960755","6500600","新店區"
"231060","106-UY","2019/08/23 18:39:34","新北市新店區安華路28-1號","121.519545","24.9608316666667","6500600","新店區"
"231051","107-UY","2019/08/23 18:39:35","新北市新店區安康路一段94-1號","121.52766","24.9621833333333","6500600","新店區"
"231049","108-UY","2019/08/23 18:39:40","新北市新店區安華路28-1號","121.519743333333","24.9607316666667","6500600","新店區"
"231065","110-UY","2019/08/23 18:39:39","新北市新店區安一路一段1-1號","121.519531666667","24.9614233333333","6500600","新店區"
"221035","KEA-2785","2019/08/23 18:39:27","新北市汐止區大同路二段187巷8弄1號","121.652568333333","25.0656666666667","6501100","汐止區"
"231062","256-BX","2019/08/23 18:39:38","新北市新店區安一路一段1-1號","121.519751666667","24.9612","6500600","新店區"
"231042","268-BY","2019/08/23 18:39:47","新北市新店區光明街141號","121.539425","24.9621266666667","6500600","新店區"
"231064","278-BY","2019/08/23 18:39:40","新北市新店區安一路一段1-1號","121.519813333333","24.9611633333333","6500600","新店區"
"231050","AAD-862","2019/08/23 18:39:32","新北市新店區安華路28-1號","121.519811666667","24.9610383333333","6500600","新店區"
"231045","355-BY","2019/08/23 18:39:45","新北市新店區安華路28-1號","121.519393333333","24.9609916666667","6500600","新店區"
"231058","3713-VJ","2019/08/23 18:39:42","新北市新店區新店後街72號","121.537618333333","24.9543883333333","6500600","新店區"
"231055","4716-K9","2019/08/23 18:39:27","新北市新店區中央路185-2號","121.536971666667","24.9689166666667","6500600","新店區"
"231056","4715-K9","2019/08/23 18:39:37","新北市新店區建國路200號","121.537761666667","24.9806883333333","6500600","新店區"
"231053","513-UM","2019/08/23 18:39:29","新北市新店區永興路34號","121.543593333333","24.9388316666667","6500600","新店區"
"231063","616-UM","2019/08/23 18:39:36","新北市新店區安華路28-1號","121.519561666667","24.9605533333333","6500600","新店區"
"231040","617-UM","2019/08/23 18:39:47","新北市新店區安華路28-1號","121.519416666667","24.9609066666667","6500600","新店區"
"231048","KED-0819","2019/08/23 18:39:41","新北市新店區安一路一段1-1號","121.5198","24.9612166666667","6500600","新店區"
"231046","719-UM","2019/08/23 18:39:28","新北市新店區直潭二街1號","121.535425","24.9431333333333","6500600","新店區"
"231057","720-UM","2019/08/23 18:39:26","新北市新店區北宜路一段108號","121.539088333333","24.9552916666667","6500600","新店區"
"231059","897-TW","2019/08/23 18:39:40","新北市新店區安華路28-1號","121.519726666667","24.96066","6500600","新店區"
"231043","899-TW","2019/08/23 18:39:36","新北市新店區安康路一段359-27號","121.51828","24.96085","6500600","新店區"
"231066","AKT-0513","2019/08/23 18:39:41","新北市新店區安華路1-1號","121.519613333333","24.960475","6500600","新店區"
"235064","005-UY","2019/08/23 18:39:43","新北市中和區泰和街14號","121.49982","25.0008916666667","6500300","中和區"
"235063","006-UY","2019/08/23 18:39:31","新北市中和區連城路268-6號","121.48634","24.9963083333333","6500300","中和區"
"235056","096-UM","2019/08/23 18:39:41","新北市中和區員山路611巷5弄5號","121.478175","25.0112266666667","6500300","中和區"
"235039","097-UM","2019/08/23 18:39:44","新北市中和區宜安路18巷13號","121.513936666667","24.9963383333333","6500300","中和區"
"235065","098-UM","2019/08/23 18:39:39","新北市中和區莊敬路33巷40號","121.500353333333","25.00652","6500300","中和區"
"235040","150-BY","2019/08/23 18:39:32","新北市中和區安平路59號","121.509588333333","24.9951216666667","6500300","中和區"
"235058","151-BY","2019/08/23 18:39:30","新北市中和區員山路116號","121.481098333333","24.9957816666667","6500300","中和區"
"235055","183-VK","2019/08/23 18:39:49","新北市中和區民生街18號","121.47031","25.0054516666667","6500300","中和區"
"235038","185-VK","2019/08/23 18:39:45","新北市中和區大勇街60巷2號","121.518343333333","24.9947316666667","6500300","中和區"
"235049","186-VK","2019/08/23 18:39:36","新北市中和區明義街40巷2號","121.503901666667","24.9955766666667","6500300","中和區"
"235067","255-BX","2019/08/23 18:39:38","新北市中和區新生街42號","121.483218333333","25.0034333333333","6500300","中和區"
"235044","293-VK","2019/08/23 18:39:37","新北市中和區復興路280巷15號","121.502288333333","24.9913366666667","6500300","中和區"
"235072","301-VK","2019/08/23 18:39:39","新北市中和區中山路二段69號","121.503911666667","25.00449","6500300","中和區"
"235043","352-BY","2019/08/23 18:39:43","新北市中和區景平路91-1號","121.517546666667","24.9918016666667","6500300","中和區"
"235042","KEA-2878","2019/08/23 18:39:32","新北市中和區秀朗路三段133巷2號","121.525398333333","24.992635","6500300","中和區"
"235050","4979-A6","2019/08/23 18:39:29","新北市中和區景新街496巷28弄8號","121.513145","24.9858816666667","6500300","中和區"
"235069","4980-A6","2019/08/23 18:39:39","新北市中和區連城路65巷10號","121.497931666667","25.0007983333333","6500300","中和區"
"235070","558-UM","2019/08/23 18:39:40","新北市中和區南山路24號","121.502","24.99824","6500300","中和區"
"235045","565-BX","2019/08/23 18:39:28","新北市中和區南山路208巷1弄11號","121.506463333333","24.9898316666667","6500300","中和區"
"235060","KED-0823","2019/08/23 18:39:29","新北市中和區中山路三段148號","121.473655","25.00638","6500300","中和區"
"235054","640-BX","2019/08/23 18:39:43","新北市中和區莒光路129巷2弄7號","121.473106666667","25.00168","6500300","中和區"
"235047","732-UM","2019/08/23 18:39:32","新北市中和區興南路二段43號","121.507503333333","24.985665","6500300","中和區"
"235046","733-UM","2019/08/23 18:39:47","新北市中和區忠孝街103號","121.511873333333","24.98616","6500300","中和區"
"235062","800-TS","2019/08/23 18:39:44","新北市中和區中山路二段276號","121.496716666667","25.00252","6500300","中和區"
"235057","801-TS","2019/08/23 18:39:38","新北市中和區民安街25巷23號","121.4806","24.9998066666667","6500300","中和區"
"235052","805-TS","2019/08/23 18:39:38","新北市中和區興南路三段97號","121.489658333333","24.97352","6500300","中和區"
"235048","896-TW","2019/08/23 18:39:36","新北市中和區南山路250巷2號","121.507708333333","24.9889283333333","6500300","中和區"
"235053","900-TW","2019/08/23 18:39:32","新北市中和區莒光路222-8號","121.468986666667","24.9948016666667","6500300","中和區"
"235066","911-UM","2019/08/23 18:39:39","新北市中和區水源路34巷2號","121.50485","25.00352","6500300","中和區"
"235051","157-BY","2019/08/23 18:39:36","新北市中和區華新街143巷46號","121.506015","24.9800366666667","6500300","中和區"
"235037","AAC-213","2019/08/23 18:39:32","新北市中和區秀朗路三段128巷13號","121.524556666667","24.993335","6500300","中和區"
"235059","AAC-215","2019/08/23 18:39:26","新北市中和區錦和路354巷15號","121.489548333333","24.9915533333333","6500300","中和區"
"220065","072-UY","2019/08/23 18:39:48","新北市板橋區成都街111號","121.463601666667","25.005305","6500100","板橋區"
"220106","075-UY","2019/08/23 18:39:30","新北市板橋區民生路二段120號","121.47036","25.01971","6500100","板橋區"
"220069","AAD-861","2019/08/23 18:39:34","新北市板橋區南雅南路二段4巷18號","121.453561666667","25.0036566666667","6500100","板橋區"
"220068","120-SR","2019/08/23 18:39:38","新北市板橋區民生路二段120號","121.470603333333","25.01948","6500100","板橋區"
"226004","312-R5","2019/08/23 18:39:38","新北市平溪區石底里公園街18-3號","121.733308333333","25.025785","6502400","平溪區"
"235041","251-BX","2019/08/23 18:39:26","新北市中和區中安街178巷13弄2號","121.510211666667","24.99864","6500300","中和區"
"228002","663-BX","2019/08/23 18:39:43","新北市貢寮區福隆里東興街6-11號","121.950776666667","25.0210366666667","6502600","貢寮區"
"228001","670-TC","2019/08/23 18:39:41","新北市貢寮區仁理村保健街73號","121.923741666667","25.05168","6502600","貢寮區"
"228003","828-UM","2019/08/23 18:39:33","新北市貢寮區和美里龍洞街28-3號","121.917845","25.1116566666667","6502600","貢寮區"
"224006","676-BX","2019/08/23 18:39:38","新北市瑞芳區一坑路34-3號","121.803775","25.109385","6501200","瑞芳區"
"224002","639-TC","2019/08/23 18:39:39","新北市瑞芳區三爪子坑路64-36號","121.80902","25.1060616666667","6501200","瑞芳區"
"224007","285-BY","2019/08/23 18:39:34","新北市瑞芳區大埔路115巷11號","121.763266666667","25.1010833333333","6501200","瑞芳區"
"224009","275-VK","2019/08/23 18:39:38","新北市瑞芳區祈堂路53-1號","121.85963","25.1104016666667","6501200","瑞芳區"
"224008","273-VK","2019/08/23 18:39:30","新北市瑞芳區瑞芳街28號","121.80643","25.10954","6501200","瑞芳區"
"224005","271-BY","2019/08/23 18:39:36","新北市瑞芳區瑞濱路87號","121.82077","25.12105","6501200","瑞芳區"
"227002","642-TC","2019/08/23 18:39:45","新北市雙溪區魚行里坤溪3-4號","121.876233333333","25.0206933333333","6502500","雙溪區"
"227001","400-TW","2019/08/23 18:39:29","新北市雙溪區牡丹里牡丹159-1號","121.85072","25.0591083333333","6502500","雙溪區"
"253006","032-BX","2019/08/23 18:39:29","新北市石門區崁子腳1號","121.532371666667","25.2881966666667","6502200","石門區"
"253005","295-VK","2019/08/23 18:39:36","新北市石門區石門街17號","121.566026666667","25.2908066666667","6502200","石門區"
"208002","KEA-2872","2019/08/23 18:39:45","新北市金山區忠孝一路22號","121.638428333333","25.2195166666667","6502700","金山區"
"208003","665-BX","2019/08/23 18:39:40","新北市金山區中山路393號","121.633468333333","25.2252366666667","6502700","金山區"
"251004","009-UM","2019/08/23 18:39:36","新北市淡水區大同路2號","121.461716666667","25.1407783333333","6501000","淡水區"
"251001","011-UM","2019/08/23 18:39:32","新北市淡水區自強路419號","121.465631666667","25.134265","6501000","淡水區"
"251010","012-UM","2019/08/23 18:39:45","新北市淡水區沙崙路126號","121.423628333333","25.1827633333333","6501000","淡水區"
"251008","181-VK","2019/08/23 18:39:32","新北市淡水區北投子72-1號","121.453655","25.18216","6501000","淡水區"
"251012","441-VK","2019/08/23 18:39:39","新北市淡水區北新路180號","121.449138333333","25.17862","6501000","淡水區"
"251006","561-UM","2019/08/23 18:39:35","新北市淡水區崁頂36-2號","121.439405","25.1938333333333","6501000","淡水區"
"251011","650-BX","2019/08/23 18:39:40","新北市淡水區學府路19號","121.447701666667","25.1685766666667","6501000","淡水區"
"251002","672-BX","2019/08/23 18:39:30","新北市淡水區中正東路一段3巷14弄1號","121.450946666667","25.16415","6501000","淡水區"
"251003","766-UM","2019/08/23 18:39:41","新北市淡水區北新路69巷26號","121.4467","25.1801283333333","6501000","淡水區"
"207003","550-UM","2019/08/23 18:39:33","新北市萬里區野柳里港東路162-15號","121.690561666667","25.2041066666667","6502800","萬里區"
"207004","291-VK","2019/08/23 18:39:34","新北市萬里區萬里里獅頭路10-1號","121.692111666667","25.178745","6502800","萬里區"
"252002","178-VK","2019/08/23 18:39:31","新北市三芝區民生街64巷7號","121.503526666667","25.2552533333333","6502100","三芝區"
"252003","249-BX","2019/08/23 18:39:44","新北市三芝區後厝里土地公坑73-10號","121.460215","25.2473483333333","6502100","三芝區"
"208001","170-UY","2019/08/23 18:39:34","新北市金山區文化三路11號","121.635041666667","25.22486","6502700","金山區"
"237004","KEA-2597","2019/08/23 18:39:46","新北市三峽區插角87號","121.40655","24.8707083333333","6500900","三峽區"
"237007","153-BY","2019/08/23 18:39:22","新北市三峽區柑樹路6巷21號","121.361906666667","24.90423","6500900","三峽區"
"237009","210-TH","2019/08/23 18:39:33","新北市三峽區弘園街38號","121.366015","24.9270683333333","6500900","三峽區"
"237013","252-BX","2019/08/23 18:39:38","新北市三峽區大同路48巷17弄8-1號","121.376766666667","24.9290133333333","6500900","三峽區"
"237012","275-BY","2019/08/23 18:39:38","新北市三峽區三樹路340號","121.383975","24.9433216666667","6500900","三峽區"
"237008","302-VK","2019/08/23 18:39:30","新北市三峽區白雞33-61號","121.370996666667","24.91309","6500900","三峽區"
"237014","433-BY","2019/08/23 18:39:43","新北市三峽區隆恩街247號","121.357213333333","24.9403983333333","6500900","三峽區"
"237006","5529-G3","2019/08/23 18:39:37","新北市三峽區溪東路315巷6號","121.41061","24.9307066666667","6500900","三峽區"
"237011","KEA-2596","2019/08/23 18:39:45","新北市三峽區成福路63號","121.41847","24.92911","6500900","三峽區"
"237015","649-BX","2019/08/23 18:26:27","新北市三峽區竹崙路111號","121.43331","24.9118966666667","6500900","三峽區"
"237010","706-TV","2019/08/23 18:39:26","新北市三峽區復興路489號","121.361258333333","24.9384966666667","6500900","三峽區"
"237005","AKY-6261","2019/08/23 18:39:40","新北市三峽區新興街22號","121.372715","24.9355333333333","6500900","三峽區"
"236042","KED-0685","2019/08/23 18:39:36","新北市土城區裕民路55巷16號","121.449518333333","24.9886683333333","6501300","土城區"
"236079","166-UM","2019/08/23 18:39:30","新北市土城區頂埔街40號","121.417371666667","24.9591716666667","6501300","土城區"
"236030","253-BX","2019/08/23 18:39:34","新北市土城區福仁街72號","121.43927","24.9741966666667","6501300","土城區"
"236026","269-VK","2019/08/23 18:39:39","新北市土城區忠義路53-2號","121.440801666667","24.96854","6501300","土城區"
"236014","270-VK","2019/08/23 18:39:36","新北市土城區清水路207巷19號","121.459831666667","24.9824066666667","6501300","土城區"
"236039","271-VK","2019/08/23 18:39:38","新北市土城區明德路一段238號","121.460246666667","24.97743","6501300","土城區"
"236069","KEA-2877","2019/08/23 18:39:36","新北市土城區永豐路157巷29弄6-1號","121.468355","24.9814833333333","6501300","土城區"
"252001","KED-0821","2019/08/23 18:39:31","新北市三芝區中興街二段260號","121.501846666667","25.2529083333333","6502100","三芝區"
"236020","401-BY","2019/08/23 18:39:29","新北市土城區延吉街266號","121.465928333333","24.984555","6501300","土城區"
"236059","912-UM","2019/08/23 18:39:40","新北市土城區中央路三段149號","121.432471666667","24.9654333333333","6501300","土城區"
"236048","913-UM","2019/08/23 18:39:35","新北市土城區金城路二段360-2號","121.46188","24.9852783333333","6501300","土城區"
"236063","915-UM","2019/08/23 18:39:40","新北市土城區延和路125巷67號","121.46928","24.9912833333333","6501300","土城區"
"236055","AAC-216","2019/08/23 18:39:33","新北市土城區中華路一段23號","121.446978333333","24.9891016666667","6501300","土城區"
"242060","986-R7","2019/08/23 18:39:33","新北市新莊區民安路232號","121.426248333333","25.0222533333333","6500500","新莊區"
"242058","612-BX","2019/08/23 18:39:30","新北市新莊區中正路895號","121.41236","25.0220266666667","6500500","新莊區"
"242007","349-TH","2019/08/23 18:39:42","新北市新莊區新樹路611-15號","121.435746666667","25.0035116666667","6500500","新莊區"
"238015","755-BX","2019/08/23 18:34:27","新北市樹林區備內街121號","121.405871666667","24.9893066666667","6500700","樹林區"
"238023","601-UM","2019/08/23 18:39:32","新北市樹林區三福街114號","121.406446666667","25.0165033333333","6500700","樹林區"
"238024","5061-A6","2019/08/23 18:39:45","新北市樹林區太順街79巷5號","121.417085","24.9781066666667","6500700","樹林區"
"238018","KEA-2217","2019/08/23 18:39:40","新北市樹林區樹新路89號","121.427865","24.9953933333333","6500700","樹林區"
"238025","303-VK","2019/08/23 18:39:36","新北市樹林區中山路三段22號","121.395618333333","24.9728483333333","6500700","樹林區"
"238017","283-BY","2019/08/23 18:39:39","新北市樹林區光興街50號","121.40984","25.0027566666667","6500700","樹林區"
"238014","282-BY","2019/08/23 18:39:30","新北市樹林區大安路111巷25號","121.423113333333","24.9975416666667","6500700","樹林區"
"238020","268-VK","2019/08/23 18:39:47","新北市樹林區俊安街68號","121.418428333333","25.0134166666667","6500700","樹林區"
"238026","172-UY","2019/08/23 18:39:27","新北市樹林區育德街78-1號","121.387615","24.9681483333333","6500700","樹林區"
"238016","169-UY","2019/08/23 18:39:42","新北市樹林區中山路一段412號","121.41741","24.985175","6500700","樹林區"
"239007","AAC-297","2019/08/23 18:39:47","新北市鶯歌區中正一路建德巷38號","121.3645","24.9578216666667","6500800","鶯歌區"
"239006","891-R6","2019/08/23 18:39:29","新北市鶯歌區鶯桃路296巷46-3號","121.335845","24.961305","6500800","鶯歌區"
"239008","527-UM","2019/08/23 18:39:45","新北市鶯歌區朝陽街4號","121.336261666667","24.9766033333333","6500800","鶯歌區"
"239005","526-UM","2019/08/23 18:39:30","新北市鶯歌區鶯桃路二段58號","121.325186666667","24.9730616666667","6500800","鶯歌區"
"239001","417-VK","2019/08/23 18:39:25","新北市鶯歌區中正三路195-1號","121.335811666667","24.9392466666667","6500800","鶯歌區"
"239003","360-BY","2019/08/23 18:39:32","新北市鶯歌區永和街60號","121.33354","24.96824","6500800","鶯歌區"
"239002","359-BY","2019/08/23 18:39:33","新北市鶯歌區中正一路461-5號","121.363053333333","24.9565283333333","6500800","鶯歌區"
"239004","193-VK","2019/08/23 18:39:36","新北市鶯歌區中正二路299號","121.339931666667","24.943375","6500800","鶯歌區"
"221036","130-UY","2019/08/23 18:39:40","新北市汐止區長興街一段19號","121.669623333333","25.0788583333333","6501100","汐止區"
"221015","131-UY","2019/08/23 18:39:39","新北市汐止區鄉友街22號","121.668543333333","25.0809883333333","6501100","汐止區"
"221010","269-BY","2019/08/23 18:39:40","新北市汐止區瑞松街15號","121.645533333333","25.105235","6501100","汐止區"
"221012","278-VK","2019/08/23 18:39:36","新北市汐止區保長路51巷5號","121.673506666667","25.0788833333333","6501100","汐止區"
"221023","279-VK","2019/08/23 18:39:31","新北市汐止區湖前街25號","121.632513333333","25.0692033333333","6501100","汐止區"
"221032","280-BY","2019/08/23 18:39:35","新北市汐止區福山街62巷2號","121.617823333333","25.0467066666667","6501100","汐止區"
"221029","298-VK","2019/08/23 18:39:26","新北市汐止區樟樹一路142號","121.642291666667","25.064995","6501100","汐止區"
"221021","299-VK","2019/08/23 18:39:46","新北市汐止區新台五路一段97-1號","121.650881666667","25.0614233333333","6501100","汐止區"
"221031","353-TW","2019/08/23 18:39:36","新北市汐止區大同路一段160-7號","121.635823333333","25.0552416666667","6501100","汐止區"
"221025","623-UM","2019/08/23 18:39:40","新北市汐止區福安街45號","121.662975","25.0644516666667","6501100","汐止區"
"221002","707-TV","2019/08/23 18:39:42","新北市汐止區大同路一段277號","121.636473333333","25.05854","6501100","汐止區"
"221018","753-BX","2019/08/23 18:36:18","新北市汐止區茄苳路223號","121.670965","25.0687066666667","6501100","汐止區"
"220079","145-BY","2019/08/23 18:39:35","新北市板橋區大觀路二段71號","121.446535","25.00234","6500100","板橋區"
"220082","610-BX","2019/08/23 18:39:39","新北市板橋區大觀路三段59巷17弄6-1號","121.437063333333","24.9953983333333","6500100","板橋區"
"220056","276-BY","2019/08/23 18:39:28","新北市板橋區南雅南路二段7巷12號","121.454283333333","25.0028883333333","6500100","板橋區"
"220072","277-BY","2019/08/23 18:39:32","新北市板橋區板城路421號","121.448146666667","24.9962616666667","6500100","板橋區"
"220101","280-UM","2019/08/23 18:39:37","新北市板橋區民生路二段120號","121.470321666667","25.0198166666667","6500100","板橋區"
"220071","283-VK","2019/08/23 18:39:27","新北市板橋區四川路二段112號","121.450573333333","24.9939083333333","6500100","板橋區"
"220094","285-UM","2019/08/23 18:39:31","新北市板橋區民生路二段161巷1號","121.469998333333","25.0198083333333","6500100","板橋區"
"220083","286-VK","2019/08/23 18:39:32","新北市板橋區華東街1-10號","121.448355","24.9950566666667","6500100","板橋區"
"220081","287-VK","2019/08/23 18:39:34","新北市板橋區大觀路二段11-12號","121.448038333333","24.9964866666667","6500100","板橋區"
"220090","288-VK","2019/08/23 18:39:27","新北市板橋區民生路二段120號","121.470471666667","25.019685","6500100","板橋區"
"220061","293-UM","2019/08/23 18:39:40","新北市板橋區民生路二段120號","121.470548333333","25.0197266666667","6500100","板橋區"
"220075","303-R5","2019/08/23 18:39:35","新北市板橋區南雅南路二段144巷46號","121.449853333333","24.9970283333333","6500100","板橋區"
"220062","305-R5","2019/08/23 18:39:35","新北市板橋區民生路二段161巷7號","121.470216666667","25.0196633333333","6500100","板橋區"
"220092","307-R5","2019/08/23 18:39:35","新北市板橋區民生路二段80號","121.47166","25.01835","6500100","板橋區"
"220089","487-VK","2019/08/23 18:39:29","新北市板橋區民生路二段188號","121.470398333333","25.0202783333333","6500100","板橋區"
"220088","491-VK","2019/08/23 18:39:30","新北市板橋區民生路二段161巷1號","121.470278333333","25.020085","6500100","板橋區"
"220103","561-BX","2019/08/23 18:39:32","新北市板橋區民生路二段107號","121.471076666667","25.0178683333333","6500100","板橋區"
"220080","568-UM","2019/08/23 18:39:34","新北市板橋區大觀路二段265巷7-7號","121.44397","24.9946333333333","6500100","板橋區"
"220063","609-BX","2019/08/23 18:39:29","新北市板橋區民生路二段161巷1號","121.470155","25.02002","6500100","板橋區"
"220035","630-UY","2019/08/23 18:39:39","新北市板橋區南雅西路二段145巷10號","121.451553333333","25.011885","6500100","板橋區"
"220057","686-BX","2019/08/23 18:39:49","新北市板橋區館前東路60號","121.46105","25.0073283333333","6500100","板橋區"
"220077","687-BX","2019/08/23 18:39:36","新北市板橋區板城路421號","121.447571666667","24.9963666666667","6500100","板橋區"
"220054","741-BX","2019/08/23 18:39:26","新北市板橋區南雅南路二段144巷32號","121.449613333333","24.9967583333333","6500100","板橋區"
"220102","KEA-2699","2019/08/23 18:39:38","新北市板橋區民生路二段120號","121.470453333333","25.020005","6500100","板橋區"
"220055","827-TW","2019/08/23 18:39:38","新北市板橋區四川路二段2號","121.456721666667","24.996535","6500100","板橋區"
"220067","829-TW","2019/08/23 18:39:43","新北市板橋區民生路二段120號","121.470376666667","25.0199033333333","6500100","板橋區"
"220074","895-R6","2019/08/23 18:39:33","新北市板橋區南雅南路二段7巷12號","121.454338333333","25.0029516666667","6500100","板橋區"
"220073","985-R7","2019/08/23 18:39:30","新北市板橋區四川路二段23-3號","121.45469","24.9957016666667","6500100","板橋區"
"220097","AAC-210","2019/08/23 18:39:35","新北市板橋區民生路二段120號","121.470663333333","25.0197916666667","6500100","板橋區"
"220064","AAC-253","2019/08/23 18:39:45","新北市板橋區縣民大道一段300號","121.460885","25.01012","6500100","板橋區"
"235068","KEA-2873","2019/08/23 18:39:32","新北市中和區中正路131號","121.499678333333","24.993555","6500300","中和區"
"235061","KEA-2875","2019/08/23 18:39:24","新北市中和區民享街28號","121.473851666667","25.003525","6500300","中和區"
