"lineid","car","time","location","longitude","latitude","cityid","cityname"
"234046","148-BY","2019/08/23 18:59:28","新北市永和區得和路373巷31弄4號","121.524953333333","25.0005183333333","6500400","永和區"
"234081","298-R6","2019/08/23 18:59:44","新北市永和區永亨路83號","121.52211","25.005765","6500400","永和區"
"234038","336-UY","2019/08/23 18:59:42","新北市永和區成功路二段199-2號","121.52654","24.9960933333333","6500400","永和區"
"234064","337-UY","2019/08/23 18:59:35","新北市永和區秀朗路一段154號","121.5183","25.0033066666667","6500400","永和區"
"234086","338-UY","2019/08/23 18:59:45","新北市永和區永寧街127號","121.518041666667","25.0055916666667","6500400","永和區"
"234070","552-UM","2019/08/23 18:59:43","新北市永和區中興街98號","121.518981666667","25.01201","6500400","永和區"
"234017","745-BX","2019/08/23 18:59:45","新北市永和區永和路二段297號","121.516105","25.0160466666667","6500400","永和區"
"234030","746-BX","2019/08/23 18:59:28","新北市永和區秀朗路二段254號","121.526161666667","24.99873","6500400","永和區"
"234054","KEA-2590","2019/08/23 18:59:31","新北市永和區竹林路66巷2號","121.51828","25.013395","6500400","永和區"
"234007","KED-0605","2019/08/23 18:59:39","新北市永和區永和路二段70號","121.514965","25.01102","6500400","永和區"
"234013","KEA-2591","2019/08/23 18:59:41","新北市永和區中山路一段60巷8號","121.513158333333","25.0110583333333","6500400","永和區"
"234061","AAD-866","2019/08/23 18:59:28","新北市永和區中正路507-1號","121.516558333333","25.0068733333333","6500400","永和區"
"234050","863-TW","2019/08/23 18:59:37","新北市永和區保安路2號","121.510826666667","25.0174283333333","6500400","永和區"
"234026","9371-KE","2019/08/23 18:59:39","新北市永和區安樂路459號","121.514266666667","25.005055","6500400","永和區"
"234011","9373-KE","2019/08/23 18:59:47","新北市永和區仁愛路141巷3弄2號","121.511601666667","25.0123633333333","6500400","永和區"
"249005","172-UM","2019/08/23 18:59:37","新北市八里區長道坑2號","121.39379","25.1244066666667","6502300","八里區"
"249001","173-UM","2019/08/23 18:59:45","新北市八里區龍米路二段228-1號","121.43275","25.1583966666667","6502300","八里區"
"248016","026-BX","2019/08/23 18:59:28","新北市五股區成泰路三段559巷14弄2號","121.451355","25.1024166666667","6501500","五股區"
"248006","077-UY","2019/08/23 18:59:40","新北市蘆洲區中山一路417號","121.468385","25.0761033333333","6501500","五股區"
"248008","KED-0815","2019/08/23 18:59:41","新北市五股區中興路一段128巷36號","121.465773333333","25.0753133333333","6501500","五股區"
"248018","KED-0813","2019/08/23 18:59:28","新北市五股區民義路二段22巷20號","121.423381666667","25.09773","6501500","五股區"
"248012","247-BX","2019/08/23 18:59:30","新北市五股區工商路18巷23弄1號","121.43935","25.08437","6501500","五股區"
"248010","272-BY","2019/08/23 18:59:33","新北市五股區水碓九路11號","121.427865","25.0718433333333","6501500","五股區"
"248004","677-BX","2019/08/23 18:59:32","新北市五股區民義路一段282號","121.425458333333","25.0930066666667","6501500","五股區"
"248002","678-BX","2019/08/23 18:59:44","新北市五股區凌雲路一段161號","121.44893","25.102565","6501500","五股區"
"234023","9380-KE","2019/08/23 18:59:40","新北市永和區竹林路75巷47號","121.520938333333","25.0144266666667","6500400","永和區"
"234077","969-R7","2019/08/23 18:59:43","新北市永和區得和路104巷4號","121.517983333333","24.9998633333333","6500400","永和區"
"234067","AAC-212","2019/08/23 18:59:47","新北市永和區自由街33號","121.514298333333","25.006355","6500400","永和區"
"234003","AAC-295","2019/08/23 18:59:47","新北市永和區和平街44號","121.512916666667","25.0099066666667","6500400","永和區"
"232011","375-UM","2019/08/23 18:59:32","新北市坪林區水聳淒坑19-2號","121.712063333333","24.9345133333333","6502000","坪林區"
"244019","402-UM","2019/08/23 18:59:31","新北市林口區文化一路一段166號","121.376651666667","25.0735566666667","6501700","林口區"
"244013","KEA-2802","2019/08/23 18:59:42","新北市林口區麗園一街2巷1號","121.375755","25.0717016666667","6501700","林口區"
"244023","483-VK","2019/08/23 18:59:32","新北市林口區民權路159號","121.37435","25.0841883333333","6501700","林口區"
"244017","485-VK","2019/08/23 18:59:37","新北市林口區公園路131巷3號","121.369046666667","25.0705566666667","6501700","林口區"
"244009","656-BX","2019/08/23 18:59:35","新北市林口區林口路51號","121.390131666667","25.079325","6501700","林口區"
"244011","701-TV","2019/08/23 18:59:38","新北市林口區中正路321號","121.388566666667","25.077665","6501700","林口區"
"244025","837-TS","2019/08/23 18:59:40","新北市林口區南勢街192巷11號","121.361353333333","25.0750233333333","6501700","林口區"
"243010","297-R6","2019/08/23 18:59:33","新北市泰山區辭修路24號","121.429016666667","25.0581983333333","6501600","泰山區"
"243014","KEA-2801","2019/08/23 18:59:31","新北市泰山區黎明路13號","121.421011666667","25.063165","6501600","泰山區"
"243015","680-BX","2019/08/23 18:59:31","新北市泰山區美寧街50號","121.430585","25.0644083333333","6501600","泰山區"
"222003","436-BY","2019/08/23 18:59:43","新北市深坑區深南路88巷1號","121.621408333333","25.0108","6501800","深坑區"
"222001","628-TS","2019/08/23 18:59:33","新北市深坑區北深路一段300號","121.624276666667","25.0057433333333","6501800","深坑區"
"222002","659-BX","2019/08/23 18:59:39","新北市深坑區文山路一段33號","121.62948","25.0038783333333","6501800","深坑區"
"231061","002-UM","2019/08/23 18:59:31","新北市新店區安華路28-1號","121.519716666667","24.9608283333333","6500600","新店區"
"231044","046-UY","2019/08/23 18:59:45","新北市新店區寶中路72號","121.547918333333","24.9806166666667","6500600","新店區"
"231060","106-UY","2019/08/23 18:59:34","新北市新店區安華路16號","121.516996666667","24.9580483333333","6500600","新店區"
"231051","107-UY","2019/08/23 18:59:35","新北市新店區百忍街1-1號","121.535015","24.9754916666667","6500600","新店區"
"231049","108-UY","2019/08/23 18:59:40","新北市新店區中正路454-5號","121.53453","24.9790266666667","6500600","新店區"
"231065","110-UY","2019/08/23 18:59:39","新北市新店區安祥路190巷15號","121.47793","24.95626","6500600","新店區"
"221035","KEA-2785","2019/08/23 18:59:27","新北市汐止區大同路二段208號","121.653513333333","25.0651616666667","6501100","汐止區"
"231062","256-BX","2019/08/23 18:59:38","新北市新店區安康路二段330號","121.504356666667","24.95791","6500600","新店區"
"231054","260-TV","2019/08/23 18:59:45","新北市新店區新店路27-1號","121.539983333333","24.9527283333333","6500600","新店區"
"231042","268-BY","2019/08/23 18:59:47","新北市新店區中興路一段286號","121.545815","24.969005","6500600","新店區"
"231064","278-BY","2019/08/23 18:59:40","新北市新店區安康路一段355-3號","121.51984","24.9624383333333","6500600","新店區"
"231050","AAD-862","2019/08/23 18:59:42","新北市新店區新烏路一段11巷7號","121.547325","24.95134","6500600","新店區"
"231045","355-BY","2019/08/23 18:59:25","新北市新店區安康路一段75號","121.530183333333","24.961105","6500600","新店區"
"231058","3713-VJ","2019/08/23 18:59:42","新北市新店區中興路一段203號","121.543711666667","24.96567","6500600","新店區"
"231055","4716-K9","2019/08/23 18:59:47","新北市新店區新生街13巷16號","121.53915","24.965905","6500600","新店區"
"231056","4715-K9","2019/08/23 18:59:36","新北市新店區二十張路46巷37弄21-1號","121.535768333333","24.9814266666667","6500600","新店區"
"231067","4772-VM","2019/08/23 18:59:26","新北市新店區安康路一段76巷10-1號","121.52855","24.9624666666667","6500600","新店區"
"231053","513-UM","2019/08/23 18:59:29","新北市新店區新烏路二段7號","121.543796666667","24.9295883333333","6500600","新店區"
"231063","616-UM","2019/08/23 18:59:36","新北市新店區安華路16號","121.516323333333","24.9579","6500600","新店區"
"231040","617-UM","2019/08/23 18:59:47","新北市新店區中央路75號","121.53244","24.9766716666667","6500600","新店區"
"231041","619-UM","2019/08/23 18:59:37","新北市新店區安康路一段9-2號","121.533725","24.960545","6500600","新店區"
"231048","KED-0819","2019/08/23 18:59:41","新北市新店區德正街11號","121.54352","24.9731183333333","6500600","新店區"
"231046","719-UM","2019/08/23 18:59:27","新北市新店區直潭二街23號","121.535425","24.9419816666667","6500600","新店區"
"231057","720-UM","2019/08/23 18:59:26","新北市新店區百齡一路12號","121.553005","24.932535","6500600","新店區"
"231059","897-TW","2019/08/23 18:59:40","新北市新店區安華路28-1號","121.519763333333","24.960785","6500600","新店區"
"231043","899-TW","2019/08/23 18:59:36","新北市新店區北新路一段140號","121.542468333333","24.9704916666667","6500600","新店區"
"231066","AKT-0513","2019/08/23 18:59:41","新北市新店區安豐路45號","121.50013","24.9550466666667","6500600","新店區"
"241035","462-BY","2019/08/23 18:59:40","新北市三重區重新路四段121號","121.485116666667","25.0520516666667","6500200","三重區"
"241029","942-UM","2019/08/23 18:59:28","新北市三重區重安街14號","121.490233333333","25.0581533333333","6500200","三重區"
"235064","005-UY","2019/08/23 18:59:43","新北市中和區中和路40巷8號","121.499626666667","25.0013","6500300","中和區"
"235063","006-UY","2019/08/23 18:59:31","新北市中和區中正路515號","121.488175","24.99419","6500300","中和區"
"235056","096-UM","2019/08/23 18:59:41","新北市板橋區三民路二段222號","121.478883333333","25.0116416666667","6500300","中和區"
"235039","097-UM","2019/08/23 18:59:44","新北市中和區自強路60號","121.520091666667","24.994415","6500300","中和區"
"235065","098-UM","2019/08/23 18:59:39","新北市中和區福祥路158號","121.498655","25.00781","6500300","中和區"
"235040","150-BY","2019/08/23 18:59:32","新北市中和區安樂路99號","121.513148333333","24.9949816666667","6500300","中和區"
"235058","151-BY","2019/08/23 18:59:39","新北市中和區連城路372-3號","121.481535","24.995315","6500300","中和區"
"235055","183-VK","2019/08/23 18:59:29","新北市中和區德光路24號","121.470881666667","25.0044883333333","6500300","中和區"
"235038","185-VK","2019/08/23 18:59:45","新北市中和區立人街24-4號","121.518936666667","24.994185","6500300","中和區"
"235049","186-VK","2019/08/23 18:59:36","新北市中和區明仁街12號","121.50611","24.9953883333333","6500300","中和區"
"235067","255-BX","2019/08/23 18:59:38","新北市中和區新生街176巷24號","121.482543333333","24.9999416666667","6500300","中和區"
"235044","293-VK","2019/08/23 18:59:37","新北市中和區中興街159號","121.500115","24.99093","6500300","中和區"
"235072","301-VK","2019/08/23 18:59:39","新北市中和區永和路64號","121.49885","25.00452","6500300","中和區"
"235043","352-BY","2019/08/23 18:59:43","新北市中和區成功路103號","121.525935","24.9913683333333","6500300","中和區"
"235042","KEA-2878","2019/08/23 18:59:32","新北市中和區秀朗路三段10巷21弄12號","121.52544","24.9960433333333","6500300","中和區"
"235050","4979-A6","2019/08/23 18:59:29","新北市中和區華新街50巷6號","121.507703333333","24.9839516666667","6500300","中和區"
"235069","4980-A6","2019/08/23 18:59:39","新北市中和區圓通路6號","121.50176","24.9980816666667","6500300","中和區"
"235070","558-UM","2019/08/23 18:59:49","新北市中和區中和路170號","121.50459","24.9997666666667","6500300","中和區"
"235045","565-BX","2019/08/23 18:59:48","新北市中和區景新街467巷20弄18號","121.51425","24.98795","6500300","中和區"
"235060","KED-0823","2019/08/23 18:59:36","新北市中和區民享街89巷4弄15號","121.475373333333","25.00113","6500300","中和區"
"235054","640-BX","2019/08/23 18:59:43","新北市中和區民德路155號","121.468688333333","25.000085","6500300","中和區"
"235047","732-UM","2019/08/23 18:59:32","新北市中和區興南路二段74巷10號","121.505115","24.9848216666667","6500300","中和區"
"235046","733-UM","2019/08/23 18:59:42","新北市中和區興南路二段29號","121.507841666667","24.9858266666667","6500300","中和區"
"235062","800-TS","2019/08/23 18:59:45","新北市中和區中山路二段544巷3號","121.484791666667","25.0064166666667","6500300","中和區"
"235057","801-TS","2019/08/23 18:59:47","新北市中和區民利街74號","121.478371666667","24.9983483333333","6500300","中和區"
"235052","805-TS","2019/08/23 18:59:38","新北市中和區興南路二段114巷12號","121.50392","24.9844516666667","6500300","中和區"
"235048","896-TW","2019/08/23 18:59:43","新北市中和區華新街143巷71弄13號","121.508358333333","24.97888","6500300","中和區"
"235053","900-TW","2019/08/23 18:59:32","新北市中和區和平路200巷35弄1號","121.465285","24.9945866666667","6500300","中和區"
"235066","911-UM","2019/08/23 18:59:39","新北市中和區中山路二段131巷5弄12號","121.50323","25.00313","6500300","中和區"
"235051","157-BY","2019/08/23 18:59:36","新北市中和區忠孝街31巷33弄2號","121.509676666667","24.9846133333333","6500300","中和區"
"235037","AAC-213","2019/08/23 18:59:32","新北市中和區秀朗路三段60巷24號","121.525515","24.99503","6500300","中和區"
"235059","AAC-215","2019/08/23 18:59:47","新北市中和區圓通路367巷20弄31號","121.491305","24.9880366666667","6500300","中和區"
"220065","072-UY","2019/08/23 18:59:48","新北市板橋區民族路285號","121.471218333333","25.0069516666667","6500100","板橋區"
"220086","073-UY","2019/08/23 18:59:35","新北市板橋區大智街20號","121.45572","25.014885","6500100","板橋區"
"220106","075-UY","2019/08/23 18:59:30","新北市板橋區文化路二段309號","121.471638333333","25.0291866666667","6500100","板橋區"
"220069","AAD-861","2019/08/23 18:59:34","新北市板橋區華興街51號","121.457575","25.004845","6500100","板橋區"
"220068","120-SR","2019/08/23 18:59:38","新北市板橋區中山路二段465巷92-1號","121.481135","25.0225133333333","6500100","板橋區"
"226004","312-R5","2019/08/23 18:59:43","新北市平溪區靜安路二段440號","121.739995","25.024855","6502400","平溪區"
"235041","251-BX","2019/08/23 18:59:46","新北市中和區景安路63號","121.507005","24.9979916666667","6500300","中和區"
"228002","663-BX","2019/08/23 18:59:43","新北市貢寮區福隆里東興街106巷25弄1號","121.94639","25.01838","6502600","貢寮區"
"228001","670-TC","2019/08/23 18:59:41","新北市貢寮區仁理村保健街73號","121.92373","25.0517266666667","6502600","貢寮區"
"228003","828-UM","2019/08/23 18:59:33","新北市貢寮區和美里龍洞街46號","121.91215","25.1124133333333","6502600","貢寮區"
"224006","676-BX","2019/08/23 18:59:38","新北市瑞芳區中山路143-3號","121.802806666667","25.1063883333333","6501200","瑞芳區"
"224002","639-TC","2019/08/23 18:59:39","新北市平溪區新寮里五分寮10-2號","121.799928333333","25.0745883333333","6501200","瑞芳區"
"224007","285-BY","2019/08/23 18:59:34","新北市瑞芳區中央路48巷166號","121.759133333333","25.1033066666667","6501200","瑞芳區"
"224009","275-VK","2019/08/23 18:59:38","新北市瑞芳區長仁路35-1號","121.866055","25.1177183333333","6501200","瑞芳區"
"224008","273-VK","2019/08/23 18:59:30","新北市瑞芳區逢甲路424號","121.798638333333","25.116765","6501200","瑞芳區"
"224005","271-BY","2019/08/23 18:59:36","新北市瑞芳區岳王路94號","121.811235","25.1111416666667","6501200","瑞芳區"
"227002","642-TC","2019/08/23 18:59:45","新北市雙溪區平林里外平林18號","121.85835","25.0377666666667","6502500","雙溪區"
"227001","400-TW","2019/08/23 18:59:28","新北市雙溪區牡丹里中正路58巷34號","121.866163333333","25.042145","6502500","雙溪區"
"253006","032-BX","2019/08/23 18:59:29","新北市石門區下員坑42-2號","121.517468333333","25.2773716666667","6502200","石門區"
"253005","295-VK","2019/08/23 18:59:36","新北市石門區崁子腳76-1號","121.571006666667","25.296875","6502200","石門區"
"208002","KEA-2872","2019/08/23 18:59:25","新北市金山區仁愛路67巷4號","121.634556666667","25.2209216666667","6502700","金山區"
"208003","665-BX","2019/08/23 18:59:39","新北市金山區中正路49號","121.634701666667","25.22191","6502700","金山區"
"251009","008-UM","2019/08/23 18:59:41","新北市淡水區重建街永興巷11號","121.439345","25.1727266666667","6501000","淡水區"
"251001","011-UM","2019/08/23 18:59:33","新北市淡水區自強路245號","121.463136666667","25.1274316666667","6501000","淡水區"
"251010","012-UM","2019/08/23 18:59:45","新北市淡水區中正路一段156巷12號","121.421686666667","25.180785","6501000","淡水區"
"251007","182-VK","2019/08/23 18:59:38","新北市淡水區民生路113巷1弄40號","121.462993333333","25.138665","6501000","淡水區"
"243011","549-UM","2019/08/23 18:59:46","新北市泰山區明志路二段285號","121.42684","25.046965","6501600","泰山區"
"251012","441-VK","2019/08/23 18:59:39","新北市淡水區新春街126巷15弄17號","121.440618333333","25.1808733333333","6501000","淡水區"
"251011","650-BX","2019/08/23 18:59:40","新北市淡水區鄧公路30巷2弄21號","121.453128333333","25.1691333333333","6501000","淡水區"
"251002","672-BX","2019/08/23 18:59:30","新北市淡水區中正東路37號","121.44608","25.1681383333333","6501000","淡水區"
"251003","766-UM","2019/08/23 18:59:41","新北市淡水區中山北路一段149巷28號","121.44308","25.1780416666667","6501000","淡水區"
"207003","550-UM","2019/08/23 18:59:33","新北市萬里區大鵬里頂社24-5號","121.65822","25.2089433333333","6502800","萬里區"
"207004","291-VK","2019/08/23 18:59:34","新北市萬里區萬里里獅頭路23號","121.693223333333","25.1782833333333","6502800","萬里區"
"252002","178-VK","2019/08/23 18:59:31","新北市三芝區中正路一段40號","121.503373333333","25.2582783333333","6502100","三芝區"
"252003","249-BX","2019/08/23 18:59:44","新北市三芝區後厝里北勢子42-3號","121.472115","25.252475","6502100","三芝區"
"208001","170-UY","2019/08/23 18:59:34","新北市金山區民生路51巷1-2號","121.641908333333","25.2197616666667","6502700","金山區"
"237004","KEA-2597","2019/08/23 18:59:26","新北市三峽區有木205號","121.439041666667","24.8517516666667","6500900","三峽區"
"237007","153-BY","2019/08/23 18:59:42","新北市三峽區中正路二段125-3號","121.36629","24.9164533333333","6500900","三峽區"
"237013","252-BX","2019/08/23 18:59:38","新北市三峽區光明路69巷25號","121.376661666667","24.9291566666667","6500900","三峽區"
"237012","275-BY","2019/08/23 18:59:38","新北市三峽區三樹路222巷72號","121.382985","24.9422883333333","6500900","三峽區"
"237008","302-VK","2019/08/23 18:59:30","新北市三峽區大同路110號","121.374313333333","24.9269433333333","6500900","三峽區"
"237014","433-BY","2019/08/23 18:59:43","新北市三峽區隆恩街168-10號","121.363258333333","24.94329","6500900","三峽區"
"237006","5529-G3","2019/08/23 18:59:37","新北市三峽區溪東路233巷47弄2號","121.410698333333","24.9346483333333","6500900","三峽區"
"237011","KEA-2596","2019/08/23 18:59:45","新北市三峽區介壽路三段233巷5號","121.405328333333","24.9463633333333","6500900","三峽區"
"237015","649-BX","2019/08/23 18:51:07","新北市三峽區建安77-1號","121.45069","24.9246316666667","6500900","三峽區"
"237010","706-TV","2019/08/23 18:59:45","新北市三峽區復興路269號","121.36648","24.9388933333333","6500900","三峽區"
"237005","AKY-6261","2019/08/23 18:59:40","新北市三峽區中山路459巷135號","121.348686666667","24.9328266666667","6500900","三峽區"
"236042","KED-0685","2019/08/23 18:59:36","新北市土城區裕民路214巷18弄10號","121.452266666667","24.98411","6501300","土城區"
"236079","166-UM","2019/08/23 18:59:30","新北市土城區龍泉路10-1號","121.409548333333","24.9492716666667","6501300","土城區"
"236030","253-BX","2019/08/23 18:59:34","新北市土城區慶利街9號","121.43957","24.9736116666667","6501300","土城區"
"236026","269-VK","2019/08/23 18:59:39","新北市土城區中央路二段246號","121.441966666667","24.9749183333333","6501300","土城區"
"236014","270-VK","2019/08/23 18:59:38","新北市土城區立德路29巷7號","121.462243333333","24.9883783333333","6501300","土城區"
"236039","271-VK","2019/08/23 18:59:38","新北市土城區仁愛路18號","121.460751666667","24.98035","6501300","土城區"
"236069","KEA-2877","2019/08/23 18:59:35","新北市土城區清水路74號","121.45661","24.9816533333333","6501300","土城區"
"252001","KED-0821","2019/08/23 18:59:31","新北市三芝區中興街二段260號","121.501775","25.253035","6502100","三芝區"
"236020","401-BY","2019/08/23 18:59:38","新北市土城區延吉街168巷9號","121.468086666667","24.9858233333333","6501300","土城區"
"236059","912-UM","2019/08/23 18:59:40","新北市土城區金城路二段266號","121.458288333333","24.984105","6501300","土城區"
"236048","913-UM","2019/08/23 18:59:35","新北市土城區明德路一段365-1號","121.453663333333","24.9791066666667","6501300","土城區"
"236063","915-UM","2019/08/23 18:59:40","新北市土城區延和路39巷2號","121.465955","24.98973","6501300","土城區"
"236055","AAC-216","2019/08/23 18:59:33","新北市土城區學成路147號","121.448716666667","24.989555","6501300","土城區"
"238015","755-BX","2019/08/23 18:34:27","新北市樹林區備內街121號","121.405871666667","24.9893066666667","6500700","樹林區"
"238023","601-UM","2019/08/23 18:59:32","新北市樹林區大慶街78號","121.396071666667","25.0140366666667","6500700","樹林區"
"238019","599-UM","2019/08/23 18:59:46","新北市樹林區東榮街169號","121.414001666667","24.9813216666667","6500700","樹林區"
"238022","KEA-2213","2019/08/23 18:59:31","新北市樹林區東順街1號","121.412783333333","24.9790916666667","6500700","樹林區"
"238021","KEA-2539","2019/08/23 18:59:36","新北市樹林區柑園街二段306號","121.373528333333","24.951795","6500700","樹林區"
"238025","303-VK","2019/08/23 18:59:36","新北市樹林區中山路三段22號","121.395595","24.9729916666667","6500700","樹林區"
"238017","283-BY","2019/08/23 18:59:39","新北市樹林區光興街44號","121.40989","25.0027216666667","6500700","樹林區"
"238014","282-BY","2019/08/23 18:59:31","新北市樹林區潭興街143巷18號","121.425213333333","24.999985","6500700","樹林區"
"238020","268-VK","2019/08/23 18:59:47","新北市樹林區俊英街219巷47-1號","121.420596666667","25.0114033333333","6500700","樹林區"
"238026","172-UY","2019/08/23 18:59:37","新北市樹林區信和街34號","121.390611666667","24.9731783333333","6500700","樹林區"
"238016","169-UY","2019/08/23 18:59:42","新北市樹林區備前街56巷8號","121.41659","24.986535","6500700","樹林區"
"239007","AAC-297","2019/08/23 18:59:27","新北市鶯歌區中山路6號","121.353013333333","24.95735","6500800","鶯歌區"
"239006","891-R6","2019/08/23 18:59:49","新北市鶯歌區鶯桃路296巷48-1號","121.335841666667","24.9612233333333","6500800","鶯歌區"
"239008","527-UM","2019/08/23 18:59:45","新北市鶯歌區晨曦街41號","121.33822","24.9771833333333","6500800","鶯歌區"
"239005","526-UM","2019/08/23 18:59:30","新北市鶯歌區永和街249號","121.336873333333","24.9721433333333","6500800","鶯歌區"
"239001","417-VK","2019/08/23 18:59:25","新北市鶯歌區永安街10號","121.337971666667","24.95554","6500800","鶯歌區"
"239003","360-BY","2019/08/23 18:59:32","新北市鶯歌區鶯桃路658巷49-2號","121.331073333333","24.9704516666667","6500800","鶯歌區"
"239002","359-BY","2019/08/23 18:59:32","新北市鶯歌區中山路268號","121.34423","24.9569883333333","6500800","鶯歌區"
"239004","193-VK","2019/08/23 18:59:36","新北市鶯歌區中正三路230巷12號","121.33012","24.9391583333333","6500800","鶯歌區"
"221008","489-VK","2019/08/23 18:59:47","新北市汐止區康寧街582號","121.635043333333","25.0698483333333","6501100","汐止區"
"221036","130-UY","2019/08/23 18:59:35","新北市汐止區忠孝東路314巷19弄12號","121.664991666667","25.0685033333333","6501100","汐止區"
"221015","131-UY","2019/08/23 18:59:37","新北市汐止區鄉長路一段43號","121.665205","25.07508","6501100","汐止區"
"221032","280-BY","2019/08/23 18:59:35","新北市汐止區橫科路403巷18號","121.62519","25.047415","6501100","汐止區"
"221029","298-VK","2019/08/23 18:59:46","新北市汐止區樟樹一路234號","121.642285","25.0668","6501100","汐止區"
"221031","353-TW","2019/08/23 18:59:35","新北市汐止區福德一路300巷47號","121.63031","25.0646016666667","6501100","汐止區"
"221002","707-TV","2019/08/23 18:59:42","新北市汐止區大同路一段2號","121.62098","25.055085","6501100","汐止區"
"220079","145-BY","2019/08/23 18:59:45","新北市板橋區大智街86號","121.453555","25.0156283333333","6500100","板橋區"
"220082","610-BX","2019/08/23 18:59:39","新北市板橋區滿平街108號","121.428368333333","24.9885516666667","6500100","板橋區"
"220091","267-BY","2019/08/23 18:59:42","新北市板橋區大同街23號","121.477503333333","25.02704","6500100","板橋區"
"220056","276-BY","2019/08/23 18:59:28","新北市板橋區信義路112號","121.458345","24.99262","6500100","板橋區"
"220072","277-BY","2019/08/23 18:59:32","新北市板橋區篤行路一段33號","121.431991666667","24.9943533333333","6500100","板橋區"
"220101","280-UM","2019/08/23 18:59:37","新北市板橋區民生路二段188號","121.470155","25.0206","6500100","板橋區"
"220071","283-VK","2019/08/23 18:59:27","新北市板橋區忠孝路196巷45號","121.46567","25.0016183333333","6500100","板橋區"
"220094","285-UM","2019/08/23 18:59:32","新北市板橋區光武街138號","121.46531","25.0300016666667","6500100","板橋區"
"220053","285-VK","2019/08/23 18:59:41","新北市板橋區懷仁街14巷8號","121.475673333333","25.019885","6500100","板橋區"
"220083","286-VK","2019/08/23 18:59:39","新北市板橋區大觀路一段38巷156弄102號","121.443263333333","25.007295","6500100","板橋區"
"220081","287-VK","2019/08/23 18:59:47","新北市板橋區光華街15巷45號","121.452635","25.0114716666667","6500100","板橋區"
"220090","288-VK","2019/08/23 18:59:46","新北市板橋區裕民街25-2號","121.461953333333","25.0288766666667","6500100","板橋區"
"220061","293-UM","2019/08/23 18:59:40","新北市板橋區懷仁街85巷8號","121.47772","25.01861","6500100","板橋區"
"220084","296-UM","2019/08/23 18:59:31","新北市板橋區龍興街65巷9號","121.443145","25.0013916666667","6500100","板橋區"
"220075","303-R5","2019/08/23 18:59:35","新北市板橋區後菜園街28號","121.456843333333","25.0102566666667","6500100","板橋區"
"220062","305-R5","2019/08/23 18:59:35","新北市板橋區中山路二段90巷47弄2號","121.476456666667","25.0145283333333","6500100","板橋區"
"220092","307-R5","2019/08/23 18:59:35","新北市板橋區光武街36巷28號","121.468455","25.026315","6500100","板橋區"
"220098","317-R6","2019/08/23 18:59:36","新北市板橋區萬板路35號","121.470733333333","25.0211","6500100","板橋區"
"220089","487-VK","2019/08/23 18:59:47","新北市板橋區文化路二段331號","121.472526666667","25.0301483333333","6500100","板橋區"
"220088","491-VK","2019/08/23 18:59:30","新北市板橋區文化路二段182巷7弄9號","121.472221666667","25.027305","6500100","板橋區"
"220103","561-BX","2019/08/23 18:59:32","新北市板橋區介壽街44-1號","121.468653333333","25.0197283333333","6500100","板橋區"
"220080","568-UM","2019/08/23 18:59:34","新北市板橋區大觀路二段265巷3弄11號","121.443333333333","24.998215","6500100","板橋區"
"220063","609-BX","2019/08/23 18:59:39","新北市板橋區中山路二段240號","121.478441666667","25.0181516666667","6500100","板橋區"
"220035","630-UY","2019/08/23 18:59:39","新北市板橋區中正路341巷35號","121.454218333333","25.0197833333333","6500100","板橋區"
"220057","686-BX","2019/08/23 18:59:33","新北市板橋區重慶路351-1號","121.464201666667","24.9978","6500100","板橋區"
"220077","687-BX","2019/08/23 18:59:45","新北市板橋區龍興街69號","121.443645","25.0016316666667","6500100","板橋區"
"220093","689-BX","2019/08/23 18:59:35","新北市板橋區民生路三段251號","121.464478333333","25.0291033333333","6500100","板橋區"
"220054","741-BX","2019/08/23 18:59:46","新北市板橋區重慶路139巷19號","121.463595","25.00476","6500100","板橋區"
"220102","KEA-2699","2019/08/23 18:59:38","新北市板橋區萬板路810-1號","121.482723333333","25.02733","6500100","板橋區"
"220055","827-TW","2019/08/23 18:59:38","新北市板橋區中山路一段137號","121.462478333333","25.0106233333333","6500100","板橋區"
"220067","829-TW","2019/08/23 18:59:43","新北市板橋區三民路二段186巷22號","121.477901666667","25.0143183333333","6500100","板橋區"
"220074","895-R6","2019/08/23 18:59:33","新北市板橋區府中路126-8號","121.45448","25.00934","6500100","板橋區"
"220073","985-R7","2019/08/23 18:59:30","新北市板橋區中正路79號","121.456333333333","25.014115","6500100","板橋區"
"220097","AAC-210","2019/08/23 18:59:34","新北市板橋區幸福路70巷32號","121.460198333333","25.0209766666667","6500100","板橋區"
"220064","AAC-253","2019/08/23 18:59:45","新北市板橋區板新路139號","121.47029","25.0153383333333","6500100","板橋區"
"235068","KEA-2873","2019/08/23 18:59:32","新北市中和區中正路226號","121.496211666667","24.99405","6500300","中和區"
"235061","KEA-2875","2019/08/23 18:59:21","新北市中和區民有街73號","121.476506666667","25.0030983333333","6500300","中和區"
