"lineid","car","time","location","longitude","latitude","cityid","cityname"
"234046","148-BY","2019/08/23 19:29:28","新北市永和區秀朗路二段163號","121.525138333333","25.001605","6500400","永和區"
"234081","298-R6","2019/08/23 19:29:48","新北市永和區福和路5-9號","121.52537","25.0084983333333","6500400","永和區"
"234038","336-UY","2019/08/23 19:29:42","新北市永和區民樂街44號","121.527416666667","25.000495","6500400","永和區"
"234064","337-UY","2019/08/23 19:29:35","新北市永和區中正路368巷1弄88號","121.520445","25.000615","6500400","永和區"
"234086","338-UY","2019/08/23 19:29:41","新北市永和區林森路35號","121.525713333333","25.0049833333333","6500400","永和區"
"234070","552-UM","2019/08/23 19:29:40","新北市永和區警光街5-1號","121.519758333333","25.0095266666667","6500400","永和區"
"234017","745-BX","2019/08/23 19:29:30","新北市永和區環河西路一段87-1號","121.51252","25.0180583333333","6500400","永和區"
"234030","746-BX","2019/08/23 19:29:47","新北市永和區民生路63號","121.522655","24.9973933333333","6500400","永和區"
"234054","KEA-2590","2019/08/23 19:29:31","新北市永和區永和路二段174號","121.51542","25.013295","6500400","永和區"
"234007","KED-0605","2019/08/23 19:29:39","新北市永和區永和路184-1號","121.514176666667","25.008985","6500400","永和區"
"234013","KEA-2591","2019/08/23 19:29:41","新北市永和區中山路一段131號","121.510538333333","25.00998","6500400","永和區"
"234061","AAD-866","2019/08/23 19:29:28","新北市永和區中正路504號","121.517386666667","25.0044733333333","6500400","永和區"
"234042","862-TW","2019/08/23 19:29:29","新北市永和區水源街39巷16號","121.51056","25.00362","6500400","永和區"
"234050","863-TW","2019/08/23 19:29:37","新北市永和區信義路115號","121.512305","25.0148133333333","6500400","永和區"
"234026","9371-KE","2019/08/23 19:29:39","新北市永和區安樂路96號","121.51425","24.9990866666667","6500400","永和區"
"234011","9373-KE","2019/08/23 19:29:45","新北市永和區保生路55號","121.504738333333","25.0106383333333","6500400","永和區"
"249003","593-UM","2019/08/23 19:29:43","新北市八里區中山路二段341號","121.399386666667","25.147265","6502300","八里區"
"248014","025-BX","2019/08/23 19:29:46","新北市五股區五福路9-1號","121.43371","25.08833","6501500","五股區"
"248008","KED-0815","2019/08/23 19:29:41","新北市五股區中興路一段164-1號","121.464036666667","25.0739983333333","6501500","五股區"
"248018","KED-0813","2019/08/23 19:29:28","新北市五股區外寮路8-1號","121.420623333333","25.0789516666667","6501500","五股區"
"248012","247-BX","2019/08/23 19:29:30","新北市五股區成泰路二段91巷9號","121.437576666667","25.0842016666667","6501500","五股區"
"248004","677-BX","2019/08/23 19:29:32","新北市五股區工商路153-1號","121.434885","25.08657","6501500","五股區"
"248002","678-BX","2019/08/23 19:29:43","新北市五股區凌雲路一段158巷6號","121.447776666667","25.1029966666667","6501500","五股區"
"234023","9380-KE","2019/08/23 19:29:40","新北市永和區環河東路二段26號","121.52254","25.0128533333333","6500400","永和區"
"234077","969-R7","2019/08/23 19:29:43","新北市永和區民治街29號","121.519591666667","24.9977116666667","6500400","永和區"
"234074","AAC-211","2019/08/23 19:29:41","新北市永和區博愛街57巷1號","121.52008","25.016185","6500400","永和區"
"234067","AAC-212","2019/08/23 19:29:47","新北市永和區永貞路398號","121.509271666667","25.0075616666667","6500400","永和區"
"234003","AAC-295","2019/08/23 19:29:26","新北市永和區福和路376號","121.514193333333","25.0077566666667","6500400","永和區"
"244023","483-VK","2019/08/23 19:29:38","新北市林口區民富街99號","121.370433333333","25.075125","6501700","林口區"
"243012","AAD-798","2019/08/23 19:29:48","新北市泰山區仁義路195號","121.433065","25.0539766666667","6501600","泰山區"
"243010","297-R6","2019/08/23 19:29:33","新北市泰山區民生路31巷2號","121.430418333333","25.0523383333333","6501600","泰山區"
"243014","KEA-2801","2019/08/23 19:29:31","新北市泰山區中港西路422號","121.433798333333","25.0538483333333","6501600","泰山區"
"243016","421-VK","2019/08/23 19:29:31","新北市泰山區明志路三段204巷12號","121.4219","25.0378966666667","6501600","泰山區"
"243009","KEA-2215","2019/08/23 19:29:34","新北市泰山區半山雅3號","121.43138","25.067315","6501600","泰山區"
"243013","646-TV","2019/08/23 19:29:44","新北市泰山區貴子路36巷3弄2號","121.425955","25.0411266666667","6501600","泰山區"
"243015","680-BX","2019/08/23 19:29:31","新北市泰山區明志路二段103-1號","121.428195","25.0517666666667","6501600","泰山區"
"222003","436-BY","2019/08/23 19:29:43","新北市深坑區深南路51-1號","121.621275","25.0097616666667","6501800","深坑區"
"222001","628-TS","2019/08/23 19:29:33","新北市深坑區深坑街10號","121.615776666667","25.0027333333333","6501800","深坑區"
"222002","659-BX","2019/08/23 19:29:39","新北市深坑區北深路一段177號","121.632528333333","25.0108266666667","6501800","深坑區"
"231061","002-UM","2019/08/23 19:29:31","新北市新店區安康路一段302-2號","121.517265","24.9640133333333","6500600","新店區"
"231044","046-UY","2019/08/23 19:29:45","新北市新店區中興路三段145號","121.544521666667","24.9799166666667","6500600","新店區"
"231060","106-UY","2019/08/23 19:29:34","新北市新店區安康路二段3-1號","121.515986666667","24.9636366666667","6500600","新店區"
"231051","107-UY","2019/08/23 19:29:35","新北市新店區中央路97號","121.531293333333","24.9749966666667","6500600","新店區"
"231049","108-UY","2019/08/23 19:29:40","新北市新店區北新路三段95巷12號","121.540725","24.9817416666667","6500600","新店區"
"231065","110-UY","2019/08/23 19:29:39","新北市新店區安祥路109巷1弄25號","121.476455","24.9600466666667","6500600","新店區"
"231062","256-BX","2019/08/23 19:29:38","新北市新店區莒光路42號","121.523821666667","24.957205","6500600","新店區"
"231054","260-TV","2019/08/23 19:29:39","新北市新店區文中路40號","121.539728333333","24.9565566666667","6500600","新店區"
"231042","268-BY","2019/08/23 19:29:47","新北市新店區中興路一段152號","121.542426666667","24.9638933333333","6500600","新店區"
"231064","278-BY","2019/08/23 19:29:40","新北市新店區安康路二段96號","121.513653333333","24.96303","6500600","新店區"
"231050","AAD-862","2019/08/23 19:29:42","新北市新店區北宜路二段233號","121.5537","24.9534516666667","6500600","新店區"
"231045","355-BY","2019/08/23 19:29:45","新北市新店區北宜路二段207號","121.553128333333","24.9532866666667","6500600","新店區"
"231058","3713-VJ","2019/08/23 19:29:42","新北市新店區永華街5號","121.543353333333","24.9771083333333","6500600","新店區"
"231056","4715-K9","2019/08/23 19:29:36","新北市新店區安康路二段320巷15弄18號","121.50255","24.9590883333333","6500600","新店區"
"231067","4772-VM","2019/08/23 19:29:26","新北市新店區薏仁坑路自強巷1號","121.497183333333","24.9579883333333","6500600","新店區"
"231053","513-UM","2019/08/23 19:29:48","新北市新店區新烏路二段200巷11號","121.547693333333","24.9167233333333","6500600","新店區"
"231063","616-UM","2019/08/23 19:29:36","新北市新店區達觀路14巷3號","121.503018333333","24.94147","6500600","新店區"
"231040","617-UM","2019/08/23 19:29:27","新北市新店區中華路99號","121.539015","24.9691016666667","6500600","新店區"
"231041","619-UM","2019/08/23 19:29:37","新北市新店區中正路566號","121.53379","24.9876066666667","6500600","新店區"
"231048","KED-0819","2019/08/23 19:29:41","新北市新店區中興路一段282-5號","121.546323333333","24.968125","6500600","新店區"
"231046","719-UM","2019/08/23 19:29:28","新北市新店區北新路一段14號","121.540868333333","24.9656766666667","6500600","新店區"
"231057","720-UM","2019/08/23 19:29:43","新北市新店區花園一路四段43號","121.551135","24.9324516666667","6500600","新店區"
"231059","897-TW","2019/08/23 19:29:40","新北市新店區安和路三段46號","121.518008333333","24.9818216666667","6500600","新店區"
"231043","899-TW","2019/08/23 19:29:35","新北市新店區北新路二段228巷1號","121.542921666667","24.9776483333333","6500600","新店區"
"231066","AKT-0513","2019/08/23 19:29:41","新北市新店區安康路三段359巷12弄25號","121.484006666667","24.9493416666667","6500600","新店區"
"241028","022-UY","2019/08/23 19:29:40","新北市三重區中寮街31號","121.492645","25.05887","6500200","三重區"
"241008","059-VK","2019/08/23 19:29:38","新北市三重區永福街135巷30號","121.477548333333","25.0771466666667","6500200","三重區"
"241031","061-VK","2019/08/23 19:29:25","新北市三重區集美街100號","121.488625","25.0541316666667","6500200","三重區"
"241017","063-VK","2019/08/23 19:29:35","新北市三重區重陽路三段5巷38-1號","121.492101666667","25.0651783333333","6500200","三重區"
"241007","742-BX","2019/08/23 19:29:41","新北市三重區溪尾街124-2號","121.48929","25.079395","6500200","三重區"
"241006","262-UM","2019/08/23 19:29:40","新北市三重區車路頭街80巷3號","121.484206666667","25.0741183333333","6500200","三重區"
"241009","267-UM","2019/08/23 19:29:45","新北市三重區溪尾街242巷69號","121.486015","25.0814883333333","6500200","三重區"
"241032","269-UM","2019/08/23 19:29:47","新北市三重區三陽路43號","121.484996666667","25.05885","6500200","三重區"
"241013","270-UM","2019/08/23 19:29:33","新北市三重區仁賢街12-1號","121.495635","25.0748933333333","6500200","三重區"
"241025","271-UM","2019/08/23 19:29:35","新北市三重區頂崁街210巷28弄9號","121.475806666667","25.067185","6500200","三重區"
"241030","KED-0822","2019/08/23 19:29:48","新北市三重區成功路41巷13號","121.490311666667","25.0515166666667","6500200","三重區"
"241035","462-BY","2019/08/23 19:29:40","新北市三重區長元西街37號","121.49805","25.065325","6500200","三重區"
"241020","478-VK","2019/08/23 19:29:43","新北市三重區大智街256號","121.488981666667","25.073385","6500200","三重區"
"241023","545-UM","2019/08/23 19:29:32","新北市三重區頂崁街99號","121.477976666667","25.0638416666667","6500200","三重區"
"241026","743-BX","2019/08/23 19:29:40","新北市三重區文化南路67號","121.500338333333","25.0607683333333","6500200","三重區"
"241022","KED-0820","2019/08/23 19:29:36","新北市三重區三民街165巷11號","121.483966666667","25.0651783333333","6500200","三重區"
"241012","941-UM","2019/08/23 19:29:29","新北市三重區河邊北街379-1號","121.501793333333","25.0765083333333","6500200","三重區"
"241029","942-UM","2019/08/23 19:29:28","新北市三重區重安街144號","121.495448333333","25.0549733333333","6500200","三重區"
"235064","005-UY","2019/08/23 19:29:43","新北市中和區南華路41號","121.503651666667","24.9965683333333","6500300","中和區"
"235063","006-UY","2019/08/23 19:29:31","新北市中和區連城路219巷17號","121.494923333333","24.9962516666667","6500300","中和區"
"235056","096-UM","2019/08/23 19:29:41","新北市中和區員山路581巷31弄29號","121.476573333333","25.01031","6500300","中和區"
"235039","097-UM","2019/08/23 19:29:44","新北市中和區秀峰街127巷2號","121.5197","24.99096","6500300","中和區"
"235065","098-UM","2019/08/23 19:29:39","新北市中和區莊敬路4號","121.499571666667","25.0042416666667","6500300","中和區"
"235040","150-BY","2019/08/23 19:29:32","新北市中和區保健路46巷26弄10號","121.508165","24.9954883333333","6500300","中和區"
"235058","151-BY","2019/08/23 19:29:30","新北市中和區員山路124巷10號","121.481858333333","24.9959283333333","6500300","中和區"
"235055","183-VK","2019/08/23 19:29:49","新北市中和區民享街11號","121.47397","25.0055533333333","6500300","中和區"
"235038","185-VK","2019/08/23 19:29:46","新北市中和區立人街9號","121.521715","24.9941316666667","6500300","中和區"
"235049","186-VK","2019/08/23 19:29:36","新北市中和區安平路23號","121.509231666667","24.9942416666667","6500300","中和區"
"235067","255-BX","2019/08/23 19:29:37","新北市中和區新生街220巷15弄1號","121.482928333333","24.9982916666667","6500300","中和區"
"235044","293-VK","2019/08/23 19:29:37","新北市中和區捷運路155號","121.506468333333","24.9910816666667","6500300","中和區"
"235072","301-VK","2019/08/23 19:29:39","新北市中和區連城路263巷4弄10號","121.491691666667","24.99534","6500300","中和區"
"235043","352-BY","2019/08/23 19:29:43","新北市中和區安和路17號","121.511143333333","24.9939016666667","6500300","中和區"
"235042","KEA-2878","2019/08/23 19:29:32","新北市中和區中和路262巷43弄6號","121.509696666667","24.9995566666667","6500300","中和區"
"235070","558-UM","2019/08/23 19:29:40","新北市中和區景平路668號","121.497306666667","25.0008933333333","6500300","中和區"
"235045","565-BX","2019/08/23 19:29:48","新北市中和區景新街467巷20弄60號","121.514415","24.986795","6500300","中和區"
"235060","KED-0823","2019/08/23 19:29:29","新北市中和區中山路二段523巷35號","121.482226666667","25.0033133333333","6500300","中和區"
"235054","640-BX","2019/08/23 19:29:43","新北市中和區莒光路147號","121.47263","25.0012783333333","6500300","中和區"
"235047","732-UM","2019/08/23 19:29:32","新北市中和區景平路329巷1弄4號","121.505993333333","24.992905","6500300","中和區"
"235046","733-UM","2019/08/23 19:29:27","新北市中和區忠孝街37巷67號","121.510578333333","24.9847183333333","6500300","中和區"
"235071","783-BX","2019/08/23 19:29:32","新北市中和區新生街286號","121.483676666667","24.9965933333333","6500300","中和區"
"235057","801-TS","2019/08/23 19:29:38","新北市中和區員山路150-5號","121.481321666667","24.9974466666667","6500300","中和區"
"235052","805-TS","2019/08/23 19:29:38","新北市中和區華新街113巷4弄16號","121.506973333333","24.9814083333333","6500300","中和區"
"235048","896-TW","2019/08/23 19:29:36","新北市中和區忠孝街106巷2號","121.512183333333","24.9845416666667","6500300","中和區"
"235053","900-TW","2019/08/23 19:29:32","新北市中和區民德路65號","121.468893333333","25.0014683333333","6500300","中和區"
"235066","911-UM","2019/08/23 19:29:39","新北市中和區中和路132號","121.503676666667","24.9992733333333","6500300","中和區"
"235051","157-BY","2019/08/23 19:29:36","新北市中和區景平路572號","121.50172","24.995305","6500300","中和區"
"235037","AAC-213","2019/08/23 19:29:32","新北市中和區秀朗路三段50巷4弄4號","121.525678333333","24.9958333333333","6500300","中和區"
"235059","AAC-215","2019/08/23 19:29:26","新北市中和區圓通路252巷18弄1號","121.492275","24.9925216666667","6500300","中和區"
"220065","072-UY","2019/08/23 19:29:27","新北市板橋區國泰街111巷19號","121.466186666667","25.0058433333333","6500100","板橋區"
"220086","073-UY","2019/08/23 19:29:36","新北市板橋區中正路216巷58號","121.45757","25.018725","6500100","板橋區"
"220106","075-UY","2019/08/23 19:29:30","新北市板橋區文化路二段472號","121.474993333333","25.0327733333333","6500100","板橋區"
"220069","AAD-861","2019/08/23 19:29:35","新北市板橋區縣民大道一段64巷13號","121.455758333333","25.00352","6500100","板橋區"
"220068","120-SR","2019/08/23 19:29:38","新北市板橋區萬安街47號","121.484006666667","25.023685","6500100","板橋區"
"247004","893-R6","2019/08/23 19:29:29","新北市蘆洲區中原路38號","121.459685","25.0826983333333","6501400","蘆洲區"
"226004","312-R5","2019/08/23 19:29:38","新北市平溪區十分里十分街238號","121.778135","25.04411","6502400","平溪區"
"235041","251-BX","2019/08/23 19:29:46","新北市永和區中和路573號","121.511888333333","25.0036866666667","6500300","中和區"
"228002","663-BX","2019/08/23 19:29:43","新北市貢寮區龍門里龍門街76號","121.931373333333","25.027035","6502600","貢寮區"
"228001","670-TC","2019/08/23 19:29:41","新北市貢寮區真理里大澳街23號","121.925045","25.0561383333333","6502600","貢寮區"
"228003","828-UM","2019/08/23 19:29:33","新北市貢寮區和美里和美街22-1號","121.912851666667","25.0826116666667","6502600","貢寮區"
"224008","273-VK","2019/08/23 19:29:30","新北市瑞芳區一坑路173-3號","121.801705","25.10799","6501200","瑞芳區"
"227002","642-TC","2019/08/23 19:29:45","新北市雙溪區雙溪里光復街3號","121.865105","25.0355083333333","6502500","雙溪區"
"227001","400-TW","2019/08/23 19:29:28","新北市雙溪區新基里新基北街72-1號","121.868821666667","25.03972","6502500","雙溪區"
"208002","KEA-2872","2019/08/23 19:29:25","新北市金山區中山路309號","121.635803333333","25.2236533333333","6502700","金山區"
"208003","665-BX","2019/08/23 19:29:34","新北市金山區中山路263巷10號","121.63631","25.2216416666667","6502700","金山區"
"251009","008-UM","2019/08/23 19:29:41","新北市淡水區中山路151號","121.440573333333","25.17234","6501000","淡水區"
"251001","011-UM","2019/08/23 19:29:32","新北市淡水區民權路141號","121.460035","25.1364416666667","6501000","淡水區"
"251010","012-UM","2019/08/23 19:29:25","新北市淡水區中正路二段397號","121.426135","25.1910766666667","6501000","淡水區"
"251008","181-VK","2019/08/23 19:29:32","新北市淡水區中正路一段25號","121.426163333333","25.1763166666667","6501000","淡水區"
"251007","182-VK","2019/08/23 19:29:38","新北市淡水區八勢路30巷19號","121.462376666667","25.153775","6501000","淡水區"
"243011","549-UM","2019/08/23 19:29:46","新北市泰山區中山路二段561-9號","121.429991666667","25.0406066666667","6501600","泰山區"
"251005","443-VK","2019/08/23 19:29:40","新北市淡水區水源街一段47巷40號","121.444135","25.1735466666667","6501000","淡水區"
"251006","561-UM","2019/08/23 19:29:35","新北市淡水區大義街29巷18號","121.441451666667","25.1780683333333","6501000","淡水區"
"251003","766-UM","2019/08/23 19:29:41","新北市淡水區中山北路二段200號","121.444116666667","25.186505","6501000","淡水區"
"207003","550-UM","2019/08/23 19:29:33","新北市萬里區大鵬里萬里加投101號","121.646195","25.2130583333333","6502800","萬里區"
"207004","291-VK","2019/08/23 19:29:34","新北市萬里區萬里里瑪鋉路87-1號","121.68872","25.1771933333333","6502800","萬里區"
"252002","178-VK","2019/08/23 19:29:31","新北市三芝區淡金路二段18-1號","121.502671666667","25.25959","6502100","三芝區"
"208001","170-UY","2019/08/23 19:29:40","新北市金山區南勢110號","121.625478333333","25.2201083333333","6502700","金山區"
"237004","KEA-2597","2019/08/23 19:29:46","新北市三峽區有木206號","121.439191666667","24.8517666666667","6500900","三峽區"
"237007","153-BY","2019/08/23 19:29:42","新北市三峽區二鬮路136巷20弄73號","121.357811666667","24.9093833333333","6500900","三峽區"
"237009","210-TH","2019/08/23 19:29:33","新北市三峽區民權街44號","121.369673333333","24.9335233333333","6500900","三峽區"
"237013","252-BX","2019/08/23 19:29:39","新北市三峽區介壽路一段311巷2號","121.381315","24.9306416666667","6500900","三峽區"
"237012","275-BY","2019/08/23 19:29:38","新北市三峽區三樹路98巷171號","121.384675","24.9397216666667","6500900","三峽區"
"237008","302-VK","2019/08/23 19:29:30","新北市三峽區大同路132巷12號","121.373811666667","24.9273066666667","6500900","三峽區"
"237014","433-BY","2019/08/23 19:29:43","新北市三峽區中山路299巷15弄15號","121.361511666667","24.93659","6500900","三峽區"
"237006","5529-G3","2019/08/23 19:29:37","新北市三峽區中正路一段336巷15弄2號","121.369973333333","24.924985","6500900","三峽區"
"237011","KEA-2596","2019/08/23 19:29:45","新北市三峽區介壽路一段233號","121.379218333333","24.9303816666667","6500900","三峽區"
"237010","706-TV","2019/08/23 19:29:45","新北市三峽區復興路163號","121.370308333333","24.9384566666667","6500900","三峽區"
"237005","AKY-6261","2019/08/23 19:29:40","新北市三峽區復興路367巷1弄13號","121.363945","24.93819","6500900","三峽區"
"236042","KED-0685","2019/08/23 19:29:35","新北市土城區學府路一段201號","121.451806666667","24.9847416666667","6501300","土城區"
"236079","166-UM","2019/08/23 19:29:30","新北市土城區中州路52巷2弄22號","121.412553333333","24.9579766666667","6501300","土城區"
"236069","KEA-2877","2019/08/23 19:29:35","新北市土城區學府路一段194號","121.453141666667","24.986025","6501300","土城區"
"252001","KED-0821","2019/08/23 19:29:31","新北市三芝區長勤街62-1號","121.500138333333","25.2561066666667","6502100","三芝區"
"236020","401-BY","2019/08/23 19:29:29","新北市土城區峰廷街3號","121.469088333333","24.98733","6501300","土城區"
"236048","913-UM","2019/08/23 19:29:35","新北市土城區清水路211號","121.460428333333","24.9819566666667","6501300","土城區"
"236055","AAC-216","2019/08/23 19:29:33","新北市土城區學府路一段276號","121.450268333333","24.9833433333333","6501300","土城區"
"238023","601-UM","2019/08/23 19:29:32","新北市樹林區三福街41號","121.408341666667","25.016545","6500700","樹林區"
"238019","599-UM","2019/08/23 19:29:46","新北市樹林區東榮街88巷23號","121.415778333333","24.9830033333333","6500700","樹林區"
"238024","5061-A6","2019/08/23 19:29:32","新北市樹林區福德街31號","121.400683333333","24.9755133333333","6500700","樹林區"
"238018","KEA-2217","2019/08/23 19:29:46","新北市樹林區中華路86號","121.418923333333","24.9810833333333","6500700","樹林區"
"238022","KEA-2213","2019/08/23 19:29:31","新北市樹林區中華路341-5號","121.415191666667","24.9802133333333","6500700","樹林區"
"238021","KEA-2539","2019/08/23 19:29:36","新北市樹林區佳園路三段181巷27號","121.387228333333","24.9479766666667","6500700","樹林區"
"238025","303-VK","2019/08/23 19:29:36","新北市樹林區中山路二段89號","121.411463333333","24.98277","6500700","樹林區"
"238017","283-BY","2019/08/23 19:29:39","新北市樹林區光興街270號","121.406726666667","25.004945","6500700","樹林區"
"238014","282-BY","2019/08/23 19:29:30","新北市樹林區千歲街6巷11號","121.42551","24.9953316666667","6500700","樹林區"
"238020","268-VK","2019/08/23 19:29:47","新北市樹林區俊英街105號","121.425023333333","25.0096216666667","6500700","樹林區"
"238026","172-UY","2019/08/23 19:29:47","新北市樹林區佳園路三段93號","121.38753","24.952415","6500700","樹林區"
"238016","169-UY","2019/08/23 19:29:41","新北市樹林區復興路466號","121.413343333333","24.9836166666667","6500700","樹林區"
"239007","AAC-297","2019/08/23 19:29:27","新北市鶯歌區大湖路326巷43號","121.34643","24.9697083333333","6500800","鶯歌區"
"239006","891-R6","2019/08/23 19:29:28","新北市鶯歌區鶯桃路91巷31弄2衖1號","121.337805","24.9519716666667","6500800","鶯歌區"
"239008","527-UM","2019/08/23 19:29:45","新北市鶯歌區大湖路530巷2-1號","121.337515","24.973025","6500800","鶯歌區"
"239001","417-VK","2019/08/23 19:29:45","新北市鶯歌區尖山埔路120號","121.344056666667","24.9500516666667","6500800","鶯歌區"
"239003","360-BY","2019/08/23 19:29:32","新北市鶯歌區文化路395號","121.35253","24.9499883333333","6500800","鶯歌區"
"239002","359-BY","2019/08/23 19:29:32","新北市鶯歌區國光街92號","121.341326666667","24.9573633333333","6500800","鶯歌區"
"239004","193-VK","2019/08/23 19:29:44","新北市鶯歌區二甲路33-11號","121.340031666667","24.938125","6500800","鶯歌區"
"221008","489-VK","2019/08/23 19:29:47","新北市汐止區康寧街235號","121.624038333333","25.06671","6501100","汐止區"
"221027","281-BY","2019/08/23 19:29:48","新北市汐止區忠孝東路9號","121.658271666667","25.0659483333333","6501100","汐止區"
"221031","353-TW","2019/08/23 19:29:35","新北市汐止區汐萬路一段39-3號","121.654895","25.0696833333333","6501100","汐止區"
"221002","707-TV","2019/08/23 19:29:42","新北市汐止區大同路一段337巷15弄1號","121.6377","25.0600016666667","6501100","汐止區"
"220079","145-BY","2019/08/23 19:29:35","新北市板橋區公館街31號","121.461375","25.015655","6500100","板橋區"
"220082","610-BX","2019/08/23 19:29:39","新北市板橋區金門街131號","121.432973333333","24.9912","6500100","板橋區"
"220091","267-BY","2019/08/23 19:29:45","新北市板橋區文聖街149巷20號","121.479436666667","25.028475","6500100","板橋區"
"220056","276-BY","2019/08/23 19:29:27","新北市板橋區信義路99號","121.457396666667","24.9936966666667","6500100","板橋區"
"220072","277-BY","2019/08/23 19:29:32","新北市板橋區金門街253巷10弄5號","121.433005","24.9883016666667","6500100","板橋區"
"220101","280-UM","2019/08/23 19:29:39","新北市板橋區萬板路48號","121.471975","25.022795","6500100","板橋區"
"220071","283-VK","2019/08/23 19:29:41","新北市板橋區忠孝路48巷11弄7號","121.46164","24.99991","6500100","板橋區"
"220094","285-UM","2019/08/23 19:29:31","新北市板橋區宏國路16號","121.467971666667","25.0314583333333","6500100","板橋區"
"220053","285-VK","2019/08/23 19:29:41","新北市板橋區富山街53巷1弄112號","121.477695","25.0195083333333","6500100","板橋區"
"220083","286-VK","2019/08/23 19:29:43","新北市板橋區龍興街73巷22號","121.44306","25.0025483333333","6500100","板橋區"
"220081","287-VK","2019/08/23 19:29:34","新北市板橋區南雅南路一段131號","121.455015","25.0043266666667","6500100","板橋區"
"220090","288-VK","2019/08/23 19:29:27","新北市板橋區長江路一段48巷9號","121.459173333333","25.0285333333333","6500100","板橋區"
"220061","293-UM","2019/08/23 19:29:40","新北市板橋區漢生東路151號","121.468525","25.0137716666667","6500100","板橋區"
"220084","296-UM","2019/08/23 19:29:49","新北市板橋區篤行路三段玉平巷79號","121.428246666667","24.9859216666667","6500100","板橋區"
"220075","303-R5","2019/08/23 19:29:35","新北市板橋區中正路275巷93號","121.45077","25.01813","6500100","板橋區"
"220062","305-R5","2019/08/23 19:29:35","新北市板橋區三民路二段123巷29號","121.4805","25.01564","6500100","板橋區"
"220092","307-R5","2019/08/23 19:29:35","新北市板橋區四維路131號","121.46514","25.0252483333333","6500100","板橋區"
"220098","317-R6","2019/08/23 19:29:43","新北市板橋區民有街105號","121.464355","25.0281333333333","6500100","板橋區"
"220089","487-VK","2019/08/23 19:29:29","新北市板橋區龍泉街98-4號","121.456656666667","25.0249633333333","6500100","板橋區"
"220088","491-VK","2019/08/23 19:29:35","新北市板橋區文化路二段568號","121.476561666667","25.0346416666667","6500100","板橋區"
"220103","561-BX","2019/08/23 19:29:37","新北市板橋區陽明街29巷1弄24號","121.464063333333","25.02219","6500100","板橋區"
"220080","568-UM","2019/08/23 19:29:34","新北市板橋區大觀路二段3巷75號","121.449716666667","25.0033916666667","6500100","板橋區"
"220063","609-BX","2019/08/23 19:29:30","新北市板橋區林森街3巷1弄6號","121.482633333333","25.0235616666667","6500100","板橋區"
"220035","630-UY","2019/08/23 19:29:39","新北市板橋區中正路433巷1號","121.45414","25.0233016666667","6500100","板橋區"
"220057","686-BX","2019/08/23 19:29:34","新北市板橋區廣和街79號","121.462688333333","24.9921133333333","6500100","板橋區"
"220077","687-BX","2019/08/23 19:29:36","新北市板橋區大觀路一段28巷72號","121.449806666667","25.01066","6500100","板橋區"
"220093","689-BX","2019/08/23 19:29:35","新北市板橋區長江路一段153號","121.461108333333","25.0304366666667","6500100","板橋區"
"220054","741-BX","2019/08/23 19:29:26","新北市板橋區重慶路184號","121.462538333333","25.003355","6500100","板橋區"
"220102","KEA-2699","2019/08/23 19:29:38","新北市板橋區松柏街36巷27號","121.475668333333","25.02925","6500100","板橋區"
"220055","827-TW","2019/08/23 19:29:37","新北市板橋區實踐路60號","121.463876666667","25.0059433333333","6500100","板橋區"
"220067","829-TW","2019/08/23 19:29:43","新北市板橋區長安街138巷5弄14號","121.473218333333","25.0088616666667","6500100","板橋區"
"220074","895-R6","2019/08/23 19:29:33","新北市板橋區北門街12號","121.457678333333","25.01056","6500100","板橋區"
"220073","985-R7","2019/08/23 19:29:30","新北市板橋區瑞安街3號","121.454668333333","25.0233966666667","6500100","板橋區"
"220097","AAC-210","2019/08/23 19:29:34","新北市板橋區文化路一段285巷1弄4號","121.464245","25.0187766666667","6500100","板橋區"
"220064","AAC-253","2019/08/23 19:29:45","新北市板橋區重慶路17號","121.460876666667","25.0079833333333","6500100","板橋區"
"235068","KEA-2873","2019/08/23 19:29:32","新北市中和區景平路493巷8號","121.499345","24.9971066666667","6500300","中和區"
"235061","KEA-2875","2019/08/23 19:29:21","新北市中和區民安街24號","121.480306666667","25.0007933333333","6500300","中和區"
