"lineid","car","time","location","longitude","latitude","cityid","cityname"
"234046","148-BY","2019/08/23 19:49:48","新北市永和區永利路330號","121.525398333333","25.00335","6500400","永和區"
"234081","298-R6","2019/08/23 19:49:44","新北市永和區永亨路98號","121.523071666667","25.0049083333333","6500400","永和區"
"234038","336-UY","2019/08/23 19:49:42","新北市永和區成功路二段100號","121.526381666667","24.9982033333333","6500400","永和區"
"234064","337-UY","2019/08/23 19:49:35","新北市永和區中正路368巷18號","121.51845","25.00081","6500400","永和區"
"234086","338-UY","2019/08/23 19:49:41","新北市永和區永亨路90號","121.522116666667","25.0054983333333","6500400","永和區"
"234070","552-UM","2019/08/23 19:49:40","新北市永和區竹林路88號","121.519401666667","25.01255","6500400","永和區"
"234017","745-BX","2019/08/23 19:49:30","新北市永和區永和路二段299號","121.51607","25.016125","6500400","永和區"
"234030","746-BX","2019/08/23 19:49:27","新北市永和區民生路67巷58號","121.525653333333","24.9975216666667","6500400","永和區"
"234054","KEA-2590","2019/08/23 19:49:36","新北市永和區竹林路73號","121.518898333333","25.0132583333333","6500400","永和區"
"234007","KED-0605","2019/08/23 19:49:39","新北市中和區光華街49號","121.505641666667","25.003735","6500400","永和區"
"234013","KEA-2591","2019/08/23 19:49:41","新北市永和區永平路296號","121.507448333333","25.01219","6500400","永和區"
"234061","AAD-866","2019/08/23 19:49:48","新北市永和區中正路87號","121.515226666667","24.997015","6500400","永和區"
"234042","862-TW","2019/08/23 19:49:29","新北市永和區中和路389巷13號","121.508115","25.0010283333333","6500400","永和區"
"234050","863-TW","2019/08/23 19:49:37","新北市永和區保安路144號","121.508576666667","25.0149283333333","6500400","永和區"
"234026","9371-KE","2019/08/23 19:49:39","新北市永和區雙和街41號","121.50889","25.0025716666667","6500400","永和區"
"234011","9373-KE","2019/08/23 19:49:45","新北市永和區仁愛路352巷112弄5號","121.500685","25.0084466666667","6500400","永和區"
"249005","172-UM","2019/08/23 19:49:37","新北市八里區中華路三段186號","121.390515","25.1274433333333","6502300","八里區"
"249001","173-UM","2019/08/23 19:49:31","新北市八里區中華路二段177號","121.406668333333","25.1506716666667","6502300","八里區"
"249004","303-UY","2019/08/23 19:49:30","新北市八里區仁愛路19號","121.413345","25.1609716666667","6502300","八里區"
"249002","305-UY","2019/08/23 19:49:30","新北市八里區頂寮五街17號","121.451523333333","25.1259933333333","6502300","八里區"
"249003","593-UM","2019/08/23 19:49:43","新北市八里區華峰三街35號","121.398501666667","25.1453083333333","6502300","八里區"
"248014","025-BX","2019/08/23 19:49:26","新北市五股區五福路22巷6號","121.43465","25.08903","6501500","五股區"
"248016","026-BX","2019/08/23 19:49:28","新北市五股區成泰路四段22巷19號","121.454626666667","25.1074316666667","6501500","五股區"
"248008","KED-0815","2019/08/23 19:49:42","新北市五股區國道路三段1號","121.469881666667","25.0750883333333","6501500","五股區"
"248018","KED-0813","2019/08/23 19:49:48","新北市五股區外寮路1-5號","121.4259","25.0768366666667","6501500","五股區"
"248012","247-BX","2019/08/23 19:49:30","新北市五股區成泰路一段235號","121.43607","25.0795","6501500","五股區"
"248010","272-BY","2019/08/23 19:49:33","新北市五股區登林路貿商巷3弄15號","121.429705","25.0698883333333","6501500","五股區"
"248004","677-BX","2019/08/23 19:49:32","新北市五股區成泰路一段56號","121.435451666667","25.0694733333333","6501500","五股區"
"248002","678-BX","2019/08/23 19:49:44","新北市五股區成泰路四段9號","121.45305","25.1066433333333","6501500","五股區"
"234023","9380-KE","2019/08/23 19:49:40","新北市永和區豫溪街57巷8弄6號","121.517623333333","25.01039","6500400","永和區"
"234077","969-R7","2019/08/23 19:49:42","新北市永和區民治街35號","121.519271666667","24.9977416666667","6500400","永和區"
"234074","AAC-211","2019/08/23 19:49:45","新北市永和區豫溪街136巷5號","121.52135","25.0099916666667","6500400","永和區"
"234067","AAC-212","2019/08/23 19:49:27","新北市永和區中山路一段255巷22號","121.508428333333","25.007115","6500400","永和區"
"234003","AAC-295","2019/08/23 19:49:27","新北市永和區福和路327號","121.515775","25.0071516666667","6500400","永和區"
"244023","483-VK","2019/08/23 19:49:32","新北市林口區文化北路二段234號","121.372915","25.085645","6501700","林口區"
"243012","AAD-798","2019/08/23 19:49:28","新北市泰山區仁愛路100巷32號","121.433448333333","25.0550783333333","6501600","泰山區"
"243016","421-VK","2019/08/23 19:45:31","新北市泰山區明志路三段517號","121.42112","25.03194","6501600","泰山區"
"243009","KEA-2215","2019/08/23 19:49:34","新北市泰山區美寧街69號","121.43089","25.0647483333333","6501600","泰山區"
"222003","436-BY","2019/08/23 19:49:43","新北市深坑區深南路51-1號","121.621263333333","25.009775","6501800","深坑區"
"222001","628-TS","2019/08/23 19:49:42","新北市深坑區北深路三段92號","121.607145","25.00153","6501800","深坑區"
"222002","659-BX","2019/08/23 19:49:39","新北市深坑區北深路一段300號","121.62406","25.0056816666667","6501800","深坑區"
"231061","002-UM","2019/08/23 19:49:31","新北市新店區安民街259號","121.517398333333","24.97259","6500600","新店區"
"231044","046-UY","2019/08/23 19:49:45","新北市新店區中正路602號","121.534118333333","24.988015","6500600","新店區"
"231060","106-UY","2019/08/23 19:49:34","新北市新店區安康路二段159巷6號","121.510173333333","24.9591966666667","6500600","新店區"
"231051","107-UY","2019/08/23 19:49:35","新北市新店區中央三街83號","121.525906666667","24.9755683333333","6500600","新店區"
"231049","108-UY","2019/08/23 19:49:40","新北市新店區民權路96號","121.536715","24.983045","6500600","新店區"
"231065","110-UY","2019/08/23 19:49:39","新北市新店區安祥路109巷8號","121.475395","24.9587933333333","6500600","新店區"
"231068","187-VK","2019/08/23 19:49:31","新北市新店區安一路一段1-1號","121.519578333333","24.9611033333333","6500600","新店區"
"231062","256-BX","2019/08/23 19:49:38","新北市新店區永業路117號","121.528455","24.9480216666667","6500600","新店區"
"231054","260-TV","2019/08/23 19:49:39","新北市新店區光明街13號","121.53839","24.9593183333333","6500600","新店區"
"231042","268-BY","2019/08/23 19:49:27","新北市新店區中興路一段267-2號","121.545026666667","24.9677883333333","6500600","新店區"
"231064","278-BY","2019/08/23 19:49:40","新北市新店區光華街3-1號","121.517875","24.9688266666667","6500600","新店區"
"231050","AAD-862","2019/08/23 19:49:32","新北市新店區北宜路二段150-1號","121.557821666667","24.9539966666667","6500600","新店區"
"231045","355-BY","2019/08/23 19:49:45","新北市新店區北宜路二段483號","121.56222","24.9538716666667","6500600","新店區"
"231055","4716-K9","2019/08/23 19:49:47","新北市新店區力行路5號","121.53935","24.9645883333333","6500600","新店區"
"231056","4715-K9","2019/08/23 19:49:36","新北市新店區民權路42巷35號","121.539156666667","24.9835283333333","6500600","新店區"
"231067","4772-VM","2019/08/23 19:49:38","新北市新店區精忠路10-1號","121.532566666667","24.959075","6500600","新店區"
"231053","513-UM","2019/08/23 19:49:29","新北市新店區新烏路三段92號","121.553358333333","24.9036816666667","6500600","新店區"
"231063","616-UM","2019/08/23 19:49:36","新北市新店區車子路11號","121.50307","24.95205","6500600","新店區"
"231040","617-UM","2019/08/23 19:49:27","新北市新店區北新路一段96巷23號","121.543036666667","24.9688583333333","6500600","新店區"
"231041","619-UM","2019/08/23 19:49:37","新北市新店區中央路149號","121.530008333333","24.9733366666667","6500600","新店區"
"231048","KED-0819","2019/08/23 19:49:41","新北市新店區中興路二段100巷1號","121.547671666667","24.9715316666667","6500600","新店區"
"231046","719-UM","2019/08/23 19:46:48","新北市新店區福園街10巷1號","121.53272","24.9728483333333","6500600","新店區"
"231057","720-UM","2019/08/23 19:49:47","新北市新店區梅崗三路1號","121.55814","24.9312183333333","6500600","新店區"
"231059","897-TW","2019/08/23 19:49:40","新北市新店區安和路二段138號","121.519465","24.972315","6500600","新店區"
"231043","899-TW","2019/08/23 19:49:35","新北市新店區中正路263-1號","121.538503333333","24.9737366666667","6500600","新店區"
"231066","AKT-0513","2019/08/23 19:49:41","新北市新店區安康路三段165巷2弄10號","121.489193333333","24.951335","6500600","新店區"
"241011","013-R5","2019/08/23 19:49:40","新北市三重區三和路二段173巷47號","121.499335","25.0702233333333","6500200","三重區"
"241028","022-UY","2019/08/23 19:49:40","新北市三重區中正南路111號","121.494175","25.0576966666667","6500200","三重區"
"241008","059-VK","2019/08/23 19:49:38","新北市三重區永福街100號","121.478998333333","25.0758933333333","6500200","三重區"
"241031","061-VK","2019/08/23 19:49:45","新北市三重區重新路四段101號","121.485806666667","25.0545116666667","6500200","三重區"
"241015","062-VK","2019/08/23 19:49:32","新北市三重區三和路一段2號","121.503845","25.064335","6500200","三重區"
"241017","063-VK","2019/08/23 19:49:35","新北市三重區重陽路三段27巷1號","121.489653333333","25.0665583333333","6500200","三重區"
"241024","065-VK","2019/08/23 19:49:43","新北市三重區大勇街82巷11號","121.479575","25.0716716666667","6500200","三重區"
"241003","091-VK","2019/08/23 19:49:37","新北市三重區五華街93巷56號","121.493876666667","25.0850316666667","6500200","三重區"
"241007","742-BX","2019/08/23 19:49:41","新北市三重區三和路四段133-1號","121.484783333333","25.0780316666667","6500200","三重區"
"241006","262-UM","2019/08/23 19:49:38","新北市三重區力行路二段76巷1弄2號","121.48158","25.07358","6500200","三重區"
"241009","267-UM","2019/08/23 19:49:25","新北市三重區三和路四段396巷30號","121.480023333333","25.0787783333333","6500200","三重區"
"241018","268-UM","2019/08/23 19:49:38","新北市三重區雙園街57巷21-2號","121.494691666667","25.0681316666667","6500200","三重區"
"241032","269-UM","2019/08/23 19:49:47","新北市三重區重陽路一段44巷9號","121.486013333333","25.0578816666667","6500200","三重區"
"241013","270-UM","2019/08/23 19:49:33","新北市三重區三和路三段107巷2號","121.494258333333","25.0729566666667","6500200","三重區"
"241025","271-UM","2019/08/23 19:49:35","新北市三重區頂崁街210巷3號","121.476781666667","25.0676816666667","6500200","三重區"
"241030","KED-0822","2019/08/23 19:49:28","新北市三重區環河南路254巷56號","121.489378333333","25.0514366666667","6500200","三重區"
"241035","462-BY","2019/08/23 19:49:40","新北市三重區大榮街23號","121.498396666667","25.0634033333333","6500200","三重區"
"241020","478-VK","2019/08/23 19:49:43","新北市三重區忠孝路一段101號","121.489488333333","25.07216","6500200","三重區"
"241014","543-UM","2019/08/23 19:49:35","新北市三重區長安街73號","121.501468333333","25.0673783333333","6500200","三重區"
"241023","545-UM","2019/08/23 19:49:32","新北市三重區頂崁街168號","121.47758","25.0658833333333","6500200","三重區"
"241001","547-UM","2019/08/23 19:49:25","新北市三重區仁愛街283巷7號","121.493278333333","25.0792766666667","6500200","三重區"
"241019","KEA-2593","2019/08/23 19:49:39","新北市三重區大智街188號","121.4894","25.0703416666667","6500200","三重區"
"241005","AAD-863","2019/08/23 19:49:29","新北市三重區溪尾街358號","121.488651666667","25.0854316666667","6500200","三重區"
"241026","743-BX","2019/08/23 19:49:39","新北市三重區中央南路47號","121.501311666667","25.0618333333333","6500200","三重區"
"241016","887-TS","2019/08/23 19:49:29","新北市三重區正德街67號","121.495545","25.0634216666667","6500200","三重區"
"241012","941-UM","2019/08/23 19:49:29","新北市三重區仁興街39巷6號","121.49936","25.0759","6500200","三重區"
"241029","942-UM","2019/08/23 19:49:37","新北市三重區重新路三段204號","121.490151666667","25.0584883333333","6500200","三重區"
"241033","AAC-255","2019/08/23 19:49:34","新北市三重區中興南街29-1號","121.4706","25.0439266666667","6500200","三重區"
"235056","096-UM","2019/08/23 19:49:41","新北市中和區中山路三段170巷8弄1號","121.472573333333","25.0075816666667","6500300","中和區"
"235039","097-UM","2019/08/23 19:49:44","新北市中和區大勇街27巷31號","121.516056666667","24.9938933333333","6500300","中和區"
"235065","098-UM","2019/08/23 19:49:39","新北市中和區福祥路68號","121.499293333333","25.00521","6500300","中和區"
"235040","150-BY","2019/08/23 19:49:31","新北市中和區安和路39號","121.50967","24.9948133333333","6500300","中和區"
"235058","151-BY","2019/08/23 19:49:30","新北市中和區員山路150巷2弄39號","121.481778333333","24.9974683333333","6500300","中和區"
"235055","183-VK","2019/08/23 19:49:40","新北市中和區民生街23巷3弄1號","121.471003333333","25.00518","6500300","中和區"
"235038","185-VK","2019/08/23 19:49:45","新北市中和區自立路14號","121.522328333333","24.996235","6500300","中和區"
"235049","186-VK","2019/08/23 19:49:36","新北市中和區景平路518號","121.503375","24.9938966666667","6500300","中和區"
"235067","255-BX","2019/08/23 19:49:37","新北市中和區中正路751巷3弄7號","121.48445","24.9993683333333","6500300","中和區"
"235044","293-VK","2019/08/23 19:49:37","新北市中和區南山路162號","121.50472","24.9915933333333","6500300","中和區"
"235043","352-BY","2019/08/23 19:49:43","新北市中和區興南路二段159巷7號","121.505278333333","24.9830983333333","6500300","中和區"
"235042","KEA-2878","2019/08/23 19:49:32","新北市中和區安平路78號","121.511093333333","24.9966216666667","6500300","中和區"
"247014","KEA-2869","2019/08/23 19:49:29","新北市蘆洲區復興路30-7號","121.47288","25.0845133333333","6501400","蘆洲區"
"235050","4979-A6","2019/08/23 19:49:49","新北市中和區景平路241巷84弄57號","121.506076666667","24.9923","6500300","中和區"
"235070","558-UM","2019/08/23 19:49:40","新北市中和區圓通路128號","121.498561666667","24.9957816666667","6500300","中和區"
"235054","640-BX","2019/08/23 19:49:43","新北市三重區重光街105-2號","121.467068333333","25.0648633333333","6500300","中和區"
"235047","732-UM","2019/08/23 19:49:32","新北市中和區和平街84號","121.507523333333","24.99115","6500300","中和區"
"235046","733-UM","2019/08/23 19:49:27","新北市中和區仁愛街2號","121.510538333333","24.989315","6500300","中和區"
"235052","805-TS","2019/08/23 19:49:38","新北市中和區華新街144巷9號","121.507518333333","24.98313","6500300","中和區"
"235048","896-TW","2019/08/23 19:49:36","新北市中和區興南路一段108號","121.509616666667","24.9887366666667","6500300","中和區"
"235053","900-TW","2019/08/23 19:49:32","新北市中和區民德路216號","121.46817","24.9980333333333","6500300","中和區"
"235066","911-UM","2019/08/23 19:49:39","新北市中和區南工路66號","121.506376666667","25.0019916666667","6500300","中和區"
"235051","157-BY","2019/08/23 19:49:36","新北市中和區復興路348號","121.500035","24.9903333333333","6500300","中和區"
"235037","AAC-213","2019/08/23 19:49:32","新北市中和區自立路20巷1號","121.522253333333","24.9934033333333","6500300","中和區"
"235059","AAC-215","2019/08/23 19:49:26","新北市中和區圓通路252巷18弄1號","121.492281666667","24.99243","6500300","中和區"
"220065","072-UY","2019/08/23 19:49:47","新北市板橋區民族路276巷15號","121.469705","25.00597","6500100","板橋區"
"220086","073-UY","2019/08/23 19:49:35","新北市板橋區中正路236巷87號","121.459358333333","25.01968","6500100","板橋區"
"220106","075-UY","2019/08/23 19:49:30","新北市板橋區民治街53-1號","121.479245","25.0336733333333","6500100","板橋區"
"220069","AAD-861","2019/08/23 19:49:34","新北市板橋區大明街13號","121.458928333333","25.0024983333333","6500100","板橋區"
"220068","120-SR","2019/08/23 19:49:38","新北市板橋區光復街150號","121.484748333333","25.0195","6500100","板橋區"
"247004","893-R6","2019/08/23 19:49:29","新北市蘆洲區中原路81號","121.458105","25.081685","6501400","蘆洲區"
"247002","500-BY","2019/08/23 19:49:34","新北市蘆洲區永樂街38巷40號","121.458575","25.09012","6501400","蘆洲區"
"247016","053-VK","2019/08/23 19:49:29","新北市蘆洲區中正路259號","121.467585","25.0871616666667","6501400","蘆洲區"
"226004","312-R5","2019/08/23 19:49:38","新北市平溪區十分里十分街58巷16號","121.77467","25.04309","6502400","平溪區"
"235041","251-BX","2019/08/23 19:49:46","新北市中和區中和路350巷12號","121.5109","25.00017","6500300","中和區"
"228001","670-TC","2019/08/23 19:49:41","新北市貢寮區真理里新港街95號","121.926708333333","25.0568183333333","6502600","貢寮區"
"228003","828-UM","2019/08/23 19:49:33","新北市貢寮區真理里美艷山街3-1號","121.926055","25.059675","6502600","貢寮區"
"224010","AGQ-8101","2019/08/23 19:49:37","新北市瑞芳區豎崎路18號","121.843496666667","25.1087066666667","6501200","瑞芳區"
"224002","639-TC","2019/08/23 19:49:29","新北市瑞芳區三爪子坑路303-2號","121.81819","25.1058566666667","6501200","瑞芳區"
"227002","642-TC","2019/08/23 19:49:25","新北市雙溪區雙溪里內挖路36號","121.863191666667","25.0367416666667","6502500","雙溪區"
"227001","400-TW","2019/08/23 19:49:43","新北市雙溪區新基里中華路53號","121.865823333333","25.0378116666667","6502500","雙溪區"
"208002","KEA-2872","2019/08/23 19:49:45","新北市金山區環金路87號","121.637036666667","25.2173183333333","6502700","金山區"
"208003","665-BX","2019/08/23 19:49:34","新北市金山區海興路112-1號","121.631176666667","25.2386666666667","6502700","金山區"
"251009","008-UM","2019/08/23 19:49:41","新北市淡水區中正路38-1號","121.44375","25.169285","6501000","淡水區"
"251004","009-UM","2019/08/23 19:49:48","新北市淡水區民權路185巷17號","121.460406666667","25.1338983333333","6501000","淡水區"
"251001","011-UM","2019/08/23 19:49:32","新北市淡水區淡金路150號","121.458406666667","25.16521","6501000","淡水區"
"251008","181-VK","2019/08/23 19:49:32","新北市淡水區中正路一段22巷24號","121.426948333333","25.1771133333333","6501000","淡水區"
"251007","182-VK","2019/08/23 19:49:38","新北市淡水區竿蓁一街101號","121.454675","25.16638","6501000","淡水區"
"243011","549-UM","2019/08/23 19:49:26","新北市泰山區明志路三段196巷21弄21號","121.422521666667","25.038455","6501600","泰山區"
"251012","441-VK","2019/08/23 19:49:39","新北市淡水區淡金路三段15號","121.446148333333","25.19701","6501000","淡水區"
"251005","443-VK","2019/08/23 19:49:40","新北市淡水區中正東路6號","121.447136666667","25.1672183333333","6501000","淡水區"
"251006","561-UM","2019/08/23 19:49:35","新北市淡水區水碓街15號","121.443513333333","25.1769416666667","6501000","淡水區"
"251011","650-BX","2019/08/23 19:49:38","新北市淡水區紅樹林路183號","121.460715","25.15696","6501000","淡水區"
"207003","550-UM","2019/08/23 19:49:33","新北市萬里區大鵬里萬里加投287-18號","121.647021666667","25.2172833333333","6502800","萬里區"
"207004","291-VK","2019/08/23 19:49:35","新北市萬里區萬里里瑪鋉路134號","121.690498333333","25.1793233333333","6502800","萬里區"
"252002","178-VK","2019/08/23 19:49:30","新北市三芝區三民街33-1號","121.504648333333","25.25854","6502100","三芝區"
"208001","170-UY","2019/08/23 19:49:34","新北市金山區重和里茅埔頭15號","121.602576666667","25.2145116666667","6502700","金山區"
"237004","KEA-2597","2019/08/23 19:49:41","新北市三峽區添福261號","121.37541","24.8939733333333","6500900","三峽區"
"237007","153-BY","2019/08/23 19:49:42","新北市三峽區二鬮路122-1號","121.359991666667","24.90841","6500900","三峽區"
"237009","210-TH","2019/08/23 19:49:33","新北市三峽區清水街435號","121.368576666667","24.9255033333333","6500900","三峽區"
"237013","252-BX","2019/08/23 19:49:38","新北市三峽區溪北街3號","121.396041666667","24.9363783333333","6500900","三峽區"
"237012","275-BY","2019/08/23 19:49:38","新北市三峽區中華路36-8號","121.372958333333","24.9324166666667","6500900","三峽區"
"237008","302-VK","2019/08/23 19:49:30","新北市三峽區中華路43巷12號","121.372945","24.930675","6500900","三峽區"
"237014","433-BY","2019/08/23 19:49:43","新北市三峽區中正路二段122號","121.366301666667","24.91711","6500900","三峽區"
"237006","5529-G3","2019/08/23 19:49:37","新北市三峽區中正路一段336巷15弄2號","121.369955","24.9249783333333","6500900","三峽區"
"237005","AKY-6261","2019/08/23 19:49:40","新北市三峽區民生街90號","121.374166666667","24.9356633333333","6500900","三峽區"
"236042","KED-0685","2019/08/23 19:49:35","新北市土城區金城路二段210號","121.455533333333","24.98216","6501300","土城區"
"236079","166-UM","2019/08/23 19:49:30","新北市土城區福安街100號","121.417415","24.963975","6501300","土城區"
"236030","253-BX","2019/08/23 19:49:34","新北市土城區中央路一段290號","121.443245","24.98243","6501300","土城區"
"236026","269-VK","2019/08/23 19:49:40","新北市土城區中央路二段61巷42號","121.443931666667","24.9785633333333","6501300","土城區"
"236069","KEA-2877","2019/08/23 19:49:35","新北市土城區中央路二段280號","121.440783333333","24.9739333333333","6501300","土城區"
"252001","KED-0821","2019/08/23 19:49:31","新北市三芝區公正街66號","121.499858333333","25.2574883333333","6502100","三芝區"
"236020","401-BY","2019/08/23 19:49:35","新北市土城區峰廷街31號","121.469601666667","24.986465","6501300","土城區"
"236059","912-UM","2019/08/23 19:49:40","新北市土城區中央路一段169號","121.446303333333","24.98756","6501300","土城區"
"236048","913-UM","2019/08/23 19:49:35","新北市土城區青雲路165號","121.459133333333","24.9832666666667","6501300","土城區"
"236063","915-UM","2019/08/23 19:49:40","新北市土城區金城路三段163巷18號","121.468923333333","24.9892666666667","6501300","土城區"
"236055","AAC-216","2019/08/23 19:49:42","新北市土城區延和路219號","121.469973333333","24.9896333333333","6501300","土城區"
"242039","AAC-296","2019/08/23 19:49:47","新北市新莊區民安路299巷33號","121.429326666667","25.0232433333333","6500500","新莊區"
"242060","986-R7","2019/08/23 19:49:41","新北市新莊區中正路473-1號","121.441996666667","25.0332616666667","6500500","新莊區"
"242002","751-BX","2019/08/23 19:49:32","新北市新莊區武前街29號","121.450196666667","25.0325333333333","6500500","新莊區"
"242048","441-UM","2019/08/23 19:49:41","新北市新莊區後港一路28巷3弄1號","121.425568333333","25.0254566666667","6500500","新莊區"
"242005","440-UM","2019/08/23 19:49:41","新北市新莊區化成路63巷26弄17號","121.462495","25.0460283333333","6500500","新莊區"
"242025","362-BY","2019/08/23 19:49:38","新北市新莊區五權一路12巷22號","121.457548333333","25.0643866666667","6500500","新莊區"
"242023","353-BY","2019/08/23 19:49:47","新北市新莊區化成路170號","121.465568333333","25.0454533333333","6500500","新莊區"
"242013","132-UY","2019/08/23 19:49:32","新北市新莊區中泰街62巷5號","121.450096666667","25.0471483333333","6500500","新莊區"
"242037","135-UY","2019/08/23 19:49:44","新北市新莊區民安路207巷32弄1號","121.428246666667","25.0244116666667","6500500","新莊區"
"242015","173-VK","2019/08/23 19:49:34","新北市新莊區新泰路488號","121.442463333333","25.04587","6500500","新莊區"
"242034","347-TH","2019/08/23 19:49:41","新北市新莊區公園一路110號","121.444428333333","25.037435","6500500","新莊區"
"242032","348-TH","2019/08/23 19:49:41","新北市新莊區公園一路126號","121.445713333333","25.038045","6500500","新莊區"
"238023","601-UM","2019/08/23 19:49:32","新北市樹林區中正路163號","121.424125","25.0021666666667","6500700","樹林區"
"238019","599-UM","2019/08/23 19:49:46","新北市樹林區中山路二段219號","121.40246","24.9762166666667","6500700","樹林區"
"238024","5061-A6","2019/08/23 19:49:45","新北市樹林區中山路三段210-2號","121.38075","24.966715","6500700","樹林區"
"238022","KEA-2213","2019/08/23 19:49:31","新北市樹林區國凱街50巷37號","121.421185","24.9783283333333","6500700","樹林區"
"238021","KEA-2539","2019/08/23 19:49:36","新北市樹林區佳園路三段101巷80弄3號","121.394945","24.9498583333333","6500700","樹林區"
"238025","303-VK","2019/08/23 19:49:36","新北市樹林區中山路一段308號","121.420113333333","24.9862816666667","6500700","樹林區"
"238017","283-BY","2019/08/23 19:49:39","新北市樹林區保安街二段167巷13號","121.414623333333","25.0028366666667","6500700","樹林區"
"238014","282-BY","2019/08/23 19:49:33","新北市樹林區千歲街46巷19號","121.426748333333","24.99662","6500700","樹林區"
"239006","891-R6","2019/08/23 19:49:35","新北市鶯歌區鶯桃路29號","121.34334","24.9506266666667","6500800","鶯歌區"
"239002","359-BY","2019/08/23 19:49:32","新北市鶯歌區中湖街2號","121.34626","24.972815","6500800","鶯歌區"
"221008","489-VK","2019/08/23 19:49:27","新北市汐止區康寧街61巷22弄9號","121.619666666667","25.0669283333333","6501100","汐止區"
"221010","269-BY","2019/08/23 19:49:40","新北市汐止區汐萬路二段23巷1號","121.649496666667","25.0809366666667","6501100","汐止區"
"221012","278-VK","2019/08/23 19:49:32","新北市汐止區大同路三段342號","121.679836666667","25.0710216666667","6501100","汐止區"
"221023","279-VK","2019/08/23 19:49:41","新北市汐止區中興路250號","121.629085","25.068615","6501100","汐止區"
"221029","298-VK","2019/08/23 19:49:46","新北市汐止區康寧街901號","121.651533333333","25.0749666666667","6501100","汐止區"
"221021","299-VK","2019/08/23 19:49:46","新北市汐止區莊敬街70號","121.656336666667","25.0615466666667","6501100","汐止區"
"221031","353-TW","2019/08/23 19:49:35","新北市汐止區連峰街1巷1號","121.646651666667","25.0760533333333","6501100","汐止區"
"221025","623-UM","2019/08/23 19:49:40","新北市汐止區秀峰路81巷15弄4-1號","121.660746666667","25.064625","6501100","汐止區"
"221038","646-BX","2019/08/23 19:49:41","新北市汐止區忠孝東路419號","121.665871666667","25.0714583333333","6501100","汐止區"
"221033","647-BX","2019/08/23 19:49:39","新北市汐止區東勢街10號","121.631543333333","25.0402933333333","6501100","汐止區"
"220079","145-BY","2019/08/23 19:49:41","新北市板橋區民權路202巷24號","121.460746666667","25.01703","6500100","板橋區"
"220082","610-BX","2019/08/23 19:49:41","新北市板橋區溪北路101號","121.428983333333","24.9892583333333","6500100","板橋區"
"220091","267-BY","2019/08/23 19:49:42","新北市板橋區民治街81巷3號","121.47987","25.0322433333333","6500100","板橋區"
"220056","276-BY","2019/08/23 19:49:37","新北市板橋區四川路二段47巷1弄1號","121.454101666667","24.9949666666667","6500100","板橋區"
"220072","277-BY","2019/08/23 19:49:32","新北市板橋區篤行路二段78號","121.431628333333","24.9919716666667","6500100","板橋區"
"220101","280-UM","2019/08/23 19:49:37","新北市板橋區萬板路128號","121.475046666667","25.02346","6500100","板橋區"
"220071","283-VK","2019/08/23 19:49:47","新北市板橋區和平路174巷33號","121.465015","24.9942733333333","6500100","板橋區"
"220094","285-UM","2019/08/23 19:49:31","新北市板橋區雨農路13號","121.462285","25.02458","6500100","板橋區"
"220053","285-VK","2019/08/23 19:49:41","新北市板橋區永豐街28號","121.474615","25.0171416666667","6500100","板橋區"
"220083","286-VK","2019/08/23 19:49:32","新北市板橋區龍興街56號","121.443381666667","25.0012933333333","6500100","板橋區"
"220081","287-VK","2019/08/23 19:49:34","新北市板橋區大觀路一段29巷121號","121.450581666667","25.005525","6500100","板橋區"
"220090","288-VK","2019/08/23 19:49:46","新北市板橋區漢生西路165巷34號","121.462191666667","25.0233516666667","6500100","板橋區"
"220061","293-UM","2019/08/23 19:49:40","新北市板橋區觀光街33巷2-1號","121.47119","25.0159916666667","6500100","板橋區"
"220084","296-UM","2019/08/23 19:49:29","新北市板橋區溪崑二街110號","121.4265","24.9885483333333","6500100","板橋區"
"220075","303-R5","2019/08/23 19:49:45","新北市板橋區大勇街19號","121.454401666667","25.0171966666667","6500100","板橋區"
"220062","305-R5","2019/08/23 19:49:35","新北市板橋區光復街33巷10號","121.481958333333","25.0189016666667","6500100","板橋區"
"220092","307-R5","2019/08/23 19:49:35","新北市板橋區漢生西路39巷2號","121.462768333333","25.01817","6500100","板橋區"
"220098","317-R6","2019/08/23 19:49:36","新北市板橋區四維路279巷77號","121.460048333333","25.0271","6500100","板橋區"
"220089","487-VK","2019/08/23 19:49:29","新北市板橋區四維路186號","121.46423","25.0268316666667","6500100","板橋區"
"220088","491-VK","2019/08/23 19:49:45","新北市板橋區懷德街166號","121.479123333333","25.030435","6500100","板橋區"
"220103","561-BX","2019/08/23 19:49:32","新北市板橋區陽明街271號","121.462255","25.0259633333333","6500100","板橋區"
"220080","568-UM","2019/08/23 19:49:34","新北市板橋區大觀路二段37巷49號","121.449126666667","25.0025866666667","6500100","板橋區"
"220063","609-BX","2019/08/23 19:49:37","新北市板橋區三民路一段5巷1號","121.479081666667","25.0234566666667","6500100","板橋區"
"220035","630-UY","2019/08/23 19:49:42","新北市板橋區新生街88巷1號","121.458125","25.02157","6500100","板橋區"
"220057","686-BX","2019/08/23 19:49:33","新北市板橋區四川路二段245巷3號","121.450565","24.99337","6500100","板橋區"
"220077","687-BX","2019/08/23 19:49:36","新北市板橋區僑中二街116巷1號","121.44562","25.006255","6500100","板橋區"
"220093","689-BX","2019/08/23 19:49:35","新北市板橋區民治街57巷32-1號","121.481276666667","25.035915","6500100","板橋區"
"220054","741-BX","2019/08/23 19:49:46","新北市板橋區忠孝路235號","121.46601","25.00278","6500100","板橋區"
"220102","KEA-2699","2019/08/23 19:49:38","新北市板橋區文化路二段182巷11號","121.472038333333","25.026915","6500100","板橋區"
"220055","827-TW","2019/08/23 19:49:37","新北市板橋區國慶路149巷21弄7號","121.460575","24.9973616666667","6500100","板橋區"
"220067","829-TW","2019/08/23 19:49:22","新北市板橋區漢生東路193巷66號","121.473123333333","25.011995","6500100","板橋區"
"220074","895-R6","2019/08/23 19:49:33","新北市板橋區南門街53號","121.457173333333","25.0084183333333","6500100","板橋區"
"220073","985-R7","2019/08/23 19:49:46","新北市板橋區大仁街39號","121.455021666667","25.0166166666667","6500100","板橋區"
"220097","AAC-210","2019/08/23 19:49:35","新北市板橋區光正街18巷11號","121.462585","25.0176566666667","6500100","板橋區"
"220064","AAC-253","2019/08/23 19:49:45","新北市板橋區實踐路111號","121.464146666667","25.005095","6500100","板橋區"
"235068","KEA-2873","2019/08/23 19:49:32","新北市中和區福美路301巷10號","121.497351666667","25.0044466666667","6500300","中和區"
