"lineid","car","time","location","longitude","latitude","cityid","cityname"
"234046","148-BY","2019/08/23 19:59:48","新北市永和區成功路一段2號","121.527185","25.0056683333333","6500400","永和區"
"234081","298-R6","2019/08/23 19:59:44","新北市永和區林森路74號","121.523738333333","25.0039233333333","6500400","永和區"
"234038","336-UY","2019/08/23 19:59:42","新北市永和區成功路二段118號","121.526585","24.9977916666667","6500400","永和區"
"234064","337-UY","2019/08/23 19:59:35","新北市永和區中正路412巷20弄10號","121.518746666667","25.00165","6500400","永和區"
"234086","338-UY","2019/08/23 19:59:41","新北市永和區福和路260號","121.518258333333","25.0075366666667","6500400","永和區"
"234070","552-UM","2019/08/23 19:59:40","新北市永和區國光路39-1號","121.519068333333","25.0081483333333","6500400","永和區"
"234017","745-BX","2019/08/23 19:59:30","新北市永和區文化路68號","121.514305","25.015165","6500400","永和區"
"234030","746-BX","2019/08/23 19:59:27","新北市永和區民權路51號","121.519993333333","24.9971066666667","6500400","永和區"
"234054","KEA-2590","2019/08/23 19:59:39","新北市永和區環河東路一段122號","121.520718333333","25.0156083333333","6500400","永和區"
"234007","KED-0605","2019/08/23 19:59:39","新北市永和區保生路22巷21號","121.507261666667","25.00821","6500400","永和區"
"234013","KEA-2591","2019/08/23 19:59:41","新北市永和區保生路55號","121.504733333333","25.0106283333333","6500400","永和區"
"234061","AAD-866","2019/08/23 19:59:39","新北市永和區得和路76號","121.516531666667","25.0000516666667","6500400","永和區"
"234042","862-TW","2019/08/23 19:59:29","新北市永和區中和路421巷16弄9號","121.508768333333","25.0012666666667","6500400","永和區"
"234050","863-TW","2019/08/23 19:59:37","新北市永和區保安路264號","121.50588","25.012385","6500400","永和區"
"234026","9371-KE","2019/08/23 19:59:39","新北市永和區水源街27巷11號","121.511323333333","25.0039533333333","6500400","永和區"
"234011","9373-KE","2019/08/23 19:59:47","新北市永和區仁愛路352巷124號","121.500123333333","25.0085133333333","6500400","永和區"
"249005","172-UM","2019/08/23 19:59:37","新北市八里區楓林路1-9號","121.38659","25.1322933333333","6502300","八里區"
"249001","173-UM","2019/08/23 19:59:31","新北市八里區中華路二段310號","121.403795","25.148365","6502300","八里區"
"249004","303-UY","2019/08/23 19:59:30","新北市八里區中華路一段333-1號","121.41331","25.1538266666667","6502300","八里區"
"249002","305-UY","2019/08/23 19:59:30","新北市八里區頂寮二街1號","121.450888333333","25.1238","6502300","八里區"
"249003","593-UM","2019/08/23 19:59:43","新北市八里區中華路二段558號","121.398633333333","25.1451983333333","6502300","八里區"
"248016","026-BX","2019/08/23 19:59:28","新北市五股區成泰路三段577巷80弄7號","121.449505","25.1042916666667","6501500","五股區"
"248008","KED-0815","2019/08/23 19:59:44","新北市五股區四維路155巷32號","121.466943333333","25.0743233333333","6501500","五股區"
"248018","KED-0813","2019/08/23 19:59:28","新北市五股區登林路118號","121.41834","25.0738816666667","6501500","五股區"
"248012","247-BX","2019/08/23 19:59:30","新北市五股區工商路205號","121.433286666667","25.0871416666667","6501500","五股區"
"248010","272-BY","2019/08/23 19:59:33","新北市五股區水碓五路1號","121.427626666667","25.0705283333333","6501500","五股區"
"248004","677-BX","2019/08/23 19:59:32","新北市五股區成泰路一段32巷58號","121.435006666667","25.0671416666667","6501500","五股區"
"248002","678-BX","2019/08/23 19:59:44","新北市五股區成泰路三段487號","121.450706666667","25.09927","6501500","五股區"
"234023","9380-KE","2019/08/23 19:59:47","新北市永和區中正路702巷9號","121.5163","25.0103666666667","6500400","永和區"
"234077","969-R7","2019/08/23 19:59:43","新北市永和區民有街23巷55號","121.5177","24.997435","6500400","永和區"
"234074","AAC-211","2019/08/23 19:59:41","新北市永和區豫溪街207巷5號","121.52349","25.0099766666667","6500400","永和區"
"234067","AAC-212","2019/08/23 19:59:47","新北市永和區永貞路376號","121.50984","25.006905","6500400","永和區"
"234003","AAC-295","2019/08/23 19:59:47","新北市永和區中正路613號","121.516231666667","25.0098433333333","6500400","永和區"
"243012","AAD-798","2019/08/23 19:59:28","新北市泰山區全興路13號","121.432315","25.0589483333333","6501600","泰山區"
"243014","KEA-2801","2019/08/23 19:59:31","新北市泰山區泰林路二段33-1號","121.435746666667","25.0568283333333","6501600","泰山區"
"243016","421-VK","2019/08/23 19:59:31","新北市泰山區中山路二段768號","121.423803333333","25.034265","6501600","泰山區"
"243009","KEA-2215","2019/08/23 19:59:34","新北市泰山區楓江路16巷32號","121.433986666667","25.0614933333333","6501600","泰山區"
"222003","436-BY","2019/08/23 19:59:43","新北市深坑區埔新街14號","121.62074","25.00395","6501800","深坑區"
"222001","628-TS","2019/08/23 19:59:33","新北市深坑區北深路三段170號","121.602251666667","25.003505","6501800","深坑區"
"222002","659-BX","2019/08/23 19:59:39","新北市深坑區北深路二段81巷8弄6號","121.618276666667","25.00309","6501800","深坑區"
"231061","002-UM","2019/08/23 19:59:31","新北市新店區安民街377號","121.516341666667","24.976305","6500600","新店區"
"231044","046-UY","2019/08/23 19:59:45","新北市新店區復興路36號","121.539015","24.9868083333333","6500600","新店區"
"231060","106-UY","2019/08/23 19:59:34","新北市新店區安康路二段416號","121.496495","24.955235","6500600","新店區"
"231051","107-UY","2019/08/23 19:59:35","新北市新店區中央二街3號","121.529245","24.97306","6500600","新店區"
"231049","108-UY","2019/08/23 19:59:40","新北市新店區建國路219號","121.537726666667","24.981035","6500600","新店區"
"231065","110-UY","2019/08/23 19:59:39","新北市新店區安祥路106巷10號","121.478771666667","24.9626033333333","6500600","新店區"
"231068","187-VK","2019/08/23 19:59:31","新北市新店區安一路一段1-1號","121.519678333333","24.9611083333333","6500600","新店區"
"221035","KEA-2785","2019/08/23 19:59:47","新北市汐止區長江街11號","121.65472","25.0711933333333","6501100","汐止區"
"231062","256-BX","2019/08/23 19:59:38","新北市新店區華城路36巷1號","121.527933333333","24.95534","6500600","新店區"
"231054","260-TV","2019/08/23 19:59:39","新北市新店區光明街204號","121.539795","24.9626","6500600","新店區"
"231042","268-BY","2019/08/23 19:59:47","新北市新店區中興路一段286號","121.545853333333","24.968975","6500600","新店區"
"231064","278-BY","2019/08/23 19:59:40","新北市新店區安光路10-1號","121.513825","24.9641366666667","6500600","新店區"
"231050","AAD-862","2019/08/23 19:59:32","新北市新店區北宜路二段210號","121.5594","24.9543766666667","6500600","新店區"
"231045","355-BY","2019/08/23 19:59:45","新北市新店區北宜路二段419-2號","121.56037","24.9544233333333","6500600","新店區"
"231055","4716-K9","2019/08/23 19:59:47","新北市新店區力行路14巷8號","121.53935","24.9649766666667","6500600","新店區"
"231056","4715-K9","2019/08/23 19:59:37","新北市新店區北新路二段59巷5號","121.542273333333","24.973025","6500600","新店區"
"231067","4772-VM","2019/08/23 19:59:38","新北市新店區秀山路11巷18弄1號","121.531693333333","24.9590066666667","6500600","新店區"
"231053","513-UM","2019/08/23 19:59:29","新北市新店區新烏路三段225號","121.547311666667","24.8966666666667","6500600","新店區"
"231063","616-UM","2019/08/23 19:59:45","新北市新店區黎明路9號","121.502515","24.9502916666667","6500600","新店區"
"231040","617-UM","2019/08/23 19:59:47","新北市新店區中正路75巷71號","121.54319","24.9689233333333","6500600","新店區"
"231041","619-UM","2019/08/23 19:59:37","新北市新店區中央路13號","121.533445","24.9784116666667","6500600","新店區"
"231048","KED-0819","2019/08/23 19:59:41","新北市新店區寶宏路3-3號","121.549233333333","24.9766466666667","6500600","新店區"
"231057","720-UM","2019/08/23 19:59:46","新北市新店區花園二路一段11號","121.555486666667","24.9325233333333","6500600","新店區"
"231059","897-TW","2019/08/23 19:59:40","新北市新店區安和路一段15號","121.516866666667","24.9640666666667","6500600","新店區"
"231043","899-TW","2019/08/23 19:59:35","新北市新店區中正路263-2號","121.538443333333","24.9738083333333","6500600","新店區"
"231066","AKT-0513","2019/08/23 19:59:41","新北市新店區安康路二段341巷5號","121.496968333333","24.9549183333333","6500600","新店區"
"241011","013-R5","2019/08/23 19:59:40","新北市三重區三和路二段165號","121.49797","25.06962","6500200","三重區"
"241028","022-UY","2019/08/23 19:59:40","新北市三重區中正南路108號","121.494353333333","25.058445","6500200","三重區"
"241008","059-VK","2019/08/23 19:59:38","新北市三重區永福街197巷39號","121.478158333333","25.0744933333333","6500200","三重區"
"241031","061-VK","2019/08/23 19:59:45","新北市三重區重新路四段144巷2號","121.487108333333","25.0559633333333","6500200","三重區"
"241015","062-VK","2019/08/23 19:59:32","新北市三重區三和路二段17-1號","121.501213333333","25.0669216666667","6500200","三重區"
"241017","063-VK","2019/08/23 19:59:35","新北市三重區重陽路三段115號","121.4908","25.0687566666667","6500200","三重區"
"241024","065-VK","2019/08/23 19:59:43","新北市三重區力行路二段2號","121.48182","25.0718983333333","6500200","三重區"
"241002","090-VK","2019/08/23 19:59:31","新北市三重區仁愛街265號","121.492915","25.0786116666667","6500200","三重區"
"241003","091-VK","2019/08/23 19:59:46","新北市三重區五華街122巷1號","121.49164","25.083195","6500200","三重區"
"241007","742-BX","2019/08/23 19:59:41","新北市三重區慈愛街90號","121.488613333333","25.0800266666667","6500200","三重區"
"241006","262-UM","2019/08/23 19:59:38","新北市三重區力行路二段91巷22號","121.483528333333","25.0759633333333","6500200","三重區"
"241009","267-UM","2019/08/23 19:59:45","新北市三重區三和路四段388-2號","121.481881666667","25.0790116666667","6500200","三重區"
"241018","268-UM","2019/08/23 19:59:38","新北市三重區雙園街57巷9號","121.495001666667","25.0678833333333","6500200","三重區"
"241032","269-UM","2019/08/23 19:59:47","新北市三重區朝陽街4巷2號","121.483685","25.0561666666667","6500200","三重區"
"241013","270-UM","2019/08/23 19:59:32","新北市三重區三和路三段121號","121.492825","25.0732833333333","6500200","三重區"
"241025","271-UM","2019/08/23 19:59:35","新北市三重區頂崁街210巷16號","121.476386666667","25.0676416666667","6500200","三重區"
"241030","KED-0822","2019/08/23 19:59:28","新北市三重區重新路四段248-1號","121.486146666667","25.0533616666667","6500200","三重區"
"241035","462-BY","2019/08/23 19:59:40","新北市三重區大榮街7號","121.498221666667","25.0630866666667","6500200","三重區"
"241004","475-VK","2019/08/23 19:59:41","新北市三重區五華街74號","121.49345","25.0820116666667","6500200","三重區"
"241020","478-VK","2019/08/23 19:59:43","新北市三重區忠孝路一段101號","121.489498333333","25.072165","6500200","三重區"
"241014","543-UM","2019/08/23 19:59:35","新北市三重區三和路二段93號","121.499568333333","25.0684516666667","6500200","三重區"
"241023","545-UM","2019/08/23 19:59:32","新北市三重區頂崁街172號","121.477631666667","25.06596","6500200","三重區"
"241001","547-UM","2019/08/23 19:59:46","新北市三重區福隆路10號","121.49012","25.077305","6500200","三重區"
"241019","KEA-2593","2019/08/23 19:59:39","新北市三重區自強路二段20-1號","121.489683333333","25.0692366666667","6500200","三重區"
"241005","AAD-863","2019/08/23 19:59:29","新北市三重區碧華街296-1號","121.489605","25.083465","6500200","三重區"
"241026","743-BX","2019/08/23 19:59:39","新北市三重區福德南路15-1號","121.502685","25.0631133333333","6500200","三重區"
"241016","887-TS","2019/08/23 19:59:29","新北市三重區正義北路36巷17號","121.496638333333","25.063375","6500200","三重區"
"241012","941-UM","2019/08/23 19:59:48","新北市三重區仁興街54號","121.498916666667","25.0759283333333","6500200","三重區"
"241029","942-UM","2019/08/23 19:59:28","新北市三重區重新路三段198號","121.490175","25.0588116666667","6500200","三重區"
"241033","AAC-255","2019/08/23 19:59:34","新北市三重區中興北街20號","121.469618333333","25.0484466666667","6500200","三重區"
"235056","096-UM","2019/08/23 19:59:41","新北市中和區員山路570號","121.478786666667","25.0110866666667","6500300","中和區"
"235039","097-UM","2019/08/23 19:59:44","新北市中和區大勇街25巷37號","121.515073333333","24.994365","6500300","中和區"
"235065","098-UM","2019/08/23 19:59:39","新北市中和區福美路269號","121.49818","25.0050583333333","6500300","中和區"
"235040","150-BY","2019/08/23 19:59:31","新北市中和區景新街137號","121.506231666667","24.9971783333333","6500300","中和區"
"235055","183-VK","2019/08/23 19:59:29","新北市板橋區民生路一段8號","121.478496666667","25.0112766666667","6500300","中和區"
"235044","293-VK","2019/08/23 19:59:37","新北市中和區復興路73號","121.503658333333","24.9901866666667","6500300","中和區"
"247014","KEA-2869","2019/08/23 19:59:30","新北市蘆洲區成功路133號","121.472355","25.08228","6501400","蘆洲區"
"247008","KED-0682","2019/08/23 19:59:45","新北市蘆洲區中山一路95巷22弄1號","121.477571666667","25.0801916666667","6501400","蘆洲區"
"235050","4979-A6","2019/08/23 19:59:29","新北市中和區景平路239巷33弄10號","121.509201666667","24.9923316666667","6500300","中和區"
"235070","558-UM","2019/08/23 19:59:40","新北市中和區中正路436號","121.491135","24.994195","6500300","中和區"
"235046","733-UM","2019/08/23 19:59:27","新北市中和區興南路一段105巷20弄9號","121.510311666667","24.9854566666667","6500300","中和區"
"235048","896-TW","2019/08/23 19:59:36","新北市中和區景新街555號","121.515258333333","24.9864616666667","6500300","中和區"
"235066","911-UM","2019/08/23 19:59:39","新北市中和區中山路二段25巷20號","121.505753333333","25.00538","6500300","中和區"
"235051","157-BY","2019/08/23 19:59:36","新北市中和區景安路221號","121.504293333333","24.9913666666667","6500300","中和區"
"235037","AAC-213","2019/08/23 19:59:32","新北市中和區自強路52號","121.520173333333","24.9948266666667","6500300","中和區"
"235059","AAC-215","2019/08/23 19:59:46","新北市中和區圓通路252巷18弄1號","121.492441666667","24.9926283333333","6500300","中和區"
"220065","072-UY","2019/08/23 19:59:47","新北市板橋區民族路87號","121.46614","25.0083566666667","6500100","板橋區"
"220086","073-UY","2019/08/23 19:59:37","新北市板橋區中正路48號","121.456461666667","25.0141733333333","6500100","板橋區"
"220106","075-UY","2019/08/23 19:59:30","新北市板橋區懷德街76巷9號","121.477673333333","25.0317133333333","6500100","板橋區"
"220069","AAD-861","2019/08/23 19:59:34","新北市板橋區大明街20巷19弄1號","121.458406666667","25.0032516666667","6500100","板橋區"
"220068","120-SR","2019/08/23 19:59:38","新北市板橋區中山路二段398號","121.482661666667","25.0207183333333","6500100","板橋區"
"247004","893-R6","2019/08/23 19:59:29","新北市蘆洲區長安街267巷7弄2號","121.458115","25.0835583333333","6501400","蘆洲區"
"247018","546-UM","2019/08/23 19:59:43","新北市蘆洲區民族路290巷13號","121.478565","25.0899216666667","6501400","蘆洲區"
"247002","500-BY","2019/08/23 19:59:31","新北市蘆洲區長安街272號","121.457393333333","25.0869783333333","6501400","蘆洲區"
"247012","056-VK","2019/08/23 19:59:41","新北市蘆洲區民族路149號","121.479565","25.0878816666667","6501400","蘆洲區"
"247016","053-VK","2019/08/23 19:59:09","新北市蘆洲區光華路28號","121.469441666667","25.0832816666667","6501400","蘆洲區"
"247020","007-UY","2019/08/23 19:59:40","新北市蘆洲區民義街62號","121.472853333333","25.0897166666667","6501400","蘆洲區"
"247006","002-UY","2019/08/23 19:59:43","新北市蘆洲區九芎街115號","121.465545","25.0795133333333","6501400","蘆洲區"
"247024","001-UY","2019/08/23 19:59:25","新北市蘆洲區光復路82號","121.46462","25.08571","6501400","蘆洲區"
"226004","312-R5","2019/08/23 19:59:38","新北市平溪區靜安路三段238號","121.775828333333","25.0398883333333","6502400","平溪區"
"228003","828-UM","2019/08/23 19:59:33","新北市貢寮區仁理村仁和路11號","121.9231","25.0516516666667","6502600","貢寮區"
"224002","639-TC","2019/08/23 19:59:30","新北市瑞芳區員山子路員山巷1號","121.816835","25.103565","6501200","瑞芳區"
"227002","642-TC","2019/08/23 19:59:45","新北市雙溪區雙溪里太平路79號","121.865305","25.0361083333333","6502500","雙溪區"
"208002","KEA-2872","2019/08/23 19:59:45","新北市金山區環金路462號","121.630071666667","25.2246616666667","6502700","金山區"
"208003","665-BX","2019/08/23 19:59:34","新北市金山區永興里忠義路29-1號","121.63073","25.2631366666667","6502700","金山區"
"251009","008-UM","2019/08/23 19:59:41","新北市淡水區英專路21巷21號","121.444843333333","25.1697616666667","6501000","淡水區"
"251004","009-UM","2019/08/23 19:59:28","新北市淡水區民權路177巷9號","121.46068","25.1353883333333","6501000","淡水區"
"251001","011-UM","2019/08/23 19:59:32","新北市淡水區北投子14-6號","121.447298333333","25.1851716666667","6501000","淡水區"
"251008","181-VK","2019/08/23 19:59:32","新北市淡水區淡海路57號","121.422836666667","25.1807766666667","6501000","淡水區"
"243011","549-UM","2019/08/23 19:59:46","新北市泰山區工專路63號","121.42238","25.0404733333333","6501600","泰山區"
"251012","441-VK","2019/08/23 19:59:39","新北市淡水區下圭柔山91巷6號","121.437863333333","25.210625","6501000","淡水區"
"251005","443-VK","2019/08/23 19:59:40","新北市淡水區學府路136巷37號","121.451776666667","25.17271","6501000","淡水區"
"251006","561-UM","2019/08/23 19:59:35","新北市淡水區水碓街39號","121.443996666667","25.1773033333333","6501000","淡水區"
"251011","650-BX","2019/08/23 19:59:38","新北市淡水區淡金路二段509號","121.447053333333","25.1897783333333","6501000","淡水區"
"251002","672-BX","2019/08/23 19:59:30","新北市淡水區新市一路一段6號","121.428983333333","25.18737","6501000","淡水區"
"207003","550-UM","2019/08/23 19:59:33","新北市萬里區大鵬里萬里加投45-1號","121.641785","25.21112","6502800","萬里區"
"207004","291-VK","2019/08/23 19:59:34","新北市萬里區北基里忠二街35號","121.685633333333","25.1757333333333","6502800","萬里區"
"252002","178-VK","2019/08/23 19:59:31","新北市三芝區三民街39巷5號","121.505368333333","25.25762","6502100","三芝區"
"237004","KEA-2597","2019/08/23 19:59:26","新北市三峽區添福2號","121.371825","24.9062916666667","6500900","三峽區"
"237007","153-BY","2019/08/23 19:59:42","新北市三峽區麻園43號","121.363768333333","24.921205","6500900","三峽區"
"237009","210-TH","2019/08/23 19:59:33","新北市三峽區民族街28巷7號","121.368895","24.9307683333333","6500900","三峽區"
"237012","275-BY","2019/08/23 19:59:38","新北市三峽區中華路74號","121.371618333333","24.92955","6500900","三峽區"
"237008","302-VK","2019/08/23 19:59:30","新北市三峽區中正路一段174巷9號","121.371896666667","24.9288666666667","6500900","三峽區"
"237014","433-BY","2019/08/23 19:59:43","新北市三峽區添福29-2號","121.373066666667","24.9035683333333","6500900","三峽區"
"237006","5529-G3","2019/08/23 19:59:37","新北市三峽區中正路二段168號","121.366036666667","24.91555","6500900","三峽區"
"237005","AKY-6261","2019/08/23 19:59:40","新北市三峽區民生街1巷26-1號","121.379418333333","24.93444","6500900","三峽區"
"236042","KED-0685","2019/08/23 19:59:36","新北市土城區學府路一段98巷16號","121.45578","24.9886316666667","6501300","土城區"
"236079","166-UM","2019/08/23 19:59:30","新北市土城區三民路43號","121.420046666667","24.9638583333333","6501300","土城區"
"236030","253-BX","2019/08/23 19:59:34","新北市土城區中央路一段250巷1號","121.444108333333","24.9846133333333","6501300","土城區"
"236026","269-VK","2019/08/23 19:59:39","新北市土城區中央路二段94號","121.442251666667","24.9785616666667","6501300","土城區"
"236014","270-VK","2019/08/23 19:59:36","新北市土城區廣福街123號","121.456235","24.9928366666667","6501300","土城區"
"236039","271-VK","2019/08/23 19:59:41","新北市土城區國際路86號","121.46706","24.9760133333333","6501300","土城區"
"247010","KED-0683","2019/08/23 19:59:43","新北市三重區集賢路188號","121.48381","25.0879916666667","6501400","蘆洲區"
"236069","KEA-2877","2019/08/23 19:59:36","新北市土城區忠義路55巷75號","121.442313333333","24.9657516666667","6501300","土城區"
"252001","KED-0821","2019/08/23 19:59:31","新北市三芝區公正街66號","121.499853333333","25.2574916666667","6502100","三芝區"
"236020","401-BY","2019/08/23 19:59:29","新北市土城區延吉街62號","121.471406666667","24.9867983333333","6501300","土城區"
"236059","912-UM","2019/08/23 19:59:40","新北市土城區中央路二段63號","121.442516666667","24.9790266666667","6501300","土城區"
"236048","913-UM","2019/08/23 19:59:35","新北市土城區金城路三段315號","121.475205","24.9912183333333","6501300","土城區"
"236063","915-UM","2019/08/23 19:59:40","新北市土城區金城路三段33巷8-1號","121.465378333333","24.9870883333333","6501300","土城區"
"236055","AAC-216","2019/08/23 19:59:37","新北市土城區學府路一段8號","121.459468333333","24.988475","6501300","土城區"
"242039","AAC-296","2019/08/23 19:59:47","新北市新莊區民安路293號","121.429018333333","25.02289","6500500","新莊區"
"242060","986-R7","2019/08/23 19:59:41","新北市新莊區瓊泰路3號","121.444931666667","25.0286","6500500","新莊區"
"242002","751-BX","2019/08/23 19:59:32","新北市新莊區中正路170號","121.45093","25.0359083333333","6500500","新莊區"
"242029","615-BX","2019/08/23 19:59:40","新北市新莊區中榮街152巷47號","121.445528333333","25.05371","6500500","新莊區"
"242058","612-BX","2019/08/23 19:59:34","新北市新莊區八德街97號","121.42433","25.0213633333333","6500500","新莊區"
"242050","497-BY","2019/08/23 19:59:44","新北市新莊區西盛街131號","121.42829","25.01865","6500500","新莊區"
"242056","442-UM","2019/08/23 19:59:42","新北市新莊區中正路347巷19號","121.44719","25.0341866666667","6500500","新莊區"
"242048","441-UM","2019/08/23 19:59:41","新北市新莊區民安路230號","121.426178333333","25.02239","6500500","新莊區"
"242005","440-UM","2019/08/23 19:59:40","新北市新莊區化成路352巷29號","121.467145","25.0492533333333","6500500","新莊區"
"242011","413-TV","2019/08/23 19:59:37","新北市新莊區中港路531巷58號","121.45004","25.051735","6500500","新莊區"
"242025","362-BY","2019/08/23 19:59:38","新北市新莊區五工一路91號","121.461016666667","25.0676833333333","6500500","新莊區"
"242023","353-BY","2019/08/23 19:59:27","新北市新莊區化成路386號","121.465878333333","25.0502166666667","6500500","新莊區"
"242013","132-UY","2019/08/23 19:59:31","新北市新莊區中港路376號","121.452335","25.0474816666667","6500500","新莊區"
"242037","135-UY","2019/08/23 19:59:44","新北市新莊區建安街25巷10號","121.429433333333","25.0261016666667","6500500","新莊區"
"242054","172-VK","2019/08/23 19:59:43","新北市新莊區西盛街418號","121.427216666667","25.0121666666667","6500500","新莊區"
"242015","173-VK","2019/08/23 19:59:34","新北市新莊區復興路一段47巷12號","121.446843333333","25.04278","6500500","新莊區"
"242021","175-VK","2019/08/23 19:59:46","新北市新莊區建中街32巷18號","121.448743333333","25.0382533333333","6500500","新莊區"
"242019","346-TH","2019/08/23 19:59:41","新北市新莊區明智街2號","121.454771666667","25.0415033333333","6500500","新莊區"
"242034","347-TH","2019/08/23 19:59:40","新北市新莊區建中街94號","121.446736666667","25.0366","6500500","新莊區"
"242032","348-TH","2019/08/23 19:59:29","新北市新莊區忠孝街18號","121.444008333333","25.0350116666667","6500500","新莊區"
"242007","349-TH","2019/08/23 19:59:42","新北市新莊區思源路686號","121.459723333333","25.0581533333333","6500500","新莊區"
"242017","351-TH","2019/08/23 19:59:43","新北市新莊區中華路二段3巷11號","121.453341666667","25.04572","6500500","新莊區"
"238021","KEA-2539","2019/08/23 19:59:36","新北市樹林區佳園路一段77號","121.39329","24.969955","6500700","樹林區"
"238017","283-BY","2019/08/23 19:59:39","新北市樹林區保安街二段45巷15號","121.415316666667","24.9999833333333","6500700","樹林區"
"239006","891-R6","2019/08/23 19:59:28","新北市鶯歌區文化路215號","121.354606666667","24.95346","6500800","鶯歌區"
"239002","359-BY","2019/08/23 19:59:32","新北市鶯歌區大湖路94號","121.34257","24.9630633333333","6500800","鶯歌區"
"221008","489-VK","2019/08/23 19:59:47","新北市汐止區康寧街141巷39弄6號","121.621025","25.0675233333333","6501100","汐止區"
"221010","269-BY","2019/08/23 19:59:40","新北市汐止區八連路一段11號","121.648456666667","25.0805383333333","6501100","汐止區"
"221012","278-VK","2019/08/23 19:59:32","新北市汐止區保長路271巷2號","121.680973333333","25.0743066666667","6501100","汐止區"
"221023","279-VK","2019/08/23 19:59:33","新北市汐止區民族六街3巷2號","121.629575","25.0701833333333","6501100","汐止區"
"221027","281-BY","2019/08/23 19:59:28","新北市汐止區中正路97號","121.661065","25.0694216666667","6501100","汐止區"
"221029","298-VK","2019/08/23 19:59:46","新北市汐止區樟樹一路137巷24號","121.641068333333","25.0660033333333","6501100","汐止區"
"221021","299-VK","2019/08/23 19:59:46","新北市汐止區水源路一段157號","121.655575","25.0620216666667","6501100","汐止區"
"221031","353-TW","2019/08/23 19:59:35","新北市汐止區福德一路176巷9弄7號","121.634681666667","25.0665383333333","6501100","汐止區"
"221025","623-UM","2019/08/23 19:59:40","新北市汐止區仁愛路77巷2弄4號","121.661245","25.0634283333333","6501100","汐止區"
"221038","646-BX","2019/08/23 19:59:46","新北市汐止區忠孝東路526號","121.667095","25.0760516666667","6501100","汐止區"
"221033","647-BX","2019/08/23 19:59:39","新北市汐止區東勢街190巷5號","121.6339","25.0415933333333","6501100","汐止區"
"220079","145-BY","2019/08/23 19:59:35","新北市板橋區復興街27號","121.458015","25.01754","6500100","板橋區"
"220082","610-BX","2019/08/23 19:59:39","新北市板橋區存德街11號","121.429975","24.9918966666667","6500100","板橋區"
"220091","267-BY","2019/08/23 19:59:42","新北市板橋區文聖街89巷21號","121.478255","25.030405","6500100","板橋區"
"220056","276-BY","2019/08/23 19:59:48","新北市板橋區四川路二段60號","121.45259","24.9948316666667","6500100","板橋區"
"220072","277-BY","2019/08/23 19:59:32","新北市板橋區金門街255號","121.431855","24.988865","6500100","板橋區"
"220101","280-UM","2019/08/23 19:59:37","新北市板橋區雙十路二段47巷2弄31號","121.475043333333","25.0267916666667","6500100","板橋區"
"220071","283-VK","2019/08/23 19:59:27","新北市板橋區五權街30巷24弄5號","121.463721666667","24.9932316666667","6500100","板橋區"
"220094","285-UM","2019/08/23 19:59:31","新北市板橋區文化路一段184號","121.465828333333","25.0196133333333","6500100","板橋區"
"220053","285-VK","2019/08/23 19:59:41","新北市板橋區懷仁街89號","121.477501666667","25.018245","6500100","板橋區"
"220083","286-VK","2019/08/23 19:59:31","新北市板橋區僑中二街10巷37號","121.44545","25.0110816666667","6500100","板橋區"
"220081","287-VK","2019/08/23 19:59:34","新北市板橋區大觀路一段28巷107-1號","121.449915","25.0122116666667","6500100","板橋區"
"220090","288-VK","2019/08/23 19:59:47","新北市板橋區新海路72巷5弄36號","121.461581666667","25.023125","6500100","板橋區"
"220061","293-UM","2019/08/23 19:59:40","新北市板橋區觀光街4巷2弄2-3號","121.47233","25.0157833333333","6500100","板橋區"
"220084","296-UM","2019/08/23 19:59:29","新北市板橋區滿平街2巷10號","121.425208333333","24.98943","6500100","板橋區"
"220075","303-R5","2019/08/23 19:59:35","新北市板橋區金華街10巷50號","121.457015","25.0201083333333","6500100","板橋區"
"220062","305-R5","2019/08/23 19:59:39","新北市板橋區中山路二段361號","121.479721666667","25.0190133333333","6500100","板橋區"
"220092","307-R5","2019/08/23 19:59:35","新北市板橋區民權路174號","121.459631666667","25.0133033333333","6500100","板橋區"
"220098","317-R6","2019/08/23 19:59:43","新北市板橋區新海路385巷32號","121.45753","25.0254166666667","6500100","板橋區"
"220089","487-VK","2019/08/23 19:59:29","新北市板橋區四維路306號","121.462555","25.0296783333333","6500100","板橋區"
"220088","491-VK","2019/08/23 19:59:29","新北市板橋區民治街92號","121.479216666667","25.0318133333333","6500100","板橋區"
"220103","561-BX","2019/08/23 19:59:32","新北市板橋區漢生東路33巷42號","121.466115","25.0177066666667","6500100","板橋區"
"220080","568-UM","2019/08/23 19:59:34","新北市板橋區大觀路二段109巷1號","121.447353333333","25.0012533333333","6500100","板橋區"
"220063","609-BX","2019/08/23 19:59:42","新北市板橋區中山路二段78號","121.474561666667","25.0160566666667","6500100","板橋區"
"220035","630-UY","2019/08/23 19:59:39","新北市板橋區金華街120號","121.459126666667","25.0208383333333","6500100","板橋區"
"220077","687-BX","2019/08/23 19:59:16","新北市板橋區僑中一街98號","121.446803333333","25.0116133333333","6500100","板橋區"
"220093","689-BX","2019/08/23 19:59:35","新北市板橋區長江路二段43號","121.464286666667","25.0312516666667","6500100","板橋區"
"220054","741-BX","2019/08/23 19:59:26","新北市板橋區忠孝路忠義巷15弄38號","121.46573","25.0044633333333","6500100","板橋區"
"220102","KEA-2699","2019/08/23 19:59:38","新北市板橋區莒光路64號","121.471038333333","25.0240466666667","6500100","板橋區"
"220055","827-TW","2019/08/23 19:59:37","新北市板橋區國慶路149巷4弄18-3號","121.461923333333","24.9969983333333","6500100","板橋區"
"220067","829-TW","2019/08/23 19:59:43","新北市板橋區中山路一段272巷18-1號","121.469181666667","25.01352","6500100","板橋區"
"220074","895-R6","2019/08/23 19:59:33","新北市板橋區縣民大道二段1號","121.461703333333","25.0116966666667","6500100","板橋區"
"220073","985-R7","2019/08/23 19:59:37","新北市板橋區南雅西路二段104號","121.45225","25.0118416666667","6500100","板橋區"
"220097","AAC-210","2019/08/23 19:59:43","新北市板橋區復興街139號","121.461203333333","25.018145","6500100","板橋區"
"220064","AAC-253","2019/08/23 19:59:45","新北市板橋區民族路155號","121.468183333333","25.0078883333333","6500100","板橋區"
"235068","KEA-2873","2019/08/23 19:59:32","新北市中和區永和路39巷10號","121.497568333333","25.005045","6500300","中和區"
