"lineid","car","time","location","longitude","latitude","cityid","cityname"
"234046","148-BY","2019/08/23 20:09:35","新北市永和區秀朗路二段259號","121.526415","24.9991033333333","6500400","永和區"
"234081","298-R6","2019/08/23 20:09:44","新北市永和區永亨路119號","121.523763333333","25.004525","6500400","永和區"
"234038","336-UY","2019/08/23 20:09:42","新北市永和區成功路一段45號","121.527073333333","25.0041416666667","6500400","永和區"
"234064","337-UY","2019/08/23 20:09:35","新北市永和區秀朗路二段43號","121.521566666667","25.00246","6500400","永和區"
"234086","338-UY","2019/08/23 20:09:42","新北市永和區福和路175號","121.51992","25.0076616666667","6500400","永和區"
"234070","552-UM","2019/08/23 20:09:47","新北市永和區永貞路10巷14號","121.52018","25.007305","6500400","永和區"
"234017","745-BX","2019/08/23 20:09:40","新北市永和區文化路116號","121.513278333333","25.0153","6500400","永和區"
"234030","746-BX","2019/08/23 20:09:27","新北市永和區民族街67巷25號","121.519311666667","24.9971616666667","6500400","永和區"
"234054","KEA-2590","2019/08/23 20:09:31","新北市永和區永和路二段334號","121.51633","25.016585","6500400","永和區"
"234007","KED-0605","2019/08/23 20:09:39","新北市永和區環河西路二段217巷3號","121.501551666667","25.010005","6500400","永和區"
"234013","KEA-2591","2019/08/23 20:09:41","新北市永和區永貞路387號","121.50801","25.0087833333333","6500400","永和區"
"234061","AAD-866","2019/08/23 20:09:28","新北市永和區中正路151巷1-1號","121.516366666667","24.99825","6500400","永和區"
"234042","862-TW","2019/08/23 20:09:37","新北市永和區雙和街43號","121.508895","25.0028366666667","6500400","永和區"
"234050","863-TW","2019/08/23 20:09:37","新北市永和區環河西路二段39號","121.507335","25.015625","6500400","永和區"
"234011","9373-KE","2019/08/23 20:09:45","新北市永和區保生路55-1號","121.504538333333","25.010905","6500400","永和區"
"249005","172-UM","2019/08/23 20:09:30","新北市八里區下罟子57-8號","121.3877","25.1385333333333","6502300","八里區"
"249001","173-UM","2019/08/23 20:09:31","新北市八里區中華路二段320號","121.403421666667","25.148135","6502300","八里區"
"249004","303-UY","2019/08/23 20:09:30","新北市八里區中山路一段189巷3號","121.411845","25.1582066666667","6502300","八里區"
"249002","305-UY","2019/08/23 20:09:30","新北市五股區成泰路四段40號","121.455663333333","25.10988","6502300","八里區"
"249003","593-UM","2019/08/23 20:09:43","新北市八里區中山路二段540巷9弄17號","121.396626666667","25.1467283333333","6502300","八里區"
"248016","026-BX","2019/08/23 20:09:47","新北市五股區成泰路三段577巷80弄72號","121.448941666667","25.10482","6501500","五股區"
"248008","KED-0815","2019/08/23 20:09:41","新北市五股區中興路一段3號","121.469716666667","25.0722366666667","6501500","五股區"
"248018","KED-0813","2019/08/23 20:09:28","新北市五股區登林路83-1號","121.425431666667","25.0704733333333","6501500","五股區"
"248012","247-BX","2019/08/23 20:09:30","新北市五股區六合街70號","121.431866666667","25.090095","6501500","五股區"
"248010","272-BY","2019/08/23 20:09:33","新北市五股區成泰路一段7巷40號","121.432531666667","25.067135","6501500","五股區"
"248004","677-BX","2019/08/23 20:09:32","新北市五股區成泰路一段194-1號","121.435516666667","25.0777216666667","6501500","五股區"
"248002","678-BX","2019/08/23 20:09:43","新北市五股區成泰路三段369-1號","121.448821666667","25.0960483333333","6501500","五股區"
"234023","9380-KE","2019/08/23 20:09:40","新北市永和區中正路662巷8號","121.517418333333","25.0087333333333","6500400","永和區"
"234077","969-R7","2019/08/23 20:09:45","新北市永和區民光街2號","121.515243333333","24.9963883333333","6500400","永和區"
"234074","AAC-211","2019/08/23 20:09:41","新北市永和區豫溪街136巷1號","121.521236666667","25.0103833333333","6500400","永和區"
"234067","AAC-212","2019/08/23 20:09:27","新北市永和區保平路236巷15弄1號","121.508543333333","25.0062616666667","6500400","永和區"
"234003","AAC-295","2019/08/23 20:09:36","新北市永和區中正路620號","121.51699","25.007885","6500400","永和區"
"243012","AAD-798","2019/08/23 20:09:28","新北市泰山區楓江路22號","121.434053333333","25.0624033333333","6501600","泰山區"
"243010","297-R6","2019/08/23 20:09:33","新北市泰山區明志路二段136巷21弄6號","121.425956666667","25.0518716666667","6501600","泰山區"
"243014","KEA-2801","2019/08/23 20:09:43","新北市泰山區明志路一段16號","121.433581666667","25.0658216666667","6501600","泰山區"
"243016","421-VK","2019/08/23 20:09:31","新北市泰山區明志路三段409號","121.421275","25.0340016666667","6501600","泰山區"
"243009","KEA-2215","2019/08/23 20:09:34","新北市泰山區泰林路二段116巷3弄2號","121.43522","25.0595916666667","6501600","泰山區"
"243015","680-BX","2019/08/23 20:09:31","新北市泰山區明志路二段52號","121.429195","25.0528016666667","6501600","泰山區"
"222003","436-BY","2019/08/23 20:09:44","新北市深坑區埔新街80號","121.619543333333","25.0023833333333","6501800","深坑區"
"222001","628-TS","2019/08/23 20:09:33","新北市深坑區北深路三段191號","121.601248333333","25.0037216666667","6501800","深坑區"
"222002","659-BX","2019/08/23 20:09:39","新北市深坑區北深路三段192巷9號","121.601903333333","25.0041783333333","6501800","深坑區"
"231061","002-UM","2019/08/23 20:09:31","新北市新店區安興路43號","121.516511666667","24.97147","6500600","新店區"
"231044","046-UY","2019/08/23 20:09:45","新北市新店區寶慶街66號","121.54198","24.9868283333333","6500600","新店區"
"231060","106-UY","2019/08/23 20:09:34","新北市新店區安康路三段356號","121.48601","24.9516616666667","6500600","新店區"
"231051","107-UY","2019/08/23 20:09:35","新北市新店區中央路155號","121.529796666667","24.9728116666667","6500600","新店區"
"231049","108-UY","2019/08/23 20:09:40","新北市新店區北新路二段139巷12弄20號","121.542163333333","24.9760616666667","6500600","新店區"
"231065","110-UY","2019/08/23 20:09:39","新北市新店區安祥路106巷159號","121.473576666667","24.9591583333333","6500600","新店區"
"231068","187-VK","2019/08/23 20:09:31","新北市新店區中興路二段188號","121.548231666667","24.97291","6500600","新店區"
"221035","KEA-2785","2019/08/23 20:09:27","新北市汐止區長江街39巷10號","121.655506666667","25.0717983333333","6501100","汐止區"
"231062","256-BX","2019/08/23 20:09:38","新北市新店區安康路二段121-1號","121.512481666667","24.9613866666667","6500600","新店區"
"231054","260-TV","2019/08/23 20:09:44","新北市新店區檳榔路37號","121.54257","24.9634983333333","6500600","新店區"
"231042","268-BY","2019/08/23 20:09:47","新北市新店區中興路二段89號","121.5471","24.97148","6500600","新店區"
"231064","278-BY","2019/08/23 20:09:40","新北市新店區安德街8號","121.512026666667","24.9628016666667","6500600","新店區"
"231050","AAD-862","2019/08/23 20:09:32","新北市新店區北新路一段90號","121.541861666667","24.968515","6500600","新店區"
"231045","355-BY","2019/08/23 20:09:45","新北市新店區北宜路二段39-1號","121.548758333333","24.95142","6500600","新店區"
"231055","4716-K9","2019/08/23 20:09:47","新北市新店區中華路48巷27號","121.541035","24.9694766666667","6500600","新店區"
"231056","4715-K9","2019/08/23 20:09:36","新北市新店區中正路328巷4號","121.537146666667","24.97517","6500600","新店區"
"231067","4772-VM","2019/08/23 20:09:38","新北市新店區溪洲路6巷5號","121.533985","24.9614216666667","6500600","新店區"
"231053","513-UM","2019/08/23 20:09:29","新北市新店區新烏路三段寶島巷2弄3號","121.552006666667","24.8986383333333","6500600","新店區"
"231063","616-UM","2019/08/23 20:09:36","新北市新店區黎明路52巷9號","121.502001666667","24.9487916666667","6500600","新店區"
"231040","617-UM","2019/08/23 20:09:47","新北市新店區中正路45號","121.54478","24.9698416666667","6500600","新店區"
"231041","619-UM","2019/08/23 20:09:37","新北市新店區中正路460號","121.533956666667","24.9793433333333","6500600","新店區"
"231048","KED-0819","2019/08/23 20:09:41","新北市新店區寶橋路69-1號","121.545431666667","24.97493","6500600","新店區"
"231057","720-UM","2019/08/23 20:09:46","新北市新店區百齡一路12號","121.553041666667","24.932485","6500600","新店區"
"231059","897-TW","2019/08/23 20:09:40","新北市新店區安德街80號","121.510108333333","24.961535","6500600","新店區"
"231043","899-TW","2019/08/23 20:09:35","新北市新店區民族路172號","121.537168333333","24.97647","6500600","新店區"
"231066","AKT-0513","2019/08/23 20:09:41","新北市新店區安興路20號","121.515085","24.9660216666667","6500600","新店區"
"241011","013-R5","2019/08/23 20:09:40","新北市三重區三和路三段47巷15號","121.496106666667","25.0717166666667","6500200","三重區"
"241028","022-UY","2019/08/23 20:09:40","新北市三重區大同南路174號","121.496655","25.0572166666667","6500200","三重區"
"241008","059-VK","2019/08/23 20:09:38","新北市三重區永福街197巷6號","121.479073333333","25.0745433333333","6500200","三重區"
"241031","061-VK","2019/08/23 20:09:45","新北市三重區過圳街9-1號","121.488726666667","25.0601633333333","6500200","三重區"
"241015","062-VK","2019/08/23 20:09:32","新北市三重區福德北路45號","121.502306666667","25.0649766666667","6500200","三重區"
"241017","063-VK","2019/08/23 20:09:35","新北市三重區自強路一段236號","121.493138333333","25.0670533333333","6500200","三重區"
"241024","065-VK","2019/08/23 20:09:43","新北市三重區中正北路324號","121.47883","25.0691333333333","6500200","三重區"
"241002","090-VK","2019/08/23 20:09:31","新北市三重區仁義街210-1號","121.496285","25.0823466666667","6500200","三重區"
"241003","091-VK","2019/08/23 20:09:37","新北市三重區仁愛街457號","121.489733333333","25.0818983333333","6500200","三重區"
"241007","742-BX","2019/08/23 20:09:41","新北市三重區三和路四段111-6號","121.486125","25.07747","6500200","三重區"
"241006","262-UM","2019/08/23 20:09:38","新北市三重區車路頭街139巷12號","121.484255","25.076215","6500200","三重區"
"241009","267-UM","2019/08/23 20:09:45","新北市三重區三和路四段382巷153號","121.47908","25.07808","6500200","三重區"
"241018","268-UM","2019/08/23 20:09:38","新北市三重區正義北路256巷102號","121.49384","25.0678683333333","6500200","三重區"
"241032","269-UM","2019/08/23 20:09:27","新北市三重區捷運路65號","121.483451666667","25.0556066666667","6500200","三重區"
"241013","270-UM","2019/08/23 20:09:32","新北市三重區三和路三段151巷33號","121.493476666667","25.0741366666667","6500200","三重區"
"241025","271-UM","2019/08/23 20:09:35","新北市三重區中正北路193巷39號","121.475738333333","25.070885","6500200","三重區"
"241030","KED-0822","2019/08/23 20:09:28","新北市三重區成功路145巷35號","121.487845","25.0531483333333","6500200","三重區"
"241035","462-BY","2019/08/23 20:09:40","新北市三重區大榮街34號","121.498631666667","25.0634716666667","6500200","三重區"
"241004","475-VK","2019/08/23 20:09:45","新北市三重區仁愛街399號","121.491108333333","25.0808666666667","6500200","三重區"
"241020","478-VK","2019/08/23 20:09:43","新北市三重區三和路三段186-2號","121.492013333333","25.073505","6500200","三重區"
"241014","543-UM","2019/08/23 20:09:35","新北市三重區長樂街90號","121.501316666667","25.06947","6500200","三重區"
"241023","545-UM","2019/08/23 20:09:37","新北市三重區頂崁街222號","121.47694","25.0682683333333","6500200","三重區"
"241001","547-UM","2019/08/23 20:09:46","新北市三重區自強路四段3巷10號","121.489053333333","25.07619","6500200","三重區"
"241019","KEA-2593","2019/08/23 20:09:39","新北市三重區自強路二段33巷34號","121.490328333333","25.0697916666667","6500200","三重區"
"241005","AAD-863","2019/08/23 20:09:29","新北市三重區碧華街211號","121.488415","25.082865","6500200","三重區"
"241026","743-BX","2019/08/23 20:09:39","新北市三重區中央南路111號","121.501466666667","25.0601116666667","6500200","三重區"
"241022","KED-0820","2019/08/23 20:09:36","新北市三重區重陽路二段17號","121.48696","25.0624416666667","6500200","三重區"
"241016","887-TS","2019/08/23 20:09:29","新北市三重區大同北路54巷5號","121.494035","25.06335","6500200","三重區"
"241012","941-UM","2019/08/23 20:09:29","新北市三重區仁義街22號","121.499326666667","25.07656","6500200","三重區"
"241029","942-UM","2019/08/23 20:09:28","新北市三重區光明路32巷24號","121.491863333333","25.0587166666667","6500200","三重區"
"241033","AAC-255","2019/08/23 20:09:34","新北市三重區光復路一段61巷2號","121.472391666667","25.0492833333333","6500200","三重區"
"235056","096-UM","2019/08/23 20:09:41","新北市五股區芳洲九路36號","121.447826666667","25.0878783333333","6500300","中和區"
"235039","097-UM","2019/08/23 20:09:44","新北市中和區立人街24-4號","121.518935","24.9941733333333","6500300","中和區"
"235065","098-UM","2019/08/23 20:09:39","新北市中和區永和路128巷47號","121.497698333333","25.0069066666667","6500300","中和區"
"235040","150-BY","2019/08/23 20:09:31","新北市中和區景安路43號","121.507613333333","24.9984516666667","6500300","中和區"
"235055","183-VK","2019/08/23 20:09:29","新北市五股區新五路二段372巷20號","121.447808333333","25.086115","6500300","中和區"
"247014","KEA-2869","2019/08/23 20:09:38","新北市蘆洲區中山二路245號","121.470348333333","25.07962","6501400","蘆洲區"
"247008","KED-0682","2019/08/23 20:09:45","新北市蘆洲區中山一路162號","121.47465","25.0814666666667","6501400","蘆洲區"
"235050","4979-A6","2019/08/23 20:09:33","新北市中和區安樂路37號","121.511855","24.9929983333333","6500300","中和區"
"235069","4980-A6","2019/08/23 20:09:28","新北市中和區南山路81巷60號","121.503985","24.9980916666667","6500300","中和區"
"235070","558-UM","2019/08/23 20:09:40","新北市板橋區中山路二段50-1號","121.473383333333","25.0155216666667","6500300","中和區"
"235066","911-UM","2019/08/23 20:09:39","新北市中和區南工路87號","121.507166666667","25.0031266666667","6500300","中和區"
"235051","157-BY","2019/08/23 20:09:36","新北市中和區捷運路81號","121.508431666667","24.990055","6500300","中和區"
"235037","AAC-213","2019/08/23 20:09:32","新北市板橋區民生路二段89-4號","121.47129","25.0184083333333","6500300","中和區"
"235059","AAC-215","2019/08/23 20:04:03","新北市中和區圓通路252巷18弄1號","121.492386666667","24.9925733333333","6500300","中和區"
"220065","072-UY","2019/08/23 20:09:48","新北市板橋區中山路一段154巷25號","121.46552","25.010505","6500100","板橋區"
"220086","073-UY","2019/08/23 20:09:35","新北市板橋區南雅西路二段7巷27號","121.451958333333","25.00946","6500100","板橋區"
"247004","893-R6","2019/08/23 20:09:43","新北市蘆洲區長安街285巷19號","121.457621666667","25.084085","6501400","蘆洲區"
"247018","546-UM","2019/08/23 20:09:43","新北市蘆洲區民族路314巷23號","121.47801","25.0907716666667","6501400","蘆洲區"
"247002","500-BY","2019/08/23 20:09:30","新北市蘆洲區永康街2巷6號","121.459323333333","25.0861283333333","6501400","蘆洲區"
"247022","057-VK","2019/08/23 20:09:46","新北市蘆洲區三民路171巷25號","121.470453333333","25.08679","6501400","蘆洲區"
"247012","056-VK","2019/08/23 20:09:41","新北市蘆洲區民族路250巷8號","121.479541666667","25.0888283333333","6501400","蘆洲區"
"247016","053-VK","2019/08/23 20:09:29","新北市蘆洲區光華路186巷38號","121.464861666667","25.083285","6501400","蘆洲區"
"247020","007-UY","2019/08/23 20:09:40","新北市蘆洲區民義街68巷36號","121.47399","25.0893366666667","6501400","蘆洲區"
"247006","002-UY","2019/08/23 20:09:43","新北市蘆洲區中山二路300巷1號","121.468581666667","25.07694","6501400","蘆洲區"
"247024","001-UY","2019/08/23 20:09:45","新北市蘆洲區光復路77巷36號","121.463865","25.0862266666667","6501400","蘆洲區"
"226004","312-R5","2019/08/23 20:09:38","新北市平溪區嶺腳里嶺腳寮24號","121.747958333333","25.0299766666667","6502400","平溪區"
"228003","828-UM","2019/08/23 20:09:33","新北市貢寮區仁理村研海街20號","121.928308333333","25.0379316666667","6502600","貢寮區"
"224002","639-TC","2019/08/23 20:09:29","新北市瑞芳區明燈路一段45巷97號","121.822118333333","25.104245","6501200","瑞芳區"
"251009","008-UM","2019/08/23 20:09:41","新北市淡水區英專路2巷24號","121.446445","25.1692233333333","6501000","淡水區"
"251004","009-UM","2019/08/23 20:09:28","新北市淡水區民族路29巷24-1號","121.461668333333","25.1366783333333","6501000","淡水區"
"251001","011-UM","2019/08/23 20:09:32","新北市淡水區淡金路二段15號","121.446358333333","25.1891966666667","6501000","淡水區"
"251010","012-UM","2019/08/23 20:09:45","新北市淡水區中正路二段397號","121.425583333333","25.1911666666667","6501000","淡水區"
"251008","181-VK","2019/08/23 20:09:32","新北市淡水區淡海路72巷33弄8號","121.42442","25.1828233333333","6501000","淡水區"
"243011","549-UM","2019/08/23 20:09:46","新北市泰山區明志路三段524號","121.420731666667","25.0305316666667","6501600","泰山區"
"251012","441-VK","2019/08/23 20:09:39","新北市淡水區淡金路三段224號","121.448958333333","25.20487","6501000","淡水區"
"251006","561-UM","2019/08/23 20:09:44","新北市淡水區北新路141巷5號","121.449103333333","25.1792266666667","6501000","淡水區"
"251011","650-BX","2019/08/23 20:09:38","新北市淡水區崁頂57-7號","121.442748333333","25.1973233333333","6501000","淡水區"
"251002","672-BX","2019/08/23 20:09:30","新北市淡水區中正路332-1號","121.435888333333","25.1730666666667","6501000","淡水區"
"251003","766-UM","2019/08/23 20:09:41","新北市淡水區新市一路二段257號","121.44391","25.183065","6501000","淡水區"
"207003","550-UM","2019/08/23 20:09:33","新北市萬里區大鵬里萬里加投176號","121.643168333333","25.2158066666667","6502800","萬里區"
"207004","291-VK","2019/08/23 20:09:36","新北市萬里區北基里大勇路16號","121.682065","25.1766883333333","6502800","萬里區"
"252002","178-VK","2019/08/23 20:09:30","新北市三芝區中正路一段72號","121.5039","25.2576816666667","6502100","三芝區"
"237012","275-BY","2019/08/23 20:09:38","新北市三峽區中華路110號","121.371071666667","24.9277166666667","6500900","三峽區"
"237014","433-BY","2019/08/23 20:09:43","新北市三峽區添福13-16號","121.374328333333","24.907255","6500900","三峽區"
"237006","5529-G3","2019/08/23 20:09:37","新北市三峽區嘉添35-1號","121.368711666667","24.9113183333333","6500900","三峽區"
"237005","AKY-6261","2019/08/23 20:09:40","新北市三峽區三樹路44巷16號","121.378386666667","24.9375533333333","6500900","三峽區"
"236042","KED-0685","2019/08/23 20:09:36","新北市土城區裕民路147號","121.452285","24.9864733333333","6501300","土城區"
"236079","166-UM","2019/08/23 20:09:30","新北市土城區金安街34號","121.420795","24.9650216666667","6501300","土城區"
"236030","253-BX","2019/08/23 20:09:34","新北市土城區中央路一段145號","121.446795","24.9879266666667","6501300","土城區"
"236026","269-VK","2019/08/23 20:09:39","新北市土城區明德路二段102巷25號","121.44567","24.98492","6501300","土城區"
"236014","270-VK","2019/08/23 20:09:36","新北市土城區德興街137號","121.455151666667","24.9916783333333","6501300","土城區"
"236039","271-VK","2019/08/23 20:09:42","新北市土城區延吉街353巷2號","121.464576666667","24.9838266666667","6501300","土城區"
"247010","KED-0683","2019/08/23 20:09:43","新北市蘆洲區信義路154號","121.479283333333","25.083455","6501400","蘆洲區"
"236069","KEA-2877","2019/08/23 20:09:35","新北市土城區中央路三段185-4號","121.431321666667","24.9647183333333","6501300","土城區"
"252001","KED-0821","2019/08/23 20:09:31","新北市三芝區公正街9號","121.499725","25.257635","6502100","三芝區"
"236020","401-BY","2019/08/23 20:09:29","新北市土城區延吉街111巷2號","121.471546666667","24.9863533333333","6501300","土城區"
"236059","912-UM","2019/08/23 20:09:40","新北市土城區中央路三段73-2號","121.438603333333","24.9689533333333","6501300","土城區"
"236048","913-UM","2019/08/23 20:09:35","新北市土城區清水路148號","121.459251666667","24.98143","6501300","土城區"
"236055","AAC-216","2019/08/23 20:09:33","新北市土城區中華路一段18號","121.447578333333","24.9903783333333","6501300","土城區"
"242039","AAC-296","2019/08/23 20:09:47","新北市新莊區民安西路107號","121.426836666667","25.0185266666667","6500500","新莊區"
"242060","986-R7","2019/08/23 20:09:41","新北市新莊區瓊林路100巷1號","121.443498333333","25.0264383333333","6500500","新莊區"
"242002","751-BX","2019/08/23 20:09:41","新北市新莊區中正路51號","121.463471666667","25.0406633333333","6500500","新莊區"
"242029","615-BX","2019/08/23 20:09:40","新北市新莊區中原路303號","121.447403333333","25.0544366666667","6500500","新莊區"
"242027","613-BX","2019/08/23 20:09:33","新北市新莊區中平路377巷1-9號","121.444108333333","25.0524866666667","6500500","新莊區"
"242058","612-BX","2019/08/23 20:09:42","新北市新莊區八德街220號","121.423256666667","25.0191316666667","6500500","新莊區"
"242046","566-BX","2019/08/23 20:09:42","新北市新莊區裕民街85巷20號","121.41956","25.0232183333333","6500500","新莊區"
"242050","497-BY","2019/08/23 20:09:44","新北市新莊區民安西路170號","121.426056666667","25.0159916666667","6500500","新莊區"
"242056","442-UM","2019/08/23 20:09:43","新北市新莊區豐年街28巷1弄12號","121.445896666667","25.0318866666667","6500500","新莊區"
"242048","441-UM","2019/08/23 20:09:41","新北市新莊區四維路152巷14號","121.422248333333","25.023035","6500500","新莊區"
"242005","440-UM","2019/08/23 20:09:47","新北市新莊區頭興街40號","121.464295","25.0535583333333","6500500","新莊區"
"242041","415-TV","2019/08/23 20:09:40","新北市新莊區壽山路57-10號","121.411588333333","25.0323416666667","6500500","新莊區"
"242011","413-TV","2019/08/23 20:09:34","新北市新莊區中信街52號","121.44935","25.0508466666667","6500500","新莊區"
"242025","362-BY","2019/08/23 20:09:38","新北市新莊區五權一路12巷25弄21號","121.458671666667","25.0647183333333","6500500","新莊區"
"242023","353-BY","2019/08/23 20:09:38","新北市新莊區化成路570號","121.466198333333","25.054355","6500500","新莊區"
"242013","132-UY","2019/08/23 20:09:43","新北市新莊區中港路483巷20號","121.451306666667","25.0497766666667","6500500","新莊區"
"242037","135-UY","2019/08/23 20:09:44","新北市新莊區建安街85號","121.427356666667","25.0245666666667","6500500","新莊區"
"242054","172-VK","2019/08/23 20:09:43","新北市新莊區西盛街387巷15號","121.428578333333","25.0130883333333","6500500","新莊區"
"242015","173-VK","2019/08/23 20:09:38","新北市新莊區中平路26巷25號","121.446165","25.0432933333333","6500500","新莊區"
"242021","175-VK","2019/08/23 20:09:42","新北市新莊區中興街9號","121.449088333333","25.03607","6500500","新莊區"
"242044","176-VK","2019/08/23 20:09:37","新北市新莊區中正路929巷21號","121.411185","25.0201783333333","6500500","新莊區"
"242019","346-TH","2019/08/23 20:09:36","新北市新莊區民樂街66號","121.45799","25.04206","6500500","新莊區"
"242034","347-TH","2019/08/23 20:09:40","新北市新莊區中正路318巷18號","121.446466666667","25.0359966666667","6500500","新莊區"
"242032","348-TH","2019/08/23 20:09:49","新北市新莊區忠孝街29巷43號","121.443608333333","25.0372316666667","6500500","新莊區"
"242007","349-TH","2019/08/23 20:09:42","新北市新莊區福壽街184巷24號","121.45932","25.0530433333333","6500500","新莊區"
"242017","351-TH","2019/08/23 20:09:29","新北市新莊區中港路397號","121.451806666667","25.0468016666667","6500500","新莊區"
"239006","891-R6","2019/08/23 20:09:49","新北市鶯歌區文化路55號","121.359106666667","24.9555083333333","6500800","鶯歌區"
"221008","489-VK","2019/08/23 20:09:27","新北市汐止區忠一街9巷7號","121.620491666667","25.073195","6501100","汐止區"
"221036","130-UY","2019/08/23 20:09:35","新北市汐止區新台五路二段41巷8號","121.663076666667","25.06675","6501100","汐止區"
"221015","131-UY","2019/08/23 20:09:36","新北市汐止區建成路13號","121.664581666667","25.0725666666667","6501100","汐止區"
"221010","269-BY","2019/08/23 20:09:40","新北市汐止區連峰街242號","121.645166666667","25.08077","6501100","汐止區"
"221012","278-VK","2019/08/23 20:09:32","新北市汐止區大同路三段324號","121.67912","25.0712666666667","6501100","汐止區"
"221023","279-VK","2019/08/23 20:09:33","新北市汐止區明峰街216號","121.627096666667","25.06882","6501100","汐止區"
"221027","281-BY","2019/08/23 20:09:28","新北市汐止區光明街28號","121.660173333333","25.0686916666667","6501100","汐止區"
"221029","298-VK","2019/08/23 20:09:26","新北市汐止區樟樹一路119巷10弄1號","121.64126","25.0645666666667","6501100","汐止區"
"221021","299-VK","2019/08/23 20:09:46","新北市汐止區新台五路一段159號","121.653935","25.062475","6501100","汐止區"
"221031","353-TW","2019/08/23 20:09:35","新北市汐止區中興路130-1號","121.633046666667","25.064225","6501100","汐止區"
"221025","623-UM","2019/08/23 20:09:40","新北市汐止區秀峰路68號","121.659821666667","25.0644433333333","6501100","汐止區"
"221038","646-BX","2019/08/23 20:09:40","新北市汐止區忠孝東路495號","121.666395","25.074475","6501100","汐止區"
"221033","647-BX","2019/08/23 20:09:39","新北市汐止區東勢街201巷104號","121.633493333333","25.0428516666667","6501100","汐止區"
"221018","753-BX","2019/08/23 20:09:37","新北市汐止區茄苳路317號","121.673646666667","25.0665616666667","6501100","汐止區"
"220079","145-BY","2019/08/23 20:09:35","新北市板橋區建國街54巷10號","121.45924","25.0168533333333","6500100","板橋區"
"220082","610-BX","2019/08/23 20:09:39","新北市板橋區金門街215號","121.432453333333","24.9899416666667","6500100","板橋區"
"220056","276-BY","2019/08/23 20:09:27","新北市新莊區環漢路三段1號","121.442803333333","25.024155","6500100","板橋區"
"220071","283-VK","2019/08/23 20:09:27","新北市板橋區南雅南路二段19號","121.452601666667","24.9986233333333","6500100","板橋區"
"220083","286-VK","2019/08/23 20:09:32","新北市板橋區僑中二街50號","121.446736666667","25.0104666666667","6500100","板橋區"
"220081","287-VK","2019/08/23 20:09:34","新北市板橋區僑中一街124巷20弄19號","121.447016666667","25.01399","6500100","板橋區"
"220061","293-UM","2019/08/23 20:09:40","新北市板橋區四川路一段95號","121.459691666667","25.0054383333333","6500100","板橋區"
"220075","303-R5","2019/08/23 20:09:42","新北市板橋區金華街10巷87-1號","121.458345","25.02047","6500100","板橋區"
"220062","305-R5","2019/08/23 20:09:41","新北市板橋區中山路二段613號","121.485363333333","25.0225316666667","6500100","板橋區"
"242009","280-VK","2019/08/23 20:09:44","新北市新莊區昌盛街35巷3弄1號","121.454098333333","25.05052","6500500","新莊區"
"220080","568-UM","2019/08/23 20:09:34","新北市板橋區大觀路二段179巷23號","121.445873333333","24.9997283333333","6500100","板橋區"
"220035","630-UY","2019/08/23 20:09:39","新北市板橋區新生街29巷15弄5號","121.456291666667","25.0219966666667","6500100","板橋區"
"220077","687-BX","2019/08/23 20:09:36","新北市板橋區僑中一街102巷7弄20號","121.446051666667","25.0130016666667","6500100","板橋區"
"220054","741-BX","2019/08/23 20:09:46","新北市板橋區忠孝路201巷87號","121.464606666667","25.004445","6500100","板橋區"
"220055","827-TW","2019/08/23 20:09:37","新北市板橋區仁愛路64號","121.459925","24.999435","6500100","板橋區"
"220074","895-R6","2019/08/23 20:09:32","新北市板橋區府中路23號","121.459026666667","25.009435","6500100","板橋區"
"220064","AAC-253","2019/08/23 20:09:45","新北市板橋區長安街331巷79-2號","121.472376666667","25.012845","6500100","板橋區"
"235068","KEA-2873","2019/08/23 20:09:41","新北市中和區勝利路35巷1弄29號","121.49997","25.0077916666667","6500300","中和區"
