"lineid","car","time","location","longitude","latitude","cityid","cityname"
"234081","298-R6","2019/08/23 20:19:44","新北市永和區國中路109巷1弄2號","121.52401","25.00589","6500400","永和區"
"234038","336-UY","2019/08/23 20:19:42","新北市永和區成功路一段93巷11-1號","121.527651666667","25.002745","6500400","永和區"
"234064","337-UY","2019/08/23 20:19:35","新北市永和區得和路108號","121.51834","25.00019","6500400","永和區"
"234086","338-UY","2019/08/23 20:19:42","新北市永和區中正路657號","121.514915","25.010155","6500400","永和區"
"234070","552-UM","2019/08/23 20:19:40","新北市永和區福和路263巷10號","121.517911666667","25.006875","6500400","永和區"
"234017","745-BX","2019/08/23 20:19:30","新北市永和區仁愛路51號","121.513736666667","25.0133233333333","6500400","永和區"
"234030","746-BX","2019/08/23 20:19:28","新北市永和區民族街79號","121.518515","24.9966316666667","6500400","永和區"
"234054","KEA-2590","2019/08/23 20:19:42","新北市永和區光復街31-1號","121.516643333333","25.0179616666667","6500400","永和區"
"234013","KEA-2591","2019/08/23 20:19:41","新北市永和區仁愛路266號","121.504113333333","25.008495","6500400","永和區"
"234061","AAD-866","2019/08/23 20:19:31","新北市永和區得和路21號","121.515568333333","25.000385","6500400","永和區"
"234042","862-TW","2019/08/23 20:19:49","新北市永和區安樂路208-1號","121.515075","25.0019933333333","6500400","永和區"
"234050","863-TW","2019/08/23 20:19:37","新北市永和區新生路30-2號","121.508445","25.015975","6500400","永和區"
"249005","172-UM","2019/08/23 20:19:37","新北市八里區下罟子1-16號","121.389816666667","25.1420233333333","6502300","八里區"
"249001","173-UM","2019/08/23 20:19:31","新北市八里區中華路二段538-1號","121.399005","25.1450516666667","6502300","八里區"
"249004","303-UY","2019/08/23 20:19:30","新北市八里區中山路一段326號","121.412821666667","25.1591533333333","6502300","八里區"
"249002","305-UY","2019/08/23 20:19:30","新北市八里區龍米路一段206號","121.451963333333","25.1281783333333","6502300","八里區"
"249003","593-UM","2019/08/23 20:19:43","新北市八里區訊埔路20號","121.397641666667","25.1454","6502300","八里區"
"248016","026-BX","2019/08/23 20:19:47","新北市五股區凌雲路一段158巷44號","121.447098333333","25.1038483333333","6501500","五股區"
"248012","247-BX","2019/08/23 20:19:30","新北市五股區民義路一段26號","121.437191666667","25.0837216666667","6501500","五股區"
"248002","678-BX","2019/08/23 20:19:44","新北市五股區成泰路三段169號","121.44523","25.091915","6501500","五股區"
"234023","9380-KE","2019/08/23 20:19:42","新北市永和區勵行街36號","121.5165","25.013785","6500400","永和區"
"234077","969-R7","2019/08/23 20:19:43","新北市永和區民享街20號","121.515446666667","24.9951066666667","6500400","永和區"
"234074","AAC-211","2019/08/23 20:19:41","新北市永和區豫溪街197號","121.52316","25.0098783333333","6500400","永和區"
"234067","AAC-212","2019/08/23 20:19:27","新北市永和區保平路268巷14號","121.507908333333","25.0060183333333","6500400","永和區"
"234003","AAC-295","2019/08/23 20:19:26","新北市永和區大新街16號","121.515041666667","25.0084583333333","6500400","永和區"
"243012","AAD-798","2019/08/23 20:19:49","新北市泰山區楓江路175-1號","121.440208333333","25.0665666666667","6501600","泰山區"
"243010","297-R6","2019/08/23 20:19:33","新北市泰山區明志路二段254巷7號","121.426135","25.04775","6501600","泰山區"
"243014","KEA-2801","2019/08/23 20:19:31","新北市泰山區泰林路二段262號","121.431645","25.0624016666667","6501600","泰山區"
"243016","421-VK","2019/08/23 20:19:11","新北市泰山區明志路二段390號","121.42525","25.0444783333333","6501600","泰山區"
"243009","KEA-2215","2019/08/23 20:19:34","新北市泰山區明志路一段195號","121.432751666667","25.0615916666667","6501600","泰山區"
"243013","646-TV","2019/08/23 20:19:44","新北市泰山區明志路二段359巷21號","121.426138333333","25.0440066666667","6501600","泰山區"
"243015","680-BX","2019/08/23 20:19:31","新北市泰山區明志路一段260號","121.432145","25.0605266666667","6501600","泰山區"
"222003","436-BY","2019/08/23 20:19:43","新北市深坑區深坑街27號","121.615985","25.002355","6501800","深坑區"
"222001","628-TS","2019/08/23 20:19:33","新北市深坑區北深路三段260號","121.599511666667","25.0044583333333","6501800","深坑區"
"222002","659-BX","2019/08/23 20:19:39","新北市深坑區萬福路75巷36號","121.598611666667","25.0097316666667","6501800","深坑區"
"231061","002-UM","2019/08/23 20:19:31","新北市新店區安興路32號","121.515683333333","24.97034","6500600","新店區"
"231044","046-UY","2019/08/23 20:19:45","新北市新店區北新路三段71號","121.541596666667","24.9812316666667","6500600","新店區"
"231060","106-UY","2019/08/23 20:19:34","新北市新店區安康路三段578-1號","121.481076666667","24.9487066666667","6500600","新店區"
"231051","107-UY","2019/08/23 20:19:35","新北市新店區溪園路471號","121.525818333333","24.9770283333333","6500600","新店區"
"231049","108-UY","2019/08/23 20:19:40","新北市新店區北新路二段68號","121.542918333333","24.97237","6500600","新店區"
"231065","110-UY","2019/08/23 20:19:39","新北市新店區安祥路102巷32號","121.48414","24.963915","6500600","新店區"
"231068","187-VK","2019/08/23 20:19:31","新北市新店區寶安街30號","121.542018333333","24.9823533333333","6500600","新店區"
"221035","KEA-2785","2019/08/23 20:19:47","新北市汐止區長江街57巷20弄7號","121.65649","25.0724683333333","6501100","汐止區"
"231062","256-BX","2019/08/23 20:19:38","新北市新店區安泰路7巷16號","121.485696666667","24.9509566666667","6500600","新店區"
"231054","260-TV","2019/08/23 20:19:39","新北市新店區檳榔路109號","121.544591666667","24.961585","6500600","新店區"
"231042","268-BY","2019/08/23 20:19:27","新北市新店區寶橋路78巷17號","121.547326666667","24.9746116666667","6500600","新店區"
"231064","278-BY","2019/08/23 20:19:40","新北市新店區安業街8巷1號","121.515796666667","24.9772883333333","6500600","新店區"
"231050","AAD-862","2019/08/23 20:19:32","新北市新店區博愛街15號","121.541125","24.9733866666667","6500600","新店區"
"231045","355-BY","2019/08/23 20:19:45","新北市新店區中興路一段136號","121.541985","24.96325","6500600","新店區"
"231058","3713-VJ","2019/08/23 20:19:42","新北市新店區薏仁坑路自強巷6號","121.496478333333","24.9584283333333","6500600","新店區"
"231055","4716-K9","2019/08/23 20:19:40","新北市新店區中華路48巷27號","121.541121666667","24.9694916666667","6500600","新店區"
"231056","4715-K9","2019/08/23 20:19:36","新北市新店區中正路336號","121.536716666667","24.9750733333333","6500600","新店區"
"231067","4772-VM","2019/08/23 20:19:38","新北市新店區安康路一段266巷4號","121.52005","24.9639633333333","6500600","新店區"
"231053","513-UM","2019/08/23 20:19:42","新北市新店區新烏路二段300號","121.548285","24.91287","6500600","新店區"
"231063","616-UM","2019/08/23 20:19:36","新北市新店區薏仁坑路自強巷6號","121.496541666667","24.9584283333333","6500600","新店區"
"231040","617-UM","2019/08/23 20:19:27","新北市新店區中正路106號","121.543153333333","24.97068","6500600","新店區"
"231041","619-UM","2019/08/23 20:19:37","新北市新店區民權路63號","121.539266666667","24.9829566666667","6500600","新店區"
"231048","KED-0819","2019/08/23 20:19:41","新北市新店區寶橋路88號","121.546891666667","24.9759416666667","6500600","新店區"
"231057","720-UM","2019/08/23 20:19:46","新北市新店區花園十二路1號","121.554863333333","24.9347466666667","6500600","新店區"
"231059","897-TW","2019/08/23 20:19:40","新北市新店區安德街79號","121.510028333333","24.9613333333333","6500600","新店區"
"231043","899-TW","2019/08/23 20:19:36","新北市新店區建國路133號","121.539305","24.9781966666667","6500600","新店區"
"231066","AKT-0513","2019/08/23 20:19:41","新北市新店區柴埕路49號","121.513778333333","24.965375","6500600","新店區"
"241011","013-R5","2019/08/23 20:19:40","新北市三重區龍門路195號","121.499668333333","25.0732866666667","6500200","三重區"
"241028","022-UY","2019/08/23 20:19:40","新北市三重區光興街95號","121.497288333333","25.059965","6500200","三重區"
"241008","059-VK","2019/08/23 20:19:38","新北市三重區永福街231號","121.480485","25.0744083333333","6500200","三重區"
"241031","061-VK","2019/08/23 20:19:45","新北市三重區三寧街15號","121.489485","25.0598166666667","6500200","三重區"
"241015","062-VK","2019/08/23 20:19:34","新北市三重區文化北路6號","121.499638333333","25.0634833333333","6500200","三重區"
"241017","063-VK","2019/08/23 20:19:35","新北市三重區自強路一段155號","121.49353","25.067005","6500200","三重區"
"241024","065-VK","2019/08/23 20:19:43","新北市三重區忠孝路三段13號","121.481718333333","25.0674166666667","6500200","三重區"
"241002","090-VK","2019/08/23 20:19:37","新北市三重區五華街19號","121.494946666667","25.0804766666667","6500200","三重區"
"241003","091-VK","2019/08/23 20:19:37","新北市三重區富華街84-2號","121.490875","25.0834616666667","6500200","三重區"
"241007","742-BX","2019/08/23 20:19:41","新北市三重區溪尾街126巷58號","121.48825","25.0788583333333","6500200","三重區"
"241006","262-UM","2019/08/23 20:19:38","新北市三重區車路頭街139巷10號","121.48422","25.076355","6500200","三重區"
"241009","267-UM","2019/08/23 20:19:45","新北市三重區三和路四段165-7號","121.483046666667","25.0787416666667","6500200","三重區"
"241018","268-UM","2019/08/23 20:19:38","新北市三重區雙園街97號","121.493833333333","25.067285","6500200","三重區"
"241032","269-UM","2019/08/23 20:19:27","新北市三重區捷運路19巷6弄17號","121.484436666667","25.0568683333333","6500200","三重區"
"241013","270-UM","2019/08/23 20:19:32","新北市三重區三和路三段167巷34號","121.493045","25.0744466666667","6500200","三重區"
"241025","271-UM","2019/08/23 20:19:35","新北市三重區自由街18巷13號","121.479125","25.0663866666667","6500200","三重區"
"241030","KED-0822","2019/08/23 20:19:48","新北市三重區環河南路254巷55號","121.487953333333","25.0523133333333","6500200","三重區"
"241035","462-BY","2019/08/23 20:19:43","新北市三重區重新路二段1號","121.499615","25.0628216666667","6500200","三重區"
"241004","475-VK","2019/08/23 20:19:41","新北市三重區仁愛街366巷31號","121.49069","25.0802566666667","6500200","三重區"
"241020","478-VK","2019/08/23 20:19:43","新北市三重區三和路三段170巷21號","121.491901666667","25.072825","6500200","三重區"
"241014","543-UM","2019/08/23 20:19:35","新北市三重區長元街98巷21弄24號","121.503293333333","25.0678666666667","6500200","三重區"
"241023","545-UM","2019/08/23 20:19:32","新北市三重區忠孝路三段84巷5號","121.480218333333","25.0643583333333","6500200","三重區"
"241001","547-UM","2019/08/23 20:19:45","新北市三重區自強路四段33號","121.488946666667","25.0767","6500200","三重區"
"241019","KEA-2593","2019/08/23 20:19:39","新北市三重區忠孝路一段68號","121.490071666667","25.0718766666667","6500200","三重區"
"241005","AAD-863","2019/08/23 20:19:29","新北市三重區碧華街420號","121.4923","25.0853366666667","6500200","三重區"
"241026","743-BX","2019/08/23 20:19:39","新北市三重區福德南路52號","121.503143333333","25.0622666666667","6500200","三重區"
"241022","KED-0820","2019/08/23 20:19:36","新北市三重區新北大道一段50號","121.487718333333","25.0613533333333","6500200","三重區"
"241016","887-TS","2019/08/23 20:19:29","新北市三重區大同北路97-2號","121.49449","25.0635816666667","6500200","三重區"
"241012","941-UM","2019/08/23 20:19:48","新北市三重區河邊北街379-1號","121.501766666667","25.07655","6500200","三重區"
"241029","942-UM","2019/08/23 20:19:48","新北市三重區集美街225號","121.491976666667","25.055175","6500200","三重區"
"241033","AAC-255","2019/08/23 20:19:34","新北市三重區五谷王北街50巷38號","121.475195","25.0514033333333","6500200","三重區"
"235056","096-UM","2019/08/23 20:19:41","新北市八里區下罟子17號","121.382471666667","25.144295","6500300","中和區"
"235039","097-UM","2019/08/23 20:19:44","新北市中和區大勇街27巷18號","121.5166","24.99398","6500300","中和區"
"235040","150-BY","2019/08/23 20:19:31","新北市中和區安平路38號","121.509993333333","24.994915","6500300","中和區"
"235055","183-VK","2019/08/23 20:19:29","新北市八里區下罟子8-10號","121.383528333333","25.1446","6500300","中和區"
"247014","KEA-2869","2019/08/23 20:19:29","新北市蘆洲區中山二路137巷20號","121.472228333333","25.081025","6501400","蘆洲區"
"247008","KED-0682","2019/08/23 20:19:45","新北市蘆洲區集賢路300號","121.481581666667","25.0850466666667","6501400","蘆洲區"
"235050","4979-A6","2019/08/23 20:19:29","新北市中和區景平路402號","121.509213333333","24.9931183333333","6500300","中和區"
"235069","4980-A6","2019/08/23 20:19:48","新北市中和區圓通路198巷2弄2號","121.49632","24.9947016666667","6500300","中和區"
"235066","911-UM","2019/08/23 20:19:39","新北市中和區中山路二段3巷22弄12號","121.506063333333","25.0048416666667","6500300","中和區"
"235037","AAC-213","2019/08/23 20:19:32","新北市五股區成泰路三段544-1號","121.454186666667","25.1023016666667","6500300","中和區"
"235059","AAC-215","2019/08/23 20:18:24","新北市中和區圓通路252巷34號","121.492376666667","24.9927366666667","6500300","中和區"
"220065","072-UY","2019/08/23 20:19:48","新北市板橋區四川路一段367號","121.458231666667","24.99976","6500100","板橋區"
"220086","073-UY","2019/08/23 20:19:35","新北市板橋區板城路407號","121.446825","24.9956216666667","6500100","板橋區"
"247004","893-R6","2019/08/23 20:19:49","新北市蘆洲區長安街299巷12號","121.457356666667","25.0847033333333","6501400","蘆洲區"
"247018","546-UM","2019/08/23 20:19:43","新北市蘆洲區民族路293號","121.475285","25.0910916666667","6501400","蘆洲區"
"247002","500-BY","2019/08/23 20:19:30","新北市蘆洲區長安街313巷12號","121.456503333333","25.086485","6501400","蘆洲區"
"247022","057-VK","2019/08/23 20:19:26","新北市蘆洲區三民路241號","121.469058333333","25.0888183333333","6501400","蘆洲區"
"247012","056-VK","2019/08/23 20:19:41","新北市蘆洲區中興街53號","121.481316666667","25.0872466666667","6501400","蘆洲區"
"247020","007-UY","2019/08/23 20:19:20","新北市蘆洲區仁愛街57號","121.47186","25.0933316666667","6501400","蘆洲區"
"247006","002-UY","2019/08/23 20:19:43","新北市蘆洲區九芎街167巷3號","121.465035","25.0785383333333","6501400","蘆洲區"
"247024","001-UY","2019/08/23 20:19:45","新北市蘆洲區光榮路120巷8弄39號","121.464583333333","25.087965","6501400","蘆洲區"
"228003","828-UM","2019/08/23 20:19:33","新北市貢寮區仁理村研海街20號","121.928335","25.0380016666667","6502600","貢寮區"
"251009","008-UM","2019/08/23 20:19:41","新北市淡水區中山路46-1號","121.444291666667","25.1702633333333","6501000","淡水區"
"251001","011-UM","2019/08/23 20:19:32","新北市淡水區淡金路二段15號","121.44636","25.189205","6501000","淡水區"
"251010","012-UM","2019/08/23 20:19:45","新北市淡水區新民街一段155號","121.42741","25.1889216666667","6501000","淡水區"
"251008","181-VK","2019/08/23 20:19:32","新北市淡水區淡海路180巷29號","121.421876666667","25.18456","6501000","淡水區"
"243011","549-UM","2019/08/23 20:19:46","新北市新莊區壽山路160巷21號","121.417451666667","25.031935","6501600","泰山區"
"251012","441-VK","2019/08/23 20:19:39","新北市淡水區淡金路三段374號","121.449806666667","25.21001","6501000","淡水區"
"251006","561-UM","2019/08/23 20:19:35","新北市淡水區北新路141巷80弄20號","121.447991666667","25.180205","6501000","淡水區"
"251011","650-BX","2019/08/23 20:19:38","新北市淡水區下圭柔山90-8號","121.431236666667","25.21027","6501000","淡水區"
"251002","672-BX","2019/08/23 20:19:30","新北市淡水區中正路206號","121.439696666667","25.1702166666667","6501000","淡水區"
"251003","766-UM","2019/08/23 20:19:41","新北市淡水區中山北路一段192號","121.444493333333","25.1792766666667","6501000","淡水區"
"207003","550-UM","2019/08/23 20:19:33","新北市萬里區野柳里八斗60號","121.666768333333","25.2044183333333","6502800","萬里區"
"207004","291-VK","2019/08/23 20:19:34","新北市萬里區北基里仁四街2號","121.682108333333","25.1753633333333","6502800","萬里區"
"252002","178-VK","2019/08/23 20:19:30","新北市三芝區中正路一段49號","121.503363333333","25.2581333333333","6502100","三芝區"
"237014","433-BY","2019/08/23 20:19:43","新北市三峽區介壽路一段1號","121.375341666667","24.9339933333333","6500900","三峽區"
"237006","5529-G3","2019/08/23 20:19:37","新北市三峽區中園街84號","121.367726666667","24.924795","6500900","三峽區"
"237005","AKY-6261","2019/08/23 20:19:40","新北市三峽區三樹路98巷74弄83號","121.38706","24.9391166666667","6500900","三峽區"
"236030","253-BX","2019/08/23 20:19:34","新北市土城區學成路108巷13弄11號","121.449581666667","24.990105","6501300","土城區"
"236026","269-VK","2019/08/23 20:19:39","新北市土城區裕生路86巷1號","121.446801666667","24.9850966666667","6501300","土城區"
"236014","270-VK","2019/08/23 20:19:36","新北市板橋區信義路26巷10號","121.456198333333","24.995345","6501300","土城區"
"247010","KED-0683","2019/08/23 20:19:43","新北市蘆洲區信義路222巷5號","121.479261666667","25.0853766666667","6501400","蘆洲區"
"236069","KEA-2877","2019/08/23 20:19:35","新北市土城區中山路34號","121.424741666667","24.9638016666667","6501300","土城區"
"252001","KED-0821","2019/08/23 20:19:31","新北市三芝區中山路一段31號","121.500613333333","25.258075","6502100","三芝區"
"236020","401-BY","2019/08/23 20:19:29","新北市土城區峰廷街18-1號","121.469","24.9871733333333","6501300","土城區"
"242039","AAC-296","2019/08/23 20:19:47","新北市新莊區成功街75號","121.424635","25.0198566666667","6500500","新莊區"
"242060","986-R7","2019/08/23 20:19:41","新北市新莊區新樹路234巷19號","121.431748333333","25.0201183333333","6500500","新莊區"
"242002","751-BX","2019/08/23 20:19:32","新北市新莊區化成路94號","121.465225","25.0440716666667","6500500","新莊區"
"242029","615-BX","2019/08/23 20:19:40","新北市新莊區中華路二段159號","121.452733333333","25.05166","6500500","新莊區"
"242027","613-BX","2019/08/23 20:19:39","新北市新莊區幸福路677號","121.4505","25.04919","6500500","新莊區"
"242058","612-BX","2019/08/23 20:19:43","新北市新莊區四維路227號","121.42161","25.01957","6500500","新莊區"
"242046","566-BX","2019/08/23 20:19:32","新北市新莊區中正路新生巷31號","121.417088333333","25.023475","6500500","新莊區"
"242050","497-BY","2019/08/23 20:19:44","新北市新莊區民安西路220號","121.425976666667","25.01464","6500500","新莊區"
"242056","442-UM","2019/08/23 20:19:42","新北市新莊區新莊路649巷7號","121.445178333333","25.0322433333333","6500500","新莊區"
"242048","441-UM","2019/08/23 20:19:41","新北市新莊區四維路212巷4弄10號","121.421228333333","25.0206916666667","6500500","新莊區"
"242005","440-UM","2019/08/23 20:19:40","新北市新莊區頭前路2巷8號","121.46847","25.0529283333333","6500500","新莊區"
"242041","415-TV","2019/08/23 20:19:40","新北市新莊區天祥街54巷2弄2號","121.416838333333","25.0293366666667","6500500","新莊區"
"242011","413-TV","2019/08/23 20:19:34","新北市新莊區中信街21號","121.450975","25.0507","6500500","新莊區"
"242025","362-BY","2019/08/23 20:19:41","新北市新莊區五工一路80巷14號","121.461188333333","25.0668483333333","6500500","新莊區"
"242023","353-BY","2019/08/23 20:19:34","新北市新莊區化成路758號","121.465348333333","25.0585133333333","6500500","新莊區"
"242013","132-UY","2019/08/23 20:19:31","新北市新莊區中信街63巷4弄1號","121.448968333333","25.050185","6500500","新莊區"
"242037","135-UY","2019/08/23 20:19:44","新北市新莊區後港一路76巷14弄2號","121.42727","25.0256233333333","6500500","新莊區"
"242054","172-VK","2019/08/23 20:19:43","新北市新莊區民安西路261巷14號","121.426756666667","25.0129233333333","6500500","新莊區"
"242015","173-VK","2019/08/23 20:19:38","新北市新莊區中和街31巷18號","121.447436666667","25.0439516666667","6500500","新莊區"
"242021","175-VK","2019/08/23 20:19:42","新北市新莊區和興街49號","121.446516666667","25.0407066666667","6500500","新莊區"
"242044","176-VK","2019/08/23 20:19:30","新北市新莊區中正路新建巷28弄71號","121.413745","25.0210916666667","6500500","新莊區"
"242019","346-TH","2019/08/23 20:19:48","新北市新莊區復興路二段92號","121.456015","25.0441933333333","6500500","新莊區"
"242034","347-TH","2019/08/23 20:19:40","新北市新莊區仁愛街56號","121.444513333333","25.0371083333333","6500500","新莊區"
"242032","348-TH","2019/08/23 20:19:29","新北市新莊區三泰路9號","121.440131666667","25.034195","6500500","新莊區"
"242007","349-TH","2019/08/23 20:19:42","新北市新莊區福壽街124巷34弄2號","121.459283333333","25.0512116666667","6500500","新莊區"
"242017","351-TH","2019/08/23 20:19:29","新北市新莊區中港一街119號","121.44859","25.0451383333333","6500500","新莊區"
"221008","489-VK","2019/08/23 20:19:27","台北市內湖區康樂街235號","121.623251666667","25.0782783333333","6501100","汐止區"
"221036","130-UY","2019/08/23 20:19:35","新北市汐止區福安街59巷4號","121.664191666667","25.06363","6501100","汐止區"
"221015","131-UY","2019/08/23 20:19:37","新北市汐止區建成路142巷19弄15號","121.6619","25.0739","6501100","汐止區"
"221010","269-BY","2019/08/23 20:19:40","新北市汐止區八連路一段203號","121.6411","25.08086","6501100","汐止區"
"221012","278-VK","2019/08/23 20:19:32","新北市汐止區汐平路一段51號","121.682135","25.0705983333333","6501100","汐止區"
"221023","279-VK","2019/08/23 20:19:33","新北市汐止區明峰街298巷10弄1號","121.624986666667","25.06889","6501100","汐止區"
"221032","280-BY","2019/08/23 20:19:43","新北市汐止區力行街59巷1號","121.617046666667","25.0494266666667","6501100","汐止區"
"221029","298-VK","2019/08/23 20:19:46","新北市汐止區樟樹一路99巷7弄1號","121.641163333333","25.0635983333333","6501100","汐止區"
"221021","299-VK","2019/08/23 20:19:26","新北市汐止區水源路一段291巷1號","121.654321666667","25.0583616666667","6501100","汐止區"
"221031","353-TW","2019/08/23 20:19:35","新北市汐止區原興路73巷1號","121.632103333333","25.06615","6501100","汐止區"
"221025","623-UM","2019/08/23 20:19:40","新北市汐止區水源路二段34號","121.654933333333","25.0572683333333","6501100","汐止區"
"221038","646-BX","2019/08/23 20:19:40","新北市汐止區忠孝東路294號","121.664031666667","25.0685733333333","6501100","汐止區"
"221033","647-BX","2019/08/23 20:19:39","新北市汐止區東勢街201巷104號","121.633493333333","25.042855","6501100","汐止區"
"221002","707-TV","2019/08/23 20:19:42","新北市汐止區福德一路86巷25號","121.637638333333","25.068865","6501100","汐止區"
"221018","753-BX","2019/08/23 20:19:37","新北市汐止區茄苳路277號","121.672326666667","25.0679983333333","6501100","汐止區"
"220083","286-VK","2019/08/23 20:19:31","新北市板橋區僑中二街92巷2號","121.446285","25.00892","6500100","板橋區"
"220081","287-VK","2019/08/23 20:19:34","新北市板橋區僑中一街80巷5弄19號","121.446936666667","25.0125116666667","6500100","板橋區"
"242009","280-VK","2019/08/23 20:19:31","新北市新莊區昌平街1號","121.454851666667","25.051315","6500500","新莊區"
"220080","568-UM","2019/08/23 20:19:34","新北市板橋區大觀路二段265巷72弄35號","121.440991666667","24.9970366666667","6500100","板橋區"
"220054","741-BX","2019/08/23 20:19:45","新北市板橋區實踐路93巷25號","121.465171666667","25.0054083333333","6500100","板橋區"
"220055","827-TW","2019/08/23 20:19:37","新北市板橋區忠孝路48巷11弄6號","121.461655","24.9997916666667","6500100","板橋區"
