"lineid","car","time","location","longitude","latitude","cityid","cityname"
"235049","186-VK","2019/08/23 21:16:42","新北市中和區員山路36巷13號","121.4842","24.990875","6500300","中和區"
"235073","800-TS","2019/08/23 21:15:34","新北市中和區員山路36巷16-3號","121.485011666667","24.99147","6500300","中和區"
"251009","008-UM","2019/08/23 21:39:41","新北市淡水區民生路124巷28號","121.464098333333","25.13754","6501000","淡水區"
"251004","009-UM","2019/08/23 21:39:31","新北市淡水區民生路14號","121.461015","25.1378633333333","6501000","淡水區"
"251001","011-UM","2019/08/23 21:39:32","新北市淡水區新市二路三段152號","121.435363333333","25.194285","6501000","淡水區"
"251010","012-UM","2019/08/23 21:39:45","新北市淡水區沙崙路216巷46號","121.426296666667","25.1837866666667","6501000","淡水區"
"251008","181-VK","2019/08/23 21:39:32","新北市淡水區水源街二段90號","121.451708333333","25.1743466666667","6501000","淡水區"
"251007","182-VK","2019/08/23 21:39:38","新北市淡水區水源街二段194號","121.456836666667","25.1758816666667","6501000","淡水區"
"251012","441-VK","2019/08/23 21:39:38","新北市淡水區淡金路四段211號","121.451638333333","25.2221633333333","6501000","淡水區"
"251005","443-VK","2019/08/23 21:39:40","新北市淡水區水源街一段60號","121.444903333333","25.1720266666667","6501000","淡水區"
"251006","561-UM","2019/08/23 21:39:29","新北市淡水區中正路11巷3號","121.437881666667","25.1707883333333","6501000","淡水區"
"251011","650-BX","2019/08/23 21:39:38","新北市淡水區新民街101號","121.436146666667","25.1807533333333","6501000","淡水區"
"251002","672-BX","2019/08/23 21:39:30","新北市淡水區學府路170號","121.446445","25.1752566666667","6501000","淡水區"
"251003","766-UM","2019/08/23 21:39:41","新北市淡水區新民街294號","121.435131666667","25.1822816666667","6501000","淡水區"
