"lineid","car","time","location","longitude","latitude","cityid","cityname"
"251004","009-UM","2019/08/23 22:09:31","新北市淡水區民族路33號","121.462261666667","25.1358033333333","6501000","淡水區"
"251010","012-UM","2019/08/23 22:09:25","新北市淡水區沙崙路200號","121.424671666667","25.1838866666667","6501000","淡水區"
"251008","181-VK","2019/08/23 22:09:32","新北市淡水區學府路104號","121.449863333333","25.1718116666667","6501000","淡水區"
"251007","182-VK","2019/08/23 22:09:38","新北市淡水區北新路180號","121.449416666667","25.1786816666667","6501000","淡水區"
"251005","443-VK","2019/08/23 22:09:40","新北市淡水區鄧公路19號","121.451441666667","25.1700216666667","6501000","淡水區"
"251006","561-UM","2019/08/23 22:09:32","新北市淡水區新生街94號","121.439695","25.1747933333333","6501000","淡水區"
"251011","650-BX","2019/08/23 22:09:38","新北市淡水區水碓街7號","121.443156666667","25.1771766666667","6501000","淡水區"
