"lineid","car","time","location","longitude","latitude","cityid","cityname"
"232009","291-BY","2019/08/24 06:59:48","新北市坪林區九芎林25-4號","121.703446666667","24.9240366666667","6502000","坪林區"
"232010","375-UM","2019/08/24 06:59:46","新北市坪林區水聳淒坑1號","121.726171666667","24.9254216666667","6502000","坪林區"
"232016","705-BZ","2019/08/24 06:59:30","新北市坪林區仁里9-1號","121.691655","24.9332","6502000","坪林區"
"232004","758-BX","2019/08/24 06:59:29","新北市坪林區虎寮潭1號","121.740705","24.9517183333333","6502000","坪林區"
"244005","248-BX","2019/08/24 06:59:33","新北市林口區中山路685號","121.377638333333","25.08395","6501700","林口區"
"222007","289-BY","2019/08/24 06:59:36","新北市深坑區深坑街75號","121.614685","25.001275","6501800","深坑區"
"223002","KEA-2673","2019/08/24 06:59:33","新北市石碇區烏塗窟48號","121.65419","24.97042","6501900","石碇區"
"223003","205-TH","2019/08/24 06:59:42","新北市石碇區石崁31號","121.658838333333","24.9913066666667","6501900","石碇區"
"223008","406-TH","2019/08/24 06:59:30","新北市石碇區十八重溪61號","121.674906666667","25.0139433333333","6501900","石碇區"
"223001","592-UM","2019/08/24 06:59:44","新北市石碇區石碇東街46號","121.659676666667","24.9910683333333","6501900","石碇區"
"223004","660-BX","2019/08/24 06:59:50","新北市石碇區碇坪路一段52號","121.656933333333","24.99145","6501900","石碇區"
"223007","661-BX","2019/08/24 06:59:31","新北市石碇區十八重溪45號","121.675543333333","25.012475","6501900","石碇區"
"227004","282-VK","2019/08/24 06:59:30","新北市雙溪區新基里自強路5號","121.866401666667","25.0390016666667","6502500","雙溪區"
"252004","249-BX","2019/08/24 06:59:46","新北市三芝區埔坪里埔頭坑41號","121.504705","25.2645066666667","6502100","三芝區"
"252007","AAC-283","2019/08/24 06:59:30","新北市三芝區埔坪里埔頭坑107號","121.504601666667","25.2617266666667","6502100","三芝區"
