"lineid","car","time","location","longitude","latitude","cityid","cityname"
"244022","483-VK","2019/10/07 10:19:16","新北市林口區文林六街2-1號","121.370555","25.0800016666667","6501700","林口區"
"231007","189-VK","2019/10/07 10:19:19","新北市新店區新潭路二段62巷15號","121.520106666667","24.9276433333333","6500600","新店區"
"231008","192-VK","2019/10/07 10:16:51","新北市新店區小坑一路21-1號","121.53038","24.9110316666667","6500600","新店區"
"231052","515-UM","2019/10/07 10:19:25","新北市新店區竹林路157-1號","121.556478333333","24.9478866666667","6500600","新店區"
"227003","282-VK","2019/10/07 10:06:44","新北市雙溪區泰平里灣潭路35-1號","121.812176666667","24.9288166666667","6502500","雙溪區"
"252006","AAC-283","2019/10/07 10:19:21","新北市三芝區新庄里番社后31號","121.500531666667","25.2734433333333","6502100","三芝區"
