"lineid","car","time","location","longitude","latitude","cityid","cityname"
"234078","298-R6","2019/10/07 14:29:25","新北市永和區永貞路41號","121.521036666667","25.0064316666667","6500400","永和區"
"234036","336-UY","2019/10/07 14:29:23","新北市永和區民樂街39巷23號","121.528913333333","25.000645","6500400","永和區"
"234062","337-UY","2019/10/07 14:29:28","新北市永和區中正路417-1號","121.517141666667","25.0049516666667","6500400","永和區"
"234084","338-UY","2019/10/07 14:29:28","新北市永和區永和路二段299號","121.516108333333","25.0163133333333","6500400","永和區"
"234068","552-UM","2019/10/07 14:29:09","新北市永和區永亨路7號","121.519406666667","25.0057116666667","6500400","永和區"
"234028","746-BX","2019/10/07 14:29:19","新北市中和區景平路488號","121.50468","24.9937083333333","6500400","永和區"
"234052","KEA-2590","2019/10/07 14:29:25","新北市永和區光復街60巷25號","121.517801666667","25.017575","6500400","永和區"
"234005","KED-0605","2019/10/07 14:29:26","新北市永和區中正路644號","121.516908333333","25.0083416666667","6500400","永和區"
"234060","AAD-866","2019/10/07 14:29:21","新北市永和區秀安街13巷1號","121.515888333333","25.0034933333333","6500400","永和區"
"234040","862-TW","2019/10/07 14:29:20","新北市永和區安樂路348號","121.514473333333","25.00643","6500400","永和區"
"234048","863-TW","2019/10/07 14:29:12","新北市永和區新生路86號","121.507363333333","25.0150033333333","6500400","永和區"
"234025","9371-KE","2019/10/07 14:29:25","新北市中和區安平路220號","121.513998333333","24.9999733333333","6500400","永和區"
"248013","025-BX","2019/10/07 14:29:11","新北市五股區民義路一段152號","121.433128333333","25.0874116666667","6501500","五股區"
"248015","026-BX","2019/10/07 14:29:28","新北市五股區成泰路四段22巷27號","121.45508","25.107885","6501500","五股區"
"248007","KED-0815","2019/10/07 14:29:22","新北市五股區中興路二段83巷26-6號","121.459981666667","25.075355","6501500","五股區"
"248019","KED-0813","2019/10/07 14:01:47","新北市五股區凌雲路三段59-6號","121.42496","25.12498","6501500","五股區"
"248011","247-BX","2019/10/07 14:29:25","新北市五股區蓬萊路6巷15號","121.435708333333","25.0801133333333","6501500","五股區"
"248003","677-BX","2019/10/07 14:29:18","新北市五股區五福路54號","121.433488333333","25.08964","6501500","五股區"
"248001","678-BX","2019/10/07 14:29:12","新北市五股區成泰路三段557號","121.452035","25.1019966666667","6501500","五股區"
"234072","AAC-211","2019/10/07 14:29:21","新北市永和區環河東路一段126號","121.520693333333","25.0153716666667","6500400","永和區"
"234001","AAC-295","2019/10/07 14:29:26","新北市永和區大新街12號","121.514853333333","25.00853","6500400","永和區"
"243006","KEA-2801","2019/10/07 14:29:24","新北市泰山區仁義路220巷53號","121.432133333333","25.0527333333333","6501600","泰山區"
"243008","421-VK","2019/10/07 14:29:19","新北市泰山區新北大道七段97號","121.417788333333","25.0319883333333","6501600","泰山區"
"243004","539-UM","2019/10/07 14:29:22","新北市泰山區仁愛路36-3號","121.431656666667","25.05439","6501600","泰山區"
"243001","KEA-2215","2019/10/07 14:29:18","新北市五股區成泰路一段7巷12號","121.43332","25.066805","6501600","泰山區"
"243003","KEA-2216","2019/10/07 14:29:17","新北市泰山區貴子路67巷5號","121.430695","25.0398333333333","6501600","泰山區"
"243005","646-TV","2019/10/07 14:29:08","新北市泰山區貴子路24號","121.425713333333","25.0419066666667","6501600","泰山區"
"243007","680-BX","2019/10/07 14:29:15","新北市泰山區民權街29號","121.42894","25.0506266666667","6501600","泰山區"
"231030","002-UM","2019/10/07 14:29:23","新北市新店區安民街49號","121.516068333333","24.9657583333333","6500600","新店區"
"231027","0293-UT","2019/10/07 14:29:28","新北市新店區中正路75巷65號","121.543193333333","24.969215","6500600","新店區"
"231005","046-UY","2019/10/07 14:29:28","新北市新店區北新路三段83號","121.54145","24.9815016666667","6500600","新店區"
"231006","047-UY","2019/10/07 14:29:23","新北市新店區北宜路二段599號","121.568496666667","24.95577","6500600","新店區"
"231029","106-UY","2019/10/07 14:29:18","新北市新店區安康路二段382號","121.50051","24.9570333333333","6500600","新店區"
"231018","107-UY","2019/10/07 14:29:13","新北市新店區中央三街82號","121.526023333333","24.9754","6500600","新店區"
"231013","108-UY","2019/10/07 14:29:22","新北市新店區民權路90巷20號","121.536123333333","24.9835516666667","6500600","新店區"
"231036","110-UY","2019/10/07 14:29:13","新北市新店區安祥路109巷151弄8號","121.478313333333","24.95894","6500600","新店區"
"231023","260-TV","2019/10/07 14:29:21","新北市新店區光明街185號","121.540036666667","24.9631316666667","6500600","新店區"
"231003","268-BY","2019/10/07 14:29:22","新北市新店區中興路一段269號","121.544988333333","24.9680633333333","6500600","新店區"
"231035","278-BY","2019/10/07 14:29:17","新北市新店區安光路10-2號","121.513913333333","24.9641483333333","6500600","新店區"
"231014","AAD-862","2019/10/07 14:29:24","新北市新店區北宜路三段73號","121.576611666667","24.9518466666667","6500600","新店區"
"231038","3712-VJ","2019/10/07 14:29:28","新北市新店區安康路一段76號","121.52829","24.9619433333333","6500600","新店區"
"231019","513-UM","2019/10/07 14:29:19","新北市新店區新烏路三段69號","121.555443333333","24.9039266666667","6500600","新店區"
"231001","617-UM","2019/10/07 14:29:17","新北市新店區中正路75巷71號","121.543051666667","24.968875","6500600","新店區"
"231002","619-UM","2019/10/07 14:29:19","新北市新店區中央路31號","121.533013333333","24.9778133333333","6500600","新店區"
"231034","641-BX","2019/10/07 14:29:14","新北市新店區車子路11號","121.503078333333","24.9520316666667","6500600","新店區"
"231011","KED-0819","2019/10/07 14:29:11","新北市新店區中興路二段200-1號","121.548535","24.9741983333333","6500600","新店區"
"231028","897-TW","2019/10/07 14:29:21","新北市新店區安和路二段32號","121.518098333333","24.967695","6500600","新店區"
"231004","899-TW","2019/10/07 14:29:23","新北市新店區中正路263-5號","121.538241666667","24.97393","6500600","新店區"
"231037","AKT-0513","2019/10/07 14:29:22","新北市新店區車子路12號","121.50474","24.954215","6500600","新店區"
"235030","003-UY","2019/10/07 14:29:18","新北市中和區景新街48號","121.503941666667","24.9992316666667","6500300","中和區"
"235027","006-UY","2019/10/07 14:29:09","新北市中和區連城路146號","121.495021666667","24.9983083333333","6500300","中和區"
"235020","096-UM","2019/10/07 14:29:28","新北市中和區員山路514巷1號","121.479275","25.009605","6500300","中和區"
"235003","097-UM","2019/10/07 14:29:20","新北市中和區景平路332號","121.512166666667","24.9928566666667","6500300","中和區"
"235029","098-UM","2019/10/07 14:29:14","新北市中和區永和路56號","121.499341666667","25.0042566666667","6500300","中和區"
"235004","150-BY","2019/10/07 14:29:12","新北市中和區安樂路51巷26號","121.511358333333","24.9941833333333","6500300","中和區"
"235022","151-BY","2019/10/07 14:29:14","新北市中和區員山路132巷19號","121.482305","24.996365","6500300","中和區"
"235019","183-VK","2019/10/07 14:29:08","新北市中和區德光路15巷22號","121.471335","25.0032283333333","6500300","中和區"
"235002","185-VK","2019/10/07 14:29:23","新北市中和區自立路109號","121.522016666667","24.9946083333333","6500300","中和區"
"235031","255-BX","2019/10/07 14:29:21","新北市中和區新生街279號","121.483803333333","24.9977416666667","6500300","中和區"
"235008","293-VK","2019/10/07 14:29:25","新北市中和區捷運路129號","121.507143333333","24.99081","6500300","中和區"
"235036","301-VK","2019/10/07 14:29:13","新北市中和區莊敬路1-6號","121.499445","25.00438","6500300","中和區"
"235007","352-BY","2019/10/07 14:29:14","新北市中和區景平路404號","121.50904","24.99325","6500300","中和區"
"235006","KEA-2878","2019/10/07 14:29:19","新北市中和區宜安路150號","121.509366666667","24.998685","6500300","中和區"
"247015","KEA-2869","2019/10/07 14:29:21","新北市蘆洲區中正路185巷23弄24號","121.467533333333","25.0839783333333","6501400","蘆洲區"
"247009","KED-0682","2019/10/07 14:29:22","新北市蘆洲區鷺江街19號","121.479016666667","25.082535","6501400","蘆洲區"
"235014","4979-A6","2019/10/07 14:29:13","新北市中和區連城路263巷26號","121.492543333333","24.9943166666667","6500300","中和區"
"235026","551-UM","2019/10/07 14:29:22","新北市中和區中山路二段362-6號","121.492395","25.0030983333333","6500300","中和區"
"235034","558-UM","2019/10/07 14:29:25","新北市中和區景平路650號","121.497793333333","25.0005883333333","6500300","中和區"
"235009","565-BX","2019/10/07 14:29:09","新北市中和區景新街328號","121.511696666667","24.9909483333333","6500300","中和區"
"235024","KED-0823","2019/10/07 14:29:20","新北市中和區新生街16巷24號","121.482211666667","25.00442","6500300","中和區"
"235018","640-BX","2019/10/07 14:29:13","新北市中和區莒光路113號","121.472495","25.0025116666667","6500300","中和區"
"235011","732-UM","2019/10/07 14:29:12","新北市中和區景平路259巷36號","121.506838333333","24.9927733333333","6500300","中和區"
"235035","783-BX","2019/10/07 14:29:12","新北市中和區連城路469巷48號","121.483486666667","24.994485","6500300","中和區"
"235021","801-TS","2019/10/07 14:29:24","新北市中和區員山路150-10號","121.481331666667","24.9976066666667","6500300","中和區"
"235005","802-TS","2019/10/07 14:29:24","新北市中和區景安路50號","121.506328333333","24.9982466666667","6500300","中和區"
"235016","805-TS","2019/10/07 14:29:18","新北市中和區華新街143巷65弄2號","121.506651666667","24.9789866666667","6500300","中和區"
"235012","896-TW","2019/10/07 14:29:09","新北市中和區忠孝街60巷2弄2號","121.511625","24.9837533333333","6500300","中和區"
"235017","900-TW","2019/10/07 14:29:14","新北市中和區民德路197-2號","121.468525","24.9989316666667","6500300","中和區"
"235028","911-UM","2019/10/07 14:29:30","新北市中和區南山路127巷14號","121.503183333333","24.99735","6500300","中和區"
"235015","157-BY","2019/10/07 14:29:26","新北市中和區中興街130號","121.499821666667","24.9923883333333","6500300","中和區"
"235001","AAC-213","2019/10/07 14:29:12","新北市中和區秀朗路三段107號","121.526446666667","24.9946","6500300","中和區"
"235023","AAC-215","2019/10/07 14:29:26","新北市中和區圓通路268-2號","121.492456666667","24.990805","6500300","中和區"
"220013","072-UY","2019/10/07 14:29:12","新北市板橋區國泰街39巷6弄30號","121.467963333333","25.0055733333333","6500100","板橋區"
"220034","073-UY","2019/10/07 14:29:14","新北市板橋區中正路216巷8號","121.456333333333","25.018385","6500100","板橋區"
"220105","075-UY","2019/10/07 14:29:10","新北市板橋區文化路二段548巷21-1號","121.47662","25.0338316666667","6500100","板橋區"
"220017","AAD-861","2019/10/07 14:29:10","新北市板橋區華興街68號","121.457475","25.0049716666667","6500100","板橋區"
"247005","893-R6","2019/10/07 14:29:27","新北市蘆洲區中華街70號","121.461343333333","25.0798","6501400","蘆洲區"
"247019","341-TH","2019/10/07 14:29:21","新北市蘆洲區仁愛街102-11號","121.470315","25.0950033333333","6501400","蘆洲區"
"247003","336-TH","2019/10/07 14:29:26","新北市蘆洲區長安街220巷11弄1號","121.459451666667","25.085115","6501400","蘆洲區"
"247023","057-VK","2019/10/07 14:29:19","新北市蘆洲區中正路263巷2號","121.467285","25.0874883333333","6501400","蘆洲區"
"247013","056-VK","2019/10/07 14:29:08","新北市蘆洲區中山二路135號","121.472013333333","25.0815966666667","6501400","蘆洲區"
"247017","053-VK","2019/10/07 14:29:18","新北市蘆洲區復興路227巷47-1號","121.479346666667","25.091665","6501400","蘆洲區"
"247021","007-UY","2019/10/07 14:29:27","新北市蘆洲區三民路128巷7號","121.470683333333","25.0882916666667","6501400","蘆洲區"
"247007","002-UY","2019/10/07 14:29:21","新北市蘆洲區信義路74號","121.476391666667","25.07936","6501400","蘆洲區"
"247001","001-UY","2019/10/07 14:29:21","新北市蘆洲區環堤大道166號","121.456226666667","25.0895716666667","6501400","蘆洲區"
"235013","251-BX","2019/10/07 14:29:17","新北市中和區景新街273巷10號","121.509945","24.993845","6500300","中和區"
"253003","6232-TK","2019/10/07 14:29:13","新北市石門區尖子鹿47號","121.580433333333","25.2683916666667","6502200","石門區"
"253004","6251-TK","2019/10/07 14:29:12","新北市石門區內阿里磅1號","121.592155","25.2544483333333","6502200","石門區"
"253002","637-UY","2019/10/07 14:29:20","新北市石門區七股4-2號","121.547003333333","25.273975","6502200","石門區"
"253001","KEC-0718","2019/10/07 14:29:21","新北市石門區崁子腳84號","121.533816666667","25.2776833333333","6502200","石門區"
"243002","549-UM","2019/10/07 14:29:23","新北市泰山區明志路二段51號","121.429375","25.05278","6501600","泰山區"
"207002","749-BX","2019/10/07 14:29:07","新北市萬里區溪底里溪底路2號","121.619125","25.151945","6502800","萬里區"
"252005","073-UM","2019/10/07 14:29:23","新北市三芝區橫山里大坑10-1號","121.520525","25.2567633333333","6502100","三芝區"
"207001","662-BX","2019/10/07 14:29:22","新北市萬里區磺潭里清水18-2號","121.638536666667","25.1983383333333","6502800","萬里區"
"236040","KED-0685","2019/10/07 14:29:17","新北市土城區學成路99巷11號","121.449943333333","24.9884","6501300","土城區"
"236074","166-UM","2019/10/07 14:29:31","新北市土城區中央路四段43號","121.42265","24.9619616666667","6501300","土城區"
"236029","253-BX","2019/10/07 14:29:22","新北市土城區順風路8號","121.440138333333","24.97627","6501300","土城區"
"236024","269-VK","2019/10/07 14:29:29","新北市土城區承天路43巷6號","121.439271666667","24.9639466666667","6501300","土城區"
"236012","270-VK","2019/10/07 14:29:22","新北市土城區青雲路39巷7號","121.460313333333","24.9874166666667","6501300","土城區"
"236032","271-VK","2019/10/07 14:29:16","新北市土城區明德路一段287巷12號","121.460975","24.9769116666667","6501300","土城區"
"236064","KEA-2877","2019/10/07 14:29:07","新北市土城區永豐路199-1號","121.472278333333","24.9776416666667","6501300","土城區"
"236016","401-BY","2019/10/07 14:29:22","新北市土城區永豐路202巷14號","121.466405","24.9834183333333","6501300","土城區"
"236057","912-UM","2019/10/07 14:29:24","新北市土城區中央路四段187號","121.414821666667","24.9566116666667","6501300","土城區"
"236045","913-UM","2019/10/07 14:29:19","新北市土城區青雲路428號","121.458863333333","24.9722366666667","6501300","土城區"
"236060","915-UM","2019/10/07 14:29:23","新北市土城區延壽路119號","121.469013333333","24.9944116666667","6501300","土城區"
"236054","AAC-216","2019/10/07 14:29:08","新北市土城區福祥街101巷1號","121.44099","24.9817666666667","6501300","土城區"
"220027","145-BY","2019/10/07 14:29:11","新北市板橋區公館街27號","121.461091666667","25.0152966666667","6500100","板橋區"
"220028","200-UY","2019/10/07 14:29:18","新北市板橋區大觀路二段3巷41-2號","121.44877","25.00355","6500100","板橋區"
"220030","610-BX","2019/10/07 14:29:24","新北市板橋區溪城路85號","121.426883333333","24.98347","6500100","板橋區"
"220004","276-BY","2019/10/07 14:29:17","新北市板橋區信義路98號","121.458106666667","24.9928816666667","6500100","板橋區"
"220020","277-BY","2019/10/07 14:29:19","新北市板橋區金門街337巷12弄2號","121.430203333333","24.9848283333333","6500100","板橋區"
"220050","280-UM","2019/10/07 14:29:15","新北市板橋區莊敬路220巷21號","121.472655","25.0205916666667","6500100","板橋區"
"220019","283-VK","2019/10/07 14:29:24","新北市板橋區忠孝路48巷9弄1號","121.461245","25.000115","6500100","板橋區"
"220043","285-UM","2019/10/07 14:29:26","新北市板橋區銘傳街39號","121.468635","25.0311516666667","6500100","板橋區"
"220031","286-VK","2019/10/07 14:29:25","新北市板橋區龍興街71巷48號","121.441813333333","25.002735","6500100","板橋區"
"220029","287-VK","2019/10/07 14:29:13","新北市板橋區大觀路一段29巷131弄136號","121.451575","25.0039283333333","6500100","板橋區"
"220039","288-VK","2019/10/07 14:29:19","新北市板橋區裕民街151號","121.458615","25.0270733333333","6500100","板橋區"
"220009","293-UM","2019/10/07 14:29:12","新北市板橋區中山路一段265巷7-4號","121.468518333333","25.0145716666667","6500100","板橋區"
"220032","296-UM","2019/10/07 14:29:27","新北市板橋區滿平街84巷153號","121.427113333333","24.9863783333333","6500100","板橋區"
"220001","299-UM","2019/10/07 14:29:25","新北市板橋區永豐街187號","121.476121666667","25.0207416666667","6500100","板橋區"
"220023","303-R5","2019/10/07 14:29:22","新北市板橋區南雅西路一段116號","121.452495","25.006445","6500100","板橋區"
"220010","305-R5","2019/10/07 14:29:17","新北市板橋區三民路二段153巷2弄12-5號","121.479526666667","25.01443","6500100","板橋區"
"220041","307-R5","2019/10/07 14:29:28","新北市板橋區陽明街164巷10弄1號","121.464185","25.024455","6500100","板橋區"
"220047","317-R6","2019/10/07 14:29:21","新北市板橋區四維路251號","121.46357","25.0277416666667","6500100","板橋區"
"220038","487-VK","2019/10/07 14:29:20","新北市板橋區英士路20號","121.461861666667","25.02524","6500100","板橋區"
"220037","491-VK","2019/10/07 14:29:21","新北市板橋區雙十路一段2號","121.478395","25.024065","6500100","板橋區"
"220104","560-BX","2019/10/07 14:29:14","新北市板橋區中正路433巷1號","121.454135","25.0232883333333","6500100","板橋區"
"220052","561-BX","2019/10/07 14:29:27","新北市板橋區陽明街29巷11號","121.46484","25.021905","6500100","板橋區"
"220011","609-BX","2019/10/07 14:29:18","新北市板橋區三民路二段203-9號","121.479065","25.013295","6500100","板橋區"
"220022","630-UY","2019/10/07 14:29:23","新北市板橋區北門街16號","121.457573333333","25.0106483333333","6500100","板橋區"
"220040","637-BX","2019/10/07 14:29:20","新北市板橋區文聖街149巷12號","121.479121666667","25.0282383333333","6500100","板橋區"
"220005","686-BX","2019/10/07 14:29:23","新北市板橋區國慶路49巷1號","121.459541666667","24.9956283333333","6500100","板橋區"
"220025","687-BX","2019/10/07 14:29:23","新北市板橋區大觀路二段161號","121.44539","25.0006516666667","6500100","板橋區"
"220042","689-BX","2019/10/07 14:29:10","新北市板橋區雨農路50號","121.461093333333","25.0244566666667","6500100","板橋區"
"220002","741-BX","2019/10/07 14:29:23","新北市板橋區光明街52號","121.460841666667","25.0025483333333","6500100","板橋區"
"220051","KEA-2699","2019/10/07 14:29:23","新北市板橋區雙十路二段46巷20號","121.476236666667","25.028095","6500100","板橋區"
"220003","827-TW","2019/10/07 14:29:10","新北市板橋區實踐路60號","121.46386","25.0060083333333","6500100","板橋區"
"220016","830-TW","2019/10/07 14:29:07","新北市板橋區萬安街13號","121.484573333333","25.022585","6500100","板橋區"
"220014","831-TW","2019/10/07 14:29:21","新北市板橋區長安街138巷7弄22號","121.47364","25.0085683333333","6500100","板橋區"
"220021","985-R7","2019/10/07 14:29:19","新北市板橋區中正路332-11號","121.45425","25.0232883333333","6500100","板橋區"
"220046","AAC-210","2019/10/07 14:29:19","新北市板橋區文化路一段285巷2弄13-1號","121.464338333333","25.0195366666667","6500100","板橋區"
"220012","AAC-253","2019/10/07 14:29:14","新北市板橋區中山路一段26號","121.460368333333","25.0084966666667","6500100","板橋區"
"235032","KEA-2873","2019/10/07 14:28:57","新北市中和區福祥路67號","121.499113333333","25.0048566666667","6500300","中和區"
"235025","KEA-2875","2019/10/07 14:29:18","新北市中和區員山路226巷3弄2號","121.481656666667","25.0008566666667","6500300","中和區"
