"lineid","car","time","location","longitude","latitude","cityid","cityname"
"249005","172-UM","2019/10/07 17:29:14","新北市八里區荖阡坑路71號","121.40728","25.1261883333333","6502300","八里區"
"249001","173-UM","2019/10/07 17:29:11","新北市八里區中華路一段1-5號","121.423268333333","25.1586633333333","6502300","八里區"
"249004","303-UY","2019/10/07 17:29:10","新北市八里區埤頭一街6號","121.415753333333","25.1560316666667","6502300","八里區"
"249002","305-UY","2019/10/07 17:29:19","新北市八里區龍米路二段117巷16號","121.445445","25.1430316666667","6502300","八里區"
"249003","593-UM","2019/10/07 17:29:21","新北市八里區中山路二段378號","121.400786666667","25.1479483333333","6502300","八里區"
"232011","375-UM","2019/10/07 17:29:25","新北市坪林區北宜路八段558號","121.718013333333","24.909245","6502000","坪林區"
"244007","080-UY","2019/10/07 17:29:22","新北市林口區菁埔1-1號","121.382638333333","25.09515","6501700","林口區"
"244013","KEA-2802","2019/10/07 17:29:19","新北市林口區中山路158號","121.390653333333","25.07878","6501700","林口區"
"244023","483-VK","2019/10/07 17:29:13","新北市林口區東明三街391號","121.393008333333","25.07123","6501700","林口區"
"244017","485-VK","2019/10/07 17:29:24","新北市林口區中山路303號","121.383823333333","25.080385","6501700","林口區"
"244009","656-BX","2019/10/07 17:29:25","新北市林口區中北三街178號","121.383051666667","25.082655","6501700","林口區"
"244011","701-TV","2019/10/07 17:29:10","新北市林口區佳林路154號","121.384186666667","25.0771216666667","6501700","林口區"
"244025","837-TS","2019/10/07 17:29:23","新北市林口區文化三路一段359號","121.364735","25.0728066666667","6501700","林口區"
"244021","838-TS","2019/10/07 17:29:27","新北市林口區東林街14號","121.396218333333","25.0789283333333","6501700","林口區"
"231046","719-UM","2019/10/07 17:15:04","新北市新店區直潭一街112號","121.534708333333","24.9385633333333","6500600","新店區"
"241015","062-VK","2019/10/07 17:29:18","新北市三重區長元街81號","121.503466666667","25.0668633333333","6500200","三重區"
"241017","063-VK","2019/10/07 17:29:08","新北市三重區重新路三段49號","121.493006666667","25.06162","6500200","三重區"
"241024","065-VK","2019/10/07 17:29:07","新北市三重區大勇街82巷15弄9號","121.480125","25.0718283333333","6500200","三重區"
"241007","066-VK","2019/10/07 17:29:07","新北市三重區三和路四段145巷215號","121.48879","25.0795483333333","6500200","三重區"
"241003","091-VK","2019/10/07 17:29:22","新北市三重區五華街141巷58號","121.493575","25.0867916666667","6500200","三重區"
"241016","266-UM","2019/10/07 17:29:18","新北市三重區信義西街80號","121.496763333333","25.0643483333333","6500200","三重區"
"241018","268-UM","2019/10/07 17:29:25","新北市三重區中正北路25巷28號","121.49383","25.0633333333333","6500200","三重區"
"241032","269-UM","2019/10/07 17:29:11","新北市三重區名源街55號","121.482285","25.059585","6500200","三重區"
"241013","270-UM","2019/10/07 17:29:17","新北市三重區仁愛街141巷6號","121.495606666667","25.0754583333333","6500200","三重區"
"241030","KED-0822","2019/10/07 17:29:19","新北市三重區新興路49號","121.491525","25.0537116666667","6500200","三重區"
"241020","478-VK","2019/10/07 17:29:22","新北市三重區忠孝路三段49號","121.481203333333","25.0668033333333","6500200","三重區"
"241014","543-UM","2019/10/07 17:29:18","新北市三重區安和路17號","121.501401666667","25.0684383333333","6500200","三重區"
"241019","KEA-2593","2019/10/07 17:29:17","新北市三重區自強路二段26巷40號","121.488353333333","25.0688533333333","6500200","三重區"
"241005","AAD-863","2019/10/07 17:29:14","新北市三重區碧華街125號","121.486063333333","25.0817916666667","6500200","三重區"
"241012","743-BX","2019/10/07 17:29:22","新北市三重區仁義街15號","121.500231666667","25.075655","6500200","三重區"
"241023","887-TS","2019/10/07 17:29:08","新北市三重區忠孝路三段50巷41弄1號","121.48233","25.0644533333333","6500200","三重區"
"241033","AAC-255","2019/10/07 17:29:20","新北市三重區興德路133號","121.470081666667","25.0530483333333","6500200","三重區"
"247016","KEA-2869","2019/10/07 17:29:25","新北市蘆洲區光華路22巷35號","121.468446666667","25.0845666666667","6501400","蘆洲區"
"247010","KED-0682","2019/10/07 17:29:17","新北市蘆洲區中山一路74巷55號","121.479868333333","25.0817","6501400","蘆洲區"
"247006","893-R6","2019/10/07 17:29:18","新北市蘆洲區長安街68巷20號","121.463946666667","25.080725","6501400","蘆洲區"
"247020","341-TH","2019/10/07 17:29:22","新北市蘆洲區水湳街178號","121.470636666667","25.0938716666667","6501400","蘆洲區"
"247012","337-TH","2019/10/07 17:29:09","新北市蘆洲區三民路88號","121.473953333333","25.0851183333333","6501400","蘆洲區"
"247004","336-TH","2019/10/07 17:29:16","新北市蘆洲區長安街158號","121.459555","25.08285","6501400","蘆洲區"
"247024","057-VK","2019/10/07 17:29:16","新北市蘆洲區長榮路478號","121.460333333333","25.089405","6501400","蘆洲區"
"247014","056-VK","2019/10/07 17:29:22","新北市蘆洲區三民路105號","121.472655","25.0854666666667","6501400","蘆洲區"
"247018","053-VK","2019/10/07 17:29:23","新北市蘆洲區民義街26號","121.471561666667","25.0886633333333","6501400","蘆洲區"
"247022","007-UY","2019/10/07 17:29:24","新北市蘆洲區三民路341-5號","121.46475","25.091105","6501400","蘆洲區"
"247008","002-UY","2019/10/07 17:29:27","新北市蘆洲區信義路34巷50號","121.475065","25.0780283333333","6501400","蘆洲區"
"247002","001-UY","2019/10/07 17:29:11","新北市蘆洲區永樂街38巷57弄1號","121.458363333333","25.0901066666667","6501400","蘆洲區"
"228003","097-TW","2019/10/07 17:29:17","新北市貢寮區仁理村研海街45號","121.925858333333","25.0425","6502600","貢寮區"
"228002","663-BX","2019/10/07 17:29:22","新北市貢寮區福隆里虎子山街21號","121.938006666667","25.0182866666667","6502600","貢寮區"
"228001","670-TC","2019/10/07 17:29:15","新北市貢寮區仁理村仁愛路35號","121.924883333333","25.0533083333333","6502600","貢寮區"
"224010","AGQ-8101","2019/10/07 17:22:26","新北市瑞芳區逢甲路98號","121.809553333333","25.109075","6501200","瑞芳區"
"224006","676-BX","2019/10/07 17:29:24","新北市瑞芳區靜安路四段92號","121.793168333333","25.109935","6501200","瑞芳區"
"224009","275-VK","2019/10/07 17:29:21","新北市瑞芳區汽車路9-13號","121.84588","25.11104","6501200","瑞芳區"
"224008","273-VK","2019/10/07 17:29:22","新北市瑞芳區侯硐路220號","121.830608333333","25.08843","6501200","瑞芳區"
"224005","271-BY","2019/10/07 17:29:25","新北市瑞芳區海濱路2巷1號","121.834876666667","25.12716","6501200","瑞芳區"
"227002","642-TC","2019/10/07 17:29:11","新北市雙溪區共和里東榮街52號","121.866281666667","25.0337183333333","6502500","雙溪區"
"227001","400-TW","2019/10/07 17:29:27","新北市雙溪區三貂里定福路1-2號","121.850663333333","25.0635","6502500","雙溪區"
"251009","008-UM","2019/10/07 17:29:15","新北市淡水區新生街30巷1號","121.4389","25.1730883333333","6501000","淡水區"
"251004","009-UM","2019/10/07 17:15:12","新北市淡水區中正東路二段88巷15號","121.45905","25.1504866666667","6501000","淡水區"
"251005","010-UM","2019/10/07 17:29:21","新北市淡水區鄧公路32巷16號","121.451163333333","25.1709383333333","6501000","淡水區"
"251002","012-UM","2019/10/07 17:29:24","新北市淡水區中正路一段68號","121.425206666667","25.1770866666667","6501000","淡水區"
"251015","KEA-2871","2019/10/07 17:29:22","新北市淡水區三空泉20號","121.469103333333","25.165675","6501000","淡水區"
"251016","179-VK","2019/10/07 17:29:28","新北市淡水區埤島75號","121.454198333333","25.194545","6501000","淡水區"
"251013","180-VK","2019/10/07 17:29:10","新北市淡水區大竹圍5號","121.466571666667","25.195205","6501000","淡水區"
"251008","181-VK","2019/10/07 17:29:12","新北市淡水區大同路100巷1號","121.462243333333","25.1396183333333","6501000","淡水區"
"251010","413-VK","2019/10/07 17:29:08","新北市淡水區中正路二段211號","121.42618","25.1891033333333","6501000","淡水區"
"251007","442-VK","2019/10/07 17:29:19","新北市淡水區民生路56號","121.462021666667","25.1379416666667","6501000","淡水區"
"251012","443-VK","2019/10/07 17:29:18","新北市淡水區北新路111號","121.448035","25.1783783333333","6501000","淡水區"
"251006","561-UM","2019/10/07 17:29:23","新北市淡水區大仁街27號","121.442583333333","25.1753283333333","6501000","淡水區"
"251014","577-R6","2019/10/07 17:29:27","新北市淡水區公埔子20-6號","121.472168333333","25.22657","6501000","淡水區"
"251011","650-BX","2019/10/07 17:29:26","新北市淡水區三空泉8-1號","121.475933333333","25.161195","6501000","淡水區"
"251003","673-BX","2019/10/07 17:29:24","新北市淡水區中山路157-3號","121.440736666667","25.1728933333333","6501000","淡水區"
"207003","550-UM","2019/10/07 17:29:26","新北市萬里區龜吼里美崙路93號","121.685281666667","25.18509","6502800","萬里區"
"207004","291-VK","2019/10/07 17:29:13","新北市萬里區萬里里瑪鋉路18號","121.689298333333","25.1751766666667","6502800","萬里區"
"252002","178-VK","2019/10/07 17:29:10","新北市三芝區忠孝街1-15號","121.505593333333","25.2539466666667","6502100","三芝區"
"233002","762-BX","2019/10/07 17:26:53","新北市烏來區野要街82號","121.546213333333","24.85395","6502900","烏來區"
"252001","KED-0821","2019/10/07 17:29:11","新北市三芝區淡金路一段3號","121.498088333333","25.25963","6502100","三芝區"
"242042","AAC-296","2019/10/07 17:29:13","新北市新莊區新樹路113巷33號","121.439531666667","25.0264183333333","6500500","新莊區"
"242060","986-R7","2019/10/07 17:29:23","新北市新莊區瓊林路59-38號","121.441121666667","25.02344","6500500","新莊區"
"242004","751-BX","2019/10/07 17:29:24","新北市新莊區中港路278號","121.453116666667","25.0441233333333","6500500","新莊區"
"242029","615-BX","2019/10/07 17:29:16","新北市新莊區復興路二段194號","121.459323333333","25.044465","6500500","新莊區"
"242027","613-BX","2019/10/07 17:29:20","新北市新莊區思源路41號","121.459873333333","25.03978","6500500","新莊區"
"242058","612-BX","2019/10/07 17:29:28","新北市新莊區中正路400號","121.441941666667","25.0340733333333","6500500","新莊區"
"242048","566-BX","2019/10/07 17:29:16","新北市新莊區四維路227號","121.421533333333","25.0195633333333","6500500","新莊區"
"242053","497-BY","2019/10/07 17:29:13","新北市新莊區瓊林南路305巷35號","121.435676666667","25.0050466666667","6500500","新莊區"
"242021","442-UM","2019/10/07 17:29:22","新北市新莊區中正路130號","121.452871666667","25.0362116666667","6500500","新莊區"
"242002","441-UM","2019/10/07 17:29:15","新北市新莊區新莊路211號","121.455361666667","25.035435","6500500","新莊區"
"242007","440-UM","2019/10/07 17:29:11","新北市新莊區中港路301號","121.452943333333","25.0444616666667","6500500","新莊區"
"242013","413-TV","2019/10/07 17:29:08","新北市新莊區中誠街68號","121.450703333333","25.04794","6500500","新莊區"
"242050","400-BY","2019/10/07 17:29:12","新北市新莊區新樹路447號","121.432778333333","25.0135066666667","6500500","新莊區"
"242025","362-BY","2019/10/07 17:29:08","新北市新莊區中港路281號","121.453225","25.0438316666667","6500500","新莊區"
"242023","353-BY","2019/10/07 17:29:22","新北市新莊區公園路150號","121.453151666667","25.0401216666667","6500500","新莊區"
"242015","132-UY","2019/10/07 17:29:27","新北市新莊區新泰路161號","121.44777","25.037005","6500500","新莊區"
"242044","135-UY","2019/10/07 17:29:26","新北市新莊區富國路99號","121.42104","25.0255883333333","6500500","新莊區"
"242056","172-VK","2019/10/07 17:29:20","新北市新莊區景德路258號","121.448701666667","25.0337366666667","6500500","新莊區"
"242017","173-VK","2019/10/07 17:29:11","新北市新莊區中港路315號","121.452645","25.044765","6500500","新莊區"
"242031","175-VK","2019/10/07 17:29:14","新北市新莊區新泰路442號","121.443316666667","25.044715","6500500","新莊區"
"242039","347-TH","2019/10/07 17:29:18","新北市新莊區民安路309號","121.429933333333","25.02262","6500500","新莊區"
"242036","348-TH","2019/10/07 17:29:17","新北市新莊區建國二路11號","121.434485","25.0238283333333","6500500","新莊區"
"242009","349-TH","2019/10/07 17:29:25","新北市新莊區中原路189號","121.452675","25.0542783333333","6500500","新莊區"
"242034","350-TH","2019/10/07 17:29:27","新北市新莊區新莊路368號","121.449406666667","25.0335183333333","6500500","新莊區"
"242019","351-TH","2019/10/07 17:29:22","新北市新莊區中港路五守新村1巷5號","121.455356666667","25.0382883333333","6500500","新莊區"
"238015","755-BX","2019/10/07 17:29:10","新北市樹林區大安路265號","121.418986666667","24.993865","6500700","樹林區"
"238023","601-UM","2019/10/07 17:29:17","新北市樹林區三福街114號","121.406341666667","25.0162766666667","6500700","樹林區"
"238019","599-UM","2019/10/07 17:29:15","新北市樹林區國凱街82-2號","121.421353333333","24.9792083333333","6500700","樹林區"
"238024","5061-A6","2019/10/07 17:29:20","新北市樹林區鎮前街164號","121.42439","24.989985","6500700","樹林區"
"238018","KEA-2217","2019/10/07 17:29:21","新北市樹林區鎮前街273號","121.419535","24.9859233333333","6500700","樹林區"
"238022","KEA-2213","2019/10/07 17:28:54","新北市樹林區仁愛街36號","121.423008333333","24.9824233333333","6500700","樹林區"
"238021","KEA-2539","2019/10/07 17:29:11","新北市樹林區西圳街一段203巷13號","121.393411666667","24.9594016666667","6500700","樹林區"
"238025","303-VK","2019/10/07 17:29:27","新北市樹林區保安街二段65號","121.416006666667","25.0005","6500700","樹林區"
"238017","283-BY","2019/10/07 17:29:17","新北市樹林區三德街12號","121.413318333333","25.0128066666667","6500700","樹林區"
"238014","282-BY","2019/10/07 17:29:14","新北市樹林區保安街一段294巷41號","121.420176666667","24.998715","6500700","樹林區"
"238020","268-VK","2019/10/07 17:29:11","新北市樹林區千歲街186號","121.429311666667","25.0012183333333","6500700","樹林區"
"238026","172-UY","2019/10/07 17:29:08","新北市樹林區味王街6號","121.402866666667","24.97618","6500700","樹林區"
"238016","169-UY","2019/10/07 17:29:24","新北市樹林區中山路一段2巷2號","121.42435","24.9940033333333","6500700","樹林區"
"239007","AAC-297","2019/10/07 17:29:20","新北市鶯歌區中山路224號","121.344683333333","24.95699","6500800","鶯歌區"
"239006","891-R6","2019/10/07 17:29:13","新北市鶯歌區鶯桃路472巷13號","121.332938333333","24.9657783333333","6500800","鶯歌區"
"239008","527-UM","2019/10/07 17:29:24","新北市鶯歌區大湖路590巷11號","121.336091666667","24.97423","6500800","鶯歌區"
"239005","526-UM","2019/10/07 17:29:20","新北市鶯歌區福隆二街69巷1弄2號","121.323981666667","24.97154","6500800","鶯歌區"
"239001","417-VK","2019/10/07 17:29:23","新北市鶯歌區尖山路231號","121.340245","24.94385","6500800","鶯歌區"
"239003","360-BY","2019/10/07 17:29:17","新北市鶯歌區鶯桃路289-1號","121.334658333333","24.9603366666667","6500800","鶯歌區"
"239002","359-BY","2019/10/07 17:29:16","新北市鶯歌區育才街10號","121.349525","24.9550316666667","6500800","鶯歌區"
"239004","193-VK","2019/10/07 17:29:11","新北市三峽區復興路553號","121.356671666667","24.9404816666667","6500800","鶯歌區"
"244019","KED-0667","2019/10/07 17:29:24","新北市林口區文化一路一段133號","121.37386","25.071735","6501700","林口區"
"233001","KEA-2870","2019/10/07 17:29:19","新北市烏來區瀑布路24號","121.542856666667","24.846365","6502900","烏來區"
"242046","281-VK","2019/10/07 17:29:23","新北市新莊區新樹路12-1號","121.43967","25.031265","6500500","新莊區"
"242011","280-VK","2019/10/07 17:29:11","新北市新莊區中港路437號","121.452461666667","25.0480216666667","6500500","新莊區"
"235061","KEA-2875","2019/10/07 17:13:44","新北市中和區員山路36巷16-2號","121.485311666667","24.9916633333333","6500300","中和區"
"235062","KEA-2876","2019/10/07 17:23:05","新北市中和區員山路36巷16-3號","121.485056666667","24.9913716666667","6500300","中和區"
