"lineid","car","time","location","longitude","latitude","cityid","cityname"
"234046","148-BY","2019/10/07 18:39:27","新北市永和區秀朗路二段66巷9號","121.52264","25.001375","6500400","永和區"
"234081","298-R6","2019/10/07 18:39:12","新北市永和區林森路81號","121.523915","25.003885","6500400","永和區"
"234064","337-UY","2019/10/07 18:39:20","新北市永和區福和路1號","121.526606666667","25.0101733333333","6500400","永和區"
"234086","338-UY","2019/10/07 18:39:26","新北市永和區中正路46號","121.51309","24.9944666666667","6500400","永和區"
"234070","552-UM","2019/10/07 18:39:28","新北市永和區福和路1號","121.525643333333","25.0093933333333","6500400","永和區"
"234017","745-BX","2019/10/07 18:39:09","新北市永和區福和路1號","121.5265","25.00965","6500400","永和區"
"234030","746-BX","2019/10/07 18:39:11","新北市永和區成功路一段42號","121.527011666667","25.0043616666667","6500400","永和區"
"234007","KED-0605","2019/10/07 18:39:12","新北市永和區文化路178號","121.51146","25.01584","6500400","永和區"
"234013","KEA-2591","2019/10/07 18:38:59","新北市永和區仁愛路101號","121.51262","25.0131333333333","6500400","永和區"
"234042","862-TW","2019/10/07 18:39:20","新北市永和區中和路573號","121.511631666667","25.0034916666667","6500400","永和區"
"234011","9373-KE","2019/10/07 18:39:15","新北市永和區文化路9巷22弄30號","121.51457","25.0145566666667","6500400","永和區"
"249005","172-UM","2019/10/07 18:39:13","新北市八里區中華路三段196號","121.388125","25.1255683333333","6502300","八里區"
"249001","173-UM","2019/10/07 18:39:11","新北市八里區龍米路一段366號","121.451496666667","25.1314016666667","6502300","八里區"
"249004","303-UY","2019/10/07 18:39:10","新北市八里區龍米路三段58-3號","121.424306666667","25.1590733333333","6502300","八里區"
"249002","305-UY","2019/10/07 18:39:23","新北市八里區龍形一街19巷2號","121.449861666667","25.1304333333333","6502300","八里區"
"248014","025-BX","2019/10/07 18:39:12","新北市五股區民義路一段58號","121.4365","25.0844316666667","6501500","五股區"
"248016","026-BX","2019/10/07 18:39:11","新北市五股區凌雲路一段149巷7號","121.448861666667","25.10164","6501500","五股區"
"248018","KED-0813","2019/10/07 18:39:07","新北市五股區民義路二段52巷11-2號","121.411096666667","25.1099833333333","6501500","五股區"
"248012","247-BX","2019/10/07 18:39:19","新北市五股區成泰路三段17-1號","121.441655","25.08812","6501500","五股區"
"248004","677-BX","2019/10/07 18:39:10","新北市五股區民義路二段13號","121.420963333333","25.0963433333333","6501500","五股區"
"248002","678-BX","2019/10/07 18:39:09","新北市五股區西雲路205號","121.448543333333","25.0965266666667","6501500","五股區"
"248010","682-TV","2019/10/07 18:39:16","新北市五股區水碓一路63號","121.431805","25.072565","6501500","五股區"
"234023","9380-KE","2019/10/07 18:39:08","新北市永和區福和路76巷5弄12號","121.522436666667","25.00845","6500400","永和區"
"234077","969-R7","2019/10/07 18:39:13","新北市永和區中正路326號","121.517591666667","24.99968","6500400","永和區"
"234067","AAC-212","2019/10/07 18:39:27","新北市永和區福和路8巷3號","121.524863333333","25.0090616666667","6500400","永和區"
"234003","AAC-295","2019/10/07 18:39:28","新北市永和區福和路1號","121.526123333333","25.009225","6500400","永和區"
"232011","375-UM","2019/10/07 18:39:24","新北市坪林區坪雙路一段41號","121.711685","24.9424433333333","6502000","坪林區"
"244007","080-UY","2019/10/07 18:39:22","新北市林口區太平里3-3號","121.379173333333","25.1138316666667","6501700","林口區"
"244013","KEA-2802","2019/10/07 18:39:19","新北市林口區麗園一街6巷7-2號","121.37527","25.07072","6501700","林口區"
"244023","483-VK","2019/10/07 18:39:13","新北市林口區文化一路二段2號","121.380268333333","25.0763433333333","6501700","林口區"
"244017","485-VK","2019/10/07 18:39:23","新北市林口區文化二路一段269號","121.36747","25.070755","6501700","林口區"
"244009","656-BX","2019/10/07 18:39:24","新北市林口區竹林路344號","121.391558333333","25.0837516666667","6501700","林口區"
"244011","701-TV","2019/10/07 18:39:10","新北市林口區新寮1-82號","121.392716666667","25.0768166666667","6501700","林口區"
"244025","837-TS","2019/10/07 18:39:23","新北市林口區南勢四街324號","121.357355","25.07603","6501700","林口區"
"244021","838-TS","2019/10/07 18:39:27","新北市林口區工六路42號","121.398961666667","25.078345","6501700","林口區"
"243015","680-BX","2019/10/07 18:39:21","新北市泰山區泰林路二段396號","121.427756666667","25.0641533333333","6501600","泰山區"
"222003","436-BY","2019/10/07 18:39:17","新北市深坑區翠谷街25號","121.626853333333","25.00875","6501800","深坑區"
"222002","659-BX","2019/10/07 18:39:17","新北市深坑區雲鄉路2號","121.620926666667","24.999615","6501800","深坑區"
"231061","002-UM","2019/10/07 18:39:27","新北市新店區安華路28-1號","121.51964","24.9608183333333","6500600","新店區"
"231058","0293-UT","2019/10/07 18:38:17","新北市新店區新店後街54號","121.53784","24.95398","6500600","新店區"
"231044","046-UY","2019/10/07 18:39:20","新北市新店區安康路一段355號","121.519836666667","24.9627683333333","6500600","新店區"
"231060","106-UY","2019/10/07 18:39:23","新北市新店區安華路28-1號","121.519703333333","24.9608166666667","6500600","新店區"
"231051","107-UY","2019/10/07 18:39:08","新北市新店區環河路120號","121.536515","24.9684866666667","6500600","新店區"
"231065","110-UY","2019/10/07 18:39:07","新北市新店區安一路一段1-1號","121.519368333333","24.9611266666667","6500600","新店區"
"231062","256-BX","2019/10/07 18:39:11","新北市新店區安一路一段1-1號","121.519761666667","24.9611416666667","6500600","新店區"
"231054","260-TV","2019/10/07 18:39:13","新北市新店區安一路一段1-1號","121.519306666667","24.9612333333333","6500600","新店區"
"231042","268-BY","2019/10/07 18:39:22","新北市新店區安一路一段1-1號","121.519615","24.9611466666667","6500600","新店區"
"231064","278-BY","2019/10/07 18:39:13","新北市新店區安一路一段1-1號","121.519801666667","24.961175","6500600","新店區"
"231050","AAD-862","2019/10/07 18:39:26","新北市新店區安華路28-1號","121.519721666667","24.9608366666667","6500600","新店區"
"231055","4716-K9","2019/10/07 18:39:14","新北市新店區中華路115號","121.538788333333","24.96943","6500600","新店區"
"231056","4715-K9","2019/10/07 18:39:22","新北市新店區建國路178號","121.538076666667","24.9799783333333","6500600","新店區"
"231052","513-UM","2019/10/07 18:39:13","新北市新店區永興路7號","121.544643333333","24.939625","6500600","新店區"
"231040","617-UM","2019/10/07 18:39:10","新北市新店區安一路一段1-1號","121.51965","24.9612166666667","6500600","新店區"
"231041","619-UM","2019/10/07 18:39:09","新北市新店區安華路28-1號","121.519468333333","24.9607083333333","6500600","新店區"
"231063","641-BX","2019/10/07 18:39:22","新北市新店區安華路28-1號","121.519526666667","24.9605566666667","6500600","新店區"
"231047","KED-0819","2019/10/07 18:39:18","新北市新店區安一路一段1-1號","121.519626666667","24.9613283333333","6500600","新店區"
"231046","719-UM","2019/10/07 18:39:24","新北市新店區直潭二街1號","121.535401666667","24.943155","6500600","新店區"
"231057","720-UM","2019/10/07 18:39:17","新北市新店區北宜路一段96號","121.538848333333","24.95539","6500600","新店區"
"231059","897-TW","2019/10/07 18:39:28","新北市新店區安華路28-1號","121.519588333333","24.9606983333333","6500600","新店區"
"231043","899-TW","2019/10/07 18:39:28","新北市新店區安華路28-1號","121.519263333333","24.9608666666667","6500600","新店區"
"231066","AKT-0513","2019/10/07 18:39:10","新北市新店區安華路1-1號","121.519336666667","24.9605","6500600","新店區"
"235066","003-UY","2019/10/07 18:39:23","新北市中和區水源路33號","121.504261666667","25.0035966666667","6500300","中和區"
"235063","006-UY","2019/10/07 18:39:22","新北市中和區連城路234號","121.48924","24.9963483333333","6500300","中和區"
"235056","096-UM","2019/10/07 18:39:30","新北市中和區員山路611巷1號","121.477936666667","25.01127","6500300","中和區"
"235039","097-UM","2019/10/07 18:39:15","新北市中和區宜安路18巷6號","121.513583333333","24.9960966666667","6500300","中和區"
"235065","098-UM","2019/10/07 18:39:13","新北市中和區莊敬路33巷36弄14號","121.500676666667","25.0064866666667","6500300","中和區"
"235040","150-BY","2019/10/07 18:39:12","新北市中和區安平路59號","121.509536666667","24.9951733333333","6500300","中和區"
"235058","151-BY","2019/10/07 18:39:21","新北市中和區員山路63號","121.480801666667","24.9936616666667","6500300","中和區"
"235055","183-VK","2019/10/07 18:39:25","新北市中和區民生街21-3號","121.470945","25.005715","6500300","中和區"
"235038","185-VK","2019/10/07 18:39:24","新北市中和區大勇街60巷20號","121.518945","24.9946866666667","6500300","中和區"
"235067","255-BX","2019/10/07 18:39:19","新北市中和區新生街13巷1-1號","121.483421666667","25.0043166666667","6500300","中和區"
"235044","293-VK","2019/10/07 18:39:23","新北市中和區復興路280巷6號","121.502333333333","24.9912","6500300","中和區"
"235072","301-VK","2019/10/07 18:39:14","新北市中和區中山路二段6號","121.505101666667","25.0056733333333","6500300","中和區"
"235043","352-BY","2019/10/07 18:39:20","新北市中和區景平路71-5號","121.518455","24.991555","6500300","中和區"
"235042","KEA-2878","2019/10/07 18:39:21","新北市中和區成功路41巷8號","121.526556666667","24.9930233333333","6500300","中和區"
"235050","4979-A6","2019/10/07 18:39:18","新北市中和區忠孝街124巷10號","121.512901666667","24.9859933333333","6500300","中和區"
"235069","4980-A6","2019/10/07 18:39:17","新北市中和區中和路42號","121.500066666667","25.00102","6500300","中和區"
"235070","558-UM","2019/10/07 18:39:07","新北市中和區南山路28號","121.501835","24.9979616666667","6500300","中和區"
"235045","565-BX","2019/10/07 18:39:14","新北市中和區景安路196號","121.504295","24.9915333333333","6500300","中和區"
"235054","640-BX","2019/10/07 18:39:16","新北市中和區民享街51號","121.47406","25.0026866666667","6500300","中和區"
"235047","732-UM","2019/10/07 18:39:24","新北市中和區興南路二段40號","121.506811666667","24.9851916666667","6500300","中和區"
"235071","783-BX","2019/10/07 18:39:13","新北市中和區員山路36巷16-2號","121.485283333333","24.99116","6500300","中和區"
"235057","801-TS","2019/10/07 18:39:06","新北市中和區民安街25巷11號","121.480525","25.0003216666667","6500300","中和區"
"235041","802-TS","2019/10/07 18:39:12","新北市中和區中安街178巷13弄3號","121.510341666667","24.9986933333333","6500300","中和區"
"235052","805-TS","2019/10/07 18:36:48","新北市中和區興南路三段20巷4號","121.497121666667","24.9794666666667","6500300","中和區"
"235048","896-TW","2019/10/07 18:39:13","新北市中和區南山路188號","121.505898333333","24.9906166666667","6500300","中和區"
"235053","900-TW","2019/10/07 18:39:18","新北市中和區華順街117號","121.465351666667","24.996735","6500300","中和區"
"235064","911-UM","2019/10/07 18:39:25","新北市中和區景平路517號","121.499216666667","24.99877","6500300","中和區"
"235051","157-BY","2019/10/07 18:39:10","新北市中和區華新街143巷106弄34號","121.506295","24.9785833333333","6500300","中和區"
"235037","AAC-213","2019/10/07 18:39:28","新北市中和區秀朗路三段128巷1弄1號","121.52464","24.99228","6500300","中和區"
"235059","AAC-215","2019/10/07 18:39:24","新北市中和區錦和路354巷15號","121.489891666667","24.9915566666667","6500300","中和區"
"220065","072-UY","2019/10/07 18:39:14","新北市板橋區實踐路63號","121.463818333333","25.0063683333333","6500100","板橋區"
"220086","073-UY","2019/10/07 18:39:18","新北市板橋區華東街1-10號","121.448235","24.9950583333333","6500100","板橋區"
"220106","075-UY","2019/10/07 18:39:30","新北市板橋區民生路二段161巷5號","121.470286666667","25.0197333333333","6500100","板橋區"
"220069","AAD-861","2019/10/07 18:39:21","新北市板橋區南雅南路一段1巷42號","121.45757","25.0064033333333","6500100","板橋區"
"226004","312-R5","2019/10/07 18:39:14","新北市平溪區石底里公園街18-3號","121.734095","25.025385","6502400","平溪區"
"235049","251-BX","2019/10/07 18:39:27","新北市中和區明義街38號","121.50373","24.995305","6500300","中和區"
"228003","097-TW","2019/10/07 18:39:17","新北市貢寮區和美里龍洞街40-2號","121.91524","25.1116966666667","6502600","貢寮區"
"228002","663-BX","2019/10/07 18:39:22","新北市貢寮區福隆里東興街6-11號","121.950856666667","25.0211066666667","6502600","貢寮區"
"228001","670-TC","2019/10/07 18:39:15","新北市貢寮區仁理村研海街12-1號","121.923786666667","25.0516816666667","6502600","貢寮區"
"224006","676-BX","2019/10/07 18:39:24","新北市瑞芳區明燈路三段84號","121.805775","25.1082483333333","6501200","瑞芳區"
"224007","285-BY","2019/10/07 18:39:22","新北市瑞芳區大埔路121號","121.763626666667","25.1011266666667","6501200","瑞芳區"
"224009","275-VK","2019/10/07 18:39:22","新北市瑞芳區祈堂路86號","121.859071666667","25.1097216666667","6501200","瑞芳區"
"224008","273-VK","2019/10/07 18:39:16","新北市瑞芳區岳王路162號","121.807968333333","25.11135","6501200","瑞芳區"
"224005","271-BY","2019/10/07 18:39:25","新北市瑞芳區永龍新村22號","121.81896","25.1193933333333","6501200","瑞芳區"
"227002","642-TC","2019/10/07 18:39:11","新北市雙溪區魚行里坤溪3-5號","121.876171666667","25.0208433333333","6502500","雙溪區"
"227001","400-TW","2019/10/07 18:39:27","新北市雙溪區牡丹里下坑11號","121.851001666667","25.0561766666667","6502500","雙溪區"
"253005","032-BX","2019/10/07 18:39:09","新北市石門區石門街22號","121.566126666667","25.2906433333333","6502200","石門區"
"253006","295-VK","2019/10/07 18:39:21","新北市石門區楓林28-1號","121.542228333333","25.2893566666667","6502200","石門區"
"222001","KEA-2212","2019/10/07 18:39:21","新北市深坑區北深路一段82號","121.636341666667","25.0107433333333","6501800","深坑區"
"208002","KEA-2872","2019/10/07 18:39:11","新北市金山區忠孝一路19巷17號","121.637356666667","25.2177416666667","6502700","金山區"
"208003","665-BX","2019/10/07 18:39:14","新北市金山區中山路356號","121.633155","25.22549","6502700","金山區"
"251004","009-UM","2019/10/07 18:39:25","新北市淡水區大同路2-1號","121.461278333333","25.140675","6501000","淡水區"
"251001","011-UM","2019/10/07 18:39:19","新北市淡水區自強路166號","121.465585","25.1340583333333","6501000","淡水區"
"251002","012-UM","2019/10/07 18:39:24","新北市淡水區中正東路一段3巷14弄1號","121.450915","25.164165","6501000","淡水區"
"251015","KEA-2871","2019/10/07 18:39:22","新北市淡水區興福寮66巷307號","121.485368333333","25.161735","6501000","淡水區"
"251016","179-VK","2019/10/07 18:39:28","新北市淡水區下圭柔山76-12號","121.443798333333","25.2056133333333","6501000","淡水區"
"251013","180-VK","2019/10/07 18:39:10","新北市淡水區小坑子頭5-1號","121.484073333333","25.2054533333333","6501000","淡水區"
"251008","181-VK","2019/10/07 18:39:11","新北市淡水區北投子72-1號","121.453583333333","25.1822283333333","6501000","淡水區"
"251010","413-VK","2019/10/07 18:39:08","新北市淡水區沙崙路141-1號","121.42331","25.1829316666667","6501000","淡水區"
"243010","549-UM","2019/10/07 18:39:28","新北市泰山區辭修路48號","121.428548333333","25.057135","6501600","泰山區"
"251012","443-VK","2019/10/07 18:39:18","新北市淡水區北新路161號","121.450021666667","25.1792233333333","6501000","淡水區"
"251006","561-UM","2019/10/07 18:39:26","新北市淡水區崁頂27號","121.439338333333","25.1930416666667","6501000","淡水區"
"251014","577-R6","2019/10/07 18:39:07","新北市淡水區崙頂12-8號","121.495555","25.2172283333333","6501000","淡水區"
"251011","650-BX","2019/10/07 18:39:06","新北市淡水區中正東路79號","121.44757","25.1672633333333","6501000","淡水區"
"251003","673-BX","2019/10/07 18:39:24","新北市淡水區北新路69巷26號","121.446616666667","25.1800883333333","6501000","淡水區"
"207003","550-UM","2019/10/07 18:39:19","新北市萬里區野柳里港東路162-15號","121.690563333333","25.2041183333333","6502800","萬里區"
"207004","291-VK","2019/10/07 18:39:20","新北市萬里區萬里里獅頭路7號","121.69198","25.1782483333333","6502800","萬里區"
"252002","178-VK","2019/10/07 18:39:10","新北市三芝區民生街64巷8號","121.50359","25.2551966666667","6502100","三芝區"
"252003","249-BX","2019/10/07 18:39:13","新北市三芝區後厝里土地公坑54-18號","121.465183333333","25.249345","6502100","三芝區"
"208001","170-UY","2019/10/07 18:39:21","新北市金山區文化三路7號","121.63518","25.22498","6502700","金山區"
"237004","KEA-2597","2019/10/07 18:39:21","新北市三峽區插角23號","121.403615","24.8728233333333","6500900","三峽區"
"237007","153-BY","2019/10/07 18:39:08","新北市三峽區柑樹路9號","121.362435","24.9059283333333","6500900","三峽區"
"237009","210-TH","2019/10/07 18:39:15","新北市三峽區大同路280號","121.364676666667","24.925275","6500900","三峽區"
"237013","252-BX","2019/10/07 18:39:23","新北市三峽區光明路69巷25號","121.376666666667","24.929365","6500900","三峽區"
"237012","275-BY","2019/10/07 18:39:09","新北市三峽區三樹路304號","121.380985","24.9439566666667","6500900","三峽區"
"237008","302-VK","2019/10/07 18:39:20","新北市三峽區白雞33-55號","121.370763333333","24.913175","6500900","三峽區"
"237014","433-BY","2019/10/07 18:39:09","新北市三峽區和平街109號","121.370395","24.9382016666667","6500900","三峽區"
"237006","5529-G3","2019/10/07 18:39:26","新北市三峽區溪東路473巷14號","121.414215","24.928645","6500900","三峽區"
"237011","KEA-2596","2019/10/07 18:39:07","新北市三峽區溪東路327號","121.410633333333","24.930145","6500900","三峽區"
"237015","649-BX","2019/10/07 18:39:10","新北市三峽區成福路307號","121.429128333333","24.9235433333333","6500900","三峽區"
"237010","706-TV","2019/10/07 18:39:18","新北市三峽區中山路286號","121.360938333333","24.93811","6500900","三峽區"
"237005","AKY-6261","2019/10/07 18:39:27","新北市三峽區文化路1-1號","121.373566666667","24.9349566666667","6500900","三峽區"
"236042","KED-0685","2019/10/07 18:39:13","新北市土城區學成路114號","121.44961","24.9893383333333","6501300","土城區"
"236078","166-UM","2019/10/07 18:39:22","新北市土城區中央路四段52巷32號","121.419643333333","24.9608","6501300","土城區"
"236030","253-BX","2019/10/07 18:39:25","新北市土城區福仁街60巷1號","121.439468333333","24.9746733333333","6501300","土城區"
"236026","269-VK","2019/10/07 18:39:17","新北市土城區忠義路53號","121.440481666667","24.96886","6501300","土城區"
"236014","270-VK","2019/10/07 18:39:24","新北市土城區青雲路183巷14號","121.459576666667","24.9826866666667","6501300","土城區"
"236039","271-VK","2019/10/07 18:39:19","新北市土城區明德路一段198號","121.461735","24.97781","6501300","土城區"
"236069","KEA-2877","2019/10/07 18:39:27","新北市土城區永豐路230號","121.467101666667","24.9812483333333","6501300","土城區"
"252001","KED-0821","2019/10/07 18:39:11","新北市三芝區中興街二段260號","121.501895","25.2528933333333","6502100","三芝區"
"236020","401-BY","2019/10/07 18:39:18","新北市土城區延吉街268號","121.46588","24.984455","6501300","土城區"
"236059","912-UM","2019/10/07 18:39:12","新北市土城區中央路三段201號","121.430015","24.9646366666667","6501300","土城區"
"236048","913-UM","2019/10/07 18:39:12","新北市土城區金城路三段1號","121.464275","24.9861116666667","6501300","土城區"
"236063","915-UM","2019/10/07 18:39:23","新北市土城區延壽路13巷4號","121.470926666667","24.9904933333333","6501300","土城區"
"236055","AAC-216","2019/10/07 18:39:14","新北市土城區裕民路2號","121.446725","24.9892316666667","6501300","土城區"
"242042","AAC-296","2019/10/07 18:39:13","新北市新莊區天祥街92巷14號","121.415531666667","25.0300316666667","6500500","新莊區"
"242060","986-R7","2019/10/07 18:39:23","新北市新莊區民安路188巷1弄2號","121.425268333333","25.0235266666667","6500500","新莊區"
"242058","612-BX","2019/10/07 18:39:17","新北市新莊區中正路879-5號","121.417766666667","25.0262483333333","6500500","新莊區"
"242044","135-UY","2019/10/07 18:39:29","新北市新莊區中正路887-19號","121.415961666667","25.024085","6500500","新莊區"
"242002","346-TH","2019/10/07 18:39:22","新北市新莊區碧江街18-3號","121.455123333333","25.03442","6500500","新莊區"
"242009","349-TH","2019/10/07 18:39:25","新北市新莊區新泰路357巷3弄1號","121.442216666667","25.04146","6500500","新莊區"
"238023","601-UM","2019/10/07 18:39:17","新北市樹林區三福街114號","121.406408333333","25.0164033333333","6500700","樹林區"
"238024","5061-A6","2019/10/07 18:39:20","新北市樹林區中山路二段92號","121.414461666667","24.9835633333333","6500700","樹林區"
"238018","KEA-2217","2019/10/07 18:39:10","新北市樹林區鎮前街25號","121.425768333333","24.9923316666667","6500700","樹林區"
"238014","282-BY","2019/10/07 18:39:14","新北市樹林區中華路190-6號","121.410385","24.9806133333333","6500700","樹林區"
"238020","268-VK","2019/10/07 18:39:25","新北市樹林區俊安街42-1號","121.419536666667","25.0133633333333","6500700","樹林區"
"238026","172-UY","2019/10/07 18:39:27","新北市樹林區育德街78-1號","121.38806","24.9681016666667","6500700","樹林區"
"238016","169-UY","2019/10/07 18:39:18","新北市樹林區中山路一段412號","121.417376666667","24.985175","6500700","樹林區"
"239008","527-UM","2019/10/07 18:39:24","新北市鶯歌區朝陽街4號","121.336243333333","24.9766066666667","6500800","鶯歌區"
"239005","526-UM","2019/10/07 18:39:20","新北市鶯歌區鶯桃路670號","121.328868333333","24.969485","6500800","鶯歌區"
"239001","417-VK","2019/10/07 18:39:23","新北市鶯歌區高職東街29號","121.340568333333","24.9411766666667","6500800","鶯歌區"
"239003","360-BY","2019/10/07 18:39:26","新北市鶯歌區鶯桃路524-1號","121.331595","24.966665","6500800","鶯歌區"
"239002","359-BY","2019/10/07 18:39:16","新北市鶯歌區國慶街8號","121.349548333333","24.9566283333333","6500800","鶯歌區"
"239004","193-VK","2019/10/07 18:39:11","新北市鶯歌區尖山路240巷14號","121.34265","24.9470566666667","6500800","鶯歌區"
"221036","130-UY","2019/10/07 18:39:14","新北市汐止區長安路87號","121.669533333333","25.078405","6501100","汐止區"
"221015","131-UY","2019/10/07 18:39:24","新北市汐止區鄉長路二段23巷18號","121.667675","25.0831116666667","6501100","汐止區"
"244019","KED-0667","2019/10/07 18:39:24","新北市林口區麗園二街42巷22號","121.381466666667","25.0669766666667","6501700","林口區"
"221010","269-BY","2019/10/07 18:39:19","新北市汐止區瑞松街42號","121.645555","25.1058883333333","6501100","汐止區"
"221012","278-VK","2019/10/07 18:39:19","新北市汐止區保長路37巷6號","121.672978333333","25.079455","6501100","汐止區"
"221023","279-VK","2019/10/07 18:39:21","新北市汐止區康寧街519-1號","121.63335","25.0686616666667","6501100","汐止區"
"221032","280-BY","2019/10/07 18:39:20","新北市汐止區民權街二段131號","121.61803","25.04556","6501100","汐止區"
"221029","298-VK","2019/10/07 18:38:16","新北市汐止區樟樹一路131號","121.642196666667","25.064985","6501100","汐止區"
"221021","299-VK","2019/10/07 18:39:15","新北市汐止區新台五路一段91-2號","121.650531666667","25.0613966666667","6501100","汐止區"
"221031","353-TW","2019/10/07 18:39:23","新北市汐止區光復街8巷50-1號","121.637585","25.0567383333333","6501100","汐止區"
"221035","622-UM","2019/10/07 18:39:21","新北市汐止區大同路二段185號","121.652148333333","25.0643983333333","6501100","汐止區"
"221025","623-UM","2019/10/07 18:39:20","新北市汐止區福安街22巷12號","121.66273","25.0643416666667","6501100","汐止區"
"221033","647-BX","2019/10/07 18:39:13","新北市汐止區宜興街2號","121.620915","25.0412116666667","6501100","汐止區"
"221002","707-TV","2019/10/07 18:39:16","新北市汐止區中興路25號","121.636908333333","25.059585","6501100","汐止區"
"221018","753-BX","2019/10/07 18:38:05","新北市汐止區茄苳路220號","121.67093","25.0686983333333","6501100","汐止區"
"220079","145-BY","2019/10/07 18:39:15","新北市板橋區大觀路二段111號","121.446233333333","25.0015833333333","6500100","板橋區"
"220080","200-UY","2019/10/07 18:39:27","新北市板橋區大觀路二段265巷7-7號","121.444153333333","24.994575","6500100","板橋區"
"220082","610-BX","2019/10/07 18:39:13","新北市板橋區大觀路二段431-1號","121.44152","24.9949266666667","6500100","板橋區"
"224002","257-TC","2019/10/07 18:39:27","新北市瑞芳區三爪子坑路29巷2號","121.81352","25.1072916666667","6501200","瑞芳區"
"220056","276-BY","2019/10/07 18:39:16","新北市板橋區四川路一段55號","121.459585","25.0062883333333","6500100","板橋區"
"220072","277-BY","2019/10/07 18:39:20","新北市板橋區大觀路二段431-1號","121.441141666667","24.9949816666667","6500100","板橋區"
"220071","283-VK","2019/10/07 18:39:23","新北市板橋區四川路二段121號","121.451296666667","24.994135","6500100","板橋區"
"220094","285-UM","2019/10/07 18:39:26","新北市板橋區民生路二段161巷1號","121.470078333333","25.019935","6500100","板橋區"
"220083","286-VK","2019/10/07 18:39:12","新北市板橋區板城路271號","121.450116666667","24.9978466666667","6500100","板橋區"
"220081","287-VK","2019/10/07 18:39:19","新北市板橋區板城路421號","121.448046666667","24.996355","6500100","板橋區"
"220090","288-VK","2019/10/07 18:39:18","新北市板橋區民生路二段120號","121.470561666667","25.0195183333333","6500100","板橋區"
"220061","293-UM","2019/10/07 18:39:24","新北市板橋區民生路二段120號","121.470396666667","25.019725","6500100","板橋區"
"220084","296-UM","2019/10/07 18:39:25","新北市板橋區大觀路二段205號","121.444421666667","24.999525","6500100","板橋區"
"220034","297-UM","2019/10/07 18:18:20","新北市板橋區華東街1-10號","121.448423333333","24.9949516666667","6500100","板橋區"
"220053","299-UM","2019/10/07 18:39:21","新北市板橋區民生路二段161巷3號","121.470091666667","25.0197616666667","6500100","板橋區"
"242046","281-VK","2019/10/07 18:39:23","新北市新莊區民安路40號","121.423091666667","25.0275666666667","6500500","新莊區"
"220075","303-R5","2019/10/07 18:39:28","新北市板橋區大觀路二段266號","121.449655","24.9968816666667","6500100","板橋區"
"220092","307-R5","2019/10/07 18:39:18","新北市板橋區民生路二段89-4號","121.471106666667","25.0181783333333","6500100","板橋區"
"220098","317-R6","2019/10/07 18:39:14","新北市板橋區民生路二段161巷5號","121.470258333333","25.0197283333333","6500100","板橋區"
"220089","487-VK","2019/10/07 18:39:14","新北市板橋區民生路二段188號","121.469906666667","25.0205483333333","6500100","板橋區"
"220088","491-VK","2019/10/07 18:39:22","新北市板橋區民生路二段206號","121.469446666667","25.0209316666667","6500100","板橋區"
"220035","560-BX","2019/10/07 18:39:19","新北市板橋區南雅西路二段145巷10號","121.451581666667","25.0119083333333","6500100","板橋區"
"220103","561-BX","2019/10/07 18:39:13","新北市板橋區介壽街119號","121.470556666667","25.018695","6500100","板橋區"
"220063","609-BX","2019/10/07 18:39:25","新北市板橋區民生路二段89-6號","121.470676666667","25.01916","6500100","板橋區"
"220057","686-BX","2019/10/07 18:39:14","新北市板橋區館前西路4-1號","121.459196666667","25.007125","6500100","板橋區"
"220077","687-BX","2019/10/07 18:39:24","新北市板橋區板城路421號","121.448048333333","24.9963166666667","6500100","板橋區"
"220054","741-BX","2019/10/07 18:39:19","新北市板橋區南雅南路二段144巷1號","121.451505","24.996105","6500100","板橋區"
"220055","827-TW","2019/10/07 18:39:13","新北市板橋區忠孝路42號","121.460505","25.001885","6500100","板橋區"
"220068","830-TW","2019/10/07 18:38:10","新北市板橋區三民路一段120號","121.479268333333","25.0208533333333","6500100","板橋區"
"220067","831-TW","2019/10/07 18:37:23","新北市板橋區民生路二段161巷1號","121.470258333333","25.01998","6500100","板橋區"
"220073","985-R7","2019/10/07 18:39:25","新北市板橋區四川路二段28號","121.454263333333","24.99563","6500100","板橋區"
"220097","AAC-210","2019/10/07 18:39:28","新北市板橋區民生路二段120號","121.470348333333","25.0196433333333","6500100","板橋區"
"220064","AAC-253","2019/10/07 18:39:18","新北市板橋區民生路二段7號","121.472771666667","25.0158866666667","6500100","板橋區"
"235068","KEA-2873","2019/10/07 18:39:11","新北市中和區中正路209號","121.497125","24.9935616666667","6500300","中和區"
"235061","KEA-2875","2019/10/07 18:39:20","新北市中和區民享街51號","121.474081666667","25.002685","6500300","中和區"
"235062","KEA-2876","2019/10/07 18:39:20","新北市中和區中山路二段312巷23號","121.495766666667","25.0034616666667","6500300","中和區"
