"lineid","car","time","location","longitude","latitude","cityid","cityname"
"234046","148-BY","2019/10/07 19:09:17","新北市永和區永元路18巷31號","121.523691666667","25.0002016666667","6500400","永和區"
"234081","298-R6","2019/10/07 19:09:12","新北市永和區永亨路77號","121.5217","25.0057633333333","6500400","永和區"
"234038","336-UY","2019/10/07 19:09:14","新北市永和區民樂街69巷3號","121.527463333333","24.9977866666667","6500400","永和區"
"234064","337-UY","2019/10/07 19:09:20","新北市永和區秀朗路二段31號","121.521215","25.0024833333333","6500400","永和區"
"234086","338-UY","2019/10/07 19:09:27","新北市永和區永貞路75號","121.518668333333","25.004425","6500400","永和區"
"234070","552-UM","2019/10/07 19:09:28","新北市永和區豫溪街95巷8號","121.518166666667","25.0107483333333","6500400","永和區"
"234017","745-BX","2019/10/07 19:09:29","新北市永和區文化路90巷9弄2號","121.513815","25.0157866666667","6500400","永和區"
"234030","746-BX","2019/10/07 19:09:11","新北市永和區民生路23號","121.522883333333","24.9988283333333","6500400","永和區"
"234054","KEA-2590","2019/10/07 19:09:22","新北市永和區中興街133巷10號","121.518735","25.0128166666667","6500400","永和區"
"234007","KED-0605","2019/10/07 19:09:12","新北市永和區中山路一段174號","121.50918","25.0089833333333","6500400","永和區"
"234013","KEA-2591","2019/10/07 19:09:28","新北市永和區保福路二段25號","121.510861666667","25.0113333333333","6500400","永和區"
"234061","AAD-866","2019/10/07 19:09:09","新北市永和區安樂路304巷7號","121.514538333333","25.005235","6500400","永和區"
"234042","862-TW","2019/10/07 19:09:20","新北市永和區永貞路334號","121.511273333333","25.005585","6500400","永和區"
"234050","863-TW","2019/10/07 19:09:21","新北市永和區文化路135巷32弄1號","121.510936666667","25.0140766666667","6500400","永和區"
"234026","9371-KE","2019/10/07 19:09:27","新北市永和區安樂路270號","121.514526666667","25.00412","6500400","永和區"
"234011","9373-KE","2019/10/07 19:09:15","新北市永和區仁愛路141巷30弄5號","121.511953333333","25.0114866666667","6500400","永和區"
"249005","172-UM","2019/10/07 19:09:13","新北市八里區中華路三段73號","121.394691666667","25.1408933333333","6502300","八里區"
"249001","173-UM","2019/10/07 19:09:11","新北市八里區龍米路二段228-1號","121.432688333333","25.1584516666667","6502300","八里區"
"248016","026-BX","2019/10/07 19:09:11","新北市五股區成泰路三段543巷41-1號","121.44957","25.103035","6501500","五股區"
"248008","KED-0815","2019/10/07 19:09:16","新北市五股區中興路一段118巷15號","121.465893333333","25.0741766666667","6501500","五股區"
"248018","KED-0813","2019/10/07 19:09:27","新北市五股區民義路一段283號","121.425676666667","25.0928033333333","6501500","五股區"
"248012","247-BX","2019/10/07 19:09:19","新北市五股區中興路四段48巷16號","121.43859","25.0834466666667","6501500","五股區"
"248004","677-BX","2019/10/07 19:09:10","新北市五股區五福路29號","121.433823333333","25.0892366666667","6501500","五股區"
"248002","678-BX","2019/10/07 19:09:09","新北市五股區凌雲路一段158巷6號","121.44776","25.1029933333333","6501500","五股區"
"248010","682-TV","2019/10/07 19:09:16","新北市五股區水碓一路23號","121.430558333333","25.0713333333333","6501500","五股區"
"234023","9380-KE","2019/10/07 19:09:08","新北市永和區中興街10巷1號","121.51569","25.0118633333333","6500400","永和區"
"234077","969-R7","2019/10/07 19:09:13","新北市永和區民權路52號","121.520118333333","24.99846","6500400","永和區"
"234074","AAC-211","2019/10/07 19:09:19","新北市永和區福和路99號","121.521918333333","25.0077566666667","6500400","永和區"
"234067","AAC-212","2019/10/07 19:09:26","新北市永和區保平路9號","121.513018333333","25.007505","6500400","永和區"
"234003","AAC-295","2019/10/07 19:09:09","新北市永和區保福路一段57號","121.512651666667","25.0094483333333","6500400","永和區"
"244023","483-VK","2019/10/07 19:09:13","新北市林口區文林六街18號","121.370996666667","25.080485","6501700","林口區"
"244011","701-TV","2019/10/07 19:09:10","新北市林口區中正路264巷37號","121.388238333333","25.07857","6501700","林口區"
"244025","837-TS","2019/10/07 19:09:23","新北市林口區民族路67-1號","121.365608333333","25.0751883333333","6501700","林口區"
"243014","KEA-2801","2019/10/07 19:09:15","新北市泰山區泰林路二段378號","121.428253333333","25.063945","6501600","泰山區"
"243016","421-VK","2019/10/07 19:09:13","新北市泰山區明志路二段390號","121.425343333333","25.0444083333333","6501600","泰山區"
"243012","539-UM","2019/10/07 19:09:19","新北市泰山區辭修路10-13號","121.42956","25.0582333333333","6501600","泰山區"
"243009","KEA-2215","2019/10/07 19:09:25","新北市泰山區明志路一段122巷11號","121.433046666667","25.0636616666667","6501600","泰山區"
"243011","KEA-2216","2019/10/07 19:09:16","新北市泰山區明志路二段341號","121.425601666667","25.04471","6501600","泰山區"
"243013","646-TV","2019/10/07 19:09:24","新北市泰山區漢口街11巷1號","121.423788333333","25.036505","6501600","泰山區"
"243015","680-BX","2019/10/07 19:09:21","新北市泰山區明志路一段431號","121.430705","25.05654","6501600","泰山區"
"222003","436-BY","2019/10/07 19:09:16","新北市深坑區深南路158號","121.62612","25.0147033333333","6501800","深坑區"
"222002","659-BX","2019/10/07 19:09:17","新北市深坑區烏月路1號","121.633415","25.0082483333333","6501800","深坑區"
"231061","002-UM","2019/10/07 19:09:23","新北市新店區安康路一段355-10號","121.520421666667","24.96383","6500600","新店區"
"231058","0293-UT","2019/10/07 19:09:17","新北市新店區光明街102巷1號","121.539216666667","24.9604716666667","6500600","新店區"
"231044","046-UY","2019/10/07 19:09:29","新北市新店區中興路三段219-1號","121.543521666667","24.9824333333333","6500600","新店區"
"231045","047-UY","2019/10/07 19:09:17","新北市新店區北宜路一段116號","121.539193333333","24.955235","6500600","新店區"
"231060","106-UY","2019/10/07 19:09:23","新北市新店區車子路1-1號","121.504761666667","24.9579216666667","6500600","新店區"
"231051","107-UY","2019/10/07 19:09:08","新北市新店區中正路382巷36號","121.535673333333","24.978355","6500600","新店區"
"231049","108-UY","2019/10/07 19:09:12","新北市新店區二十張路25巷18弄16號","121.539205","24.9816","6500600","新店區"
"231065","110-UY","2019/10/07 19:09:27","新北市新店區安祥路118號","121.47482","24.956375","6500600","新店區"
"231062","256-BX","2019/10/07 19:09:11","新北市新店區安平路30號","121.523831666667","24.9674133333333","6500600","新店區"
"231054","260-TV","2019/10/07 19:09:13","新北市新店區新店路104號","121.537123333333","24.954625","6500600","新店區"
"231042","268-BY","2019/10/07 19:09:22","新北市新店區中興路一段201號","121.543458333333","24.965455","6500600","新店區"
"231064","278-BY","2019/10/07 19:09:13","新北市新店區安忠路94號","121.511176666667","24.9572966666667","6500600","新店區"
"231050","AAD-862","2019/10/07 19:09:26","新北市新店區竹林路2巷34弄2號","121.550326666667","24.9502583333333","6500600","新店區"
"231055","4716-K9","2019/10/07 19:09:14","新北市新店區新生街18巷30號","121.539678333333","24.9669816666667","6500600","新店區"
"231056","4715-K9","2019/10/07 19:09:22","新北市新店區溪園路401號","121.523883333333","24.9780533333333","6500600","新店區"
"231067","4772-VM","2019/10/07 19:09:27","新北市新店區安康路一段263巷40號","121.523931666667","24.9615683333333","6500600","新店區"
"231052","513-UM","2019/10/07 19:09:13","新北市新店區自強路60號","121.546201666667","24.9256116666667","6500600","新店區"
"231040","617-UM","2019/10/07 19:09:29","新北市新店區三民路155-1號","121.53389","24.9734266666667","6500600","新店區"
"231041","619-UM","2019/10/07 19:09:09","新北市新店區中央路238號","121.529131666667","24.9721666666667","6500600","新店區"
"231063","641-BX","2019/10/07 19:09:22","新北市新店區車子路121號","121.505245","24.9503833333333","6500600","新店區"
"231047","KED-0819","2019/10/07 19:09:18","新北市新店區德正街27巷29弄135號","121.545736666667","24.97327","6500600","新店區"
"231046","719-UM","2019/10/07 19:09:04","新北市新店區華潭街52號","121.528831666667","24.95505","6500600","新店區"
"231057","720-UM","2019/10/07 19:09:17","新北市新店區百齡一路12號","121.553083333333","24.9324733333333","6500600","新店區"
"231059","897-TW","2019/10/07 19:09:08","新北市新店區安康路一段351-1號","121.519475","24.9640816666667","6500600","新店區"
"231043","899-TW","2019/10/07 19:09:08","新北市新店區寶橋路88號","121.546775","24.9758116666667","6500600","新店區"
"231066","AKT-0513","2019/10/07 19:09:10","新北市新店區安祥路35-1號","121.491861666667","24.955425","6500600","新店區"
"241035","462-BY","2019/10/07 19:09:11","新北市三重區市前街2號","121.488916666667","25.0619016666667","6500200","三重區"
"241026","480-VK","2019/10/07 19:09:20","新北市三重區重安街137號","121.49536","25.05473","6500200","三重區"
"241022","KED-0820","2019/10/07 19:09:06","新北市三重區三民街155巷5號","121.484411666667","25.0647216666667","6500200","三重區"
"241029","942-UM","2019/10/07 19:09:07","新北市三重區集美街257號","121.492446666667","25.0556983333333","6500200","三重區"
"235066","003-UY","2019/10/07 19:09:23","新北市中和區廣福路12-1號","121.505526666667","25.00284","6500300","中和區"
"235063","006-UY","2019/10/07 19:09:22","新北市中和區連城路234號","121.488993333333","24.9963366666667","6500300","中和區"
"235056","096-UM","2019/10/07 19:09:19","新北市中和區中正路1163號","121.48164","25.009255","6500300","中和區"
"235039","097-UM","2019/10/07 19:09:15","新北市中和區景平路4號","121.524356666667","24.990675","6500300","中和區"
"235065","098-UM","2019/10/07 19:09:13","新北市中和區中山路二段136巷64號","121.500741666667","25.0042233333333","6500300","中和區"
"235040","150-BY","2019/10/07 19:09:13","新北市中和區宜安路11巷54號","121.512168333333","24.9946666666667","6500300","中和區"
"235058","151-BY","2019/10/07 19:09:21","新北市中和區連城路523巷11弄2號","121.481673333333","24.9940916666667","6500300","中和區"
"235055","183-VK","2019/10/07 19:09:24","新北市中和區德光路95號","121.468595","25.00342","6500300","中和區"
"235038","185-VK","2019/10/07 19:09:04","新北市中和區大仁街20巷43號","121.519153333333","24.9932033333333","6500300","中和區"
"235067","255-BX","2019/10/07 19:09:19","新北市中和區新生街148巷6號","121.483275","25.0007333333333","6500300","中和區"
"235044","293-VK","2019/10/07 19:09:23","新北市中和區中興街263號","121.499933333333","24.9885683333333","6500300","中和區"
"235072","301-VK","2019/10/07 19:09:14","新北市中和區連城路144巷4弄11號","121.495686666667","24.99889","6500300","中和區"
"235043","352-BY","2019/10/07 19:09:18","新北市中和區景平路316號","121.512346666667","24.99289","6500300","中和區"
"235042","KEA-2878","2019/10/07 19:09:21","新北市中和區立人街67號","121.519871666667","24.9941533333333","6500300","中和區"
"235050","4979-A6","2019/10/07 19:09:18","新北市中和區復興路249巷11弄3號","121.50348","24.98974","6500300","中和區"
"235069","4980-A6","2019/10/07 19:09:17","新北市中和區廣福路116號","121.501951666667","25.0011783333333","6500300","中和區"
"235070","558-UM","2019/10/07 19:09:07","新北市中和區連城路53號","121.497938333333","25.0015283333333","6500300","中和區"
"235045","565-BX","2019/10/07 19:09:14","新北市中和區景新街423巷35弄21號","121.513825","24.9904983333333","6500300","中和區"
"235060","KED-0823","2019/10/07 19:09:13","新北市中和區中山路三段50號","121.478448333333","25.0057666666667","6500300","中和區"
"235054","640-BX","2019/10/07 19:09:16","新北市中和區國光街109巷13號","121.469696666667","24.9999316666667","6500300","中和區"
"235047","732-UM","2019/10/07 19:09:16","新北市中和區興南路一段56巷5號","121.510508333333","24.991115","6500300","中和區"
"235071","783-BX","2019/10/07 19:09:24","新北市中和區連城路521-1號","121.48193","24.9953516666667","6500300","中和區"
"235057","801-TS","2019/10/07 19:09:06","新北市中和區員山路423巷9號","121.480528333333","25.0031116666667","6500300","中和區"
"235041","802-TS","2019/10/07 19:09:12","新北市永和區中和路373號","121.508395","24.9997166666667","6500300","中和區"
"235052","805-TS","2019/10/07 19:09:28","新北市中和區興南路二段142巷19弄2號","121.5031","24.983515","6500300","中和區"
"235048","896-TW","2019/10/07 19:09:11","新北市中和區忠孝街37巷2號","121.51118","24.9835616666667","6500300","中和區"
"235053","900-TW","2019/10/07 19:09:17","新北市中和區華福街71巷2號","121.467296666667","24.99693","6500300","中和區"
"235064","911-UM","2019/10/07 19:09:25","新北市中和區中山路二段207號","121.499685","25.002275","6500300","中和區"
"235051","157-BY","2019/10/07 19:09:10","新北市中和區興南路一段73巷3號","121.510293333333","24.989065","6500300","中和區"
"235037","AAC-213","2019/10/07 19:09:08","新北市中和區秀朗路三段10巷37弄6號","121.52395","24.9958683333333","6500300","中和區"
"235059","AAC-215","2019/10/07 19:09:24","新北市中和區圓通路294巷17-5號","121.488625","24.9904283333333","6500300","中和區"
"220065","072-UY","2019/10/07 19:09:14","新北市板橋區民族路219巷7號","121.469326666667","25.0079833333333","6500100","板橋區"
"220086","073-UY","2019/10/07 19:09:18","新北市板橋區中正路250巷40號","121.457053333333","25.0195233333333","6500100","板橋區"
"220106","075-UY","2019/10/07 19:09:10","新北市板橋區雙十路三段15號","121.471046666667","25.0311116666667","6500100","板橋區"
"220069","AAD-861","2019/10/07 19:09:21","新北市板橋區貴興路25號","121.457716666667","25.00423","6500100","板橋區"
"226004","312-R5","2019/10/07 19:09:14","新北市平溪區靜安路三段10號","121.750533333333","25.0263133333333","6502400","平溪區"
"235049","251-BX","2019/10/07 19:09:27","新北市中和區景新街172號","121.506135","24.9965016666667","6500300","中和區"
"228003","097-TW","2019/10/07 19:09:17","新北市貢寮區和美里和美街40-3號","121.913181666667","25.09079","6502600","貢寮區"
"228002","663-BX","2019/10/07 19:09:22","新北市貢寮區福隆里福隆街36號","121.945128333333","25.0174333333333","6502600","貢寮區"
"228001","670-TC","2019/10/07 19:09:15","新北市貢寮區真理里新港街10號","121.925405","25.0542516666667","6502600","貢寮區"
"224006","676-BX","2019/10/07 19:09:24","新北市瑞芳區中山路241號","121.800355","25.10693","6501200","瑞芳區"
"224009","275-VK","2019/10/07 19:09:21","新北市瑞芳區洞頂路101巷49號","121.86064","25.12028","6501200","瑞芳區"
"224008","273-VK","2019/10/07 19:09:16","新北市瑞芳區瑞芳街82-1號","121.803121666667","25.1099566666667","6501200","瑞芳區"
"224005","271-BY","2019/10/07 19:09:25","新北市瑞芳區中山路234號","121.800155","25.1070633333333","6501200","瑞芳區"
"227002","642-TC","2019/10/07 19:09:11","新北市雙溪區平林里外平林18號","121.858411666667","25.0378283333333","6502500","雙溪區"
"227001","400-TW","2019/10/07 19:09:07","新北市雙溪區牡丹里中正路23號","121.864621666667","25.03763","6502500","雙溪區"
"253005","032-BX","2019/10/07 19:09:30","新北市石門區阿里荖40-1號","121.606006666667","25.2806866666667","6502200","石門區"
"253006","295-VK","2019/10/07 19:09:18","新北市石門區海灣新城30號","121.526486666667","25.284675","6502200","石門區"
"222001","KEA-2212","2019/10/07 19:09:20","新北市深坑區北深路一段300號","121.624143333333","25.0056","6501800","深坑區"
"208002","KEA-2872","2019/10/07 19:09:11","新北市金山區中華路122巷14號","121.633715","25.220985","6502700","金山區"
"208003","665-BX","2019/10/07 19:09:14","新北市金山區中正路135號","121.632406666667","25.2215","6502700","金山區"
"251009","008-UM","2019/10/07 19:09:15","新北市淡水區重建街38號","121.439871666667","25.1712733333333","6501000","淡水區"
"251005","010-UM","2019/10/07 19:09:21","新北市淡水區原德路5-1號","121.441996666667","25.171225","6501000","淡水區"
"251001","011-UM","2019/10/07 19:09:19","新北市淡水區民權路92巷35-1號","121.462041666667","25.126715","6501000","淡水區"
"251002","012-UM","2019/10/07 19:09:24","新北市淡水區中山路50號","121.444036666667","25.1702416666667","6501000","淡水區"
"251015","KEA-2871","2019/10/07 19:09:22","新北市淡水區南勢埔47巷25號","121.485213333333","25.17873","6501000","淡水區"
"251016","179-VK","2019/10/07 19:09:07","新北市淡水區淡金路三段70巷1號","121.448293333333","25.2003483333333","6501000","淡水區"
"251013","180-VK","2019/10/07 19:09:10","新北市淡水區安子內12-1號","121.481495","25.2191","6501000","淡水區"
"251010","413-VK","2019/10/07 19:09:28","新北市淡水區中正路一段156巷3號","121.42121","25.1803566666667","6501000","淡水區"
"243010","549-UM","2019/10/07 19:09:08","新北市泰山區明志路一段483巷1弄1號","121.430985","25.0554883333333","6501600","泰山區"
"251007","442-VK","2019/10/07 19:09:19","新北市淡水區民生路154號","121.464931666667","25.1386783333333","6501000","淡水區"
"251014","577-R6","2019/10/07 19:09:27","新北市淡水區小中寮39號","121.48714","25.2273483333333","6501000","淡水區"
"251003","673-BX","2019/10/07 19:09:24","新北市淡水區中山北路一段109號","121.442548333333","25.1766766666667","6501000","淡水區"
"207003","550-UM","2019/10/07 19:09:19","新北市萬里區大鵬里頂社39號","121.656338333333","25.21078","6502800","萬里區"
"207004","291-VK","2019/10/07 19:09:13","新北市萬里區萬里里瑪鋉下街52號","121.69162","25.1795683333333","6502800","萬里區"
"252002","178-VK","2019/10/07 19:09:10","新北市三芝區埔坪里埔頭坑78號","121.509238333333","25.2543683333333","6502100","三芝區"
"252003","249-BX","2019/10/07 19:09:13","新北市三芝區錫板里南勢崗6號","121.479573333333","25.2619633333333","6502100","三芝區"
"208001","170-UY","2019/10/07 19:09:21","新北市金山區福德街18號","121.639096666667","25.2215716666667","6502700","金山區"
"237004","KEA-2597","2019/10/07 19:09:01","新北市三峽區有木205-1號","121.439051666667","24.851585","6500900","三峽區"
"237007","153-BY","2019/10/07 19:09:28","新北市三峽區中正路二段42巷50號","121.364303333333","24.920555","6500900","三峽區"
"237013","252-BX","2019/10/07 19:09:23","新北市三峽區光明路69巷24號","121.376556666667","24.9289583333333","6500900","三峽區"
"237012","275-BY","2019/10/07 19:09:09","新北市三峽區三樹路222巷254弄15號","121.39216","24.9440683333333","6500900","三峽區"
"237008","302-VK","2019/10/07 19:09:14","新北市三峽區光明路106巷34號","121.375751666667","24.9270633333333","6500900","三峽區"
"237014","433-BY","2019/10/07 19:09:08","新北市三峽區隆恩街232號","121.357786666667","24.9411633333333","6500900","三峽區"
"237006","5529-G3","2019/10/07 19:09:26","新北市三峽區溪東路205巷25號","121.405168333333","24.9341466666667","6500900","三峽區"
"237011","KEA-2596","2019/10/07 19:09:27","新北市三峽區介壽路三段163-1號","121.401133333333","24.9433833333333","6500900","三峽區"
"237015","649-BX","2019/10/07 19:09:10","新北市三峽區建安22號","121.446018333333","24.9274966666667","6500900","三峽區"
"237010","706-TV","2019/10/07 19:09:18","新北市三峽區復興路174巷4號","121.370735","24.9389283333333","6500900","三峽區"
"237005","AKY-6261","2019/10/07 19:09:27","新北市三峽區中山路459巷135號","121.348631666667","24.9329366666667","6500900","三峽區"
"236078","166-UM","2019/10/07 19:09:26","新北市土城區龍泉路68-2號","121.419826666667","24.9427366666667","6501300","土城區"
"236026","269-VK","2019/10/07 19:09:17","新北市土城區中正路56巷2號","121.44384","24.975395","6501300","土城區"
"236014","270-VK","2019/10/07 19:09:24","新北市土城區學府路一段77號","121.4569","24.9881533333333","6501300","土城區"
"236069","KEA-2877","2019/10/07 19:09:07","新北市土城區明德路二段209號","121.446406666667","24.9837316666667","6501300","土城區"
"252001","KED-0821","2019/10/07 19:09:11","新北市三芝區長勤街45巷2號","121.500321666667","25.2550683333333","6502100","三芝區"
"236020","401-BY","2019/10/07 19:09:18","新北市土城區延峰街33巷1號","121.469653333333","24.984755","6501300","土城區"
"236059","912-UM","2019/10/07 19:09:12","新北市土城區金城路一段131號","121.444828333333","24.973785","6501300","土城區"
"236063","915-UM","2019/10/07 19:09:23","新北市土城區金城路三段93巷24號","121.466791666667","24.9886116666667","6501300","土城區"
"236055","AAC-216","2019/10/07 19:09:14","新北市土城區學成路10號","121.453396666667","24.9865966666667","6501300","土城區"
"238023","601-UM","2019/10/07 19:09:21","新北市樹林區三興路51號","121.395465","25.014465","6500700","樹林區"
"238019","599-UM","2019/10/07 19:09:15","新北市樹林區東華街23號","121.414781666667","24.9822083333333","6500700","樹林區"
"238022","KEA-2213","2019/10/07 19:09:14","新北市樹林區東興街16巷6弄1號","121.409006666667","24.9781133333333","6500700","樹林區"
"238021","KEA-2539","2019/10/07 19:09:11","新北市樹林區柑園街二段459號","121.363165","24.9461333333333","6500700","樹林區"
"238025","303-VK","2019/10/07 19:09:07","新北市樹林區民和街59號","121.381918333333","24.9703916666667","6500700","樹林區"
"238017","283-BY","2019/10/07 19:09:17","新北市樹林區啟智街124巷13號","121.415255","24.9882866666667","6500700","樹林區"
"238014","282-BY","2019/10/07 19:09:14","新北市樹林區千歲街90號","121.42655","24.99788","6500700","樹林區"
"238020","268-VK","2019/10/07 19:09:11","新北市樹林區俊英街155巷43弄11號","121.422773333333","25.0116","6500700","樹林區"
"238026","172-UY","2019/10/07 19:09:07","新北市樹林區佳園路一段68號","121.393183333333","24.9701716666667","6500700","樹林區"
"238016","169-UY","2019/10/07 19:09:22","新北市樹林區文化街25巷5弄2號","121.418896666667","24.987105","6500700","樹林區"
"239007","AAC-297","2019/10/07 19:09:20","新北市鶯歌區中正一路221號","121.354113333333","24.9573716666667","6500800","鶯歌區"
"239006","891-R6","2019/10/07 19:09:13","新北市鶯歌區鶯桃路296巷108號","121.337176666667","24.9622466666667","6500800","鶯歌區"
"239008","527-UM","2019/10/07 19:09:24","新北市鶯歌區國際二路20巷17號","121.337005","24.975435","6500800","鶯歌區"
"239005","526-UM","2019/10/07 19:09:20","新北市鶯歌區大湖路361巷50號","121.330905","24.9775333333333","6500800","鶯歌區"
"239001","417-VK","2019/10/07 19:09:23","新北市鶯歌區二橋街47號","121.336846666667","24.9388066666667","6500800","鶯歌區"
"239003","360-BY","2019/10/07 19:09:26","新北市鶯歌區鶯桃路515號","121.331331666667","24.9668316666667","6500800","鶯歌區"
"239002","359-BY","2019/10/07 19:09:16","新北市鶯歌區中正一路271號","121.355081666667","24.9570233333333","6500800","鶯歌區"
"239004","193-VK","2019/10/07 19:09:11","新北市鶯歌區中正三路270號","121.329235","24.9362216666667","6500800","鶯歌區"
"221008","489-VK","2019/10/07 19:09:25","新北市汐止區康寧街418-1號","121.63048","25.06805","6501100","汐止區"
"221036","130-UY","2019/10/07 19:09:29","新北市汐止區水碓街4號","121.663791666667","25.0699083333333","6501100","汐止區"
"221015","131-UY","2019/10/07 19:09:24","新北市汐止區鄉長路一段55巷22號","121.664805","25.0763016666667","6501100","汐止區"
"221032","280-BY","2019/10/07 19:09:20","新北市汐止區橫科路241-1號","121.621998333333","25.04926","6501100","汐止區"
"221031","353-TW","2019/10/07 19:09:23","新北市汐止區中興路181巷29弄8號","121.629793333333","25.06584","6501100","汐止區"
"221035","622-UM","2019/10/07 19:09:21","新北市汐止區中正路312號","121.656066666667","25.0679116666667","6501100","汐止區"
"221002","707-TV","2019/10/07 19:09:16","新北市汐止區大同路一段122號","121.630588333333","25.054495","6501100","汐止區"
"220079","145-BY","2019/10/07 19:09:15","新北市板橋區中正路6號","121.456791666667","25.0122733333333","6500100","板橋區"
"220080","200-UY","2019/10/07 19:09:21","新北市板橋區大觀路二段7巷74號","121.449475","25.0030283333333","6500100","板橋區"
"220082","610-BX","2019/10/07 19:09:13","新北市樹林區博愛街57號","121.427643333333","24.99165","6500100","板橋區"
"224002","257-TC","2019/10/07 19:09:23","新北市平溪區新寮里五分寮10-3號","121.797605","25.0768233333333","6501200","瑞芳區"
"220056","276-BY","2019/10/07 19:09:27","新北市板橋區信義路74巷6號","121.456805","24.9929016666667","6500100","板橋區"
"220072","277-BY","2019/10/07 19:09:21","新北市板橋區溪城路121-10號","121.427578333333","24.9824383333333","6500100","板橋區"
"220101","280-UM","2019/10/07 19:09:24","新北市板橋區莊敬路25巷4弄9-1號","121.474098333333","25.0269933333333","6500100","板橋區"
"220071","283-VK","2019/10/07 19:09:23","新北市板橋區忠孝路154巷22號","121.464096666667","25.0019883333333","6500100","板橋區"
"220094","285-UM","2019/10/07 19:09:26","新北市板橋區吳鳳路82號","121.466983333333","25.0312866666667","6500100","板橋區"
"220083","286-VK","2019/10/07 19:09:29","新北市板橋區大觀路二段174巷166弄2號","121.44184","25.0033166666667","6500100","板橋區"
"220081","287-VK","2019/10/07 19:09:25","新北市板橋區南雅西路二段110巷35號","121.452971666667","25.0127416666667","6500100","板橋區"
"220090","288-VK","2019/10/07 19:09:18","新北市板橋區長江路一段106巷13弄11號","121.460486666667","25.029295","6500100","板橋區"
"220061","293-UM","2019/10/07 19:09:24","新北市板橋區中山路二段318巷20弄23號","121.481075","25.0189066666667","6500100","板橋區"
"220084","296-UM","2019/10/07 19:09:25","新北市板橋區溪崑一街47巷2號","121.430421666667","24.990895","6500100","板橋區"
"220053","299-UM","2019/10/07 19:09:21","新北市板橋區富山街53巷3弄1號","121.477356666667","25.0202316666667","6500100","板橋區"
"220075","303-R5","2019/10/07 19:09:08","新北市板橋區南雅南路一段3巷25-4號","121.456753333333","25.005995","6500100","板橋區"
"220062","305-R5","2019/10/07 19:09:09","新北市板橋區三民路二段居仁巷2號","121.479363333333","25.0131716666667","6500100","板橋區"
"220092","307-R5","2019/10/07 19:09:18","新北市板橋區松江街70號","121.468685","25.0278216666667","6500100","板橋區"
"220098","317-R6","2019/10/07 19:09:14","新北市板橋區民有街32號","121.465965","25.02546","6500100","板橋區"
"220089","487-VK","2019/10/07 19:09:25","新北市板橋區文化路一段261號","121.464465","25.0181066666667","6500100","板橋區"
"220088","491-VK","2019/10/07 19:09:22","新北市板橋區雙十路二段193號","121.473601666667","25.028975","6500100","板橋區"
"220035","560-BX","2019/10/07 19:09:19","新北市板橋區中正路379巷1弄36號","121.453058333333","25.0218366666667","6500100","板橋區"
"220103","561-BX","2019/10/07 19:09:13","新北市板橋區文化路一段220號","121.466701666667","25.0205983333333","6500100","板橋區"
"220063","609-BX","2019/10/07 19:09:25","新北市板橋區三民路二段38號","121.47902","25.0178016666667","6500100","板橋區"
"220074","630-UY","2019/10/07 19:09:25","新北市板橋區中正路自強新村43-2號","121.455011666667","25.0138916666667","6500100","板橋區"
"220091","637-BX","2019/10/07 19:09:18","新北市板橋區縣民大道三段221號","121.48053","25.0253466666667","6500100","板橋區"
"220057","686-BX","2019/10/07 19:09:21","新北市板橋區五權街20號","121.46445","24.9938683333333","6500100","板橋區"
"220077","687-BX","2019/10/07 19:09:24","新北市板橋區大觀路二段269號","121.442861666667","24.999015","6500100","板橋區"
"220093","689-BX","2019/10/07 19:09:16","新北市板橋區文化路一段295號","121.46496","25.0188383333333","6500100","板橋區"
"220054","741-BX","2019/10/07 19:09:19","新北市板橋區重慶路71號","121.461888333333","25.0068433333333","6500100","板橋區"
"220102","KEA-2699","2019/10/07 19:09:18","新北市板橋區田單街20號","121.482325","25.028605","6500100","板橋區"
"220055","827-TW","2019/10/07 19:09:20","新北市板橋區新民街13號","121.46396","25.0098916666667","6500100","板橋區"
"220068","830-TW","2019/10/07 19:09:23","新北市板橋區中山路二段443巷32號","121.480908333333","25.0210683333333","6500100","板橋區"
"220067","831-TW","2019/10/07 19:09:23","新北市板橋區三民路二段正隆巷43號","121.476826666667","25.013525","6500100","板橋區"
"220073","985-R7","2019/10/07 19:09:22","新北市板橋區中正路249號","121.455821666667","25.018255","6500100","板橋區"
"220097","AAC-210","2019/10/07 19:09:28","新北市板橋區幸福路60巷31-2號","121.460585","25.0210383333333","6500100","板橋區"
"220064","AAC-253","2019/10/07 19:09:17","新北市板橋區縣民大道二段66號","121.463058333333","25.0127116666667","6500100","板橋區"
"235068","KEA-2873","2019/10/07 19:09:11","新北市中和區圓通路162巷35號","121.496646666667","24.995575","6500300","中和區"
"235061","KEA-2875","2019/10/07 19:09:20","新北市中和區員山路333號","121.481261666667","25.0013416666667","6500300","中和區"
