"lineid","car","time","location","longitude","latitude","cityid","cityname"
"234046","148-BY","2019/10/07 19:39:37","新北市永和區永利路139號","121.524066666667","25.0035133333333","6500400","永和區"
"234081","298-R6","2019/10/07 19:39:52","新北市永和區國中路104巷8弄2號","121.524788333333","25.0068416666667","6500400","永和區"
"234038","336-UY","2019/10/07 19:39:54","新北市永和區民樂街29號","121.527771666667","25.0015016666667","6500400","永和區"
"234064","337-UY","2019/10/07 19:39:40","新北市永和區秀朗路一段192巷6弄12號","121.519046666667","25.0023166666667","6500400","永和區"
"234086","338-UY","2019/10/07 19:39:46","新北市永和區成功路一段18巷15號","121.526273333333","25.0050133333333","6500400","永和區"
"234070","552-UM","2019/10/07 19:39:28","新北市永和區永和路二段235號","121.51564","25.0142716666667","6500400","永和區"
"234017","745-BX","2019/10/07 19:39:49","新北市永和區永和路二段425巷75弄5號","121.513471666667","25.0170583333333","6500400","永和區"
"234030","746-BX","2019/10/07 19:39:51","新北市永和區民生路67巷34號","121.524458333333","24.9973566666667","6500400","永和區"
"234054","KEA-2590","2019/10/07 19:39:50","新北市永和區竹林路39巷8號","121.518246666667","25.0143983333333","6500400","永和區"
"234007","KED-0605","2019/10/07 19:39:52","新北市中和區中和路358號","121.510463333333","25.001655","6500400","永和區"
"234013","KEA-2591","2019/10/07 19:39:59","新北市永和區仁愛路240號","121.508285","25.011605","6500400","永和區"
"234061","AAD-866","2019/10/07 19:39:49","新北市永和區中正路381號","121.517286666667","25.00377","6500400","永和區"
"234042","862-TW","2019/10/07 19:40:00","新北市永和區中和路327號","121.5073","24.9996466666667","6500400","永和區"
"234050","863-TW","2019/10/07 19:39:49","新北市永和區保安路61號","121.509313333333","25.015635","6500400","永和區"
"234026","9371-KE","2019/10/07 19:39:47","新北市永和區中和路501巷10號","121.510551666667","25.0026816666667","6500400","永和區"
"234011","9373-KE","2019/10/07 19:39:55","新北市永和區仁愛路310號","121.503015","25.007505","6500400","永和區"
"249002","305-UY","2019/10/07 19:39:38","新北市八里區頂寮二街85號","121.45002","25.1255833333333","6502300","八里區"
"249003","593-UM","2019/10/07 19:39:52","新北市八里區華峰三街27號","121.399416666667","25.1459233333333","6502300","八里區"
"248014","025-BX","2019/10/07 19:39:39","新北市五股區五福路42巷27號","121.43488","25.0900583333333","6501500","五股區"
"248016","026-BX","2019/10/07 19:39:51","新北市五股區凌雲路一段41號","121.451745","25.1007016666667","6501500","五股區"
"248008","KED-0815","2019/10/07 19:39:58","新北市五股區四維路135巷10號","121.466878333333","25.0742466666667","6501500","五股區"
"248018","KED-0813","2019/10/07 19:39:46","新北市五股區外寮路6號","121.424163333333","25.0774533333333","6501500","五股區"
"248012","247-BX","2019/10/07 19:39:39","新北市五股區蓬萊路6巷43號","121.435813333333","25.08032","6501500","五股區"
"248004","677-BX","2019/10/07 19:39:51","新北市五股區成泰路一段235-2號","121.436261666667","25.0795666666667","6501500","五股區"
"248002","678-BX","2019/10/07 19:39:49","新北市五股區成泰路三段577巷81號","121.449635","25.10371","6501500","五股區"
"248010","682-TV","2019/10/07 19:39:56","新北市五股區自強路186號","121.431386666667","25.0693816666667","6501500","五股區"
"234077","969-R7","2019/10/07 19:39:53","新北市永和區民族街67巷25號","121.519271666667","24.9971816666667","6500400","永和區"
"234074","AAC-211","2019/10/07 19:39:41","新北市永和區竹林路225巷19號","121.521813333333","25.00862","6500400","永和區"
"234067","AAC-212","2019/10/07 19:39:46","新北市永和區中山路一段191巷15弄2-1號","121.50987","25.0079533333333","6500400","永和區"
"234003","AAC-295","2019/10/07 19:39:49","新北市永和區自由街73號","121.513305","25.0051116666667","6500400","永和區"
"244023","483-VK","2019/10/07 19:39:53","新北市林口區文林五街9-2號","121.372966666667","25.08466","6501700","林口區"
"243016","421-VK","2019/10/07 19:39:53","新北市泰山區中山路三段6-1號","121.419141666667","25.0321933333333","6501600","泰山區"
"243012","539-UM","2019/10/07 19:39:59","新北市泰山區全興路199-1號","121.434996666667","25.054935","6501600","泰山區"
"243009","KEA-2215","2019/10/07 19:39:45","新北市泰山區美寧街60號","121.430911666667","25.0646366666667","6501600","泰山區"
"243011","KEA-2216","2019/10/07 19:39:57","新北市泰山區台麗街77號","121.426311666667","25.03731","6501600","泰山區"
"243015","680-BX","2019/10/07 19:39:41","新北市泰山區文程路25號","121.428665","25.049415","6501600","泰山區"
"222003","436-BY","2019/10/07 19:39:57","新北市深坑區深南路51-1號","121.62122","25.0098633333333","6501800","深坑區"
"222002","659-BX","2019/10/07 19:39:57","新北市深坑區北深路一段177號","121.632486666667","25.0108866666667","6501800","深坑區"
"231061","002-UM","2019/10/07 19:39:47","新北市新店區安民街71號","121.516543333333","24.9670816666667","6500600","新店區"
"231058","0293-UT","2019/10/07 19:39:37","新北市新店區中正路76巷11弄19號","121.543693333333","24.9717233333333","6500600","新店區"
"231044","046-UY","2019/10/07 19:39:40","新北市新店區北新路三段129號","121.541238333333","24.9826533333333","6500600","新店區"
"231045","047-UY","2019/10/07 19:39:37","新北市新店區北宜路二段211號","121.553213333333","24.9533333333333","6500600","新店區"
"231060","106-UY","2019/10/07 19:39:43","新北市新店區安康路二段153號","121.51058","24.959645","6500600","新店區"
"231051","107-UY","2019/10/07 19:39:48","新北市新店區中央四街25號","121.528951666667","24.9742733333333","6500600","新店區"
"231049","108-UY","2019/10/07 19:39:57","新北市新店區大豐路67號","121.539448333333","24.97952","6500600","新店區"
"231065","110-UY","2019/10/07 19:39:47","新北市新店區安祥路109巷85弄23號","121.478273333333","24.960095","6500600","新店區"
"231062","256-BX","2019/10/07 19:39:50","新北市新店區太平路27號","121.533645","24.9581366666667","6500600","新店區"
"231054","260-TV","2019/10/07 19:39:53","新北市新店區文中路45號","121.539636666667","24.9566233333333","6500600","新店區"
"231042","268-BY","2019/10/07 19:39:42","新北市新店區中興路一段180號","121.543233333333","24.9649083333333","6500600","新店區"
"231064","278-BY","2019/10/07 19:39:53","新北市新店區安和路二段115號","121.518681666667","24.9704133333333","6500600","新店區"
"231050","AAD-862","2019/10/07 19:39:46","新北市新店區北宜路二段92號","121.555221666667","24.953555","6500600","新店區"
"231056","4715-K9","2019/10/07 19:39:42","新北市新店區民權路72號","121.538138333333","24.983205","6500600","新店區"
"231067","4772-VM","2019/10/07 19:39:47","新北市新店區精忠路10-1號","121.532563333333","24.95909","6500600","新店區"
"231052","513-UM","2019/10/07 19:39:53","新北市新店區新烏路二段478號","121.552911666667","24.90802","6500600","新店區"
"231040","617-UM","2019/10/07 19:39:49","新北市新店區北新路一段98號","121.542281666667","24.9688833333333","6500600","新店區"
"231041","619-UM","2019/10/07 19:39:49","新北市新店區中正路487號","121.533815","24.98213","6500600","新店區"
"231063","641-BX","2019/10/07 19:39:22","新北市新店區達觀路41號","121.50251","24.9383533333333","6500600","新店區"
"231047","KED-0819","2019/10/07 19:39:57","新北市新店區五峰路63巷8弄2號","121.546656666667","24.9685533333333","6500600","新店區"
"231046","719-UM","2019/10/07 19:39:44","新北市新店區中正路331-1號","121.536165","24.9752716666667","6500600","新店區"
"231057","720-UM","2019/10/07 19:39:37","新北市新店區橘園一路11號","121.54794","24.934035","6500600","新店區"
"231059","897-TW","2019/10/07 19:39:48","新北市新店區安和路三段53號","121.517968333333","24.9827","6500600","新店區"
"231043","899-TW","2019/10/07 19:39:48","新北市新店區中正路114號","121.54265","24.9710433333333","6500600","新店區"
"231066","AKT-0513","2019/10/07 19:39:50","新北市新店區安康路三段207巷19號","121.488441666667","24.9507866666667","6500600","新店區"
"241011","013-R5","2019/10/07 19:39:53","新北市三重區秀江街124號","121.499046666667","25.0719783333333","6500200","三重區"
"241028","022-UY","2019/10/07 19:39:40","新北市三重區中正南路137號","121.493981666667","25.0568583333333","6500200","三重區"
"241008","059-VK","2019/10/07 19:39:54","新北市三重區永福街125巷11號","121.478245","25.0772916666667","6500200","三重區"
"241031","061-VK","2019/10/07 19:39:57","新北市三重區重新路四段244巷22號","121.486613333333","25.053695","6500200","三重區"
"241015","062-VK","2019/10/07 19:39:43","新北市三重區福德北路46號","121.501983333333","25.065435","6500200","三重區"
"241017","063-VK","2019/10/07 19:39:48","新北市三重區國隆路26號","121.492543333333","25.0642316666667","6500200","三重區"
"241024","065-VK","2019/10/07 19:39:47","新北市三重區大勇街82巷15弄30號","121.48127","25.0719866666667","6500200","三重區"
"241007","066-VK","2019/10/07 19:39:43","新北市三重區仁美街64號","121.486446666667","25.0783366666667","6500200","三重區"
"241006","262-UM","2019/10/07 19:39:51","新北市三重區聯華街86號","121.485716666667","25.0752516666667","6500200","三重區"
"241016","266-UM","2019/10/07 19:39:38","新北市三重區正義北路16巷13號","121.497061666667","25.0629983333333","6500200","三重區"
"241009","267-UM","2019/10/07 19:39:52","新北市三重區三和路四段406巷20號","121.480338333333","25.0793833333333","6500200","三重區"
"241032","269-UM","2019/10/07 19:39:45","新北市三重區三陽路62號","121.484148333333","25.0586466666667","6500200","三重區"
"241013","270-UM","2019/10/07 19:39:52","新北市三重區仁賢街29號","121.496503333333","25.074845","6500200","三重區"
"241025","271-UM","2019/10/07 19:39:49","新北市三重區忠孝路三段84巷1號","121.480251666667","25.0645166666667","6500200","三重區"
"241030","KED-0822","2019/10/07 19:39:39","新北市三重區新興路28巷20號","121.491696666667","25.05273","6500200","三重區"
"241035","462-BY","2019/10/07 19:39:51","新北市三重區信義西街32號","121.49844","25.064765","6500200","三重區"
"241004","475-VK","2019/10/07 19:39:47","新北市三重區五華街74號","121.493325","25.0820383333333","6500200","三重區"
"241020","478-VK","2019/10/07 19:39:38","新北市三重區三和路四段156號","121.488045","25.0756816666667","6500200","三重區"
"241026","480-VK","2019/10/07 19:40:00","新北市三重區文化南路65巷46弄9號","121.498658333333","25.06032","6500200","三重區"
"241014","543-UM","2019/10/07 19:39:37","新北市三重區長壽街196號","121.504143333333","25.06911","6500200","三重區"
"241001","547-UM","2019/10/07 19:39:42","新北市三重區五華街40號","121.49432","25.0807716666667","6500200","三重區"
"241019","KEA-2593","2019/10/07 19:39:54","新北市三重區安慶街361巷7號","121.487801666667","25.0677083333333","6500200","三重區"
"241005","AAD-863","2019/10/07 19:39:54","新北市三重區溪尾街305號","121.487608333333","25.0838533333333","6500200","三重區"
"241012","743-BX","2019/10/07 19:39:41","新北市三重區仁義街8號","121.499916666667","25.07571","6500200","三重區"
"241023","887-TS","2019/10/07 19:39:56","新北市三重區忠孝路三段126號","121.479886666667","25.0633133333333","6500200","三重區"
"241029","942-UM","2019/10/07 19:39:47","新北市三重區光明路122號","121.492878333333","25.0559366666667","6500200","三重區"
"235066","003-UY","2019/10/07 19:39:43","新北市中和區中和路196巷9弄3號","121.505305","24.9991716666667","6500300","中和區"
"235063","006-UY","2019/10/07 19:39:42","新北市中和區連城路263巷4號","121.492078333333","24.9960583333333","6500300","中和區"
"235056","096-UM","2019/10/07 19:39:50","新北市中和區中山路三段114巷26弄1號","121.475973333333","25.0070266666667","6500300","中和區"
"235039","097-UM","2019/10/07 19:39:54","新北市中和區景平路131號","121.514865","24.992195","6500300","中和區"
"235065","098-UM","2019/10/07 19:39:53","新北市中和區中山路二段191號","121.500101666667","25.00265","6500300","中和區"
"235040","150-BY","2019/10/07 19:39:52","新北市中和區保健路44巷1-1號","121.50959","24.997095","6500300","中和區"
"235058","151-BY","2019/10/07 19:39:41","新北市中和區員山路130號","121.481111666667","24.9962866666667","6500300","中和區"
"235055","183-VK","2019/10/07 19:39:44","新北市中和區中山路三段181巷18弄37號","121.472628333333","25.00501","6500300","中和區"
"235038","185-VK","2019/10/07 19:39:44","新北市中和區自立路141巷3號","121.522428333333","24.993565","6500300","中和區"
"235067","255-BX","2019/10/07 19:39:39","新北市中和區新生街287號","121.483791666667","24.9973983333333","6500300","中和區"
"235044","293-VK","2019/10/07 19:39:43","新北市中和區南山路421巷1弄3號","121.507363333333","24.98957","6500300","中和區"
"235072","301-VK","2019/10/07 19:39:54","新北市中和區中山路二段311-3號","121.49464","25.00193","6500300","中和區"
"235043","352-BY","2019/10/07 19:39:46","新北市中和區興南路二段159巷18號","121.505288333333","24.9830083333333","6500300","中和區"
"235042","KEA-2878","2019/10/07 19:39:41","新北市中和區景安路79巷5號","121.506695","24.997155","6500300","中和區"
"235070","558-UM","2019/10/07 19:39:47","新北市中和區連城路171巷46號","121.495981666667","24.9964383333333","6500300","中和區"
"235060","KED-0823","2019/10/07 19:39:53","新北市中和區員山路390號","121.480613333333","25.00458","6500300","中和區"
"235054","640-BX","2019/10/07 19:39:58","新北市中和區莒光路152號","121.472471666667","25.0007016666667","6500300","中和區"
"235047","732-UM","2019/10/07 19:39:55","新北市中和區南山路289號","121.504578333333","24.9922133333333","6500300","中和區"
"235071","783-BX","2019/10/07 19:39:53","新北市中和區中正路839巷29號","121.483573333333","25.0023433333333","6500300","中和區"
"235057","801-TS","2019/10/07 19:39:46","新北市中和區中正路814號","121.484993333333","25.0032216666667","6500300","中和區"
"235041","802-TS","2019/10/07 19:39:52","新北市中和區永貞路229號","121.513331666667","25.0036916666667","6500300","中和區"
"235052","805-TS","2019/10/07 19:39:48","新北市中和區華新街206巷6-3號","121.506446666667","24.98222","6500300","中和區"
"235048","896-TW","2019/10/07 19:39:51","新北市中和區興南路二段49號","121.507405","24.9853416666667","6500300","中和區"
"235053","900-TW","2019/10/07 19:39:58","新北市中和區民德路146巷7弄1號","121.467681666667","25.0005216666667","6500300","中和區"
"235051","157-BY","2019/10/07 19:39:50","新北市中和區中興街132巷11號","121.498848333333","24.9916766666667","6500300","中和區"
"235037","AAC-213","2019/10/07 19:39:48","新北市中和區自立路66號","121.523803333333","24.9912733333333","6500300","中和區"
"235059","AAC-215","2019/10/07 19:39:44","新北市中和區錦和路350號","121.490763333333","24.9924383333333","6500300","中和區"
"220065","072-UY","2019/10/07 19:39:53","新北市板橋區國泰街107-1號","121.466558333333","25.006315","6500100","板橋區"
"220086","073-UY","2019/10/07 19:39:57","新北市板橋區中正路216巷8號","121.456296666667","25.01844","6500100","板橋區"
"220106","075-UY","2019/10/07 19:39:50","新北市板橋區民治街57巷26號","121.480066666667","25.0339","6500100","板橋區"
"220069","AAD-861","2019/10/07 19:39:41","新北市板橋區南雅南路二段32號","121.454195","25.0030066666667","6500100","板橋區"
"247004","336-TH","2019/10/07 19:39:46","新北市蘆洲區長安街102巷65號","121.462728333333","25.08219","6501400","蘆洲區"
"247002","001-UY","2019/10/07 19:39:43","新北市蘆洲區三民路595號","121.460961666667","25.0936016666667","6501400","蘆洲區"
"226004","312-R5","2019/10/07 19:39:54","新北市平溪區十分里十分街129號","121.776938333333","25.0432783333333","6502400","平溪區"
"235049","251-BX","2019/10/07 19:39:47","新北市中和區景平路421號","121.501788333333","24.9951166666667","6500300","中和區"
"228003","097-TW","2019/10/07 19:39:57","新北市貢寮區真理里美艷山街21號","121.923376666667","25.0686133333333","6502600","貢寮區"
"228001","670-TC","2019/10/07 19:39:55","新北市貢寮區真理里延平街36號","121.924575","25.056525","6502600","貢寮區"
"227002","642-TC","2019/10/07 19:39:51","新北市雙溪區雙溪里太平路56號","121.864946666667","25.0356433333333","6502500","雙溪區"
"227001","400-TW","2019/10/07 19:39:47","新北市雙溪區新基里新基北街22號","121.867216666667","25.0389266666667","6502500","雙溪區"
"222001","KEA-2212","2019/10/07 19:39:41","新北市深坑區深坑街148號","121.61301","25.0014916666667","6501800","深坑區"
"208002","KEA-2872","2019/10/07 19:39:51","新北市金山區中正路53號","121.63452","25.2218983333333","6502700","金山區"
"208003","665-BX","2019/10/07 19:39:54","新北市金山區仁愛路7號","121.638018333333","25.2195966666667","6502700","金山區"
"251009","008-UM","2019/10/07 19:39:55","新北市淡水區中山北路一段184巷10號","121.445285","25.1784633333333","6501000","淡水區"
"251005","010-UM","2019/10/07 19:39:41","新北市淡水區原德路108巷2號","121.443441666667","25.1735366666667","6501000","淡水區"
"251001","011-UM","2019/10/07 19:39:59","新北市淡水區民權路51號","121.459723333333","25.139035","6501000","淡水區"
"251002","012-UM","2019/10/07 19:39:44","新北市淡水區下圭柔山91-3號","121.431025","25.20986","6501000","淡水區"
"251015","KEA-2871","2019/10/07 19:39:41","新北市淡水區山子頂24-1號","121.491356666667","25.1872083333333","6501000","淡水區"
"251016","179-VK","2019/10/07 19:39:47","新北市淡水區淡金路三段350巷18號","121.45075","25.208335","6501000","淡水區"
"251013","180-VK","2019/10/07 19:39:50","新北市淡水區店子後9號","121.459963333333","25.2189183333333","6501000","淡水區"
"251008","181-VK","2019/10/07 19:39:51","新北市淡水區中正路32巷8號","121.430456666667","25.175385","6501000","淡水區"
"251010","413-VK","2019/10/07 19:39:48","新北市淡水區崁頂三路153號","121.431155","25.2011066666667","6501000","淡水區"
"251007","442-VK","2019/10/07 19:39:39","新北市淡水區中正東路一段111巷29號","121.455428333333","25.1609816666667","6501000","淡水區"
"251006","561-UM","2019/10/07 19:39:43","新北市淡水區中山北路一段207巷46號","121.442643333333","25.1791","6501000","淡水區"
"251014","577-R6","2019/10/07 19:39:47","新北市淡水區中和里13-2號","121.478095","25.2306266666667","6501000","淡水區"
"251011","650-BX","2019/10/07 19:39:44","新北市淡水區中正東路二段143巷2弄1號","121.460693333333","25.147195","6501000","淡水區"
"207003","550-UM","2019/10/07 19:39:39","新北市萬里區大鵬里萬里加投289-4號","121.64571","25.21866","6502800","萬里區"
"207004","291-VK","2019/10/07 19:39:53","新北市萬里區萬里里瑪鋉路33號","121.687531666667","25.1756166666667","6502800","萬里區"
"252002","178-VK","2019/10/07 19:39:50","新北市三芝區中正路一段18巷50號","121.504118333333","25.2588616666667","6502100","三芝區"
"208001","170-UY","2019/10/07 19:39:57","新北市金山區六股里頂六股7-6號","121.611446666667","25.2218816666667","6502700","金山區"
"237004","KEA-2597","2019/10/07 19:39:41","新北市三峽區插角133-1號","121.411801666667","24.86976","6500900","三峽區"
"237007","153-BY","2019/10/07 19:39:47","新北市三峽區二鬮路136巷24弄25號","121.356448333333","24.9105866666667","6500900","三峽區"
"237009","210-TH","2019/10/07 19:39:55","新北市三峽區中園街63號","121.36818","24.92581","6500900","三峽區"
"237013","252-BX","2019/10/07 19:39:43","新北市三峽區介壽路一段406號","121.383841666667","24.9309466666667","6500900","三峽區"
"237012","275-BY","2019/10/07 19:39:49","新北市三峽區民生街3號","121.374608333333","24.9354183333333","6500900","三峽區"
"237008","302-VK","2019/10/07 19:39:53","新北市三峽區中正路一段231號","121.372135","24.9268966666667","6500900","三峽區"
"237014","433-BY","2019/10/07 19:39:53","新北市三峽區中山路35號","121.368285","24.9345","6500900","三峽區"
"237006","5529-G3","2019/10/07 19:39:46","新北市三峽區中正路一段336巷15弄2號","121.36995","24.9249583333333","6500900","三峽區"
"237011","KEA-2596","2019/10/07 19:39:47","新北市三峽區中正路一段280號","121.371646666667","24.9263416666667","6500900","三峽區"
"237015","649-BX","2019/10/07 19:39:50","新北市三峽區成福路156號","121.422745","24.9290033333333","6500900","三峽區"
"237010","706-TV","2019/10/07 19:39:58","新北市三峽區民生街58號","121.37524","24.936285","6500900","三峽區"
"237005","AKY-6261","2019/10/07 19:39:47","新北市三峽區文化路197號","121.366536666667","24.9356883333333","6500900","三峽區"
"236042","KED-0685","2019/10/07 19:38:13","新北市土城區裕民路256巷1弄1號","121.45436","24.9827283333333","6501300","土城區"
"236078","166-UM","2019/10/07 19:39:53","新北市土城區中州路52巷2弄22號","121.412541666667","24.9579916666667","6501300","土城區"
"236030","253-BX","2019/10/07 19:39:45","新北市土城區福祥街64號","121.441545","24.9815333333333","6501300","土城區"
"236039","271-VK","2019/10/07 19:39:52","新北市土城區清水路98巷3弄45號","121.458531666667","24.9808833333333","6501300","土城區"
"236069","KEA-2877","2019/10/07 19:39:47","新北市土城區學士路23號","121.453256666667","24.9825916666667","6501300","土城區"
"252001","KED-0821","2019/10/07 19:39:50","新北市三芝區公正街66號","121.499833333333","25.2574683333333","6502100","三芝區"
"236020","401-BY","2019/10/07 19:39:37","新北市土城區峰廷街3號","121.469081666667","24.9873416666667","6501300","土城區"
"236059","912-UM","2019/10/07 19:39:52","新北市土城區中央路二段17號","121.442928333333","24.980465","6501300","土城區"
"236048","913-UM","2019/10/07 19:39:52","新北市土城區延吉街329-2號","121.465495","24.98401","6501300","土城區"
"236063","915-UM","2019/10/07 19:39:43","新北市土城區延平街35號","121.468038333333","24.9918883333333","6501300","土城區"
"236055","AAC-216","2019/10/07 19:39:54","新北市土城區青雲路33號","121.460698333333","24.9882783333333","6501300","土城區"
"242004","751-BX","2019/10/07 19:39:44","新北市新莊區化成路11巷21號","121.464071666667","25.043455","6500500","新莊區"
"242013","413-TV","2019/10/07 19:39:48","新北市新莊區中和街59號","121.447523333333","25.046765","6500500","新莊區"
"242023","353-BY","2019/10/07 19:39:42","新北市新莊區復興路三段115號","121.464271666667","25.0445333333333","6500500","新莊區"
"242031","175-VK","2019/10/07 19:39:54","新北市新莊區新泰路213巷28號","121.445896666667","25.03872","6500500","新莊區"
"242039","347-TH","2019/10/07 19:40:00","新北市新莊區建國二路88號","121.431186666667","25.0265266666667","6500500","新莊區"
"242036","348-TH","2019/10/07 19:39:57","新北市新莊區民安路181巷2弄9號","121.426555","25.0226733333333","6500500","新莊區"
"242034","350-TH","2019/10/07 19:39:47","新北市新莊區中正路346號","121.444246666667","25.0343483333333","6500500","新莊區"
"238015","755-BX","2019/10/07 19:39:47","新北市樹林區樹德街48號","121.421143333333","24.9919083333333","6500700","樹林區"
"238023","601-UM","2019/10/07 19:39:57","新北市樹林區三福街127巷1號","121.404855","25.01593","6500700","樹林區"
"238019","599-UM","2019/10/07 19:39:55","新北市樹林區鎮前街327-1號","121.41707","24.9846033333333","6500700","樹林區"
"238024","5061-A6","2019/10/07 19:39:49","新北市樹林區中山路三段22號","121.395685","24.9729","6500700","樹林區"
"238022","KEA-2213","2019/10/07 19:39:53","新北市樹林區太元街81號","121.419328333333","24.9781333333333","6500700","樹林區"
"238021","KEA-2539","2019/10/07 19:39:54","新北市樹林區佳園路三段113巷17號","121.387583333333","24.950215","6500700","樹林區"
"238025","303-VK","2019/10/07 19:39:47","新北市樹林區中山路一段139號","121.422411666667","24.9896866666667","6500700","樹林區"
"238017","283-BY","2019/10/07 19:39:57","新北市樹林區光興街55號","121.411215","25.0028666666667","6500700","樹林區"
"238014","282-BY","2019/10/07 19:39:54","新北市樹林區千歲街48號","121.426098333333","24.9969466666667","6500700","樹林區"
"238020","268-VK","2019/10/07 19:39:57","新北市樹林區千歲街186號","121.429361666667","25.0010366666667","6500700","樹林區"
"238026","172-UY","2019/10/07 19:39:47","新北市樹林區佳園路二段125號","121.390263333333","24.9580683333333","6500700","樹林區"
"238016","169-UY","2019/10/07 19:39:56","新北市樹林區東佳路218號","121.410848333333","24.9821083333333","6500700","樹林區"
"239007","AAC-297","2019/10/07 19:39:40","新北市鶯歌區大湖路326巷8號","121.346125","24.9702783333333","6500800","鶯歌區"
"239006","891-R6","2019/10/07 19:39:53","新北市鶯歌區建國路550號","121.338073333333","24.9505183333333","6500800","鶯歌區"
"239008","527-UM","2019/10/07 19:39:44","新北市鶯歌區大湖路560號","121.336945","24.9732766666667","6500800","鶯歌區"
"239005","526-UM","2019/10/07 19:39:40","新北市鶯歌區中湖街315巷31號","121.345646666667","24.9774466666667","6500800","鶯歌區"
"239001","417-VK","2019/10/07 19:39:42","新北市鶯歌區永安街22號","121.33776","24.9556883333333","6500800","鶯歌區"
"239002","359-BY","2019/10/07 19:39:56","新北市鶯歌區大湖路394號","121.344635","24.9735283333333","6500800","鶯歌區"
"239004","193-VK","2019/10/07 19:39:51","新北市鶯歌區國中街171-1號","121.33766","24.93894","6500800","鶯歌區"
"221008","489-VK","2019/10/07 19:39:45","新北市汐止區康寧街145號","121.62187","25.06667","6501100","汐止區"
"221010","269-BY","2019/10/07 19:39:59","新北市汐止區連峰街5巷1號","121.646491666667","25.0767883333333","6501100","汐止區"
"221012","278-VK","2019/10/07 19:39:39","新北市汐止區大同路三段174號","121.674156666667","25.0748666666667","6501100","汐止區"
"221027","281-BY","2019/10/07 19:39:38","新北市汐止區忠孝東路9號","121.658256666667","25.0659366666667","6501100","汐止區"
"221021","299-VK","2019/10/07 19:39:55","新北市汐止區新興路108號","121.657266666667","25.0608466666667","6501100","汐止區"
"221031","353-TW","2019/10/07 19:39:43","新北市汐止區康寧街901號","121.650785","25.07526","6501100","汐止區"
"221038","646-BX","2019/10/07 19:39:38","新北市汐止區忠孝東路250號","121.662936666667","25.0673983333333","6501100","汐止區"
"221033","647-BX","2019/10/07 19:39:53","新北市汐止區南勢街3號","121.62706","25.0373933333333","6501100","汐止區"
"220079","145-BY","2019/10/07 19:39:55","新北市板橋區民權路260巷13號","121.458471666667","25.0153883333333","6500100","板橋區"
"220080","200-UY","2019/10/07 19:39:55","新北市板橋區大觀路二段37巷224號","121.449718333333","25.00088","6500100","板橋區"
"220082","610-BX","2019/10/07 19:39:53","新北市板橋區大觀路三段213號","121.43136","24.9930316666667","6500100","板橋區"
"220056","276-BY","2019/10/07 19:39:56","新北市板橋區國慶路27號","121.458748333333","24.9956516666667","6500100","板橋區"
"220072","277-BY","2019/10/07 19:39:40","新北市板橋區金門街215巷6號","121.432853333333","24.9896933333333","6500100","板橋區"
"220101","280-UM","2019/10/07 19:39:44","新北市板橋區縣民大道三段93巷21號","121.474811666667","25.0224283333333","6500100","板橋區"
"220071","283-VK","2019/10/07 19:39:43","新北市板橋區四川路一段325巷3弄8號","121.4596","25.0004533333333","6500100","板橋區"
"220094","285-UM","2019/10/07 19:39:46","新北市板橋區長江路二段151號","121.46597","25.0318283333333","6500100","板橋區"
"220083","286-VK","2019/10/07 19:39:51","新北市板橋區龍興街71巷29號","121.442583333333","25.0023566666667","6500100","板橋區"
"220081","287-VK","2019/10/07 19:39:59","新北市板橋區大觀路一段77號","121.447233333333","25.0044833333333","6500100","板橋區"
"220090","288-VK","2019/10/07 19:39:58","新北市板橋區龍泉街72巷13號","121.456086666667","25.0262566666667","6500100","板橋區"
"220061","293-UM","2019/10/07 19:39:55","新北市板橋區中山路一段283巷22號","121.470366666667","25.0152516666667","6500100","板橋區"
"220084","296-UM","2019/10/07 19:39:45","新北市板橋區溪崑二街138號","121.425811666667","24.9875733333333","6500100","板橋區"
"220034","297-UM","2019/10/07 19:39:57","新北市板橋區華東街1-10號","121.448331666667","24.995025","6500100","板橋區"
"220053","299-UM","2019/10/07 19:39:45","新北市板橋區民享街89號","121.476991666667","25.0158216666667","6500100","板橋區"
"220075","303-R5","2019/10/07 19:39:48","新北市板橋區中正路253巷58號","121.453395","25.0174666666667","6500100","板橋區"
"220062","305-R5","2019/10/07 19:39:49","新北市板橋區三民路二段83號","121.479401666667","25.016685","6500100","板橋區"
"220092","307-R5","2019/10/07 19:39:58","新北市板橋區四維路259巷59號","121.461098333333","25.027005","6500100","板橋區"
"220098","317-R6","2019/10/07 19:40:00","新北市板橋區四維路266巷5弄14號","121.463671666667","25.02886","6500100","板橋區"
"220089","487-VK","2019/10/07 19:39:54","新北市板橋區互助街97號","121.459346666667","25.0256883333333","6500100","板橋區"
"220088","491-VK","2019/10/07 19:39:42","新北市板橋區文聖街20-3號","121.476181666667","25.031595","6500100","板橋區"
"220035","560-BX","2019/10/07 19:39:39","新北市板橋區中正路399巷17號","121.452908333333","25.0226933333333","6500100","板橋區"
"220103","561-BX","2019/10/07 19:39:53","新北市板橋區自由路40號","121.465631666667","25.02323","6500100","板橋區"
"220063","609-BX","2019/10/07 19:39:50","新北市板橋區中山路二段284號","121.479461666667","25.0187933333333","6500100","板橋區"
"220074","630-UY","2019/10/07 19:39:45","新北市板橋區館前西路150-4號","121.455611666667","25.0085933333333","6500100","板橋區"
"220091","637-BX","2019/10/07 19:39:58","新北市板橋區懷德街139巷7號","121.479581666667","25.030645","6500100","板橋區"
"220057","686-BX","2019/10/07 19:39:54","新北市板橋區四川路二段2號","121.456673333333","24.9966583333333","6500100","板橋區"
"220077","687-BX","2019/10/07 19:39:49","新北市板橋區僑中二街88巷2號","121.446448333333","25.0094266666667","6500100","板橋區"
"220093","689-BX","2019/10/07 19:39:56","新北市板橋區長江路二段243號","121.468841666667","25.0326283333333","6500100","板橋區"
"220054","741-BX","2019/10/07 19:39:39","新北市板橋區忠孝路192號","121.465075","25.0025916666667","6500100","板橋區"
"220102","KEA-2699","2019/10/07 19:39:51","新北市板橋區文化路二段410巷1弄27號","121.474845","25.030825","6500100","板橋區"
"220055","827-TW","2019/10/07 19:39:50","新北市板橋區國慶路149巷5號","121.461213333333","24.996915","6500100","板橋區"
"220068","830-TW","2019/10/07 19:39:42","新北市板橋區中山路二段412巷3號","121.48319","25.020815","6500100","板橋區"
"220067","831-TW","2019/10/07 19:39:58","新北市板橋區長安街251巷20號","121.472208333333","25.010765","6500100","板橋區"
"220073","985-R7","2019/10/07 19:39:42","新北市板橋區國光路49巷17號","121.458918333333","25.0187983333333","6500100","板橋區"
"220097","AAC-210","2019/10/07 19:39:48","新北市板橋區文化路一段99號","121.461381666667","25.0143283333333","6500100","板橋區"
"220064","AAC-253","2019/10/07 19:39:57","新北市板橋區館前東路144號","121.464261666667","25.007835","6500100","板橋區"
"235068","KEA-2873","2019/10/07 19:39:41","新北市中和區中和路53號","121.500566666667","25.0014583333333","6500300","中和區"
"235061","KEA-2875","2019/10/07 19:39:50","新北市中和區員山路325-5號","121.481228333333","25.0009083333333","6500300","中和區"
