"lineid","car","time","location","longitude","latitude","cityid","cityname"
"234046","148-BY","2019/10/07 20:09:17","新北市永和區得和路354號","121.523903333333","24.9994583333333","6500400","永和區"
"234081","298-R6","2019/10/07 20:09:11","新北市永和區永亨路100號","121.523123333333","25.0047183333333","6500400","永和區"
"234038","336-UY","2019/10/07 20:09:14","新北市永和區成功路一段124號","121.526816666667","25.002325","6500400","永和區"
"234064","337-UY","2019/10/07 20:09:20","新北市永和區永利路150號","121.52243","25.0028366666667","6500400","永和區"
"234086","338-UY","2019/10/07 20:09:26","新北市永和區福和路175號","121.519856666667","25.00763","6500400","永和區"
"234070","552-UM","2019/10/07 20:09:08","新北市永和區中正路638號","121.516918333333","25.0082033333333","6500400","永和區"
"234017","745-BX","2019/10/07 20:09:25","新北市永和區文化路116號","121.513278333333","25.0152683333333","6500400","永和區"
"234030","746-BX","2019/10/07 20:09:11","新北市永和區民有街75巷10弄61號","121.519736666667","24.99607","6500400","永和區"
"234054","KEA-2590","2019/10/07 20:09:30","新北市永和區博愛街20巷2號","121.517725","25.0158016666667","6500400","永和區"
"234007","KED-0605","2019/10/07 20:09:12","新北市永和區保順路37巷12號","121.503068333333","25.0104433333333","6500400","永和區"
"234013","KEA-2591","2019/10/07 20:09:19","新北市永和區永貞路405號","121.507623333333","25.0091416666667","6500400","永和區"
"234061","AAD-866","2019/10/07 20:09:10","新北市永和區中正路151巷8弄2號","121.516016666667","24.99864","6500400","永和區"
"234042","862-TW","2019/10/07 20:09:23","新北市永和區雙和街50號","121.508933333333","25.003085","6500400","永和區"
"234050","863-TW","2019/10/07 20:09:21","新北市永和區新生路271巷5號","121.505403333333","25.0130066666667","6500400","永和區"
"234026","9371-KE","2019/10/07 20:09:27","新北市永和區保生路55號","121.504681666667","25.0106766666667","6500400","永和區"
"249005","172-UM","2019/10/07 20:09:14","新北市八里區下罟子59號","121.387251666667","25.13656","6502300","八里區"
"249001","173-UM","2019/10/07 20:09:22","新北市八里區中華路二段318號","121.403505","25.1481","6502300","八里區"
"249004","303-UY","2019/10/07 20:09:24","新北市八里區中山路一段157巷67號","121.412261666667","25.1577333333333","6502300","八里區"
"249002","305-UY","2019/10/07 20:09:19","新北市八里區龍米路一段8號","121.457823333333","25.114965","6502300","八里區"
"249003","593-UM","2019/10/07 20:09:12","新北市八里區中山路二段540巷9弄2號","121.396833333333","25.1470716666667","6502300","八里區"
"248016","026-BX","2019/10/07 20:09:11","新北市五股區成泰路三段577巷80弄72號","121.448926666667","25.1047483333333","6501500","五股區"
"248008","KED-0815","2019/10/07 20:09:18","新北市五股區中興路一段3號","121.46973","25.0722166666667","6501500","五股區"
"248018","KED-0813","2019/10/07 20:09:06","新北市五股區登林路75號","121.428343333333","25.0698333333333","6501500","五股區"
"248012","247-BX","2019/10/07 20:09:19","新北市五股區六合街70號","121.431856666667","25.0900466666667","6501500","五股區"
"248004","677-BX","2019/10/07 20:09:10","新北市五股區成泰路一段173-1號","121.435151666667","25.0748933333333","6501500","五股區"
"248002","678-BX","2019/10/07 20:09:09","新北市五股區成泰路三段369-1號","121.448841666667","25.096","6501500","五股區"
"248010","682-TV","2019/10/07 20:09:16","新北市五股區成泰路一段7巷48弄8號","121.432696666667","25.0678216666667","6501500","五股區"
"234023","9380-KE","2019/10/07 20:09:28","新北市永和區中正路654巷10號","121.517225","25.0085566666667","6500400","永和區"
"234077","969-R7","2019/10/07 20:09:13","新北市永和區民光街22巷2號","121.516055","24.99574","6500400","永和區"
"234074","AAC-211","2019/10/07 20:09:29","新北市永和區豫溪街163號","121.52151","25.01041","6500400","永和區"
"234067","AAC-212","2019/10/07 20:09:27","新北市永和區保平路214巷3弄2號","121.509236666667","25.0064316666667","6500400","永和區"
"234003","AAC-295","2019/10/07 20:09:09","新北市永和區自強街47號","121.516011666667","25.00795","6500400","永和區"
"243014","KEA-2801","2019/10/07 20:09:15","新北市泰山區明志路一段124號","121.433365","25.0636166666667","6501600","泰山區"
"243016","421-VK","2019/10/07 20:09:13","新北市泰山區明志路三段409號","121.421303333333","25.0339833333333","6501600","泰山區"
"243012","539-UM","2019/10/07 20:09:25","新北市泰山區楓江路17號","121.433903333333","25.0624433333333","6501600","泰山區"
"243009","KEA-2215","2019/10/07 20:09:25","新北市泰山區泰林路二段116巷6弄2號","121.435336666667","25.059625","6501600","泰山區"
"243011","KEA-2216","2019/10/07 20:09:21","新北市泰山區明志路三段531巷2號","121.421368333333","25.02974","6501600","泰山區"
"243015","680-BX","2019/10/07 20:09:22","新北市泰山區明志路二段81號","121.428828333333","25.052295","6501600","泰山區"
"222003","436-BY","2019/10/07 20:09:16","新北市深坑區埔新街56號","121.620315","25.002495","6501800","深坑區"
"222002","659-BX","2019/10/07 20:09:17","新北市深坑區北深路三段111號","121.604796666667","25.002135","6501800","深坑區"
"231061","002-UM","2019/10/07 20:09:27","新北市新店區安興路81號","121.51537","24.9754366666667","6500600","新店區"
"231058","0293-UT","2019/10/07 20:09:17","新北市新店區薏仁坑路自強巷1號","121.49775","24.9578516666667","6500600","新店區"
"231044","046-UY","2019/10/07 20:09:20","新北市新店區寶元路一段15巷20號","121.542008333333","24.9869683333333","6500600","新店區"
"231045","047-UY","2019/10/07 20:09:22","新北市新店區北宜路一段201號","121.54735","24.9521933333333","6500600","新店區"
"231060","106-UY","2019/10/07 20:09:23","新北市新店區安康路三段204-2號","121.488851666667","24.95179","6500600","新店區"
"231051","107-UY","2019/10/07 20:09:27","新北市新店區中央路151號","121.529426666667","24.9724883333333","6500600","新店區"
"231049","108-UY","2019/10/07 20:09:12","新北市新店區北新路二段139巷12弄2號","121.542173333333","24.9759683333333","6500600","新店區"
"231065","110-UY","2019/10/07 20:09:27","新北市新店區安祥路106巷185號","121.474051666667","24.9598616666667","6500600","新店區"
"231068","187-VK","2019/10/07 20:09:18","新北市新店區中興路三段198號","121.543921666667","24.9818666666667","6500600","新店區"
"231062","256-BX","2019/10/07 20:09:10","新北市新店區安康路二段98號","121.513593333333","24.9630066666667","6500600","新店區"
"231054","260-TV","2019/10/07 20:09:13","新北市新店區檳榔路38號","121.541466666667","24.9637766666667","6500600","新店區"
"231042","268-BY","2019/10/07 20:09:22","新北市新店區中興路二段89號","121.547063333333","24.9714033333333","6500600","新店區"
"231064","278-BY","2019/10/07 20:09:13","新北市新店區安康路二段118-5號","121.512383333333","24.963325","6500600","新店區"
"231050","AAD-862","2019/10/07 20:09:26","新北市新店區北新路一段90號","121.54184","24.96848","6500600","新店區"
"231055","4716-K9","2019/10/07 20:09:14","新北市新店區力行路46號","121.538751666667","24.965385","6500600","新店區"
"231056","4715-K9","2019/10/07 20:09:28","新北市新店區中正路326號","121.537081666667","24.975045","6500600","新店區"
"231067","4772-VM","2019/10/07 20:09:27","新北市新店區溪洲路32-1號","121.533256666667","24.9610216666667","6500600","新店區"
"231052","513-UM","2019/10/07 20:09:13","新北市新店區新烏路三段286號","121.550141666667","24.8983716666667","6500600","新店區"
"231040","617-UM","2019/10/07 20:09:30","新北市新店區中正路80號","121.543773333333","24.9702816666667","6500600","新店區"
"231041","619-UM","2019/10/07 20:09:09","新北市新店區中正路349-1號","121.53535","24.975945","6500600","新店區"
"231063","641-BX","2019/10/07 20:09:22","新北市新店區黎明路54巷1號","121.502328333333","24.9480266666667","6500600","新店區"
"231047","KED-0819","2019/10/07 20:09:17","新北市新店區寶橋路59-1號","121.545035","24.9750716666667","6500600","新店區"
"231057","720-UM","2019/10/07 20:09:17","新北市新店區百齡一路12號","121.553035","24.932475","6500600","新店區"
"231059","897-TW","2019/10/07 20:09:28","新北市新店區安成街19號","121.510163333333","24.9607733333333","6500600","新店區"
"231043","899-TW","2019/10/07 20:09:08","新北市新店區民族路164號","121.537391666667","24.9765833333333","6500600","新店區"
"231066","AKT-0513","2019/10/07 20:09:10","新北市新店區安興路20號","121.514981666667","24.965975","6500600","新店區"
"241011","013-R5","2019/10/07 20:09:13","新北市三重區三和路三段44-2號","121.495793333333","25.0710083333333","6500200","三重區"
"241028","022-UY","2019/10/07 20:09:20","新北市三重區仁化街117號","121.494546666667","25.057715","6500200","三重區"
"241008","059-VK","2019/10/07 20:09:20","新北市三重區永福街197巷27號","121.478545","25.0744","6500200","三重區"
"241031","061-VK","2019/10/07 20:09:17","新北市三重區過圳街19號","121.488758333333","25.0602633333333","6500200","三重區"
"241015","062-VK","2019/10/07 20:09:26","新北市三重區福德北路30號","121.5022","25.0650833333333","6500200","三重區"
"241017","063-VK","2019/10/07 20:09:08","新北市三重區自強路一段236號","121.49311","25.06718","6500200","三重區"
"241024","065-VK","2019/10/07 20:09:27","新北市三重區力行路一段261號","121.482366666667","25.0711233333333","6500200","三重區"
"241007","066-VK","2019/10/07 20:09:22","新北市三重區三和路四段111-13號","121.4869","25.07765","6500200","三重區"
"241003","091-VK","2019/10/07 20:09:28","新北市三重區仁愛街445巷1號","121.490088333333","25.0821633333333","6500200","三重區"
"241006","262-UM","2019/10/07 20:09:11","新北市三重區力行路二段93號","121.482613333333","25.0759266666667","6500200","三重區"
"241016","266-UM","2019/10/07 20:09:18","新北市三重區信義西街138號","121.495581666667","25.0643133333333","6500200","三重區"
"241009","267-UM","2019/10/07 20:09:12","新北市三重區永福街125巷15-1號","121.477988333333","25.0775266666667","6500200","三重區"
"241018","268-UM","2019/10/07 20:09:25","新北市三重區正義北路244巷91號","121.493593333333","25.0677383333333","6500200","三重區"
"241032","269-UM","2019/10/07 20:09:25","新北市三重區捷運路65號","121.48342","25.0556166666667","6500200","三重區"
"241013","270-UM","2019/10/07 20:09:12","新北市三重區三和路三段151巷33號","121.493398333333","25.074175","6500200","三重區"
"241025","271-UM","2019/10/07 20:09:09","新北市三重區中正北路430-1號","121.474488333333","25.0709816666667","6500200","三重區"
"241030","KED-0822","2019/10/07 20:09:19","新北市三重區成功路145巷13號","121.487355","25.0526983333333","6500200","三重區"
"241035","462-BY","2019/10/07 20:09:17","新北市三重區文化北路22-2號","121.49924","25.0643183333333","6500200","三重區"
"241004","475-VK","2019/10/07 20:09:22","新北市三重區自強路四段107號","121.491533333333","25.0798916666667","6500200","三重區"
"241020","478-VK","2019/10/07 20:09:18","新北市三重區後竹圍街2巷2號","121.49187","25.0734766666667","6500200","三重區"
"241026","480-VK","2019/10/07 20:09:20","新北市三重區福德南路61號","121.502595","25.0606666666667","6500200","三重區"
"241014","543-UM","2019/10/07 20:09:17","新北市三重區安和路41號","121.500963333333","25.069345","6500200","三重區"
"241001","547-UM","2019/10/07 20:09:22","新北市三重區自強路四段3巷24號","121.48953","25.0763483333333","6500200","三重區"
"241019","KEA-2593","2019/10/07 20:09:17","新北市三重區自強路二段47巷20號","121.489526666667","25.0698066666667","6500200","三重區"
"241005","AAD-863","2019/10/07 20:09:14","新北市三重區分子尾街81號","121.489056666667","25.0824683333333","6500200","三重區"
"241012","743-BX","2019/10/07 20:09:22","新北市三重區仁福街64巷37號","121.49762","25.0758316666667","6500200","三重區"
"241022","KED-0820","2019/10/07 20:09:06","新北市三重區重陽路二段1號","121.48684","25.0617583333333","6500200","三重區"
"241023","887-TS","2019/10/07 20:09:21","新北市三重區頂崁街241號","121.476956666667","25.0688733333333","6500200","三重區"
"241029","942-UM","2019/10/07 20:09:07","新北市三重區光明路32巷14號","121.491726666667","25.058645","6500200","三重區"
"241033","AAC-255","2019/10/07 20:09:26","新北市三重區光復路一段61巷2號","121.47213","25.049395","6500200","三重區"
"235066","003-UY","2019/10/07 20:09:23","新北市中和區水源路127巷11號","121.50807","25.0037333333333","6500300","中和區"
"235039","097-UM","2019/10/07 20:09:15","新北市中和區大勇街46巷2號","121.51735","24.9936383333333","6500300","中和區"
"235065","098-UM","2019/10/07 20:09:13","新北市中和區永和路59號","121.49697","25.00546","6500300","中和區"
"235040","150-BY","2019/10/07 20:09:13","新北市中和區保健路31號","121.508605","24.9977333333333","6500300","中和區"
"235055","183-VK","2019/10/07 20:09:24","新北市三重區頂崁街23號","121.476033333333","25.0577133333333","6500300","中和區"
"247016","KEA-2869","2019/10/07 20:09:29","新北市蘆洲區光華路127號","121.466378333333","25.0823283333333","6501400","蘆洲區"
"247010","KED-0682","2019/10/07 20:09:25","新北市蘆洲區集賢路406號","121.480085","25.0817183333333","6501400","蘆洲區"
"235050","4979-A6","2019/10/07 20:09:18","新北市中和區安樂路58號","121.512178333333","24.9931916666667","6500300","中和區"
"235069","4980-A6","2019/10/07 20:09:27","新北市中和區南山路127巷31號","121.503558333333","24.9975","6500300","中和區"
"235070","558-UM","2019/10/07 20:09:27","新北市中和區永和路103巷17號","121.49521","25.0073616666667","6500300","中和區"
"235059","AAC-215","2019/10/07 20:09:24","新北市中和區圓通路335巷33弄35號","121.493785","24.9887266666667","6500300","中和區"
"220065","072-UY","2019/10/07 20:09:13","新北市板橋區中山路一段154巷3弄2號","121.465318333333","25.01036","6500100","板橋區"
"220086","073-UY","2019/10/07 20:09:17","新北市板橋區僑中一街124巷72-3號","121.448348333333","25.01716","6500100","板橋區"
"220069","AAD-861","2019/10/07 20:09:21","新北市板橋區南雅南路二段11-14號","121.454871666667","25.001875","6500100","板橋區"
"247006","893-R6","2019/10/07 20:09:18","新北市蘆洲區中山二路284號","121.469003333333","25.0779133333333","6501400","蘆洲區"
"247020","341-TH","2019/10/07 20:09:18","新北市蘆洲區民權路106巷5弄5號","121.474298333333","25.089085","6501400","蘆洲區"
"247012","337-TH","2019/10/07 20:09:09","新北市蘆洲區民族路252-1號","121.479136666667","25.0887716666667","6501400","蘆洲區"
"247004","336-TH","2019/10/07 20:09:06","新北市蘆洲區永安南路二段328巷17弄6號","121.45636","25.0840133333333","6501400","蘆洲區"
"247024","057-VK","2019/10/07 20:09:20","新北市蘆洲區光明路112巷31號","121.463833333333","25.08741","6501400","蘆洲區"
"247014","056-VK","2019/10/07 20:09:08","新北市蘆洲區中山二路265巷44號","121.471228333333","25.0795066666667","6501400","蘆洲區"
"247018","053-VK","2019/10/07 20:09:21","新北市蘆洲區民族路314巷11-2號","121.477951666667","25.0907366666667","6501400","蘆洲區"
"247022","007-UY","2019/10/07 20:09:28","新北市蘆洲區三民路181號","121.470878333333","25.0873683333333","6501400","蘆洲區"
"247008","002-UY","2019/10/07 20:09:10","新北市蘆洲區中山一路135巷6弄30號","121.47491","25.0809766666667","6501400","蘆洲區"
"247002","001-UY","2019/10/07 20:09:23","新北市蘆洲區永康街2巷2號","121.459381666667","25.08608","6501400","蘆洲區"
"226004","312-R5","2019/10/07 20:09:13","新北市平溪區靜安路二段522號","121.744516666667","25.027215","6502400","平溪區"
"227002","642-TC","2019/10/07 20:09:11","新北市雙溪區魚行里新店26號","121.869995","25.0322033333333","6502500","雙溪區"
"222001","KEA-2212","2019/10/07 20:09:20","新北市深坑區北深路三段187號","121.601275","25.0036183333333","6501800","深坑區"
"208003","665-BX","2019/10/07 20:09:14","新北市金山區海興路172號","121.63246","25.2397916666667","6502700","金山區"
"251009","008-UM","2019/10/07 20:09:15","新北市淡水區英專路2巷10號","121.446268333333","25.1689016666667","6501000","淡水區"
"251004","009-UM","2019/10/07 20:09:17","新北市淡水區民族路31巷39號","121.461943333333","25.136715","6501000","淡水區"
"251001","011-UM","2019/10/07 20:09:19","新北市淡水區淡金路二段15號","121.446665","25.189145","6501000","淡水區"
"251002","012-UM","2019/10/07 20:09:24","新北市淡水區中正路332-1號","121.435833333333","25.1730983333333","6501000","淡水區"
"251015","KEA-2871","2019/10/07 20:09:21","新北市淡水區泉洲厝26-5號","121.483105","25.19187","6501000","淡水區"
"251016","179-VK","2019/10/07 20:09:27","新北市淡水區番子田25-7號","121.456083333333","25.2307983333333","6501000","淡水區"
"251013","180-VK","2019/10/07 20:09:14","新北市淡水區奎柔山路576號","121.468366666667","25.20508","6501000","淡水區"
"251008","181-VK","2019/10/07 20:09:11","新北市淡水區淡海路72巷28弄7號","121.424928333333","25.182215","6501000","淡水區"
"251010","413-VK","2019/10/07 20:09:08","新北市淡水區新市三路一段306號","121.428601666667","25.1977516666667","6501000","淡水區"
"243010","549-UM","2019/10/07 20:09:08","新北市泰山區明志路二段136巷22號","121.426345","25.0517783333333","6501600","泰山區"
"251012","443-VK","2019/10/07 20:09:17","新北市淡水區淡金路三段224號","121.448941666667","25.2048183333333","6501000","淡水區"
"251006","561-UM","2019/10/07 20:09:24","新北市淡水區北新路141巷5號","121.449123333333","25.179345","6501000","淡水區"
"251014","577-R6","2019/10/07 20:09:27","新北市淡水區石頭厝2-1號","121.458173333333","25.2357216666667","6501000","淡水區"
"251011","650-BX","2019/10/07 20:09:24","新北市淡水區崁頂55-1號","121.44235","25.1968433333333","6501000","淡水區"
"251003","673-BX","2019/10/07 20:09:24","新北市淡水區新市一路二段255號","121.443831666667","25.1830016666667","6501000","淡水區"
"207003","550-UM","2019/10/07 20:09:19","新北市萬里區大鵬里萬里加投46號","121.642148333333","25.211935","6502800","萬里區"
"207004","291-VK","2019/10/07 20:09:13","新北市萬里區北基里仁一街30號","121.682396666667","25.1766866666667","6502800","萬里區"
"252002","178-VK","2019/10/07 20:09:29","新北市三芝區中正路一段68號","121.503875","25.2576683333333","6502100","三芝區"
"237012","275-BY","2019/10/07 20:09:09","新北市三峽區中華路141號","121.371068333333","24.9273066666667","6500900","三峽區"
"237014","433-BY","2019/10/07 20:09:28","新北市三峽區正義街201號","121.368111666667","24.9141333333333","6500900","三峽區"
"237006","5529-G3","2019/10/07 20:09:26","新北市三峽區嘉添227-31號","121.370793333333","24.9114466666667","6500900","三峽區"
"237015","649-BX","2019/10/07 20:09:10","新北市三峽區橫溪路42巷22號","121.395585","24.93495","6500900","三峽區"
"237010","706-TV","2019/10/07 20:09:18","新北市鶯歌區中正一路阿四巷3號","121.370411666667","24.9585316666667","6500900","三峽區"
"237005","AKY-6261","2019/10/07 20:09:06","新北市三峽區三樹路98巷119號","121.382285","24.93912","6500900","三峽區"
"236042","KED-0685","2019/10/07 20:09:13","新北市土城區學享街74號","121.452778333333","24.985985","6501300","土城區"
"236078","166-UM","2019/10/07 20:09:16","新北市土城區福安街56號","121.418751666667","24.9645733333333","6501300","土城區"
"236030","253-BX","2019/10/07 20:09:25","新北市土城區日新街8巷4號","121.445413333333","24.987215","6501300","土城區"
"236026","269-VK","2019/10/07 20:09:17","新北市土城區中央路一段267巷7號","121.445393333333","24.985145","6501300","土城區"
"236014","270-VK","2019/10/07 20:09:24","新北市土城區廣興街53號","121.454815","24.9915116666667","6501300","土城區"
"236039","271-VK","2019/10/07 20:09:12","新北市土城區明德路一段20巷1弄1號","121.464741666667","24.984845","6501300","土城區"
"236069","KEA-2877","2019/10/07 20:09:27","新北市土城區中央路三段119號","121.434046666667","24.9656233333333","6501300","土城區"
"252001","KED-0821","2019/10/07 20:09:11","新北市三芝區公正街66號","121.499821666667","25.2574516666667","6502100","三芝區"
"236020","401-BY","2019/10/07 20:09:17","新北市土城區延吉街111巷1弄1號","121.471455","24.9864333333333","6501300","土城區"
"236059","912-UM","2019/10/07 20:09:12","新北市土城區光明街4號","121.441881666667","24.974565","6501300","土城區"
"236048","913-UM","2019/10/07 20:09:12","新北市土城區清水路123號","121.457908333333","24.9816233333333","6501300","土城區"
"236063","915-UM","2019/10/07 20:09:23","新北市土城區延和路11號","121.463941666667","24.9880033333333","6501300","土城區"
"236055","AAC-216","2019/10/07 20:09:14","新北市土城區中華路一段162號","121.441991666667","24.9839466666667","6501300","土城區"
"242042","AAC-296","2019/10/07 20:09:25","新北市新莊區青山路一段189號","121.399071666667","25.0308816666667","6500500","新莊區"
"242060","986-R7","2019/10/07 20:09:23","新北市新莊區瓊林路瓊英巷8弄8號","121.44321","25.0279433333333","6500500","新莊區"
"242004","751-BX","2019/10/07 20:09:09","新北市新莊區化成路478號","121.466065","25.05153","6500500","新莊區"
"242029","615-BX","2019/10/07 20:09:26","新北市新莊區中原路319號","121.446548333333","25.0544216666667","6500500","新莊區"
"242027","613-BX","2019/10/07 20:09:28","新北市新莊區立信三街30號","121.443038333333","25.0505883333333","6500500","新莊區"
"242058","612-BX","2019/10/07 20:09:25","新北市新莊區八德街147號","121.423565","25.0197083333333","6500500","新莊區"
"242048","566-BX","2019/10/07 20:09:16","新北市新莊區四維路126巷3號","121.423018333333","25.0239733333333","6500500","新莊區"
"242053","497-BY","2019/10/07 20:09:18","新北市新莊區西盛街399號","121.427791666667","25.0128033333333","6500500","新莊區"
"242021","442-UM","2019/10/07 20:09:24","新北市新莊區建中街34號","121.448983333333","25.0375083333333","6500500","新莊區"
"242007","440-UM","2019/10/07 20:09:11","新北市新莊區福壽街184巷19號","121.459238333333","25.0532566666667","6500500","新莊區"
"242013","413-TV","2019/10/07 20:09:08","新北市新莊區中港路485號","121.452115","25.0497666666667","6500500","新莊區"
"242050","400-BY","2019/10/07 20:09:23","新北市新莊區民安西路172巷6弄2號","121.425246666667","25.0161666666667","6500500","新莊區"
"242025","362-BY","2019/10/07 20:09:08","新北市新莊區五工路68巷19號","121.45862","25.0646183333333","6500500","新莊區"
"242023","353-BY","2019/10/07 20:09:22","新北市新莊區化成路540-1號","121.466313333333","25.053335","6500500","新莊區"
"242015","132-UY","2019/10/07 20:09:27","新北市新莊區中平路26巷32號","121.446225","25.04323","6500500","新莊區"
"242044","135-UY","2019/10/07 20:09:22","新北市新莊區中正路929巷7弄18號","121.411535","25.0201716666667","6500500","新莊區"
"242056","172-VK","2019/10/07 20:09:20","新北市新莊區新莊路649巷15弄13號","121.445581666667","25.031585","6500500","新莊區"
"242017","173-VK","2019/10/07 20:09:22","新北市新莊區中港路318號","121.452831666667","25.0456833333333","6500500","新莊區"
"242031","175-VK","2019/10/07 20:09:16","新北市新莊區忠孝街29巷4號","121.443638333333","25.03573","6500500","新莊區"
"242002","346-TH","2019/10/07 20:09:20","新北市新莊區中正路55-4號","121.461831666667","25.0396416666667","6500500","新莊區"
"242039","347-TH","2019/10/07 20:09:17","新北市新莊區龍安路478號","121.426576666667","25.0178033333333","6500500","新莊區"
"242036","348-TH","2019/10/07 20:09:18","新北市新莊區後港一路130巷17號","121.429728333333","25.0265433333333","6500500","新莊區"
"242009","349-TH","2019/10/07 20:09:25","新北市新莊區昌盛街35巷3弄2號","121.454051666667","25.0506016666667","6500500","新莊區"
"242034","350-TH","2019/10/07 20:09:27","新北市新莊區建中街81巷10弄2號","121.447348333333","25.036115","6500500","新莊區"
"242019","351-TH","2019/10/07 20:09:10","新北市新莊區民樂街78號","121.457965","25.043655","6500500","新莊區"
"238023","601-UM","2019/10/07 20:09:17","新北市樹林區中山路三段210-2號","121.380918333333","24.9670333333333","6500700","樹林區"
"239001","417-VK","2019/10/07 20:09:23","新北市鶯歌區鶯桃路16號","121.342218333333","24.95165","6500800","鶯歌區"
"221008","489-VK","2019/10/07 20:09:25","新北市汐止區忠一街9巷7號","121.620501666667","25.0732","6501100","汐止區"
"221036","130-UY","2019/10/07 20:09:20","新北市汐止區新台五路二段41巷5號","121.663041666667","25.0667433333333","6501100","汐止區"
"221015","131-UY","2019/10/07 20:09:24","新北市汐止區建成路13號","121.664566666667","25.072595","6501100","汐止區"
"221010","269-BY","2019/10/07 20:09:19","新北市汐止區連峰街181-1號","121.646063333333","25.0799866666667","6501100","汐止區"
"221012","278-VK","2019/10/07 20:09:19","新北市汐止區大同路三段491號","121.679946666667","25.0711566666667","6501100","汐止區"
"221023","279-VK","2019/10/07 20:09:13","新北市汐止區明峰街201號","121.627896666667","25.069445","6501100","汐止區"
"221032","280-BY","2019/10/07 20:09:19","新北市汐止區力行街59巷7號","121.617228333333","25.0496216666667","6501100","汐止區"
"221029","298-VK","2019/10/07 20:09:16","新北市汐止區樟樹一路129巷18弄15號","121.641341666667","25.06522","6501100","汐止區"
"221021","299-VK","2019/10/07 20:09:24","新北市汐止區水源路一段233號","121.654211666667","25.0605366666667","6501100","汐止區"
"221031","353-TW","2019/10/07 20:09:23","新北市汐止區中興路130-1號","121.633186666667","25.0641816666667","6501100","汐止區"
"221035","622-UM","2019/10/07 20:09:21","新北市汐止區長江街39巷21號","121.655255","25.0720816666667","6501100","汐止區"
"221038","646-BX","2019/10/07 20:09:18","新北市汐止區大同路三段34號","121.666963333333","25.0765233333333","6501100","汐止區"
"221033","647-BX","2019/10/07 20:09:13","新北市汐止區東勢街201巷129弄2號","121.633456666667","25.0428566666667","6501100","汐止區"
"221018","753-BX","2019/10/07 20:09:24","新北市汐止區茄苳路320號","121.673576666667","25.0665166666667","6501100","汐止區"
"220079","145-BY","2019/10/07 20:09:15","新北市板橋區復興街128號","121.4609","25.0179666666667","6500100","板橋區"
"220080","200-UY","2019/10/07 20:09:15","新北市板橋區大觀路二段179巷7號","121.445195","24.9999816666667","6500100","板橋區"
"220082","610-BX","2019/10/07 20:09:27","新北市板橋區大觀路三段201號","121.431761666667","24.993085","6500100","板橋區"
"224002","257-TC","2019/10/07 20:09:23","新北市瑞芳區員山子路3-1號","121.819021666667","25.1046416666667","6501200","瑞芳區"
"220101","280-UM","2019/10/07 20:09:24","新北市板橋區莊敬路40號","121.472945","25.0269216666667","6500100","板橋區"
"220071","283-VK","2019/10/07 20:09:23","新北市板橋區四川路二段12號","121.456158333333","24.9963666666667","6500100","板橋區"
"220083","286-VK","2019/10/07 20:09:11","新北市板橋區僑中二街48巷6號","121.446076666667","25.0103866666667","6500100","板橋區"
"220081","287-VK","2019/10/07 20:09:19","新北市板橋區僑中一街124巷20弄1號","121.446226666667","25.0140266666667","6500100","板橋區"
"220061","293-UM","2019/10/07 20:09:24","新北市板橋區四川路一段284號","121.458681666667","25.0007883333333","6500100","板橋區"
"220084","296-UM","2019/10/07 20:09:25","新北市樹林區博愛街179號","121.42493","24.98918","6500100","板橋區"
"220034","297-UM","2019/10/07 19:40:36","新北市板橋區華東街1-10號","121.448343333333","24.9949833333333","6500100","板橋區"
"242046","281-VK","2019/10/07 20:09:23","新北市新莊區裕民街103巷16號","121.418991666667","25.0228666666667","6500500","新莊區"
"220075","303-R5","2019/10/07 20:09:08","新北市板橋區金華街10巷93號","121.458598333333","25.0204816666667","6500100","板橋區"
"220062","305-R5","2019/10/07 20:09:09","新北市板橋區萬安街142-2號","121.483971666667","25.0264666666667","6500100","板橋區"
"220098","317-R6","2019/10/07 20:09:14","新北市板橋區溪頭街163-1號","121.46197","25.0323683333333","6500100","板橋區"
"242011","280-VK","2019/10/07 20:09:10","新北市新莊區中信街52號","121.44931","25.0508383333333","6500500","新莊區"
"220035","560-BX","2019/10/07 20:09:19","新北市板橋區新生街87巷32號","121.456621666667","25.022115","6500100","板橋區"
"220103","561-BX","2019/10/07 20:09:13","新北市板橋區漢生東路21-1號","121.465095","25.0171316666667","6500100","板橋區"
"220074","630-UY","2019/10/07 20:09:25","新北市板橋區縣民大道一段287號","121.460781666667","25.01016","6500100","板橋區"
"220077","687-BX","2019/10/07 20:09:24","新北市板橋區僑中一街124巷9弄2號","121.445958333333","25.0128083333333","6500100","板橋區"
"220054","741-BX","2019/10/07 20:09:19","新北市板橋區忠孝路201巷33號","121.464948333333","25.0035216666667","6500100","板橋區"
"220102","KEA-2699","2019/10/07 20:09:12","新北市板橋區莒光路156巷1號","121.47358","25.0239683333333","6500100","板橋區"
"220055","827-TW","2019/10/07 20:09:10","新北市板橋區仁愛路62巷15弄16-3號","121.460696666667","24.998585","6500100","板橋區"
"220073","985-R7","2019/10/07 20:09:22","新北市板橋區南雅西路二段2-1號","121.453156666667","25.0088983333333","6500100","板橋區"
"235068","KEA-2873","2019/10/07 20:09:11","新北市中和區福祥路85巷3號","121.498735","25.0057083333333","6500300","中和區"
"235026","KEA-2876","2019/10/07 19:56:02","新北市中和區員山路36巷16-3號","121.484945","24.9914916666667","6500300","中和區"
