"lineid","car","time","location","longitude","latitude","cityid","cityname"
"234081","298-R6","2019/10/07 20:29:11","新北市永和區國中路132巷2號","121.523656666667","25.0070716666667","6500400","永和區"
"234038","336-UY","2019/10/07 20:29:26","新北市永和區民樂街25巷6號","121.528293333333","25.001915","6500400","永和區"
"234064","337-UY","2019/10/07 20:29:20","新北市永和區中正路433號","121.517126666667","25.0050533333333","6500400","永和區"
"234086","338-UY","2019/10/07 20:29:26","新北市永和區永和路二段336號","121.516298333333","25.016645","6500400","永和區"
"234070","552-UM","2019/10/07 20:29:10","新北市永和區永寧街67號","121.519923333333","25.0068666666667","6500400","永和區"
"234030","746-BX","2019/10/07 20:29:11","新北市新店區安民街65巷19-1號","121.515401666667","24.9670933333333","6500400","永和區"
"234054","KEA-2590","2019/10/07 20:29:10","新北市永和區環河東路一段64號","121.519061666667","25.0168933333333","6500400","永和區"
"234061","AAD-866","2019/10/07 20:29:29","新北市永和區安樂路194巷39弄6號","121.516368333333","25.001445","6500400","永和區"
"234042","862-TW","2019/10/07 20:29:28","新北市永和區安樂路282號","121.514441666667","25.0044","6500400","永和區"
"234050","863-TW","2019/10/07 20:29:21","新北市永和區新生路30-2號","121.508453333333","25.0159683333333","6500400","永和區"
"249005","172-UM","2019/10/07 20:28:53","新北市八里區中山路三段309號","121.379851666667","25.1381866666667","6502300","八里區"
"249001","173-UM","2019/10/07 20:29:22","新北市八里區商港路46號","121.396293333333","25.1451516666667","6502300","八里區"
"249004","303-UY","2019/10/07 20:29:24","新北市八里區中山路一段129巷27號","121.414016666667","25.1586133333333","6502300","八里區"
"249002","305-UY","2019/10/07 20:29:21","新北市八里區龍米路二段32巷13號","121.449046666667","25.14054","6502300","八里區"
"249003","593-UM","2019/10/07 20:29:12","新北市八里區舊城路21號","121.39988","25.147005","6502300","八里區"
"248002","678-BX","2019/10/07 20:29:29","新北市五股區成泰路三段43-7號","121.442538333333","25.0890233333333","6501500","五股區"
"234023","9380-KE","2019/10/07 20:29:28","新北市永和區博愛街32巷10號","121.5188","25.0153566666667","6500400","永和區"
"234074","AAC-211","2019/10/07 20:29:19","新北市永和區豫溪街191巷7弄21號","121.523278333333","25.0109916666667","6500400","永和區"
"234067","AAC-212","2019/10/07 20:29:26","新北市永和區保平路292巷40弄2號","121.507708333333","25.00509","6500400","永和區"
"243014","KEA-2801","2019/10/07 20:29:15","新北市泰山區泰林路二段518號","121.424066666667","25.0638483333333","6501600","泰山區"
"243016","421-VK","2019/10/07 20:29:13","新北市泰山區明志路二段195號","121.427505","25.0492316666667","6501600","泰山區"
"243012","539-UM","2019/10/07 20:29:19","新北市泰山區楓江路10號","121.433573333333","25.06243","6501600","泰山區"
"243009","KEA-2215","2019/10/07 20:29:25","新北市泰山區忠孝街16巷21號","121.428325","25.0650933333333","6501600","泰山區"
"243011","KEA-2216","2019/10/07 20:26:57","新北市泰山區新北大道六段315號","121.423781666667","25.0335616666667","6501600","泰山區"
"243013","646-TV","2019/10/07 20:29:13","新北市泰山區中央路5巷46號","121.428448333333","25.0427833333333","6501600","泰山區"
"243015","680-BX","2019/10/07 20:29:16","新北市泰山區仁德路82號","121.433061666667","25.0564583333333","6501600","泰山區"
"222003","436-BY","2019/10/07 20:29:16","新北市深坑區深坑街41號","121.615466666667","25.00188","6501800","深坑區"
"222002","659-BX","2019/10/07 20:27:57","新北市深坑區萬福路16巷49號","121.611133333333","25.0085716666667","6501800","深坑區"
"231061","002-UM","2019/10/07 20:29:27","新北市新店區安興路32號","121.515765","24.9703783333333","6500600","新店區"
"231058","0293-UT","2019/10/07 20:29:17","新北市新店區中央路11號","121.533423333333","24.9784666666667","6500600","新店區"
"231044","046-UY","2019/10/07 20:29:24","新北市新店區建國路116號","121.539266666667","24.9784916666667","6500600","新店區"
"231045","047-UY","2019/10/07 20:29:16","新北市新店區新坡一街32號","121.549168333333","24.962255","6500600","新店區"
"231060","106-UY","2019/10/07 20:29:23","新北市新店區錦秀路11巷90弄1號","121.480346666667","24.9430033333333","6500600","新店區"
"231051","107-UY","2019/10/07 20:29:27","新北市新店區中央七街24號","121.52967","24.9752183333333","6500600","新店區"
"231049","108-UY","2019/10/07 20:29:12","新北市新店區永業路62號","121.531861666667","24.952505","6500600","新店區"
"231065","110-UY","2019/10/07 20:29:07","新北市新店區安祥路102巷46弄63號","121.48663","24.9634516666667","6500600","新店區"
"231068","187-VK","2019/10/07 20:29:18","新北市新店區民權路15號","121.542281666667","24.9827966666667","6500600","新店區"
"231062","256-BX","2019/10/07 20:29:10","新北市新店區安泰路60巷51號","121.483895","24.9458033333333","6500600","新店區"
"231054","260-TV","2019/10/07 20:29:13","新北市新店區檳榔路150號","121.544211666667","24.9614216666667","6500600","新店區"
"231042","268-BY","2019/10/07 20:29:22","新北市新店區寶橋路186號","121.549546666667","24.9776166666667","6500600","新店區"
"231064","278-BY","2019/10/07 20:29:12","新北市新店區新和街59巷17號","121.519275","24.9859766666667","6500600","新店區"
"231050","AAD-862","2019/10/07 20:29:26","新北市新店區建興街9巷1號","121.539903333333","24.9763233333333","6500600","新店區"
"231055","4716-K9","2019/10/07 20:29:14","新北市新店區中華路71號","121.539676666667","24.968315","6500600","新店區"
"231056","4715-K9","2019/10/07 20:29:22","新北市新店區中央七街61巷12號","121.528766666667","24.976245","6500600","新店區"
"231067","4772-VM","2019/10/07 20:29:07","新北市新店區安華路28-1號","121.519921666667","24.9607016666667","6500600","新店區"
"231052","513-UM","2019/10/07 20:29:13","新北市新店區松林路38號","121.546231666667","24.9102516666667","6500600","新店區"
"231040","617-UM","2019/10/07 20:29:10","新北市新店區三民路53號","121.53688","24.9710483333333","6500600","新店區"
"231041","619-UM","2019/10/07 20:29:23","新北市新店區民權路139號","121.534718333333","24.9826066666667","6500600","新店區"
"231063","641-BX","2019/10/07 20:29:22","新北市新店區玫瑰路4-1號","121.49352","24.9513966666667","6500600","新店區"
"231047","KED-0819","2019/10/07 20:29:17","新北市新店區寶慶街58巷21-1號","121.541998333333","24.98724","6500600","新店區"
"231057","720-UM","2019/10/07 20:29:17","新北市新店區花園六路二段5號","121.555216666667","24.9336333333333","6500600","新店區"
"231059","897-TW","2019/10/07 20:29:08","新北市新店區安德街173號","121.508676666667","24.959025","6500600","新店區"
"231043","899-TW","2019/10/07 20:29:08","新北市新店區明德路67巷17號","121.540431666667","24.9770966666667","6500600","新店區"
"231066","AKT-0513","2019/10/07 20:29:10","新北市新店區安民街341-1號","121.51661","24.9749366666667","6500600","新店區"
"241011","013-R5","2019/10/07 20:29:13","新北市三重區龍門路187號","121.49947","25.073205","6500200","三重區"
"241028","022-UY","2019/10/07 20:29:20","新北市三重區光興街89號","121.497441666667","25.0599716666667","6500200","三重區"
"241008","059-VK","2019/10/07 20:29:15","新北市三重區下竹圍街42-1號","121.481058333333","25.0748583333333","6500200","三重區"
"241031","061-VK","2019/10/07 20:29:17","新北市三重區三寧街22號","121.489633333333","25.0599616666667","6500200","三重區"
"241015","062-VK","2019/10/07 20:29:23","新北市三重區文化北路41號","121.498953333333","25.0652083333333","6500200","三重區"
"241017","063-VK","2019/10/07 20:29:08","新北市三重區自強路一段199號","121.491665","25.0682833333333","6500200","三重區"
"241024","065-VK","2019/10/07 20:29:07","新北市三重區忠孝路三段15巷28號","121.48046","25.0678966666667","6500200","三重區"
"241007","066-VK","2019/10/07 20:29:25","新北市三重區自強路四段60號","121.489825","25.0783866666667","6500200","三重區"
"241003","091-VK","2019/10/07 20:29:28","新北市三重區富華街111號","121.492343333333","25.0843016666667","6500200","三重區"
"241006","262-UM","2019/10/07 20:29:11","新北市三重區力行路二段164號","121.483053333333","25.07674","6500200","三重區"
"241016","266-UM","2019/10/07 20:29:18","新北市三重區正義北路186號","121.496241666667","25.0667366666667","6500200","三重區"
"241009","267-UM","2019/10/07 20:29:12","新北市三重區永福街89號","121.479821666667","25.077565","6500200","三重區"
"241018","268-UM","2019/10/07 20:29:25","新北市三重區正義北路220號","121.49635","25.0675933333333","6500200","三重區"
"241032","269-UM","2019/10/07 20:29:25","新北市三重區重陽路一段120巷35號","121.485141666667","25.0601466666667","6500200","三重區"
"241013","270-UM","2019/10/07 20:29:26","新北市三重區溪尾街8號","121.491533333333","25.0744516666667","6500200","三重區"
"241025","271-UM","2019/10/07 20:29:09","新北市三重區頂崁街210巷27號","121.475783333333","25.0681366666667","6500200","三重區"
"241030","KED-0822","2019/10/07 20:29:19","新北市三重區成功路62號","121.48863","25.0510016666667","6500200","三重區"
"241035","462-BY","2019/10/07 20:29:11","新北市三重區正義北路104號","121.49697","25.0650883333333","6500200","三重區"
"241004","475-VK","2019/10/07 20:29:22","新北市三重區溪尾街182號","121.488468333333","25.0806883333333","6500200","三重區"
"241020","478-VK","2019/10/07 20:29:18","新北市三重區正義北路351號","121.493168333333","25.071955","6500200","三重區"
"241026","480-VK","2019/10/07 20:29:20","新北市三重區福德南路24巷2-4號","121.503298333333","25.0632266666667","6500200","三重區"
"241014","543-UM","2019/10/07 20:29:17","新北市三重區長壽街120巷19弄1號","121.502236666667","25.0692133333333","6500200","三重區"
"241001","547-UM","2019/10/07 20:29:22","新北市三重區三和路四段160巷124號","121.486188333333","25.0749933333333","6500200","三重區"
"241019","KEA-2593","2019/10/07 20:29:17","新北市三重區重陽路四段114巷1號","121.492053333333","25.0705966666667","6500200","三重區"
"241005","AAD-863","2019/10/07 20:29:14","新北市三重區五華街141巷58號","121.49331","25.0865533333333","6500200","三重區"
"241012","743-BX","2019/10/07 20:29:21","新北市三重區龍濱路277號","121.501365","25.0732916666667","6500200","三重區"
"241022","KED-0820","2019/10/07 20:29:26","新北市三重區過圳街27-5號","121.487905","25.06236","6500200","三重區"
"241023","887-TS","2019/10/07 20:29:15","新北市三重區自由街19號","121.47979","25.06661","6500200","三重區"
"241029","942-UM","2019/10/07 20:29:26","新北市三重區集美街112巷1號","121.488908333333","25.0541166666667","6500200","三重區"
"241033","AAC-255","2019/10/07 20:29:26","新北市三重區五谷王北街80巷60號","121.474728333333","25.05266","6500200","三重區"
"235066","003-UY","2019/10/07 20:29:23","新北市中和區水源路102號","121.506146666667","25.0033833333333","6500300","中和區"
"235055","183-VK","2019/10/07 20:29:24","新北市林口區太平里180號","121.366391666667","25.1345666666667","6500300","中和區"
"247016","KEA-2869","2019/10/07 20:29:09","新北市蘆洲區光華路109號","121.467063333333","25.082505","6501400","蘆洲區"
"247010","KED-0682","2019/10/07 20:29:25","新北市蘆洲區集賢路300號","121.481476666667","25.0852183333333","6501400","蘆洲區"
"235050","4979-A6","2019/10/07 20:29:28","新北市中和區景新街160巷20號","121.504855","24.9966183333333","6500300","中和區"
"235069","4980-A6","2019/10/07 20:29:17","新北市中和區中正路432巷30號","121.490845","24.9956683333333","6500300","中和區"
"235059","AAC-215","2019/10/07 20:29:24","新北市中和區員山路36巷1號","121.482416666667","24.99031","6500300","中和區"
"220065","072-UY","2019/10/07 20:29:14","新北市八里區荖阡坑路32號","121.40373","25.12738","6500100","板橋區"
"220086","073-UY","2019/10/07 20:29:17","新北市八里區下罟子17號","121.382148333333","25.1441866666667","6500100","板橋區"
"247006","893-R6","2019/10/07 20:29:18","新北市蘆洲區和平路121巷14弄38號","121.46608","25.080185","6501400","蘆洲區"
"247020","341-TH","2019/10/07 20:29:18","新北市蘆洲區仁愛街17號","121.47246","25.09218","6501400","蘆洲區"
"247012","337-TH","2019/10/07 20:29:09","新北市蘆洲區復興路233號","121.4802","25.08978","6501400","蘆洲區"
"247004","336-TH","2019/10/07 20:29:26","新北市蘆洲區長安街222號","121.458185","25.08499","6501400","蘆洲區"
"247024","057-VK","2019/10/07 20:29:20","新北市蘆洲區長興路50巷16號","121.464996666667","25.084625","6501400","蘆洲區"
"247014","056-VK","2019/10/07 20:29:28","新北市蘆洲區和平路60號","121.470178333333","25.0790633333333","6501400","蘆洲區"
"247018","053-VK","2019/10/07 20:29:21","新北市蘆洲區民族路327巷24號","121.47425","25.091225","6501400","蘆洲區"
"247022","007-UY","2019/10/07 20:29:28","新北市蘆洲區中正路325號","121.4661","25.0888466666667","6501400","蘆洲區"
"247008","002-UY","2019/10/07 20:29:10","新北市蘆洲區永安北路二段74號","121.483931666667","25.0846166666667","6501400","蘆洲區"
"247002","001-UY","2019/10/07 20:29:23","新北市蘆洲區長安街361巷32號","121.455801666667","25.0875983333333","6501400","蘆洲區"
"222001","KEA-2212","2019/10/07 20:29:20","新北市深坑區北深路三段345號","121.597136666667","25.0049583333333","6501800","深坑區"
"251001","011-UM","2019/10/07 20:29:19","新北市淡水區中山北路一段305號","121.444495","25.1829316666667","6501000","淡水區"
"251002","012-UM","2019/10/07 20:29:24","新北市淡水區中正路51號","121.441888333333","25.1694983333333","6501000","淡水區"
"251015","KEA-2871","2019/10/07 20:29:21","新北市淡水區商工路141號","121.447096666667","25.1883383333333","6501000","淡水區"
"251016","179-VK","2019/10/07 20:29:07","新北市淡水區新埔子11-11號","121.447053333333","25.2286566666667","6501000","淡水區"
"251013","180-VK","2019/10/07 20:29:10","新北市淡水區後坑子7號","121.463943333333","25.2056983333333","6501000","淡水區"
"251008","181-VK","2019/10/07 20:29:11","新北市淡水區淡海路206巷21號","121.421506666667","25.1856666666667","6501000","淡水區"
"251010","413-VK","2019/10/07 20:29:28","新北市淡水區沙崙路181巷15號","121.424","25.1843283333333","6501000","淡水區"
"243010","549-UM","2019/10/07 20:29:08","新北市泰山區新生路31巷12號","121.427736666667","25.0462416666667","6501600","泰山區"
"251012","443-VK","2019/10/07 20:29:17","新北市淡水區頂田寮路17號","121.454433333333","25.216575","6501000","淡水區"
"251006","561-UM","2019/10/07 20:29:23","新北市淡水區商工路373號","121.470726666667","25.1849083333333","6501000","淡水區"
"251014","577-R6","2019/10/07 20:29:27","新北市淡水區石頭厝2-3號","121.459201666667","25.2363683333333","6501000","淡水區"
"251003","673-BX","2019/10/07 20:29:24","新北市淡水區新生街29號","121.439486666667","25.1751333333333","6501000","淡水區"
"207004","291-VK","2019/10/07 20:29:13","新北市萬里區北基里忠四街20號","121.684546666667","25.1758183333333","6502800","萬里區"
"252002","178-VK","2019/10/07 20:29:09","新北市三芝區淡金路二段47-2號","121.5037","25.26058","6502100","三芝區"
"252001","KED-0821","2019/10/07 20:29:11","新北市三芝區中山路一段35號","121.500571666667","25.2579433333333","6502100","三芝區"
"242042","AAC-296","2019/10/07 20:29:25","新北市新莊區壽山路45號","121.414565","25.0311116666667","6500500","新莊區"
"242060","986-R7","2019/10/07 20:29:23","新北市新莊區民安東路141號","121.431555","25.020595","6500500","新莊區"
"242004","751-BX","2019/10/07 20:29:09","新北市新莊區頭前路20號","121.467886666667","25.0524366666667","6500500","新莊區"
"242029","615-BX","2019/10/07 20:29:26","新北市新莊區昌平街1號","121.454616666667","25.0514333333333","6500500","新莊區"
"242027","613-BX","2019/10/07 20:29:28","新北市新莊區幸福路615號","121.451885","25.04918","6500500","新莊區"
"242058","612-BX","2019/10/07 20:29:25","新北市新莊區四維路183號","121.422165","25.021055","6500500","新莊區"
"242048","566-BX","2019/10/07 20:29:16","新北市新莊區四維路188巷10號","121.421326666667","25.0211133333333","6500500","新莊區"
"242053","497-BY","2019/10/07 20:29:13","新北市新莊區民安西路229巷10號","121.426606666667","25.014175","6500500","新莊區"
"242021","442-UM","2019/10/07 20:29:24","新北市新莊區公園路22號","121.44842","25.039095","6500500","新莊區"
"242007","440-UM","2019/10/07 20:29:10","新北市新莊區福壽街122號","121.457853333333","25.0511266666667","6500500","新莊區"
"242013","413-TV","2019/10/07 20:29:28","新北市新莊區中和街155巷24弄28號","121.446601666667","25.0509333333333","6500500","新莊區"
"242050","400-BY","2019/10/07 20:29:23","新北市新莊區民安西路252巷5號","121.425405","25.01362","6500500","新莊區"
"242025","362-BY","2019/10/07 20:29:27","新北市新莊區五工三路60號","121.45959","25.0645","6500500","新莊區"
"242023","353-BY","2019/10/07 20:29:22","新北市新莊區新北大道二段302號","121.46465","25.0614633333333","6500500","新莊區"
"242015","132-UY","2019/10/07 20:29:27","新北市新莊區中平路46巷16號","121.445453333333","25.0438183333333","6500500","新莊區"
"242044","135-UY","2019/10/07 20:29:22","新北市新莊區中正路新建巷55號","121.414758333333","25.0214933333333","6500500","新莊區"
"242056","172-VK","2019/10/07 20:29:20","新北市新莊區新莊路751巷49號","121.442823333333","25.0314616666667","6500500","新莊區"
"242017","173-VK","2019/10/07 20:29:11","新北市新莊區中港二街127號","121.448596666667","25.045605","6500500","新莊區"
"242031","175-VK","2019/10/07 20:29:14","新北市新莊區三和路60-22號","121.43785","25.0420516666667","6500500","新莊區"
"242002","346-TH","2019/10/07 20:29:20","新北市新莊區中正路育農巷1號","121.45695","25.0379333333333","6500500","新莊區"
"242039","347-TH","2019/10/07 20:29:17","新北市新莊區民安西路23號","121.427235","25.0211166666667","6500500","新莊區"
"242036","348-TH","2019/10/07 20:29:16","新北市新莊區後港一路76巷12弄2號","121.427215","25.0258916666667","6500500","新莊區"
"242009","349-TH","2019/10/07 20:29:24","新北市新莊區昌盛街79號","121.455476666667","25.0499633333333","6500500","新莊區"
"242034","350-TH","2019/10/07 20:29:06","新北市新莊區新泰路199巷6號","121.446716666667","25.0380783333333","6500500","新莊區"
"242019","351-TH","2019/10/07 20:29:10","新北市新莊區銘德街49巷1號","121.457335","25.0431733333333","6500500","新莊區"
"221008","489-VK","2019/10/07 20:29:25","新北市汐止區康寧街273號","121.625678333333","25.06702","6501100","汐止區"
"221036","130-UY","2019/10/07 20:29:28","新北市汐止區仁愛路151巷30號","121.663303333333","25.06555","6501100","汐止區"
"221015","131-UY","2019/10/07 20:29:24","新北市汐止區建成路142巷19弄11號","121.661966666667","25.0739316666667","6501100","汐止區"
"221010","269-BY","2019/10/07 20:29:19","新北市汐止區八連路一段317號","121.639708333333","25.0860733333333","6501100","汐止區"
"221012","278-VK","2019/10/07 20:29:19","新北市汐止區汐平路二段66號","121.698495","25.0609383333333","6501100","汐止區"
"221023","279-VK","2019/10/07 20:29:13","新北市汐止區明峰街137號","121.629813333333","25.0707666666667","6501100","汐止區"
"221032","280-BY","2019/10/07 20:29:19","新北市汐止區民權街二段58號","121.619383333333","25.0487883333333","6501100","汐止區"
"221027","281-BY","2019/10/07 20:29:18","新北市汐止區中正路214號","121.658263333333","25.068895","6501100","汐止區"
"221029","298-VK","2019/10/07 20:29:16","新北市汐止區樟樹二路106巷9號","121.640336666667","25.0644433333333","6501100","汐止區"
"221021","299-VK","2019/10/07 20:29:15","新北市汐止區水源路一段284號","121.654201666667","25.058285","6501100","汐止區"
"221031","353-TW","2019/10/07 20:29:23","新北市汐止區原興路51號","121.632838333333","25.06503","6501100","汐止區"
"221035","622-UM","2019/10/07 20:29:21","新北市汐止區長江街79巷16號","121.657998333333","25.0729616666667","6501100","汐止區"
"221038","646-BX","2019/10/07 20:29:18","新北市汐止區水源路一段56號","121.657261666667","25.0654433333333","6501100","汐止區"
"221033","647-BX","2019/10/07 20:29:12","新北市汐止區林森街73巷3號","121.623545","25.0409066666667","6501100","汐止區"
"221002","707-TV","2019/10/07 20:29:16","新北市汐止區福德二路49號","121.634271666667","25.0672833333333","6501100","汐止區"
"221018","753-BX","2019/10/07 20:27:44","新北市汐止區茄苳路225巷11弄1號","121.671405","25.0692233333333","6501100","汐止區"
"224002","257-TC","2019/10/07 20:29:23","新北市瑞芳區三爪子坑路123號","121.810413333333","25.1070616666667","6501200","瑞芳區"
"220071","283-VK","2019/10/07 20:29:23","新北市五股區凌雲路三段24巷21-26號","121.433248333333","25.1077216666667","6500100","板橋區"
"220083","286-VK","2019/10/07 20:29:12","新北市板橋區僑中二街102巷14號","121.445563333333","25.0085","6500100","板橋區"
"220081","287-VK","2019/10/07 20:29:19","新北市板橋區大觀路二段30號","121.444528333333","25.001895","6500100","板橋區"
"242046","281-VK","2019/10/07 20:29:23","新北市新莊區裕民街72巷12號","121.417991666667","25.0243183333333","6500500","新莊區"
"242011","280-VK","2019/10/07 20:29:10","新北市新莊區中義街17號","121.450926666667","25.051165","6500500","新莊區"
"220074","630-UY","2019/10/07 20:29:25","新北市新莊區瓊林路59-83號","121.44398","25.0221533333333","6500100","板橋區"
