"lineid","car","time","location","longitude","latitude","cityid","cityname"
"234042","862-TW","2019/10/07 20:49:20","新北市新店區安興路117號","121.515373333333","24.9788866666667","6500400","永和區"
"249004","303-UY","2019/10/07 20:49:23","新北市八里區中山路一段157號","121.412815","25.1585133333333","6502300","八里區"
"234074","AAC-211","2019/10/07 20:49:19","新北市永和區竹林路91巷60弄70號","121.522871666667","25.0122033333333","6500400","永和區"
"222003","436-BY","2019/10/07 20:49:16","新北市深坑區文山路三段48-1號","121.610003333333","24.99854","6501800","深坑區"
"222002","659-BX","2019/10/07 20:49:17","新北市深坑區北深路三段93巷35號","121.604726666667","25.0003233333333","6501800","深坑區"
"231061","002-UM","2019/10/07 20:49:27","新北市新店區新和街91號","121.521021666667","24.9864783333333","6500600","新店區"
"231058","0293-UT","2019/10/07 20:49:17","新北市新店區平等街66號","121.535726666667","24.9722983333333","6500600","新店區"
"231044","046-UY","2019/10/07 20:49:20","新北市新店區中正路379號","121.534643333333","24.9768433333333","6500600","新店區"
"231060","106-UY","2019/10/07 20:49:23","新北市新店區安康路三段738號","121.47383","24.9419816666667","6500600","新店區"
"231051","107-UY","2019/10/07 20:49:07","新北市新店區民生路156巷112號","121.526913333333","24.9824083333333","6500600","新店區"
"231049","108-UY","2019/10/07 20:49:12","新北市新店區華潭街31號","121.530023333333","24.9551866666667","6500600","新店區"
"231065","110-UY","2019/10/07 20:49:07","新北市新店區安祥路69巷17號","121.481946666667","24.96136","6500600","新店區"
"231068","187-VK","2019/10/07 20:49:18","新北市新店區中興路三段228巷28號","121.544748333333","24.983485","6500600","新店區"
"231062","256-BX","2019/10/07 20:49:10","新北市新店區和成街19巷43號","121.488365","24.9459533333333","6500600","新店區"
"231054","260-TV","2019/10/07 20:49:13","新北市新店區五峰路26號","121.543755","24.9689383333333","6500600","新店區"
"231042","268-BY","2019/10/07 20:49:25","新北市新店區寶興路49-1號","121.549421666667","24.9730216666667","6500600","新店區"
"231064","278-BY","2019/10/07 20:49:12","新北市新店區安和路二段169巷7號","121.51831","24.974115","6500600","新店區"
"231050","AAD-862","2019/10/07 20:49:29","新北市新店區三民路115號","121.534806666667","24.9720683333333","6500600","新店區"
"231067","4772-VM","2019/10/07 20:49:27","新北市新店區安德街148巷12弄2號","121.507891666667","24.9601116666667","6500600","新店區"
"231052","513-UM","2019/10/07 20:49:13","新北市新店區永興路135號","121.54388","24.9300133333333","6500600","新店區"
"231040","617-UM","2019/10/07 20:49:30","新北市新店區中正路270號","121.539008333333","24.9736066666667","6500600","新店區"
"231041","619-UM","2019/10/07 20:49:29","新北市新店區中正路707號","121.533908333333","24.9910983333333","6500600","新店區"
"231063","641-BX","2019/10/07 20:49:22","新北市新店區富貴街11巷34號","121.494983333333","24.9483366666667","6500600","新店區"
"231047","KED-0819","2019/10/07 20:49:17","新北市新店區文化路67號","121.544693333333","24.9818083333333","6500600","新店區"
"231057","720-UM","2019/10/07 20:49:17","新北市新店區新烏路一段127-1號","121.546803333333","24.9371566666667","6500600","新店區"
"231059","897-TW","2019/10/07 20:49:28","新北市新店區僑愛五路32號","121.499013333333","24.9443766666667","6500600","新店區"
"231043","899-TW","2019/10/07 20:49:22","新北市新店區建國路51號","121.540566666667","24.97575","6500600","新店區"
"231066","AKT-0513","2019/10/07 20:49:10","新北市新店區吉安街33號","121.515941666667","24.9659966666667","6500600","新店區"
"241011","013-R5","2019/10/07 20:49:13","新北市三重區龍濱路217號","121.501886666667","25.071965","6500200","三重區"
"241028","022-UY","2019/10/07 20:49:20","新北市三重區中正南路41巷1號","121.49384","25.05988","6500200","三重區"
"241008","059-VK","2019/10/07 20:49:15","新北市三重區永福街72巷11號","121.479496666667","25.0768","6500200","三重區"
"241031","061-VK","2019/10/07 20:49:17","新北市三重區重陽路一段113巷1弄1號","121.487498333333","25.0598083333333","6500200","三重區"
"241015","062-VK","2019/10/07 20:49:23","新北市三重區三和路二段210號","121.498118333333","25.0693383333333","6500200","三重區"
"241017","063-VK","2019/10/07 20:49:08","新北市三重區民生街1號","121.491913333333","25.0674066666667","6500200","三重區"
"241024","065-VK","2019/10/07 20:49:27","新北市三重區忠孝路三段4號","121.481903333333","25.067525","6500200","三重區"
"241007","066-VK","2019/10/07 20:49:22","新北市三重區慈愛街8號","121.484515","25.0783783333333","6500200","三重區"
"241003","091-VK","2019/10/07 20:49:28","新北市三重區五華街141巷58號","121.493568333333","25.0867666666667","6500200","三重區"
"241006","262-UM","2019/10/07 20:49:11","新北市三重區力行路二段168號","121.48304","25.0768483333333","6500200","三重區"
"241016","266-UM","2019/10/07 20:49:18","新北市三重區長壽西街143-1號","121.49451","25.0666483333333","6500200","三重區"
"241009","267-UM","2019/10/07 20:49:12","新北市三重區三和路四段197號","121.482138333333","25.0792333333333","6500200","三重區"
"241018","268-UM","2019/10/07 20:49:25","新北市三重區雙園街66號","121.495733333333","25.0676716666667","6500200","三重區"
"241032","269-UM","2019/10/07 20:49:25","新北市三重區重陽路一段120巷44號","121.485118333333","25.0601383333333","6500200","三重區"
"241013","270-UM","2019/10/07 20:49:12","新北市三重區仁賢街12-1號","121.495715","25.074875","6500200","三重區"
"241025","271-UM","2019/10/07 20:49:09","新北市三重區貴陽街14號","121.484215","25.06187","6500200","三重區"
"241030","KED-0822","2019/10/07 20:49:19","新北市三重區環河南路221巷10號","121.491948333333","25.0522533333333","6500200","三重區"
"241035","462-BY","2019/10/07 20:49:11","新北市三重區文化北路140巷26號","121.497593333333","25.066865","6500200","三重區"
"241004","475-VK","2019/10/07 20:49:22","新北市三重區分子尾街48號","121.489233333333","25.0813616666667","6500200","三重區"
"241020","478-VK","2019/10/07 20:49:18","新北市三重區忠孝路一段101號","121.489681666667","25.0721416666667","6500200","三重區"
"241026","480-VK","2019/10/07 20:49:20","新北市三重區文化南路36號","121.500321666667","25.0614","6500200","三重區"
"241014","543-UM","2019/10/07 20:49:17","新北市三重區萬全街66號","121.501148333333","25.0701383333333","6500200","三重區"
"241001","547-UM","2019/10/07 20:49:22","新北市三重區三和路四段130號","121.488786666667","25.0754083333333","6500200","三重區"
"241019","KEA-2593","2019/10/07 20:49:17","新北市三重區自強路二段74巷21號","121.48792","25.0698733333333","6500200","三重區"
"241005","AAD-863","2019/10/07 20:49:14","新北市三重區五華街184號","121.488775","25.086365","6500200","三重區"
"241012","743-BX","2019/10/07 20:49:21","新北市三重區龍門路274巷45號","121.501218333333","25.0755116666667","6500200","三重區"
"241022","KED-0820","2019/10/07 20:49:26","新北市三重區重陽路二段8號","121.48659","25.061985","6500200","三重區"
"241023","887-TS","2019/10/07 20:49:15","新北市三重區忠孝路三段84巷5號","121.480191666667","25.064295","6500200","三重區"
"241029","942-UM","2019/10/07 20:49:26","新北市三重區重安街14號","121.490321666667","25.0581666666667","6500200","三重區"
"241033","AAC-255","2019/10/07 20:49:26","新北市三重區光復路二段3-1號","121.474121666667","25.053935","6500200","三重區"
"235055","183-VK","2019/10/07 20:49:24","新北市五股區中興路三段163號","121.448833333333","25.0807483333333","6500300","中和區"
"247016","KEA-2869","2019/10/07 20:49:29","新北市蘆洲區中正路57號","121.470725","25.0827733333333","6501400","蘆洲區"
"247010","KED-0682","2019/10/07 20:49:25","新北市蘆洲區鷺江街91號","121.476903333333","25.0837616666667","6501400","蘆洲區"
"235069","4980-A6","2019/10/07 20:49:23","新北市中和區員山路327巷20號","121.480806666667","25.0014433333333","6500300","中和區"
"220065","072-UY","2019/10/07 20:49:13","新北市林口區太平里180號","121.36771","25.1343116666667","6500100","板橋區"
"247006","893-R6","2019/10/07 20:49:18","新北市蘆洲區永安南路二段16巷5號","121.467728333333","25.07716","6501400","蘆洲區"
"247020","341-TH","2019/10/07 20:49:18","新北市蘆洲區仁愛街64號","121.471466666667","25.0938933333333","6501400","蘆洲區"
"247012","337-TH","2019/10/07 20:49:09","新北市三重區集賢路186號","121.484103333333","25.0884083333333","6501400","蘆洲區"
"247004","336-TH","2019/10/07 20:49:26","新北市蘆洲區長安街100號","121.461663333333","25.080885","6501400","蘆洲區"
"247024","057-VK","2019/10/07 20:49:20","新北市蘆洲區長樂路140號","121.462106666667","25.0902033333333","6501400","蘆洲區"
"247014","056-VK","2019/10/07 20:49:08","新北市蘆洲區得勝街50號","121.47321","25.08359","6501400","蘆洲區"
"247008","002-UY","2019/10/07 20:49:10","新北市蘆洲區重陽一街38號","121.481008333333","25.0817933333333","6501400","蘆洲區"
"247002","001-UY","2019/10/07 20:49:29","新北市蘆洲區長安街240號","121.457703333333","25.0856866666667","6501400","蘆洲區"
"222001","KEA-2212","2019/10/07 20:49:20","新北市深坑區北深路三段105-1號","121.605391666667","25.0018566666667","6501800","深坑區"
"251001","011-UM","2019/10/07 20:49:19","新北市淡水區淡金路73號","121.456083333333","25.1617133333333","6501000","淡水區"
"251002","012-UM","2019/10/07 20:49:24","新北市淡水區鼻頭街18-5號","121.446783333333","25.1666983333333","6501000","淡水區"
"251015","KEA-2871","2019/10/07 20:49:18","新北市淡水區興仁路162號","121.451371666667","25.220705","6501000","淡水區"
"251016","179-VK","2019/10/07 20:49:07","新北市淡水區興仁路165號","121.45152","25.2201066666667","6501000","淡水區"
"251013","180-VK","2019/10/07 20:49:30","新北市淡水區行忠路153號","121.45525","25.2001233333333","6501000","淡水區"
"251010","413-VK","2019/10/07 20:49:08","新北市淡水區沙崙路126號","121.42346","25.1828316666667","6501000","淡水區"
"251007","442-VK","2019/10/07 20:49:19","新北市淡水區鄧公路29巷22號","121.452596666667","25.1701233333333","6501000","淡水區"
"251012","443-VK","2019/10/07 20:49:17","新北市淡水區淡金路四段508號","121.452068333333","25.2255566666667","6501000","淡水區"
"251006","561-UM","2019/10/07 20:49:23","新北市淡水區新市一路一段240號","121.432478333333","25.18666","6501000","淡水區"
"251014","577-R6","2019/10/07 20:49:27","新北市淡水區公埔子32-8號","121.461646666667","25.2323483333333","6501000","淡水區"
"251011","650-BX","2019/10/07 20:49:24","新北市淡水區新市一路一段281巷206號","121.434626666667","25.1874283333333","6501000","淡水區"
"251003","673-BX","2019/10/07 20:49:24","新北市淡水區中山北路一段247巷94號","121.44226","25.179375","6501000","淡水區"
"242042","AAC-296","2019/10/07 20:49:25","新北市新莊區天祥街15巷14號","121.416326666667","25.02765","6500500","新莊區"
"242060","986-R7","2019/10/07 20:49:23","新北市新莊區新樹路280號","121.432605","25.0126816666667","6500500","新莊區"
"242027","613-BX","2019/10/07 20:49:11","新北市新莊區思源路123號","121.459785","25.0425166666667","6500500","新莊區"
"242058","612-BX","2019/10/07 20:49:25","新北市新莊區建國一路75號","121.434876666667","25.029235","6500500","新莊區"
"242048","566-BX","2019/10/07 20:49:16","新北市新莊區富國路20號","121.418548333333","25.0263766666667","6500500","新莊區"
"242007","440-UM","2019/10/07 20:49:10","新北市新莊區思源路59號","121.45995","25.04034","6500500","新莊區"
"242013","413-TV","2019/10/07 20:49:28","新北市新莊區中和街175巷7號","121.447378333333","25.0505983333333","6500500","新莊區"
"242050","400-BY","2019/10/07 20:49:23","新北市新莊區民安西路153號","121.426201666667","25.016595","6500500","新莊區"
"242025","362-BY","2019/10/07 20:49:08","新北市五股區新五路三段260號","121.44835","25.0911066666667","6500500","新莊區"
"242015","132-UY","2019/10/07 20:49:07","新北市新莊區思源路368號","121.460065","25.0517066666667","6500500","新莊區"
"242044","135-UY","2019/10/07 20:49:22","新北市新莊區龍安路108號","121.41831","25.020425","6500500","新莊區"
"242031","175-VK","2019/10/07 20:49:14","新北市新莊區中正路506號","121.435711666667","25.032865","6500500","新莊區"
"242002","346-TH","2019/10/07 20:49:20","新北市新莊區中港路五守新村23巷2號","121.455003333333","25.038425","6500500","新莊區"
"242036","348-TH","2019/10/07 20:49:16","新北市新莊區後港一路112號","121.428516666667","25.026825","6500500","新莊區"
"242009","349-TH","2019/10/07 20:49:24","新北市新莊區昌盛街68號","121.455585","25.0499066666667","6500500","新莊區"
"242034","350-TH","2019/10/07 20:49:26","新北市新莊區中正路417號","121.444688333333","25.0344566666667","6500500","新莊區"
"242019","351-TH","2019/10/07 20:49:10","新北市新莊區中正路1號","121.466431666667","25.0411683333333","6500500","新莊區"
"221036","130-UY","2019/10/07 20:49:08","新北市汐止區新昌路88號","121.663885","25.0690666666667","6501100","汐止區"
"221015","131-UY","2019/10/07 20:49:24","新北市汐止區大同路二段645號","121.664621666667","25.0713533333333","6501100","汐止區"
"221012","278-VK","2019/10/07 20:49:27","新北市汐止區保新街35號","121.684656666667","25.0728833333333","6501100","汐止區"
"221023","279-VK","2019/10/07 20:49:13","新北市汐止區民族二街7-1號","121.635095","25.0717066666667","6501100","汐止區"
"221027","281-BY","2019/10/07 20:49:18","新北市汐止區大同路二段355號","121.657061666667","25.0672466666667","6501100","汐止區"
"221021","299-VK","2019/10/07 20:49:15","新北市汐止區莊敬街126號","121.655126666667","25.0610883333333","6501100","汐止區"
"221035","622-UM","2019/10/07 20:49:21","新北市汐止區長江街101-5號","121.65872","25.0731716666667","6501100","汐止區"
"221033","647-BX","2019/10/07 20:49:12","新北市汐止區合順街18巷8弄5號","121.620361666667","25.0419116666667","6501100","汐止區"
"242046","281-VK","2019/10/07 20:49:23","新北市泰山區新北大道六段79巷15號","121.42875","25.03899","6500500","新莊區"
"242011","280-VK","2019/10/07 20:49:10","新北市新莊區新北大道四段217號","121.443718333333","25.0570666666667","6500500","新莊區"
"235026","KEA-2876","2019/10/07 20:40:52","新北市中和區員山路36巷16-3號","121.485145","24.9913316666667","6500300","中和區"
