"lineid","car","time","location","longitude","latitude","cityid","cityname"
"231061","002-UM","2019/10/07 20:59:27","新北市新店區永安街62巷1號","121.519356666667","24.9868833333333","6500600","新店區"
"231060","106-UY","2019/10/07 20:59:23","新北市新店區安康路三段535號","121.480166666667","24.9478733333333","6500600","新店區"
"231051","107-UY","2019/10/07 20:59:27","新北市新店區中正路663巷1弄4號","121.533031666667","24.990025","6500600","新店區"
"231049","108-UY","2019/10/07 20:58:52","新北市新店區柴埕路100-2號","121.503171666667","24.95934","6500600","新店區"
"231065","110-UY","2019/10/07 20:59:07","新北市新店區安祥路67巷50弄6號","121.484825","24.959235","6500600","新店區"
"231068","187-VK","2019/10/07 20:59:18","新北市新店區寶元路二段68號","121.547333333333","24.9810066666667","6500600","新店區"
"231062","256-BX","2019/10/07 20:59:10","新北市新店區雙城路4巷12號","121.490645","24.9508516666667","6500600","新店區"
"231054","260-TV","2019/10/07 20:59:13","新北市新店區大新街7巷26號","121.544083333333","24.9678883333333","6500600","新店區"
"231042","268-BY","2019/10/07 20:59:22","新北市新店區寶興路60巷4號","121.549846666667","24.9718683333333","6500600","新店區"
"231064","278-BY","2019/10/07 20:59:13","新北市新店區安康路二段320巷15弄12號","121.502886666667","24.9592816666667","6500600","新店區"
"231050","AAD-862","2019/10/07 20:59:26","新北市新店區三民路47號","121.537058333333","24.9709183333333","6500600","新店區"
"231040","617-UM","2019/10/07 20:59:24","新北市新店區中正路146號","121.54178","24.9715733333333","6500600","新店區"
"231063","641-BX","2019/10/07 20:59:22","新北市新店區如意街95號","121.495596666667","24.9471216666667","6500600","新店區"
"231047","KED-0819","2019/10/07 20:59:17","新北市新店區寶強路15號","121.542981666667","24.9792433333333","6500600","新店區"
"231059","897-TW","2019/10/07 20:59:08","新北市新店區僑信路76號","121.4996","24.9485","6500600","新店區"
"231043","899-TW","2019/10/07 20:59:28","新北市新店區中正路373號","121.534818333333","24.9766383333333","6500600","新店區"
"231066","AKT-0513","2019/10/07 20:59:10","新北市新店區安光路16號","121.5137","24.9648016666667","6500600","新店區"
"241011","013-R5","2019/10/07 20:59:13","新北市三重區龍濱路207號","121.502078333333","25.0717166666667","6500200","三重區"
"241028","022-UY","2019/10/07 20:59:20","新北市三重區正義南路60-1號","121.49824","25.06062","6500200","三重區"
"241008","059-VK","2019/10/07 20:59:15","新北市三重區車路頭街139巷2號","121.48391","25.0763483333333","6500200","三重區"
"241031","061-VK","2019/10/07 20:59:17","新北市三重區重陽路一段113巷1弄1號","121.487461666667","25.0597733333333","6500200","三重區"
"241015","062-VK","2019/10/07 20:59:23","新北市三重區三和路二段19號","121.501223333333","25.0669783333333","6500200","三重區"
"241017","063-VK","2019/10/07 20:59:28","新北市三重區大仁街23號","121.492031666667","25.0645183333333","6500200","三重區"
"241024","065-VK","2019/10/07 20:59:27","新北市三重區大勇街82巷15弄30號","121.481158333333","25.0719783333333","6500200","三重區"
"241007","066-VK","2019/10/07 20:59:22","新北市三重區三和路四段145巷85號","121.486401666667","25.0787333333333","6500200","三重區"
"241003","091-VK","2019/10/07 20:59:08","新北市三重區進安街198號","121.493831666667","25.0860166666667","6500200","三重區"
"241006","262-UM","2019/10/07 20:59:11","新北市三重區下竹圍街42-1號","121.48102","25.0748133333333","6500200","三重區"
"241016","266-UM","2019/10/07 20:59:18","新北市三重區大智街12號","121.495131666667","25.064385","6500200","三重區"
"241009","267-UM","2019/10/07 20:59:12","新北市三重區力行路二段164號","121.482971666667","25.0766183333333","6500200","三重區"
"241018","268-UM","2019/10/07 20:59:25","新北市三重區雙園街57巷3號","121.494888333333","25.06768","6500200","三重區"
"241032","269-UM","2019/10/07 20:59:25","新北市三重區三陽路120號","121.482926666667","25.0588033333333","6500200","三重區"
"241013","270-UM","2019/10/07 20:59:12","新北市三重區仁賢街12-1號","121.4957","25.0748583333333","6500200","三重區"
"241025","271-UM","2019/10/07 20:59:28","新北市三重區貴陽街14號","121.484131666667","25.0617933333333","6500200","三重區"
"241030","KED-0822","2019/10/07 20:59:19","新北市三重區環河南路239號","121.491865","25.05114","6500200","三重區"
"241004","475-VK","2019/10/07 20:59:22","新北市三重區仁愛街420號","121.49039","25.0814233333333","6500200","三重區"
"241020","478-VK","2019/10/07 20:59:18","新北市三重區忠孝路二段34號","121.485798333333","25.0710133333333","6500200","三重區"
"241026","480-VK","2019/10/07 20:59:20","新北市三重區環河南路121-6號","121.497345","25.05547","6500200","三重區"
"241014","543-UM","2019/10/07 20:59:17","新北市三重區長壽街120巷11號","121.502488333333","25.0691266666667","6500200","三重區"
"241001","547-UM","2019/10/07 20:59:22","新北市三重區自強路三段87巷25號","121.48853","25.0750383333333","6500200","三重區"
"241019","KEA-2593","2019/10/07 20:59:17","新北市三重區自強路二段74巷21號","121.487925","25.0698733333333","6500200","三重區"
"241005","AAD-863","2019/10/07 20:59:14","新北市三重區三信路186號","121.488038333333","25.0860766666667","6500200","三重區"
"241012","743-BX","2019/10/07 20:59:21","新北市三重區龍門路274巷45號","121.50119","25.0755316666667","6500200","三重區"
"241022","KED-0820","2019/10/07 20:59:26","新北市三重區過圳街27-5號","121.487968333333","25.062395","6500200","三重區"
"241023","887-TS","2019/10/07 20:59:15","新北市三重區洛陽街45巷15號","121.482418333333","25.063755","6500200","三重區"
"241029","942-UM","2019/10/07 20:59:26","新北市三重區正義南路111號","121.498261666667","25.05853","6500200","三重區"
"241033","AAC-255","2019/10/07 20:59:26","新北市三重區光復路二段2號","121.472118333333","25.0532616666667","6500200","三重區"
"235055","183-VK","2019/10/07 20:59:24","新北市中和區中正路901號","121.483636666667","25.0055933333333","6500300","中和區"
"247016","KEA-2869","2019/10/07 20:59:09","新北市蘆洲區正和街79號","121.468371666667","25.0808283333333","6501400","蘆洲區"
"247010","KED-0682","2019/10/07 20:59:25","新北市蘆洲區鷺江街91號","121.476738333333","25.083715","6501400","蘆洲區"
"235069","4980-A6","2019/10/07 20:59:23","新北市中和區連城路469巷70弄22號","121.482613333333","24.9935733333333","6500300","中和區"
"235009","565-BX","2019/10/07 20:52:00","新北市中和區員山路36巷13號","121.484133333333","24.9909983333333","6500300","中和區"
"220065","072-UY","2019/10/07 20:59:13","新北市八里區下罟子1-14號","121.389443333333","25.1421533333333","6500100","板橋區"
"247006","893-R6","2019/10/07 20:59:18","新北市蘆洲區永安南路二段16巷5號","121.467701666667","25.0771316666667","6501400","蘆洲區"
"247020","341-TH","2019/10/07 20:59:18","新北市蘆洲區民族路484號","121.471008333333","25.0912916666667","6501400","蘆洲區"
"247012","337-TH","2019/10/07 20:59:29","新北市蘆洲區民權路6號","121.476798333333","25.0853683333333","6501400","蘆洲區"
"247004","336-TH","2019/10/07 20:59:26","新北市蘆洲區永安南路二段268號","121.45864","25.080705","6501400","蘆洲區"
"247024","057-VK","2019/10/07 20:59:20","新北市蘆洲區長興路213號","121.461151666667","25.0863433333333","6501400","蘆洲區"
"247014","056-VK","2019/10/07 20:59:08","新北市蘆洲區中山二路36巷7號","121.474393333333","25.0826066666667","6501400","蘆洲區"
"247018","053-VK","2019/10/07 20:59:21","新北市蘆洲區民權路122號","121.473406666667","25.08862","6501400","蘆洲區"
"247008","002-UY","2019/10/07 20:59:10","新北市蘆洲區民生街76號","121.472823333333","25.0790733333333","6501400","蘆洲區"
"247002","001-UY","2019/10/07 20:59:23","新北市蘆洲區永平街16號","121.459191666667","25.09058","6501400","蘆洲區"
"251005","010-UM","2019/10/07 20:59:21","新北市淡水區學府路51巷2弄12號","121.447858333333","25.1698683333333","6501000","淡水區"
"251001","011-UM","2019/10/07 20:59:19","新北市淡水區新市一路三段119-1號","121.446986666667","25.1828816666667","6501000","淡水區"
"251002","012-UM","2019/10/07 20:59:24","新北市淡水區英專路68號","121.44573","25.1710416666667","6501000","淡水區"
"251015","KEA-2871","2019/10/07 20:59:18","新北市淡水區淡金路四段542巷17號","121.45285","25.2270583333333","6501000","淡水區"
"251016","179-VK","2019/10/07 20:59:27","新北市淡水區牛埔子11-1號","121.450166666667","25.2184416666667","6501000","淡水區"
"251013","180-VK","2019/10/07 20:59:10","新北市淡水區番子厝13號","121.46136","25.201415","6501000","淡水區"
"251010","413-VK","2019/10/07 20:59:28","新北市淡水區中正路一段116-3號","121.42393","25.1787333333333","6501000","淡水區"
"251007","442-VK","2019/10/07 20:59:19","新北市淡水區仁愛街2巷12號","121.446361666667","25.1708666666667","6501000","淡水區"
"251012","443-VK","2019/10/07 20:59:17","新北市淡水區淡金路五段108號","121.456496666667","25.23658","6501000","淡水區"
"251014","577-R6","2019/10/07 20:59:07","新北市淡水區溪口16號","121.45584","25.23647","6501000","淡水區"
"251011","650-BX","2019/10/07 20:59:24","新北市淡水區新民街103號","121.436178333333","25.180955","6501000","淡水區"
"251003","673-BX","2019/10/07 20:59:29","新北市淡水區新春街146-2號","121.441925","25.181545","6501000","淡水區"
"242042","AAC-296","2019/10/07 20:59:25","新北市新莊區天祥街8號","121.417223333333","25.0270683333333","6500500","新莊區"
"242048","566-BX","2019/10/07 20:59:16","新北市新莊區中正路671號","121.426631666667","25.0301016666667","6500500","新莊區"
"242050","400-BY","2019/10/07 20:59:23","新北市新莊區民安東路48號","121.429881666667","25.0207116666667","6500500","新莊區"
"242025","362-BY","2019/10/07 20:59:27","新北市八里區下罟子8-10號","121.384388333333","25.1448333333333","6500500","新莊區"
"242002","346-TH","2019/10/07 20:59:20","新北市三重區重新路五段326巷25-1號","121.477601666667","25.0459066666667","6500500","新莊區"
"242036","348-TH","2019/10/07 20:59:16","新北市新莊區中正路449-1號","121.443071666667","25.03369","6500500","新莊區"
"242009","349-TH","2019/10/07 20:59:24","新北市新莊區思源路57號","121.459936666667","25.04027","6500500","新莊區"
"221035","622-UM","2019/10/07 20:59:21","新北市汐止區汐萬路一段146號","121.652966666667","25.0711483333333","6501100","汐止區"
"235026","KEA-2876","2019/10/07 20:40:52","新北市中和區員山路36巷16-3號","121.485145","24.9913316666667","6500300","中和區"
