"lineid","car","time","location","longitude","latitude","cityid","cityname"
"231061","002-UM","2019/10/07 21:09:27","新北市新店區永平街35號","121.51645","24.9837133333333","6500600","新店區"
"231060","106-UY","2019/10/07 21:09:23","新北市新店區安康路三段195號","121.487995","24.951725","6500600","新店區"
"231051","107-UY","2019/10/07 21:09:07","新北市新店區中正路680巷33弄1號","121.535083333333","24.98931","6500600","新店區"
"231065","110-UY","2019/10/07 21:09:07","新北市新店區安祥路65號","121.483873333333","24.960235","6500600","新店區"
"231068","187-VK","2019/10/07 21:09:18","新北市新店區安康路一段355-4號","121.517348333333","24.96398","6500600","新店區"
"231062","256-BX","2019/10/07 21:09:10","新北市新店區安康路二段317號","121.49945","24.956655","6500600","新店區"
"231054","260-TV","2019/10/07 21:09:13","新北市新店區北新路一段101號","121.539125","24.9621283333333","6500600","新店區"
"231064","278-BY","2019/10/07 21:09:13","新北市新店區薏仁坑路自強巷6號","121.496423333333","24.9583866666667","6500600","新店區"
"231050","AAD-862","2019/10/07 21:09:26","新北市新店區中華路83號","121.539308333333","24.968595","6500600","新店區"
"231040","617-UM","2019/10/07 21:09:16","新北市新店區光明街211號","121.540046666667","24.9638283333333","6500600","新店區"
"231063","641-BX","2019/10/07 21:09:22","新北市新店區玫瑰路59巷2號","121.495883333333","24.9457333333333","6500600","新店區"
"231059","897-TW","2019/10/07 21:09:08","新北市新店區僑信路29巷27號","121.499391666667","24.9508833333333","6500600","新店區"
"241028","022-UY","2019/10/07 21:09:20","新北市三重區正義南路169號","121.49896","25.057525","6500200","三重區"
"241008","059-VK","2019/10/07 21:09:15","新北市三重區文化北路89號","121.498123333333","25.0677216666667","6500200","三重區"
"241031","061-VK","2019/10/07 21:09:17","新北市三重區重新路五段283號","121.47898","25.0490583333333","6500200","三重區"
"241015","062-VK","2019/10/07 21:09:23","新北市三重區長元街82-1號","121.501858333333","25.0663966666667","6500200","三重區"
"241017","063-VK","2019/10/07 21:09:08","新北市三重區國隆路26號","121.492393333333","25.0643616666667","6500200","三重區"
"241024","065-VK","2019/10/07 21:09:27","新北市三重區大勇街82巷15弄30號","121.48113","25.0719866666667","6500200","三重區"
"241007","066-VK","2019/10/07 21:09:22","新北市三重區仁美街67號","121.486466666667","25.078575","6500200","三重區"
"241003","091-VK","2019/10/07 21:09:08","新北市三重區仁義街337-1號","121.49499","25.0847366666667","6500200","三重區"
"241006","262-UM","2019/10/07 21:09:11","新北市三重區中正北路2號","121.489266666667","25.0630716666667","6500200","三重區"
"241016","266-UM","2019/10/07 21:09:18","新北市三重區大智街12號","121.49523","25.0644933333333","6500200","三重區"
"241009","267-UM","2019/10/07 21:09:12","新北市三重區忠孝路二段122號","121.483066666667","25.0688033333333","6500200","三重區"
"241018","268-UM","2019/10/07 21:09:25","新北市三重區正義北路332-1號","121.49439","25.0705616666667","6500200","三重區"
"241032","269-UM","2019/10/07 21:09:25","新北市三重區光復路二段143巷16號","121.474446666667","25.06154","6500200","三重區"
"241013","270-UM","2019/10/07 21:09:12","新北市三重區仁愛街125巷2號","121.496335","25.0754483333333","6500200","三重區"
"241025","271-UM","2019/10/07 21:09:09","新北市三重區忠孝路三段40巷16弄10號","121.482285","25.0669116666667","6500200","三重區"
"241030","KED-0822","2019/10/07 21:09:19","新北市三重區五谷王北街20巷15弄1號","121.475078333333","25.048435","6500200","三重區"
"241004","475-VK","2019/10/07 21:09:22","新北市三重區仁愛街420號","121.490393333333","25.0814133333333","6500200","三重區"
"241026","480-VK","2019/10/07 21:09:20","新北市三重區大同南路153-2號","121.496598333333","25.0564566666667","6500200","三重區"
"241014","543-UM","2019/10/07 21:09:17","新北市三重區長安街82-1號","121.501415","25.0676883333333","6500200","三重區"
"241001","547-UM","2019/10/07 21:09:22","新北市三重區福隆路99號","121.492376666667","25.0783116666667","6500200","三重區"
"241019","KEA-2593","2019/10/07 21:09:17","新北市三重區自強路二段74巷21號","121.487948333333","25.06989","6500200","三重區"
"241005","AAD-863","2019/10/07 21:09:14","新北市三重區仁華街85號","121.485791666667","25.08296","6500200","三重區"
"241012","743-BX","2019/10/07 21:09:22","新北市三重區仁信街4號","121.501538333333","25.0756266666667","6500200","三重區"
"241022","KED-0820","2019/10/07 21:09:26","新北市三重區中正北路64巷24號","121.486018333333","25.0636916666667","6500200","三重區"
"241023","887-TS","2019/10/07 21:09:21","新北市三重區洛陽街45巷25號","121.482618333333","25.06393","6500200","三重區"
"241029","942-UM","2019/10/07 21:09:26","新北市三重區正義南路111號","121.498251666667","25.0585383333333","6500200","三重區"
"241033","AAC-255","2019/10/07 21:09:26","新北市三重區新北大道二段65號","121.469276666667","25.061415","6500200","三重區"
"235055","183-VK","2019/10/07 21:09:24","新北市中和區員山路36巷12號","121.484","24.9908733333333","6500300","中和區"
"247016","KEA-2869","2019/10/07 21:09:09","新北市蘆洲區光華路110巷34號","121.466025","25.08409","6501400","蘆洲區"
"247010","KED-0682","2019/10/07 21:09:25","新北市蘆洲區三民路26巷35號","121.477216666667","25.0830166666667","6501400","蘆洲區"
"235009","565-BX","2019/10/07 20:52:00","新北市中和區員山路36巷13號","121.484133333333","24.9909983333333","6500300","中和區"
"235018","640-BX","2019/10/07 21:05:52","新北市中和區員山路36巷16-2號","121.485281666667","24.9915316666667","6500300","中和區"
"220065","072-UY","2019/10/07 21:09:13","新北市五股區成泰路三段360號","121.45128","25.098535","6500100","板橋區"
"247006","893-R6","2019/10/07 21:09:18","新北市蘆洲區長安街22巷31弄2號","121.464671666667","25.0798716666667","6501400","蘆洲區"
"247020","341-TH","2019/10/07 21:09:18","新北市蘆洲區仁愛街6號","121.472693333333","25.092405","6501400","蘆洲區"
"247012","337-TH","2019/10/07 21:09:09","新北市蘆洲區民族路48號","121.476935","25.0843816666667","6501400","蘆洲區"
"247004","336-TH","2019/10/07 21:09:26","新北市蘆洲區永安南路二段322號","121.457038333333","25.0827166666667","6501400","蘆洲區"
"247024","057-VK","2019/10/07 21:09:20","新北市蘆洲區長興路50巷1號","121.463758333333","25.0837633333333","6501400","蘆洲區"
"247014","056-VK","2019/10/07 21:09:28","新北市蘆洲區中央路155號","121.47262","25.084695","6501400","蘆洲區"
"247022","007-UY","2019/10/07 21:09:28","新北市蘆洲區三民路263號","121.468133333333","25.0892133333333","6501400","蘆洲區"
"247008","002-UY","2019/10/07 21:09:10","新北市蘆洲區民生街95號","121.473836666667","25.0786883333333","6501400","蘆洲區"
"247002","001-UY","2019/10/07 21:09:23","新北市蘆洲區永樂街38巷40號","121.458586666667","25.0899866666667","6501400","蘆洲區"
"251009","008-UM","2019/10/07 21:09:15","新北市淡水區民族路112巷57號","121.462031666667","25.134265","6501000","淡水區"
"251005","010-UM","2019/10/07 21:09:20","新北市淡水區博愛街45號","121.446685","25.1692766666667","6501000","淡水區"
"251001","011-UM","2019/10/07 21:09:19","新北市淡水區新市一路三段101巷16弄3號","121.446478333333","25.1837983333333","6501000","淡水區"
"251002","012-UM","2019/10/07 21:09:24","新北市淡水區水源街一段152號","121.448265","25.17158","6501000","淡水區"
"251015","KEA-2871","2019/10/07 21:09:18","新北市淡水區淡金路四段542巷85號","121.455508333333","25.2262983333333","6501000","淡水區"
"251016","179-VK","2019/10/07 21:09:07","新北市淡水區前洲子1號","121.44562","25.217585","6501000","淡水區"
"251013","180-VK","2019/10/07 21:09:30","新北市淡水區水汴頭12號","121.469753333333","25.20347","6501000","淡水區"
"251008","181-VK","2019/10/07 21:09:11","新北市淡水區淡金路二段605號","121.446401666667","25.1929683333333","6501000","淡水區"
"251010","413-VK","2019/10/07 21:09:28","新北市淡水區中正路一段88號","121.424538333333","25.17758","6501000","淡水區"
"251012","443-VK","2019/10/07 21:09:17","新北市淡水區淡金路五段172號","121.457088333333","25.2399883333333","6501000","淡水區"
"251014","577-R6","2019/10/07 21:09:27","新北市淡水區六塊厝1號","121.451071666667","25.2423133333333","6501000","淡水區"
"251011","650-BX","2019/10/07 21:09:24","新北市淡水區新民街222巷16弄11號","121.437098333333","25.1800816666667","6501000","淡水區"
"251003","673-BX","2019/10/07 21:09:24","新北市淡水區新春街132-2號","121.441056666667","25.1817533333333","6501000","淡水區"
"242025","362-BY","2019/10/07 21:09:08","新北市八里區中山路三段409號","121.368643333333","25.1344816666667","6500500","新莊區"
"242002","346-TH","2019/10/07 21:09:20","新北市五股區凌雲路三段38號","121.430966666667","25.10825","6500500","新莊區"
"242009","349-TH","2019/10/07 21:09:24","新北市三重區光復路二段198-1號","121.470196666667","25.06328","6500500","新莊區"
"235026","KEA-2876","2019/10/07 20:40:52","新北市中和區員山路36巷16-3號","121.485145","24.9913316666667","6500300","中和區"
