"lineid","car","time","location","longitude","latitude","cityid","cityname"
"251009","008-UM","2019/10/07 22:09:15","新北市淡水區淡金路18號","121.457111666667","25.1598633333333","6501000","淡水區"
"251004","009-UM","2019/10/07 22:09:17","新北市淡水區民族路33號","121.462351666667","25.13583","6501000","淡水區"
"251005","010-UM","2019/10/07 22:09:20","新北市淡水區鄧公路19號","121.451433333333","25.170035","6501000","淡水區"
"251008","181-VK","2019/10/07 22:09:10","新北市淡水區學府路104號","121.44985","25.171775","6501000","淡水區"
"251010","413-VK","2019/10/07 22:09:28","新北市淡水區沙崙路200號","121.424721666667","25.183925","6501000","淡水區"
"251007","442-VK","2019/10/07 22:09:19","新北市淡水區北新路180號","121.449485","25.1786733333333","6501000","淡水區"
"251006","561-UM","2019/10/07 21:45:32","新北市淡水區中正路11巷3號","121.437888333333","25.1707316666667","6501000","淡水區"
"251011","650-BX","2019/10/07 22:09:24","新北市淡水區水碓街7號","121.4432","25.1770566666667","6501000","淡水區"
