"lineid","car","time","location","longitude","latitude","cityid","cityname"
"244022","483-VK","2019/08/01 10:09:33","新北市林口區民權路10號","121.371345","25.0799416666667","6501700","林口區"
"222006","289-BY","2019/08/01 10:09:30","新北市深坑區大崙尾8號","121.613366666667","24.980635","6501800","深坑區"
"231008","192-VK","2019/08/01 10:01:19","新北市新店區小坑一路35巷1號","121.528983333333","24.9095616666667","6500600","新店區"
"252004","249-BX","2019/08/01 10:09:32","新北市三芝區福德里埔尾4號","121.503336666667","25.2470616666667","6502100","三芝區"
"252007","AAC-283","2019/08/01 10:09:33","新北市三芝區古庄里古庄99號","121.494115","25.271155","6502100","三芝區"
