"lineid","car","time","location","longitude","latitude","cityid","cityname"
"234044","148-BY","2019/08/01 12:29:38","新北市永和區福和路1號","121.526353333333","25.0099516666667","6500400","永和區"
"234078","298-R6","2019/08/01 12:23:54","新北市永和區福和路1號","121.526488333333","25.0097316666667","6500400","永和區"
"234036","336-UY","2019/08/01 12:29:29","新北市永和區福和路1號","121.526646666667","25.00997","6500400","永和區"
"234084","338-UY","2019/08/01 12:29:32","新北市永和區中正路610-1號","121.517046666667","25.0073333333333","6500400","永和區"
"234068","552-UM","2019/08/01 12:29:45","新北市永和區福和路1號","121.525338333333","25.0094583333333","6500400","永和區"
"234012","KEA-2591","2019/08/01 12:29:30","新北市永和區福和路1號","121.526185","25.0093483333333","6500400","永和區"
"234010","9373-KE","2019/08/01 12:29:26","新北市永和區福和路1號","121.526355","25.0096833333333","6500400","永和區"
"234022","9380-KE","2019/08/01 12:29:43","新北市永和區福和路1號","121.52606","25.0097816666667","6500400","永和區"
"234076","969-R7","2019/08/01 12:29:45","新北市永和區福和路1號","121.526311666667","25.00963","6500400","永和區"
"244023","483-VK","2019/08/01 12:02:47","新北市林口區粉寮路二段160巷28號","121.405123333333","25.0907433333333","6501700","林口區"
"235005","802-TS","2019/08/01 12:29:29","新北市中和區和城路一段271巷1號","121.485423333333","24.9916883333333","6500300","中和區"
"228004","212-TW","2019/08/01 12:29:29","新北市貢寮區龍崗里嵩陽街33號","121.904233333333","25.0181433333333","6502600","貢寮區"
"228005","828-UM","2019/08/01 12:29:40","新北市貢寮區福連里蓬萊街16-2號","121.978255","24.9928783333333","6502600","貢寮區"
"207002","749-BX","2019/08/01 12:29:27","新北市萬里區中幅里大湖路6號","121.660171666667","25.1709666666667","6502800","萬里區"
