"lineid","car","time","location","longitude","latitude","cityid","cityname"
"234044","148-BY","2019/08/01 12:49:38","新北市永和區秀朗路二段124-4號","121.524803333333","25.0014166666667","6500400","永和區"
"234078","298-R6","2019/08/01 12:23:54","新北市永和區福和路1號","121.526488333333","25.0097316666667","6500400","永和區"
"234036","336-UY","2019/08/01 12:49:29","新北市永和區成功路一段36號","121.526945","25.0045516666667","6500400","永和區"
"234062","337-UY","2019/08/01 12:49:40","新北市永和區福和路1號","121.525748333333","25.0093966666667","6500400","永和區"
"234084","338-UY","2019/08/01 12:49:34","新北市永和區中正路83號","121.515131666667","24.9969733333333","6500400","永和區"
"234068","552-UM","2019/08/01 12:49:36","新北市永和區豫溪街185號","121.522475","25.0103683333333","6500400","永和區"
"234028","746-BX","2019/08/01 12:49:41","新北市永和區得和路326號","121.523276666667","24.999575","6500400","永和區"
"234052","KEA-2590","2019/08/01 12:49:43","新北市永和區竹林路51號","121.518178333333","25.0139216666667","6500400","永和區"
"234005","KED-0605","2019/08/01 12:49:43","新北市永和區永和路二段243號","121.515763333333","25.0148683333333","6500400","永和區"
"234012","KEA-2591","2019/08/01 12:49:30","新北市永和區保福路二段109巷26號","121.509526666667","25.0131333333333","6500400","永和區"
"234060","AAD-866","2019/08/01 12:49:43","新北市永和區福和路307號","121.5162","25.007175","6500400","永和區"
"234040","862-TW","2019/08/01 12:49:28","新北市永和區永貞路306號","121.511893333333","25.0048716666667","6500400","永和區"
"234048","863-TW","2019/08/01 12:49:38","新北市永和區福和路1號","121.526286666667","25.0097183333333","6500400","永和區"
"234025","9371-KE","2019/08/01 12:49:33","新北市永和區中正路659號","121.514791666667","25.0101666666667","6500400","永和區"
"234010","9373-KE","2019/08/01 12:49:26","新北市永和區保福路二段156號","121.509183333333","25.015025","6500400","永和區"
"248016","026-BX","2019/08/01 12:49:38","新北市五股區中興路二段37巷28號","121.460158333333","25.07506","6501500","五股區"
"248005","077-UY","2019/08/01 12:49:35","新北市五股區中興路二段83巷26-6號","121.459998333333","25.0749666666667","6501500","五股區"
"248007","KED-0815","2019/08/01 12:49:36","新北市五股區中興路二段57-6號","121.460461666667","25.0752683333333","6501500","五股區"
"248017","KED-0813","2019/08/01 12:49:37","新北市五股區中興路二段57-6號","121.460375","25.0752933333333","6501500","五股區"
"234022","9380-KE","2019/08/01 12:49:43","新北市永和區竹林路119巷45號","121.52201","25.01182","6500400","永和區"
"234076","969-R7","2019/08/01 12:49:45","新北市永和區中正路4號","121.51236","24.9936483333333","6500400","永和區"
"234001","AAC-295","2019/08/01 12:49:32","新北市永和區中正路657號","121.514925","25.0101783333333","6500400","永和區"
"231029","106-UY","2019/08/01 12:49:34","新北市新店區安華路28-1號","121.51942","24.960795","6500600","新店區"
"231018","107-UY","2019/08/01 12:49:42","新北市新店區安一路一段1-1號","121.519345","24.961015","6500600","新店區"
"231023","260-TV","2019/08/01 12:49:24","新北市新店區安一路一段1-1號","121.519275","24.96112","6500600","新店區"
"231003","268-BY","2019/08/01 12:49:38","新北市新店區安一路一段1-1號","121.519728333333","24.9613533333333","6500600","新店區"
"231017","AAD-862","2019/08/01 12:49:35","新北市新店區安一路一段1-1號","121.519746666667","24.961115","6500600","新店區"
"231021","513-UM","2019/08/01 12:49:37","新北市新店區安一路一段1-1號","121.519683333333","24.961085","6500600","新店區"
"231010","719-UM","2019/08/01 12:49:30","新北市新店區安一路一段1-1號","121.519478333333","24.9610816666667","6500600","新店區"
"231026","720-UM","2019/08/01 12:49:32","新北市新店區安一路一段1-1號","121.519115","24.9614033333333","6500600","新店區"
"231037","AKT-0513","2019/08/01 12:49:30","新北市新店區安華路1-1號","121.519506666667","24.9604383333333","6500600","新店區"
"235028","005-UY","2019/08/01 12:49:33","新北市中和區員山路36巷16-3號","121.485015","24.9913783333333","6500300","中和區"
"235027","006-UY","2019/08/01 12:49:43","新北市中和區員山路36巷16-3號","121.485033333333","24.9913266666667","6500300","中和區"
"235029","098-UM","2019/08/01 12:49:24","新北市中和區中正路748號","121.485391666667","24.9985033333333","6500300","中和區"
"235002","185-VK","2019/08/01 12:49:36","新北市中和區員山路36巷13號","121.484313333333","24.9908333333333","6500300","中和區"
"235031","255-BX","2019/08/01 12:49:35","新北市中和區新民街90號","121.481925","25.0079083333333","6500300","中和區"
"235018","640-BX","2019/08/01 12:49:32","新北市中和區員山路36巷16-2號","121.485238333333","24.991485","6500300","中和區"
"235035","783-BX","2019/08/01 12:49:42","新北市中和區員山路36巷16-3號","121.485055","24.991345","6500300","中和區"
"235021","801-TS","2019/08/01 12:49:47","新北市中和區員山路36巷16-2號","121.485295","24.9915466666667","6500300","中和區"
"235005","802-TS","2019/08/01 12:49:29","新北市中和區和城路一段271巷1號","121.485536666667","24.9914633333333","6500300","中和區"
"235016","805-TS","2019/08/01 12:49:31","新北市中和區員山路36巷16-3號","121.484701666667","24.991045","6500300","中和區"
"235001","AAC-213","2019/08/01 12:49:39","新北市中和區中正路637巷52弄1號","121.485548333333","24.99379","6500300","中和區"
"228004","212-TW","2019/08/01 12:49:29","新北市貢寮區吉林里內寮街10-2號","121.888533333333","24.9969383333333","6502600","貢寮區"
"228005","828-UM","2019/08/01 12:49:40","新北市貢寮區福連里福連街37號","121.988741666667","25.0110683333333","6502600","貢寮區"
"207002","749-BX","2019/08/01 12:49:27","新北市萬里區雙興里二坪路31-2號","121.650831666667","25.1718166666667","6502800","萬里區"
"207001","662-BX","2019/08/01 12:49:36","新北市萬里區萬里里瑪鋉路102號","121.690513333333","25.1787433333333","6502800","萬里區"
"235032","KEA-2873","2019/08/01 12:49:20","新北市中和區員山路36巷16-3號","121.485033333333","24.99123","6500300","中和區"
