"lineid","car","time","location","longitude","latitude","cityid","cityname"
"234044","148-BY","2019/08/01 13:39:38","新北市永和區秀朗路二段68號","121.522743333333","25.0016216666667","6500400","永和區"
"234036","336-UY","2019/08/01 13:39:29","新北市永和區民樂街31巷4號","121.527813333333","25.001445","6500400","永和區"
"234062","337-UY","2019/08/01 13:39:40","新北市永和區秀朗路二段24巷28弄2號","121.519736666667","25.0017916666667","6500400","永和區"
"234084","338-UY","2019/08/01 13:39:32","新北市永和區永亨路165巷8號","121.526205","25.004155","6500400","永和區"
"234068","552-UM","2019/08/01 13:39:36","新北市永和區永和路二段235號","121.515583333333","25.0143283333333","6500400","永和區"
"234015","745-BX","2019/08/01 13:39:37","新北市永和區永和路二段299號","121.516066666667","25.0161366666667","6500400","永和區"
"234028","746-BX","2019/08/01 13:39:41","新北市永和區民權路29巷12號","121.520681666667","24.99786","6500400","永和區"
"234052","KEA-2590","2019/08/01 13:39:23","新北市永和區竹林路39巷18號","121.51865","25.0146283333333","6500400","永和區"
"234005","KED-0605","2019/08/01 13:39:42","新北市永和區中山路一段25號","121.51356","25.0103683333333","6500400","永和區"
"234012","KEA-2591","2019/08/01 13:39:30","新北市永和區永平路222號","121.509126666667","25.0106116666667","6500400","永和區"
"234060","AAD-866","2019/08/01 13:39:43","新北市永和區中正路446號","121.517428333333","25.0028883333333","6500400","永和區"
"234040","862-TW","2019/08/01 13:39:28","新北市中和區中和路456號","121.512108333333","25.0038816666667","6500400","永和區"
"234048","863-TW","2019/08/01 13:39:37","新北市永和區環河西路一段111號","121.510925","25.0173866666667","6500400","永和區"
"234025","9371-KE","2019/08/01 13:39:33","新北市永和區保安路266號","121.505835","25.0122516666667","6500400","永和區"
"234010","9373-KE","2019/08/01 13:39:26","新北市永和區保福路二段66號","121.51082","25.0126016666667","6500400","永和區"
"248015","026-BX","2019/08/01 13:39:38","新北市五股區凌雲路一段149巷7號","121.448841666667","25.1016533333333","6501500","五股區"
"248005","077-UY","2019/08/01 13:39:35","新北市五股區四維路112號","121.46759","25.07379","6501500","五股區"
"248007","KED-0815","2019/08/01 13:39:36","新北市五股區中興路一段140巷4號","121.46505","25.074165","6501500","五股區"
"248017","KED-0813","2019/08/01 13:39:37","新北市五股區民義路二段58號","121.406445","25.1075483333333","6501500","五股區"
"248011","247-BX","2019/08/01 13:39:28","新北市五股區御史路22號","121.441995","25.09125","6501500","五股區"
"248013","261-SL","2019/08/01 13:39:41","新北市五股區民義路一段107巷32號","121.432298333333","25.084395","6501500","五股區"
"248009","272-BY","2019/08/01 13:39:31","新北市五股區水碓一路92號","121.431846666667","25.0739266666667","6501500","五股區"
"248003","677-BX","2019/08/01 13:39:38","新北市五股區民義路一段270號","121.42585","25.0927783333333","6501500","五股區"
"248001","678-BX","2019/08/01 13:39:31","新北市五股區西雲路221號","121.448771666667","25.0969216666667","6501500","五股區"
"234022","9380-KE","2019/08/01 13:39:43","新北市永和區中正路702巷20弄1號","121.516536666667","25.0105966666667","6500400","永和區"
"234076","969-R7","2019/08/01 13:39:26","新北市永和區得和路192號","121.52011","25.000035","6500400","永和區"
"234072","AAC-211","2019/08/01 13:39:42","新北市永和區竹林路213巷23號","121.522306666667","25.0090233333333","6500400","永和區"
"234066","AAC-212","2019/08/01 13:39:38","新北市永和區中山路一段195號","121.50913","25.0088166666667","6500400","永和區"
"234001","AAC-295","2019/08/01 13:39:32","新北市永和區永和路一段114-1號","121.513696666667","25.00737","6500400","永和區"
"244003","248-BX","2019/08/01 13:39:23","新北市林口區瑞樹坑51號","121.349505","25.1181266666667","6501700","林口區"
"243006","KEA-2801","2019/08/01 13:39:29","新北市泰山區犁頭窠3-1號","121.422231666667","25.0605283333333","6501600","泰山區"
"231030","002-UM","2019/08/01 13:39:45","新北市新店區安康路一段297號","121.522431666667","24.9636766666667","6500600","新店區"
"231024","0291-UT","2019/08/01 13:39:39","新北市新店區三民路14號","121.539485","24.97208","6500600","新店區"
"231027","0293-UT","2019/08/01 13:39:42","新北市新店區新店後街40號","121.537885","24.953635","6500600","新店區"
"231005","046-UY","2019/08/01 13:39:29","新北市新店區寶中路49-1號","121.545956666667","24.9795433333333","6500600","新店區"
"231029","106-UY","2019/08/01 13:39:34","新北市新店區車子路1-1號","121.50464","24.95787","6500600","新店區"
"231018","107-UY","2019/08/01 13:39:41","新北市新店區自由街2-1號","121.535555","24.9756116666667","6500600","新店區"
"231013","108-UY","2019/08/01 13:39:27","新北市新店區中正路450號","121.534443333333","24.9789633333333","6500600","新店區"
"231036","110-UY","2019/08/01 13:39:41","新北市新店區安祥路145巷2號","121.474775","24.955425","6500600","新店區"
"231031","256-BX","2019/08/01 13:39:31","新北市新店區安康路一段92-1號","121.527945","24.96209","6500600","新店區"
"231023","260-TV","2019/08/01 13:39:44","新北市新店區新店路190號","121.537153333333","24.9561166666667","6500600","新店區"
"231003","268-BY","2019/08/01 13:39:38","新北市新店區中興路一段292號","121.545881666667","24.9692066666667","6500600","新店區"
"231035","278-BY","2019/08/01 13:39:30","新北市新店區安忠路63號","121.511985","24.95853","6500600","新店區"
"231017","AAD-862","2019/08/01 13:39:35","新北市新店區竹林路2巷29弄9號","121.550453333333","24.9502983333333","6500600","新店區"
"231006","355-BY","2019/08/01 13:39:30","新北市新店區北新路一段41號","121.538053333333","24.9593583333333","6500600","新店區"
"231038","3712-VJ","2019/08/01 13:39:33","新北市新店區安華路30巷3號","121.519631666667","24.9591783333333","6500600","新店區"
"231025","4715-K9","2019/08/01 13:39:29","新北市新店區中央五街37號","121.528665","24.9750366666667","6500600","新店區"
"231021","513-UM","2019/08/01 13:39:37","新北市新店區永興路88-1號","121.544071666667","24.9338033333333","6500600","新店區"
"231002","619-UM","2019/08/01 13:39:32","新北市新店區中央三街127號","121.523886666667","24.9768066666667","6500600","新店區"
"231034","641-BX","2019/08/01 13:39:38","新北市新店區車子路117號","121.505358333333","24.9518083333333","6500600","新店區"
"231011","718-UY","2019/08/01 13:39:33","新北市新店區德正街23巷15號","121.54481","24.97216","6500600","新店區"
"231010","719-UM","2019/08/01 13:39:30","新北市新店區中正路307巷22號","121.536061666667","24.9740266666667","6500600","新店區"
"231026","720-UM","2019/08/01 13:39:32","新北市新店區北宜路一段121-1號","121.540501666667","24.9538783333333","6500600","新店區"
"231028","897-TW","2019/08/01 13:39:42","新北市新店區安和路一段39號","121.517205","24.9652933333333","6500600","新店區"
"231001","898-TW","2019/08/01 13:39:37","新北市新店區中央路45號","121.532885","24.9776033333333","6500600","新店區"
"231004","899-TW","2019/08/01 13:39:39","新北市新店區北新路一段140號","121.542431666667","24.9704166666667","6500600","新店區"
"231037","AKT-0513","2019/08/01 13:39:30","新北市新店區安康路二段311號","121.499943333333","24.9568933333333","6500600","新店區"
"235030","003-UY","2019/08/01 13:39:46","新北市中和區水源路34巷2號","121.504771666667","25.0035083333333","6500300","中和區"
"235028","005-UY","2019/08/01 13:39:33","新北市中和區連城路75巷3弄7號","121.498073333333","24.9994583333333","6500300","中和區"
"235027","006-UY","2019/08/01 13:39:22","新北市中和區連城路389巷6號","121.486406666667","24.99577","6500300","中和區"
"235020","096-UM","2019/08/01 13:39:28","新北市中和區員山路466巷10號","121.480413333333","25.0065083333333","6500300","中和區"
"235003","097-UM","2019/08/01 13:39:41","新北市中和區大勇街25巷27號","121.515268333333","24.993895","6500300","中和區"
"235029","098-UM","2019/08/01 13:39:44","新北市中和區莊敬路33巷44號","121.500368333333","25.0068566666667","6500300","中和區"
"235004","150-BY","2019/08/01 13:39:43","新北市中和區安平路59號","121.509581666667","24.9951633333333","6500300","中和區"
"235022","151-BY","2019/08/01 13:39:37","新北市中和區員山路32-3號","121.480996666667","24.9874616666667","6500300","中和區"
"235019","183-VK","2019/08/01 13:39:30","新北市中和區德光路77巷1號","121.469566666667","25.0035033333333","6500300","中和區"
"235002","185-VK","2019/08/01 13:39:36","新北市中和區大勇街60巷18號","121.518825","24.994685","6500300","中和區"
"235013","186-VK","2019/08/01 13:39:26","新北市中和區景安路128號","121.505183333333","24.9945816666667","6500300","中和區"
"235031","255-BX","2019/08/01 13:39:35","新北市中和區連城路340巷14弄2號","121.483395","24.997295","6500300","中和區"
"235008","293-VK","2019/08/01 13:39:32","新北市中和區復興路280巷1弄2號","121.50227","24.9907366666667","6500300","中和區"
"235036","301-VK","2019/08/01 13:39:32","新北市中和區連城路87-1號","121.49678","25.0001066666667","6500300","中和區"
"235007","352-BY","2019/08/01 13:39:32","新北市中和區景平路111巷2號","121.516646666667","24.9918366666667","6500300","中和區"
"235006","KEA-2878","2019/08/01 13:39:39","新北市中和區秀朗路三段153巷4號","121.52539","24.99156","6500300","中和區"
"247007","KED-0682","2019/08/01 13:39:33","新北市蘆洲區國道路二段103號","121.470681666667","25.0749483333333","6501400","蘆洲區"
"235020","269-TV","2019/08/01 13:39:31","新北市中和區景安路201號","121.504811666667","24.9927183333333","6500300","中和區"
"235014","4979-A6","2019/08/01 13:39:30","新北市中和區景新街496巷28弄45號","121.512618333333","24.9859033333333","6500300","中和區"
"235033","4980-A6","2019/08/01 13:39:27","新北市中和區連城路65巷9號","121.497883333333","25.000885","6500300","中和區"
"235034","558-UM","2019/08/01 13:39:36","新北市中和區南山路6號","121.502016666667","24.9986366666667","6500300","中和區"
"235009","565-BX","2019/08/01 13:39:43","新北市中和區南山路208巷2號","121.505985","24.9902","6500300","中和區"
"235024","KED-0823","2019/08/01 13:39:40","新北市中和區中山路三段134號","121.473925","25.0062883333333","6500300","中和區"
"235018","640-BX","2019/08/01 13:39:32","新北市中和區民享街68巷15號","121.473421666667","25.0017466666667","6500300","中和區"
"235011","732-UM","2019/08/01 13:39:28","新北市中和區南山路320巷10弄11號","121.50684","24.9865533333333","6500300","中和區"
"235010","733-UM","2019/08/01 13:39:43","新北市中和區忠孝街126-1號","121.512131666667","24.986335","6500300","中和區"
"235035","783-BX","2019/08/01 13:39:42","新北市中和區光環路二段300號","121.485936666667","25.0137133333333","6500300","中和區"
"235026","800-TS","2019/08/01 13:39:40","新北市中和區中山路二段312巷49號","121.495033333333","25.004425","6500300","中和區"
"235021","801-TS","2019/08/01 13:39:26","新北市中和區民安街42巷36號","121.479146666667","25.001175","6500300","中和區"
"235005","802-TS","2019/08/01 13:39:29","新北市中和區中和路390號","121.511165","25.0025133333333","6500300","中和區"
"235016","805-TS","2019/08/01 13:39:42","新北市中和區興南路三段52巷2-5號","121.494506666667","24.97584","6500300","中和區"
"235012","896-TW","2019/08/01 13:39:33","新北市中和區中正路79號","121.500833333333","24.9934916666667","6500300","中和區"
"235017","900-TW","2019/08/01 13:39:42","新北市中和區華福街71號","121.467125","24.9965616666667","6500300","中和區"
"235015","157-BY","2019/08/01 13:39:26","新北市中和區華新街143巷106弄24號","121.505991666667","24.97882","6500300","中和區"
"235001","AAC-213","2019/08/01 13:39:39","新北市中和區秀朗路三段128巷13號","121.52447","24.9933416666667","6500300","中和區"
"235023","AAC-215","2019/08/01 13:39:43","新北市中和區中正路589巷15號","121.485913333333","24.9934866666667","6500300","中和區"
"220013","072-UY","2019/08/01 13:39:41","新北市板橋區成都街103號","121.46348","25.0053283333333","6500100","板橋區"
"220034","073-UY","2019/08/01 13:39:42","新北市板橋區南雅南路二段120-1號","121.4523","24.9996816666667","6500100","板橋區"
"220016","075-UY","2019/08/01 13:39:33","新北市板橋區民生路二段120號","121.47049","25.019575","6500100","板橋區"
"220017","AAD-861","2019/08/01 13:39:30","新北市板橋區大華街9號","121.458986666667","25.006235","6500100","板橋區"
"220105","120-SR","2019/08/01 13:39:39","新北市板橋區民生路二段120號","121.470356666667","25.0197983333333","6500100","板橋區"
"247013","341-TH","2019/08/01 13:39:40","新北市五股區凌雲路一段21號","121.45511","25.097795","6501400","蘆洲區"
"247023","337-TH","2019/08/01 13:39:43","新北市五股區成泰路三段544-1號","121.455305","25.10062","6501400","蘆洲區"
"247011","056-VK","2019/08/01 13:39:34","新北市五股區中興路三段163號","121.449181666667","25.080985","6501400","蘆洲區"
"247005","002-UY","2019/08/01 13:39:36","新北市五股區中興路四段17號","121.44048","25.0822283333333","6501400","蘆洲區"
"228004","212-TW","2019/08/01 13:39:29","新北市貢寮區龍崗里嵩陽街41-2號","121.907323333333","25.0078216666667","6502600","貢寮區"
"228005","828-UM","2019/08/01 13:39:39","新北市貢寮區美豐里文秀坑8號","121.90265","25.0504733333333","6502600","貢寮區"
"253003","6232-TK","2019/08/01 13:39:29","新北市石門區內石門21-1號","121.5718","25.273755","6502200","石門區"
"253004","6251-TK","2019/08/01 13:39:29","新北市石門區五爪崙8-11號","121.6077","25.26219","6502200","石門區"
"253002","637-UY","2019/08/01 13:39:38","新北市石門區內石門78-1號","121.56853","25.2561983333333","6502200","石門區"
"253001","KEC-0718","2019/08/01 13:39:29","新北市石門區白沙灣別墅5-1號","121.50895","25.2781016666667","6502200","石門區"
"207002","749-BX","2019/08/01 13:39:27","新北市萬里區崁腳里崁腳路166號","121.645175","25.1557933333333","6502800","萬里區"
"252005","073-UM","2019/08/01 13:39:31","新北市三芝區圓山里內柑宅27-1號","121.537165","25.220215","6502100","三芝區"
"207001","662-BX","2019/08/01 13:39:36","新北市萬里區大鵬里萬里加投45-1號","121.641883333333","25.2110516666667","6502800","萬里區"
"236074","166-UM","2019/08/01 13:39:41","新北市土城區永平街51號","121.427535","24.9591116666667","6501300","土城區"
"236012","270-VK","2019/08/01 13:39:36","新北市土城區城林路6巷80號","121.438608333333","24.9796716666667","6501300","土城區"
"236032","271-VK","2019/08/01 13:39:26","新北市土城區城林路6巷80號","121.438526666667","24.9798133333333","6501300","土城區"
"247009","KED-0683","2019/08/01 13:39:31","新北市五股區新城三路61號","121.449318333333","25.0939033333333","6501400","蘆洲區"
"236068","KEA-2877","2019/08/01 13:39:45","新北市土城區城林路6巷80號","121.43868","24.9796766666667","6501300","土城區"
"236017","401-BY","2019/08/01 13:39:33","新北市土城區城林路6巷80號","121.43856","24.9796966666667","6501300","土城區"
"236054","AAC-216","2019/08/01 13:39:41","新北市土城區城林路6巷80號","121.438468333333","24.9797283333333","6501300","土城區"
"221029","298-VK","2019/08/01 13:39:46","新北市汐止區南陽街65號","121.62449","25.0637433333333","6501100","汐止區"
"220027","145-BY","2019/08/01 13:39:28","新北市板橋區大觀路二段23號","121.446833333333","25.0032616666667","6500100","板橋區"
"220028","200-UY","2019/08/01 13:39:34","新北市板橋區華東街1-9號","121.448221666667","24.994915","6500100","板橋區"
"220030","610-BX","2019/08/01 13:39:30","新北市板橋區大觀路三段59巷17弄6-1號","121.437558333333","24.9953233333333","6500100","板橋區"
"220032","256-TC","2019/08/01 13:39:38","新北市板橋區大觀路二段205號","121.444731666667","24.9994383333333","6500100","板橋區"
"220004","276-BY","2019/08/01 13:39:40","新北市板橋區稚暉街18號","121.455888333333","25.00455","6500100","板橋區"
"220020","277-BY","2019/08/01 13:39:31","新北市板橋區大觀路三段129號","121.432565","24.9941133333333","6500100","板橋區"
"220050","280-UM","2019/08/01 13:33:28","新北市板橋區民生路二段120號","121.470325","25.0197083333333","6500100","板橋區"
"220019","283-VK","2019/08/01 13:39:26","新北市板橋區四川路二段140巷20號","121.449031666667","24.99345","6500100","板橋區"
"220031","286-VK","2019/08/01 13:39:26","新北市板橋區板城路271號","121.450115","24.9979216666667","6500100","板橋區"
"220029","287-VK","2019/08/01 13:39:35","新北市板橋區大觀路二段11-12號","121.447963333333","24.9965816666667","6500100","板橋區"
"220039","288-VK","2019/08/01 13:39:40","新北市板橋區民生路二段120號","121.470378333333","25.019625","6500100","板橋區"
"220041","307-R5","2019/08/01 13:39:30","新北市板橋區民生路二段80號","121.471628333333","25.0182916666667","6500100","板橋區"
"220047","317-R6","2019/08/01 13:39:38","新北市板橋區民生路二段150號","121.471606666667","25.0195716666667","6500100","板橋區"
"220003","461-BY","2019/08/01 13:39:31","新北市板橋區忠孝路40號","121.460411666667","25.00187","6500100","板橋區"
"220038","487-VK","2019/08/01 13:39:23","新北市板橋區民生路二段161巷1號","121.470086666667","25.0200783333333","6500100","板橋區"
"220037","491-VK","2019/08/01 13:39:38","新北市板橋區民生路二段161巷1號","121.470195","25.020115","6500100","板橋區"
"220104","560-BX","2019/08/01 13:39:31","新北市板橋區南雅西路二段145巷6號","121.451598333333","25.0118766666667","6500100","板橋區"
"220052","561-BX","2019/08/01 13:39:29","新北市板橋區民生路二段107號","121.471285","25.0179616666667","6500100","板橋區"
"220011","609-BX","2019/08/01 13:39:13","新北市板橋區民生路二段161巷3號","121.470195","25.0197633333333","6500100","板橋區"
"220005","686-BX","2019/08/01 13:39:24","新北市板橋區南雅南路二段1-1號","121.454878333333","25.0039966666667","6500100","板橋區"
"220025","687-BX","2019/08/01 13:39:26","新北市板橋區溪崑一街6-2號","121.430575","24.9918716666667","6500100","板橋區"
"220002","741-BX","2019/08/01 13:39:38","新北市板橋區華東街1-9號","121.448141666667","24.994895","6500100","板橋區"
"220051","KEA-2699","2019/08/01 13:39:46","新北市板橋區莊敬路208巷8弄9號","121.470716666667","25.020315","6500100","板橋區"
"220014","829-TW","2019/08/01 13:39:41","新北市板橋區民生路二段120號","121.470301666667","25.0198616666667","6500100","板橋區"
"220022","895-R6","2019/08/01 13:39:40","新北市板橋區南雅南路一段42號","121.455693333333","25.0061533333333","6500100","板橋區"
"220021","985-R7","2019/08/01 13:39:36","新北市板橋區南雅南路二段15號","121.454035","24.9992366666667","6500100","板橋區"
"220046","AAC-210","2019/08/01 13:39:40","新北市板橋區民生路二段120號","121.470361666667","25.0195866666667","6500100","板橋區"
"220012","AAC-253","2019/08/01 13:39:39","新北市板橋區民生路二段36-1號","121.472121666667","25.0167783333333","6500100","板橋區"
"235032","KEA-2873","2019/08/01 13:39:20","新北市中和區圓通路265巷60號","121.496206666667","24.9924583333333","6500300","中和區"
"235025","KEA-2875","2019/08/01 13:39:35","新北市中和區民享街30巷2號","121.473736666667","25.003525","6500300","中和區"
