"lineid","car","time","location","longitude","latitude","cityid","cityname"
"248007","KED-0815","2019/08/01 15:29:36","新北市五股區中興路二段57-6號","121.460438333333","25.075385","6501500","五股區"
"231030","002-UM","2019/08/01 15:29:24","新北市新店區安和路三段61號","121.517946666667","24.9834416666667","6500600","新店區"
"231024","0291-UT","2019/08/01 15:29:39","新北市新店區中央一街37號","121.527425","24.973425","6500600","新店區"
"231005","046-UY","2019/08/01 15:29:29","新北市新店區建國路293巷2號","121.537031666667","24.9857933333333","6500600","新店區"
"231029","106-UY","2019/08/01 15:29:34","新北市新店區安康路三段578-1號","121.48112","24.94865","6500600","新店區"
"231018","107-UY","2019/08/01 15:29:41","新北市新店區民生路126號","121.52979","24.9825483333333","6500600","新店區"
"231013","108-UY","2019/08/01 15:29:47","新北市新店區永業路81巷5弄2號","121.530291666667","24.9488166666667","6500600","新店區"
"231036","110-UY","2019/08/01 15:29:41","新北市新店區安祥路67巷10號","121.483978333333","24.9597183333333","6500600","新店區"
"231039","187-VK","2019/08/01 15:29:30","新北市新店區寶元路一段95-1號","121.543715","24.98492","6500600","新店區"
"231023","260-TV","2019/08/01 15:29:44","新北市新店區五峰路26號","121.54362","24.9690466666667","6500600","新店區"
"231003","268-BY","2019/08/01 15:29:37","新北市新店區寶高路120巷1號","121.554626666667","24.97605","6500600","新店區"
"231035","278-BY","2019/08/01 15:29:30","新北市新店區安民街365巷14號","121.515725","24.9753866666667","6500600","新店區"
"231017","AAD-862","2019/08/01 15:26:55","新北市新店區明山路93號","121.56532","24.95714","6500600","新店區"
"231038","3712-VJ","2019/08/01 15:29:33","新北市新店區安康路一段355號","121.519893333333","24.9637016666667","6500600","新店區"
"231025","4715-K9","2019/08/01 15:29:29","新北市新店區柴埕路52巷3號","121.51191","24.9644416666667","6500600","新店區"
"231021","513-UM","2019/08/01 15:29:37","新北市新店區湖興路103-1號","121.562738333333","24.9331966666667","6500600","新店區"
"231002","619-UM","2019/08/01 15:29:32","新北市新店區環河路152號","121.535406666667","24.9662633333333","6500600","新店區"
"231034","641-BX","2019/08/01 15:29:27","新北市新店區富貴街10巷1號","121.494143333333","24.94952","6500600","新店區"
"231011","718-UY","2019/08/01 15:29:33","新北市新店區寶元路一段109號","121.545681666667","24.9831416666667","6500600","新店區"
"231026","720-UM","2019/08/01 15:29:35","新北市新店區三民路117巷3弄2號","121.534363333333","24.9714616666667","6500600","新店區"
"231028","897-TW","2019/08/01 15:29:32","新北市新店區僑信路132巷1號","121.500673333333","24.9457283333333","6500600","新店區"
"231001","898-TW","2019/08/01 15:29:37","新北市新店區光明街207號","121.53993","24.9637433333333","6500600","新店區"
"231004","899-TW","2019/08/01 15:29:39","新北市新店區民族路193號","121.537255","24.9763233333333","6500600","新店區"
"231037","AKT-0513","2019/08/01 15:29:30","新北市新店區安興路91巷27號","121.514085","24.9745333333333","6500600","新店區"
"241011","013-R5","2019/08/01 15:29:29","新北市三重區環河南路256號","121.491593333333","25.049885","6500200","三重區"
"241017","063-VK","2019/08/01 15:29:44","新北市三重區重新路四段121號","121.484553333333","25.0519016666667","6500200","三重區"
"241018","268-UM","2019/08/01 15:29:43","新北市三重區重新路四段121號","121.485231666667","25.052095","6500200","三重區"
"241020","478-VK","2019/08/01 15:29:40","新北市三重區重新路四段121號","121.484841666667","25.0524366666667","6500200","三重區"
"241022","KED-0820","2019/08/01 15:29:40","新北市三重區重新路四段121號","121.484775","25.0520333333333","6500200","三重區"
"241012","941-UM","2019/08/01 15:29:25","新北市三重區成功路6號","121.49012","25.050065","6500200","三重區"
"241029","942-UM","2019/08/01 15:29:44","新北市三重區重新路四段121號","121.484751666667","25.05194","6500200","三重區"
"241033","AAC-255","2019/08/01 15:29:42","新北市三重區重新路四段121號","121.482678333333","25.050915","6500200","三重區"
"235030","003-UY","2019/08/01 15:29:25","新北市中和區保平路326巷28號","121.50614","25.0048766666667","6500300","中和區"
"235019","183-VK","2019/08/01 15:29:30","新北市八里區中山路三段409號","121.368566666667","25.1349066666667","6500300","中和區"
"235020","269-TV","2019/08/01 15:29:31","新北市中和區華安街222號","121.469586666667","24.9976516666667","6500300","中和區"
"235014","4979-A6","2019/08/01 15:29:30","新北市中和區景新街129號","121.505766666667","24.9972416666667","6500300","中和區"
"235033","4980-A6","2019/08/01 15:29:27","新北市中和區連城路347巷29-1號","121.488463333333","24.9951","6500300","中和區"
"235026","800-TS","2019/08/01 15:29:39","新北市中和區橋和路107號","121.49108","25.0056516666667","6500300","中和區"
"235023","AAC-215","2019/08/01 15:29:43","新北市中和區圓通路459號","121.484196666667","24.9857483333333","6500300","中和區"
"228005","828-UM","2019/08/01 15:29:39","新北市貢寮區龍門里復興街29-2號","121.926815","25.0274","6502600","貢寮區"
"224007","285-BY","2019/08/01 15:29:24","新北市瑞芳區大寮路356-1號","121.784948333333","25.1030633333333","6501200","瑞芳區"
"227001","400-TW","2019/08/01 15:29:27","新北市雙溪區三貂里政光路3-1號","121.850875","25.0630666666667","6502500","雙溪區"
"207001","662-BX","2019/08/01 15:28:16","新北市萬里區野柳里八斗60-1號","121.676311666667","25.2003583333333","6502800","萬里區"
"236040","KED-0685","2019/08/01 15:29:35","新北市土城區學府路一段98巷14號","121.455931666667","24.988535","6501300","土城區"
"236074","166-UM","2019/08/01 15:29:41","新北市土城區溪頭路26號","121.412601666667","24.955355","6501300","土城區"
"236024","269-VK","2019/08/01 15:29:45","新北市土城區中央路二段88號","121.44229","24.9787","6501300","土城區"
"236012","270-VK","2019/08/01 15:29:36","新北市土城區廣明街8號","121.455978333333","24.991955","6501300","土城區"
"236032","271-VK","2019/08/01 15:29:46","新北市土城區明德路一段20巷2弄1號","121.464615","24.984905","6501300","土城區"
"236068","KEA-2877","2019/08/01 15:29:45","新北市土城區水源街32巷8號","121.441075","24.975815","6501300","土城區"
"236017","401-BY","2019/08/01 15:29:33","新北市土城區延吉街137巷13號","121.470956666667","24.985745","6501300","土城區"
"236029","752-BX","2019/08/01 15:29:43","新北市土城區中華路一段203號","121.442865","24.9849533333333","6501300","土城區"
"236057","912-UM","2019/08/01 15:29:39","新北市土城區中央路三段67號","121.438741666667","24.9693033333333","6501300","土城區"
"236045","913-UM","2019/08/01 15:29:42","新北市土城區青雲路145號","121.45877","24.984195","6501300","土城區"
"236060","915-UM","2019/08/01 15:29:45","新北市土城區金城路三段73巷9弄6號","121.466048333333","24.9876266666667","6501300","土城區"
"236054","AAC-216","2019/08/01 15:29:41","新北市土城區金城路三段202-3號","121.469476666667","24.988645","6501300","土城區"
"238002","755-BX","2019/08/01 15:29:43","新北市樹林區復興路189號","121.420806666667","24.9919966666667","6500700","樹林區"
"238010","601-UM","2019/08/01 15:29:40","新北市樹林區三福街114號","121.406421666667","25.0163216666667","6500700","樹林區"
"238006","599-UM","2019/08/01 15:29:35","新北市樹林區太元街66號","121.418571666667","24.9791016666667","6500700","樹林區"
"238011","5061-A6","2019/08/01 15:29:37","新北市樹林區八德街216-3號","121.416745","24.9728583333333","6500700","樹林區"
"238005","KEA-2217","2019/08/01 15:29:27","新北市樹林區保安街一段18-3號","121.427493333333","24.99341","6500700","樹林區"
"238009","KEA-2213","2019/08/01 15:29:36","新北市樹林區忠孝街15號","121.423423333333","24.982635","6500700","樹林區"
"238008","KEA-2539","2019/08/01 15:29:37","新北市樹林區柑園街一段59號","121.402663333333","24.9602366666667","6500700","樹林區"
"238012","303-VK","2019/08/01 15:29:34","新北市樹林區中山路一段115-4號","121.422708333333","24.9901933333333","6500700","樹林區"
"238004","283-BY","2019/08/01 15:29:37","新北市樹林區保安街二段333巷2號","121.412315","25.0076266666667","6500700","樹林區"
"238001","282-BY","2019/08/01 15:29:35","新北市樹林區中正路55巷9號","121.426358333333","24.9993666666667","6500700","樹林區"
"238007","268-VK","2019/08/01 15:29:42","新北市樹林區俊英街116巷31號","121.4284","25.0062933333333","6500700","樹林區"
"238013","172-UY","2019/08/01 15:29:43","新北市樹林區新興街19巷26號","121.401351666667","24.97339","6500700","樹林區"
"238003","169-UY","2019/08/01 15:29:34","新北市樹林區長壽街28巷4弄5號","121.42351","24.9945266666667","6500700","樹林區"
"221032","280-BY","2019/08/01 15:29:31","新北市汐止區連興街50號","121.654275","25.0634466666667","6501100","汐止區"
"220032","256-TC","2019/08/01 15:29:37","新北市樹林區中山路三段210-2號","121.38083","24.96715","6500100","板橋區"
"220031","286-VK","2019/08/01 15:29:27","新北市板橋區僑中二街102巷41號","121.44451","25.0084816666667","6500100","板橋區"
"220029","287-VK","2019/08/01 15:29:34","新北市板橋區大觀路二段121號","121.445701666667","25.0016033333333","6500100","板橋區"
"220012","AAC-253","2019/08/01 15:29:43","新北市板橋區長安街331巷65號","121.472795","25.0130966666667","6500100","板橋區"
