"lineid","car","time","location","longitude","latitude","cityid","cityname"
"249005","172-UM","2019/08/01 16:59:30","新北市八里區渡船頭1號","121.434126666667","25.152085","6502300","八里區"
"249001","173-UM","2019/08/01 16:59:28","新北市八里區中山路三段106號","121.391015","25.1422083333333","6502300","八里區"
"249004","303-UY","2019/08/01 16:59:42","新北市八里區忠孝路353號","121.416471666667","25.1611466666667","6502300","八里區"
"249003","593-UM","2019/08/01 16:59:43","新北市八里區中山路二段289號","121.401463333333","25.1484983333333","6502300","八里區"
"249002","759-BX","2019/08/01 16:56:27","新北市八里區牛寮埔29號","121.430773333333","25.1455383333333","6502300","八里區"
"244007","080-UY","2019/08/01 16:59:34","新北市林口區湖子17-2號","121.384281666667","25.09074","6501700","林口區"
"244023","483-VK","2019/08/01 16:59:43","新北市林口區中山路6號","121.39676","25.0782566666667","6501700","林口區"
"244009","656-BX","2019/08/01 16:59:36","新北市林口區中山路2-2號","121.396545","25.0788","6501700","林口區"
"244025","837-TS","2019/08/01 16:59:31","新北市林口區粉寮路二段16號","121.402078333333","25.0857166666667","6501700","林口區"
"244021","838-TS","2019/08/01 16:59:28","新北市林口區粉寮一街150-2號","121.40372","25.0867833333333","6501700","林口區"
"231046","719-UM","2019/08/01 16:59:31","新北市新店區灣潭路29-5號","121.539626666667","24.9386916666667","6500600","新店區"
"241011","013-R5","2019/08/01 16:59:29","新北市三重區仁愛街53巷154號","121.499688333333","25.0727616666667","6500200","三重區"
"241028","022-UY","2019/08/01 16:59:36","新北市三重區重新路三段90號","121.492971666667","25.0610883333333","6500200","三重區"
"241008","059-VK","2019/08/01 16:59:35","新北市三重區永福街179巷42號","121.477401666667","25.0746983333333","6500200","三重區"
"241016","060-VK","2019/08/01 16:59:28","新北市三重區國隆路2巷1號","121.493631666667","25.0635633333333","6500200","三重區"
"241031","061-VK","2019/08/01 16:59:32","新北市三重區重新路三段115巷6號","121.490416666667","25.0601033333333","6500200","三重區"
"241017","063-VK","2019/08/01 16:59:44","新北市三重區國隆路12巷2號","121.493101666667","25.0637816666667","6500200","三重區"
"241024","065-VK","2019/08/01 16:59:26","新北市三重區力行路二段2號","121.4819","25.0719916666667","6500200","三重區"
"241002","090-VK","2019/08/01 16:59:35","新北市三重區仁義街225巷37號","121.497753333333","25.0827416666667","6500200","三重區"
"241015","742-BX","2019/08/01 16:59:39","新北市三重區福德北路82號","121.501641666667","25.066415","6500200","三重區"
"241006","262-UM","2019/08/01 16:59:32","新北市三重區聯華街143號","121.484378333333","25.0751083333333","6500200","三重區"
"241009","267-UM","2019/08/01 16:59:36","新北市三重區仁美街108巷48號","121.48397","25.08023","6500200","三重區"
"241018","268-UM","2019/08/01 16:59:42","新北市三重區六張街126巷25弄3號","121.492245","25.0688933333333","6500200","三重區"
"241032","269-UM","2019/08/01 16:59:29","新北市三重區新北大道一段57巷8號","121.48514","25.0608666666667","6500200","三重區"
"241013","270-UM","2019/08/01 16:59:31","新北市三重區仁和街35號","121.496756666667","25.0736466666667","6500200","三重區"
"241025","271-UM","2019/08/01 16:59:29","新北市三重區中正北路508巷9號","121.472566666667","25.07114","6500200","三重區"
"241007","398-BY","2019/08/01 16:59:29","新北市三重區三和路四段181巷239號","121.487801666667","25.0805283333333","6500200","三重區"
"241004","475-VK","2019/08/01 16:59:29","新北市三重區五華街92巷19號","121.491508333333","25.0816133333333","6500200","三重區"
"241020","478-VK","2019/08/01 16:59:40","新北市三重區後竹圍街175巷29號","121.485563333333","25.0729616666667","6500200","三重區"
"241026","480-VK","2019/08/01 16:59:35","新北市三重區文化南路42號","121.500318333333","25.0600866666667","6500200","三重區"
"241014","543-UM","2019/08/01 16:59:29","新北市三重區三和路二段173巷145號","121.501151666667","25.0706166666667","6500200","三重區"
"241023","545-UM","2019/08/01 16:59:28","新北市三重區新北大道一段252號","121.480025","25.061685","6500200","三重區"
"241019","KEA-2593","2019/08/01 16:59:41","新北市三重區力行路一段123巷8號","121.486343333333","25.06864","6500200","三重區"
"241005","AAD-863","2019/08/01 16:59:40","新北市三重區仁華街71號","121.485113333333","25.08293","6500200","三重區"
"241022","KED-0820","2019/08/01 16:59:40","新北市三重區三民街122號","121.483605","25.06446","6500200","三重區"
"241001","887-TS","2019/08/01 16:59:38","新北市三重區仁政街11號","121.493428333333","25.0764416666667","6500200","三重區"
"241012","941-UM","2019/08/01 16:59:45","新北市三重區仁壽街143號","121.499326666667","25.0741916666667","6500200","三重區"
"241029","942-UM","2019/08/01 16:59:43","新北市三重區新興路1號","121.493046666667","25.05309","6500200","三重區"
"241033","AAC-255","2019/08/01 16:59:42","新北市三重區中興北街275號","121.469085","25.0607883333333","6500200","三重區"
"235064","005-UY","2019/08/01 16:53:22","新北市中和區員山路36巷16-3號","121.484968333333","24.9913233333333","6500300","中和區"
"247008","KED-0682","2019/08/01 16:59:29","新北市蘆洲區中山一路197巷28號","121.475035","25.079845","6501400","蘆洲區"
"235054","640-BX","2019/08/01 16:52:35","新北市中和區員山路36巷16-2號","121.485181666667","24.99157","6500300","中和區"
"247004","893-R6","2019/08/01 16:59:42","新北市蘆洲區長安街102巷5弄12號","121.461521666667","25.0820333333333","6501400","蘆洲區"
"247018","546-UM","2019/08/01 16:59:42","新北市蘆洲區民族路227巷4號","121.477265","25.089625","6501400","蘆洲區"
"247014","341-TH","2019/08/01 16:59:39","新北市蘆洲區中山二路16號","121.475008333333","25.0818283333333","6501400","蘆洲區"
"247024","337-TH","2019/08/01 16:59:44","新北市蘆洲區長興路202號","121.46057","25.0874716666667","6501400","蘆洲區"
"247002","336-TH","2019/08/01 16:59:41","新北市蘆洲區永平街8號","121.459458333333","25.0905333333333","6501400","蘆洲區"
"247022","057-VK","2019/08/01 16:59:46","新北市蘆洲區三民路128巷77號","121.468661666667","25.0919316666667","6501400","蘆洲區"
"247012","056-VK","2019/08/01 16:59:39","新北市蘆洲區信義路359號","121.477533333333","25.08752","6501400","蘆洲區"
"247016","053-VK","2019/08/01 16:59:33","新北市蘆洲區正和街22號","121.469921666667","25.082265","6501400","蘆洲區"
"247020","007-UY","2019/08/01 16:59:33","新北市蘆洲區民族路422巷35-1號","121.473526666667","25.09377","6501400","蘆洲區"
"247006","002-UY","2019/08/01 16:59:45","新北市蘆洲區永安南路二段240號","121.460251666667","25.079775","6501400","蘆洲區"
"228002","663-BX","2019/08/01 16:59:41","新北市貢寮區貢寮里朝陽街142號","121.905871666667","25.0231","6502600","貢寮區"
"228003","828-UM","2019/08/01 16:59:41","新北市貢寮區福隆里興隆街15號","121.943925","25.0165166666667","6502600","貢寮區"
"224006","676-BX","2019/08/01 16:59:44","新北市瑞芳區大寮路356-1號","121.78489","25.1031916666667","6501200","瑞芳區"
"224007","285-BY","2019/08/01 16:59:44","新北市瑞芳區頂埔巷51-3號","121.767083333333","25.1041666666667","6501200","瑞芳區"
"224009","275-VK","2019/08/01 16:59:36","新北市瑞芳區明燈路一段1號","121.826561666667","25.10932","6501200","瑞芳區"
"224008","273-VK","2019/08/01 16:59:27","新北市瑞芳區中正路2號","121.809326666667","25.1070133333333","6501200","瑞芳區"
"224005","271-BY","2019/08/01 16:59:15","新北市瑞芳區明里路54號","121.870785","25.1231883333333","6501200","瑞芳區"
"227002","642-TC","2019/08/01 16:59:45","新北市雙溪區上林里內平林82-1號","121.828981666667","25.0280866666667","6502500","雙溪區"
"227001","400-TW","2019/08/01 16:59:27","新北市雙溪區三貂里十三層9-5號","121.853416666667","25.077395","6502500","雙溪區"
"251004","009-UM","2019/08/01 16:59:26","新北市淡水區文化路63號","121.438135","25.17288","6501000","淡水區"
"251015","KEA-2871","2019/08/01 16:59:31","新北市淡水區忠愛街5-2號","121.46072","25.1715566666667","6501000","淡水區"
"251016","179-VK","2019/08/01 16:59:07","新北市淡水區瓦坑3號","121.477605","25.1808166666667","6501000","淡水區"
"251008","181-VK","2019/08/01 16:59:18","新北市淡水區樹梅坑9號","121.47283","25.1426866666667","6501000","淡水區"
"251013","182-VK","2019/08/01 16:59:34","新北市淡水區泉洲厝32號","121.489276666667","25.1926066666667","6501000","淡水區"
"251012","441-VK","2019/08/01 16:59:27","新北市淡水區中正路二段31號","121.419631666667","25.182","6501000","淡水區"
"251007","442-VK","2019/08/01 16:59:36","新北市淡水區中正東路36號","121.448745","25.1658466666667","6501000","淡水區"
"251005","443-VK","2019/08/01 16:59:39","新北市淡水區水源街一段145號","121.447381666667","25.1718266666667","6501000","淡水區"
"251006","561-UM","2019/08/01 16:59:37","新北市淡水區中正路一段122號","121.423071666667","25.17841","6501000","淡水區"
"251009","575-R6","2019/08/01 16:59:44","新北市淡水區中正路二段31號","121.419458333333","25.1816133333333","6501000","淡水區"
"251014","577-R6","2019/08/01 16:59:32","新北市淡水區淡金路四段476號","121.452405","25.22391","6501000","淡水區"
"251011","650-BX","2019/08/01 16:59:41","新北市淡水區淡金路57號","121.456278333333","25.1612266666667","6501000","淡水區"
"252002","178-VK","2019/08/01 16:59:34","新北市三芝區忠孝街145號","121.506146666667","25.26071","6502100","三芝區"
"233002","762-BX","2019/08/01 16:59:34","新北市烏來區環山路64號","121.548216666667","24.8643666666667","6502900","烏來區"
"247010","KED-0683","2019/08/01 16:59:31","新北市蘆洲區信義路172號","121.479246666667","25.0839483333333","6501400","蘆洲區"
"252001","KED-0821","2019/08/01 16:59:25","新北市三芝區淡金路二段45號","121.503451666667","25.26043","6502100","三芝區"
"242039","AAC-296","2019/08/01 16:59:29","新北市新莊區新泰路357巷3弄57號","121.442265","25.0395316666667","6500500","新莊區"
"242061","986-R7","2019/08/01 16:59:40","新北市新莊區新泰路255巷83號","121.442373333333","25.039155","6500500","新莊區"
"242029","615-BX","2019/08/01 16:59:36","新北市新莊區新泰路357巷1弄57號","121.44251","25.03957","6500500","新莊區"
"242058","612-BX","2019/08/01 16:59:27","新北市新莊區新泰路255巷83號","121.442323333333","25.0392","6500500","新莊區"
"242011","413-TV","2019/08/01 16:59:30","新北市新莊區新泰路357巷3弄57號","121.441961666667","25.0394016666667","6500500","新莊區"
"242048","400-BY","2019/08/01 16:54:44","新北市新莊區新泰路357巷3弄57號","121.442126666667","25.0395483333333","6500500","新莊區"
"242023","353-BY","2019/08/01 16:59:40","新北市新莊區新泰路357巷3弄57號","121.44211","25.0392216666667","6500500","新莊區"
"242021","175-VK","2019/08/01 16:59:33","新北市新莊區三和路12-21號","121.441908333333","25.03879","6500500","新莊區"
"242019","KED-0687","2019/08/01 16:59:30","新北市新莊區三和路12-21號","121.442146666667","25.038035","6500500","新莊區"
"242034","348-TH","2019/08/01 16:59:36","新北市新莊區新泰路255巷83號","121.442208333333","25.0389216666667","6500500","新莊區"
"242017","351-TH","2019/08/01 16:59:37","新北市新莊區新泰路357巷3弄57號","121.442061666667","25.0394816666667","6500500","新莊區"
"238023","601-UM","2019/08/01 16:59:40","新北市樹林區中正路433-1號","121.414933333333","25.00794","6500700","樹林區"
"238025","303-VK","2019/08/01 16:59:34","新北市樹林區中正路22-1號","121.427805","24.9993266666667","6500700","樹林區"
"238001","282-BY","2019/08/01 16:59:35","新北市樹林區中正路22-1號","121.427763333333","24.9995466666667","6500700","樹林區"
"239007","AAC-297","2019/08/01 16:59:40","新北市鶯歌區二甲路12-2號","121.345645","24.935075","6500800","鶯歌區"
"239006","891-R6","2019/08/01 16:59:36","新北市鶯歌區二甲路13-16號","121.34515","24.9353366666667","6500800","鶯歌區"
"239008","527-UM","2019/08/01 16:59:33","新北市鶯歌區二甲路13-16號","121.345125","24.9351133333333","6500800","鶯歌區"
"239002","359-BY","2019/08/01 16:59:26","新北市鶯歌區環河路177-1號","121.346021666667","24.9355283333333","6500800","鶯歌區"
"239004","193-VK","2019/08/01 16:56:46","新北市鶯歌區二甲路175號","121.34482","24.9356183333333","6500800","鶯歌區"
"244019","KED-0667","2019/08/01 16:59:39","新北市林口區粉寮69號","121.405046666667","25.0908233333333","6501700","林口區"
"233001","KEA-2870","2019/08/01 16:59:27","新北市烏來區溫泉街86巷10號","121.549833333333","24.8616466666667","6502900","烏來區"
"242044","281-VK","2019/08/01 16:59:40","新北市新莊區三和路12-21號","121.442276666667","25.0382933333333","6500500","新莊區"
"242009","280-VK","2019/08/01 16:59:29","新北市新莊區三和路12-21號","121.442048333333","25.0382733333333","6500500","新莊區"
