"lineid","car","time","location","longitude","latitude","cityid","cityname"
"249005","172-UM","2019/08/01 17:09:30","新北市八里區華富山5-1號","121.418896666667","25.1429933333333","6502300","八里區"
"249001","173-UM","2019/08/01 17:09:28","新北市八里區中華路二段310號","121.403855","25.14829","6502300","八里區"
"249004","303-UY","2019/08/01 17:09:42","新北市八里區忠孝路167號","121.423806666667","25.160705","6502300","八里區"
"249003","593-UM","2019/08/01 17:09:43","新北市八里區中山路二段405號","121.397776666667","25.146515","6502300","八里區"
"249002","759-BX","2019/08/01 17:09:27","新北市八里區米倉13-3號","121.43875","25.1496683333333","6502300","八里區"
"244007","080-UY","2019/08/01 17:09:34","新北市林口區菁埔10-11號","121.379415","25.0966116666667","6501700","林口區"
"244023","483-VK","2019/08/01 17:09:43","新北市林口區仁愛路一段647號","121.388526666667","25.0766366666667","6501700","林口區"
"244017","485-VK","2019/08/01 17:09:41","新北市林口區粉寮69號","121.404908333333","25.090865","6501700","林口區"
"244009","656-BX","2019/08/01 17:09:36","新北市林口區文化三路二段451號","121.381051666667","25.089645","6501700","林口區"
"244011","701-TV","2019/08/01 17:09:42","新北市林口區粉寮69號","121.404843333333","25.0907933333333","6501700","林口區"
"244025","837-TS","2019/08/01 17:09:31","新北市林口區富貴路85號","121.378213333333","25.0834933333333","6501700","林口區"
"244021","838-TS","2019/08/01 17:09:28","新北市林口區粉寮路二段88巷22-1號","121.406543333333","25.0884883333333","6501700","林口區"
"231046","719-UM","2019/08/01 17:02:11","","121.542506666667","24.943125","6500600","新店區"
"241011","013-R5","2019/08/01 17:09:29","新北市三重區龍門路230號","121.5004","25.073535","6500200","三重區"
"241028","022-UY","2019/08/01 17:09:36","新北市三重區重新路三段110號","121.492246666667","25.0602866666667","6500200","三重區"
"241008","059-VK","2019/08/01 17:09:15","新北市三重區下竹圍街73號","121.481265","25.0754383333333","6500200","三重區"
"241016","060-VK","2019/08/01 17:09:28","新北市三重區中正北路25巷25弄4號","121.493328333333","25.06268","6500200","三重區"
"241031","061-VK","2019/08/01 17:09:29","新北市三重區重陽路一段113巷1弄1號","121.487248333333","25.0599183333333","6500200","三重區"
"241017","063-VK","2019/08/01 17:09:44","新北市三重區明志街4號","121.492208333333","25.0641083333333","6500200","三重區"
"241024","065-VK","2019/08/01 17:09:35","新北市三重區大勇街82巷9號","121.479543333333","25.0715966666667","6500200","三重區"
"241002","090-VK","2019/08/01 17:09:35","新北市三重區自強路五段39-1號","121.493926666667","25.0812316666667","6500200","三重區"
"241015","742-BX","2019/08/01 17:09:33","新北市三重區文化北路61-2號","121.498678333333","25.0663016666667","6500200","三重區"
"241006","262-UM","2019/08/01 17:00:32","新北市三重區聯華街143號","121.484378333333","25.0751083333333","6500200","三重區"
"241009","267-UM","2019/08/01 17:09:36","新北市三重區仁愛街680-1號","121.481951666667","25.0801333333333","6500200","三重區"
"241018","268-UM","2019/08/01 17:09:42","新北市三重區大智街172-1號","121.491648333333","25.06924","6500200","三重區"
"241032","269-UM","2019/08/01 17:09:41","新北市三重區三陽路3號","121.486223333333","25.0589216666667","6500200","三重區"
"241013","270-UM","2019/08/01 17:09:31","新北市三重區仁孝街30號","121.496465","25.07407","6500200","三重區"
"241025","271-UM","2019/08/01 17:09:29","新北市三重區中正北路560巷35號","121.470873333333","25.0708383333333","6500200","三重區"
"241007","398-BY","2019/08/01 17:09:29","新北市三重區三和路四段135巷35號","121.486923333333","25.0787483333333","6500200","三重區"
"241024","462-BY","2019/08/01 17:09:32","新北市三重區名源街37巷4號","121.480306666667","25.0601633333333","6500200","三重區"
"241004","475-VK","2019/08/01 17:09:29","新北市三重區五華街92巷3號","121.492568333333","25.0822433333333","6500200","三重區"
"241020","478-VK","2019/08/01 17:09:40","新北市三重區自強路三段16號","121.486846666667","25.0721483333333","6500200","三重區"
"241026","480-VK","2019/08/01 17:09:35","新北市三重區重新路二段1號","121.49967","25.0630033333333","6500200","三重區"
"241014","543-UM","2019/08/01 17:09:29","新北市三重區龍濱路207號","121.501878333333","25.0716783333333","6500200","三重區"
"241023","545-UM","2019/08/01 17:09:28","新北市三重區忠孝路三段84巷5號","121.4802","25.0644616666667","6500200","三重區"
"241019","KEA-2593","2019/08/01 17:09:41","新北市三重區三張街184號","121.4855","25.06917","6500200","三重區"
"241005","AAD-863","2019/08/01 17:09:40","新北市三重區仁愛街650號","121.482796666667","25.0805616666667","6500200","三重區"
"241022","KED-0820","2019/08/01 17:09:40","新北市三重區三民街133號","121.484803333333","25.06386","6500200","三重區"
"241001","887-TS","2019/08/01 17:09:38","新北市三重區仁愛街255巷33號","121.494135","25.0787866666667","6500200","三重區"
"241012","941-UM","2019/08/01 17:09:25","新北市三重區河邊北街248巷11號","121.501433333333","25.0758383333333","6500200","三重區"
"241029","942-UM","2019/08/01 17:09:44","新北市三重區重安街104號","121.49317","25.0558533333333","6500200","三重區"
"241033","AAC-255","2019/08/01 17:09:42","新北市三重區中興北街275號","121.469198333333","25.060815","6500200","三重區"
"235064","005-UY","2019/08/01 17:09:13","新北市中和區員山路36巷16-3號","121.485108333333","24.991415","6500300","中和區"
"247008","KED-0682","2019/08/01 17:09:29","新北市蘆洲區信義路30巷24號","121.47442","25.0786383333333","6501400","蘆洲區"
"235054","640-BX","2019/08/01 16:52:35","新北市中和區員山路36巷16-2號","121.485181666667","24.99157","6500300","中和區"
"247004","893-R6","2019/08/01 17:09:42","新北市蘆洲區長安街193巷18號","121.459791666667","25.081585","6501400","蘆洲區"
"247018","546-UM","2019/08/01 17:09:42","新北市蘆洲區復興路113號","121.477291666667","25.0881266666667","6501400","蘆洲區"
"247014","341-TH","2019/08/01 17:09:39","新北市蘆洲區中央路37巷15-15號","121.47319","25.0825283333333","6501400","蘆洲區"
"247024","337-TH","2019/08/01 17:09:44","新北市蘆洲區光復路16號","121.463016666667","25.0840616666667","6501400","蘆洲區"
"247002","336-TH","2019/08/01 17:09:41","新北市蘆洲區永樂街108號","121.455818333333","25.0888583333333","6501400","蘆洲區"
"247022","057-VK","2019/08/01 17:09:46","新北市蘆洲區水湳街97號","121.470196666667","25.090245","6501400","蘆洲區"
"247012","056-VK","2019/08/01 17:09:39","新北市蘆洲區信義路353號","121.477571666667","25.0873783333333","6501400","蘆洲區"
"247016","053-VK","2019/08/01 17:09:33","新北市蘆洲區光華路75號","121.467993333333","25.0825933333333","6501400","蘆洲區"
"247020","007-UY","2019/08/01 17:09:33","新北市蘆洲區仁愛街81號","121.471263333333","25.0940416666667","6501400","蘆洲區"
"247006","002-UY","2019/08/01 17:09:42","新北市蘆洲區中華街6巷3號","121.462445","25.08246","6501400","蘆洲區"
"228001","212-TW","2019/08/01 17:09:26","新北市貢寮區仁理村研海街62號","121.929285","25.0346166666667","6502600","貢寮區"
"228002","663-BX","2019/08/01 17:09:41","新北市貢寮區龍崗里泮宮路43號","121.907885","25.0173166666667","6502600","貢寮區"
"228003","828-UM","2019/08/01 17:09:41","新北市貢寮區福隆里東興街31-1號","121.952436666667","25.0206766666667","6502600","貢寮區"
"224006","676-BX","2019/08/01 17:09:44","新北市瑞芳區大寮路101-2號","121.778518333333","25.09933","6501200","瑞芳區"
"224007","285-BY","2019/08/01 17:09:44","新北市瑞芳區楓子瀨路54-1號","121.768896666667","25.1035916666667","6501200","瑞芳區"
"224009","275-VK","2019/08/01 17:09:36","新北市瑞芳區濱二路30號","121.842223333333","25.1144716666667","6501200","瑞芳區"
"224008","273-VK","2019/08/01 17:09:27","新北市瑞芳區明燈路一段200號","121.830868333333","25.1027716666667","6501200","瑞芳區"
"224005","271-BY","2019/08/01 17:09:35","新北市瑞芳區鼻頭路131號","121.916108333333","25.1223583333333","6501200","瑞芳區"
"227002","642-TC","2019/08/01 17:09:26","新北市雙溪區上林里內平林12號","121.837113333333","25.0297133333333","6502500","雙溪區"
"227001","400-TW","2019/08/01 17:09:27","新北市雙溪區三貂里政光路13-8號","121.850433333333","25.0690683333333","6502500","雙溪區"
"251004","009-UM","2019/08/01 17:09:46","新北市淡水區中正東路二段101號","121.459208333333","25.1519716666667","6501000","淡水區"
"251015","KEA-2871","2019/08/01 17:09:31","新北市淡水區忠愛街2號","121.455928333333","25.1722883333333","6501000","淡水區"
"251016","179-VK","2019/08/01 17:08:04","新北市淡水區社厝坑1號","121.476471666667","25.18885","6501000","淡水區"
"251008","181-VK","2019/08/01 17:09:39","新北市淡水區樹梅坑16號","121.471206666667","25.14307","6501000","淡水區"
"251013","182-VK","2019/08/01 17:09:34","新北市淡水區桂花樹1號","121.482916666667","25.1966866666667","6501000","淡水區"
"251012","441-VK","2019/08/01 17:09:27","新北市淡水區大義街3號","121.44358","25.1781683333333","6501000","淡水區"
"251007","442-VK","2019/08/01 17:09:36","新北市淡水區民生路110號","121.463471666667","25.1382516666667","6501000","淡水區"
"251005","443-VK","2019/08/01 17:09:40","新北市淡水區中正東路36號","121.449055","25.1660166666667","6501000","淡水區"
"251006","561-UM","2019/08/01 17:09:37","新北市淡水區新民街19巷12號","121.438425","25.1746966666667","6501000","淡水區"
"251009","575-R6","2019/08/01 17:09:44","新北市淡水區中正路二段38號","121.419411666667","25.18237","6501000","淡水區"
"251014","577-R6","2019/08/01 17:09:32","新北市淡水區八里堆7號","121.459898333333","25.2249516666667","6501000","淡水區"
"251011","650-BX","2019/08/01 17:09:41","新北市淡水區坪頂路49號","121.457816666667","25.1625283333333","6501000","淡水區"
"252002","178-VK","2019/08/01 17:09:34","新北市三芝區忠孝街1-37號","121.505756666667","25.2534433333333","6502100","三芝區"
"233002","762-BX","2019/08/01 17:09:34","新北市烏來區環山路171號","121.549468333333","24.8560133333333","6502900","烏來區"
"247010","KED-0683","2019/08/01 17:09:30","新北市蘆洲區民族路22號","121.476045","25.08417","6501400","蘆洲區"
"252001","KED-0821","2019/08/01 17:09:26","新北市三芝區埔頭里埔頭18-2號","121.493518333333","25.2602883333333","6502100","三芝區"
"242039","AAC-296","2019/08/01 17:09:29","新北市新莊區三和路12-11號","121.442311666667","25.0370066666667","6500500","新莊區"
"242061","986-R7","2019/08/01 17:09:40","新北市新莊區新泰路255巷83號","121.442296666667","25.0390566666667","6500500","新莊區"
"242002","751-BX","2019/08/01 17:09:32","新北市新莊區新泰路357巷3弄1號","121.4424","25.041475","6500500","新莊區"
"242029","615-BX","2019/08/01 17:09:36","新北市新莊區新泰路357巷3弄57號","121.44212","25.0393516666667","6500500","新莊區"
"242058","612-BX","2019/08/01 17:09:47","新北市新莊區新泰路255巷83號","121.4423","25.0391416666667","6500500","新莊區"
"242051","497-BY","2019/08/01 17:09:38","新北市新莊區新泰路357巷3弄19號","121.442055","25.040785","6500500","新莊區"
"242007","442-UM","2019/08/01 17:09:44","新北市新莊區新泰路255巷83號","121.442085","25.03896","6500500","新莊區"
"242056","441-UM","2019/08/01 17:09:39","新北市新莊區新泰路401巷29-1號","121.442083333333","25.0439216666667","6500500","新莊區"
"242004","440-UM","2019/08/01 17:09:38","新北市新莊區新泰路255巷65號","121.443566666667","25.0389533333333","6500500","新莊區"
"242011","413-TV","2019/08/01 17:09:30","新北市新莊區新泰路255巷83號","121.442413333333","25.0392133333333","6500500","新莊區"
"242048","400-BY","2019/08/01 17:09:36","新北市新莊區新泰路357巷3弄39號","121.442055","25.04033","6500500","新莊區"
"242023","353-BY","2019/08/01 17:09:40","新北市新莊區新泰路357巷3弄57號","121.442075","25.0392266666667","6500500","新莊區"
"242015","173-VK","2019/08/01 17:09:42","新北市新莊區三和路12-21號","121.441866666667","25.0387233333333","6500500","新莊區"
"242021","175-VK","2019/08/01 17:09:32","新北市新莊區三和路12-9號","121.442108333333","25.036665","6500500","新莊區"
"242019","KED-0687","2019/08/01 17:09:30","新北市新莊區三和路12-21號","121.4422","25.0380366666667","6500500","新莊區"
"242034","348-TH","2019/08/01 17:09:36","新北市新莊區新泰路255巷83號","121.442098333333","25.0388933333333","6500500","新莊區"
"242031","350-TH","2019/08/01 17:09:34","新北市新莊區三和路18-23號","121.441596666667","25.0389033333333","6500500","新莊區"
"242017","351-TH","2019/08/01 17:09:37","新北市新莊區新泰路357巷3弄57號","121.442098333333","25.0395","6500500","新莊區"
"238023","601-UM","2019/08/01 17:09:40","新北市樹林區中正路433-1號","121.414938333333","25.0079266666667","6500700","樹林區"
"238019","599-UM","2019/08/01 17:09:34","新北市樹林區育德街78-1號","121.387613333333","24.968125","6500700","樹林區"
"238018","KEA-2217","2019/08/01 17:09:31","新北市樹林區環河路10號","121.426706666667","24.9787183333333","6500700","樹林區"
"238022","KEA-2213","2019/08/01 17:06:16","","121.419331666667","24.9737916666667","6500700","樹林區"
"238021","KEA-2539","2019/08/01 17:09:42","新北市樹林區西圳街一段165巷2號","121.395401666667","24.96199","6500700","樹林區"
"238025","303-VK","2019/08/01 17:09:34","新北市樹林區中正路22-1號","121.427803333333","24.9993333333333","6500700","樹林區"
"238017","283-BY","2019/08/01 17:09:37","新北市樹林區光武街7-3號","121.415771666667","25.0053916666667","6500700","樹林區"
"238014","282-BY","2019/08/01 17:09:35","新北市樹林區中正路22-1號","121.427851666667","24.9994216666667","6500700","樹林區"
"238020","268-VK","2019/08/01 17:09:42","新北市樹林區中正路22-1號","121.427968333333","24.9992616666667","6500700","樹林區"
"238026","172-UY","2019/08/01 17:09:06","新北市樹林區中山路三段214號","121.379643333333","24.967485","6500700","樹林區"
"239007","AAC-297","2019/08/01 17:09:40","新北市鶯歌區公有市場9號","121.352965","24.954145","6500800","鶯歌區"
"239006","891-R6","2019/08/01 17:09:36","新北市鶯歌區八德路2巷39號","121.33673","24.946585","6500800","鶯歌區"
"239008","527-UM","2019/08/01 17:09:33","新北市鶯歌區尖山路83號","121.34874","24.9493883333333","6500800","鶯歌區"
"239005","526-UM","2019/08/01 17:09:41","新北市鶯歌區德昌二街33號","121.33335","24.95886","6500800","鶯歌區"
"239001","417-VK","2019/08/01 17:09:40","新北市鶯歌區尖山路140巷6弄1號","121.346581666667","24.9489216666667","6500800","鶯歌區"
"239002","359-BY","2019/08/01 17:09:46","新北市鶯歌區建國路190號","121.34954","24.9535166666667","6500800","鶯歌區"
"239004","193-VK","2019/08/01 17:09:26","新北市鶯歌區文化路324巷4弄2號","121.349708333333","24.94526","6500800","鶯歌區"
"244019","KED-0667","2019/08/01 17:09:39","新北市林口區中山路68-1號","121.393388333333","25.0785716666667","6501700","林口區"
"233001","KEA-2870","2019/08/01 17:09:27","新北市烏來區環山路42號","121.548586666667","24.8643816666667","6502900","烏來區"
"242044","281-VK","2019/08/01 17:09:40","新北市新莊區中正路400號","121.441915","25.0343766666667","6500500","新莊區"
"242009","280-VK","2019/08/01 17:09:29","新北市新莊區三和路12-21號","121.441861666667","25.0383533333333","6500500","新莊區"
