"lineid","car","time","location","longitude","latitude","cityid","cityname"
"249005","172-UM","2019/08/01 17:19:31","新北市八里區荖阡坑路50-1號","121.411503333333","25.12184","6502300","八里區"
"249001","173-UM","2019/08/01 17:19:28","新北市八里區中華路二段165巷3號","121.40767","25.1508383333333","6502300","八里區"
"249004","303-UY","2019/08/01 17:19:42","新北市八里區賢三街20號","121.418665","25.158855","6502300","八里區"
"249003","593-UM","2019/08/01 17:19:43","新北市八里區中山路二段437號","121.396816666667","25.14592","6502300","八里區"
"249002","759-BX","2019/08/01 17:19:47","新北市八里區龍米路二段117巷25號","121.446146666667","25.142845","6502300","八里區"
"244007","080-UY","2019/08/01 17:19:34","新北市林口區湖北里2鄰9號","121.387595","25.0895983333333","6501700","林口區"
"244013","KEA-2802","2019/08/01 17:19:31","新北市林口區粉寮69號","121.404755","25.0907883333333","6501700","林口區"
"244023","483-VK","2019/08/01 17:19:43","新北市林口區隆林街94號","121.385905","25.0751466666667","6501700","林口區"
"244017","485-VK","2019/08/01 17:19:41","新北市林口區粉寮路一段149-4號","121.39928","25.0814033333333","6501700","林口區"
"244009","656-BX","2019/08/01 17:19:36","新北市林口區中華路283號","121.383241666667","25.0911216666667","6501700","林口區"
"244011","701-TV","2019/08/01 17:19:42","新北市林口區仁愛路一段252號","121.39471","25.07586","6501700","林口區"
"244025","837-TS","2019/08/01 17:19:31","新北市林口區仁愛二路65號","121.36841","25.0755033333333","6501700","林口區"
"244021","838-TS","2019/08/01 17:19:28","新北市林口區粉寮路二段358-11號","121.406651666667","25.0970033333333","6501700","林口區"
"231046","719-UM","2019/08/01 17:12:31","新北市新店區直潭十街27號","121.534705","24.9385533333333","6500600","新店區"
"241011","013-R5","2019/08/01 17:19:29","新北市三重區河邊北街100巷28號","121.502706666667","25.0701116666667","6500200","三重區"
"241028","022-UY","2019/08/01 17:19:36","新北市三重區中正南路93號","121.494313333333","25.05812","6500200","三重區"
"241008","059-VK","2019/08/01 17:19:35","新北市三重區永福街72巷37-6號","121.480743333333","25.0761983333333","6500200","三重區"
"241016","060-VK","2019/08/01 17:19:48","新北市三重區大同北路97-3號","121.494413333333","25.063605","6500200","三重區"
"241017","063-VK","2019/08/01 17:19:44","新北市三重區大同北路91號","121.49475","25.0636266666667","6500200","三重區"
"241024","065-VK","2019/08/01 17:19:46","新北市三重區中正北路193巷11弄23號","121.478246666667","25.0704483333333","6500200","三重區"
"241002","090-VK","2019/08/01 17:19:35","新北市三重區仁義街230巷2號","121.494646666667","25.0849983333333","6500200","三重區"
"241015","742-BX","2019/08/01 17:19:13","新北市三重區環河南路24號","121.503913333333","25.062035","6500200","三重區"
"241006","262-UM","2019/08/01 17:19:32","新北市三重區車路頭街135號","121.484208333333","25.07581","6500200","三重區"
"241009","267-UM","2019/08/01 17:19:36","新北市三重區三和路四段143-1號","121.484321666667","25.0782816666667","6500200","三重區"
"241018","268-UM","2019/08/01 17:19:42","新北市三重區安慶街130號","121.494845","25.06889","6500200","三重區"
"241032","269-UM","2019/08/01 17:19:29","新北市三重區興華街130號","121.483226666667","25.0597316666667","6500200","三重區"
"241013","270-UM","2019/08/01 17:19:31","新北市三重區仁愛街141巷6號","121.495575","25.07546","6500200","三重區"
"241025","271-UM","2019/08/01 17:19:29","新北市三重區中正北路201號","121.476836666667","25.0698033333333","6500200","三重區"
"241007","398-BY","2019/08/01 17:19:29","新北市三重區三和路四段153號","121.484093333333","25.07843","6500200","三重區"
"241024","462-BY","2019/08/01 17:19:32","新北市三重區中正北路193巷43號","121.475711666667","25.070955","6500200","三重區"
"241004","475-VK","2019/08/01 17:19:29","新北市三重區五華街110巷1號","121.492043333333","25.082825","6500200","三重區"
"241020","478-VK","2019/08/01 17:19:40","新北市三重區後竹圍街104號","121.489175","25.0725816666667","6500200","三重區"
"241026","480-VK","2019/08/01 17:19:35","新北市三重區福裕街37號","121.499043333333","25.06151","6500200","三重區"
"241014","543-UM","2019/08/01 17:19:29","新北市三重區長榮路3號","121.50018","25.0683816666667","6500200","三重區"
"241019","KEA-2593","2019/08/01 17:19:41","新北市三重區自強路二段50巷19-1號","121.488373333333","25.0694466666667","6500200","三重區"
"241005","AAD-863","2019/08/01 17:19:40","新北市蘆洲區重陽一街1號","121.48186","25.0814383333333","6500200","三重區"
"241022","KED-0820","2019/08/01 17:19:40","新北市三重區重陽路二段34巷14號","121.486495","25.06329","6500200","三重區"
"241001","887-TS","2019/08/01 17:19:38","新北市三重區仁愛街300號","121.492273333333","25.0794116666667","6500200","三重區"
"241012","941-UM","2019/08/01 17:19:25","新北市三重區仁昌街89號","121.499248333333","25.0748","6500200","三重區"
"241029","942-UM","2019/08/01 17:19:43","新北市三重區重新路四段120號","121.486961666667","25.0567866666667","6500200","三重區"
"241033","AAC-255","2019/08/01 17:19:42","新北市三重區中興北街191號","121.469028333333","25.05642","6500200","三重區"
"235064","005-UY","2019/08/01 17:19:33","新北市中和區員山路36巷16-3號","121.485081666667","24.9910633333333","6500300","中和區"
"247008","KED-0682","2019/08/01 17:19:29","新北市蘆洲區永安北路一段72巷13號","121.476523333333","25.0770083333333","6501400","蘆洲區"
"235054","640-BX","2019/08/01 16:52:35","新北市中和區員山路36巷16-2號","121.485181666667","24.99157","6500300","中和區"
"247004","893-R6","2019/08/01 17:19:42","新北市蘆洲區永安南路二段276號","121.45805","25.0809133333333","6501400","蘆洲區"
"247018","546-UM","2019/08/01 17:19:42","新北市蘆洲區民權路68巷11號","121.4755","25.08778","6501400","蘆洲區"
"247014","341-TH","2019/08/01 17:19:39","新北市蘆洲區中正路73號","121.470366666667","25.0831783333333","6501400","蘆洲區"
"247024","337-TH","2019/08/01 17:19:44","新北市蘆洲區長榮路166號","121.460968333333","25.0851016666667","6501400","蘆洲區"
"247002","336-TH","2019/08/01 17:15:21","新北市蘆洲區永樂街38巷19弄23號","121.456955","25.0892116666667","6501400","蘆洲區"
"247022","057-VK","2019/08/01 17:19:45","新北市蘆洲區三民路128巷26號","121.470763333333","25.0882466666667","6501400","蘆洲區"
"247012","056-VK","2019/08/01 17:19:39","新北市蘆洲區信義路319巷12號","121.477751666667","25.0862133333333","6501400","蘆洲區"
"247020","007-UY","2019/08/01 17:19:33","新北市蘆洲區民族路428號","121.473701666667","25.0920283333333","6501400","蘆洲區"
"247006","002-UY","2019/08/01 17:19:42","新北市蘆洲區永安南路二段160號","121.46162","25.0789933333333","6501400","蘆洲區"
"228001","212-TW","2019/08/01 17:19:26","新北市貢寮區仁理村尖山腳街18-3號","121.92549","25.048335","6502600","貢寮區"
"228002","663-BX","2019/08/01 17:19:41","新北市貢寮區雙玉里下雙溪街26號","121.924105","25.0104166666667","6502600","貢寮區"
"228003","828-UM","2019/08/01 17:19:41","新北市貢寮區福隆里興隆街20號","121.944793333333","25.0166583333333","6502600","貢寮區"
"224006","676-BX","2019/08/01 17:19:24","新北市瑞芳區大寮路14號","121.783931666667","25.0993216666667","6501200","瑞芳區"
"224007","285-BY","2019/08/01 17:19:44","新北市瑞芳區靜安路四段26號","121.799061666667","25.089895","6501200","瑞芳區"
"224009","275-VK","2019/08/01 17:19:36","新北市瑞芳區石崁巷49號","121.837636666667","25.1095716666667","6501200","瑞芳區"
"224008","273-VK","2019/08/01 17:19:28","新北市瑞芳區柴寮路36號","121.827011666667","25.0863166666667","6501200","瑞芳區"
"224005","271-BY","2019/08/01 17:19:35","新北市瑞芳區鼻頭路247號","121.912686666667","25.12393","6501200","瑞芳區"
"227002","642-TC","2019/08/01 17:19:45","新北市雙溪區平林里梅竹蹊24號","121.861736666667","25.035985","6502500","雙溪區"
"227001","400-TW","2019/08/01 17:19:26","新北市雙溪區三貂里定福路1號","121.850243333333","25.0639566666667","6502500","雙溪區"
"251004","009-UM","2019/08/01 17:14:51","新北市淡水區中正東路二段88巷15號","121.459031666667","25.1505066666667","6501000","淡水區"
"251010","012-UM","2019/08/01 17:19:38","新北市淡水區沙崙路97-1號","121.422068333333","25.1819266666667","6501000","淡水區"
"251015","KEA-2871","2019/08/01 17:19:31","新北市淡水區樹林口25號","121.475635","25.1690116666667","6501000","淡水區"
"251016","179-VK","2019/08/01 17:19:27","新北市淡水區鄒厝崙7號","121.469961666667","25.1884766666667","6501000","淡水區"
"251008","181-VK","2019/08/01 17:19:39","新北市淡水區大同路293號","121.467608333333","25.1422683333333","6501000","淡水區"
"251013","182-VK","2019/08/01 17:19:35","新北市淡水區破瓦厝子3-3號","121.472355","25.19721","6501000","淡水區"
"251012","441-VK","2019/08/01 17:19:28","新北市淡水區中山北路一段158號","121.444188333333","25.17784","6501000","淡水區"
"251007","442-VK","2019/08/01 17:19:36","新北市淡水區民生路60號","121.462058333333","25.1379366666667","6501000","淡水區"
"251005","443-VK","2019/08/01 17:19:40","新北市淡水區鄧公路19號","121.451396666667","25.1700116666667","6501000","淡水區"
"251006","561-UM","2019/08/01 17:19:37","新北市淡水區大智街8號","121.441618333333","25.1745166666667","6501000","淡水區"
"251009","575-R6","2019/08/01 17:19:44","新北市淡水區三民街21號","121.439138333333","25.1718833333333","6501000","淡水區"
"251014","577-R6","2019/08/01 17:18:12","新北市淡水區公埔子5-2號","121.464281666667","25.2268266666667","6501000","淡水區"
"251011","650-BX","2019/08/01 17:19:41","新北市淡水區坪頂路70巷3號","121.460015","25.16316","6501000","淡水區"
"251003","766-UM","2019/08/01 17:19:42","新北市淡水區中正路二段16號","121.420298333333","25.1808983333333","6501000","淡水區"
"207003","550-UM","2019/08/01 17:19:30","新北市萬里區萬里里獅頭路23號","121.693445","25.1782316666667","6502800","萬里區"
"252002","178-VK","2019/08/01 17:19:34","新北市三芝區忠孝街1-14號","121.505463333333","25.2538816666667","6502100","三芝區"
"233002","762-BX","2019/08/01 17:19:34","新北市烏來區環山路71號","121.548641666667","24.8621616666667","6502900","烏來區"
"247010","KED-0683","2019/08/01 17:19:30","新北市蘆洲區中山一路120巷7弄26號","121.47738","25.0818766666667","6501400","蘆洲區"
"252001","KED-0821","2019/08/01 17:19:45","新北市三芝區長安街119號","121.49803","25.2596283333333","6502100","三芝區"
"242039","AAC-296","2019/08/01 17:19:29","新北市新莊區新樹路72-7號","121.436393333333","25.024965","6500500","新莊區"
"242061","986-R7","2019/08/01 17:19:40","新北市新莊區新泰路357巷3弄53號","121.442466666667","25.0399183333333","6500500","新莊區"
"242002","751-BX","2019/08/01 17:19:31","新北市新莊區瓊林路50-1號","121.446133333333","25.0287483333333","6500500","新莊區"
"242029","615-BX","2019/08/01 17:19:36","新北市新莊區幸福路41號","121.457998333333","25.0494133333333","6500500","新莊區"
"242058","612-BX","2019/08/01 17:19:27","新北市新莊區新泰路255巷83號","121.442301666667","25.0391083333333","6500500","新莊區"
"242046","566-BX","2019/08/01 17:19:37","新北市新莊區中正路471號","121.441935","25.0334083333333","6500500","新莊區"
"242051","497-BY","2019/08/01 17:19:38","新北市新莊區瓊林南路77-39號","121.437603333333","25.01384","6500500","新莊區"
"242007","442-UM","2019/08/01 17:19:25","新北市新莊區新泰路500號","121.442481666667","25.0460933333333","6500500","新莊區"
"242056","441-UM","2019/08/01 17:19:39","新北市新莊區景德路554號","121.442718333333","25.0331","6500500","新莊區"
"242004","440-UM","2019/08/01 17:19:38","新北市新莊區中平路88號","121.44478","25.0451716666667","6500500","新莊區"
"242042","415-TV","2019/08/01 17:19:25","新北市新莊區新樹路52-3號","121.437498333333","25.0270366666667","6500500","新莊區"
"242011","413-TV","2019/08/01 17:19:30","新北市新莊區中港路352號","121.451836666667","25.04677","6500500","新莊區"
"242048","400-BY","2019/08/01 17:19:36","新北市新莊區富國路84號","121.420271666667","25.0255716666667","6500500","新莊區"
"242025","362-BY","2019/08/01 17:19:28","新北市新莊區中港一街143號","121.447863333333","25.0450683333333","6500500","新莊區"
"242023","353-BY","2019/08/01 17:19:40","新北市新莊區中平路84號","121.444873333333","25.044935","6500500","新莊區"
"242013","132-UY","2019/08/01 17:19:34","新北市新莊區新泰路500號","121.44245","25.0462583333333","6500500","新莊區"
"242036","135-UY","2019/08/01 17:19:44","新北市新莊區中正路487號","121.441058333333","25.0335583333333","6500500","新莊區"
"242053","172-VK","2019/08/01 17:19:34","新北市新莊區中正路473-1號","121.441905","25.0332983333333","6500500","新莊區"
"242015","173-VK","2019/08/01 17:19:42","新北市新莊區三和路12-21號","121.441956666667","25.0386566666667","6500500","新莊區"
"242021","175-VK","2019/08/01 17:19:33","新北市新莊區中港路272號","121.453133333333","25.0439383333333","6500500","新莊區"
"242019","KED-0687","2019/08/01 17:19:30","新北市新莊區新泰路488號","121.442576666667","25.0458916666667","6500500","新莊區"
"242034","348-TH","2019/08/01 17:19:36","新北市新莊區中正路473-1號","121.441906666667","25.0330133333333","6500500","新莊區"
"242031","350-TH","2019/08/01 17:19:34","新北市新莊區新泰路462號","121.4432","25.0448516666667","6500500","新莊區"
"242017","351-TH","2019/08/01 17:19:37","新北市新莊區新泰路502巷30號","121.44333","25.046465","6500500","新莊區"
"238023","601-UM","2019/08/01 17:19:40","新北市樹林區中正路433-2號","121.41497","25.0084483333333","6500700","樹林區"
"238019","599-UM","2019/08/01 17:19:34","新北市樹林區八德街372號","121.407546666667","24.969535","6500700","樹林區"
"238024","5061-A6","2019/08/01 17:19:38","新北市樹林區樹新路79巷11號","121.427093333333","24.995625","6500700","樹林區"
"238018","KEA-2217","2019/08/01 17:19:32","新北市樹林區樹中街34號","121.421133333333","24.985405","6500700","樹林區"
"238022","KEA-2213","2019/08/01 17:19:36","新北市樹林區仁愛街83巷1號","121.424291666667","24.983135","6500700","樹林區"
"238021","KEA-2539","2019/08/01 17:19:43","新北市樹林區西圳街一段71號","121.40034","24.96299","6500700","樹林區"
"238025","303-VK","2019/08/01 17:19:34","新北市樹林區保安二街67號","121.424625","24.9947916666667","6500700","樹林區"
"238017","283-BY","2019/08/01 17:19:36","新北市樹林區光武街30巷2號","121.41622","25.0056","6500700","樹林區"
"238014","282-BY","2019/08/01 17:19:35","新北市樹林區長壽街70巷35弄9號","121.42136","24.9952","6500700","樹林區"
"238020","268-VK","2019/08/01 17:19:42","新北市樹林區中正路22-1號","121.427741666667","24.999375","6500700","樹林區"
"238026","172-UY","2019/08/01 17:19:26","新北市樹林區味王街42號","121.404611666667","24.9737766666667","6500700","樹林區"
"238016","169-UY","2019/08/01 17:19:28","新北市樹林區中山路二段10號","121.417615","24.9851","6500700","樹林區"
"239007","AAC-297","2019/08/01 17:19:40","新北市鶯歌區光復街38號","121.351438333333","24.9557333333333","6500800","鶯歌區"
"239006","891-R6","2019/08/01 17:19:36","新北市鶯歌區德昌二街121號","121.333068333333","24.956735","6500800","鶯歌區"
"239008","527-UM","2019/08/01 17:19:33","新北市鶯歌區鶯桃路182巷96弄13號","121.340426666667","24.9582433333333","6500800","鶯歌區"
"239005","526-UM","2019/08/01 17:19:41","新北市鶯歌區福德三街20號","121.329495","24.9674316666667","6500800","鶯歌區"
"239001","417-VK","2019/08/01 17:19:40","新北市鶯歌區尖山路185號","121.344408333333","24.9473433333333","6500800","鶯歌區"
"239003","360-BY","2019/08/01 17:19:31","新北市鶯歌區德昌二街73號","121.333226666667","24.9580066666667","6500800","鶯歌區"
"239002","359-BY","2019/08/01 17:19:26","新北市鶯歌區建國路302號","121.34484","24.9525683333333","6500800","鶯歌區"
"239004","193-VK","2019/08/01 17:19:46","新北市鶯歌區文化路417-5號","121.353053333333","24.9487766666667","6500800","鶯歌區"
"244019","KED-0667","2019/08/01 17:19:39","新北市林口區仁愛路二段190號","121.380498333333","25.0738533333333","6501700","林口區"
"233001","KEA-2870","2019/08/01 17:19:38","新北市烏來區溫泉街152號","121.551375","24.8577016666667","6502900","烏來區"
"242044","281-VK","2019/08/01 17:19:40","新北市新莊區民安路2號","121.422595","25.0289083333333","6500500","新莊區"
"242009","280-VK","2019/08/01 17:19:29","新北市新莊區新泰路500號","121.442488333333","25.04618","6500500","新莊區"
