"lineid","car","time","location","longitude","latitude","cityid","cityname"
"234013","KEA-2591","2019/08/01 17:39:37","新北市永和區福和路1號","121.526156666667","25.0091766666667","6500400","永和區"
"234026","9371-KE","2019/08/01 17:39:34","新北市永和區中正路708號","121.516146666667","25.010015","6500400","永和區"
"249005","172-UM","2019/08/01 17:39:30","新北市八里區荖阡坑路34-1號","121.402716666667","25.1297166666667","6502300","八里區"
"249001","173-UM","2019/08/01 17:39:28","新北市八里區龍米路二段166號","121.434871666667","25.1579466666667","6502300","八里區"
"249004","303-UY","2019/08/01 17:39:42","新北市八里區賢二街39號","121.418975","25.1577766666667","6502300","八里區"
"249003","593-UM","2019/08/01 17:39:43","新北市八里區中山路二段157號","121.405148333333","25.1508316666667","6502300","八里區"
"249002","759-BX","2019/08/01 17:39:27","新北市八里區石壁腳19號","121.441686666667","25.1353283333333","6502300","八里區"
"232011","375-UM","2019/08/01 17:39:38","新北市坪林區北宜路八段103號","121.706096666667","24.9348083333333","6502000","坪林區"
"244007","080-UY","2019/08/01 17:39:34","新北市林口區林口路226號","121.386778333333","25.083905","6501700","林口區"
"244013","KEA-2802","2019/08/01 17:39:31","新北市林口區中正路478-1號","121.3831","25.0776266666667","6501700","林口區"
"244023","483-VK","2019/08/01 17:39:43","新北市林口區興林路150號","121.388338333333","25.0715433333333","6501700","林口區"
"244017","485-VK","2019/08/01 17:39:41","新北市林口區文化二路一段228-1號","121.369671666667","25.0725233333333","6501700","林口區"
"244009","656-BX","2019/08/01 17:39:36","新北市林口區寶林路123號","121.383063333333","25.0853133333333","6501700","林口區"
"244011","701-TV","2019/08/01 17:39:42","新北市林口區中正路392號","121.385153333333","25.077745","6501700","林口區"
"244025","837-TS","2019/08/01 17:39:31","新北市林口區民族路10號","121.363976666667","25.0735666666667","6501700","林口區"
"244021","838-TS","2019/08/01 17:39:28","新北市林口區仁愛路一段34號","121.397251666667","25.0754583333333","6501700","林口區"
"231046","719-UM","2019/08/01 17:12:31","新北市新店區直潭十街27號","121.534705","24.9385533333333","6500600","新店區"
"241016","060-VK","2019/08/01 17:39:28","新北市三重區正義北路18號","121.497565","25.0630216666667","6500200","三重區"
"241017","063-VK","2019/08/01 17:39:24","新北市三重區大同北路32號","121.49522","25.0625466666667","6500200","三重區"
"241015","742-BX","2019/08/01 17:39:33","新北市三重區重新路一段12號","121.504201666667","25.063785","6500200","三重區"
"241007","398-BY","2019/08/01 17:39:29","新北市三重區車路頭街145號","121.483873333333","25.07657","6500200","三重區"
"241030","KED-0822","2019/08/01 17:39:34","新北市三重區竹圍(仔)街17-5號","121.486405","25.0477333333333","6500200","三重區"
"241024","462-BY","2019/08/01 17:39:32","新北市三重區力行路一段186號","121.481983333333","25.07183","6500200","三重區"
"241014","543-UM","2019/08/01 17:39:29","新北市三重區河邊北街82號","121.504198333333","25.068915","6500200","三重區"
"241005","AAD-863","2019/08/01 17:39:40","新北市三重區碧華街105號","121.485658333333","25.0816616666667","6500200","三重區"
"241012","941-UM","2019/08/01 17:39:45","新北市三重區龍濱路196號","121.501073333333","25.0733133333333","6500200","三重區"
"241033","AAC-255","2019/08/01 17:39:42","新北市三重區興德路145號","121.469363333333","25.0526566666667","6500200","三重區"
"235064","005-UY","2019/08/01 17:26:26","新北市中和區員山路36巷16-3號","121.484933333333","24.9913316666667","6500300","中和區"
"247008","KED-0682","2019/08/01 17:39:29","新北市蘆洲區民生街127號","121.47267","25.0790033333333","6501400","蘆洲區"
"247004","893-R6","2019/08/01 17:39:42","新北市蘆洲區長安街249巷25號","121.45799","25.082635","6501400","蘆洲區"
"247018","546-UM","2019/08/01 17:39:42","新北市蘆洲區民權路61巷4弄2號","121.473481666667","25.0878666666667","6501400","蘆洲區"
"247014","341-TH","2019/08/01 17:39:39","新北市蘆洲區中山二路55號","121.473731666667","25.082035","6501400","蘆洲區"
"247024","337-TH","2019/08/01 17:39:44","新北市蘆洲區長樂路93號","121.462101666667","25.0874016666667","6501400","蘆洲區"
"247002","336-TH","2019/08/01 17:39:41","新北市蘆洲區永平街32號","121.458548333333","25.091025","6501400","蘆洲區"
"247022","057-VK","2019/08/01 17:39:45","新北市蘆洲區民族路580號","121.466986666667","25.0885616666667","6501400","蘆洲區"
"247012","056-VK","2019/08/01 17:39:39","新北市蘆洲區復興路92號","121.475746666667","25.0867","6501400","蘆洲區"
"247020","007-UY","2019/08/01 17:39:33","新北市蘆洲區民族路361號","121.471785","25.0916666666667","6501400","蘆洲區"
"247006","002-UY","2019/08/01 17:39:42","新北市蘆洲區長安街23巷19號","121.463515","25.0785583333333","6501400","蘆洲區"
"228001","212-TW","2019/08/01 17:39:47","新北市貢寮區仁理村仁愛路95-1號","121.927621666667","25.0554433333333","6502600","貢寮區"
"228002","663-BX","2019/08/01 17:39:40","新北市貢寮區福隆里龜壽谷街26號","121.952518333333","25.0090233333333","6502600","貢寮區"
"228003","828-UM","2019/08/01 17:39:41","新北市貢寮區仁理村仁和路216號","121.923703333333","25.0532316666667","6502600","貢寮區"
"224010","AGQ-8101","2019/08/01 17:39:34","新北市瑞芳區岳王路54-3號","121.808636666667","25.1112466666667","6501200","瑞芳區"
"224006","676-BX","2019/08/01 17:39:44","新北市瑞芳區中山路326號","121.796481666667","25.1101133333333","6501200","瑞芳區"
"224009","275-VK","2019/08/01 17:39:36","新北市瑞芳區烏勢巷145號","121.84737","25.10831","6501200","瑞芳區"
"224008","273-VK","2019/08/01 17:39:28","新北市瑞芳區九芎橋路196號","121.834321666667","25.0979633333333","6501200","瑞芳區"
"224005","271-BY","2019/08/01 17:39:35","新北市瑞芳區海濱路8-6號","121.830943333333","25.1257533333333","6501200","瑞芳區"
"227002","642-TC","2019/08/01 17:22:43","新北市雙溪區共和里東榮街52號","121.866291666667","25.033685","6502500","雙溪區"
"227001","400-TW","2019/08/01 17:27:50","新北市雙溪區三貂里定福路1-2號","121.850731666667","25.0633433333333","6502500","雙溪區"
"251004","009-UM","2019/08/01 17:39:45","新北市淡水區中正東路二段145號","121.459235","25.147305","6501000","淡水區"
"251010","012-UM","2019/08/01 17:39:38","新北市淡水區淡海路280巷16號","121.419826666667","25.189575","6501000","淡水區"
"251015","KEA-2871","2019/08/01 17:39:31","新北市淡水區樹林口168號","121.476618333333","25.16702","6501000","淡水區"
"251016","179-VK","2019/08/01 17:39:27","新北市淡水區埤島39-15號","121.452745","25.1958766666667","6501000","淡水區"
"251008","181-VK","2019/08/01 17:39:39","新北市淡水區八勢路73巷12號","121.46326","25.1538633333333","6501000","淡水區"
"251013","182-VK","2019/08/01 17:39:34","新北市淡水區演戲埔腳5號","121.472046666667","25.1936833333333","6501000","淡水區"
"251012","441-VK","2019/08/01 17:39:27","新北市淡水區北新路200巷8號","121.451708333333","25.1796833333333","6501000","淡水區"
"251007","442-VK","2019/08/01 17:39:36","新北市淡水區民族路35巷1號","121.464558333333","25.13719","6501000","淡水區"
"251005","443-VK","2019/08/01 17:39:40","新北市淡水區鄧公路33巷1號","121.451366666667","25.171195","6501000","淡水區"
"251006","561-UM","2019/08/01 17:39:47","新北市淡水區中山北路一段119巷7號","121.442298333333","25.1770266666667","6501000","淡水區"
"251009","575-R6","2019/08/01 17:39:44","新北市淡水區新生街15號","121.438846666667","25.173145","6501000","淡水區"
"251014","577-R6","2019/08/01 17:39:32","新北市淡水區北勢子19-1號","121.479853333333","25.2276366666667","6501000","淡水區"
"251011","650-BX","2019/08/01 17:39:41","新北市淡水區坪頂路712號","121.482506666667","25.1584733333333","6501000","淡水區"
"251002","672-BX","2019/08/01 17:39:38","新北市淡水區重建街永興巷11號","121.439438333333","25.172645","6501000","淡水區"
"251003","766-UM","2019/08/01 17:39:42","新北市淡水區中山北路一段49號","121.441723333333","25.1755166666667","6501000","淡水區"
"207003","550-UM","2019/08/01 17:39:41","新北市萬里區龜吼里漁澳路5-1號","121.686611666667","25.1944283333333","6502800","萬里區"
"207004","225-TW","2019/08/01 17:39:46","新北市萬里區中幅里中福路42-1號","121.680163333333","25.16807","6502800","萬里區"
"252002","178-VK","2019/08/01 17:39:34","新北市三芝區中正路二段15號","121.50439","25.2553633333333","6502100","三芝區"
"237013","252-BX","2019/08/01 17:39:32","新北市三峽區愛國路33-9號","121.374916666667","24.9329616666667","6500900","三峽區"
"237011","KEA-2596","2019/08/01 17:39:33","新北市三峽區文化路312號","121.364311666667","24.9354766666667","6500900","三峽區"
"237010","706-TV","2019/08/01 17:39:26","新北市三峽區中山路167號","121.364573333333","24.93646","6500900","三峽區"
"233002","762-BX","2019/08/01 17:39:34","新北市烏來區烏來街29號","121.551321666667","24.86533","6502900","烏來區"
"236014","270-VK","2019/08/01 17:39:34","新北市土城區城林路6巷80號","121.43844","24.9796","6501300","土城區"
"236038","271-VK","2019/08/01 17:39:36","新北市土城區城林路6巷80號","121.438446666667","24.9797933333333","6501300","土城區"
"247010","KED-0683","2019/08/01 17:39:30","新北市蘆洲區中山一路74巷5號","121.478746666667","25.0812333333333","6501400","蘆洲區"
"236070","KEA-2877","2019/08/01 17:39:25","新北市土城區中華路二段2號","121.43913","24.9797766666667","6501300","土城區"
"252001","KED-0821","2019/08/01 17:39:45","新北市三芝區淡金路一段87號","121.502238333333","25.2589716666667","6502100","三芝區"
"236063","915-UM","2019/08/01 17:39:33","新北市土城區城林路6巷80號","121.438466666667","24.979825","6501300","土城區"
"242039","AAC-296","2019/08/01 17:39:29","新北市新莊區民安路322號","121.428966666667","25.02199","6500500","新莊區"
"242061","986-R7","2019/08/01 17:39:40","新北市新莊區瓊林南路54號","121.434703333333","25.01406","6500500","新莊區"
"242002","751-BX","2019/08/01 17:39:40","新北市新莊區新莊路292號","121.45128","25.0337566666667","6500500","新莊區"
"242029","615-BX","2019/08/01 17:39:41","新北市新莊區復興路一段151號","121.450553333333","25.043215","6500500","新莊區"
"242058","612-BX","2019/08/01 17:39:37","新北市新莊區中正路606號","121.426613333333","25.0302316666667","6500500","新莊區"
"242046","566-BX","2019/08/01 17:39:38","新北市新莊區中正路561號","121.434985","25.0323683333333","6500500","新莊區"
"242051","497-BY","2019/08/01 17:39:38","新北市新莊區西盛街187-16號","121.429016666667","25.0172116666667","6500500","新莊區"
"242007","442-UM","2019/08/01 17:39:25","新北市新莊區福樂街71巷1號","121.457033333333","25.0477266666667","6500500","新莊區"
"242056","441-UM","2019/08/01 17:39:39","新北市新莊區泰豐街28號","121.448338333333","25.0318166666667","6500500","新莊區"
"242004","440-UM","2019/08/01 17:39:38","新北市新莊區自立街178號","121.455951666667","25.04539","6500500","新莊區"
"242042","415-TV","2019/08/01 17:39:44","新北市新莊區福營路103號","121.433676666667","25.032085","6500500","新莊區"
"242011","413-TV","2019/08/01 17:39:30","新北市新莊區中港路603號","121.451443333333","25.0531216666667","6500500","新莊區"
"242048","400-BY","2019/08/01 17:39:36","新北市新莊區萬安街131號","121.420585","25.0222333333333","6500500","新莊區"
"242025","362-BY","2019/08/01 17:39:28","新北市新莊區思源路90號","121.460198333333","25.04539","6500500","新莊區"
"242023","353-BY","2019/08/01 17:39:40","新北市新莊區公園路222巷1號","121.456233333333","25.0405783333333","6500500","新莊區"
"242013","132-UY","2019/08/01 17:39:34","新北市新莊區中誠街97號","121.449965","25.0477","6500500","新莊區"
"242036","135-UY","2019/08/01 17:39:24","新北市新莊區建福路59巷42號","121.428595","25.0277666666667","6500500","新莊區"
"242053","172-VK","2019/08/01 17:39:36","新北市新莊區新樹路699巷8號","121.43245","25.002025","6500500","新莊區"
"242015","173-VK","2019/08/01 17:39:42","新北市新莊區新泰路263號","121.445985","25.0400316666667","6500500","新莊區"
"242021","175-VK","2019/08/01 17:39:33","新北市新莊區中華路一段90號","121.452205","25.0395","6500500","新莊區"
"242019","KED-0687","2019/08/01 17:39:30","新北市新莊區中港路179號","121.454956666667","25.0415366666667","6500500","新莊區"
"242034","348-TH","2019/08/01 17:39:35","新北市新莊區新莊路621號","121.445646666667","25.0328916666667","6500500","新莊區"
"242031","350-TH","2019/08/01 17:39:34","新北市新莊區新泰路369巷24號","121.442331666667","25.043245","6500500","新莊區"
"242017","351-TH","2019/08/01 17:39:37","新北市新莊區復興路一段149巷21弄15號","121.449435","25.0440283333333","6500500","新莊區"
"238015","755-BX","2019/08/01 17:39:43","新北市樹林區樹德街120巷3號","121.419546666667","24.9929983333333","6500700","樹林區"
"238023","601-UM","2019/08/01 17:39:40","新北市樹林區三福街114號","121.406411666667","25.0163016666667","6500700","樹林區"
"238019","599-UM","2019/08/01 17:39:34","新北市樹林區太平路52巷1號","121.419041666667","24.982225","6500700","樹林區"
"238024","5061-A6","2019/08/01 17:39:38","新北市樹林區環河路2-2號","121.425606666667","24.9769766666667","6500700","樹林區"
"238018","KEA-2217","2019/08/01 17:39:32","新北市樹林區鎮前街61號","121.424875","24.9911033333333","6500700","樹林區"
"238022","KEA-2213","2019/08/01 17:39:36","新北市樹林區中華路185-2號","121.420373333333","24.9817166666667","6500700","樹林區"
"238021","KEA-2539","2019/08/01 17:39:42","新北市樹林區柑園街一段206號","121.393323333333","24.9563116666667","6500700","樹林區"
"238025","303-VK","2019/08/01 17:39:33","新北市樹林區保安街二段271-1號","121.412888333333","25.00545","6500700","樹林區"
"238017","283-BY","2019/08/01 17:39:36","新北市樹林區中正路460號","121.412813333333","25.0123366666667","6500700","樹林區"
"238014","282-BY","2019/08/01 17:39:35","新北市樹林區保安街一段313巷28號","121.417008333333","24.9974183333333","6500700","樹林區"
"238020","268-VK","2019/08/01 17:39:42","新北市樹林區俊英街116巷31號","121.428345","25.0063483333333","6500700","樹林區"
"238026","172-UY","2019/08/01 17:39:41","新北市樹林區新興街21號","121.400313333333","24.9727583333333","6500700","樹林區"
"238016","169-UY","2019/08/01 17:39:28","新北市樹林區育英街161號","121.419058333333","24.9894533333333","6500700","樹林區"
"239007","AAC-297","2019/08/01 17:39:40","新北市鶯歌區陽明街1號","121.341458333333","24.956455","6500800","鶯歌區"
"239006","891-R6","2019/08/01 17:39:36","新北市鶯歌區鶯桃路472巷20號","121.333301666667","24.9656766666667","6500800","鶯歌區"
"239008","527-UM","2019/08/01 17:39:33","桃園市龜山區宏德司法新村4號","121.331143333333","24.9793616666667","6500800","鶯歌區"
"239005","526-UM","2019/08/01 17:39:41","新北市鶯歌區福隆二街58號","121.324561666667","24.9714416666667","6500800","鶯歌區"
"239001","417-VK","2019/08/01 17:39:40","新北市鶯歌區中正三路152號","121.335838333333","24.9396516666667","6500800","鶯歌區"
"239003","360-BY","2019/08/01 17:39:31","新北市鶯歌區鶯桃路250號","121.335968333333","24.95957","6500800","鶯歌區"
"239002","359-BY","2019/08/01 17:39:26","新北市鶯歌區育才街89號","121.346995","24.9544983333333","6500800","鶯歌區"
"239004","193-VK","2019/08/01 17:39:26","新北市鶯歌區三鶯路62巷1號","121.357483333333","24.9425083333333","6500800","鶯歌區"
"221008","489-VK","2019/08/01 17:39:42","新北市汐止區康寧街901號","121.651405","25.074975","6501100","汐止區"
"244019","KED-0667","2019/08/01 17:39:39","新北市林口區公園路146號","121.371406666667","25.0717383333333","6501700","林口區"
"221029","298-VK","2019/08/01 17:39:27","新北市汐止區汐萬路一段256巷1號","121.651755","25.0748666666667","6501100","汐止區"
"233001","KEA-2870","2019/08/01 17:39:27","新北市烏來區娃娃谷31號","121.527955","24.8374216666667","6502900","烏來區"
"242044","281-VK","2019/08/01 17:39:40","新北市新莊區富國路19巷4號","121.418705","25.02672","6500500","新莊區"
"242009","280-VK","2019/08/01 17:39:29","新北市新莊區昌明街14巷5弄2號","121.457355","25.053265","6500500","新莊區"
