"lineid","car","time","location","longitude","latitude","cityid","cityname"
"234046","148-BY","2019/08/01 18:39:46","新北市永和區永元路66號","121.522595","25.001415","6500400","永和區"
"234038","336-UY","2019/08/01 18:39:39","新北市永和區福和路1號","121.526725","25.0101916666667","6500400","永和區"
"234064","337-UY","2019/08/01 18:39:30","新北市永和區福和路1號","121.526588333333","25.0100883333333","6500400","永和區"
"234086","338-UY","2019/08/01 18:39:29","新北市中和區安樂路69-1號","121.51249","24.9939033333333","6500400","永和區"
"234017","745-BX","2019/08/01 18:39:30","新北市永和區福和路1號","121.526306666667","25.009605","6500400","永和區"
"234030","746-BX","2019/08/01 18:39:39","新北市永和區成功路一段79號","121.526898333333","25.0030933333333","6500400","永和區"
"234007","KED-0605","2019/08/01 18:39:31","新北市永和區文化路164號","121.512135","25.0153633333333","6500400","永和區"
"234013","KEA-2591","2019/08/01 18:39:40","新北市永和區信義路14-2號","121.51448","25.0121633333333","6500400","永和區"
"234081","748-BX","2019/08/01 18:39:28","新北市永和區林森路65號","121.52409","25.004095","6500400","永和區"
"234042","862-TW","2019/08/01 18:39:41","新北市永和區中和路573號","121.511615","25.0034483333333","6500400","永和區"
"234026","9371-KE","2019/08/01 18:39:34","新北市永和區保生路55-1號","121.504493333333","25.01092","6500400","永和區"
"234011","9373-KE","2019/08/01 18:39:29","新北市永和區文化路9巷22弄16號","121.514865","25.01456","6500400","永和區"
"249005","172-UM","2019/08/01 18:39:30","新北市八里區中華路三段212號","121.388951666667","25.1252916666667","6502300","八里區"
"249001","173-UM","2019/08/01 18:39:28","新北市八里區龍米路一段382號","121.451565","25.1318016666667","6502300","八里區"
"249004","303-UY","2019/08/01 18:39:42","新北市八里區龍米路三段60號","121.423653333333","25.1590066666667","6502300","八里區"
"249003","593-UM","2019/08/01 18:36:34","新北市八里區博物館路10-1號","121.415076666667","25.1639866666667","6502300","八里區"
"249002","759-BX","2019/08/01 18:39:27","新北市八里區龍形一街12巷8號","121.449833333333","25.1307733333333","6502300","八里區"
"248016","026-BX","2019/08/01 18:39:28","新北市五股區凌雲路一段149巷5-1號","121.448878333333","25.10172","6501500","五股區"
"248008","KED-0815","2019/08/01 18:39:26","新北市五股區中興路一段140巷10-1號","121.465078333333","25.07463","6501500","五股區"
"248020","KED-0813","2019/08/01 18:39:33","新北市五股區孝義路108號","121.443641666667","25.1196116666667","6501500","五股區"
"248012","247-BX","2019/08/01 18:39:32","新北市五股區成泰路三段2巷1-20號","121.441185","25.086655","6501500","五股區"
"248014","261-SL","2019/08/01 18:39:41","新北市五股區成泰路二段106號","121.437681666667","25.0829916666667","6501500","五股區"
"248010","272-BY","2019/08/01 18:39:47","新北市五股區明德路8號","121.433318333333","25.0713983333333","6501500","五股區"
"248004","677-BX","2019/08/01 18:39:35","新北市五股區民義路一段240號","121.426878333333","25.0916766666667","6501500","五股區"
"248002","678-BX","2019/08/01 18:39:42","新北市五股區西雲路199號","121.44806","25.096075","6501500","五股區"
"234023","9380-KE","2019/08/01 18:39:45","新北市永和區福和路76巷5弄7號","121.522408333333","25.0083566666667","6500400","永和區"
"234077","969-R7","2019/08/01 18:39:42","新北市永和區中正路173號","121.516676666667","24.998605","6500400","永和區"
"232011","375-UM","2019/08/01 18:39:38","新北市坪林區坪雙路一段41號","121.71164","24.9424716666667","6502000","坪林區"
"244007","080-UY","2019/08/01 18:39:34","新北市林口區太平里20-1號","121.377506666667","25.1155616666667","6501700","林口區"
"244013","KEA-2802","2019/08/01 18:39:31","新北市林口區文化一路二段92號","121.38183","25.078695","6501700","林口區"
"244023","483-VK","2019/08/01 18:39:43","新北市林口區四維路156-2號","121.381248333333","25.0752516666667","6501700","林口區"
"244017","485-VK","2019/08/01 18:39:41","新北市林口區文化二路一段20巷25弄13號","121.365473333333","25.0672266666667","6501700","林口區"
"244009","656-BX","2019/08/01 18:39:36","新北市林口區竹林路330巷9號","121.39224","25.08291","6501700","林口區"
"244011","701-TV","2019/08/01 18:39:42","新北市林口區新寮1-84號","121.392745","25.0767466666667","6501700","林口區"
"244025","837-TS","2019/08/01 18:39:31","新北市林口區忠福路265號","121.358265","25.0783483333333","6501700","林口區"
"244021","838-TS","2019/08/01 18:39:28","新北市林口區工六路8號","121.397896666667","25.079145","6501700","林口區"
"243010","297-R6","2019/08/01 18:39:43","新北市泰山區黎明路22號","121.420805","25.0609883333333","6501600","泰山區"
"222003","436-BY","2019/08/01 18:39:41","新北市深坑區翠谷街37巷1號","121.626505","25.009305","6501800","深坑區"
"222002","659-BX","2019/08/01 18:39:43","新北市深坑區雲鄉路3-1號","121.621123333333","25.000175","6501800","深坑區"
"231061","002-UM","2019/08/01 18:39:42","新北市新店區安華路28-1號","121.51974","24.9607616666667","6500600","新店區"
"231058","0293-UT","2019/08/01 18:39:39","新北市新店區新店後街16號","121.538033333333","24.95321","6500600","新店區"
"231044","046-UY","2019/08/01 18:39:42","新北市新店區安華路1-1號","121.519505","24.960275","6500600","新店區"
"231060","106-UY","2019/08/01 18:39:42","新北市新店區安華路28-1號","121.519798333333","24.960585","6500600","新店區"
"231051","107-UY","2019/08/01 18:39:30","新北市新店區環河路18號","121.53713","24.9616816666667","6500600","新店區"
"231062","256-BX","2019/08/01 18:39:28","新北市新店區安一路一段1-1號","121.519758333333","24.9610716666667","6500600","新店區"
"231054","260-TV","2019/08/01 18:39:35","新北市新店區安一路一段1-1號","121.519083333333","24.9612566666667","6500600","新店區"
"231042","268-BY","2019/08/01 18:39:27","新北市新店區北新路一段72號","121.541463333333","24.9668283333333","6500600","新店區"
"231050","AAD-862","2019/08/01 18:39:29","新北市新店區安華路28-1號","121.51964","24.9609416666667","6500600","新店區"
"231045","355-BY","2019/08/01 18:39:40","新北市新店區安華路28-1號","121.519028333333","24.9609116666667","6500600","新店區"
"231055","4716-K9","2019/08/01 18:39:46","新北市新店區中正路154巷1號","121.541676666667","24.9719316666667","6500600","新店區"
"231056","4715-K9","2019/08/01 18:39:39","新北市新店區大豐路68巷9號","121.538763333333","24.9800766666667","6500600","新店區"
"231067","4772-VM","2019/08/01 18:39:42","新北市新店區安華路28-1號","121.519046666667","24.96067","6500600","新店區"
"231052","513-UM","2019/08/01 18:39:44","新北市新店區永興路12號","121.545313333333","24.9400466666667","6500600","新店區"
"231041","619-UM","2019/08/01 18:39:40","新北市新店區安華路28-1號","121.519751666667","24.960765","6500600","新店區"
"231063","641-BX","2019/08/01 18:39:31","新北市新店區安華路28-1號","121.519568333333","24.96055","6500600","新店區"
"231047","718-UY","2019/08/01 18:39:25","新北市新店區安一路一段1-1號","121.519481666667","24.96115","6500600","新店區"
"231046","719-UM","2019/08/01 18:39:31","新北市新店區直潭二街1號","121.53541","24.9431416666667","6500600","新店區"
"231057","720-UM","2019/08/01 18:39:33","新北市新店區北宜路一段108號","121.539013333333","24.9552233333333","6500600","新店區"
"231059","897-TW","2019/08/01 18:39:42","新北市新店區安華路1-1號","121.519528333333","24.9605","6500600","新店區"
"231040","898-TW","2019/08/01 18:39:34","新北市新店區安華路28-1號","121.519503333333","24.9608366666667","6500600","新店區"
"231066","AKT-0513","2019/08/01 18:39:34","新北市新店區安華路28-1號","121.519491666667","24.9605683333333","6500600","新店區"
"235066","003-UY","2019/08/01 18:39:40","新北市中和區水源路34巷2號","121.504715","25.0035566666667","6500300","中和區"
"235064","005-UY","2019/08/01 18:39:32","新北市中和區連城路75巷6弄1號","121.498186666667","24.9987583333333","6500300","中和區"
"235063","006-UY","2019/08/01 18:39:34","新北市中和區建一路198號","121.48751","24.9964316666667","6500300","中和區"
"235056","096-UM","2019/08/01 18:39:32","新北市中和區員山路611巷1號","121.477888333333","25.0112833333333","6500300","中和區"
"235039","097-UM","2019/08/01 18:39:32","新北市中和區宜安路18巷8號","121.513616666667","24.9962016666667","6500300","中和區"
"235065","098-UM","2019/08/01 18:39:44","新北市中和區中山路二段2巷83號","121.500808333333","25.0074316666667","6500300","中和區"
"235040","150-BY","2019/08/01 18:39:38","新北市中和區宜安路65號","121.511273333333","24.99702","6500300","中和區"
"235058","151-BY","2019/08/01 18:39:40","新北市中和區員山路143巷20號","121.480173333333","24.99603","6500300","中和區"
"235055","183-VK","2019/08/01 18:39:45","新北市中和區民生街4號","121.471213333333","25.0063016666667","6500300","中和區"
"235038","185-VK","2019/08/01 18:39:43","新北市中和區大勇街60巷4號","121.518443333333","24.9947016666667","6500300","中和區"
"235049","186-VK","2019/08/01 18:39:30","新北市中和區明義街38號","121.503696666667","24.9953383333333","6500300","中和區"
"235067","255-BX","2019/08/01 18:39:38","新北市中和區中正路839巷17號","121.483935","25.0022833333333","6500300","中和區"
"235044","293-VK","2019/08/01 18:39:31","新北市中和區復興路277-1號","121.502436666667","24.990225","6500300","中和區"
"235072","301-VK","2019/08/01 18:39:44","新北市中和區中山路二段75號","121.503861666667","25.0044216666667","6500300","中和區"
"235043","352-BY","2019/08/01 18:39:25","新北市中和區景平路91-2號","121.51744","24.9917533333333","6500300","中和區"
"235042","KEA-2878","2019/08/01 18:39:35","新北市中和區成功路41巷1號","121.526271666667","24.9931683333333","6500300","中和區"
"235050","4979-A6","2019/08/01 18:39:37","新北市中和區忠孝街124巷10號","121.512738333333","24.9859783333333","6500300","中和區"
"235069","4980-A6","2019/08/01 18:39:27","新北市中和區景平路597號","121.496941666667","25.0005216666667","6500300","中和區"
"235070","558-UM","2019/08/01 18:39:40","新北市中和區南山路24號","121.502","24.9982983333333","6500300","中和區"
"235045","565-BX","2019/08/01 18:39:28","新北市中和區南山路208巷1弄11號","121.506475","24.9898983333333","6500300","中和區"
"235060","KED-0823","2019/08/01 18:39:26","新北市中和區中山路三段208號","121.471535","25.006455","6500300","中和區"
"235054","640-BX","2019/08/01 18:39:34","新北市中和區自治街40號","121.475255","25.00335","6500300","中和區"
"235047","732-UM","2019/08/01 18:39:28","新北市中和區南山路320巷10弄30號","121.506591666667","24.9870783333333","6500300","中和區"
"235046","733-UM","2019/08/01 18:39:42","新北市中和區仁愛街91號","121.511733333333","24.9869033333333","6500300","中和區"
"235062","800-TS","2019/08/01 18:39:24","新北市中和區中山路二段312巷20號","121.495201666667","25.0040083333333","6500300","中和區"
"235057","801-TS","2019/08/01 18:39:47","新北市中和區民安街23號","121.480395","25.000445","6500300","中和區"
"235041","802-TS","2019/08/01 18:39:31","新北市中和區中安街178巷3弄1號","121.510656666667","24.9991583333333","6500300","中和區"
"235052","805-TS","2019/08/01 18:39:33","新北市中和區興南路三段57號","121.493518333333","24.97533","6500300","中和區"
"235048","896-TW","2019/08/01 18:39:39","新北市中和區南山路313號","121.504923333333","24.9913833333333","6500300","中和區"
"235053","900-TW","2019/08/01 18:39:41","新北市中和區華安街16巷19號","121.466031666667","24.99751","6500300","中和區"
"235051","157-BY","2019/08/01 18:39:32","新北市中和區華新街143巷106弄33號","121.506926666667","24.9782666666667","6500300","中和區"
"235037","AAC-213","2019/08/01 18:39:37","新北市中和區秀朗路三段128巷7弄2號","121.524525","24.9929283333333","6500300","中和區"
"235059","AAC-215","2019/08/01 18:39:40","新北市中和區錦和路354巷15號","121.489745","24.991565","6500300","中和區"
"220065","072-UY","2019/08/01 18:39:33","新北市板橋區實踐路76-2號","121.463955","25.0054416666667","6500100","板橋區"
"220086","073-UY","2019/08/01 18:39:34","新北市板橋區華東街1-10號","121.448241666667","24.9950383333333","6500100","板橋區"
"220068","075-UY","2019/08/01 18:39:24","新北市板橋區民生路二段120號","121.470441666667","25.0195133333333","6500100","板橋區"
"220069","AAD-861","2019/08/01 18:39:34","新北市板橋區大華街13號","121.459038333333","25.0061283333333","6500100","板橋區"
"226004","312-R5","2019/08/01 18:39:28","新北市平溪區石底里公園街18-3號","121.733275","25.025825","6502400","平溪區"
"228001","212-TW","2019/08/01 18:39:26","新北市貢寮區仁理村研海街12-1號","121.923843333333","25.0517483333333","6502600","貢寮區"
"228002","663-BX","2019/08/01 18:39:40","新北市貢寮區福隆里東興街6-11號","121.95077","25.02108","6502600","貢寮區"
"228003","828-UM","2019/08/01 18:39:41","新北市貢寮區和美里龍洞街34號","121.916291666667","25.11167","6502600","貢寮區"
"224010","AGQ-8101","2019/08/01 18:39:34","新北市瑞芳區基山街2號","121.845156666667","25.109785","6501200","瑞芳區"
"224006","676-BX","2019/08/01 18:39:44","新北市瑞芳區明燈路三段97號","121.804178333333","25.10851","6501200","瑞芳區"
"224007","285-BY","2019/08/01 18:39:44","新北市瑞芳區大埔路115巷15號","121.763115","25.1011216666667","6501200","瑞芳區"
"224009","275-VK","2019/08/01 18:39:36","新北市瑞芳區祈堂路53-1號","121.859588333333","25.1106466666667","6501200","瑞芳區"
"224008","273-VK","2019/08/01 18:39:27","新北市瑞芳區岳王路162號","121.807973333333","25.111375","6501200","瑞芳區"
"224005","271-BY","2019/08/01 18:39:35","新北市瑞芳區建基路一段37號","121.818733333333","25.121765","6501200","瑞芳區"
"227002","642-TC","2019/08/01 18:39:27","新北市雙溪區魚行里坤溪3-5號","121.876251666667","25.0208033333333","6502500","雙溪區"
"227001","400-TW","2019/08/01 18:39:32","新北市雙溪區牡丹里牡丹136號","121.850593333333","25.0593033333333","6502500","雙溪區"
"253006","032-BX","2019/08/01 18:39:39","新北市石門區楓林37-6號","121.541366666667","25.289505","6502200","石門區"
"253005","295-VK","2019/08/01 18:39:41","新北市石門區中央路2號","121.564861666667","25.2910633333333","6502200","石門區"
"222001","KEA-2212","2019/08/01 18:39:27","新北市深坑區北深路一段80號","121.636391666667","25.010685","6501800","深坑區"
"208002","KEA-2872","2019/08/01 18:39:28","新北市金山區忠孝一路15巷11號","121.638421666667","25.2185616666667","6502700","金山區"
"208003","665-BX","2019/08/01 18:39:44","新北市金山區中山路397號","121.633231666667","25.225325","6502700","金山區"
"251004","009-UM","2019/08/01 18:39:25","新北市淡水區大同路2號","121.461528333333","25.1408016666667","6501000","淡水區"
"251010","012-UM","2019/08/01 18:39:37","新北市淡水區沙崙路134號","121.423621666667","25.1825233333333","6501000","淡水區"
"251015","KEA-2871","2019/08/01 18:39:31","新北市淡水區興福寮66巷313號","121.48507","25.16174","6501000","淡水區"
"251016","179-VK","2019/08/01 18:39:27","新北市淡水區下圭柔山84號","121.437685","25.2058883333333","6501000","淡水區"
"251008","181-VK","2019/08/01 18:39:38","新北市淡水區北投子68-2號","121.454153333333","25.1816333333333","6501000","淡水區"
"251013","182-VK","2019/08/01 18:39:34","新北市淡水區奎柔山路1262號","121.4831","25.2055283333333","6501000","淡水區"
"251012","441-VK","2019/08/01 18:39:27","新北市淡水區北新路一段7號","121.453163333333","25.1808716666667","6501000","淡水區"
"251001","559-UM","2019/08/01 18:39:31","新北市淡水區自強路166號","121.465511666667","25.1340933333333","6501000","淡水區"
"251006","561-UM","2019/08/01 18:39:37","新北市淡水區中山北路二段375號","121.444268333333","25.1872633333333","6501000","淡水區"
"251014","577-R6","2019/08/01 18:39:12","新北市淡水區崙頂12-8號","121.495461666667","25.2171666666667","6501000","淡水區"
"251011","650-BX","2019/08/01 18:39:42","新北市淡水區學府路19號","121.447625","25.1685383333333","6501000","淡水區"
"251002","672-BX","2019/08/01 18:39:38","新北市淡水區中正東路一段23號","121.451686666667","25.1635383333333","6501000","淡水區"
"251003","766-UM","2019/08/01 18:39:42","新北市淡水區北新路69巷26號","121.446775","25.18001","6501000","淡水區"
"207003","550-UM","2019/08/01 18:39:30","新北市萬里區野柳里港東路162-15號","121.690596666667","25.20412","6502800","萬里區"
"207004","225-TW","2019/08/01 18:39:45","新北市萬里區萬里里獅頭路7號","121.691998333333","25.1783033333333","6502800","萬里區"
"252002","178-VK","2019/08/01 18:39:34","新北市三芝區民生街62號","121.503405","25.25563","6502100","三芝區"
"252003","249-BX","2019/08/01 18:39:34","新北市三芝區後厝里土地公坑73-11號","121.460131666667","25.24731","6502100","三芝區"
"208001","170-UY","2019/08/01 18:39:27","新北市金山區文化三路7號","121.635175","25.22487","6502700","金山區"
"237004","KEA-2597","2019/08/01 18:39:43","新北市三峽區插角6號","121.399313333333","24.8735516666667","6500900","三峽區"
"237007","153-BY","2019/08/01 18:39:27","新北市三峽區柑樹路6巷35號","121.361606666667","24.9034716666667","6500900","三峽區"
"237009","210-TH","2019/08/01 18:39:38","新北市三峽區大同路315號","121.363261666667","24.924655","6500900","三峽區"
"237013","252-BX","2019/08/01 18:39:32","新北市三峽區光明路69巷25號","121.376651666667","24.9291666666667","6500900","三峽區"
"237012","275-BY","2019/08/01 18:39:28","新北市三峽區三樹路332-6號","121.382401666667","24.9440616666667","6500900","三峽區"
"237008","302-VK","2019/08/01 18:39:27","新北市三峽區白雞64-1號","121.38573","24.91256","6500900","三峽區"
"237014","433-BY","2019/08/01 18:39:26","新北市三峽區隆恩街241號","121.358363333333","24.941335","6500900","三峽區"
"237006","5529-G3","2019/08/01 18:39:46","新北市三峽區溪東路327號","121.410611666667","24.9301766666667","6500900","三峽區"
"237011","KEA-2596","2019/08/01 18:39:33","新北市三峽區溪東路424號","121.415188333333","24.9276616666667","6500900","三峽區"
"237015","649-BX","2019/08/01 18:39:24","新北市三峽區成福路304號","121.428913333333","24.9234483333333","6500900","三峽區"
"237010","706-TV","2019/08/01 18:39:26","新北市三峽區復興路487號","121.361278333333","24.9384366666667","6500900","三峽區"
"237005","AKY-6261","2019/08/01 18:39:36","新北市三峽區民生街104巷15號","121.373558333333","24.9361083333333","6500900","三峽區"
"236042","KED-0685","2019/08/01 18:39:35","新北市土城區學成路137巷2號","121.449185","24.9893383333333","6501300","土城區"
"236078","166-UM","2019/08/01 18:39:44","新北市土城區中央路四段46巷28號","121.421866666667","24.9616233333333","6501300","土城區"
"236026","269-VK","2019/08/01 18:39:44","新北市土城區忠義路53-2號","121.44056","24.96857","6501300","土城區"
"236014","270-VK","2019/08/01 18:39:34","新北市土城區清水路207巷11號","121.459865","24.9823316666667","6501300","土城區"
"236038","271-VK","2019/08/01 18:39:37","新北市土城區明德路一段313巷26號","121.459628333333","24.9761266666667","6501300","土城區"
"236070","KEA-2877","2019/08/01 18:39:25","新北市土城區永豐路157巷29弄6-1號","121.468291666667","24.9814883333333","6501300","土城區"
"252001","KED-0821","2019/08/01 18:39:45","新北市三芝區埔頭里埔頭10號","121.501641666667","25.2518916666667","6502100","三芝區"
"236021","401-BY","2019/08/01 18:39:35","新北市土城區延吉街262號","121.466083333333","24.9844966666667","6501300","土城區"
"236030","752-BX","2019/08/01 18:38:55","新北市土城區中央路二段278巷1號","121.44054","24.974445","6501300","土城區"
"236059","912-UM","2019/08/01 18:39:43","新北市土城區中央路三段143號","121.433053333333","24.9653433333333","6501300","土城區"
"236049","913-UM","2019/08/01 18:39:48","新北市土城區明德路一段32號","121.465173333333","24.984685","6501300","土城區"
"236063","915-UM","2019/08/01 18:39:33","新北市土城區延和路125巷65號","121.46931","24.9914233333333","6501300","土城區"
"236055","AAC-216","2019/08/01 18:39:37","新北市土城區中華路一段23號","121.446921666667","24.9890883333333","6501300","土城區"
"242058","612-BX","2019/08/01 18:39:47","新北市新莊區中正路857-4號","121.419295","25.027925","6500500","新莊區"
"242046","566-BX","2019/08/01 18:39:38","新北市新莊區民安路31號","121.423175","25.02756","6500500","新莊區"
"242056","441-UM","2019/08/01 18:39:39","新北市新莊區瓊林南路75-37號","121.437758333333","25.0142","6500500","新莊區"
"242017","351-TH","2019/08/01 18:39:37","新北市樹林區中山路三段214號","121.379706666667","24.9678116666667","6500500","新莊區"
"238023","601-UM","2019/08/01 18:39:40","新北市樹林區三福街114號","121.406411666667","25.0163966666667","6500700","樹林區"
"238019","599-UM","2019/08/01 18:39:34","新北市樹林區中華路190-16號","121.411721666667","24.980575","6500700","樹林區"
"238024","5061-A6","2019/08/01 18:39:38","新北市樹林區太順街79巷17號","121.417135","24.9780633333333","6500700","樹林區"
"238018","KEA-2217","2019/08/01 18:39:31","新北市樹林區鎮前街29號","121.425576666667","24.9920683333333","6500700","樹林區"
"238025","303-VK","2019/08/01 18:39:33","新北市樹林區中山路二段145號","121.406373333333","24.9789733333333","6500700","樹林區"
"238020","268-VK","2019/08/01 18:39:43","新北市樹林區俊安街56號","121.419078333333","25.0131633333333","6500700","樹林區"
"238026","172-UY","2019/08/01 18:39:26","新北市樹林區育德街78-1號","121.387555","24.9681266666667","6500700","樹林區"
"238016","169-UY","2019/08/01 18:39:27","新北市樹林區中山路二段34號","121.417335","24.98519","6500700","樹林區"
"239006","891-R6","2019/08/01 18:39:36","新北市鶯歌區鶯桃路242巷13號","121.336443333333","24.9601083333333","6500800","鶯歌區"
"239008","527-UM","2019/08/01 18:39:33","新北市鶯歌區朝陽街4號","121.336261666667","24.976595","6500800","鶯歌區"
"239005","526-UM","2019/08/01 18:39:41","新北市鶯歌區鶯桃路二段20號","121.326148333333","24.9723616666667","6500800","鶯歌區"
"239001","417-VK","2019/08/01 18:39:40","新北市鶯歌區國中街178號","121.338245","24.939185","6500800","鶯歌區"
"239003","360-BY","2019/08/01 18:39:31","新北市鶯歌區永和街50號","121.3332","24.9679733333333","6500800","鶯歌區"
"239002","359-BY","2019/08/01 18:39:26","新北市鶯歌區中正一路305號","121.356631666667","24.9571433333333","6500800","鶯歌區"
"239004","193-VK","2019/08/01 18:39:26","新北市鶯歌區尖山路293巷13號","121.34157","24.9442233333333","6500800","鶯歌區"
"221036","130-UY","2019/08/01 18:39:32","新北市汐止區長興街一段12號","121.669596666667","25.07874","6501100","汐止區"
"221015","131-UY","2019/08/01 18:39:43","新北市汐止區鄉長路二段16號","121.668588333333","25.08143","6501100","汐止區"
"244019","KED-0667","2019/08/01 18:39:39","新北市林口區忠孝路622巷5號","121.37789","25.067095","6501700","林口區"
"221010","269-BY","2019/08/01 18:39:37","新北市汐止區瑞松街47巷6號","121.645235","25.1061816666667","6501100","汐止區"
"221012","278-VK","2019/08/01 18:39:46","新北市汐止區保長路51巷5號","121.673503333333","25.0788933333333","6501100","汐止區"
"221023","279-VK","2019/08/01 18:39:41","新北市汐止區民族二街86號","121.633231666667","25.06989","6501100","汐止區"
"221032","280-BY","2019/08/01 18:39:45","新北市汐止區民權街二段129號","121.61809","25.0456316666667","6501100","汐止區"
"221033","297-VK","2019/08/01 18:39:38","新北市汐止區東勢街20號","121.624393333333","25.03867","6501100","汐止區"
"221029","298-VK","2019/08/01 18:39:27","新北市汐止區樟樹一路150號","121.642193333333","25.0652183333333","6501100","汐止區"
"221021","299-VK","2019/08/01 18:39:40","新北市汐止區新台五路一段91號","121.650073333333","25.06146","6501100","汐止區"
"221031","353-TW","2019/08/01 18:39:40","新北市汐止區光復街8巷1號","121.638721666667","25.0581033333333","6501100","汐止區"
"221035","622-UM","2019/08/01 18:39:38","新北市汐止區大同路二段187巷4弄1號","121.652361666667","25.0651916666667","6501100","汐止區"
"221025","623-UM","2019/08/01 18:39:44","新北市汐止區仁愛路121巷9號","121.662623333333","25.0642116666667","6501100","汐止區"
"221002","707-TV","2019/08/01 18:39:39","新北市汐止區大同路一段295號","121.637113333333","25.058775","6501100","汐止區"
"221018","753-BX","2019/08/01 18:39:35","新北市汐止區茄苳路224巷3弄5號","121.670916666667","25.0683116666667","6501100","汐止區"
"220079","145-BY","2019/08/01 18:39:41","新北市板橋區大觀路二段103號","121.4463","25.0017383333333","6500100","板橋區"
"220080","200-UY","2019/08/01 18:39:32","新北市板橋區華東街1-9號","121.448116666667","24.9948366666667","6500100","板橋區"
"220082","610-BX","2019/08/01 18:39:28","新北市板橋區大觀路二段443-2號","121.438168333333","24.9952666666667","6500100","板橋區"
"220084","256-TC","2019/08/01 18:39:44","新北市板橋區大觀路二段力行2巷65號","121.44581","24.9990566666667","6500100","板橋區"
"224002","257-TC","2019/08/01 18:39:34","新北市瑞芳區三爪子坑路1號","121.815551666667","25.1080983333333","6501200","瑞芳區"
"220056","276-BY","2019/08/01 18:39:29","新北市板橋區四川路一段55號","121.459601666667","25.0062966666667","6500100","板橋區"
"220072","277-BY","2019/08/01 18:39:37","新北市板橋區大觀路三段52號","121.432493333333","24.9959916666667","6500100","板橋區"
"220071","283-VK","2019/08/01 18:39:33","新北市板橋區四川路二段60號","121.452681666667","24.994875","6500100","板橋區"
"220083","286-VK","2019/08/01 18:39:28","新北市板橋區板城路421號","121.448013333333","24.995635","6500100","板橋區"
"220081","287-VK","2019/08/01 18:39:38","新北市板橋區大觀路二段153巷44弄5號","121.446571666667","24.99934","6500100","板橋區"
"220034","297-UM","2019/08/01 18:34:16","新北市板橋區華東街1-10號","121.448433333333","24.9950283333333","6500100","板橋區"
"220075","303-R5","2019/08/01 18:39:35","新北市板橋區板城路407號","121.447515","24.9953133333333","6500100","板橋區"
"220092","307-R5","2019/08/01 18:39:28","新北市板橋區民生路二段123號","121.470705","25.0186883333333","6500100","板橋區"
"220055","461-BY","2019/08/01 18:39:47","新北市板橋區忠孝路33-1號","121.460785","25.00204","6500100","板橋區"
"220089","487-VK","2019/08/01 18:39:32","新北市板橋區民生路二段161巷1號","121.470016666667","25.020205","6500100","板橋區"
"220088","491-VK","2019/08/01 18:39:36","新北市板橋區民生路二段188號","121.470136666667","25.0204633333333","6500100","板橋區"
"220035","560-BX","2019/08/01 18:39:44","新北市板橋區南雅西路二段145巷6號","121.451605","25.0118833333333","6500100","板橋區"
"220103","561-BX","2019/08/01 18:39:35","新北市板橋區民生路二段123號","121.470681666667","25.0185233333333","6500100","板橋區"
"220063","609-BX","2019/08/01 18:39:40","新北市板橋區民生路二段175號","121.469771666667","25.0201766666667","6500100","板橋區"
"220091","637-BX","2019/08/01 18:39:26","新北市板橋區民生路二段161巷1號","121.469868333333","25.019925","6500100","板橋區"
"220057","686-BX","2019/08/01 18:39:27","新北市板橋區館前西路46巷2號","121.458983333333","25.0071166666667","6500100","板橋區"
"220077","687-BX","2019/08/01 18:39:46","新北市板橋區華東街1-8號","121.447893333333","24.9948533333333","6500100","板橋區"
"220054","741-BX","2019/08/01 18:39:36","新北市板橋區華東街1-8號","121.447763333333","24.994935","6500100","板橋區"
"220102","KEA-2699","2019/08/01 18:39:35","新北市板橋區民生路二段161巷1號","121.470166666667","25.01988","6500100","板橋區"
"220067","829-TW","2019/08/01 18:39:32","新北市板橋區民生路二段120號","121.470428333333","25.0197966666667","6500100","板橋區"
"220074","895-R6","2019/08/01 18:39:28","新北市板橋區南雅南路二段136號","121.451996666667","24.99652","6500100","板橋區"
"220073","985-R7","2019/08/01 18:39:34","新北市板橋區四川路二段23-3號","121.454735","24.995755","6500100","板橋區"
"220097","AAC-210","2019/08/01 18:39:39","新北市板橋區民生路二段161巷1號","121.470185","25.0201466666667","6500100","板橋區"
"220064","AAC-253","2019/08/01 18:39:37","新北市板橋區民生路二段121號","121.470846666667","25.0182033333333","6500100","板橋區"
"235068","KEA-2873","2019/08/01 18:39:22","新北市中和區中正路211巷22號","121.496998333333","24.99317","6500300","中和區"
"235061","KEA-2875","2019/08/01 18:39:32","新北市中和區民享街26號","121.473963333333","25.0036083333333","6500300","中和區"
