"lineid","car","time","location","longitude","latitude","cityid","cityname"
"234046","148-BY","2019/08/01 19:09:46","新北市永和區永元路18巷40弄2號","121.524096666667","25.0002366666667","6500400","永和區"
"234038","336-UY","2019/08/01 19:09:39","新北市永和區民樂街71巷1號","121.527373333333","24.9974566666667","6500400","永和區"
"234064","337-UY","2019/08/01 19:09:30","新北市永和區秀朗路二段31號","121.521218333333","25.0024683333333","6500400","永和區"
"234086","338-UY","2019/08/01 19:09:29","新北市永和區永貞路112號","121.518856666667","25.0044483333333","6500400","永和區"
"234070","552-UM","2019/08/01 19:09:29","新北市永和區豫溪街137巷1弄24號","121.518383333333","25.01043","6500400","永和區"
"234017","745-BX","2019/08/01 19:09:42","新北市永和區文化路90巷19號","121.513556666667","25.0162483333333","6500400","永和區"
"234030","746-BX","2019/08/01 19:09:42","新北市永和區民生路29號","121.522806666667","24.9985566666667","6500400","永和區"
"234054","KEA-2590","2019/08/01 19:09:25","新北市永和區中興街133巷8號","121.518806666667","25.012735","6500400","永和區"
"234007","KED-0605","2019/08/01 19:09:31","新北市永和區中山路一段211-1號","121.508726666667","25.008415","6500400","永和區"
"234013","KEA-2591","2019/08/01 19:09:40","新北市永和區永和路二段28號","121.514743333333","25.0103166666667","6500400","永和區"
"234061","AAD-866","2019/08/01 19:09:25","新北市永和區安樂路304巷7號","121.51453","25.005205","6500400","永和區"
"234081","748-BX","2019/08/01 19:09:33","新北市永和區福和路57巷14弄1號","121.522876666667","25.006945","6500400","永和區"
"234042","862-TW","2019/08/01 19:09:42","新北市永和區永貞路334號","121.511251666667","25.0055466666667","6500400","永和區"
"234050","863-TW","2019/08/01 19:09:30","新北市永和區文化路135巷26弄2號","121.51061","25.0145066666667","6500400","永和區"
"234026","9371-KE","2019/08/01 19:09:34","新北市永和區安樂路270號","121.514576666667","25.0041433333333","6500400","永和區"
"234011","9373-KE","2019/08/01 19:09:29","新北市永和區仁愛路141巷30弄26號","121.51208","25.011495","6500400","永和區"
"249005","172-UM","2019/08/01 19:09:30","新北市八里區中華路三段89-3號","121.393606666667","25.1395216666667","6502300","八里區"
"249001","173-UM","2019/08/01 19:09:47","新北市八里區龍米路二段246-1號","121.42992","25.1588716666667","6502300","八里區"
"249003","593-UM","2019/08/01 19:09:31","新北市八里區博物館路179號","121.406331666667","25.15726","6502300","八里區"
"248016","026-BX","2019/08/01 19:09:28","新北市五股區成泰路三段543巷19號","121.45056","25.1024183333333","6501500","五股區"
"248008","KED-0815","2019/08/01 19:09:26","新北市五股區中興路一段118巷6弄1號","121.466156666667","25.0738533333333","6501500","五股區"
"248020","KED-0813","2019/08/01 19:09:33","新北市五股區凌雲路三段59-6號","121.425218333333","25.1249483333333","6501500","五股區"
"248012","247-BX","2019/08/01 19:09:32","新北市五股區中興路四段48巷16號","121.438613333333","25.0834233333333","6501500","五股區"
"248010","272-BY","2019/08/01 19:09:27","新北市五股區水碓一路23號","121.430531666667","25.0712383333333","6501500","五股區"
"248004","677-BX","2019/08/01 19:09:35","新北市五股區五福路11-6號","121.43425","25.08866","6501500","五股區"
"248002","678-BX","2019/08/01 19:09:42","新北市五股區凌雲路一段158巷6號","121.44781","25.1029766666667","6501500","五股區"
"234023","9380-KE","2019/08/01 19:09:44","新北市永和區中興街10巷19號","121.515875","25.01122","6500400","永和區"
"234077","969-R7","2019/08/01 19:09:41","新北市永和區民族街29號","121.518746666667","24.9996033333333","6500400","永和區"
"234074","AAC-211","2019/08/01 19:09:31","新北市永和區福和路130號","121.522023333333","25.007875","6500400","永和區"
"234067","AAC-212","2019/08/01 19:09:37","新北市永和區保平路17號","121.512816666667","25.0074983333333","6500400","永和區"
"234003","AAC-295","2019/08/01 19:09:40","新北市永和區保福路一段84號","121.512308333333","25.0102883333333","6500400","永和區"
"244013","KEA-2802","2019/08/01 19:09:31","新北市林口區文化一路一段126號","121.375585","25.0721866666667","6501700","林口區"
"244023","483-VK","2019/08/01 19:09:43","新北市林口區文林六街30號","121.37147","25.0809733333333","6501700","林口區"
"244011","701-TV","2019/08/01 19:09:42","新北市林口區竹林路72號","121.387805","25.07844","6501700","林口區"
"244025","837-TS","2019/08/01 19:09:31","新北市林口區文化北路一段472號","121.365681666667","25.0775916666667","6501700","林口區"
"243012","AAD-798","2019/08/01 19:09:37","新北市泰山區辭修路10-11號","121.429638333333","25.0580416666667","6501600","泰山區"
"243010","297-R6","2019/08/01 19:09:42","新北市泰山區明志路一段483巷1弄1號","121.431103333333","25.0554833333333","6501600","泰山區"
"243014","KEA-2801","2019/08/01 19:09:30","新北市泰山區泰林路二段385巷1號","121.427651666667","25.06422","6501600","泰山區"
"243016","421-VK","2019/08/01 19:09:39","新北市泰山區明志路二段379號","121.425126666667","25.0438516666667","6501600","泰山區"
"243009","KEA-2215","2019/08/01 19:09:35","新北市泰山區明志路一段122巷27號","121.432685","25.0636366666667","6501600","泰山區"
"243011","KEA-2216","2019/08/01 19:09:46","新北市泰山區明志路二段340號","121.42601","25.0454683333333","6501600","泰山區"
"243013","646-TV","2019/08/01 19:09:34","新北市泰山區明志路三段277號","121.423123333333","25.0367533333333","6501600","泰山區"
"243015","680-BX","2019/08/01 19:09:44","新北市泰山區明志路一段371號","121.430891666667","25.05794","6501600","泰山區"
"222003","436-BY","2019/08/01 19:09:41","新北市深坑區深南路162號","121.626088333333","25.0149633333333","6501800","深坑區"
"222002","659-BX","2019/08/01 19:09:43","新北市深坑區烏月路1號","121.633308333333","25.008405","6501800","深坑區"
"231061","002-UM","2019/08/01 19:09:42","新北市新店區安康路一段285號","121.523296666667","24.9635616666667","6500600","新店區"
"231058","0293-UT","2019/08/01 19:09:39","新北市新店區光明街94號","121.538948333333","24.9603533333333","6500600","新店區"
"231044","046-UY","2019/08/01 19:09:42","新北市新店區寶中路45-2號","121.544841666667","24.9794416666667","6500600","新店區"
"231060","106-UY","2019/08/01 19:09:41","新北市新店區安康路二段301號","121.502266666667","24.9573833333333","6500600","新店區"
"231051","107-UY","2019/08/01 19:09:30","新北市新店區中正路382巷34號","121.535623333333","24.9781383333333","6500600","新店區"
"231049","108-UY","2019/08/01 19:09:33","新北市新店區二十張路16巷1弄1號","121.538825","24.9823116666667","6500600","新店區"
"231065","110-UY","2019/08/01 19:09:31","新北市新店區安祥路111號","121.475585","24.9568316666667","6500600","新店區"
"231062","256-BX","2019/08/01 19:09:34","新北市新店區安平路53號","121.519718333333","24.9684016666667","6500600","新店區"
"231054","260-TV","2019/08/01 19:09:35","新北市新店區新店路143號","121.53709","24.9548566666667","6500600","新店區"
"231042","268-BY","2019/08/01 19:09:27","新北市新店區中興路一段206號","121.543713333333","24.9654883333333","6500600","新店區"
"231064","278-BY","2019/08/01 19:09:41","新北市新店區安忠路56巷6號","121.512943333333","24.95939","6500600","新店區"
"231050","AAD-862","2019/08/01 19:09:29","新北市新店區竹林路2巷31號","121.550431666667","24.9502366666667","6500600","新店區"
"231045","355-BY","2019/08/01 19:09:40","新北市新店區北宜路一段108號","121.539135","24.9552883333333","6500600","新店區"
"231055","4716-K9","2019/08/01 19:09:26","新北市新店區北新路一段271巷32號","121.54006","24.9672366666667","6500600","新店區"
"231056","4715-K9","2019/08/01 19:09:38","新北市新店區安業街2號","121.515221666667","24.9785783333333","6500600","新店區"
"231067","4772-VM","2019/08/01 19:09:42","新北市新店區安康路一段263巷23號","121.523963333333","24.9616716666667","6500600","新店區"
"231052","513-UM","2019/08/01 19:09:44","新北市新店區自強路23巷1號","121.54611","24.9267066666667","6500600","新店區"
"231041","619-UM","2019/08/01 19:09:40","新北市新店區中央二街62號","121.526476666667","24.97437","6500600","新店區"
"231063","641-BX","2019/08/01 19:09:40","新北市新店區車子路117號","121.505331666667","24.9517966666667","6500600","新店區"
"231047","718-UY","2019/08/01 19:09:25","新北市新店區德正街27巷6號","121.54499","24.971535","6500600","新店區"
"231046","719-UM","2019/08/01 19:09:31","新北市新店區華潭街52號","121.528913333333","24.9551033333333","6500600","新店區"
"231057","720-UM","2019/08/01 19:09:33","新北市新店區百齡一路12號","121.55301","24.93248","6500600","新店區"
"231059","897-TW","2019/08/01 19:09:42","新北市新店區安康路一段351-1號","121.519446666667","24.964065","6500600","新店區"
"231040","898-TW","2019/08/01 19:09:34","新北市新店區自由街2號","121.535371666667","24.9752916666667","6500600","新店區"
"231043","899-TW","2019/08/01 19:09:40","新北市新店區寶橋路56號","121.546005","24.9754433333333","6500600","新店區"
"231066","AKT-0513","2019/08/01 19:09:34","新北市新店區安祥路35-1號","121.491965","24.955355","6500600","新店區"
"241035","KEA-2210","2019/08/01 19:09:27","新北市三重區大智街7號","121.494605","25.06505","6500200","三重區"
"241013","475-VK","2019/08/01 19:09:28","新北市三重區三和路三段107巷19號","121.494935","25.073055","6500200","三重區"
"241022","KED-0820","2019/08/01 19:09:29","新北市三重區三民街155巷9號","121.48444","25.0647916666667","6500200","三重區"
"241029","942-UM","2019/08/01 19:09:43","新北市三重區集美街257號","121.492418333333","25.05569","6500200","三重區"
"235066","003-UY","2019/08/01 19:09:40","新北市中和區水源路73號","121.505868333333","25.0037533333333","6500300","中和區"
"235064","005-UY","2019/08/01 19:09:28","新北市中和區連城路45號","121.498178333333","25.00189","6500300","中和區"
"235063","006-UY","2019/08/01 19:09:34","新北市中和區連城路268-7號","121.486566666667","24.99647","6500300","中和區"
"235056","096-UM","2019/08/01 19:09:32","新北市中和區中正路1161號","121.481935","25.0088066666667","6500300","中和區"
"235039","097-UM","2019/08/01 19:09:32","新北市中和區秀朗路三段179號","121.524363333333","24.9908866666667","6500300","中和區"
"235065","098-UM","2019/08/01 19:09:44","新北市中和區中山路二段136巷6弄10號","121.50212","25.0041966666667","6500300","中和區"
"235040","150-BY","2019/08/01 19:09:38","新北市中和區保健路65號","121.5097","24.997155","6500300","中和區"
"235058","151-BY","2019/08/01 19:09:40","新北市中和區連城路469巷44弄19號","121.482346666667","24.994605","6500300","中和區"
"235055","183-VK","2019/08/01 19:09:45","新北市中和區德光路111號","121.468178333333","25.003195","6500300","中和區"
"235038","185-VK","2019/08/01 19:09:43","新北市中和區大仁街20巷34號","121.519338333333","24.993095","6500300","中和區"
"235049","186-VK","2019/08/01 19:09:30","新北市中和區景新街220號","121.5072","24.9951016666667","6500300","中和區"
"235067","255-BX","2019/08/01 19:09:38","新北市中和區中正路703號","121.484885","24.9983766666667","6500300","中和區"
"235044","293-VK","2019/08/01 19:09:31","新北市中和區中興街220-9號","121.500545","24.989725","6500300","中和區"
"235072","301-VK","2019/08/01 19:09:43","新北市中和區永和路1號","121.499881666667","25.0029183333333","6500300","中和區"
"235043","352-BY","2019/08/01 19:09:45","新北市中和區景平路274號","121.514181666667","24.9926166666667","6500300","中和區"
"235042","KEA-2878","2019/08/01 19:09:35","新北市中和區自強路13巷5號","121.520708333333","24.9935566666667","6500300","中和區"
"235050","4979-A6","2019/08/01 19:09:37","新北市中和區復興路249巷11弄3-1號","121.50364","24.9896016666667","6500300","中和區"
"235069","4980-A6","2019/08/01 19:09:28","新北市中和區中和路165巷16號","121.503213333333","25.0004466666667","6500300","中和區"
"235070","558-UM","2019/08/01 19:09:40","新北市中和區中山路二段221號","121.498613333333","25.0025133333333","6500300","中和區"
"235045","565-BX","2019/08/01 19:09:28","新北市中和區景新街437巷26號","121.514546666667","24.9893516666667","6500300","中和區"
"235060","KED-0823","2019/08/01 19:09:26","新北市中和區員山路437-3號","121.480783333333","25.00396","6500300","中和區"
"235054","640-BX","2019/08/01 19:09:34","新北市中和區國光街114號","121.46991","25.00074","6500300","中和區"
"235047","732-UM","2019/08/01 19:09:40","新北市中和區興南路一段58號","121.510841666667","24.9905333333333","6500300","中和區"
"235046","733-UM","2019/08/01 19:09:42","新北市中和區華新街164號","121.5074","24.98228","6500300","中和區"
"235071","783-BX","2019/08/01 19:09:42","新北市中和區連城路523巷9弄36號","121.48248","24.9945516666667","6500300","中和區"
"235057","801-TS","2019/08/01 19:09:27","新北市中和區員山路162號","121.481323333333","24.9997016666667","6500300","中和區"
"235041","802-TS","2019/08/01 19:09:31","新北市中和區景安路3號","121.508153333333","24.9991416666667","6500300","中和區"
"235052","805-TS","2019/08/01 19:09:33","新北市中和區興南路二段142巷19弄58號","121.502373333333","24.9832883333333","6500300","中和區"
"235048","896-TW","2019/08/01 19:09:39","新北市中和區忠孝街2-8號","121.509205","24.9829733333333","6500300","中和區"
"235053","900-TW","2019/08/01 19:09:41","新北市中和區華福街57巷17號","121.466821666667","24.9972","6500300","中和區"
"235051","157-BY","2019/08/01 19:09:32","新北市中和區興南路一段81號","121.510011666667","24.9889766666667","6500300","中和區"
"235037","AAC-213","2019/08/01 19:09:37","新北市中和區秀朗路三段10巷37弄4號","121.524103333333","24.995815","6500300","中和區"
"235059","AAC-215","2019/08/01 19:09:40","新北市中和區圓通路296巷31弄1號","121.488565","24.9904383333333","6500300","中和區"
"220065","072-UY","2019/08/01 19:09:43","新北市板橋區民族路151巷53號","121.469175","25.008275","6500100","板橋區"
"220086","073-UY","2019/08/01 19:09:34","新北市板橋區中正路162號","121.456616666667","25.0167216666667","6500100","板橋區"
"220068","075-UY","2019/08/01 19:09:36","新北市板橋區中山路二段443巷32號","121.480968333333","25.0210716666667","6500100","板橋區"
"220069","AAD-861","2019/08/01 19:09:34","新北市板橋區華興街29號","121.458448333333","25.004515","6500100","板橋區"
"220106","120-SR","2019/08/01 19:09:26","新北市板橋區宏國路107號","121.470256666667","25.0323233333333","6500100","板橋區"
"226004","312-R5","2019/08/01 19:09:28","新北市平溪區靜安路二段548號","121.746488333333","25.02561","6502400","平溪區"
"228001","212-TW","2019/08/01 19:09:26","新北市貢寮區真理里新港街10號","121.925498333333","25.054345","6502600","貢寮區"
"228002","663-BX","2019/08/01 19:09:40","新北市貢寮區福隆里福隆街32-1號","121.945096666667","25.0174","6502600","貢寮區"
"228003","828-UM","2019/08/01 19:09:41","新北市貢寮區和美里和美街36號","121.9123","25.0852266666667","6502600","貢寮區"
"224010","AGQ-8101","2019/08/01 19:09:34","新北市瑞芳區基山街138號","121.84367","25.1081566666667","6501200","瑞芳區"
"224006","676-BX","2019/08/01 19:09:44","新北市瑞芳區中山路225號","121.800625","25.1068483333333","6501200","瑞芳區"
"224009","275-VK","2019/08/01 19:09:36","新北市瑞芳區洞頂路81號","121.861543333333","25.11914","6501200","瑞芳區"
"224008","273-VK","2019/08/01 19:09:27","新北市瑞芳區瑞芳街86號","121.802471666667","25.1101483333333","6501200","瑞芳區"
"224005","271-BY","2019/08/01 19:09:35","新北市瑞芳區中山路354號","121.795785","25.1102733333333","6501200","瑞芳區"
"227002","642-TC","2019/08/01 19:09:27","新北市雙溪區平林里外平林9-5號","121.859143333333","25.038","6502500","雙溪區"
"227001","400-TW","2019/08/01 19:09:32","新北市雙溪區牡丹里自強路8巷7號","121.865348333333","25.0385933333333","6502500","雙溪區"
"253006","032-BX","2019/08/01 19:09:39","新北市石門區八甲3-2號","121.521185","25.28373","6502200","石門區"
"253005","295-VK","2019/08/01 19:09:41","新北市石門區小坑14-3號","121.602133333333","25.2861283333333","6502200","石門區"
"222001","KEA-2212","2019/08/01 19:09:47","新北市深坑區北深路一段300號","121.624248333333","25.0057316666667","6501800","深坑區"
"208002","KEA-2872","2019/08/01 19:09:37","新北市金山區中正路75號","121.633655","25.2215716666667","6502700","金山區"
"208003","665-BX","2019/08/01 19:09:27","新北市金山區中正路59號","121.634208333333","25.221865","6502700","金山區"
"251010","012-UM","2019/08/01 19:09:37","新北市淡水區中正路一段156巷3號","121.4211","25.1803533333333","6501000","淡水區"
"251015","KEA-2871","2019/08/01 19:09:31","新北市淡水區南勢埔21-1號","121.483113333333","25.1786916666667","6501000","淡水區"
"251016","179-VK","2019/08/01 19:09:47","新北市淡水區淡金路三段344號","121.449283333333","25.2088083333333","6501000","淡水區"
"251013","182-VK","2019/08/01 19:09:34","新北市淡水區安子內12-1號","121.481195","25.2193033333333","6501000","淡水區"
"251007","442-VK","2019/08/01 19:09:36","新北市淡水區民生路131號","121.465448333333","25.138795","6501000","淡水區"
"251001","559-UM","2019/08/01 19:09:31","新北市淡水區自強路201巷39號","121.46214","25.1268066666667","6501000","淡水區"
"251009","575-R6","2019/08/01 19:09:23","新北市淡水區重建街36號","121.439881666667","25.1711483333333","6501000","淡水區"
"251014","577-R6","2019/08/01 19:09:32","新北市淡水區小中寮19-7號","121.484743333333","25.2295966666667","6501000","淡水區"
"251002","672-BX","2019/08/01 19:09:38","新北市淡水區中山路50號","121.443973333333","25.170305","6501000","淡水區"
"251003","766-UM","2019/08/01 19:09:42","新北市淡水區大義街3號","121.443886666667","25.1780866666667","6501000","淡水區"
"207003","550-UM","2019/08/01 19:09:30","新北市萬里區大鵬里頂社29號","121.656353333333","25.210765","6502800","萬里區"
"207004","225-TW","2019/08/01 19:09:45","新北市萬里區萬里里瑪鋉下街58-1號","121.691631666667","25.1796","6502800","萬里區"
"252002","178-VK","2019/08/01 19:09:34","新北市三芝區埔坪里埔頭坑83號","121.509761666667","25.2540966666667","6502100","三芝區"
"252003","249-BX","2019/08/01 19:09:34","新北市三芝區錫板里南勢崗7號","121.479431666667","25.2618233333333","6502100","三芝區"
"208001","170-UY","2019/08/01 19:09:30","新北市金山區金包里街68號","121.639046666667","25.22143","6502700","金山區"
"237004","KEA-2597","2019/08/01 19:09:43","新北市三峽區有木191號","121.448596666667","24.8434383333333","6500900","三峽區"
"237007","153-BY","2019/08/01 19:09:27","新北市三峽區中正路二段42巷50號","121.364343333333","24.9205233333333","6500900","三峽區"
"237013","252-BX","2019/08/01 19:09:32","新北市三峽區光明路69巷25號","121.376663333333","24.92923","6500900","三峽區"
"237012","275-BY","2019/08/01 19:09:28","新北市三峽區三樹路222巷196-4號","121.38911","24.94265","6500900","三峽區"
"237008","302-VK","2019/08/01 19:09:27","新北市三峽區光明路106巷8號","121.376381666667","24.9273966666667","6500900","三峽區"
"237014","433-BY","2019/08/01 19:09:26","新北市三峽區大勇路22-2號","121.36704","24.93776","6500900","三峽區"
"237006","5529-G3","2019/08/01 19:09:28","新北市三峽區橫溪路95號","121.398425","24.93544","6500900","三峽區"
"237011","KEA-2596","2019/08/01 19:09:33","新北市三峽區介壽路三段183號","121.401586666667","24.9436333333333","6500900","三峽區"
"237015","649-BX","2019/08/01 19:09:44","新北市三峽區安坑47號","121.45361","24.93156","6500900","三峽區"
"237010","706-TV","2019/08/01 19:09:46","新北市三峽區國光街362號","121.370963333333","24.93974","6500900","三峽區"
"237005","AKY-6261","2019/08/01 19:09:36","新北市三峽區中山路459巷90-1號","121.354693333333","24.9360966666667","6500900","三峽區"
"236078","166-UM","2019/08/01 19:09:44","新北市土城區龍泉路43號","121.416825","24.9433133333333","6501300","土城區"
"236026","269-VK","2019/08/01 19:09:43","新北市土城區中正路11巷3號","121.442915","24.9753983333333","6501300","土城區"
"236014","270-VK","2019/08/01 19:09:34","新北市土城區學府路一段37巷30號","121.45736","24.9875533333333","6501300","土城區"
"236070","KEA-2877","2019/08/01 19:09:25","新北市土城區裕生路84巷8號","121.446868333333","24.9855733333333","6501300","土城區"
"252001","KED-0821","2019/08/01 19:09:25","新北市三芝區長勤街82號","121.500306666667","25.2550516666667","6502100","三芝區"
"236021","401-BY","2019/08/01 19:09:35","新北市土城區延峰街36巷2號","121.469661666667","24.9846833333333","6501300","土城區"
"236059","912-UM","2019/08/01 19:09:43","新北市土城區金城路一段19號","121.439666666667","24.9691433333333","6501300","土城區"
"236049","913-UM","2019/08/01 19:09:35","新北市土城區明德路一段365-1號","121.453661666667","24.9790916666667","6501300","土城區"
"236063","915-UM","2019/08/01 19:09:33","新北市土城區金城路三段202-3號","121.469421666667","24.9885033333333","6501300","土城區"
"236055","AAC-216","2019/08/01 19:09:37","新北市土城區學府路一段212號","121.452348333333","24.9852633333333","6501300","土城區"
"238015","755-BX","2019/08/01 19:09:29","新北市樹林區光明街6號","121.410941666667","24.9890083333333","6500700","樹林區"
"238023","601-UM","2019/08/01 19:09:40","新北市樹林區三興路87巷5號","121.39463","25.0125616666667","6500700","樹林區"
"238019","599-UM","2019/08/01 19:09:34","新北市樹林區東榮街91巷2弄3號","121.415981666667","24.982255","6500700","樹林區"
"238022","KEA-2213","2019/08/01 19:09:35","新北市樹林區東興街8-1號","121.40975","24.9788883333333","6500700","樹林區"
"238021","KEA-2539","2019/08/01 19:09:42","新北市樹林區柑園街二段426號","121.364661666667","24.947275","6500700","樹林區"
"238025","303-VK","2019/08/01 19:09:33","新北市樹林區民和街67號","121.380966666667","24.9713233333333","6500700","樹林區"
"238017","283-BY","2019/08/01 19:09:36","新北市樹林區中山路二段191號","121.404446666667","24.97752","6500700","樹林區"
"238014","282-BY","2019/08/01 19:09:34","新北市樹林區千歲街92巷7弄32號","121.427368333333","24.9979183333333","6500700","樹林區"
"238020","268-VK","2019/08/01 19:09:42","新北市樹林區俊英街155巷9弄19-1號","121.423601666667","25.0118433333333","6500700","樹林區"
"238026","172-UY","2019/08/01 19:09:46","新北市樹林區德和街18號","121.391806666667","24.9737366666667","6500700","樹林區"
"238016","169-UY","2019/08/01 19:09:27","新北市樹林區文化街25巷26號","121.417988333333","24.9866766666667","6500700","樹林區"
"239007","AAC-297","2019/08/01 19:09:39","新北市鶯歌區中正一路345巷5號","121.357516666667","24.9574083333333","6500800","鶯歌區"
"239008","527-UM","2019/08/01 19:09:40","新北市鶯歌區國際二路14巷8號","121.33783","24.9748066666667","6500800","鶯歌區"
"239005","526-UM","2019/08/01 19:09:41","新北市鶯歌區大湖路361巷46號","121.330716666667","24.9774566666667","6500800","鶯歌區"
"239001","417-VK","2019/08/01 19:09:40","新北市鶯歌區永安街8號","121.338015","24.9555283333333","6500800","鶯歌區"
"239003","360-BY","2019/08/01 19:09:31","新北市鶯歌區鶯桃路447號","121.332283333333","24.9654266666667","6500800","鶯歌區"
"239002","359-BY","2019/08/01 19:09:26","新北市鶯歌區中山路228號","121.344626666667","24.9569883333333","6500800","鶯歌區"
"239004","193-VK","2019/08/01 19:09:26","新北市鶯歌區中正三路230巷26號","121.32991","24.9398533333333","6500800","鶯歌區"
"221008","489-VK","2019/08/01 19:09:42","新北市汐止區康寧街426號","121.630698333333","25.0680916666667","6501100","汐止區"
"221036","130-UY","2019/08/01 19:09:32","新北市汐止區南昌街35號","121.66295","25.069155","6501100","汐止區"
"221015","131-UY","2019/08/01 19:09:35","新北市汐止區鄉長路一段37號","121.66531","25.0749483333333","6501100","汐止區"
"244019","KED-0667","2019/08/01 19:09:39","新北市林口區麗園二街12巷2-2號","121.378305","25.0690933333333","6501700","林口區"
"221031","353-TW","2019/08/01 19:09:40","新北市汐止區中興路181巷29弄8號","121.629858333333","25.0658783333333","6501100","汐止區"
"221035","622-UM","2019/08/01 19:09:38","新北市汐止區汐萬路一段117號","121.654076666667","25.07095","6501100","汐止區"
"221002","707-TV","2019/08/01 19:09:37","新北市汐止區大同路一段158號","121.632981666667","25.056705","6501100","汐止區"
"220079","145-BY","2019/08/01 19:09:41","新北市板橋區中正路101號","121.456431666667","25.0147966666667","6500100","板橋區"
"220080","200-UY","2019/08/01 19:09:33","新北市板橋區大觀路二段37巷284號","121.449953333333","25.00134","6500100","板橋區"
"220082","610-BX","2019/08/01 19:09:47","新北市板橋區溪崑二街63號","121.428133333333","24.9904466666667","6500100","板橋區"
"220084","256-TC","2019/08/01 19:09:45","新北市板橋區大觀路三段227-9號","121.430951666667","24.991975","6500100","板橋區"
"224002","257-TC","2019/08/01 19:09:34","新北市平溪區新寮里五分寮10-2號","121.799945","25.07413","6501200","瑞芳區"
"220056","276-BY","2019/08/01 19:09:29","新北市板橋區信義路74巷1弄1號","121.45726","24.9931666666667","6500100","板橋區"
"220072","277-BY","2019/08/01 19:09:37","新北市板橋區溪城路91-1號","121.427088333333","24.983205","6500100","板橋區"
"220101","280-UM","2019/08/01 19:09:42","新北市板橋區雙十路二段167號","121.474098333333","25.028245","6500100","板橋區"
"220094","283-UM","2019/08/01 19:09:32","新北市板橋區吳鳳路23號","121.466988333333","25.0311433333333","6500100","板橋區"
"220071","283-VK","2019/08/01 19:09:40","新北市板橋區重慶路213號","121.46316","25.0015166666667","6500100","板橋區"
"220053","285-VK","2019/08/01 19:09:35","新北市板橋區懷仁街26-1號","121.476386666667","25.0196783333333","6500100","板橋區"
"220083","286-VK","2019/08/01 19:09:28","新北市板橋區龍興街99巷14號","121.443731666667","25.0031333333333","6500100","板橋區"
"220081","287-VK","2019/08/01 19:09:38","新北市板橋區南雅西路二段110巷33號","121.452848333333","25.0126816666667","6500100","板橋區"
"220090","288-VK","2019/08/01 19:09:47","新北市板橋區長江路一段106巷13弄8號","121.460441666667","25.029195","6500100","板橋區"
"220061","293-UM","2019/08/01 19:09:46","新北市板橋區三民路二段35巷17號","121.480626666667","25.01802","6500100","板橋區"
"220075","303-R5","2019/08/01 19:09:35","新北市板橋區福德街17號","121.456133333333","25.0091433333333","6500100","板橋區"
"220062","305-R5","2019/08/01 19:09:40","新北市板橋區三民路二段245巷40號","121.480765","25.01257","6500100","板橋區"
"220092","307-R5","2019/08/01 19:09:28","新北市板橋區光武街36巷32-2號","121.468491666667","25.02644","6500100","板橋區"
"220098","317-R6","2019/08/01 19:09:42","新北市板橋區民有街47號","121.465511666667","25.0259233333333","6500100","板橋區"
"220055","461-BY","2019/08/01 19:09:27","新北市板橋區新民街5號","121.463755","25.0097616666667","6500100","板橋區"
"220089","487-VK","2019/08/01 19:09:32","新北市板橋區漢生西路34號","121.463415","25.0183133333333","6500100","板橋區"
"220088","491-VK","2019/08/01 19:09:45","新北市板橋區雙十路二段37-1號","121.476856666667","25.0257433333333","6500100","板橋區"
"220035","560-BX","2019/08/01 19:09:44","新北市板橋區中正路332號","121.45433","25.0221966666667","6500100","板橋區"
"220103","561-BX","2019/08/01 19:09:35","新北市板橋區介壽街3號","121.46724","25.0204083333333","6500100","板橋區"
"220063","609-BX","2019/08/01 19:09:40","新北市板橋區三民路二段202-27號","121.478943333333","25.0126966666667","6500100","板橋區"
"220091","637-BX","2019/08/01 19:09:26","新北市板橋區縣民大道三段209號","121.480111666667","25.025095","6500100","板橋區"
"220057","686-BX","2019/08/01 19:09:27","新北市板橋區五權街18號","121.464363333333","24.993885","6500100","板橋區"
"220077","687-BX","2019/08/01 19:09:42","新北市板橋區大觀路二段341號","121.441166666667","24.998515","6500100","板橋區"
"220054","741-BX","2019/08/01 19:07:16","新北市板橋區實踐路34號","121.463523333333","25.007075","6500100","板橋區"
"220102","KEA-2699","2019/08/01 19:09:35","新北市板橋區文聖街156-1號","121.478838333333","25.0273166666667","6500100","板橋區"
"220067","829-TW","2019/08/01 19:09:32","新北市板橋區三民路二段正隆巷45號","121.476756666667","25.0134216666667","6500100","板橋區"
"220074","895-R6","2019/08/01 19:09:48","新北市板橋區中正路自強新村5-1號","121.455153333333","25.0140933333333","6500100","板橋區"
"220073","985-R7","2019/08/01 19:09:31","新北市板橋區中正路249號","121.45577","25.018235","6500100","板橋區"
"220097","AAC-210","2019/08/01 19:09:41","新北市板橋區幸福路32巷3弄12號","121.460791666667","25.0206833333333","6500100","板橋區"
"220064","AAC-253","2019/08/01 19:09:37","新北市板橋區縣民大道二段102號","121.46675","25.0149516666667","6500100","板橋區"
"235068","KEA-2873","2019/08/01 19:09:22","新北市中和區連勝街38巷1號","121.49785","24.9977816666667","6500300","中和區"
"235061","KEA-2875","2019/08/01 19:09:32","新北市中和區民有街22-3號","121.475693333333","25.0052216666667","6500300","中和區"
