"lineid","car","time","location","longitude","latitude","cityid","cityname"
"234046","148-BY","2019/08/01 19:19:46","新北市永和區得和路341號","121.523851666667","24.9995516666667","6500400","永和區"
"234038","336-UY","2019/08/01 19:19:39","新北市永和區民樂街55巷2號","121.527473333333","24.9983533333333","6500400","永和區"
"234064","337-UY","2019/08/01 19:19:30","新北市永和區永元路17巷6弄2號","121.521336666667","25.00064","6500400","永和區"
"234086","338-UY","2019/08/01 19:19:29","新北市永和區永利路37號","121.518735","25.00557","6500400","永和區"
"234070","552-UM","2019/08/01 19:19:29","新北市永和區豫溪街55號","121.517203333333","25.00989","6500400","永和區"
"234017","745-BX","2019/08/01 19:19:30","新北市永和區文化路192巷14弄21號","121.511741666667","25.0169966666667","6500400","永和區"
"234030","746-BX","2019/08/01 19:19:39","新北市永和區厚德街84號","121.523663333333","24.9989333333333","6500400","永和區"
"234054","KEA-2590","2019/08/01 19:19:45","新北市永和區中興街45號","121.51645","25.0117683333333","6500400","永和區"
"234007","KED-0605","2019/08/01 19:19:31","新北市永和區中山路一段242號","121.507783333333","25.0081116666667","6500400","永和區"
"234013","KEA-2591","2019/08/01 19:19:40","新北市永和區仁愛路103號","121.512478333333","25.0130166666667","6500400","永和區"
"234061","AAD-866","2019/08/01 19:19:45","新北市永和區秀朗路一段175號","121.517055","25.0037066666667","6500400","永和區"
"234081","748-BX","2019/08/01 19:19:28","新北市永和區福和路57巷2號","121.52291","25.0076916666667","6500400","永和區"
"234042","862-TW","2019/08/01 19:19:41","新北市永和區保平路151巷2弄6-3號","121.509593333333","25.0052333333333","6500400","永和區"
"234050","863-TW","2019/08/01 19:19:30","新北市永和區保福路二段78號","121.510518333333","25.0133783333333","6500400","永和區"
"234026","9371-KE","2019/08/01 19:19:34","新北市永和區安樂路144巷31號","121.515281666667","24.9996583333333","6500400","永和區"
"234011","9373-KE","2019/08/01 19:19:29","新北市永和區保福路二段9巷9號","121.510545","25.0108333333333","6500400","永和區"
"249005","172-UM","2019/08/01 19:19:30","新北市八里區中華路三段98-1號","121.392646666667","25.1373166666667","6502300","八里區"
"249001","173-UM","2019/08/01 19:19:27","新北市八里區中華路二段31-2號","121.411956666667","25.1533816666667","6502300","八里區"
"249003","593-UM","2019/08/01 19:19:36","新北市八里區中山路二段468號","121.39897","25.1471983333333","6502300","八里區"
"248008","KED-0815","2019/08/01 19:19:26","新北市五股區中興路二段83巷26-6號","121.460073333333","25.0753066666667","6501500","五股區"
"248020","KED-0813","2019/08/01 19:19:33","新北市五股區凌雲路三段59-6號","121.425216666667","25.1249483333333","6501500","五股區"
"248012","247-BX","2019/08/01 19:19:32","新北市五股區中興路四段48巷16號","121.438631666667","25.08342","6501500","五股區"
"248014","261-SL","2019/08/01 19:19:38","新北市五股區民義路一段185-19號","121.431265","25.0874283333333","6501500","五股區"
"248010","272-BY","2019/08/01 19:19:47","新北市五股區水碓一路23號","121.430541666667","25.0712433333333","6501500","五股區"
"248004","677-BX","2019/08/01 19:19:35","新北市五股區五福路136號","121.432088333333","25.09126","6501500","五股區"
"248002","678-BX","2019/08/01 19:19:42","新北市五股區凌雲路一段158巷6號","121.447801666667","25.1029683333333","6501500","五股區"
"234023","9380-KE","2019/08/01 19:19:44","新北市永和區竹林路112-1號","121.519765","25.0117166666667","6500400","永和區"
"234077","969-R7","2019/08/01 19:19:41","新北市永和區民治街70號","121.517873333333","24.998275","6500400","永和區"
"234074","AAC-211","2019/08/01 19:19:31","新北市永和區竹林路104號","121.519631666667","25.011895","6500400","永和區"
"234067","AAC-212","2019/08/01 19:19:37","新北市永和區保平路32號","121.511891666667","25.0073433333333","6500400","永和區"
"234003","AAC-295","2019/08/01 19:19:40","新北市永和區中山路一段138-1號","121.510271666667","25.0098283333333","6500400","永和區"
"244023","483-VK","2019/08/01 19:19:43","新北市林口區仁愛路二段700號","121.369123333333","25.080795","6501700","林口區"
"244025","837-TS","2019/08/01 19:19:31","新北市林口區文化北路一段542巷55弄31號","121.369913333333","25.0792733333333","6501700","林口區"
"243012","AAD-798","2019/08/01 19:19:37","新北市泰山區同義街8號","121.431278333333","25.0568716666667","6501600","泰山區"
"243010","297-R6","2019/08/01 19:19:42","新北市泰山區明志路一段488號","121.430375","25.05467","6501600","泰山區"
"243014","KEA-2801","2019/08/01 19:19:30","新北市泰山區泰林路二段148號","121.434223333333","25.0600716666667","6501600","泰山區"
"243016","421-VK","2019/08/01 19:19:39","新北市泰山區工專路36號","121.423335","25.0399766666667","6501600","泰山區"
"243009","KEA-2215","2019/08/01 19:19:36","新北市泰山區明志路一段72號","121.433525","25.064545","6501600","泰山區"
"243011","KEA-2216","2019/08/01 19:19:46","新北市泰山區中央路11巷1號","121.426266666667","25.0428116666667","6501600","泰山區"
"243013","646-TV","2019/08/01 19:19:45","新北市泰山區明志路三段145巷9號","121.425551666667","25.039925","6501600","泰山區"
"243015","680-BX","2019/08/01 19:19:44","新北市泰山區公園路54號","121.428001666667","25.054855","6501600","泰山區"
"222003","436-BY","2019/08/01 19:19:41","新北市深坑區深南路204號","121.626673333333","25.0160483333333","6501800","深坑區"
"222002","659-BX","2019/08/01 19:19:43","新北市深坑區北深路一段177號","121.632535","25.0108566666667","6501800","深坑區"
"231061","002-UM","2019/08/01 19:19:42","新北市新店區安康路一段46巷4號","121.530678333333","24.9611116666667","6500600","新店區"
"231058","0293-UT","2019/08/01 19:19:39","新北市新店區光明街286巷6號","121.540595","24.9637233333333","6500600","新店區"
"231044","046-UY","2019/08/01 19:19:44","新北市新店區中興路三段312號","121.542213333333","24.9856833333333","6500600","新店區"
"231060","106-UY","2019/08/01 19:19:42","新北市新店區安康路二段140號","121.512456666667","24.96175","6500600","新店區"
"231051","107-UY","2019/08/01 19:19:30","新北市新店區中央路103號","121.531025","24.9749733333333","6500600","新店區"
"231049","108-UY","2019/08/01 19:19:33","新北市新店區明德路64號","121.54156","24.9793833333333","6500600","新店區"
"231065","110-UY","2019/08/01 19:19:31","新北市新店區安祥路110巷24號","121.474248333333","24.9564466666667","6500600","新店區"
"231039","187-VK","2019/08/01 19:10:51","新北市新店區安一路一段1-1號","121.519591666667","24.9612333333333","6500600","新店區"
"231062","256-BX","2019/08/01 19:19:28","新北市新店區安康路一段229號","121.525488333333","24.9631383333333","6500600","新店區"
"231054","260-TV","2019/08/01 19:19:35","新北市新店區北宜路一段72號","121.538036666667","24.9559083333333","6500600","新店區"
"231042","268-BY","2019/08/01 19:19:27","新北市新店區北宜路一段3號","121.538301666667","24.9584566666667","6500600","新店區"
"231064","278-BY","2019/08/01 19:19:41","新北市新店區安忠路57巷26弄27號","121.512468333333","24.958065","6500600","新店區"
"231050","AAD-862","2019/08/01 19:19:29","新北市新店區竹林路25巷10號","121.552303333333","24.951325","6500600","新店區"
"231045","355-BY","2019/08/01 19:19:40","新北市新店區北宜路一段260號","121.545696666667","24.952755","6500600","新店區"
"231056","4715-K9","2019/08/01 19:19:38","新北市新店區安康路二段414巷2號","121.495886666667","24.95783","6500600","新店區"
"231052","513-UM","2019/08/01 19:19:24","新北市新店區自強路156號","121.546181666667","24.9213366666667","6500600","新店區"
"231041","619-UM","2019/08/01 19:19:40","新北市新店區溪園路247號","121.525205","24.9831866666667","6500600","新店區"
"231063","641-BX","2019/08/01 19:19:31","新北市新店區達觀路10號","121.503375","24.9437383333333","6500600","新店區"
"231047","718-UY","2019/08/01 19:19:45","新北市新店區德正街27巷29弄31號","121.545285","24.971885","6500600","新店區"
"231046","719-UM","2019/08/01 19:18:31","新北市新店區華城路5-3號","121.529358333333","24.9585","6500600","新店區"
"231057","720-UM","2019/08/01 19:19:33","新北市新店區百齡一路12號","121.552996666667","24.932475","6500600","新店區"
"231059","897-TW","2019/08/01 19:19:42","新北市新店區安和路二段148號","121.51981","24.9730866666667","6500600","新店區"
"231040","898-TW","2019/08/01 19:19:39","新北市新店區三民路80號","121.53468","24.972475","6500600","新店區"
"231043","899-TW","2019/08/01 19:19:40","新北市新店區北新路二段106-1號","121.54294","24.973985","6500600","新店區"
"231066","AKT-0513","2019/08/01 19:19:34","新北市新店區安祥路35-2號","121.490676666667","24.95681","6500600","新店區"
"241031","061-VK","2019/08/01 19:19:29","新北市三重區重新路四段101-9號","121.485571666667","25.0538266666667","6500200","三重區"
"241017","063-VK","2019/08/01 19:19:44","新北市三重區大同北路213號","121.491775","25.06569","6500200","三重區"
"241006","262-UM","2019/08/01 19:19:32","新北市三重區車路頭街180號","121.483648333333","25.0770983333333","6500200","三重區"
"241009","267-UM","2019/08/01 19:19:36","新北市三重區溪尾街230巷40號","121.486336666667","25.0812066666667","6500200","三重區"
"241032","269-UM","2019/08/01 19:13:34","新北市三重區興華街59號","121.48526","25.0599083333333","6500200","三重區"
"241007","398-BY","2019/08/01 19:19:29","新北市三重區慈愛街65號","121.486696666667","25.0792866666667","6500200","三重區"
"241035","KEA-2210","2019/08/01 19:19:27","新北市三重區信義西街138號","121.495438333333","25.06429","6500200","三重區"
"241030","KED-0822","2019/08/01 19:19:34","新北市三重區新興路40號","121.491486666667","25.0533083333333","6500200","三重區"
"241013","475-VK","2019/08/01 19:19:28","新北市三重區仁愛街99號","121.4957","25.0738683333333","6500200","三重區"
"241020","478-VK","2019/08/01 19:19:21","新北市三重區大智街234號","121.489681666667","25.07254","6500200","三重區"
"241022","KED-0820","2019/08/01 19:19:29","新北市三重區重陽路二段49號","121.487236666667","25.0633533333333","6500200","三重區"
"241029","942-UM","2019/08/01 19:19:43","新北市三重區重安街27號","121.491135","25.0570916666667","6500200","三重區"
"235066","003-UY","2019/08/01 19:19:40","新北市中和區廣福路81號","121.50223","25.0010583333333","6500300","中和區"
"235064","005-UY","2019/08/01 19:19:28","新北市中和區南山路81巷68號","121.504113333333","24.997865","6500300","中和區"
"235063","006-UY","2019/08/01 19:19:34","新北市中和區連城路249巷21弄2號","121.49408","24.9959183333333","6500300","中和區"
"235056","096-UM","2019/08/01 19:19:32","新北市中和區中山路三段102號","121.476956666667","25.0059066666667","6500300","中和區"
"235039","097-UM","2019/08/01 19:19:42","新北市中和區秀峰街103巷2弄4號","121.51993","24.9905166666667","6500300","中和區"
"235065","098-UM","2019/08/01 19:19:24","新北市中和區中山路二段64巷16弄11號","121.503681666667","25.006195","6500300","中和區"
"235040","150-BY","2019/08/01 19:19:38","新北市中和區宜安路65號","121.511303333333","24.9970483333333","6500300","中和區"
"235058","151-BY","2019/08/01 19:19:40","新北市中和區中正路637巷52弄1號","121.485388333333","24.9933783333333","6500300","中和區"
"235055","183-VK","2019/08/01 19:19:45","新北市中和區莒光路84巷12號","121.47189","25.0020966666667","6500300","中和區"
"235038","185-VK","2019/08/01 19:19:43","新北市中和區大仁街106號","121.520521666667","24.9929616666667","6500300","中和區"
"235049","186-VK","2019/08/01 19:19:30","新北市中和區景新街279號","121.50949","24.99353","6500300","中和區"
"235067","255-BX","2019/08/01 19:19:38","新北市中和區連城路340巷14弄15號","121.483015","24.9971516666667","6500300","中和區"
"235044","293-VK","2019/08/01 19:19:31","新北市中和區復興路304號","121.501296666667","24.9903066666667","6500300","中和區"
"235072","301-VK","2019/08/01 19:19:43","新北市中和區連城路265巷1號","121.491406666667","24.9963483333333","6500300","中和區"
"235043","352-BY","2019/08/01 19:19:45","新北市中和區景平路460號","121.505825","24.99364","6500300","中和區"
"235042","KEA-2878","2019/08/01 19:19:35","新北市中和區安樂路217巷40弄1號","121.513326666667","24.9979466666667","6500300","中和區"
"235050","4979-A6","2019/08/01 19:19:37","新北市中和區景安路208巷12號","121.503395","24.9912866666667","6500300","中和區"
"235069","4980-A6","2019/08/01 19:19:27","新北市中和區福美路298-1號","121.497473333333","25.0049916666667","6500300","中和區"
"235070","558-UM","2019/08/01 19:19:40","新北市中和區景平路493-5號","121.500141666667","24.997945","6500300","中和區"
"235045","565-BX","2019/08/01 19:19:28","新北市中和區景新街425號","121.513161666667","24.9892883333333","6500300","中和區"
"235060","KED-0823","2019/08/01 19:19:26","新北市中和區員山路294巷23號","121.482288333333","25.0026733333333","6500300","中和區"
"235054","640-BX","2019/08/01 19:19:34","新北市中和區國光街102巷11弄11號","121.470595","25.001195","6500300","中和區"
"235047","732-UM","2019/08/01 19:19:28","新北市中和區景平路239巷65號","121.508446666667","24.9921416666667","6500300","中和區"
"235046","733-UM","2019/08/01 19:19:42","新北市中和區忠孝街20巷10號","121.510611666667","24.98241","6500300","中和區"
"235071","783-BX","2019/08/01 19:19:42","新北市中和區連城路469巷62號","121.48345","24.994175","6500300","中和區"
"235057","801-TS","2019/08/01 19:19:27","新北市中和區中山路三段37巷37號","121.479636666667","25.004795","6500300","中和區"
"235041","802-TS","2019/08/01 19:19:31","新北市中和區中和路322號","121.50991","25.0007983333333","6500300","中和區"
"235052","805-TS","2019/08/01 19:19:33","新北市中和區華新街113巷2弄16號","121.506776666667","24.9816816666667","6500300","中和區"
"235048","896-TW","2019/08/01 19:19:39","新北市中和區忠孝街87號","121.512113333333","24.9854583333333","6500300","中和區"
"235053","900-TW","2019/08/01 19:19:41","新北市中和區華順街73號","121.465613333333","24.998405","6500300","中和區"
"235051","157-BY","2019/08/01 19:19:32","新北市中和區景平路239巷33弄1號","121.50946","24.9919183333333","6500300","中和區"
"235037","AAC-213","2019/08/01 19:19:37","新北市中和區秀朗路三段10巷14弄16號","121.524988333333","24.9966066666667","6500300","中和區"
"235059","AAC-215","2019/08/01 19:19:40","新北市中和區圓通路286巷1號","121.491391666667","24.9911416666667","6500300","中和區"
"220065","072-UY","2019/08/01 19:19:34","新北市板橋區民族路129巷1號","121.467406666667","25.008165","6500100","板橋區"
"220086","073-UY","2019/08/01 19:19:34","新北市板橋區幸福路70巷1號","121.46058","25.019995","6500100","板橋區"
"220068","075-UY","2019/08/01 19:19:40","新北市板橋區萬安街146號","121.48333","25.02622","6500100","板橋區"
"220069","AAD-861","2019/08/01 19:19:34","新北市板橋區大明街20巷29弄3-1號","121.458485","25.0034733333333","6500100","板橋區"
"220106","120-SR","2019/08/01 19:19:33","新北市板橋區文化路二段441巷18號","121.4743","25.03386","6500100","板橋區"
"226004","312-R5","2019/08/01 19:19:28","新北市平溪區靜安路三段226號","121.77571","25.0396","6502400","平溪區"
"228001","212-TW","2019/08/01 19:19:26","新北市貢寮區真理里新港街10號","121.925495","25.0543516666667","6502600","貢寮區"
"228002","663-BX","2019/08/01 19:19:40","新北市貢寮區雙玉里田寮洋街21號","121.92721","25.0239733333333","6502600","貢寮區"
"228003","828-UM","2019/08/01 19:19:41","新北市貢寮區和美里和美街22-1號","121.912821666667","25.0826133333333","6502600","貢寮區"
"224008","273-VK","2019/08/01 19:19:27","新北市瑞芳區明燈路三段283號","121.798576666667","25.1121666666667","6501200","瑞芳區"
"227002","642-TC","2019/08/01 19:19:27","新北市雙溪區平林里梅竹蹊66-1號","121.86017","25.0358016666667","6502500","雙溪區"
"227001","400-TW","2019/08/01 19:19:32","新北市雙溪區新基里中華路6號","121.865975","25.0364266666667","6502500","雙溪區"
"253006","032-BX","2019/08/01 19:19:39","新北市石門區崁子腳18-2號","121.534546666667","25.2904216666667","6502200","石門區"
"253005","295-VK","2019/08/01 19:19:41","新北市石門區阿里荖5號","121.610846666667","25.2797266666667","6502200","石門區"
"222001","KEA-2212","2019/08/01 19:19:47","新北市深坑區北深路二段103號","121.617446666667","25.003345","6501800","深坑區"
"208002","KEA-2872","2019/08/01 19:19:28","新北市金山區中華路142號","121.633021666667","25.2211283333333","6502700","金山區"
"208003","665-BX","2019/08/01 19:19:47","新北市金山區忠孝一路30號","121.638086666667","25.2198716666667","6502700","金山區"
"251010","012-UM","2019/08/01 19:19:37","新北市淡水區沙崙路25巷12號","121.42128","25.18179","6501000","淡水區"
"251015","KEA-2871","2019/08/01 19:19:31","新北市淡水區南勢埔1號","121.484453333333","25.180485","6501000","淡水區"
"251016","179-VK","2019/08/01 19:19:27","新北市淡水區淡金路三段350巷18號","121.450745","25.2083283333333","6501000","淡水區"
"251008","181-VK","2019/08/01 19:19:38","新北市淡水區新市二路二段2號","121.426418333333","25.1957283333333","6501000","淡水區"
"251013","182-VK","2019/08/01 19:19:34","新北市淡水區安子內12號","121.481193333333","25.2193066666667","6501000","淡水區"
"251007","442-VK","2019/08/01 19:19:36","新北市淡水區民生路145巷18號","121.466225","25.1386666666667","6501000","淡水區"
"251005","443-VK","2019/08/01 19:19:40","新北市淡水區水源街一段34巷1號","121.443245","25.1722466666667","6501000","淡水區"
"251001","559-UM","2019/08/01 19:19:31","新北市淡水區民權路92巷35-1號","121.462073333333","25.126775","6501000","淡水區"
"251009","575-R6","2019/08/01 19:19:23","新北市淡水區清水街204號","121.440391666667","25.1711516666667","6501000","淡水區"
"251014","577-R6","2019/08/01 19:19:32","新北市淡水區小中寮19-7號","121.484738333333","25.22964","6501000","淡水區"
"251002","672-BX","2019/08/01 19:19:38","新北市淡水區文化路18號","121.439643333333","25.17258","6501000","淡水區"
"251003","766-UM","2019/08/01 19:19:42","新北市淡水區中山北路一段76號","121.442188333333","25.1760633333333","6501000","淡水區"
"207003","550-UM","2019/08/01 19:19:30","新北市萬里區大鵬里萬里加投29號","121.647396666667","25.20659","6502800","萬里區"
"207004","225-TW","2019/08/01 19:19:45","新北市萬里區萬里里成功新村67號","121.688455","25.1745633333333","6502800","萬里區"
"252002","178-VK","2019/08/01 19:19:34","新北市三芝區淡金路二段18-1號","121.502671666667","25.2595116666667","6502100","三芝區"
"208001","170-UY","2019/08/01 19:19:27","新北市金山區民生路69號","121.640166666667","25.2197033333333","6502700","金山區"
"237004","KEA-2597","2019/08/01 19:19:43","新北市三峽區有木205-1號","121.439051666667","24.8515166666667","6500900","三峽區"
"237007","153-BY","2019/08/01 19:19:47","新北市三峽區二鬮路112號","121.359971666667","24.9086933333333","6500900","三峽區"
"237009","210-TH","2019/08/01 19:19:38","新北市三峽區民生街219號","121.371478333333","24.9348316666667","6500900","三峽區"
"237013","252-BX","2019/08/01 19:19:32","新北市三峽區光明路75巷6號","121.37733","24.92796","6500900","三峽區"
"237012","275-BY","2019/08/01 19:19:28","新北市三峽區三樹路222巷236弄8-3號","121.391376666667","24.9430066666667","6500900","三峽區"
"237008","302-VK","2019/08/01 19:19:27","新北市三峽區大同路154號","121.373123333333","24.9267616666667","6500900","三峽區"
"237014","433-BY","2019/08/01 19:19:26","新北市三峽區中山路299巷19號","121.36137","24.9366233333333","6500900","三峽區"
"237006","5529-G3","2019/08/01 19:19:28","新北市三峽區大同路83號","121.375001666667","24.9271916666667","6500900","三峽區"
"237011","KEA-2596","2019/08/01 19:19:33","新北市三峽區介壽路三段107號","121.395496666667","24.9393533333333","6500900","三峽區"
"237015","649-BX","2019/08/01 19:19:44","新北市三峽區安坑63號","121.472175","24.9268783333333","6500900","三峽區"
"237010","706-TV","2019/08/01 19:19:26","新北市三峽區國光街36號","121.374836666667","24.9377166666667","6500900","三峽區"
"237005","AKY-6261","2019/08/01 19:19:36","新北市三峽區中山路459巷50-1號","121.356303333333","24.9372666666667","6500900","三峽區"
"236078","166-UM","2019/08/01 19:19:44","新北市土城區中央路四段321巷32-2號","121.411783333333","24.9512733333333","6501300","土城區"
"236026","269-VK","2019/08/01 19:19:41","新北市土城區中正路67巷26號","121.444406666667","24.976625","6501300","土城區"
"236014","270-VK","2019/08/01 19:19:34","新北市土城區學府路一段23巷25弄18號","121.457875","24.986625","6501300","土城區"
"236070","KEA-2877","2019/08/01 19:19:25","新北市土城區學成路76巷1號","121.45117","24.9883066666667","6501300","土城區"
"252001","KED-0821","2019/08/01 19:19:25","新北市三芝區長勤街9巷11弄1號","121.501695","25.2547366666667","6502100","三芝區"
"236021","401-BY","2019/08/01 19:19:35","新北市土城區峰廷街3號","121.469048333333","24.9873133333333","6501300","土城區"
"236059","912-UM","2019/08/01 19:19:43","新北市土城區中央路二段258號","121.441606666667","24.9745816666667","6501300","土城區"
"238015","755-BX","2019/08/01 19:19:33","新北市樹林區大安路537巷10號","121.412756666667","24.98436","6500700","樹林區"
"238023","601-UM","2019/08/01 19:19:40","桃園市龜山區萬壽路一段305號","121.402858333333","25.0172466666667","6500700","樹林區"
"238019","599-UM","2019/08/01 19:19:34","新北市樹林區東榮街89號","121.416616666667","24.982935","6500700","樹林區"
"238024","5061-A6","2019/08/01 19:19:38","新北市樹林區福德街17號","121.40097","24.9760883333333","6500700","樹林區"
"238018","KEA-2217","2019/08/01 19:19:37","新北市樹林區中華路118巷8號","121.417768333333","24.98079","6500700","樹林區"
"238022","KEA-2213","2019/08/01 19:19:35","新北市樹林區中山路二段151巷8弄24號","121.405795","24.9774666666667","6500700","樹林區"
"238021","KEA-2539","2019/08/01 19:19:42","新北市樹林區柑園街二段203巷16號","121.376928333333","24.9512033333333","6500700","樹林區"
"238025","303-VK","2019/08/01 19:19:33","新北市樹林區中山路三段166號","121.389196666667","24.9701966666667","6500700","樹林區"
"238017","283-BY","2019/08/01 19:19:36","新北市樹林區保安街二段179-1號","121.415308333333","25.0030866666667","6500700","樹林區"
"238014","282-BY","2019/08/01 19:19:35","新北市樹林區千歲街62號","121.426125","24.9973216666667","6500700","樹林區"
"238020","268-VK","2019/08/01 19:19:42","新北市樹林區俊英街123巷1號","121.424466666667","25.0106283333333","6500700","樹林區"
"238026","172-UY","2019/08/01 19:19:46","新北市樹林區地政街13號","121.394048333333","24.9717916666667","6500700","樹林區"
"238016","169-UY","2019/08/01 19:19:28","新北市樹林區中山路一段306巷51弄26號","121.417765","24.9859033333333","6500700","樹林區"
"239007","AAC-297","2019/08/01 19:19:39","新北市鶯歌區中山路6號","121.353066666667","24.9573","6500800","鶯歌區"
"239006","891-R6","2019/08/01 19:19:40","新北市鶯歌區鶯桃路296巷72弄19號","121.33712","24.9613216666667","6500800","鶯歌區"
"239008","527-UM","2019/08/01 19:19:33","新北市鶯歌區大湖路468巷7弄20號","121.338756666667","24.97284","6500800","鶯歌區"
"239005","526-UM","2019/08/01 19:19:41","新北市鶯歌區大湖路372號","121.346113333333","24.9730483333333","6500800","鶯歌區"
"239001","417-VK","2019/08/01 19:19:40","新北市鶯歌區永智街42號","121.33655","24.95426","6500800","鶯歌區"
"239003","360-BY","2019/08/01 19:19:31","新北市鶯歌區八德路37號","121.33417","24.9538383333333","6500800","鶯歌區"
"239002","359-BY","2019/08/01 19:19:46","新北市鶯歌區中正一路311號","121.356816666667","24.9570283333333","6500800","鶯歌區"
"239004","193-VK","2019/08/01 19:19:46","新北市鶯歌區中正三路302巷15號","121.328001666667","24.9360583333333","6500800","鶯歌區"
"221008","489-VK","2019/08/01 19:19:42","新北市汐止區康寧街307巷1弄9號","121.626861666667","25.0673333333333","6501100","汐止區"
"244019","KED-0667","2019/08/01 19:19:39","新北市林口區文化二路一段577號","121.375743333333","25.0783666666667","6501700","林口區"
"221031","353-TW","2019/08/01 19:19:40","新北市汐止區福德一路5號","121.63918","25.070045","6501100","汐止區"
"221035","622-UM","2019/08/01 19:19:38","新北市汐止區汐萬路一段273號","121.650485","25.0745516666667","6501100","汐止區"
"221002","707-TV","2019/08/01 19:19:37","新北市汐止區大同路一段321號","121.638","25.059185","6501100","汐止區"
"220079","145-BY","2019/08/01 19:19:41","新北市板橋區民權路202巷7弄16號","121.459568333333","25.01496","6500100","板橋區"
"220080","200-UY","2019/08/01 19:19:37","新北市板橋區大觀路二段1巷54號","121.450503333333","25.0036383333333","6500100","板橋區"
"220082","610-BX","2019/08/01 19:19:28","新北市板橋區篤行路三段玉平巷68弄15號","121.42718","24.9862166666667","6500100","板橋區"
"220084","256-TC","2019/08/01 19:19:44","新北市板橋區溪崑二街66巷36號","121.427191666667","24.9912566666667","6500100","板橋區"
"220056","276-BY","2019/08/01 19:19:29","新北市板橋區信義路279巷21號","121.464308333333","24.9902133333333","6500100","板橋區"
"220072","277-BY","2019/08/01 19:19:40","新北市板橋區金門街337巷6弄1號","121.429595","24.9853816666667","6500100","板橋區"
"220101","280-UM","2019/08/01 19:19:42","新北市板橋區莊敬路208巷4弄1號","121.47156","25.0209166666667","6500100","板橋區"
"220094","283-UM","2019/08/01 19:19:32","新北市板橋區吳鳳路50巷18號","121.469026666667","25.0301466666667","6500100","板橋區"
"220071","283-VK","2019/08/01 19:19:33","新北市板橋區重慶路327巷15號","121.464395","24.9986116666667","6500100","板橋區"
"220053","285-VK","2019/08/01 19:19:35","新北市板橋區富山街93號","121.476491666667","25.021835","6500100","板橋區"
"220083","286-VK","2019/08/01 19:19:28","新北市板橋區大觀路二段174巷196弄16號","121.443065","25.003625","6500100","板橋區"
"220081","287-VK","2019/08/01 19:19:37","新北市板橋區南雅東路89號","121.45318","25.00865","6500100","板橋區"
"220090","288-VK","2019/08/01 19:19:26","新北市板橋區裕民街54號","121.461408333333","25.0286416666667","6500100","板橋區"
"220061","293-UM","2019/08/01 19:19:38","新北市板橋區中山路二段307號","121.478758333333","25.018585","6500100","板橋區"
"220075","303-R5","2019/08/01 19:19:35","新北市板橋區南雅南路一段4巷11號","121.454886666667","25.0052","6500100","板橋區"
"220062","305-R5","2019/08/01 19:19:20","新北市板橋區三民路二段居仁巷1弄22號","121.479945","25.0135433333333","6500100","板橋區"
"220092","307-R5","2019/08/01 19:19:28","新北市板橋區光武街2巷47-3號","121.468443333333","25.0259716666667","6500100","板橋區"
"220098","317-R6","2019/08/01 19:19:36","新北市板橋區自由路51巷8號","121.465103333333","25.023525","6500100","板橋區"
"220055","461-BY","2019/08/01 19:19:27","新北市板橋區民族路57號","121.464636666667","25.008845","6500100","板橋區"
"220089","487-VK","2019/08/01 19:19:34","新北市板橋區英士路17號","121.461748333333","25.02513","6500100","板橋區"
"220088","491-VK","2019/08/01 19:19:45","新北市板橋區雙十路二段217號","121.473315","25.0290116666667","6500100","板橋區"
"220035","560-BX","2019/08/01 19:19:24","新北市板橋區新生街23巷19號","121.45655","25.02257","6500100","板橋區"
"220103","561-BX","2019/08/01 19:19:35","新北市板橋區文化路一段286巷1號","121.467766666667","25.021515","6500100","板橋區"
"220063","609-BX","2019/08/01 19:19:44","新北市板橋區三民路一段89號","121.479515","25.021625","6500100","板橋區"
"220091","637-BX","2019/08/01 19:19:26","新北市板橋區縣民大道三段239號","121.481226666667","25.0258583333333","6500100","板橋區"
"220057","686-BX","2019/08/01 19:19:40","新北市板橋區和平路16號","121.460015","24.9944116666667","6500100","板橋區"
"220077","687-BX","2019/08/01 19:19:35","新北市板橋區大觀路二段121號","121.445993333333","25.001455","6500100","板橋區"
"220054","741-BX","2019/08/01 19:16:17","新北市板橋區四川路一段148號","121.459751666667","25.0035016666667","6500100","板橋區"
"220102","KEA-2699","2019/08/01 19:19:35","新北市板橋區松柏街19號","121.474601666667","25.0298983333333","6500100","板橋區"
"220067","829-TW","2019/08/01 19:19:31","新北市板橋區長安街138巷1弄48號","121.473783333333","25.0100033333333","6500100","板橋區"
"220074","895-R6","2019/08/01 19:19:28","新北市板橋區中正路自強新村91-4號","121.454933333333","25.0135116666667","6500100","板橋區"
"220073","985-R7","2019/08/01 19:19:35","新北市板橋區新生街82號","121.457971666667","25.0214133333333","6500100","板橋區"
"220097","AAC-210","2019/08/01 19:19:39","新北市板橋區幸福路32巷12號","121.461458333333","25.020835","6500100","板橋區"
"220064","AAC-253","2019/08/01 19:19:37","新北市板橋區民生路一段33-1號","121.475903333333","25.012325","6500100","板橋區"
"235068","KEA-2873","2019/08/01 19:19:22","新北市中和區圓通路158巷3-1號","121.497661666667","24.996155","6500300","中和區"
"235061","KEA-2875","2019/08/01 19:19:32","新北市中和區員山路276號","121.481311666667","25.0020166666667","6500300","中和區"
