"lineid","car","time","location","longitude","latitude","cityid","cityname"
"234046","148-BY","2019/08/01 19:29:35","新北市永和區秀朗路二段231號","121.526431666667","25.0002433333333","6500400","永和區"
"234038","336-UY","2019/08/01 19:29:39","新北市永和區成功路二段65號","121.527398333333","25.0000766666667","6500400","永和區"
"234064","337-UY","2019/08/01 19:29:30","新北市永和區得和路243巷28弄1號","121.520798333333","25.0012333333333","6500400","永和區"
"234086","338-UY","2019/08/01 19:29:30","新北市永和區林森路80號","121.523423333333","25.0037533333333","6500400","永和區"
"234070","552-UM","2019/08/01 19:29:29","新北市永和區警光街5-1號","121.519745","25.009535","6500400","永和區"
"234017","745-BX","2019/08/01 19:29:32","新北市永和區環河西路一段51巷2號","121.5139","25.0181633333333","6500400","永和區"
"234030","746-BX","2019/08/01 19:29:45","新北市永和區民生路20號","121.522605","24.9974133333333","6500400","永和區"
"234054","KEA-2590","2019/08/01 19:29:45","新北市永和區復興街23號","121.516161666667","25.013085","6500400","永和區"
"234007","KED-0605","2019/08/01 19:29:31","新北市永和區永和路一段122號","121.51379","25.007625","6500400","永和區"
"234013","KEA-2591","2019/08/01 19:29:40","新北市永和區永和路二段70號","121.514866666667","25.0110366666667","6500400","永和區"
"234061","AAD-866","2019/08/01 19:29:25","新北市永和區中正路409號","121.5171","25.0047066666667","6500400","永和區"
"234081","748-BX","2019/08/01 19:29:43","新北市永和區環河東路三段54號","121.526583333333","25.0060666666667","6500400","永和區"
"234042","862-TW","2019/08/01 19:29:41","新北市永和區中和路519巷10號","121.510851666667","25.00313","6500400","永和區"
"234050","863-TW","2019/08/01 19:29:30","新北市永和區信義路120號","121.512355","25.0146716666667","6500400","永和區"
"234026","9371-KE","2019/08/01 19:29:34","新北市中和區安樂路215-1號","121.514248333333","24.99885","6500400","永和區"
"234011","9373-KE","2019/08/01 19:29:29","新北市永和區保福路二段163巷13弄14號","121.509021666667","25.0143333333333","6500400","永和區"
"249003","593-UM","2019/08/01 19:29:31","新北市八里區商港一路22號","121.397073333333","25.14799","6502300","八里區"
"248008","KED-0815","2019/08/01 19:29:46","新北市五股區中興路一段95巷16號","121.466545","25.07232","6501500","五股區"
"248020","KED-0813","2019/08/01 19:29:33","新北市五股區凌雲路三段94號","121.427653333333","25.1214066666667","6501500","五股區"
"248012","247-BX","2019/08/01 19:29:32","新北市五股區成泰路二段91巷9號","121.437501666667","25.084165","6501500","五股區"
"248014","261-SL","2019/08/01 19:29:38","新北市五股區民義路一段172巷11號","121.433575","25.08812","6501500","五股區"
"248010","272-BY","2019/08/01 19:29:27","新北市五股區水碓一路23號","121.430566666667","25.0712416666667","6501500","五股區"
"248004","677-BX","2019/08/01 19:29:35","新北市五股區工商路151號","121.435028333333","25.08659","6501500","五股區"
"248002","678-BX","2019/08/01 19:29:42","新北市五股區凌雲路一段158巷6號","121.447808333333","25.1029483333333","6501500","五股區"
"234023","9380-KE","2019/08/01 19:29:44","新北市永和區竹林路91巷43弄2號","121.52132","25.0128066666667","6500400","永和區"
"234077","969-R7","2019/08/01 19:29:41","新北市永和區民族街43巷14號","121.519233333333","24.99837","6500400","永和區"
"234074","AAC-211","2019/08/01 19:29:44","新北市永和區環河東路二段54號","121.52329","25.0116283333333","6500400","永和區"
"234067","AAC-212","2019/08/01 19:29:37","新北市永和區保平路180號","121.510716666667","25.0065933333333","6500400","永和區"
"234003","AAC-295","2019/08/01 19:29:40","新北市永和區福和路376號","121.514323333333","25.007755","6500400","永和區"
"244023","483-VK","2019/08/01 19:29:43","新北市林口區民有街30號","121.372125","25.0767633333333","6501700","林口區"
"243012","AAD-798","2019/08/01 19:29:37","新北市泰山區仁義路195號","121.433098333333","25.0538983333333","6501600","泰山區"
"243010","297-R6","2019/08/01 19:29:22","新北市泰山區民生路17巷39號","121.429486666667","25.05154","6501600","泰山區"
"243014","KEA-2801","2019/08/01 19:29:30","新北市泰山區中港西路498巷36號","121.43176","25.052865","6501600","泰山區"
"243016","421-VK","2019/08/01 19:29:39","新北市泰山區明志路三段308號","121.421023333333","25.0353166666667","6501600","泰山區"
"243009","KEA-2215","2019/08/01 19:29:39","新北市泰山區半山雅2號","121.431746666667","25.0673616666667","6501600","泰山區"
"243011","KEA-2216","2019/08/01 19:29:46","新北市泰山區貴子路41-1號","121.429485","25.0401083333333","6501600","泰山區"
"243013","646-TV","2019/08/01 19:29:34","新北市泰山區貴子路36巷3弄2號","121.425965","25.0411583333333","6501600","泰山區"
"243015","680-BX","2019/08/01 19:29:44","新北市泰山區明志路二段136巷1-1號","121.427351666667","25.0511866666667","6501600","泰山區"
"222003","436-BY","2019/08/01 19:29:41","新北市深坑區深南路51-1號","121.621233333333","25.00983","6501800","深坑區"
"222002","659-BX","2019/08/01 19:29:43","新北市深坑區北深路一段177號","121.632565","25.0108683333333","6501800","深坑區"
"231061","002-UM","2019/08/01 19:29:42","新北市新店區安康路一段266巷4號","121.5201","24.96404","6500600","新店區"
"231058","0293-UT","2019/08/01 19:29:39","新北市新店區北新路二段228巷2號","121.543213333333","24.9771283333333","6500600","新店區"
"231044","046-UY","2019/08/01 19:29:42","新北市新店區中興路三段199號","121.54378","24.9815183333333","6500600","新店區"
"231060","106-UY","2019/08/01 19:29:41","新北市新店區安康路二段3-1號","121.516023333333","24.9637183333333","6500600","新店區"
"231051","107-UY","2019/08/01 19:29:30","新北市新店區中央路97號","121.53135","24.9750433333333","6500600","新店區"
"231049","108-UY","2019/08/01 19:29:33","新北市新店區北新路三段105巷11號","121.540756666667","24.9820933333333","6500600","新店區"
"231065","110-UY","2019/08/01 19:29:31","新北市新店區安祥路109巷1弄63號","121.47828","24.96079","6500600","新店區"
"231039","187-VK","2019/08/01 19:10:51","新北市新店區安一路一段1-1號","121.519591666667","24.9612333333333","6500600","新店區"
"231062","256-BX","2019/08/01 19:29:28","新北市新店區莒光路70號","121.522956666667","24.954885","6500600","新店區"
"231054","260-TV","2019/08/01 19:29:35","新北市新店區文中路35巷12號","121.539735","24.9567116666667","6500600","新店區"
"231042","268-BY","2019/08/01 19:29:44","新北市新店區中興路一段80號","121.539578333333","24.96002","6500600","新店區"
"231064","278-BY","2019/08/01 19:29:41","新北市新店區安康路二段85巷18號","121.513706666667","24.9622166666667","6500600","新店區"
"231050","AAD-862","2019/08/01 19:29:29","新北市新店區竹林路92號","121.55397","24.9501983333333","6500600","新店區"
"231045","355-BY","2019/08/01 19:29:40","新北市新店區北宜路二段209號","121.553136666667","24.9533366666667","6500600","新店區"
"231056","4715-K9","2019/08/01 19:29:39","新北市新店區吉安街43號","121.515266666667","24.9659483333333","6500600","新店區"
"231067","4772-VM","2019/08/01 19:29:42","新北市新店區薏仁坑路自強巷1號","121.497808333333","24.957605","6500600","新店區"
"231052","513-UM","2019/08/01 19:29:24","新北市新店區屈尺路2號","121.549333333333","24.9225383333333","6500600","新店區"
"231041","619-UM","2019/08/01 19:29:40","新北市新店區中正路662號","121.534061666667","24.9895316666667","6500600","新店區"
"231063","641-BX","2019/08/01 19:29:31","新北市新店區達觀路14巷2號","121.50331","24.94168","6500600","新店區"
"231047","718-UY","2019/08/01 19:29:25","新北市新店區中興路二段81號","121.546835","24.9711383333333","6500600","新店區"
"231046","719-UM","2019/08/01 19:29:31","新北市新店區北新路一段14號","121.540851666667","24.96558","6500600","新店區"
"231057","720-UM","2019/08/01 19:29:33","新北市新店區花園一路三段28號","121.550693333333","24.932805","6500600","新店區"
"231059","897-TW","2019/08/01 19:29:42","新北市新店區安和路三段31號","121.517693333333","24.9816366666667","6500600","新店區"
"231040","898-TW","2019/08/01 19:29:34","新北市新店區中華路68號","121.539103333333","24.9691233333333","6500600","新店區"
"231043","899-TW","2019/08/01 19:29:40","新北市新店區北新路二段185號","121.542793333333","24.977595","6500600","新店區"
"231066","AKT-0513","2019/08/01 19:29:34","新北市新店區安康路三段359巷12弄25號","121.484016666667","24.949315","6500600","新店區"
"241028","022-UY","2019/08/01 19:29:43","新北市三重區中寮街18號","121.492235","25.0595016666667","6500200","三重區"
"241008","059-VK","2019/08/01 19:29:38","新北市三重區永福街135巷33號","121.47748","25.07719","6500200","三重區"
"241016","060-VK","2019/08/01 19:29:28","新北市三重區大同北路47號","121.495246666667","25.0630433333333","6500200","三重區"
"241031","061-VK","2019/08/01 19:29:38","新北市三重區集美街61號","121.488456666667","25.0543966666667","6500200","三重區"
"241017","063-VK","2019/08/01 19:29:44","新北市三重區國隆路31號","121.492398333333","25.06446","6500200","三重區"
"241006","262-UM","2019/08/01 19:29:32","新北市三重區自強路三段75號","121.487078333333","25.0737133333333","6500200","三重區"
"241009","267-UM","2019/08/01 19:29:36","新北市三重區溪尾街242巷66號","121.486175","25.08143","6500200","三重區"
"241032","269-UM","2019/08/01 19:29:34","新北市三重區三陽路56號","121.484405","25.0587816666667","6500200","三重區"
"241013","270-UM","2019/08/01 19:29:31","新北市三重區仁愛街101號","121.495696666667","25.0739216666667","6500200","三重區"
"241025","271-UM","2019/08/01 19:29:43","新北市三重區頂崁街210巷28弄5號","121.475788333333","25.0675483333333","6500200","三重區"
"241007","398-BY","2019/08/01 19:29:29","新北市三重區溪尾街124-2號","121.489213333333","25.0792966666667","6500200","三重區"
"241035","KEA-2210","2019/08/01 19:29:27","新北市三重區信義西街1號","121.498163333333","25.0648183333333","6500200","三重區"
"241030","KED-0822","2019/08/01 19:29:34","新北市三重區成功路41巷17號","121.490435","25.0517083333333","6500200","三重區"
"241004","475-VK","2019/08/01 19:29:28","新北市三重區仁愛街88號","121.495598333333","25.0738816666667","6500200","三重區"
"241020","478-VK","2019/08/01 19:29:41","新北市三重區三和路四段20巷11號","121.490515","25.0738866666667","6500200","三重區"
"241026","480-VK","2019/08/01 19:29:35","新北市三重區文化南路47巷6號","121.49973","25.06121","6500200","三重區"
"241023","545-UM","2019/08/01 19:29:27","新北市三重區頂崁街99號","121.477983333333","25.06384","6500200","三重區"
"241022","KED-0820","2019/08/01 19:29:40","新北市三重區三民街165巷19號","121.4842","25.0654833333333","6500200","三重區"
"241029","942-UM","2019/08/01 19:29:43","新北市三重區泉州街84巷18號","121.495673333333","25.0541433333333","6500200","三重區"
"235066","003-UY","2019/08/01 19:29:40","新北市中和區中和路157號","121.502721666667","24.999915","6500300","中和區"
"235064","005-UY","2019/08/01 19:29:28","新北市中和區南山路127巷30弄2號","121.50376","24.997505","6500300","中和區"
"235063","006-UY","2019/08/01 19:29:34","新北市中和區連城路164號","121.493963333333","24.997545","6500300","中和區"
"235056","096-UM","2019/08/01 19:29:32","新北市中和區員山路581巷2弄26號","121.477265","25.0099316666667","6500300","中和區"
"235039","097-UM","2019/08/01 19:29:32","新北市中和區秀峰街103巷4弄2號","121.520498333333","24.9901","6500300","中和區"
"235065","098-UM","2019/08/01 19:29:44","新北市中和區永和路8巷8號","121.500291666667","25.0031833333333","6500300","中和區"
"235040","150-BY","2019/08/01 19:29:38","新北市中和區保健路10巷24號","121.508003333333","24.9966183333333","6500300","中和區"
"235058","151-BY","2019/08/01 19:29:40","新北市中和區員山路124巷5號","121.481681666667","24.995995","6500300","中和區"
"235055","183-VK","2019/08/01 19:29:45","新北市中和區民享街29號","121.474006666667","25.004425","6500300","中和區"
"235038","185-VK","2019/08/01 19:29:43","新北市中和區自立路127號","121.521978333333","24.99411","6500300","中和區"
"235049","186-VK","2019/08/01 19:29:41","新北市中和區安平路29號","121.50929","24.99441","6500300","中和區"
"235067","255-BX","2019/08/01 19:29:38","新北市中和區新生街186巷5弄3號","121.482968333333","24.99946","6500300","中和區"
"235044","293-VK","2019/08/01 19:29:31","新北市中和區捷運路155號","121.506493333333","24.991155","6500300","中和區"
"235072","301-VK","2019/08/01 19:29:43","新北市中和區連城路265巷10弄1號","121.491586666667","24.9953033333333","6500300","中和區"
"235043","352-BY","2019/08/01 19:29:45","新北市中和區安和路29號","121.510321666667","24.9943483333333","6500300","中和區"
"235042","KEA-2878","2019/08/01 19:29:35","新北市中和區中和路262巷43弄6號","121.509723333333","24.9995233333333","6500300","中和區"
"235070","558-UM","2019/08/01 19:29:40","新北市中和區連勝街51號","121.497825","24.997265","6500300","中和區"
"235045","565-BX","2019/08/01 19:29:28","新北市中和區景新街467巷22號","121.51424","24.9883866666667","6500300","中和區"
"235060","KED-0823","2019/08/01 19:29:46","新北市中和區中山路二段523巷12號","121.481528333333","25.0045283333333","6500300","中和區"
"235054","640-BX","2019/08/01 19:29:34","新北市中和區莒光路105號","121.47239","25.0028216666667","6500300","中和區"
"235047","732-UM","2019/08/01 19:29:28","新北市中和區景平路259巷30號","121.507133333333","24.9927483333333","6500300","中和區"
"235046","733-UM","2019/08/01 19:29:42","新北市中和區忠孝街37巷44號","121.510598333333","24.9848016666667","6500300","中和區"
"235071","783-BX","2019/08/01 19:29:42","新北市中和區新生街278號","121.483718333333","24.9968383333333","6500300","中和區"
"235057","801-TS","2019/08/01 19:29:47","新北市中和區員山路198號","121.481288333333","25.000485","6500300","中和區"
"235041","802-TS","2019/08/01 19:29:31","新北市中和區中和路400巷14弄1號","121.511678333333","25.0021816666667","6500300","中和區"
"235052","805-TS","2019/08/01 19:29:33","新北市中和區華新街143巷67弄35號","121.50761","24.979365","6500300","中和區"
"235048","896-TW","2019/08/01 19:29:39","新北市中和區忠孝街122-2號","121.512141666667","24.985915","6500300","中和區"
"235053","900-TW","2019/08/01 19:29:41","新北市中和區國光街140巷1號","121.46832","25.0015333333333","6500300","中和區"
"235051","157-BY","2019/08/01 19:29:32","新北市中和區景新街140號","121.50542","24.99788","6500300","中和區"
"235037","AAC-213","2019/08/01 19:29:37","新北市中和區秀朗路三段50巷4弄2號","121.525693333333","24.9956","6500300","中和區"
"235059","AAC-215","2019/08/01 19:29:40","新北市中和區圓通路252巷4號","121.49312","24.9916783333333","6500300","中和區"
"220065","072-UY","2019/08/01 19:29:33","新北市板橋區國泰街75巷28弄52號","121.467663333333","25.0048066666667","6500100","板橋區"
"220086","073-UY","2019/08/01 19:29:34","新北市板橋區中正路216巷150弄2號","121.460581666667","25.0193366666667","6500100","板橋區"
"220068","075-UY","2019/08/01 19:29:44","新北市板橋區翠華街10巷1號","121.482733333333","25.0248833333333","6500100","板橋區"
"220069","AAD-861","2019/08/01 19:29:34","新北市板橋區貴興路76號","121.456425","25.0028966666667","6500100","板橋區"
"220106","120-SR","2019/08/01 19:29:46","新北市板橋區文化路二段554號","121.476231666667","25.0341466666667","6500100","板橋區"
"247004","893-R6","2019/08/01 19:29:36","新北市蘆洲區長安街152號","121.459783333333","25.0825916666667","6501400","蘆洲區"
"226004","312-R5","2019/08/01 19:29:46","新北市平溪區十分里十分街156號","121.777895","25.043375","6502400","平溪區"
"228001","212-TW","2019/08/01 19:29:26","新北市貢寮區真理里大澳街25號","121.925056666667","25.0562033333333","6502600","貢寮區"
"228002","663-BX","2019/08/01 19:29:46","新北市貢寮區龍門里龍門街78號","121.931103333333","25.0268566666667","6502600","貢寮區"
"228003","828-UM","2019/08/01 19:29:41","新北市貢寮區和美里和美街19-2號","121.912776666667","25.0825833333333","6502600","貢寮區"
"224008","273-VK","2019/08/01 19:29:27","新北市瑞芳區一坑路283號","121.801188333333","25.1086016666667","6501200","瑞芳區"
"227002","642-TC","2019/08/01 19:29:27","新北市雙溪區雙溪里太平路60號","121.865115","25.0356333333333","6502500","雙溪區"
"227001","400-TW","2019/08/01 19:29:32","新北市雙溪區新基里新基北街64號","121.868808333333","25.0397083333333","6502500","雙溪區"
"253006","032-BX","2019/08/01 19:29:39","新北市石門區楓林23-10號","121.538666666667","25.2912366666667","6502200","石門區"
"222001","KEA-2212","2019/08/01 19:29:27","新北市深坑區深坑街10號","121.615938333333","25.0028483333333","6501800","深坑區"
"208002","KEA-2872","2019/08/01 19:29:29","新北市金山區中正路50號","121.6349","25.2221383333333","6502700","金山區"
"208003","665-BX","2019/08/01 19:29:24","新北市金山區中山路263巷14號","121.636398333333","25.221555","6502700","金山區"
"251010","012-UM","2019/08/01 19:29:37","新北市淡水區中正路二段151號","121.422853333333","25.18776","6501000","淡水區"
"251015","KEA-2871","2019/08/01 19:29:31","新北市淡水區泉洲厝19號","121.490631666667","25.1904883333333","6501000","淡水區"
"251016","179-VK","2019/08/01 19:29:47","新北市淡水區淡金路三段350巷18號","121.450756666667","25.208325","6501000","淡水區"
"251008","181-VK","2019/08/01 19:29:38","新北市淡水區中正路一段66號","121.425305","25.17698","6501000","淡水區"
"251013","182-VK","2019/08/01 19:29:34","新北市淡水區大牛稠6號","121.471193333333","25.2191133333333","6501000","淡水區"
"251007","442-VK","2019/08/01 19:29:36","新北市淡水區民權路3巷36號","121.462681666667","25.1437833333333","6501000","淡水區"
"251005","443-VK","2019/08/01 19:29:40","新北市淡水區水源街一段47巷49號","121.44414","25.173925","6501000","淡水區"
"251001","559-UM","2019/08/01 19:29:31","新北市淡水區民權路155號","121.460003333333","25.1361933333333","6501000","淡水區"
"251006","561-UM","2019/08/01 19:29:37","新北市淡水區大義街29巷18號","121.441535","25.17805","6501000","淡水區"
"251009","575-R6","2019/08/01 19:29:43","新北市淡水區中正路32號","121.443891666667","25.1692666666667","6501000","淡水區"
"251014","577-R6","2019/08/01 19:29:32","新北市淡水區小中寮19-7號","121.484771666667","25.2296283333333","6501000","淡水區"
"251002","672-BX","2019/08/01 19:29:18","新北市淡水區淡海路252號","121.420143333333","25.18695","6501000","淡水區"
"251003","766-UM","2019/08/01 19:29:42","新北市淡水區中山北路三段16巷20號","121.443966666667","25.190205","6501000","淡水區"
"207003","550-UM","2019/08/01 19:29:30","新北市萬里區大鵬里萬里加投103-1號","121.646125","25.2130383333333","6502800","萬里區"
"207004","225-TW","2019/08/01 19:29:45","新北市萬里區萬里里瑪鋉路111號","121.688658333333","25.1774016666667","6502800","萬里區"
"252002","178-VK","2019/08/01 19:29:34","新北市三芝區淡金路二段18-1號","121.502653333333","25.2595133333333","6502100","三芝區"
"208001","170-UY","2019/08/01 19:29:27","新北市金山區中正路149-1號","121.631553333333","25.22136","6502700","金山區"
"237004","KEA-2597","2019/08/01 19:29:43","新北市三峽區有木206號","121.439093333333","24.851585","6500900","三峽區"
"237007","153-BY","2019/08/01 19:29:27","新北市三峽區二鬮路136巷20弄83號","121.358003333333","24.908995","6500900","三峽區"
"237009","210-TH","2019/08/01 19:29:38","新北市三峽區民權街28號","121.370006666667","24.9342183333333","6500900","三峽區"
"237013","252-BX","2019/08/01 19:29:32","新北市三峽區介壽路一段251號","121.379511666667","24.9302383333333","6500900","三峽區"
"237012","275-BY","2019/08/01 19:29:28","新北市三峽區三樹路98巷169號","121.3846","24.9395033333333","6500900","三峽區"
"237008","302-VK","2019/08/01 19:29:27","新北市三峽區永安街95巷21號","121.374488333333","24.92833","6500900","三峽區"
"237014","433-BY","2019/08/01 19:29:26","新北市三峽區仁愛街18號","121.3683","24.9325133333333","6500900","三峽區"
"237006","5529-G3","2019/08/01 19:29:28","新北市三峽區中正路一段336巷15弄2號","121.369965","24.9249483333333","6500900","三峽區"
"237011","KEA-2596","2019/08/01 19:29:33","新北市三峽區介壽路三段107號","121.395501666667","24.9393533333333","6500900","三峽區"
"237015","649-BX","2019/08/01 19:29:44","新北市三峽區安坑34-1號","121.44956","24.9286866666667","6500900","三峽區"
"237010","706-TV","2019/08/01 19:29:26","新北市三峽區復興路102號","121.372671666667","24.937615","6500900","三峽區"
"237005","AKY-6261","2019/08/01 19:29:36","新北市三峽區中山路175號","121.363793333333","24.936785","6500900","三峽區"
"236042","KED-0685","2019/08/01 19:29:35","新北市土城區學府路一段239號","121.450446666667","24.9833933333333","6501300","土城區"
"236078","166-UM","2019/08/01 19:29:44","新北市土城區中州路12巷1號","121.414766666667","24.9573466666667","6501300","土城區"
"236026","269-VK","2019/08/01 19:29:41","新北市土城區中央路二段61巷26號","121.443326666667","24.9788233333333","6501300","土城區"
"236070","KEA-2877","2019/08/01 19:29:25","新北市土城區裕民路185巷36弄10號","121.454295","24.9844283333333","6501300","土城區"
"252001","KED-0821","2019/08/01 19:29:45","新北市三芝區長勤街63-1號","121.50012","25.2560433333333","6502100","三芝區"
"236021","401-BY","2019/08/01 19:29:35","新北市土城區峰廷街3號","121.46905","24.987295","6501300","土城區"
"236059","912-UM","2019/08/01 19:29:43","新北市土城區中央路二段63號","121.44275","24.9789533333333","6501300","土城區"
"236049","913-UM","2019/08/01 19:29:44","新北市土城區清水路156號","121.459423333333","24.9814666666667","6501300","土城區"
"238015","755-BX","2019/08/01 19:29:29","新北市樹林區中興街26號","121.420936666667","24.9906133333333","6500700","樹林區"
"238023","601-UM","2019/08/01 19:29:42","新北市樹林區三福街24號","121.40842","25.016655","6500700","樹林區"
"238019","599-UM","2019/08/01 19:29:34","新北市樹林區東榮街90號","121.415906666667","24.9826966666667","6500700","樹林區"
"238024","5061-A6","2019/08/01 19:29:38","新北市樹林區中山路三段55號","121.400836666667","24.9751933333333","6500700","樹林區"
"238018","KEA-2217","2019/08/01 19:29:37","新北市樹林區中華路219-1號","121.419446666667","24.981285","6500700","樹林區"
"238022","KEA-2213","2019/08/01 19:29:35","新北市樹林區中華路162號","121.415701666667","24.9802416666667","6500700","樹林區"
"238021","KEA-2539","2019/08/01 19:29:42","新北市樹林區大雅路7號","121.380641666667","24.944405","6500700","樹林區"
"238025","303-VK","2019/08/01 19:29:33","新北市樹林區中山路三段67-5號","121.400725","24.9751316666667","6500700","樹林區"
"238017","283-BY","2019/08/01 19:29:43","新北市樹林區光興街261號","121.407275","25.0054333333333","6500700","樹林區"
"238014","282-BY","2019/08/01 19:29:34","新北市樹林區千歲街17號","121.424925","24.9955916666667","6500700","樹林區"
"238020","268-VK","2019/08/01 19:29:42","新北市樹林區俊英街111巷1-10號","121.423943333333","25.0094983333333","6500700","樹林區"
"238026","172-UY","2019/08/01 19:29:46","新北市樹林區佳園路二段108號","121.38994","24.9573316666667","6500700","樹林區"
"238016","169-UY","2019/08/01 19:27:48","新北市樹林區復興路464巷2號","121.41322","24.9837033333333","6500700","樹林區"
"239007","AAC-297","2019/08/01 19:29:39","新北市鶯歌區中山路194-4號","121.34782","24.9570183333333","6500800","鶯歌區"
"239006","891-R6","2019/08/01 19:29:36","新北市鶯歌區鶯桃路296巷84弄22號","121.337168333333","24.9614333333333","6500800","鶯歌區"
"239008","527-UM","2019/08/01 19:29:33","新北市鶯歌區大湖路466號","121.339618333333","24.972195","6500800","鶯歌區"
"239005","526-UM","2019/08/01 19:29:41","新北市鶯歌區東湖路25號","121.358158333333","24.9739466666667","6500800","鶯歌區"
"239001","417-VK","2019/08/01 19:29:40","新北市鶯歌區建國路596巷46號","121.340415","24.9516083333333","6500800","鶯歌區"
"239003","360-BY","2019/08/01 19:29:31","新北市鶯歌區文化路337號","121.35194","24.95174","6500800","鶯歌區"
"239002","359-BY","2019/08/01 19:29:26","新北市鶯歌區中山路157號","121.348743333333","24.9569133333333","6500800","鶯歌區"
"239004","193-VK","2019/08/01 19:29:26","新北市鶯歌區二甲路79號","121.332511666667","24.9322816666667","6500800","鶯歌區"
"221008","489-VK","2019/08/01 19:29:42","新北市汐止區康寧街237號","121.624231666667","25.0666233333333","6501100","汐止區"
"221027","281-BY","2019/08/01 19:29:42","新北市汐止區忠孝東路9號","121.65828","25.0659033333333","6501100","汐止區"
"221031","353-TW","2019/08/01 19:29:40","新北市汐止區汐萬路一段256巷3號","121.653423333333","25.0747966666667","6501100","汐止區"
"221025","623-UM","2019/08/01 19:29:44","新北市汐止區忠孝東路201號","121.659428333333","25.065565","6501100","汐止區"
"221002","707-TV","2019/08/01 19:29:37","新北市汐止區大同路一段331號","121.638333333333","25.0592966666667","6501100","汐止區"
"220079","145-BY","2019/08/01 19:29:41","新北市板橋區民權路202巷12弄1號","121.46063","25.0157066666667","6500100","板橋區"
"220080","200-UY","2019/08/01 19:29:32","新北市板橋區大觀路二段3巷43號","121.448826666667","25.0035616666667","6500100","板橋區"
"220082","610-BX","2019/08/01 19:29:47","新北市板橋區金門街222號","121.431043333333","24.987805","6500100","板橋區"
"220084","256-TC","2019/08/01 19:29:44","新北市板橋區滿平街136巷8弄4號","121.427845","24.987395","6500100","板橋區"
"220056","276-BY","2019/08/01 19:29:39","新北市板橋區干城路137號","121.459813333333","24.9933816666667","6500100","板橋區"
"220072","277-BY","2019/08/01 19:29:37","新北市板橋區篤行路二段141巷18號","121.430315","24.987785","6500100","板橋區"
"220101","280-UM","2019/08/01 19:29:47","新北市板橋區萬板路46巷1號","121.472208333333","25.0226533333333","6500100","板橋區"
"220094","283-UM","2019/08/01 19:29:32","新北市板橋區銘傳街74號","121.469025","25.0312716666667","6500100","板橋區"
"220071","283-VK","2019/08/01 19:29:33","新北市板橋區大豐街130號","121.460915","25.0011366666667","6500100","板橋區"
"220053","285-VK","2019/08/01 19:29:46","新北市板橋區懷仁街77巷22號","121.477643333333","25.0189316666667","6500100","板橋區"
"220083","286-VK","2019/08/01 19:29:28","新北市板橋區龍興街73巷26號","121.442943333333","25.0025533333333","6500100","板橋區"
"220081","287-VK","2019/08/01 19:29:37","新北市板橋區南雅西路一段10巷7弄9號","121.454281666667","25.0044066666667","6500100","板橋區"
"220090","288-VK","2019/08/01 19:29:47","新北市板橋區長江路一段48巷12號","121.459458333333","25.0279783333333","6500100","板橋區"
"220061","293-UM","2019/08/01 19:29:34","新北市板橋區成功路6巷9號","121.475908333333","25.0170616666667","6500100","板橋區"
"220075","303-R5","2019/08/01 19:29:35","新北市板橋區中正路275巷93號","121.450808333333","25.0180966666667","6500100","板橋區"
"220062","305-R5","2019/08/01 19:29:40","新北市板橋區三民路二段153巷8弄1號","121.480993333333","25.0150716666667","6500100","板橋區"
"220092","307-R5","2019/08/01 19:29:41","新北市板橋區文化路一段387巷10號","121.466635","25.0220233333333","6500100","板橋區"
"220098","317-R6","2019/08/01 19:29:36","新北市板橋區民有街83號","121.464923333333","25.02741","6500100","板橋區"
"220055","461-BY","2019/08/01 19:29:28","新北市板橋區重慶路290巷22弄12號","121.462303333333","24.99938","6500100","板橋區"
"220089","487-VK","2019/08/01 19:29:32","新北市板橋區龍泉街83-3號","121.456695","25.025","6500100","板橋區"
"220088","491-VK","2019/08/01 19:29:36","新北市板橋區文化路二段578號","121.476651666667","25.0346","6500100","板橋區"
"220035","560-BX","2019/08/01 19:29:44","新北市板橋區中正路431號","121.4542","25.023255","6500100","板橋區"
"220103","561-BX","2019/08/01 19:29:35","新北市板橋區陽明街29巷19號","121.464461666667","25.0221033333333","6500100","板橋區"
"220063","609-BX","2019/08/01 19:29:40","新北市板橋區萬安街53巷24號","121.483246666667","25.0237183333333","6500100","板橋區"
"220091","637-BX","2019/08/01 19:29:32","新北市板橋區文聖街149巷10號","121.479011666667","25.0282533333333","6500100","板橋區"
"220057","686-BX","2019/08/01 19:29:45","新北市板橋區和平路安樂巷50號","121.46213","24.9930483333333","6500100","板橋區"
"220077","687-BX","2019/08/01 19:29:39","新北市板橋區大觀路一段28巷62號","121.449795","25.010425","6500100","板橋區"
"220054","741-BX","2019/08/01 19:29:36","新北市板橋區重慶路182號","121.462485","25.0035483333333","6500100","板橋區"
"220102","KEA-2699","2019/08/01 19:29:35","新北市板橋區雙十路二段46巷20號","121.476176666667","25.028105","6500100","板橋區"
"220067","829-TW","2019/08/01 19:29:31","新北市板橋區漢生東路313巷2弄3號","121.472273333333","25.008155","6500100","板橋區"
"220074","895-R6","2019/08/01 19:29:39","新北市板橋區中正路1巷14號","121.4553","25.0115733333333","6500100","板橋區"
"220073","985-R7","2019/08/01 19:29:31","新北市板橋區瑞安街9號","121.454906666667","25.02332","6500100","板橋區"
"220097","AAC-210","2019/08/01 19:29:43","新北市板橋區文化路一段285巷2弄28號","121.46417","25.0195633333333","6500100","板橋區"
"220064","AAC-253","2019/08/01 19:29:37","新北市板橋區縣民大道二段101號","121.466626666667","25.01561","6500100","板橋區"
"235068","KEA-2873","2019/08/01 19:29:22","新北市中和區景平路493巷2-4號","121.499781666667","24.9976416666667","6500300","中和區"
"235061","KEA-2875","2019/08/01 19:29:32","新北市中和區員山路143巷5號","121.480561666667","24.996095","6500300","中和區"
