"lineid","car","time","location","longitude","latitude","cityid","cityname"
"234038","336-UY","2019/08/01 20:19:41","新北市永和區成功路一段93巷11-1號","121.527703333333","25.00274","6500400","永和區"
"234064","337-UY","2019/08/01 20:19:30","新北市永和區得和路120號","121.518686666667","25.000055","6500400","永和區"
"234086","338-UY","2019/08/01 20:19:29","新北市永和區中正路643號","121.515241666667","25.010055","6500400","永和區"
"234070","552-UM","2019/08/01 20:19:29","新北市永和區福和路263巷9號","121.517985","25.00685","6500400","永和區"
"234017","745-BX","2019/08/01 20:19:47","新北市永和區仁愛路87號","121.513111666667","25.0130966666667","6500400","永和區"
"234030","746-BX","2019/08/01 20:19:39","新北市永和區民有街69號","121.51794","24.9956766666667","6500400","永和區"
"234054","KEA-2590","2019/08/01 20:19:45","新北市永和區光復街2巷16弄9號","121.517566666667","25.0163266666667","6500400","永和區"
"234013","KEA-2591","2019/08/01 20:19:40","新北市永和區保生路5巷1號","121.506116666667","25.00715","6500400","永和區"
"234061","AAD-866","2019/08/01 20:19:33","新北市永和區得和路29號","121.515608333333","25.0003783333333","6500400","永和區"
"234081","748-BX","2019/08/01 20:19:41","新北市永和區永亨路107號","121.523443333333","25.00489","6500400","永和區"
"234042","862-TW","2019/08/01 20:19:41","新北市中和區中安街168號","121.510875","24.9998616666667","6500400","永和區"
"234050","863-TW","2019/08/01 20:19:30","新北市永和區保安路22號","121.510635","25.01722","6500400","永和區"
"249005","172-UM","2019/08/01 20:19:30","新北市八里區下罟子2-1號","121.388465","25.1416416666667","6502300","八里區"
"249004","303-UY","2019/08/01 20:19:41","新北市八里區中山路一段322號","121.412966666667","25.1591416666667","6502300","八里區"
"249003","593-UM","2019/08/01 20:19:31","新北市八里區訊塘路27號","121.397791666667","25.14545","6502300","八里區"
"249002","759-BX","2019/08/01 20:19:37","新北市八里區龍米路一段77號","121.455045","25.1229833333333","6502300","八里區"
"248016","026-BX","2019/08/01 20:19:33","新北市五股區凌雲路一段158巷39弄2號","121.446865","25.1037866666667","6501500","五股區"
"248012","247-BX","2019/08/01 20:19:32","新北市五股區成泰路二段51號","121.437613333333","25.083075","6501500","五股區"
"248010","272-BY","2019/08/01 20:19:27","新北市泰山區新五路一段104號","121.440306666667","25.0615016666667","6501500","五股區"
"248004","677-BX","2019/08/01 20:19:35","新北市五股區中興路四段23號","121.438888333333","25.0827166666667","6501500","五股區"
"248002","678-BX","2019/08/01 20:19:42","新北市五股區成泰路三段173號","121.445311666667","25.091985","6501500","五股區"
"234023","9380-KE","2019/08/01 20:19:45","新北市永和區復興街39號","121.516516666667","25.01331","6500400","永和區"
"234077","969-R7","2019/08/01 20:19:41","新北市永和區民享街2巷2號","121.514701666667","24.9958033333333","6500400","永和區"
"234074","AAC-211","2019/08/01 20:19:31","新北市永和區豫溪街160巷2號","121.523226666667","25.0095466666667","6500400","永和區"
"234067","AAC-212","2019/08/01 20:19:37","新北市永和區保平路268巷11號","121.50836","25.0054816666667","6500400","永和區"
"234003","AAC-295","2019/08/01 20:19:41","新北市永和區自強街22號","121.515276666667","25.0080266666667","6500400","永和區"
"243012","AAD-798","2019/08/01 20:19:37","新北市泰山區楓江路144巷6號","121.440835","25.0659666666667","6501600","泰山區"
"243010","297-R6","2019/08/01 20:19:42","新北市泰山區明志路二段254巷7號","121.42618","25.0477633333333","6501600","泰山區"
"243014","KEA-2801","2019/08/01 20:19:30","新北市泰山區泰林路二段262號","121.431658333333","25.0623266666667","6501600","泰山區"
"243016","421-VK","2019/08/01 20:19:40","新北市泰山區明志路二段418號","121.424988333333","25.0439016666667","6501600","泰山區"
"243009","KEA-2215","2019/08/01 20:19:35","新北市泰山區福泰街6號","121.432698333333","25.0603033333333","6501600","泰山區"
"243011","KEA-2216","2019/08/01 20:19:45","新北市新莊區壽山路160巷21號","121.41743","25.0319116666667","6501600","泰山區"
"243013","646-TV","2019/08/01 20:19:30","新北市泰山區明志路二段359巷19號","121.425971666667","25.04395","6501600","泰山區"
"243015","680-BX","2019/08/01 20:19:44","新北市泰山區明志路一段274號","121.432038333333","25.0601433333333","6501600","泰山區"
"222003","436-BY","2019/08/01 20:19:41","新北市深坑區文化街43號","121.617776666667","25.0017316666667","6501800","深坑區"
"222002","659-BX","2019/08/01 20:19:43","新北市深坑區萬福路75巷8號","121.600316666667","25.0093816666667","6501800","深坑區"
"231061","002-UM","2019/08/01 20:19:42","新北市新店區安興路33-1號","121.515865","24.9704566666667","6500600","新店區"
"231058","0293-UT","2019/08/01 20:19:39","新北市新店區薏仁坑路5號","121.498946666667","24.9592316666667","6500600","新店區"
"231044","046-UY","2019/08/01 20:19:42","新北市新店區北新路三段89號","121.541546666667","24.9817966666667","6500600","新店區"
"231060","106-UY","2019/08/01 20:19:41","新北市新店區安康路三段578-1號","121.481126666667","24.94867","6500600","新店區"
"231051","107-UY","2019/08/01 20:19:30","新北市新店區中央六街113號","121.5253","24.9774083333333","6500600","新店區"
"231049","108-UY","2019/08/01 20:19:33","新北市新店區北新路二段68號","121.543003333333","24.9723116666667","6500600","新店區"
"231065","110-UY","2019/08/01 20:19:31","新北市新店區安祥路104巷6弄30號","121.482676666667","24.9626866666667","6500600","新店區"
"231068","187-VK","2019/08/01 20:19:35","新北市新店區寶安街36號","121.542055","24.9824783333333","6500600","新店區"
"231062","256-BX","2019/08/01 20:19:28","新北市新店區安泰路7巷16號","121.485708333333","24.95094","6500600","新店區"
"231054","260-TV","2019/08/01 20:19:35","新北市新店區檳榔路109號","121.544245","24.9616783333333","6500600","新店區"
"231042","268-BY","2019/08/01 20:19:47","新北市新店區中興路二段231-2號","121.547766666667","24.9750216666667","6500600","新店區"
"231064","278-BY","2019/08/01 20:19:41","新北市新店區安業街33號","121.517708333333","24.97702","6500600","新店區"
"231050","AAD-862","2019/08/01 20:19:39","新北市新店區博愛街15號","121.541125","24.973395","6500600","新店區"
"231045","355-BY","2019/08/01 20:19:40","新北市新店區光明街138巷22號","121.540408333333","24.96101","6500600","新店區"
"231055","4716-K9","2019/08/01 20:19:26","新北市新店區中華路42巷12號","121.540431666667","24.9685733333333","6500600","新店區"
"231056","4715-K9","2019/08/01 20:19:38","新北市新店區建安街33巷28號","121.538343333333","24.9753816666667","6500600","新店區"
"231067","4772-VM","2019/08/01 20:19:42","新北市新店區安康路一段155-1號","121.527531666667","24.962225","6500600","新店區"
"231052","513-UM","2019/08/01 20:19:24","新北市新店區新烏路二段325號","121.550076666667","24.910745","6500600","新店區"
"231041","619-UM","2019/08/01 20:19:40","新北市新店區民權路54號","121.539106666667","24.9829616666667","6500600","新店區"
"231063","641-BX","2019/08/01 20:19:31","新北市新店區車子路10-1號","121.504668333333","24.954895","6500600","新店區"
"231047","718-UY","2019/08/01 20:19:45","新北市新店區永華街33巷34號","121.544593333333","24.976925","6500600","新店區"
"231057","720-UM","2019/08/01 20:19:33","新北市新店區花園五路二段27號","121.554765","24.9346816666667","6500600","新店區"
"231059","897-TW","2019/08/01 20:19:42","新北市新店區安德街60巷35號","121.511136666667","24.9634266666667","6500600","新店區"
"231040","898-TW","2019/08/01 20:19:34","新北市新店區中正路110號","121.543011666667","24.9706366666667","6500600","新店區"
"231043","899-TW","2019/08/01 20:19:40","新北市新店區建國路131號","121.539465","24.97808","6500600","新店區"
"231066","AKT-0513","2019/08/01 20:19:34","新北市新店區柴埕路26號","121.513701666667","24.9655816666667","6500600","新店區"
"241011","013-R5","2019/08/01 20:19:29","新北市三重區龍門路204號","121.499818333333","25.07342","6500200","三重區"
"241028","022-UY","2019/08/01 20:19:23","新北市三重區大同南路103-2號","121.496263333333","25.05865","6500200","三重區"
"241008","059-VK","2019/08/01 20:19:38","新北市三重區永福街209號","121.479958333333","25.0744666666667","6500200","三重區"
"241016","060-VK","2019/08/01 20:19:27","新北市三重區大同北路97-3號","121.494425","25.06359","6500200","三重區"
"241031","061-VK","2019/08/01 20:19:29","新北市三重區三寧街18號","121.489346666667","25.0599033333333","6500200","三重區"
"241017","063-VK","2019/08/01 20:19:44","新北市三重區自強路一段236號","121.493335","25.06705","6500200","三重區"
"241024","065-VK","2019/08/01 20:19:45","新北市三重區中正北路266號","121.481096666667","25.0683166666667","6500200","三重區"
"241002","090-VK","2019/08/01 20:19:34","新北市三重區仁義街101巷38號","121.499088333333","25.0807016666667","6500200","三重區"
"241015","742-BX","2019/08/01 20:19:34","新北市三重區重新路一段111號","121.500555","25.0632266666667","6500200","三重區"
"241006","262-UM","2019/08/01 20:19:32","新北市三重區車路頭街139巷10號","121.484183333333","25.07632","6500200","三重區"
"241009","267-UM","2019/08/01 20:19:36","新北市三重區三和路四段177-1號","121.482881666667","25.07877","6500200","三重區"
"241018","268-UM","2019/08/01 20:19:32","新北市三重區自強路一段236號","121.493296666667","25.0670283333333","6500200","三重區"
"241032","269-UM","2019/08/01 20:19:34","新北市三重區捷運路19巷6弄21號","121.484283333333","25.0569066666667","6500200","三重區"
"241013","270-UM","2019/08/01 20:19:31","新北市三重區三和路三段167巷1號","121.491991666667","25.074085","6500200","三重區"
"241025","271-UM","2019/08/01 20:19:43","新北市三重區頂崁街189號","121.47753","25.06633","6500200","三重區"
"241007","398-BY","2019/08/01 20:19:29","新北市三重區仁美街55號","121.486993333333","25.0780716666667","6500200","三重區"
"241035","KEA-2210","2019/08/01 20:19:27","新北市三重區正義北路35號","121.497751666667","25.06374","6500200","三重區"
"241030","KED-0822","2019/08/01 20:19:42","新北市三重區集美街87號","121.488825","25.053315","6500200","三重區"
"241004","475-VK","2019/08/01 20:19:28","新北市三重區仁愛街390號","121.490918333333","25.0808216666667","6500200","三重區"
"241020","478-VK","2019/08/01 20:19:40","新北市三重區三和路三段170巷24號","121.49192","25.0727766666667","6500200","三重區"
"241026","480-VK","2019/08/01 20:19:44","新北市三重區重新路一段41號","121.502696666667","25.06401","6500200","三重區"
"241014","543-UM","2019/08/01 20:19:29","新北市三重區長榮路115號","121.50347","25.0693533333333","6500200","三重區"
"241023","545-UM","2019/08/01 20:19:27","新北市三重區頂崁街157號","121.478208333333","25.0649916666667","6500200","三重區"
"241019","KEA-2593","2019/08/01 20:19:41","新北市三重區忠孝路一段29號","121.49169","25.0719","6500200","三重區"
"241005","AAD-863","2019/08/01 20:19:40","新北市三重區碧華街306號","121.48983","25.083525","6500200","三重區"
"241001","887-TS","2019/08/01 20:19:30","新北市三重區自強路四段31巷17號","121.490133333333","25.076895","6500200","三重區"
"241012","941-UM","2019/08/01 20:19:25","新北市三重區河邊北街379-1號","121.50173","25.0764866666667","6500200","三重區"
"241029","942-UM","2019/08/01 20:19:43","新北市三重區集美街227號","121.492125","25.0550916666667","6500200","三重區"
"241033","AAC-255","2019/08/01 20:19:39","新北市三重區五谷王北街50巷30號","121.475341666667","25.0513833333333","6500200","三重區"
"235066","003-UY","2019/08/01 20:19:40","新北市中和區南工路87號","121.507196666667","25.0031066666667","6500300","中和區"
"235039","097-UM","2019/08/01 20:19:32","新北市中和區大勇街29巷12-1號","121.51591","24.994595","6500300","中和區"
"235040","150-BY","2019/08/01 20:19:38","新北市中和區保健路33巷5號","121.508966666667","24.9979733333333","6500300","中和區"
"235055","183-VK","2019/08/01 20:19:45","新北市五股區中直路17-4號","121.422995","25.1111933333333","6500300","中和區"
"247008","KED-0682","2019/08/01 20:19:38","新北市蘆洲區集賢路300號","121.48162","25.085055","6501400","蘆洲區"
"235050","4979-A6","2019/08/01 20:19:37","新北市中和區景平路239號","121.509821666667","24.992655","6500300","中和區"
"235069","4980-A6","2019/08/01 20:19:41","新北市中和區圓通路188號","121.49647","24.9946266666667","6500300","中和區"
"235026","800-TS","2019/08/01 19:50:10","新北市中和區員山路36巷16-3號","121.484978333333","24.99137","6500300","中和區"
"235059","AAC-215","2019/08/01 20:19:40","新北市中和區圓通路332號","121.484428333333","24.986725","6500300","中和區"
"220086","073-UY","2019/08/01 20:19:34","新北市五股區新五路二段86號","121.437016666667","25.074035","6500100","板橋區"
"247004","893-R6","2019/08/01 20:19:36","新北市蘆洲區長安街297號","121.458028333333","25.0848366666667","6501400","蘆洲區"
"247014","341-TH","2019/08/01 20:19:41","新北市蘆洲區中山二路261號","121.469901666667","25.0797833333333","6501400","蘆洲區"
"247024","337-TH","2019/08/01 20:19:43","新北市蘆洲區光榮路120巷22弄18-1號","121.464626666667","25.0876","6501400","蘆洲區"
"247002","336-TH","2019/08/01 20:19:43","新北市蘆洲區長安街331巷34號","121.455946666667","25.0866133333333","6501400","蘆洲區"
"247022","057-VK","2019/08/01 20:19:37","新北市蘆洲區三民路251號","121.46849","25.0893583333333","6501400","蘆洲區"
"247012","056-VK","2019/08/01 20:19:31","新北市蘆洲區中興街24號","121.480786666667","25.0868466666667","6501400","蘆洲區"
"247016","053-VK","2019/08/01 20:19:42","新北市蘆洲區中正路185巷45弄2號","121.465898333333","25.0837383333333","6501400","蘆洲區"
"247006","002-UY","2019/08/01 20:19:30","新北市蘆洲區九芎街136號","121.465091666667","25.0790933333333","6501400","蘆洲區"
"226004","312-R5","2019/08/01 20:19:28","新北市平溪區石底里公園街18-3號","121.733203333333","25.0258633333333","6502400","平溪區"
"228003","828-UM","2019/08/01 20:19:41","新北市貢寮區仁理村研海街20號","121.928296666667","25.0380466666667","6502600","貢寮區"
"222001","KEA-2212","2019/08/01 20:19:35","新北市深坑區北深路三段247號","121.599343333333","25.00411","6501800","深坑區"
"251010","012-UM","2019/08/01 20:19:37","新北市淡水區新民街一段134號","121.427523333333","25.1888633333333","6501000","淡水區"
"251015","KEA-2871","2019/08/01 20:19:31","新北市淡水區埤島80-2號","121.449378333333","25.1896","6501000","淡水區"
"251016","179-VK","2019/08/01 20:19:47","新北市淡水區淡金路五段20號","121.452685","25.2321516666667","6501000","淡水區"
"251008","181-VK","2019/08/01 20:19:39","新北市淡水區淡海路156號","121.421311666667","25.1831466666667","6501000","淡水區"
"251013","182-VK","2019/08/01 20:19:34","新北市淡水區相公山1-3號","121.474148333333","25.2066983333333","6501000","淡水區"
"251012","441-VK","2019/08/01 20:19:27","新北市淡水區淡金路三段374號","121.449798333333","25.2100816666667","6501000","淡水區"
"251001","559-UM","2019/08/01 20:19:31","新北市淡水區淡金路二段15號","121.446313333333","25.1892083333333","6501000","淡水區"
"251006","561-UM","2019/08/01 20:19:37","新北市淡水區北新路169巷69弄26號","121.447713333333","25.1800733333333","6501000","淡水區"
"251014","577-R6","2019/08/01 20:19:32","新北市淡水區石頭厝2-1號","121.458175","25.2356916666667","6501000","淡水區"
"251002","672-BX","2019/08/01 20:19:38","新北市淡水區中正路232號","121.438916666667","25.1708283333333","6501000","淡水區"
"251003","766-UM","2019/08/01 20:19:42","新北市淡水區中山北路一段229號","121.444323333333","25.1795783333333","6501000","淡水區"
"207003","550-UM","2019/08/01 20:19:30","新北市萬里區野柳里八斗60號","121.667601666667","25.203785","6502800","萬里區"
"207004","225-TW","2019/08/01 20:19:45","新北市萬里區北基里大仁路5號","121.682078333333","25.1753233333333","6502800","萬里區"
"252002","178-VK","2019/08/01 20:19:34","新北市三芝區中正路一段16-1號","121.502968333333","25.2586416666667","6502100","三芝區"
"237006","5529-G3","2019/08/01 20:19:28","新北市三峽區中園街86巷22號","121.367231666667","24.9250933333333","6500900","三峽區"
"237011","KEA-2596","2019/08/01 20:19:33","新北市三峽區中正路二段26號","121.36719","24.9195433333333","6500900","三峽區"
"236026","269-VK","2019/08/01 20:19:41","新北市土城區裕生路98號","121.447073333333","24.98479","6501300","土城區"
"236014","270-VK","2019/08/01 20:19:34","新北市土城區廣福街183號","121.45617","24.99562","6501300","土城區"
"236038","271-VK","2019/08/01 20:19:40","新北市土城區明德路一段42號","121.465181666667","24.9843433333333","6501300","土城區"
"247010","KED-0683","2019/08/01 20:19:45","新北市蘆洲區信義路222巷32弄21號","121.480618333333","25.084675","6501400","蘆洲區"
"236070","KEA-2877","2019/08/01 20:19:25","新北市土城區三民路21號","121.420261666667","24.96348","6501300","土城區"
"252001","KED-0821","2019/08/01 20:19:45","新北市三芝區中山路一段14號","121.500738333333","25.2580066666667","6502100","三芝區"
"236021","401-BY","2019/08/01 20:19:35","新北市土城區青雲路113號","121.459043333333","24.9844633333333","6501300","土城區"
"236030","752-BX","2019/08/01 20:19:35","新北市土城區中央路一段45巷2弄14號","121.448278333333","24.9899366666667","6501300","土城區"
"236059","912-UM","2019/08/01 20:19:43","新北市土城區大安路32號","121.432943333333","24.9672466666667","6501300","土城區"
"242039","AAC-296","2019/08/01 20:19:27","新北市新莊區成功街83巷1號","121.424505","25.01943","6500500","新莊區"
"242061","986-R7","2019/08/01 20:19:40","新北市新莊區新樹路172-13號","121.43463","25.0217433333333","6500500","新莊區"
"242002","751-BX","2019/08/01 20:19:31","新北市新莊區化成路92號","121.465271666667","25.04405","6500500","新莊區"
"242029","615-BX","2019/08/01 20:19:42","新北市新莊區中原路233號","121.449721666667","25.054285","6500500","新莊區"
"242058","612-BX","2019/08/01 20:19:43","新北市新莊區龍安路278巷22號","121.421701666667","25.01845","6500500","新莊區"
"242046","566-BX","2019/08/01 20:19:38","新北市新莊區中正路新生巷55號","121.417465","25.022865","6500500","新莊區"
"242051","497-BY","2019/08/01 20:19:38","新北市新莊區民安西路228號","121.425908333333","25.0144183333333","6500500","新莊區"
"242007","442-UM","2019/08/01 20:19:45","新北市新莊區福壽街124巷37號","121.45917","25.0514933333333","6500500","新莊區"
"242056","441-UM","2019/08/01 20:19:39","新北市新莊區新莊路649巷20號","121.445045","25.0323183333333","6500500","新莊區"
"242004","440-UM","2019/08/01 20:19:28","新北市新莊區頭前路2巷8號","121.46854","25.0529416666667","6500500","新莊區"
"242042","415-TV","2019/08/01 20:19:46","新北市新莊區壽山路69號","121.4099","25.0326433333333","6500500","新莊區"
"242011","413-TV","2019/08/01 20:19:30","新北市新莊區幸福路678巷3弄1號","121.450348333333","25.04975","6500500","新莊區"
"242048","400-BY","2019/08/01 20:19:42","新北市新莊區四維路186巷1號","121.422008333333","25.0210183333333","6500500","新莊區"
"242025","362-BY","2019/08/01 20:19:37","新北市新莊區五工二路70巷16號","121.460883333333","25.0664366666667","6500500","新莊區"
"242023","353-BY","2019/08/01 20:19:36","新北市新莊區化成路694號","121.46585","25.056325","6500500","新莊區"
"242013","132-UY","2019/08/01 20:19:44","新北市新莊區幸福路710巷5弄16號","121.449253333333","25.049765","6500500","新莊區"
"242036","135-UY","2019/08/01 20:19:43","新北市新莊區建安街76巷3弄1號","121.426313333333","25.0247283333333","6500500","新莊區"
"242053","172-VK","2019/08/01 20:19:33","新北市新莊區民安西路261巷18號","121.426755","25.01302","6500500","新莊區"
"242015","173-VK","2019/08/01 20:19:38","新北市新莊區中和街31巷22號","121.447175","25.043935","6500500","新莊區"
"242021","175-VK","2019/08/01 20:19:41","新北市新莊區和興街45號","121.446626666667","25.0405066666667","6500500","新莊區"
"242019","KED-0687","2019/08/01 20:19:28","新北市新莊區博愛路7巷2號","121.456116666667","25.043905","6500500","新莊區"
"242034","348-TH","2019/08/01 20:19:35","新北市新莊區華興街34號","121.446035","25.0359133333333","6500500","新莊區"
"242031","350-TH","2019/08/01 20:19:40","新北市新莊區中正路424號","121.440813333333","25.0338583333333","6500500","新莊區"
"242017","351-TH","2019/08/01 20:19:37","新北市新莊區中港一街92號","121.449306666667","25.0453183333333","6500500","新莊區"
"239006","891-R6","2019/08/01 20:19:36","新北市鶯歌區文化路87號","121.357483333333","24.9554116666667","6500800","鶯歌區"
"221008","489-VK","2019/08/01 20:19:42","台北市內湖區康樂街201巷2號","121.621358333333","25.076075","6501100","汐止區"
"221036","130-UY","2019/08/01 20:19:40","新北市汐止區福安街59巷11號","121.66441","25.0638783333333","6501100","汐止區"
"221015","131-UY","2019/08/01 20:19:35","新北市汐止區建成路142巷19弄13號","121.661921666667","25.073765","6501100","汐止區"
"221010","269-BY","2019/08/01 20:19:36","新北市汐止區八連路一段78巷1-1號","121.64269","25.081025","6501100","汐止區"
"221012","278-VK","2019/08/01 20:19:31","新北市汐止區汐平路一段51號","121.682196666667","25.0705316666667","6501100","汐止區"
"221023","279-VK","2019/08/01 20:19:36","新北市汐止區明峰街298巷10弄1號","121.62497","25.0689133333333","6501100","汐止區"
"221032","280-BY","2019/08/01 20:19:45","新北市汐止區弘道街47號","121.618176666667","25.0485083333333","6501100","汐止區"
"221033","297-VK","2019/08/01 20:19:38","新北市汐止區東勢街215巷10號","121.634763333333","25.0432","6501100","汐止區"
"221029","298-VK","2019/08/01 20:19:47","新北市汐止區樟樹一路99巷7弄3號","121.641175","25.06355","6501100","汐止區"
"221021","299-VK","2019/08/01 20:19:40","新北市汐止區水源路一段281號","121.654275","25.0585683333333","6501100","汐止區"
"221031","353-TW","2019/08/01 20:19:40","新北市汐止區原興路73巷1號","121.632033333333","25.0661","6501100","汐止區"
"221035","622-UM","2019/08/01 20:19:38","新北市汐止區長江街57巷16號","121.656056666667","25.0721116666667","6501100","汐止區"
"221025","623-UM","2019/08/01 20:19:24","新北市汐止區水源路二段34號","121.654921666667","25.0571866666667","6501100","汐止區"
"221038","646-BX","2019/08/01 20:19:45","新北市汐止區忠孝東路476號","121.666181666667","25.0734683333333","6501100","汐止區"
"221002","707-TV","2019/08/01 20:19:37","新北市汐止區福德一路86巷10號","121.637805","25.0688233333333","6501100","汐止區"
"221018","753-BX","2019/08/01 20:19:47","新北市汐止區茄苳路274號","121.67221","25.06798","6501100","汐止區"
"220079","145-BY","2019/08/01 20:19:40","新北市板橋區中正路170號","121.456393333333","25.0171","6500100","板橋區"
"224002","257-TC","2019/08/01 20:19:34","新北市瑞芳區員山子路23號","121.82167","25.1029216666667","6501200","瑞芳區"
"220083","286-VK","2019/08/01 20:19:28","新北市板橋區僑中二街92巷1號","121.446196666667","25.0089033333333","6500100","板橋區"
"220061","293-UM","2019/08/01 20:19:33","新北市板橋區中山路一段156號","121.465078333333","25.0116433333333","6500100","板橋區"
"220081","297-UM","2019/08/01 20:19:32","新北市板橋區大觀路一段28巷104號","121.450111666667","25.01124","6500100","板橋區"
"242044","281-VK","2019/08/01 20:19:39","新北市新莊區中正路新建巷28弄57號","121.41359","25.0213616666667","6500500","新莊區"
"220075","303-R5","2019/08/01 20:19:35","新北市板橋區金華街21巷1號","121.455635","25.0204966666667","6500100","板橋區"
"220062","305-R5","2019/08/01 20:19:39","新北市板橋區中山路二段494號","121.485523333333","25.0221466666667","6500100","板橋區"
"220055","461-BY","2019/08/01 20:19:27","新北市板橋區仁愛路26號","121.458843333333","24.99941","6500100","板橋區"
"242009","280-VK","2019/08/01 20:19:29","新北市新莊區昌平街29號","121.454783333333","25.0519","6500500","新莊區"
"220054","741-BX","2019/08/01 20:10:54","新北市板橋區實踐路93巷19號","121.464963333333","25.00557","6500100","板橋區"
"220074","895-R6","2019/08/01 20:19:27","新北市板橋區館前西路100號","121.45719","25.007345","6500100","板橋區"
"220064","AAC-253","2019/08/01 20:19:37","新北市板橋區長安街331巷25號","121.473713333333","25.0126316666667","6500100","板橋區"
