"lineid","car","time","location","longitude","latitude","cityid","cityname"
"234064","337-UY","2019/08/01 20:49:30","新北市永和區林森路107號","121.522991666667","25.00335","6500400","永和區"
"249004","303-UY","2019/08/01 20:49:41","新北市八里區中山路一段65巷13號","121.418346666667","25.1593433333333","6502300","八里區"
"234074","AAC-211","2019/08/01 20:49:31","新北市永和區竹林路91巷60弄70號","121.522876666667","25.0122","6500400","永和區"
"222003","436-BY","2019/08/01 20:49:41","新北市深坑區文山路三段48-1號","121.609973333333","24.9985383333333","6501800","深坑區"
"222002","659-BX","2019/08/01 20:49:43","新北市深坑區北深路三段93巷71號","121.603515","25.001095","6501800","深坑區"
"231061","002-UM","2019/08/01 20:49:42","新北市新店區新和街120號","121.521261666667","24.9865066666667","6500600","新店區"
"231058","0293-UT","2019/08/01 20:49:39","新北市新店區平等街59號","121.536063333333","24.9726866666667","6500600","新店區"
"231044","046-UY","2019/08/01 20:49:42","新北市新店區民族路192號","121.536298333333","24.9755266666667","6500600","新店區"
"231060","106-UY","2019/08/01 20:49:41","新北市新店區安康路三段716號","121.474013333333","24.9420566666667","6500600","新店區"
"231051","107-UY","2019/08/01 20:49:30","新北市新店區溪園路39號","121.530235","24.9881283333333","6500600","新店區"
"231049","108-UY","2019/08/01 20:49:33","新北市新店區永業路96-1號","121.530026666667","24.9511816666667","6500600","新店區"
"231065","110-UY","2019/08/01 20:49:31","新北市新店區安祥路69巷41弄40號","121.482253333333","24.96104","6500600","新店區"
"231068","187-VK","2019/08/01 20:49:35","新北市新店區寶元路一段102號","121.54509","24.9832283333333","6500600","新店區"
"231062","256-BX","2019/08/01 20:49:28","新北市新店區和成街19巷40號","121.48815","24.945935","6500600","新店區"
"231054","260-TV","2019/08/01 20:49:35","新北市新店區五峰路24號","121.54372","24.9691116666667","6500600","新店區"
"231042","268-BY","2019/08/01 20:49:27","新北市新店區寶高路102巷20號","121.55247","24.9739766666667","6500600","新店區"
"231064","278-BY","2019/08/01 20:49:41","新北市新店區安民街365巷7弄1號","121.516246666667","24.97546","6500600","新店區"
"231050","AAD-862","2019/08/01 20:49:29","新北市新店區三民路20巷32號","121.538091666667","24.9713516666667","6500600","新店區"
"231045","355-BY","2019/08/01 20:47:40","新北市新店區新坡一街80-3號","121.547048333333","24.9644366666667","6500600","新店區"
"231067","4772-VM","2019/08/01 20:49:42","新北市新店區安德街148巷16號","121.507756666667","24.96032","6500600","新店區"
"231052","513-UM","2019/08/01 20:49:24","新北市新店區屈尺路2號","121.54951","24.9227616666667","6500600","新店區"
"231041","619-UM","2019/08/01 20:49:40","台北市文山區景文街146巷26號","121.532923333333","24.9914633333333","6500600","新店區"
"231063","641-BX","2019/08/01 20:49:40","新北市新店區富貴街11巷34號","121.494855","24.94834","6500600","新店區"
"231047","718-UY","2019/08/01 20:49:45","新北市新店區文化路82號","121.544816666667","24.9821783333333","6500600","新店區"
"231057","720-UM","2019/08/01 20:49:33","新北市新店區新烏路一段65號","121.546185","24.943405","6500600","新店區"
"231059","897-TW","2019/08/01 20:49:42","新北市新店區僑愛七路6-1號","121.500863333333","24.9443533333333","6500600","新店區"
"231040","898-TW","2019/08/01 20:49:34","新北市新店區中正路268號","121.539033333333","24.973575","6500600","新店區"
"231043","899-TW","2019/08/01 20:49:40","新北市新店區建國路97巷2號","121.540396666667","24.9769583333333","6500600","新店區"
"231066","AKT-0513","2019/08/01 20:49:34","新北市新店區安民街365巷1弄8號","121.516503333333","24.975305","6500600","新店區"
"241011","013-R5","2019/08/01 20:49:29","新北市三重區龍濱路205巷9號","121.502546666667","25.0717733333333","6500200","三重區"
"241028","022-UY","2019/08/01 20:49:43","新北市三重區中正南路44號","121.493921666667","25.06005","6500200","三重區"
"241008","059-VK","2019/08/01 20:49:38","新北市三重區永福街70號","121.479318333333","25.0768283333333","6500200","三重區"
"241016","060-VK","2019/08/01 20:49:27","新北市三重區長壽西街143-3號","121.4944","25.0665866666667","6500200","三重區"
"241031","061-VK","2019/08/01 20:49:29","新北市三重區重陽路一段113巷7號","121.487705","25.0597233333333","6500200","三重區"
"241017","063-VK","2019/08/01 20:49:44","新北市三重區大同北路267巷56號","121.49194","25.0675766666667","6500200","三重區"
"241024","065-VK","2019/08/01 20:49:26","新北市三重區中正北路240號","121.481735","25.0678766666667","6500200","三重區"
"241002","090-VK","2019/08/01 20:49:34","新北市三重區仁義街157巷71號","121.498745","25.0817333333333","6500200","三重區"
"241015","742-BX","2019/08/01 20:49:34","新北市三重區三和路二段172號","121.498923333333","25.068675","6500200","三重區"
"241006","262-UM","2019/08/01 20:49:32","新北市三重區車路頭街139巷12號","121.484251666667","25.0763766666667","6500200","三重區"
"241009","267-UM","2019/08/01 20:49:36","新北市三重區三和路四段205號","121.482036666667","25.0792616666667","6500200","三重區"
"241018","268-UM","2019/08/01 20:49:39","新北市三重區正義北路219號","121.49604","25.0687","6500200","三重區"
"241032","269-UM","2019/08/01 20:49:34","新北市三重區三光街18號","121.48485","25.0602916666667","6500200","三重區"
"241013","270-UM","2019/08/01 20:49:31","新北市三重區三和路三段82號","121.494611666667","25.07179","6500200","三重區"
"241025","271-UM","2019/08/01 20:49:43","新北市三重區貴陽街14號","121.484168333333","25.061795","6500200","三重區"
"241007","398-BY","2019/08/01 20:49:29","新北市三重區自強路四段5號","121.488506666667","25.0761533333333","6500200","三重區"
"241035","KEA-2210","2019/08/01 20:49:47","新北市三重區三和路三段18號","121.496865","25.0702033333333","6500200","三重區"
"241030","KED-0822","2019/08/01 20:49:34","新北市三重區環河南路221巷8號","121.492003333333","25.052145","6500200","三重區"
"241004","475-VK","2019/08/01 20:49:28","新北市三重區溪尾街227巷3弄1號","121.488823333333","25.081475","6500200","三重區"
"241020","478-VK","2019/08/01 20:49:40","新北市三重區忠孝路一段101號","121.489466666667","25.07217","6500200","三重區"
"241026","480-VK","2019/08/01 20:49:35","新北市三重區文化南路6號","121.5001","25.0626516666667","6500200","三重區"
"241014","543-UM","2019/08/01 20:49:29","新北市三重區安和路50號","121.500708333333","25.0697516666667","6500200","三重區"
"241023","545-UM","2019/08/01 20:49:27","新北市三重區忠孝路三段84巷5號","121.48026","25.0644266666667","6500200","三重區"
"241019","KEA-2593","2019/08/01 20:49:41","新北市三重區自強路二段74巷19號","121.488023333333","25.0699333333333","6500200","三重區"
"241005","AAD-863","2019/08/01 20:49:40","新北市三重區五華街141巷23號","121.491905","25.0853416666667","6500200","三重區"
"241022","KED-0820","2019/08/01 20:49:29","新北市三重區新北大道一段7號","121.489638333333","25.0612366666667","6500200","三重區"
"241001","887-TS","2019/08/01 20:49:30","新北市三重區三和路四段118巷12號","121.488405","25.07457","6500200","三重區"
"241012","941-UM","2019/08/01 20:49:45","新北市三重區仁信街27號","121.501258333333","25.075605","6500200","三重區"
"241029","942-UM","2019/08/01 20:49:43","新北市三重區重安街14號","121.490353333333","25.058235","6500200","三重區"
"241033","AAC-255","2019/08/01 20:49:39","新北市三重區光復路二段1號","121.472485","25.0535066666667","6500200","三重區"
"235055","183-VK","2019/08/01 20:49:45","新北市五股區成泰路三段318-1號","121.45026","25.0964733333333","6500300","中和區"
"247008","KED-0682","2019/08/01 20:49:37","新北市蘆洲區永安北路二段26號","121.481498333333","25.08111","6501400","蘆洲區"
"235069","4980-A6","2019/08/01 20:49:28","新北市中和區新生街146號","121.483581666667","25.0008066666667","6500300","中和區"
"247004","893-R6","2019/08/01 20:49:36","新北市蘆洲區長安街100號","121.46164","25.0809016666667","6501400","蘆洲區"
"247014","341-TH","2019/08/01 20:49:41","新北市蘆洲區中山一路211號","121.473921666667","25.0807883333333","6501400","蘆洲區"
"247024","337-TH","2019/08/01 20:49:43","新北市蘆洲區長樂路136號","121.462273333333","25.090105","6501400","蘆洲區"
"247002","336-TH","2019/08/01 20:49:43","新北市蘆洲區長安街315號","121.45749","25.08605","6501400","蘆洲區"
"247022","057-VK","2019/08/01 20:49:37","新北市蘆洲區水湳街52號","121.471176666667","25.0898966666667","6501400","蘆洲區"
"247012","056-VK","2019/08/01 20:49:47","新北市三重區集賢路188號","121.483978333333","25.08801","6501400","蘆洲區"
"247016","053-VK","2019/08/01 20:49:42","新北市蘆洲區中正路67號","121.470356666667","25.0826283333333","6501400","蘆洲區"
"247006","002-UY","2019/08/01 20:49:30","新北市蘆洲區永安南路二段16巷5號","121.467741666667","25.07715","6501400","蘆洲區"
"222001","KEA-2212","2019/08/01 20:49:27","新北市深坑區北深路三段129號","121.604031666667","25.0025366666667","6501800","深坑區"
"251010","012-UM","2019/08/01 20:49:37","新北市淡水區沙崙路143-3號","121.423125","25.1832383333333","6501000","淡水區"
"251015","KEA-2871","2019/08/01 20:49:31","新北市淡水區興仁路2號","121.450675","25.2147233333333","6501000","淡水區"
"251016","179-VK","2019/08/01 20:49:27","新北市淡水區興仁路165號","121.451501666667","25.2200966666667","6501000","淡水區"
"251013","182-VK","2019/08/01 20:49:34","新北市淡水區行忠路115號","121.453553333333","25.19888","6501000","淡水區"
"251012","441-VK","2019/08/01 20:49:27","新北市淡水區淡金路四段514號","121.452066666667","25.225715","6501000","淡水區"
"251007","442-VK","2019/08/01 20:49:36","新北市淡水區鄧公路29巷28號","121.452695","25.170045","6501000","淡水區"
"251001","559-UM","2019/08/01 20:49:31","新北市淡水區淡金路73號","121.456261666667","25.1617933333333","6501000","淡水區"
"251006","561-UM","2019/08/01 20:49:37","新北市淡水區新市一路一段6號","121.429605","25.18702","6501000","淡水區"
"251014","577-R6","2019/08/01 20:49:32","新北市淡水區公埔子32-8號","121.461651666667","25.232325","6501000","淡水區"
"251011","650-BX","2019/08/01 20:49:30","新北市淡水區新市一路一段281巷2號","121.434586666667","25.1867266666667","6501000","淡水區"
"251002","672-BX","2019/08/01 20:49:38","新北市淡水區鼻頭街18-1號","121.44682","25.1666733333333","6501000","淡水區"
"251003","766-UM","2019/08/01 20:49:42","新北市淡水區中山北路一段247巷80號","121.44256","25.1794716666667","6501000","淡水區"
"247010","KED-0683","2019/08/01 20:49:33","新北市蘆洲區鷺江街76號","121.477035","25.0838266666667","6501400","蘆洲區"
"236021","401-BY","2019/08/01 20:49:35","新北市樹林區八德街1018號","121.39123","24.9684766666667","6501300","土城區"
"242039","AAC-296","2019/08/01 20:49:27","新北市新莊區瓊林路59-38號","121.441228333333","25.0235433333333","6500500","新莊區"
"242061","986-R7","2019/08/01 20:49:40","新北市新莊區中正路457巷15號","121.442326666667","25.0333466666667","6500500","新莊區"
"242002","751-BX","2019/08/01 20:49:31","新北市新莊區中港路五守新村1巷7號","121.455365","25.0379883333333","6500500","新莊區"
"242058","612-BX","2019/08/01 20:49:43","新北市新莊區後港一路173-1號","121.432883333333","25.0282733333333","6500500","新莊區"
"242046","566-BX","2019/08/01 20:49:38","新北市新莊區壽山路29號","121.420073333333","25.0287066666667","6500500","新莊區"
"242051","497-BY","2019/08/01 20:49:37","新北市新莊區民安西路50號","121.427398333333","25.02073","6500500","新莊區"
"242056","441-UM","2019/08/01 20:49:39","新北市新莊區新莊路751巷88號","121.442481666667","25.03067","6500500","新莊區"
"242042","415-TV","2019/08/01 20:49:26","新北市新莊區雙鳳路12號","121.417133333333","25.02701","6500500","新莊區"
"242011","413-TV","2019/08/01 20:49:30","新北市五股區新五路二段582號","121.443356666667","25.08618","6500500","新莊區"
"242048","400-BY","2019/08/01 20:49:28","新北市新莊區中正路516-33號","121.432798333333","25.0321816666667","6500500","新莊區"
"242025","362-BY","2019/08/01 20:49:28","新北市五股區孝義路13-1號","121.451176666667","25.1066816666667","6500500","新莊區"
"242023","353-BY","2019/08/01 20:49:36","新北市新莊區化成路416號","121.466141666667","25.0509433333333","6500500","新莊區"
"242013","132-UY","2019/08/01 20:49:43","新北市新莊區中和街169號","121.447238333333","25.0503533333333","6500500","新莊區"
"242036","135-UY","2019/08/01 20:49:43","新北市新莊區建國一路11號","121.433843333333","25.0317616666667","6500500","新莊區"
"242021","175-VK","2019/08/01 20:49:40","新北市五股區新五路二段68號","121.436958333333","25.0732683333333","6500500","新莊區"
"242034","348-TH","2019/08/01 20:49:35","新北市新莊區中正路449號","121.443055","25.0341166666667","6500500","新莊區"
"242031","350-TH","2019/08/01 20:49:40","新北市新莊區三泰路23號","121.437376666667","25.0355383333333","6500500","新莊區"
"221036","130-UY","2019/08/01 20:49:40","新北市汐止區新昌路85號","121.664058333333","25.0691266666667","6501100","汐止區"
"221015","131-UY","2019/08/01 20:49:35","新北市汐止區大同路二段609號","121.664083333333","25.07078","6501100","汐止區"
"221012","278-VK","2019/08/01 20:49:31","新北市汐止區保新街25號","121.684343333333","25.07302","6501100","汐止區"
"221023","279-VK","2019/08/01 20:49:36","新北市汐止區民族二街30巷5號","121.6348","25.071785","6501100","汐止區"
"221027","281-BY","2019/08/01 20:49:42","新北市汐止區大同路二段364號","121.657425","25.06707","6501100","汐止區"
"221033","297-VK","2019/08/01 20:49:38","新北市汐止區合順街18巷8弄5號","121.620366666667","25.0419683333333","6501100","汐止區"
"221021","299-VK","2019/08/01 20:49:40","新北市汐止區莊敬街126號","121.655075","25.06109","6501100","汐止區"
"221035","622-UM","2019/08/01 20:49:38","新北市汐止區長江街101-5號","121.658588333333","25.0734966666667","6501100","汐止區"
"221002","707-TV","2019/08/01 20:49:37","新北市汐止區福德二路二段170號","121.629271666667","25.0648133333333","6501100","汐止區"
"220081","297-UM","2019/08/01 20:49:31","新北市板橋區大觀路二段273號","121.442758333333","24.9989033333333","6500100","板橋區"
"242044","281-VK","2019/08/01 20:49:39","新北市新莊區中正路730-18號","121.414148333333","25.0233416666667","6500500","新莊區"
"242009","280-VK","2019/08/01 20:49:29","新北市新莊區幸福路564巷2弄2號","121.454496666667","25.0495216666667","6500500","新莊區"
