"lineid","car","time","location","longitude","latitude","cityid","cityname"
"251004","009-UM","2019/08/01 22:19:41","新北市淡水區民族路33號","121.462285","25.1358166666667","6501000","淡水區"
"251010","012-UM","2019/08/01 22:19:37","新北市淡水區沙崙路200號","121.424581666667","25.183855","6501000","淡水區"
"251008","181-VK","2019/08/01 22:19:38","新北市淡水區學府路104號","121.449875","25.1717683333333","6501000","淡水區"
"251007","442-VK","2019/08/01 22:19:36","新北市淡水區北新路180號","121.44952","25.178685","6501000","淡水區"
"251011","650-BX","2019/08/01 22:19:30","新北市淡水區水碓街7號","121.443173333333","25.17714","6501000","淡水區"
