"lineid","car","time","location","longitude","latitude","cityid","cityname"
"232008","291-BY","2019/08/02 06:37:38","新北市坪林區北宜路八段558號","121.717948333333","24.9092916666667","6502000","坪林區"
"232003","758-BX","2019/08/02 06:37:45","新北市坪林區北宜路八段558號","121.718","24.90926","6502000","坪林區"
"244004","248-BX","2019/08/02 06:37:35","新北市林口區粉寮路二段160巷28號","121.405153333333","25.0907666666667","6501700","林口區"
"223006","022-BY","2019/08/02 06:37:27","新北市石碇區靜安路一段102號","121.648051666667","25.0089233333333","6501900","石碇區"
"223002","KEA-2673","2019/08/02 06:37:38","新北市石碇區碇坪路一段130號","121.659315","24.9913716666667","6501900","石碇區"
"223003","205-TH","2019/08/02 06:37:28","新北市石碇區碇坪路一段182號","121.666835","24.9854066666667","6501900","石碇區"
"223008","406-TH","2019/08/02 06:37:26","新北市石碇區小粗坑(潭邊里)15-3號","121.678058333333","24.9781033333333","6501900","石碇區"
"223007","661-BX","2019/08/02 06:37:38","新北市石碇區石崁14-1號","121.655061666667","24.9945133333333","6501900","石碇區"
"227003","282-VK","2019/08/02 06:37:36","新北市雙溪區牡丹里聖南25號","121.856883333333","25.0528316666667","6502500","雙溪區"
