"lineid","car","time","location","longitude","latitude","cityid","cityname"
"244022","483-VK","2019/10/31 10:29:46","新北市林口區仁愛路二段600號","121.371755","25.0789766666667","6501700","林口區"
"222006","289-BY","2019/10/31 10:29:50","新北市深坑區向天湖12號","121.61994","24.9915466666667","6501800","深坑區"
"231069","189-VK","2019/10/31 10:29:36","新北市新店區新潭路二段61號","121.521956666667","24.9262916666667","6500600","新店區"
"231008","192-VK","2019/10/31 10:21:19","新北市新店區成功路50巷1號","121.544263333333","24.902975","6500600","新店區"
"252007","AAC-283","2019/10/31 10:29:58","新北市三芝區埔頭里埔頭47號","121.500935","25.2626133333333","6502100","三芝區"
"233003","KEA-2870","2019/10/31 10:29:40","新北市新店區新烏路三段72號","121.554075","24.904245","6502900","烏來區"
