"lineid","car","time","location","longitude","latitude","cityid","cityname"
"234044","148-BY","2019/10/31 13:59:21","新北市永和區成功路一段16巷2號","121.52667","25.0054166666667","6500400","永和區"
"234078","298-R6","2019/10/31 13:59:22","新北市永和區林森路112巷12弄34號","121.522855","25.004635","6500400","永和區"
"234036","336-UY","2019/10/31 13:59:17","新北市永和區成功路二段140號","121.526578333333","24.997205","6500400","永和區"
"234062","337-UY","2019/10/31 13:59:27","新北市永和區中正路412巷20弄27號","121.519118333333","25.0012866666667","6500400","永和區"
"234084","338-UY","2019/10/31 13:59:24","新北市永和區福和路256號","121.518441666667","25.0075266666667","6500400","永和區"
"234068","552-UM","2019/10/31 13:59:17","新北市永和區國光路14號","121.519171666667","25.0084683333333","6500400","永和區"
"234048","553-UM","2019/10/31 13:59:26","新北市永和區保安路258號","121.506186666667","25.01232","6500400","永和區"
"234015","745-BX","2019/10/31 13:59:24","新北市永和區文化路66號","121.514345","25.0151116666667","6500400","永和區"
"234028","746-BX","2019/10/31 13:59:23","新北市永和區民生路22巷21號","121.521391666667","24.99707","6500400","永和區"
"234052","KEA-2590","2019/10/31 13:59:18","新北市永和區竹林路39巷33弄1號","121.520003333333","25.0152916666667","6500400","永和區"
"234005","KED-0605","2019/10/31 13:59:23","新北市永和區中和路453號","121.510085","25.0015183333333","6500400","永和區"
"234012","KEA-2591","2019/10/31 13:59:16","新北市永和區保生路55號","121.50469","25.0105866666667","6500400","永和區"
"234060","AAD-866","2019/10/31 13:59:26","新北市永和區中正路283巷57號","121.515666666667","24.99893","6500400","永和區"
"234040","862-TW","2019/10/31 13:59:28","新北市永和區中和路335巷18弄32號","121.508105","25.0005","6500400","永和區"
"234010","9373-KE","2019/10/31 13:59:25","新北市永和區仁愛路352巷112弄7號","121.500776666667","25.008415","6500400","永和區"
"248015","026-BX","2019/10/31 13:59:15","新北市五股區成泰路三段559巷14弄2號","121.451376666667","25.1024416666667","6501500","五股區"
"248007","KED-0815","2019/10/31 13:59:22","新北市五股區中興路一段118巷6弄7號","121.466326666667","25.0744266666667","6501500","五股區"
"248017","KED-0813","2019/10/31 13:59:14","新北市五股區民義路一段222號","121.42945","25.090695","6501500","五股區"
"248011","247-BX","2019/10/31 13:59:08","新北市五股區成泰路二段195巷1號","121.440413333333","25.0874316666667","6501500","五股區"
"248003","677-BX","2019/10/31 13:59:25","新北市五股區民義路二段118號","121.402561666667","25.11454","6501500","五股區"
"248001","678-BX","2019/10/31 13:59:10","新北市五股區凌雲路一段161號","121.448963333333","25.1025066666667","6501500","五股區"
"234022","9380-KE","2019/10/31 13:59:28","新北市永和區永和路二段243號","121.515813333333","25.0147366666667","6500400","永和區"
"234076","969-R7","2019/10/31 13:59:29","新北市永和區民權路58巷2弄2號","121.519806666667","24.99836","6500400","永和區"
"234072","AAC-211","2019/10/31 13:59:24","新北市永和區豫溪街189巷5號","121.522533333333","25.0103483333333","6500400","永和區"
"234066","AAC-212","2019/10/31 13:59:10","新北市永和區永貞路335號","121.50968","25.006995","6500400","永和區"
"234001","AAC-295","2019/10/31 13:59:23","新北市永和區福和路326號","121.515576666667","25.0072866666667","6500400","永和區"
"243002","297-R6","2019/10/31 13:59:14","新北市泰山區辭修路24號","121.428998333333","25.0581566666667","6501600","泰山區"
"243006","KEA-2801","2019/10/31 13:59:09","新北市泰山區黎明路13號","121.42098","25.063185","6501600","泰山區"
"243008","421-VK","2019/10/31 13:59:10","新北市泰山區明志路二段136巷3-1號","121.427035","25.0510833333333","6501600","泰山區"
"243001","KEA-2215","2019/10/31 13:59:10","新北市泰山區泰林路二段280巷1號","121.431491666667","25.0624583333333","6501600","泰山區"
"243003","KEA-2216","2019/10/31 13:59:17","新北市泰山區明志路二段246-1號","121.427143333333","25.0481533333333","6501600","泰山區"
"243007","680-BX","2019/10/31 13:59:15","新北市泰山區美寧街69號","121.430843333333","25.0650466666667","6501600","泰山區"
"231030","002-UM","2019/10/31 13:59:17","新北市新店區安康路一段250號","121.521028333333","24.96395","6500600","新店區"
"231024","0291-UT","2019/10/31 13:59:14","新北市新店區北新路一段271巷34號","121.539983333333","24.96721","6500600","新店區"
"231005","046-UY","2019/10/31 13:59:12","新北市新店區寶中路51號","121.546796666667","24.9801916666667","6500600","新店區"
"231003","047-UY","2019/10/31 13:59:23","新北市新店區光明街24號","121.538468333333","24.95865","6500600","新店區"
"231029","106-UY","2019/10/31 13:59:24","新北市新店區安康路二段1-5號","121.517038333333","24.96392","6500600","新店區"
"231018","107-UY","2019/10/31 13:59:23","新北市新店區中央路133巷4號","121.530535","24.9737316666667","6500600","新店區"
"231013","108-UY","2019/10/31 13:59:15","新北市新店區明德路64號","121.54164","24.97947","6500600","新店區"
"231036","110-UY","2019/10/31 13:59:14","新北市新店區安祥路109巷3弄1號","121.477866666667","24.961255","6500600","新店區"
"231031","256-BX","2019/10/31 13:59:26","新北市新店區莒光路44巷21弄11-6號","121.518448333333","24.9524666666667","6500600","新店區"
"231023","260-TV","2019/10/31 13:59:24","新北市新店區文中路40-4號","121.539948333333","24.9563616666667","6500600","新店區"
"231035","278-BY","2019/10/31 13:59:14","新北市新店區安康路二段87號","121.513466666667","24.9627466666667","6500600","新店區"
"231017","AAD-862","2019/10/31 13:59:16","新北市新店區北宜路二段150號","121.557708333333","24.9529916666667","6500600","新店區"
"231006","355-BY","2019/10/31 13:59:19","新北市新店區北宜路二段69-1號","121.549626666667","24.9515283333333","6500600","新店區"
"231027","3713-VJ","2019/10/31 13:59:09","新北市新店區中興路一段24-2號","121.538583333333","24.9583866666667","6500600","新店區"
"231025","4715-K9","2019/10/31 13:59:26","新北市新店區中正路302巷14號","121.538041666667","24.975185","6500600","新店區"
"231021","513-UM","2019/10/31 13:59:21","新北市新店區新烏路二段9號","121.544695","24.9291383333333","6500600","新店區"
"231034","616-UM","2019/10/31 13:59:23","新北市新店區達觀路40號","121.503275","24.9385683333333","6500600","新店區"
"231002","619-UM","2019/10/31 13:59:09","新北市新店區中正路678號","121.534088333333","24.9898633333333","6500600","新店區"
"231011","KED-0819","2019/10/31 13:59:23","新北市新店區中興路二段67巷1號","121.546468333333","24.970855","6500600","新店區"
"231010","719-UM","2019/10/31 13:59:22","新北市新店區安康路一段355-3號","121.519596666667","24.9628383333333","6500600","新店區"
"231026","720-UM","2019/10/31 13:59:19","新北市新店區三民路159巷19弄1號","121.532855","24.97425","6500600","新店區"
"231028","897-TW","2019/10/31 13:59:13","新北市新店區安和路三段4號","121.517931666667","24.980915","6500600","新店區"
"231001","898-TW","2019/10/31 13:59:22","新北市新店區三民路43號","121.537111666667","24.9708633333333","6500600","新店區"
"231004","899-TW","2019/10/31 13:59:22","新北市新店區北新路二段125號","121.5429","24.9752383333333","6500600","新店區"
"231037","AKT-0513","2019/10/31 13:59:09","新北市新店區安康路三段355巷7號","121.484685","24.9506233333333","6500600","新店區"
"235030","003-UY","2019/10/31 13:59:28","新北市中和區中山路二段131巷5弄16號","121.503285","25.003205","6500300","中和區"
"235028","005-UY","2019/10/31 13:59:14","新北市中和區中和路26巷4號","121.499535","25.0016766666667","6500300","中和區"
"235027","006-UY","2019/10/31 13:59:08","新北市中和區中正路590號","121.48585","24.9950366666667","6500300","中和區"
"235020","096-UM","2019/10/31 13:59:12","新北市中和區員山路506-1號","121.47981","25.008745","6500300","中和區"
"235003","097-UM","2019/10/31 13:59:20","新北市中和區秀朗路三段177號","121.524303333333","24.9909583333333","6500300","中和區"
"235029","098-UM","2019/10/31 13:59:10","新北市中和區勝利路11號","121.49971","25.0080783333333","6500300","中和區"
"235004","150-BY","2019/10/31 13:59:10","新北市中和區保健路46巷11號","121.509498333333","24.996675","6500300","中和區"
"235022","151-BY","2019/10/31 13:59:14","新北市中和區連城路631-2號","121.47573","24.99139","6500300","中和區"
"235019","183-VK","2019/10/31 13:59:25","新北市中和區德光路98號","121.468586666667","25.003425","6500300","中和區"
"235002","185-VK","2019/10/31 13:59:18","新北市中和區立人街24-5號","121.51883","24.9941283333333","6500300","中和區"
"235031","255-BX","2019/10/31 13:59:14","新北市中和區中正路683號","121.485125","24.9978633333333","6500300","中和區"
"235008","293-VK","2019/10/31 13:59:14","新北市中和區中興街161巷5弄1號","121.50073","24.990975","6500300","中和區"
"235036","301-VK","2019/10/31 13:59:23","新北市中和區中山路二段120號","121.5028","25.0037383333333","6500300","中和區"
"235007","352-BY","2019/10/31 13:59:13","新北市中和區秀朗路三段175巷23號","121.525846666667","24.9908866666667","6500300","中和區"
"235006","KEA-2878","2019/10/31 13:59:16","新北市中和區秀朗路三段128巷1弄2號","121.52456","24.99241","6500300","中和區"
"247015","KEA-2869","2019/10/31 13:59:28","新北市蘆洲區光華路44號","121.468738333333","25.0830733333333","6501400","蘆洲區"
"247009","KED-0682","2019/10/31 13:59:26","新北市蘆洲區集賢路320號","121.481535","25.08485","6501400","蘆洲區"
"235014","4979-A6","2019/10/31 13:59:12","新北市中和區忠孝街3號","121.509461666667","24.98292","6500300","中和區"
"235033","4980-A6","2019/10/31 13:59:22","新北市中和區中和路143號","121.502255","24.9999016666667","6500300","中和區"
"235034","558-UM","2019/10/31 13:59:12","新北市中和區中和路164號","121.50424","24.9996166666667","6500300","中和區"
"235009","565-BX","2019/10/31 13:59:09","新北市中和區景新街467巷33號","121.514698333333","24.9888266666667","6500300","中和區"
"235024","KED-0823","2019/10/31 13:59:12","新北市中和區中山路三段49號","121.4769","25.0057033333333","6500300","中和區"
"235018","640-BX","2019/10/31 13:59:23","新北市中和區國光街102巷2號","121.470311666667","25.000415","6500300","中和區"
"235035","647-TV","2019/10/31 13:59:26","新北市中和區立德街9號","121.490425","25.00622","6500300","中和區"
"235011","732-UM","2019/10/31 13:59:22","新北市中和區興南路二段92號","121.505276666667","24.984405","6500300","中和區"
"235010","733-UM","2019/10/31 13:59:25","新北市中和區興南路二段33號","121.507731666667","24.9858466666667","6500300","中和區"
"235021","801-TS","2019/10/31 13:59:11","新北市中和區民利街54號","121.47917","24.99888","6500300","中和區"
"235005","802-TS","2019/10/31 13:59:11","新北市中和區中安街58號","121.512603333333","25.0022866666667","6500300","中和區"
"235016","805-TS","2019/10/31 13:59:11","新北市中和區興南路二段341號","121.501736666667","24.9810533333333","6500300","中和區"
"235012","896-TW","2019/10/31 13:59:15","新北市中和區華新街42號","121.507888333333","24.9842366666667","6500300","中和區"
"235017","900-TW","2019/10/31 13:59:22","新北市板橋區和平路174巷1弄8號","121.464386666667","24.995245","6500300","中和區"
"235026","911-UM","2019/10/31 13:59:13","新北市中和區中山路二段366巷36號","121.491715","25.0050583333333","6500300","中和區"
"235015","157-BY","2019/10/31 13:59:25","新北市中和區忠孝街19巷3號","121.51001","24.98363","6500300","中和區"
"235001","AAC-213","2019/10/31 13:59:11","新北市中和區秀朗路三段60巷36號","121.525146666667","24.9949966666667","6500300","中和區"
"235023","AAC-215","2019/10/31 13:59:27","新北市中和區圓通路369巷14弄20號","121.490425","24.9878866666667","6500300","中和區"
"220104","015-TV","2019/10/31 13:59:18","新北市板橋區中正路275巷11號","121.454971666667","25.0186683333333","6500100","板橋區"
"220013","072-UY","2019/10/31 13:59:09","新北市板橋區漢生東路321號","121.471843333333","25.007895","6500100","板橋區"
"220034","073-UY","2019/10/31 13:59:26","新北市板橋區中正路101號","121.456388333333","25.0147333333333","6500100","板橋區"
"220105","075-UY","2019/10/31 13:59:18","新北市板橋區雙十路三段14號","121.47168","25.0303666666667","6500100","板橋區"
"220017","AAD-861","2019/10/31 13:59:10","新北市板橋區四川路一段102號","121.45945","25.0047316666667","6500100","板橋區"
"247005","893-R6","2019/10/31 13:59:14","新北市蘆洲區永安南路二段14號","121.467361666667","25.0771133333333","6501400","蘆洲區"
"247019","546-UM","2019/10/31 13:59:21","新北市蘆洲區民族路422巷35號","121.473433333333","25.0935233333333","6501400","蘆洲區"
"247003","341-TH","2019/10/31 13:59:16","新北市蘆洲區長安街98巷20號","121.463008333333","25.0817816666667","6501400","蘆洲區"
"247013","056-VK","2019/10/31 13:59:18","新北市蘆洲區中正路168號","121.468783333333","25.08606","6501400","蘆洲區"
"247017","053-VK","2019/10/31 13:59:09","新北市蘆洲區民族路253號","121.476691666667","25.090425","6501400","蘆洲區"
"247021","007-UY","2019/10/31 13:59:23","新北市蘆洲區中正路176號","121.467238333333","25.08773","6501400","蘆洲區"
"247007","002-UY","2019/10/31 13:59:22","新北市蘆洲區重陽街72號","121.482033333333","25.0842116666667","6501400","蘆洲區"
"247001","001-UY","2019/10/31 13:59:24","新北市蘆洲區三民路605號","121.460698333333","25.0937583333333","6501400","蘆洲區"
"235013","251-BX","2019/10/31 13:59:15","新北市中和區景安路163號","121.505491666667","24.9946116666667","6500300","中和區"
"228005","097-TW","2019/10/31 13:59:17","新北市貢寮區美豐里雞母嶺街52-1號","121.888583333333","25.068565","6502600","貢寮區"
"228004","212-TW","2019/10/31 13:59:24","新北市貢寮區龍崗里泮宮路6號","121.907498333333","25.01765","6502600","貢寮區"
"253003","6232-TK","2019/10/31 13:59:09","新北市石門區尖子鹿53-2號","121.580698333333","25.27035","6502200","石門區"
"253004","6251-TK","2019/10/31 13:59:24","新北市石門區草埔尾16號","121.602726666667","25.263465","6502200","石門區"
"253002","637-UY","2019/10/31 13:55:40","新北市石門區七股59-1號","121.551723333333","25.2543133333333","6502200","石門區"
"253001","KEC-0718","2019/10/31 13:59:24","新北市石門區八甲75號","121.530085","25.263435","6502200","石門區"
"207002","749-BX","2019/10/31 13:59:10","新北市萬里區溪底里富士坪路1號","121.63219","25.1506883333333","6502800","萬里區"
"252005","073-UM","2019/10/31 13:58:33","新北市三芝區圓山里二坪頂46號","121.539873333333","25.230005","6502100","三芝區"
"207001","662-BX","2019/10/31 13:59:23","新北市萬里區磺潭里清水2-2號","121.641268333333","25.2025633333333","6502800","萬里區"
"236040","KED-0685","2019/10/31 13:57:31","新北市土城區中央路二段278巷2號","121.440698333333","24.9743383333333","6501300","土城區"
"236074","166-UM","2019/10/31 13:59:09","新北市土城區永寧路41號","121.430073333333","24.9619783333333","6501300","土城區"
"236029","253-BX","2019/10/31 13:59:14","新北市土城區城林路6巷80號","121.438583333333","24.97978","6501300","土城區"
"236024","269-VK","2019/10/31 13:59:20","新北市土城區中央路三段42號","121.437555","24.9680633333333","6501300","土城區"
"236012","270-VK","2019/10/31 13:59:24","新北市土城區城林路6巷80號","121.438641666667","24.9798016666667","6501300","土城區"
"236032","271-VK","2019/10/31 13:59:20","新北市土城區城林路6巷80號","121.43844","24.9798483333333","6501300","土城區"
"247011","KED-0683","2019/10/31 13:59:21","新北市蘆洲區民族路156號","121.479691666667","25.086125","6501400","蘆洲區"
"236068","KEA-2877","2019/10/31 13:59:26","新北市土城區金城路一段88巷10號","121.445618333333","24.972945","6501300","土城區"
"236017","401-BY","2019/10/31 13:59:24","新北市土城區城林路6巷80號","121.43858","24.979855","6501300","土城區"
"236060","752-BX","2019/10/31 13:59:22","新北市土城區城林路6巷80號","121.438556666667","24.9797666666667","6501300","土城區"
"236057","912-UM","2019/10/31 13:59:22","新北市土城區中央路三段285號","121.425898333333","24.9630716666667","6501300","土城區"
"236045","913-UM","2019/10/31 13:59:10","新北市土城區城林路6巷80號","121.438518333333","24.979715","6501300","土城區"
"236054","AAC-216","2019/10/31 13:59:09","新北市土城區城林路6巷80號","121.438591666667","24.9798016666667","6501300","土城區"
"220027","145-BY","2019/10/31 13:59:23","新北市板橋區大智街86號","121.453515","25.01565","6500100","板橋區"
"220028","200-UY","2019/10/31 13:59:22","新北市板橋區大觀路二段265巷3弄3號","121.442998333333","24.9983866666667","6500100","板橋區"
"220004","276-BY","2019/10/31 13:59:21","新北市板橋區信義路78號","121.457658333333","24.9933766666667","6500100","板橋區"
"220020","277-BY","2019/10/31 13:59:26","新北市板橋區篤行路一段29號","121.432045","24.9948283333333","6500100","板橋區"
"220043","283-UM","2019/10/31 13:59:24","新北市板橋區光武街171號","121.46526","25.0301316666667","6500100","板橋區"
"220019","283-VK","2019/10/31 13:59:11","新北市板橋區忠孝路196巷43號","121.465531666667","25.0016966666667","6500100","板橋區"
"220050","285-UM","2019/10/31 13:59:25","新北市板橋區萬板路15號","121.470595","25.021085","6500100","板橋區"
"220001","285-VK","2019/10/31 13:59:14","新北市板橋區太和街6巷1號","121.473731666667","25.0200133333333","6500100","板橋區"
"220031","286-VK","2019/10/31 13:59:21","新北市板橋區大觀路一段38巷184號","121.44145","25.0046583333333","6500100","板橋區"
"220029","287-VK","2019/10/31 13:59:18","新北市板橋區光華街19巷8號","121.453625","25.0121416666667","6500100","板橋區"
"220039","288-VK","2019/10/31 13:59:14","新北市板橋區裕民街5-1號","121.46243","25.0291533333333","6500100","板橋區"
"220009","293-UM","2019/10/31 13:59:12","新北市板橋區懷仁街85巷6號","121.477736666667","25.018525","6500100","板橋區"
"220010","295-UM","2019/10/31 13:59:14","新北市板橋區三民路二段245巷38號","121.480668333333","25.0124583333333","6500100","板橋區"
"220032","296-UM","2019/10/31 13:59:27","新北市板橋區大觀路三段5-4號","121.432736666667","24.99587","6500100","板橋區"
"220023","303-R5","2019/10/31 13:59:00","新北市板橋區南興路30號","121.454723333333","25.00773","6500100","板橋區"
"220041","307-R5","2019/10/31 13:59:20","新北市板橋區文化路二段225巷60弄73號","121.468938333333","25.0300416666667","6500100","板橋區"
"220047","317-R6","2019/10/31 13:59:12","新北市板橋區民生路二段226巷40號","121.471393333333","25.0222383333333","6500100","板橋區"
"220038","487-VK","2019/10/31 13:59:19","新北市板橋區文化路二段319號","121.47224","25.0301866666667","6500100","板橋區"
"220037","491-VK","2019/10/31 13:59:19","新北市板橋區莊敬路56號","121.47267","25.0269316666667","6500100","板橋區"
"220052","561-BX","2019/10/31 13:59:23","新北市板橋區介壽街74號","121.469736666667","25.0189266666667","6500100","板橋區"
"220011","609-BX","2019/10/31 13:59:27","新北市板橋區三民路二段31號","121.479361666667","25.0178733333333","6500100","板橋區"
"220040","637-BX","2019/10/31 13:59:25","新北市板橋區大同街26巷31號","121.478481666667","25.0264016666667","6500100","板橋區"
"220005","686-BX","2019/10/31 13:59:17","新北市板橋區重慶路306-2號","121.463763333333","24.9982383333333","6500100","板橋區"
"220025","687-BX","2019/10/31 13:59:26","新北市板橋區大觀路二段156巷47號","121.441015","24.9999316666667","6500100","板橋區"
"220042","689-BX","2019/10/31 13:59:20","新北市板橋區民生路三段153號","121.46569","25.0265883333333","6500100","板橋區"
"220002","741-BX","2019/10/31 13:59:16","新北市板橋區重慶路139巷19號","121.463583333333","25.00473","6500100","板橋區"
"220051","KEA-2699","2019/10/31 13:59:25","新北市板橋區田單街2巷29號","121.482223333333","25.02809","6500100","板橋區"
"220003","827-TW","2019/10/31 13:59:21","新北市板橋區中山路一段132號","121.463418333333","25.0108783333333","6500100","板橋區"
"220014","831-TW","2019/10/31 13:59:15","新北市板橋區三民路二段正隆巷12弄1號","121.478041666667","25.0129183333333","6500100","板橋區"
"220030","833-TW","2019/10/31 13:59:21","新北市板橋區篤行路三段玉平巷37號","121.428823333333","24.9870666666667","6500100","板橋區"
"220022","895-R6","2019/10/31 13:59:21","新北市板橋區林園街2號","121.454203333333","25.00922","6500100","板橋區"
"220021","985-R7","2019/10/31 13:59:13","新北市板橋區館前西路152號","121.455361666667","25.0084166666667","6500100","板橋區"
"220046","AAC-210","2019/10/31 13:59:18","新北市板橋區新海路135巷2號","121.459983333333","25.023015","6500100","板橋區"
"220012","AAC-253","2019/10/31 13:59:27","新北市板橋區板新路89號","121.473151666667","25.0139233333333","6500100","板橋區"
"235032","KEA-2873","2019/10/31 13:59:12","新北市中和區連勝街24號","121.498348333333","24.99806","6500300","中和區"
"235025","KEA-2875","2019/10/31 13:59:01","新北市中和區民有街18號","121.475606666667","25.0054183333333","6500300","中和區"
