"lineid","car","time","location","longitude","latitude","cityid","cityname"
"248007","KED-0815","2019/10/31 15:13:42","新北市三重區中正北路598巷5號","121.469701666667","25.0715166666667","6501500","五股區"
"248017","KED-0813","2019/10/31 15:13:57","新北市五股區登林路91-25號","121.421116666667","25.0718283333333","6501500","五股區"
"248003","677-BX","2019/10/31 15:13:45","新北市五股區中興路四段17-4號","121.439493333333","25.0823916666667","6501500","五股區"
"243004","AAD-798","2019/10/31 15:13:46","新北市泰山區忠孝街19巷3-1號","121.42747","25.0657216666667","6501600","泰山區"
"243001","KEA-2215","2019/10/31 15:13:50","新北市泰山區泰林路二段542巷3弄12號","121.42306","25.0643783333333","6501600","泰山區"
"231030","002-UM","2019/10/31 15:13:37","新北市新店區安民街341號","121.51696","24.9749716666667","6500600","新店區"
"231024","0291-UT","2019/10/31 15:13:54","新北市新店區北新路一段307號","121.541476666667","24.96767","6500600","新店區"
"231005","046-UY","2019/10/31 15:13:51","新北市新店區民族路13號","121.541423333333","24.9787416666667","6500600","新店區"
"231003","047-UY","2019/10/31 15:13:43","新北市新店區寶橋路222號","121.551166666667","24.9787183333333","6500600","新店區"
"231029","106-UY","2019/10/31 15:13:44","新北市新店區安康路三段567-1號","121.47544","24.9432783333333","6500600","新店區"
"231018","107-UY","2019/10/31 15:13:52","新北市新店區中央七街36號","121.529073333333","24.975555","6500600","新店區"
"231036","110-UY","2019/10/31 15:13:53","新北市新店區安祥路69巷15號","121.481943333333","24.961425","6500600","新店區"
"231039","187-VK","2019/10/31 15:13:52","新北市新店區寶元路一段65號","121.542248333333","24.9857833333333","6500600","新店區"
"231031","256-BX","2019/10/31 15:13:45","新北市新店區安泰路157號","121.488393333333","24.9378866666667","6500600","新店區"
"231023","260-TV","2019/10/31 15:13:44","新北市新店區北新路一段6號","121.540716666667","24.9653433333333","6500600","新店區"
"231035","278-BY","2019/10/31 15:13:54","新北市新店區安和路三段111巷5弄2號","121.51696","24.984755","6500600","新店區"
"231017","AAD-862","2019/10/31 15:13:36","新北市新店區玉山路22號","121.56806","24.95563","6500600","新店區"
"231006","355-BY","2019/10/31 15:13:39","新北市新店區新坡一街18巷5弄23號","121.550746666667","24.9618733333333","6500600","新店區"
"231038","3712-VJ","2019/10/31 15:13:42","新北市新店區安華路28-1號","121.519758333333","24.9610366666667","6500600","新店區"
"231025","4715-K9","2019/10/31 15:13:46","新北市新店區民權路107-1號","121.536388333333","24.98233","6500600","新店區"
"231021","513-UM","2019/10/31 15:13:41","新北市新店區永福路54號","121.557585","24.9286116666667","6500600","新店區"
"231034","616-UM","2019/10/31 15:13:41","新北市新店區玫瑰路4-1號","121.493773333333","24.9513966666667","6500600","新店區"
"231002","619-UM","2019/10/31 15:13:49","新北市新店區中正路695巷2號","121.533988333333","24.99064","6500600","新店區"
"231011","KED-0819","2019/10/31 15:13:43","新北市新店區寶元路一段65號","121.542213333333","24.98584","6500600","新店區"
"231026","720-UM","2019/10/31 15:13:50","新北市新店區中正路265巷8號","121.537726666667","24.97353","6500600","新店區"
"231028","897-TW","2019/10/31 15:13:53","新北市新店區安豐路45號","121.500085","24.9551633333333","6500600","新店區"
"231001","898-TW","2019/10/31 15:13:42","新北市新店區中正路191號","121.54056","24.9722883333333","6500600","新店區"
"231004","899-TW","2019/10/31 15:13:52","新北市新店區建國路29號","121.540221666667","24.9740666666667","6500600","新店區"
"231037","AKT-0513","2019/10/31 15:13:49","新北市新店區安興路69-1號","121.515645","24.9751616666667","6500600","新店區"
"241013","270-UM","2019/10/31 15:13:42","新北市三重區重新路四段121號","121.485081666667","25.052025","6500200","三重區"
"235030","003-UY","2019/10/31 15:13:48","新北市中和區水源路87號","121.506883333333","25.0035916666667","6500300","中和區"
"235004","150-BY","2019/10/31 15:13:50","新北市中和區安平路38號","121.509941666667","24.9949766666667","6500300","中和區"
"235019","183-VK","2019/10/31 15:13:45","新北市五股區中興路三段163號","121.448855","25.08089","6500300","中和區"
"235031","255-BX","2019/10/31 15:13:34","新北市八里區商港一路444號","121.392435","25.1432633333333","6500300","中和區"
"235036","301-VK","2019/10/31 15:13:43","新北市中和區連城路144巷4弄11號","121.49566","24.99883","6500300","中和區"
"235014","4979-A6","2019/10/31 15:13:52","新北市中和區景新街274巷22號","121.510218333333","24.9920366666667","6500300","中和區"
"235033","4980-A6","2019/10/31 15:13:41","新北市中和區南山路127巷25號","121.503375","24.9974933333333","6500300","中和區"
"235034","558-UM","2019/10/31 15:13:52","新北市中和區中正路558號","121.486833333333","24.994565","6500300","中和區"
"235035","647-TV","2019/10/31 15:13:46","新北市中和區中正路804號","121.485096666667","25.0018666666667","6500300","中和區"
"235012","896-TW","2019/10/31 15:13:55","新北市中和區興南路一段67號","121.510308333333","24.9894783333333","6500300","中和區"
"235023","AAC-215","2019/10/31 15:13:47","新北市中和區圓通路369巷2號","121.49129","24.9895083333333","6500300","中和區"
"220013","072-UY","2019/10/31 15:13:49","新北市板橋區忠孝路20號","121.459976666667","25.0017983333333","6500100","板橋區"
"253004","6251-TK","2019/10/31 15:13:44","新北市石門區小坑12-3號","121.59343","25.2823833333333","6502200","石門區"
"207002","749-BX","2019/10/31 15:12:16","新北市萬里區崁腳里崁腳路27號","121.651745","25.1605633333333","6502800","萬里區"
"207001","662-BX","2019/10/31 15:13:43","新北市萬里區磺潭里員潭路35-1號","121.64482","25.1943866666667","6502800","萬里區"
"236040","KED-0685","2019/10/31 15:13:41","新北市土城區裕民路233巷5號","121.45489","24.9834466666667","6501300","土城區"
"236074","166-UM","2019/10/31 15:13:48","新北市土城區中州路27巷69號","121.412846666667","24.956675","6501300","土城區"
"236029","253-BX","2019/10/31 15:13:54","新北市土城區福祥街103巷2號","121.441866666667","24.98199","6501300","土城區"
"236024","269-VK","2019/10/31 15:13:40","新北市土城區中央路二段149巷35號","121.443256666667","24.976855","6501300","土城區"
"236012","270-VK","2019/10/31 15:13:44","新北市土城區學府路一段23巷25弄44號","121.457411666667","24.9861416666667","6501300","土城區"
"236068","KEA-2877","2019/10/31 15:13:51","新北市土城區學府路一段129巷2號","121.454315","24.9862766666667","6501300","土城區"
"236017","401-BY","2019/10/31 15:13:44","新北市土城區明峰街83號","121.468913333333","24.9874383333333","6501300","土城區"
"236060","752-BX","2019/10/31 15:13:51","新北市土城區延平街61號","121.467813333333","24.99262","6501300","土城區"
"236057","912-UM","2019/10/31 15:13:41","新北市土城區金城路二段217號","121.454781666667","24.98179","6501300","土城區"
"236045","913-UM","2019/10/31 15:13:50","新北市土城區清水路328號","121.463913333333","24.9853666666667","6501300","土城區"
"236054","AAC-216","2019/10/31 15:13:48","新北市土城區學府路一段162號","121.454263333333","24.9866683333333","6501300","土城區"
"238010","601-UM","2019/10/31 15:13:52","新北市樹林區保安街一段318號","121.41849","24.9976516666667","6500700","樹林區"
"238006","599-UM","2019/10/31 15:13:50","新北市樹林區八德街94號","121.420836666667","24.9802416666667","6500700","樹林區"
"238005","KEA-2217","2019/10/31 15:13:54","新北市樹林區中正路241號","121.430333333333","24.9987733333333","6500700","樹林區"
"238009","KEA-2213","2019/10/31 15:13:39","新北市樹林區忠孝街31號","121.423735","24.9822233333333","6500700","樹林區"
"238008","KEA-2539","2019/10/31 15:13:42","新北市樹林區西圳街一段165巷20弄11號","121.395663333333","24.960245","6500700","樹林區"
"238012","303-VK","2019/10/31 15:13:43","新北市樹林區中山路一段249號","121.420526666667","24.986465","6500700","樹林區"
"238004","283-BY","2019/10/31 15:13:54","新北市樹林區大安路347號","121.41645","24.9906183333333","6500700","樹林區"
"238007","268-VK","2019/10/31 15:13:43","新北市樹林區俊英街80號","121.428175","25.0040983333333","6500700","樹林區"
"238013","172-UY","2019/10/31 15:13:38","新北市樹林區東順街79巷3號","121.409916666667","24.9763633333333","6500700","樹林區"
"238003","169-UY","2019/10/31 15:13:51","新北市樹林區中山路二段34號","121.417305","24.9848683333333","6500700","樹林區"
"220027","145-BY","2019/10/31 15:13:43","新北市板橋區光正街45巷34號","121.461433333333","25.0158816666667","6500100","板橋區"
"220050","285-UM","2019/10/31 15:13:47","新北市板橋區莊敬路75巷35號","121.473913333333","25.026065","6500100","板橋區"
"220031","286-VK","2019/10/31 15:13:40","新北市板橋區大觀路一段38巷156弄154號","121.444046666667","25.0088916666667","6500100","板橋區"
"220029","287-VK","2019/10/31 15:13:52","新北市板橋區僑中一街124巷20弄35號","121.447593333333","25.0139233333333","6500100","板橋區"
"220010","295-UM","2019/10/31 15:13:48","新北市板橋區萬安街85巷1弄11號","121.484411666667","25.02503","6500100","板橋區"
"220023","303-R5","2019/10/31 15:13:51","新北市板橋區金華街10巷85號","121.458318333333","25.0204316666667","6500100","板橋區"
"220038","487-VK","2019/10/31 15:13:50","新北市板橋區四維路221號","121.463236666667","25.0270816666667","6500100","板橋區"
"220037","491-VK","2019/10/31 15:13:39","新北市板橋區民治街78-4號","121.479491666667","25.0322083333333","6500100","板橋區"
"220052","561-BX","2019/10/31 15:13:43","新北市板橋區漢生東路23巷56弄6號","121.466215","25.0182283333333","6500100","板橋區"
"220011","609-BX","2019/10/31 15:13:39","新北市板橋區中山路二段230號","121.478268333333","25.0180533333333","6500100","板橋區"
"220025","687-BX","2019/10/31 15:13:46","新北市板橋區僑中一街124巷20弄1號","121.446198333333","25.014165","6500100","板橋區"
"220042","689-BX","2019/10/31 15:13:35","新北市板橋區長江路二段2號","121.464496666667","25.0312683333333","6500100","板橋區"
"220002","741-BX","2019/10/31 15:13:36","新北市板橋區重慶路112號","121.46201","25.00499","6500100","板橋區"
"220003","827-TW","2019/10/31 15:13:41","新北市板橋區國慶路149巷38弄6號","121.461438333333","24.99808","6500100","板橋區"
"220030","833-TW","2019/10/31 15:13:52","新北市板橋區篤行路二段107號","121.43168","24.9911616666667","6500100","板橋區"
"220022","895-R6","2019/10/31 15:13:41","新北市板橋區縣民大道一段310號","121.460818333333","25.0100183333333","6500100","板橋區"
"220012","AAC-253","2019/10/31 15:13:47","新北市板橋區區運路32號","121.46544","25.0097283333333","6500100","板橋區"
