"lineid","car","time","location","longitude","latitude","cityid","cityname"
"249002","305-UY","2019/10/31 16:29:39","新北市八里區忠孝路488-1號","121.414151666667","25.1616083333333","6502300","八里區"
"249003","593-UM","2019/10/31 16:29:38","新北市八里區挖子尾街6號","121.415451666667","25.164195","6502300","八里區"
"231046","719-UM","2019/10/31 16:29:36","新北市新店區灣潭路3-5號","121.538048333333","24.9508483333333","6500600","新店區"
"241011","013-R5","2019/10/31 16:29:50","新北市三重區秀江街49號","121.501086666667","25.0726166666667","6500200","三重區"
"241028","022-UY","2019/10/31 16:29:53","新北市三重區中正南路155號","121.493851666667","25.0562566666667","6500200","三重區"
"241008","059-VK","2019/10/31 16:29:47","新北市三重區永福街179號","121.479006666667","25.0753133333333","6500200","三重區"
"241023","060-VK","2019/10/31 16:29:44","新北市三重區忠孝路三段50巷53號","121.483298333333","25.0641783333333","6500200","三重區"
"241031","061-VK","2019/10/31 16:29:39","新北市三重區重陽路一段100號","121.486546666667","25.0595083333333","6500200","三重區"
"241015","062-VK","2019/10/31 16:29:48","新北市三重區信義街55號","121.50112","25.0650783333333","6500200","三重區"
"241017","063-VK","2019/10/31 16:29:51","新北市三重區大同北路12號","121.495378333333","25.06215","6500200","三重區"
"241024","065-VK","2019/10/31 16:29:51","新北市三重區中正北路315巷16弄28號","121.476271666667","25.071875","6500200","三重區"
"241007","066-VK","2019/10/31 16:29:50","新北市三重區三和路四段167巷107號","121.487158333333","25.08001","6500200","三重區"
"241002","090-VK","2019/10/31 16:29:37","新北市三重區五華街7巷41號","121.49595","25.0804783333333","6500200","三重區"
"241003","091-VK","2019/10/31 16:29:42","新北市三重區五華街57巷30號","121.49388","25.08314","6500200","三重區"
"241006","262-UM","2019/10/31 16:23:59","新北市三重區永福街46巷31弄23號","121.481566666667","25.0775333333333","6500200","三重區"
"241016","266-UM","2019/10/31 16:29:23","新北市三重區大智街19號","121.49435","25.0656116666667","6500200","三重區"
"241009","267-UM","2019/10/31 16:29:53","新北市三重區三和路四段191巷47號","121.483571666667","25.07956","6500200","三重區"
"241018","268-UM","2019/10/31 16:29:56","新北市三重區重陽路四段77號","121.492508333333","25.070865","6500200","三重區"
"241032","269-UM","2019/10/31 16:29:29","新北市三重區三陽路116巷4號","121.483053333333","25.0581666666667","6500200","三重區"
"241013","270-UM","2019/10/31 16:29:42","新北市三重區龍門路86號","121.49724","25.0727033333333","6500200","三重區"
"241025","271-UM","2019/10/31 16:29:37","新北市三重區中正北路560巷100弄17-1號","121.472665","25.068345","6500200","三重區"
"241030","KED-0822","2019/10/31 16:29:47","新北市三重區成功路49號","121.489453333333","25.0507133333333","6500200","三重區"
"241004","475-VK","2019/10/31 16:29:43","新北市三重區仁愛街377巷82號","121.492866666667","25.0811533333333","6500200","三重區"
"241020","478-VK","2019/10/31 16:29:49","新北市三重區車路頭街37巷6號","121.484065","25.0717166666667","6500200","三重區"
"241026","480-VK","2019/10/31 16:29:51","新北市三重區中央南路95巷11號","121.500963333333","25.0606633333333","6500200","三重區"
"241014","543-UM","2019/10/31 16:29:41","新北市三重區河邊北街72-6號","121.50444","25.068465","6500200","三重區"
"241001","547-UM","2019/10/31 16:29:50","新北市三重區仁政街102巷15號","121.491606666667","25.0779783333333","6500200","三重區"
"241019","KEA-2593","2019/10/31 16:29:38","新北市三重區重陽路三段89號","121.489988333333","25.0676683333333","6500200","三重區"
"241005","AAD-863","2019/10/31 16:29:48","新北市三重區仁華街118巷40號","121.485633333333","25.0838983333333","6500200","三重區"
"241012","743-BX","2019/10/31 16:29:53","新北市三重區河邊北街272號","121.50158","25.07664","6500200","三重區"
"241022","KED-0820","2019/10/31 16:29:38","新北市三重區重陽路二段1號","121.48682","25.0616516666667","6500200","三重區"
"241029","942-UM","2019/10/31 16:29:42","新北市三重區集美街126巷26號","121.490073333333","25.0538783333333","6500200","三重區"
"241033","AAC-255","2019/10/31 16:29:47","新北市三重區五谷王北街2巷14號","121.47425","25.0478266666667","6500200","三重區"
"235062","911-UM","2019/10/31 16:28:48","新北市中和區員山路36巷16-3號","121.485071666667","24.9913533333333","6500300","中和區"
"247014","056-VK","2019/10/31 16:29:58","新北市五股區中興路三段163號","121.449246666667","25.0809316666667","6501400","蘆洲區"
"224007","285-BY","2019/10/31 16:29:43","新北市瑞芳區大埔路177號","121.763513333333","25.1020083333333","6501200","瑞芳區"
"224009","275-VK","2019/10/31 16:28:20","新北市瑞芳區民權街3-1號","121.809208333333","25.1083683333333","6501200","瑞芳區"
"224005","271-BY","2019/10/31 16:29:51","新北市瑞芳區瑞濱路67號","121.82263","25.1208733333333","6501200","瑞芳區"
"227002","642-TC","2019/10/31 16:29:47","新北市雙溪區外柑里外柑腳37號","121.81022","25.018505","6502500","雙溪區"
"227001","400-TW","2019/10/31 16:29:51","新北市雙溪區牡丹里五分10號","121.866446666667","25.0471216666667","6502500","雙溪區"
"251015","KEA-2871","2019/10/31 16:29:43","新北市淡水區中正路二段31號","121.419098333333","25.1820083333333","6501000","淡水區"
"251016","179-VK","2019/10/31 16:29:46","新北市淡水區中正路二段31號","121.419603333333","25.1812","6501000","淡水區"
"251008","181-VK","2019/10/31 16:29:39","新北市淡水區民生路135巷10號","121.466036666667","25.1390033333333","6501000","淡水區"
"251013","182-VK","2019/10/31 16:29:55","新北市淡水區北新路三段171-1號","121.49184","25.191465","6501000","淡水區"
"251014","577-R6","2019/10/31 16:29:44","新北市淡水區崁頂27號","121.440481666667","25.19283","6501000","淡水區"
"236074","166-UM","2019/10/31 16:29:48","新北市土城區永寧路29號","121.430426666667","24.9631933333333","6501300","土城區"
"252001","KED-0821","2019/10/31 16:29:53","新北市三芝區埔坪里埔頭坑47號","121.505646666667","25.2623433333333","6502100","三芝區"
"238006","599-UM","2019/10/31 16:29:50","新北市樹林區中山路二段219號","121.402818333333","24.9765083333333","6500700","樹林區"
"238025","303-VK","2019/10/31 16:29:43","新北市樹林區中正路22-1號","121.427823333333","24.9994083333333","6500700","樹林區"
"238004","283-BY","2019/10/31 16:29:54","新北市樹林區中正路433-1號","121.414795","25.0081","6500700","樹林區"
"238001","282-BY","2019/10/31 16:29:41","新北市樹林區中正路22-1號","121.427716666667","24.99948","6500700","樹林區"
"238007","268-VK","2019/10/31 16:29:42","新北市樹林區中正路105號","121.42491","25.0012266666667","6500700","樹林區"
