"lineid","car","time","location","longitude","latitude","cityid","cityname"
"249005","172-UM","2019/10/31 16:59:37","新北市八里區渡船頭1號","121.43403","25.1519316666667","6502300","八里區"
"249001","173-UM","2019/10/31 16:59:56","新北市八里區下罟子1-12號","121.39006","25.142035","6502300","八里區"
"249004","303-UY","2019/10/31 16:59:39","新北市八里區忠孝路353號","121.416466666667","25.1611466666667","6502300","八里區"
"249002","305-UY","2019/10/31 16:58:59","新北市八里區牛寮埔28-3號","121.43231","25.1439","6502300","八里區"
"249003","593-UM","2019/10/31 16:59:48","新北市八里區中山路二段297號","121.401341666667","25.14838","6502300","八里區"
"244007","080-UY","2019/10/31 16:59:37","新北市林口區中湖53號","121.375908333333","25.09158","6501700","林口區"
"244023","483-VK","2019/10/31 16:59:45","新北市林口區自強三街1號","121.396991666667","25.07806","6501700","林口區"
"244009","656-BX","2019/10/31 16:59:36","新北市林口區粉寮路17-3號","121.398741666667","25.0809683333333","6501700","林口區"
"244025","837-TS","2019/10/31 16:59:48","新北市林口區粉寮69號","121.405066666667","25.0908566666667","6501700","林口區"
"231046","719-UM","2019/10/31 16:59:36","新北市新店區灣潭路15-5號","121.54176","24.94033","6500600","新店區"
"241011","013-R5","2019/10/31 16:59:50","新北市三重區龍門路254號","121.501026666667","25.073885","6500200","三重區"
"241028","022-UY","2019/10/31 16:59:43","新北市三重區中正南路58號","121.494031666667","25.0596516666667","6500200","三重區"
"241008","059-VK","2019/10/31 16:59:47","新北市三重區永福街179巷3號","121.478618333333","25.0750216666667","6500200","三重區"
"241023","060-VK","2019/10/31 16:59:44","新北市三重區忠孝路三段126號","121.480205","25.06372","6500200","三重區"
"241031","061-VK","2019/10/31 16:59:40","新北市三重區重新路三段115巷12號","121.490201666667","25.0602933333333","6500200","三重區"
"241015","062-VK","2019/10/31 16:59:28","新北市三重區三和路二段2號","121.501456666667","25.0663466666667","6500200","三重區"
"241017","063-VK","2019/10/31 16:59:51","新北市三重區國隆路12巷3號","121.492761666667","25.0637766666667","6500200","三重區"
"241024","065-VK","2019/10/31 16:59:51","新北市三重區大勇街82巷15弄30號","121.48105","25.0719333333333","6500200","三重區"
"241007","066-VK","2019/10/31 16:59:50","新北市三重區溪尾街184號","121.488291666667","25.080735","6500200","三重區"
"241002","090-VK","2019/10/31 16:59:37","新北市三重區仁義街101巷42號","121.499273333333","25.08061","6500200","三重區"
"241003","091-VK","2019/10/31 16:59:42","新北市三重區五華街141巷58號","121.493571666667","25.08679","6500200","三重區"
"241006","262-UM","2019/10/31 16:59:39","新北市三重區車路頭街119號","121.484541666667","25.0754016666667","6500200","三重區"
"241016","266-UM","2019/10/31 16:59:43","新北市三重區大同北路95巷2號","121.494586666667","25.06389","6500200","三重區"
"241009","267-UM","2019/10/31 16:59:53","新北市三重區仁美街108巷13號","121.484871666667","25.080575","6500200","三重區"
"241018","268-UM","2019/10/31 16:59:56","新北市三重區六張街126巷4弄2號","121.492236666667","25.0691516666667","6500200","三重區"
"241032","269-UM","2019/10/31 16:59:49","新北市三重區重陽路一段120巷17號","121.485991666667","25.0601516666667","6500200","三重區"
"241013","270-UM","2019/10/31 16:59:42","新北市三重區仁和街54號","121.497113333333","25.0738616666667","6500200","三重區"
"241025","271-UM","2019/10/31 16:59:57","新北市三重區中正北路510號","121.472606666667","25.0715666666667","6500200","三重區"
"241030","KED-0822","2019/10/31 16:59:47","新北市三重區昌隆街66號","121.491008333333","25.05098","6500200","三重區"
"241004","475-VK","2019/10/31 16:59:43","新北市三重區五華街98巷15號","121.491928333333","25.0821483333333","6500200","三重區"
"241020","478-VK","2019/10/31 16:59:49","新北市三重區國道路一段8號","121.486091666667","25.0735116666667","6500200","三重區"
"241026","480-VK","2019/10/31 16:59:51","新北市三重區光興街61號","121.498778333333","25.0601533333333","6500200","三重區"
"241014","543-UM","2019/10/31 16:59:41","新北市三重區三和路二段173巷149號","121.501141666667","25.070655","6500200","三重區"
"241001","547-UM","2019/10/31 16:59:50","新北市三重區仁愛街172巷1號","121.493911666667","25.07665","6500200","三重區"
"241019","KEA-2593","2019/10/31 16:59:58","新北市三重區自強路二段74巷25號","121.48762","25.0695916666667","6500200","三重區"
"241005","AAD-863","2019/10/31 16:59:48","新北市三重區仁愛街713號","121.482188333333","25.0805433333333","6500200","三重區"
"241012","743-BX","2019/10/31 16:59:53","新北市三重區仁壽街200號","121.501081666667","25.0749183333333","6500200","三重區"
"241022","KED-0820","2019/10/31 16:59:38","新北市三重區三民街153號","121.484156666667","25.064305","6500200","三重區"
"241029","942-UM","2019/10/31 16:59:42","新北市三重區中正南路269號","121.493226666667","25.05224","6500200","三重區"
"241033","AAC-255","2019/10/31 16:59:47","新北市三重區中興北街275號","121.46907","25.06076","6500200","三重區"
"247016","KEA-2869","2019/10/31 16:59:44","新北市蘆洲區中正路67號","121.47023","25.0826366666667","6501400","蘆洲區"
"247006","893-R6","2019/10/31 16:59:44","新北市蘆洲區長安街99巷31號","121.460748333333","25.0796833333333","6501400","蘆洲區"
"247020","546-UM","2019/10/31 16:59:53","新北市蘆洲區民族路422巷82弄14號","121.473955","25.09387","6501400","蘆洲區"
"247004","341-TH","2019/10/31 16:59:52","新北市蘆洲區長安街110號","121.46111","25.0815566666667","6501400","蘆洲區"
"247024","057-VK","2019/10/31 16:59:45","新北市蘆洲區長興路202號","121.460571666667","25.0874616666667","6501400","蘆洲區"
"247014","056-VK","2019/10/31 16:59:58","新北市蘆洲區中山二路19號","121.474758333333","25.081695","6501400","蘆洲區"
"247018","053-VK","2019/10/31 16:59:53","新北市蘆洲區民族路306號","121.477536666667","25.0900066666667","6501400","蘆洲區"
"247022","007-UY","2019/10/31 16:59:40","新北市蘆洲區三民路128巷130號","121.46868","25.09192","6501400","蘆洲區"
"247008","002-UY","2019/10/31 16:59:39","新北市蘆洲區中山一路197巷30號","121.475028333333","25.0797416666667","6501400","蘆洲區"
"247002","001-UY","2019/10/31 16:59:43","新北市蘆洲區永平街16號","121.459181666667","25.090575","6501400","蘆洲區"
"228003","097-TW","2019/10/31 16:59:55","新北市貢寮區福隆里興隆街13-5號","121.944205","25.01655","6502600","貢寮區"
"228001","212-TW","2019/10/31 16:59:36","新北市貢寮區貢寮里朝陽街2號","121.912741666667","25.0216483333333","6502600","貢寮區"
"228002","663-BX","2019/10/31 16:59:57","新北市貢寮區貢寮里朝陽街142號","121.906376666667","25.0229166666667","6502600","貢寮區"
"224007","285-BY","2019/10/31 16:59:43","新北市瑞芳區頂埔巷19號","121.765891666667","25.1029766666667","6501200","瑞芳區"
"224009","275-VK","2019/10/31 16:59:42","新北市瑞芳區明燈路一段1號","121.827065","25.1095283333333","6501200","瑞芳區"
"224008","273-VK","2019/10/31 16:59:45","新北市瑞芳區明燈路一段267號","121.816778333333","25.1085633333333","6501200","瑞芳區"
"224005","271-BY","2019/10/31 16:59:51","新北市瑞芳區南雅路1號","121.897271666667","25.1192366666667","6501200","瑞芳區"
"227002","642-TC","2019/10/31 16:59:47","新北市雙溪區上林里內平林101號","121.827195","25.02734","6502500","雙溪區"
"227001","400-TW","2019/10/31 16:59:40","新北市雙溪區三貂里十三層14號","121.853586666667","25.0784366666667","6502500","雙溪區"
"251004","009-UM","2019/10/31 16:59:50","新北市淡水區文化路61號","121.438318333333","25.1728666666667","6501000","淡水區"
"251005","010-UM","2019/10/31 16:59:53","新北市淡水區真理街1號","121.438345","25.1729616666667","6501000","淡水區"
"251015","KEA-2871","2019/10/31 16:59:43","新北市淡水區忠愛街5-2號","121.460666666667","25.1715883333333","6501000","淡水區"
"251016","179-VK","2019/10/31 16:59:46","新北市淡水區瓦坑6-1號","121.477616666667","25.1811883333333","6501000","淡水區"
"251008","181-VK","2019/10/31 16:59:39","新北市淡水區樹梅坑9號","121.472801666667","25.1426983333333","6501000","淡水區"
"251013","182-VK","2019/10/31 16:59:36","新北市淡水區泉洲厝32號","121.48929","25.1926266666667","6501000","淡水區"
"251012","441-VK","2019/10/31 16:59:53","新北市淡水區中正路二段31號","121.419288333333","25.181755","6501000","淡水區"
"251007","442-VK","2019/10/31 16:59:37","新北市淡水區中正東路二段51-3號","121.45918","25.15604","6501000","淡水區"
"251006","561-UM","2019/10/31 16:59:52","新北市淡水區沙崙路1號","121.420328333333","25.1808116666667","6501000","淡水區"
"251014","577-R6","2019/10/31 16:59:44","新北市淡水區淡金路四段476號","121.45242","25.2239133333333","6501000","淡水區"
"251011","650-BX","2019/10/31 16:59:45","新北市淡水區坪頂路50號","121.457868333333","25.1625333333333","6501000","淡水區"
"252002","178-VK","2019/10/31 16:59:54","新北市三芝區忠孝街177號","121.50524","25.26165","6502100","三芝區"
"233002","762-BX","2019/10/31 16:59:54","新北市烏來區環山路82巷3號","121.548698333333","24.8634166666667","6502900","烏來區"
"236074","166-UM","2019/10/31 16:46:20","新北市土城區城林路6巷80號","121.43849","24.9797516666667","6501300","土城區"
"252001","KED-0821","2019/10/31 16:59:53","新北市三芝區淡金路二段38-1號","121.503005","25.26008","6502100","三芝區"
"242042","AAC-296","2019/10/31 16:59:45","新北市新莊區新泰路357巷3弄57號","121.442095","25.0396633333333","6500500","新莊區"
"242004","751-BX","2019/10/31 16:59:51","新北市新莊區新泰路255巷83號","121.442213333333","25.0389166666667","6500500","新莊區"
"242027","613-BX","2019/10/31 16:59:41","新北市新莊區新泰路357巷3弄57號","121.442165","25.03917","6500500","新莊區"
"242048","566-BX","2019/10/31 16:59:50","新北市新莊區三和路12-21號","121.441866666667","25.03847","6500500","新莊區"
"242053","497-BY","2019/10/31 16:59:22","新北市新莊區新泰路357巷3弄57號","121.442338333333","25.0395966666667","6500500","新莊區"
"242025","362-BY","2019/10/31 16:59:39","新北市新莊區新泰路255巷83號","121.441995","25.0388883333333","6500500","新莊區"
"242023","353-BY","2019/10/31 16:59:52","新北市新莊區新泰路357巷3弄57號","121.442023333333","25.039125","6500500","新莊區"
"242015","132-UY","2019/10/31 16:59:49","新北市新莊區三和路12-21號","121.4422","25.0383916666667","6500500","新莊區"
"242021","KED-0687","2019/10/31 16:59:48","新北市新莊區三和路12-21號","121.442193333333","25.0382483333333","6500500","新莊區"
"242036","348-TH","2019/10/31 16:59:42","新北市新莊區三和路12-21號","121.442025","25.0387633333333","6500500","新莊區"
"242009","349-TH","2019/10/31 16:59:53","新北市新莊區三和路12-21號","121.442136666667","25.038325","6500500","新莊區"
"242034","350-TH","2019/10/31 16:59:45","新北市新莊區三和路18-23號","121.441791666667","25.038865","6500500","新莊區"
"238023","601-UM","2019/10/31 16:59:52","新北市樹林區中正路433-1號","121.414975","25.007995","6500700","樹林區"
"238019","599-UM","2019/10/31 16:59:50","新北市樹林區育德街78-1號","121.38776","24.9681466666667","6500700","樹林區"
"238018","KEA-2217","2019/10/31 16:59:42","新北市樹林區育德街78-1號","121.388041666667","24.9680916666667","6500700","樹林區"
"238025","303-VK","2019/10/31 16:59:43","新北市樹林區中正路22-1號","121.42786","24.99936","6500700","樹林區"
"238017","283-BY","2019/10/31 16:59:54","新北市樹林區光武街3-1號","121.415046666667","25.0044533333333","6500700","樹林區"
"238001","282-BY","2019/10/31 16:59:41","新北市樹林區中正路23號","121.427546666667","24.9994433333333","6500700","樹林區"
"239007","AAC-297","2019/10/31 16:59:51","新北市鶯歌區環河路177-1號","121.346018333333","24.9355066666667","6500800","鶯歌區"
"239006","891-R6","2019/10/31 16:59:51","新北市鶯歌區二甲路13號","121.344613333333","24.935055","6500800","鶯歌區"
"239008","527-UM","2019/10/31 16:59:52","新北市鶯歌區二甲路12-2號","121.345523333333","24.93502","6500800","鶯歌區"
"239005","526-UM","2019/10/31 16:59:57","新北市鶯歌區二甲路175號","121.344648333333","24.9355583333333","6500800","鶯歌區"
"233001","KEA-2870","2019/10/31 16:59:46","新北市烏來區西羅岸路6號","121.54812","24.8655483333333","6502900","烏來區"
"242011","280-VK","2019/10/31 16:59:42","新北市新莊區三和路12-21號","121.442035","25.0381766666667","6500500","新莊區"
