"lineid","car","time","location","longitude","latitude","cityid","cityname"
"234026","9371-KE","2019/10/31 17:59:47","新北市永和區水源街2巷15號","121.512073333333","25.0056866666667","6500400","永和區"
"249005","172-UM","2019/10/31 17:59:57","新北市八里區荖阡坑路16號","121.397795","25.1382783333333","6502300","八里區"
"249001","173-UM","2019/10/31 17:59:56","新北市八里區龍米路二段30號","121.44854","25.1400433333333","6502300","八里區"
"249004","303-UY","2019/10/31 17:59:39","新北市八里區大崁腳47-2號","121.424296666667","25.1589416666667","6502300","八里區"
"249002","305-UY","2019/10/31 17:59:39","新北市八里區龍形五街15號","121.450063333333","25.1334716666667","6502300","八里區"
"249003","593-UM","2019/10/31 17:59:45","新北市八里區中華路二段165巷19弄20號","121.410105","25.15157","6502300","八里區"
"248016","026-BX","2019/10/31 17:59:50","新北市五股區中興路二段161號","121.457728333333","25.0773333333333","6501500","五股區"
"248006","077-UY","2019/10/31 17:59:54","新北市五股區中興路二段147-1號","121.458263333333","25.0778366666667","6501500","五股區"
"248008","KED-0815","2019/10/31 17:59:39","新北市五股區中興路二段83巷26-6號","121.459401666667","25.075305","6501500","五股區"
"248020","KED-0813","2019/10/31 17:59:43","新北市五股區中興路二段57-6號","121.460406666667","25.075275","6501500","五股區"
"248012","247-BX","2019/10/31 17:59:56","新北市五股區中興路二段37巷28號","121.460058333333","25.0748966666667","6501500","五股區"
"248014","261-SL","2019/10/31 17:59:39","新北市五股區中興路三段5號","121.449513333333","25.0799466666667","6501500","五股區"
"248010","272-BY","2019/10/31 17:59:39","新北市五股區中興路二段83巷26-6號","121.459233333333","25.0754483333333","6501500","五股區"
"248004","677-BX","2019/10/31 17:59:40","新北市五股區中興路二段37巷24號","121.460633333333","25.0751433333333","6501500","五股區"
"248002","678-BX","2019/10/31 17:59:38","新北市五股區中興路二段83巷26-3號","121.46015","25.07529","6501500","五股區"
"232011","076-UY","2019/10/31 17:59:41","新北市坪林區北宜路八段211號","121.708468333333","24.9348333333333","6502000","坪林區"
"244007","080-UY","2019/10/31 17:59:37","新北市林口區竹林路363號","121.387673333333","25.0844933333333","6501700","林口區"
"244019","402-UM","2019/10/31 17:59:44","新北市林口區文化一路一段120號","121.374121666667","25.0718466666667","6501700","林口區"
"244013","KEA-2802","2019/10/31 17:59:57","新北市林口區中山路130號","121.392196666667","25.0786666666667","6501700","林口區"
"244023","483-VK","2019/10/31 17:59:45","新北市林口區東湖一街59號","121.38604","25.072735","6501700","林口區"
"244017","485-VK","2019/10/31 17:59:38","新北市林口區文化一路一段41號","121.37085","25.0694416666667","6501700","林口區"
"244009","656-BX","2019/10/31 17:59:36","新北市林口區佳林路56巷6弄26號","121.384888333333","25.0825383333333","6501700","林口區"
"244011","701-TV","2019/10/31 17:59:47","新北市林口區粉寮路一段51號","121.396695","25.07772","6501700","林口區"
"244025","837-TS","2019/10/31 17:59:48","新北市林口區文化三路一段39巷179號","121.359145","25.0676483333333","6501700","林口區"
"244021","838-TS","2019/10/31 17:59:46","新北市林口區新寮27-9號","121.396131666667","25.0662333333333","6501700","林口區"
"222003","436-BY","2019/10/31 17:59:45","新北市深坑區炮子崙24號","121.604815","24.9871","6501800","深坑區"
"222002","659-BX","2019/10/31 17:59:43","新北市深坑區文化街98號","121.617076666667","25.0019083333333","6501800","深坑區"
"241016","266-UM","2019/10/31 17:59:43","新北市三重區光復路二段206號","121.46941","25.0637966666667","6500200","三重區"
"241024","KEA-2210","2019/10/31 17:59:45","新北市三重區中正北路193巷35弄71號","121.478686666667","25.071415","6500200","三重區"
"241033","AAC-255","2019/10/31 17:59:47","新北市三重區重新路五段595號","121.469623333333","25.0456233333333","6500200","三重區"
"235064","005-UY","2019/10/31 17:59:53","新北市中和區錦和路350-1號","121.490518333333","24.9935583333333","6500300","中和區"
"235063","006-UY","2019/10/31 17:59:46","新北市中和區員山路36巷16-3號","121.484891666667","24.9911816666667","6500300","中和區"
"235065","098-UM","2019/10/31 17:59:49","新北市中和區中山路二段379號","121.487158333333","25.004855","6500300","中和區"
"235058","151-BY","2019/10/31 17:59:46","新北市中和區圓通路367巷33弄59號","121.495641666667","24.9861633333333","6500300","中和區"
"235038","185-VK","2019/10/31 17:59:51","新北市中和區圓通路141巷48弄15號","121.498288333333","24.9937433333333","6500300","中和區"
"235043","352-BY","2019/10/31 17:59:47","新北市中和區員山路36巷16-3號","121.485106666667","24.9915483333333","6500300","中和區"
"235042","KEA-2878","2019/10/31 17:59:46","新北市中和區中興街132號","121.499663333333","24.992235","6500300","中和區"
"247016","KEA-2869","2019/10/31 17:59:44","新北市蘆洲區中正路185巷78弄14號","121.466008333333","25.0845566666667","6501400","蘆洲區"
"247010","KED-0682","2019/10/31 17:59:54","新北市蘆洲區信義路273號","121.478715","25.08499","6501400","蘆洲區"
"235069","4980-A6","2019/10/31 17:59:46","新北市中和區和城路一段271巷1號","121.485383333333","24.9917983333333","6500300","中和區"
"235070","558-UM","2019/10/31 17:59:43","新北市中和區錦和路350-1號","121.490038333333","24.9935033333333","6500300","中和區"
"235045","565-BX","2019/10/31 17:59:51","新北市中和區員山路36巷13號","121.4842","24.990945","6500300","中和區"
"235041","802-TS","2019/10/31 17:59:44","新北市中和區員山路36巷16-2號","121.485346666667","24.99168","6500300","中和區"
"235062","911-UM","2019/10/31 17:59:45","新北市中和區民樂路81號","121.484693333333","25.00129","6500300","中和區"
"235051","157-BY","2019/10/31 17:59:41","新北市中和區錦和路350-1號","121.490035","24.9935566666667","6500300","中和區"
"235037","AAC-213","2019/10/31 17:59:29","新北市中和區景平路157號","121.5129","24.9924","6500300","中和區"
"247006","893-R6","2019/10/31 17:59:44","新北市蘆洲區中華街3號","121.463961666667","25.081865","6501400","蘆洲區"
"247014","056-VK","2019/10/31 17:59:37","新北市蘆洲區忠孝路45號","121.471306666667","25.0861316666667","6501400","蘆洲區"
"247008","002-UY","2019/10/31 17:59:49","新北市蘆洲區成功路21號","121.47326","25.0792366666667","6501400","蘆洲區"
"247002","001-UY","2019/10/31 17:59:43","新北市蘆洲區永平街32巷57弄30號","121.458725","25.0933816666667","6501400","蘆洲區"
"226004","312-R5","2019/10/31 17:59:39","新北市平溪區石底里公園街18-3號","121.733476666667","25.025635","6502400","平溪區"
"228003","097-TW","2019/10/31 17:59:55","新北市貢寮區真理里美艷山街6-2號","121.928896666667","25.0607583333333","6502600","貢寮區"
"228001","212-TW","2019/10/31 17:59:56","新北市貢寮區真理里新港街26巷50號","121.927793333333","25.0532316666667","6502600","貢寮區"
"228002","663-BX","2019/10/31 17:59:37","新北市貢寮區福連里香蘭街2-1號","121.967925","25.02333","6502600","貢寮區"
"224006","676-BX","2019/10/31 17:59:51","新北市瑞芳區傑魚坑路183號","121.788568333333","25.1082433333333","6501200","瑞芳區"
"224007","285-BY","2019/10/31 17:59:43","新北市瑞芳區大寮路84號","121.780376666667","25.10119","6501200","瑞芳區"
"224009","275-VK","2019/10/31 17:59:41","新北市瑞芳區金光路334號","121.849991666667","25.1093383333333","6501200","瑞芳區"
"224008","273-VK","2019/10/31 17:59:44","新北市瑞芳區明燈路一段45巷100號","121.821206666667","25.1040216666667","6501200","瑞芳區"
"224005","271-BY","2019/10/31 17:59:51","新北市瑞芳區深澳路209號","121.82014","25.13246","6501200","瑞芳區"
"227001","030-BX","2019/10/31 17:59:47","新北市雙溪區三貂里定福路1-2號","121.850731666667","25.0634366666667","6502500","雙溪區"
"253005","032-BX","2019/10/31 17:59:42","新北市石門區中山路62號","121.567708333333","25.2895033333333","6502200","石門區"
"253006","295-VK","2019/10/31 17:59:51","新北市石門區大丘田45-1號","121.549768333333","25.27509","6502200","石門區"
"222001","KEA-2212","2019/10/31 17:59:57","新北市深坑區北深路二段193號","121.612016666667","25.0011683333333","6501800","深坑區"
"208002","KEA-2872","2019/10/31 17:59:53","新北市金山區三界壇路91-1號","121.624858333333","25.2286166666667","6502700","金山區"
"208003","665-BX","2019/10/31 17:59:41","新北市金山區磺港里磺港路192-1號","121.646121666667","25.2275733333333","6502700","金山區"
"251004","009-UM","2019/10/31 17:59:41","新北市淡水區民權路187號","121.45966","25.133575","6501000","淡水區"
"251005","010-UM","2019/10/31 17:59:53","新北市淡水區英專路133號","121.446463333333","25.172725","6501000","淡水區"
"251015","KEA-2871","2019/10/31 17:59:43","新北市淡水區興福寮32-2號","121.490788333333","25.1637216666667","6501000","淡水區"
"251016","180-VK","2019/10/31 17:59:38","新北市淡水區埤島30-15號","121.448365","25.1978383333333","6501000","淡水區"
"251008","181-VK","2019/10/31 17:59:39","新北市淡水區八勢路一段98-2號","121.467318333333","25.1558383333333","6501000","淡水區"
"251013","182-VK","2019/10/31 17:59:35","新北市淡水區泉洲厝31號","121.479536666667","25.1910216666667","6501000","淡水區"
"251010","413-VK","2019/10/31 17:59:52","新北市淡水區中正路一段132巷22號","121.423033333333","25.179955","6501000","淡水區"
"251012","441-VK","2019/10/31 17:59:52","新北市淡水區北新路三段38巷7號","121.484493333333","25.1869766666667","6501000","淡水區"
"251001","559-UM","2019/10/31 17:59:54","新北市淡水區民權路15號","121.463148333333","25.1243983333333","6501000","淡水區"
"251006","561-UM","2019/10/31 17:59:52","新北市淡水區新生街18號","121.438858333333","25.1735216666667","6501000","淡水區"
"251009","575-R6","2019/10/31 17:59:45","新北市淡水區長興街46號","121.444203333333","25.1716133333333","6501000","淡水區"
"251014","577-R6","2019/10/31 17:59:44","新北市淡水區公埔子16-6號","121.481041666667","25.224565","6501000","淡水區"
"251011","650-BX","2019/10/31 17:59:05","新北市淡水區吳(仔)厝20號","121.479293333333","25.1485183333333","6501000","淡水區"
"251002","672-BX","2019/10/31 17:59:51","新北市淡水區中山路26-1號","121.444421666667","25.1696583333333","6501000","淡水區"
"251003","673-BX","2019/10/31 17:59:53","新北市淡水區大忠街66號","121.444556666667","25.1762433333333","6501000","淡水區"
"207003","550-UM","2019/10/31 17:59:50","新北市萬里區野柳里東澳路66號","121.692638333333","25.2008966666667","6502800","萬里區"
"207004","291-VK","2019/10/31 17:59:42","新北市萬里區萬里里瑪鋉路5號","121.685973333333","25.1748833333333","6502800","萬里區"
"252002","178-VK","2019/10/31 17:59:54","新北市三芝區中山路二段31號","121.502651666667","25.2552216666667","6502100","三芝區"
"208001","170-UY","2019/10/31 17:59:51","新北市金山區磺港里磺港路160號","121.644756666667","25.2257366666667","6502700","金山區"
"237004","KEA-2597","2019/10/31 17:59:43","新北市三峽區大埔路136號","121.368128333333","24.903505","6500900","三峽區"
"237007","153-BY","2019/10/31 17:59:44","新北市三峽區中園街149-2號","121.36727","24.9229216666667","6500900","三峽區"
"237009","210-TH","2019/10/31 17:59:50","新北市三峽區中山路106巷21號","121.366045","24.9363783333333","6500900","三峽區"
"237013","252-BX","2019/10/31 17:59:53","新北市三峽區長泰街78巷16號","121.376713333333","24.9336566666667","6500900","三峽區"
"237012","275-BY","2019/10/31 17:59:45","新北市三峽區民生街27巷1號","121.376108333333","24.93625","6500900","三峽區"
"237008","302-VK","2019/10/31 17:59:56","新北市三峽區白雞30-3號","121.36987","24.9122666666667","6500900","三峽區"
"237014","433-BY","2019/10/31 17:59:46","新北市三峽區和平街36巷7弄9號","121.370933333333","24.9376866666667","6500900","三峽區"
"237006","5529-G3","2019/10/31 17:59:39","新北市三峽區介壽路二段138巷1弄90-7號","121.397358333333","24.93207","6500900","三峽區"
"237011","KEA-2596","2019/10/31 17:59:49","新北市三峽區中正路一段27號","121.376046666667","24.9308","6500900","三峽區"
"237015","649-BX","2019/10/31 17:59:47","新北市三峽區紫微路69號","121.413521666667","24.9162716666667","6500900","三峽區"
"237010","706-TV","2019/10/31 17:59:50","新北市三峽區中山路78號","121.366963333333","24.9351083333333","6500900","三峽區"
"237005","AKY-6261","2019/10/31 17:59:54","新北市三峽區復興路179號","121.369628333333","24.9386366666667","6500900","三峽區"
"236042","KED-0685","2019/10/31 17:59:55","新北市土城區城林路6巷80號","121.43845","24.9796383333333","6501300","土城區"
"233002","762-BX","2019/10/31 17:59:44","新北市烏來區烏來街133號","121.551523333333","24.8628016666667","6502900","烏來區"
"236078","166-UM","2019/10/31 17:59:42","新北市土城區永寧路32巷10弄27號","121.428745","24.9610683333333","6501300","土城區"
"236030","253-BX","2019/10/31 17:59:43","新北市土城區城林路6巷80號","121.438441666667","24.9797783333333","6501300","土城區"
"236026","269-VK","2019/10/31 17:59:48","新北市土城區中央路三段92-2號","121.435921666667","24.96663","6501300","土城區"
"236014","270-VK","2019/10/31 17:59:41","新北市土城區員福街30號","121.441331666667","24.9786666666667","6501300","土城區"
"236038","271-VK","2019/10/31 17:59:43","新北市土城區中華路一段301號","121.439971666667","24.97936","6501300","土城區"
"247012","KED-0683","2019/10/31 17:59:53","新北市蘆洲區信義路302巷19號","121.47809","25.0883466666667","6501400","蘆洲區"
"236070","KEA-2877","2019/10/31 17:59:43","新北市土城區青雲路474-2號","121.46424","24.9659233333333","6501300","土城區"
"252001","KED-0821","2019/10/31 17:59:53","新北市三芝區中興街二段2號","121.498311666667","25.2566733333333","6502100","三芝區"
"236063","752-BX","2019/10/31 17:59:56","新北市土城區城林路6巷80號","121.43853","24.979615","6501300","土城區"
"236059","912-UM","2019/10/31 17:59:47","新北市土城區中央路三段254-2號","121.42742","24.9641333333333","6501300","土城區"
"236049","913-UM","2019/10/31 17:59:49","新北市土城區城林路6巷80號","121.43842","24.9796666666667","6501300","土城區"
"236055","AAC-216","2019/10/31 17:59:51","新北市土城區城林路6巷80號","121.438495","24.97962","6501300","土城區"
"242042","AAC-296","2019/10/31 17:59:45","新北市新莊區中正路723-6號","121.423173333333","25.0291666666667","6500500","新莊區"
"242061","986-R7","2019/10/31 17:59:56","新北市新莊區瓊林南路220號","121.433551666667","25.0056883333333","6500500","新莊區"
"242004","751-BX","2019/10/31 17:59:51","新北市新莊區思源路177巷34號","121.459288333333","25.0463033333333","6500500","新莊區"
"242029","615-BX","2019/10/31 17:59:42","新北市新莊區中平路110巷9號","121.445558333333","25.046055","6500500","新莊區"
"242027","613-BX","2019/10/31 17:59:41","新北市新莊區中原路45號","121.458076666667","25.0543016666667","6500500","新莊區"
"242058","612-BX","2019/10/31 17:59:49","新北市新莊區中正路891-23號","121.41487","25.0235216666667","6500500","新莊區"
"242048","566-BX","2019/10/31 17:59:50","新北市新莊區萬安街18-1號","121.421501666667","25.024665","6500500","新莊區"
"242053","497-BY","2019/10/31 17:59:42","新北市新莊區光華街3號","121.428726666667","25.0105983333333","6500500","新莊區"
"242002","441-UM","2019/10/31 17:59:47","新北市新莊區中正路92號","121.455381666667","25.0366916666667","6500500","新莊區"
"242007","440-UM","2019/10/31 17:59:42","新北市新莊區自信街60號","121.45535","25.0481666666667","6500500","新莊區"
"242013","413-TV","2019/10/31 17:59:51","新北市新莊區中和街125巷6號","121.447086666667","25.0486116666667","6500500","新莊區"
"242051","400-BY","2019/10/31 17:59:46","新北市新莊區民安西路135號","121.426408333333","25.017635","6500500","新莊區"
"242025","362-BY","2019/10/31 17:59:39","新北市新莊區新北大道二段370號","121.461993333333","25.0617983333333","6500500","新莊區"
"242023","353-BY","2019/10/31 17:59:52","新北市新莊區福壽街48號","121.458253333333","25.04862","6500500","新莊區"
"242015","132-UY","2019/10/31 17:59:49","新北市新莊區中平路87巷8號","121.444205","25.0458366666667","6500500","新莊區"
"242039","135-UY","2019/10/31 17:59:37","新北市新莊區民安西路24巷1號","121.426511666667","25.0211816666667","6500500","新莊區"
"242056","172-VK","2019/10/31 17:59:48","新北市新莊區豐年街124巷22號","121.445516666667","25.029955","6500500","新莊區"
"242017","173-VK","2019/10/31 17:59:54","新北市新莊區中和街60巷17號","121.448736666667","25.0448433333333","6500500","新莊區"
"242031","175-VK","2019/10/31 17:59:38","新北市新莊區新泰路305巷12號","121.444621666667","25.0409333333333","6500500","新莊區"
"242021","KED-0687","2019/10/31 17:59:48","新北市新莊區中正路164號","121.451278333333","25.0359433333333","6500500","新莊區"
"242044","347-TH","2019/10/31 17:59:47","新北市新莊區雙鳳路43號","121.416073333333","25.0270333333333","6500500","新莊區"
"242036","348-TH","2019/10/31 17:59:42","新北市新莊區後港一路63號","121.426451666667","25.0266116666667","6500500","新莊區"
"242009","349-TH","2019/10/31 17:59:53","新北市新莊區中華路二段260號","121.452596666667","25.0531616666667","6500500","新莊區"
"242034","350-TH","2019/10/31 17:59:50","新北市新莊區景德路397號","121.445511666667","25.03332","6500500","新莊區"
"242019","351-TH","2019/10/31 17:59:44","新北市新莊區明中街49巷16號","121.456616666667","25.0390966666667","6500500","新莊區"
"238015","755-BX","2019/10/31 17:59:41","新北市樹林區大安路307巷2弄10號","121.417925","24.99175","6500700","樹林區"
"238023","601-UM","2019/10/31 17:59:52","新北市樹林區龍興街32巷30號","121.401811666667","25.0154766666667","6500700","樹林區"
"238019","599-UM","2019/10/31 17:59:50","新北市樹林區太平路176號","121.418413333333","24.9768283333333","6500700","樹林區"
"238018","KEA-2217","2019/10/31 17:59:42","新北市樹林區中正路7-1號","121.430203333333","24.99765","6500700","樹林區"
"238022","KEA-2213","2019/10/31 17:59:52","新北市樹林區太平路150巷39弄2號","121.417083333333","24.9770816666667","6500700","樹林區"
"238021","KEA-2539","2019/10/31 17:59:55","新北市樹林區柑園街一段188號","121.395555","24.9565966666667","6500700","樹林區"
"238025","303-VK","2019/10/31 17:59:43","新北市樹林區俊興街209-6號","121.417526666667","25.01451","6500700","樹林區"
"238017","283-BY","2019/10/31 17:59:54","新北市樹林區中正路791號","121.409851666667","25.0162083333333","6500700","樹林區"
"238014","282-BY","2019/10/31 17:59:53","新北市樹林區中正路47號","121.42679","24.99972","6500700","樹林區"
"238020","268-VK","2019/10/31 17:59:42","新北市樹林區三俊街193號","121.419858333333","25.0155883333333","6500700","樹林區"
"238026","172-UY","2019/10/31 17:59:38","新北市樹林區中洲街52號","121.396778333333","24.970925","6500700","樹林區"
"238016","169-UY","2019/10/31 17:59:51","新北市樹林區復興路295巷11號","121.418886666667","24.9887366666667","6500700","樹林區"
"239007","AAC-297","2019/10/31 17:59:51","新北市鶯歌區永樂街34號","121.34199","24.9539633333333","6500800","鶯歌區"
"239006","891-R6","2019/10/31 17:59:55","新北市鶯歌區鶯桃路413巷34弄8號","121.331018333333","24.963645","6500800","鶯歌區"
"239008","527-UM","2019/10/31 17:59:51","新北市鶯歌區香賓街29巷1號","121.33772","24.9795933333333","6500800","鶯歌區"
"239005","526-UM","2019/10/31 17:59:57","新北市鶯歌區鶯桃路658巷87號","121.331755","24.9707516666667","6500800","鶯歌區"
"239001","417-VK","2019/10/31 17:59:55","新北市鶯歌區中正三路234-4號","121.330701666667","24.937105","6500800","鶯歌區"
"239003","360-BY","2019/10/31 17:59:46","新北市鶯歌區永吉街61號","121.33535","24.956735","6500800","鶯歌區"
"239002","359-BY","2019/10/31 17:59:37","新北市鶯歌區光明街121號","121.344021666667","24.9557333333333","6500800","鶯歌區"
"221008","489-VK","2019/10/31 17:59:53","新北市汐止區康寧街753巷2弄12號","121.639411666667","25.0740283333333","6501100","汐止區"
"221010","269-BY","2019/10/31 17:59:37","新北市汐止區汐萬路二段232號","121.646643333333","25.0882783333333","6501100","汐止區"
"221023","279-VK","2019/10/31 17:59:50","新北市汐止區明峰街15號","121.634948333333","25.0714583333333","6501100","汐止區"
"221029","298-VK","2019/10/31 17:59:46","新北市汐止區樟樹二路328號","121.641408333333","25.0702483333333","6501100","汐止區"
"221031","353-TW","2019/10/31 17:59:44","新北市汐止區中興路96巷1-3號","121.635188333333","25.0625233333333","6501100","汐止區"
"221035","622-UM","2019/10/31 17:59:50","新北市汐止區汐萬路一段217號","121.651951666667","25.0723616666667","6501100","汐止區"
"221025","623-UM","2019/10/31 17:59:44","新北市汐止區仁愛路13號","121.659128333333","25.0639966666667","6501100","汐止區"
"221038","646-BX","2019/10/31 17:59:36","新北市汐止區新台五路一段150號","121.65347","25.0621516666667","6501100","汐止區"
"221033","647-BX","2019/10/31 17:59:48","新北市汐止區合順街31號","121.620415","25.0432","6501100","汐止區"
"233001","KEA-2870","2019/10/31 17:59:46","新北市烏來區西羅岸路22號","121.548843333333","24.8674733333333","6502900","烏來區"
"224002","257-TC","2019/10/31 17:59:54","新北市瑞芳區三爪子坑路135號","121.810373333333","25.1066083333333","6501200","瑞芳區"
"242046","281-VK","2019/10/31 17:59:51","新北市新莊區福營路165巷2-1號","121.432063333333","25.0309533333333","6500500","新莊區"
"242011","280-VK","2019/10/31 17:59:42","新北市新莊區中港路中慶巷13號","121.450598333333","25.0537916666667","6500500","新莊區"
"235061","KEA-2875","2019/10/31 17:59:57","新北市中和區連城路508號","121.47694","24.9920283333333","6500300","中和區"
