"lineid","car","time","location","longitude","latitude","cityid","cityname"
"234046","148-BY","2019/10/31 19:43:53","新北市永和區成功路一段106巷3號","121.526296666667","25.0028916666667","6500400","永和區"
"234081","298-R6","2019/10/31 19:43:51","新北市永和區林森路42號","121.525335","25.0049083333333","6500400","永和區"
"234038","336-UY","2019/10/31 19:43:35","新北市永和區民樂街31巷10弄2號","121.528191666667","25.000675","6500400","永和區"
"234064","337-UY","2019/10/31 19:43:44","新北市永和區中正路428巷30弄5號","121.518803333333","25.002155","6500400","永和區"
"234086","338-UY","2019/10/31 19:43:42","新北市永和區林森路62號","121.52401","25.0042716666667","6500400","永和區"
"234070","552-UM","2019/10/31 19:43:49","新北市永和區永和路二段237-1號","121.515595","25.0144516666667","6500400","永和區"
"234050","553-UM","2019/10/31 19:43:35","新北市永和區環河西路一段109號","121.511081666667","25.0173683333333","6500400","永和區"
"234017","745-BX","2019/10/31 19:43:52","新北市永和區環河西路一段1號","121.515218333333","25.0178166666667","6500400","永和區"
"234030","746-BX","2019/10/31 19:43:45","新北市永和區四維街69號","121.525578333333","24.9978366666667","6500400","永和區"
"234054","KEA-2590","2019/10/31 19:43:51","新北市永和區竹林路39巷26-2號","121.51931","25.01482","6500400","永和區"
"234007","KED-0605","2019/10/31 19:43:41","新北市中和區中和路236號","121.506835","24.9995816666667","6500400","永和區"
"234013","KEA-2591","2019/10/31 19:43:37","新北市永和區仁愛路234號","121.508525","25.01179","6500400","永和區"
"234061","AAD-866","2019/10/31 19:43:56","新北市永和區中正路264號","121.516738333333","24.9986133333333","6500400","永和區"
"234042","862-TW","2019/10/31 19:43:52","新北市永和區中和路305巷16弄1號","121.507433333333","25.0014283333333","6500400","永和區"
"234026","9371-KE","2019/10/31 19:43:47","新北市永和區雙和街7巷9號","121.509456666667","25.0014433333333","6500400","永和區"
"234011","9373-KE","2019/10/31 19:43:45","新北市永和區仁愛路352巷94號","121.501158333333","25.0080466666667","6500400","永和區"
"249004","303-UY","2019/10/31 19:43:39","新北市八里區中山路一段268巷10號","121.414421666667","25.1603066666667","6502300","八里區"
"249002","305-UY","2019/10/31 19:43:39","新北市八里區頂寮二街33-1號","121.45035","25.1251983333333","6502300","八里區"
"249003","593-UM","2019/10/31 19:43:56","新北市八里區中華路二段540號","121.399055","25.1456266666667","6502300","八里區"
"248016","026-BX","2019/10/31 19:43:50","新北市五股區成泰路三段544-18號","121.452773333333","25.1034766666667","6501500","五股區"
"248008","KED-0815","2019/10/31 19:43:39","新北市五股區四維路116-2號","121.468035","25.0745183333333","6501500","五股區"
"248020","KED-0813","2019/10/31 19:43:43","新北市五股區中直路32-22號","121.4229","25.1128966666667","6501500","五股區"
"248012","247-BX","2019/10/31 19:43:55","新北市五股區蓬萊路24號","121.433876666667","25.0799133333333","6501500","五股區"
"248014","261-SL","2019/10/31 19:43:47","新北市五股區五福路32巷21號","121.434941666667","25.08972","6501500","五股區"
"248010","272-BY","2019/10/31 19:43:39","新北市五股區登林路74-3號","121.43106","25.069325","6501500","五股區"
"248004","677-BX","2019/10/31 19:43:40","新北市五股區成泰路一段175號","121.435013333333","25.0756866666667","6501500","五股區"
"248002","678-BX","2019/10/31 19:43:58","新北市五股區成泰路三段577巷13號","121.451696666667","25.1027483333333","6501500","五股區"
"234023","9380-KE","2019/10/31 19:43:56","新北市永和區保順路11號","121.50474","25.009515","6500400","永和區"
"234077","969-R7","2019/10/31 19:43:47","新北市永和區民權路29巷2號","121.520281666667","24.9976833333333","6500400","永和區"
"234074","AAC-211","2019/10/31 19:43:53","新北市永和區竹林路213巷40號","121.522976666667","25.0090566666667","6500400","永和區"
"234067","AAC-212","2019/10/31 19:43:48","新北市永和區中山路一段147號","121.510236666667","25.0095266666667","6500400","永和區"
"234003","AAC-295","2019/10/31 19:43:46","新北市永和區永和路一段35號","121.512935","25.0060066666667","6500400","永和區"
"244023","483-VK","2019/10/31 19:43:45","新北市林口區文林三街139號","121.374575","25.08785","6501700","林口區"
"243012","AAD-798","2019/10/31 19:43:35","新北市泰山區全興路258號","121.435785","25.053235","6501600","泰山區"
"243010","297-R6","2019/10/31 19:19:41","新北市泰山區明志路一段514號","121.430283333333","25.0540233333333","6501600","泰山區"
"243016","421-VK","2019/10/31 19:43:42","新北市泰山區明志路三段492號","121.42098","25.0312583333333","6501600","泰山區"
"243009","KEA-2215","2019/10/31 19:43:38","新北市泰山區美寧街64號","121.430986666667","25.064645","6501600","泰山區"
"243011","KEA-2216","2019/10/31 19:43:51","新北市泰山區明志路三段196巷21弄27號","121.422446666667","25.0384966666667","6501600","泰山區"
"243015","680-BX","2019/10/31 19:43:41","新北市泰山區明志路二段239號","121.42731","25.0481","6501600","泰山區"
"222003","436-BY","2019/10/31 19:43:42","新北市深坑區深南路51-1號","121.621218333333","25.0098166666667","6501800","深坑區"
"222002","659-BX","2019/10/31 19:43:43","新北市深坑區北深路一段177號","121.63251","25.01091","6501800","深坑區"
"231061","002-UM","2019/10/31 19:43:38","新北市新店區安民街141號","121.51644","24.969435","6500600","新店區"
"231055","0291-UT","2019/10/31 19:43:44","新北市新店區中華路83巷67號","121.538175","24.9672866666667","6500600","新店區"
"231044","046-UY","2019/10/31 19:43:47","新北市新店區北新路三段137號","121.541171666667","24.9828866666667","6500600","新店區"
"231042","047-UY","2019/10/31 19:43:47","新北市新店區中興路一段266號","121.544816666667","24.96728","6500600","新店區"
"231060","106-UY","2019/10/31 19:43:56","新北市新店區安康路二段161號","121.510271666667","24.9593366666667","6500600","新店區"
"231051","107-UY","2019/10/31 19:43:37","新北市新店區中央五街28號","121.529053333333","24.9746366666667","6500600","新店區"
"231049","108-UY","2019/10/31 19:43:51","新北市新店區民權路100-1號","121.536203333333","24.9832533333333","6500600","新店區"
"231065","110-UY","2019/10/31 19:43:46","新北市新店區安祥路109巷92號","121.478226666667","24.9594183333333","6500600","新店區"
"231062","256-BX","2019/10/31 19:43:56","新北市新店區碧潭路19號","121.534401666667","24.9561616666667","6500600","新店區"
"231054","260-TV","2019/10/31 19:43:38","新北市新店區文中路45號","121.539551666667","24.9566133333333","6500600","新店區"
"231064","278-BY","2019/10/31 19:43:46","新北市新店區安和路二段115號","121.51868","24.97041","6500600","新店區"
"231050","AAD-862","2019/10/31 19:43:45","新北市新店區郵政路91號","121.554848333333","24.95139","6500600","新店區"
"231045","355-BY","2019/10/31 19:43:49","新北市新店區北宜路二段112-1號","121.556385","24.9537133333333","6500600","新店區"
"231058","3713-VJ","2019/10/31 19:43:48","新北市新店區中正路102巷8弄2號","121.543351666667","24.9710466666667","6500600","新店區"
"231067","4772-VM","2019/10/31 19:43:39","新北市新店區秀山路72號","121.531266666667","24.9608733333333","6500600","新店區"
"231052","513-UM","2019/10/31 19:43:45","新北市新店區新烏路三段115號","121.5522","24.9029216666667","6500600","新店區"
"231063","616-UM","2019/10/31 19:43:51","新北市新店區車子路134號","121.504776666667","24.9485266666667","6500600","新店區"
"231041","619-UM","2019/10/31 19:43:48","新北市新店區中正路470號","121.533903333333","24.9807283333333","6500600","新店區"
"231047","KED-0819","2019/10/31 19:43:54","新北市新店區中興路一段288巷7號","121.546403333333","24.9689633333333","6500600","新店區"
"231046","719-UM","2019/10/31 19:43:56","新北市新店區三民路84號","121.53455","24.9727333333333","6500600","新店區"
"231057","720-UM","2019/10/31 19:43:41","新北市新店區花園二路一段11號","121.55528","24.932515","6500600","新店區"
"231059","897-TW","2019/10/31 19:43:50","新北市新店區安和路三段50號","121.518185","24.9823883333333","6500600","新店區"
"231040","898-TW","2019/10/31 19:43:39","新北市新店區中正路75巷71號","121.543075","24.9688333333333","6500600","新店區"
"231043","899-TW","2019/10/31 19:43:44","新北市新店區中正路245號","121.539066666667","24.973365","6500600","新店區"
"231066","AKT-0513","2019/10/31 19:43:53","新北市新店區安康路三段207巷28號","121.488368333333","24.950735","6500600","新店區"
"241011","013-R5","2019/10/31 19:43:49","新北市三重區文化北路248號","121.497266666667","25.070085","6500200","三重區"
"241028","022-UY","2019/10/31 19:43:53","新北市三重區中正南路196號","121.493915","25.05601","6500200","三重區"
"241008","059-VK","2019/10/31 19:43:39","新北市三重區永福街111巷11號","121.478948333333","25.0776083333333","6500200","三重區"
"241023","060-VK","2019/10/31 19:43:57","新北市三重區頂崁街172號","121.477603333333","25.0659383333333","6500200","三重區"
"241031","061-VK","2019/10/31 19:43:39","新北市三重區重新路四段101號","121.485698333333","25.0545783333333","6500200","三重區"
"241015","062-VK","2019/10/31 19:43:51","新北市三重區三和路一段65-1號","121.502651666667","25.0655866666667","6500200","三重區"
"241017","063-VK","2019/10/31 19:43:51","新北市三重區重陽路3段5巷8弄17號","121.490163333333","25.0659516666667","6500200","三重區"
"241024","065-VK","2019/10/31 19:43:51","新北市三重區大勇街82巷15弄30號","121.48128","25.0719916666667","6500200","三重區"
"241007","066-VK","2019/10/31 19:43:37","新北市三重區三和路四段123號","121.485045","25.0778116666667","6500200","三重區"
"241006","262-UM","2019/10/31 19:43:39","新北市三重區永福街299號","121.48384","25.0746233333333","6500200","三重區"
"241016","266-UM","2019/10/31 19:43:43","新北市三重區正義北路16巷24號","121.496816666667","25.062795","6500200","三重區"
"241009","267-UM","2019/10/31 19:43:53","新北市三重區三和路四段400巷30號","121.480051666667","25.0791133333333","6500200","三重區"
"241032","269-UM","2019/10/31 19:43:43","新北市三重區重陽路一段60巷18號","121.485801666667","25.058175","6500200","三重區"
"241013","270-UM","2019/10/31 19:43:42","新北市三重區仁愛街141巷25號","121.49717","25.0759983333333","6500200","三重區"
"241025","271-UM","2019/10/31 19:43:43","新北市三重區忠孝路三段54號","121.480645","25.065545","6500200","三重區"
"241035","462-BY","2019/10/31 19:43:52","新北市三重區文化北路33-3號","121.49926","25.064355","6500200","三重區"
"241020","478-VK","2019/10/31 19:43:49","新北市三重區後竹圍街56號","121.490701666667","25.07333","6500200","三重區"
"241026","480-VK","2019/10/31 19:43:50","新北市三重區文化南路46號","121.500386666667","25.060005","6500200","三重區"
"241014","543-UM","2019/10/31 19:43:40","新北市三重區龍濱路17巷48號","121.504036666667","25.0680233333333","6500200","三重區"
"241001","547-UM","2019/10/31 19:43:49","新北市三重區仁愛街327巷103號","121.494335","25.0807283333333","6500200","三重區"
"241019","KEA-2593","2019/10/31 19:43:57","新北市三重區力行路一段83號","121.48692","25.068005","6500200","三重區"
"241005","AAD-863","2019/10/31 19:43:47","新北市三重區碧華街294巷17號","121.488611666667","25.0840666666667","6500200","三重區"
"241012","743-BX","2019/10/31 19:43:53","新北市三重區仁福街72號","121.498198333333","25.0750283333333","6500200","三重區"
"241029","942-UM","2019/10/31 19:43:38","新北市三重區光明路117號","121.492226666667","25.0567416666667","6500200","三重區"
"235066","003-UY","2019/10/31 19:43:54","新北市中和區景新街57巷3號","121.50458","24.9990833333333","6500300","中和區"
"235063","006-UY","2019/10/31 19:43:46","新北市中和區連城路263巷11弄2號","121.492486666667","24.9951816666667","6500300","中和區"
"235056","096-UM","2019/10/31 19:43:51","新北市中和區中山路三段136巷89號","121.47387","25.007875","6500300","中和區"
"235039","097-UM","2019/10/31 19:43:39","新北市中和區大勇街8號","121.517095","24.9926033333333","6500300","中和區"
"235065","098-UM","2019/10/31 19:43:49","新北市中和區莊敬路31巷9號","121.500125","25.0051083333333","6500300","中和區"
"235040","150-BY","2019/10/31 19:43:46","新北市中和區宜安路80號","121.51109","24.99735","6500300","中和區"
"235058","151-BY","2019/10/31 19:43:46","新北市中和區員山路179號","121.481191666667","24.9968916666667","6500300","中和區"
"235055","183-VK","2019/10/31 19:43:38","新北市中和區德光路27巷1弄2號","121.470841666667","25.00388","6500300","中和區"
"235038","185-VK","2019/10/31 19:43:51","新北市中和區自強路21號","121.52054","24.993195","6500300","中和區"
"235067","255-BX","2019/10/31 19:43:43","新北市中和區新生街186巷1弄19號","121.4834","24.9989816666667","6500300","中和區"
"235044","293-VK","2019/10/31 19:43:38","新北市中和區南山路417號","121.507315","24.9895416666667","6500300","中和區"
"235072","301-VK","2019/10/31 19:43:43","新北市中和區中正路432巷32號","121.490985","24.99581","6500300","中和區"
"235043","352-BY","2019/10/31 19:43:47","新北市中和區華新街232巷18號","121.50568","24.98237","6500300","中和區"
"235042","KEA-2878","2019/10/31 19:43:45","新北市中和區景安路15號","121.508303333333","24.99899","6500300","中和區"
"235070","558-UM","2019/10/31 19:43:42","新北市中和區圓通路83號","121.499881666667","24.996895","6500300","中和區"
"235045","565-BX","2019/10/31 19:43:51","新北市中和區景新街359號","121.512001666667","24.99076","6500300","中和區"
"235071","647-TV","2019/10/31 19:43:39","新北市中和區立言街36號","121.48682","25.00603","6500300","中和區"
"235047","732-UM","2019/10/31 19:43:44","新北市中和區和平街3-2號","121.509635","24.9900416666667","6500300","中和區"
"235046","733-UM","2019/10/31 19:43:50","新北市中和區仁愛街67號","121.51142","24.98759","6500300","中和區"
"235041","802-TS","2019/10/31 19:43:44","新北市中和區新興街15巷22號","121.512553333333","25.0029666666667","6500300","中和區"
"235052","805-TS","2019/10/31 19:43:52","新北市中和區興南路二段117巷19號","121.505915","24.9838883333333","6500300","中和區"
"235048","896-TW","2019/10/31 19:43:42","新北市中和區興南路一段142-6號","121.508445","24.9871366666667","6500300","中和區"
"235053","900-TW","2019/10/31 19:43:39","新北市中和區國光街189巷12弄2號","121.467456666667","25.0015283333333","6500300","中和區"
"235051","157-BY","2019/10/31 19:43:42","新北市中和區中興街178號","121.49966","24.9909966666667","6500300","中和區"
"235037","AAC-213","2019/10/31 19:43:49","新北市中和區自立路58巷2號","121.523656666667","24.991585","6500300","中和區"
"235059","AAC-215","2019/10/31 19:43:41","新北市中和區圓通路305巷5弄1號","121.493536666667","24.9904433333333","6500300","中和區"
"220035","015-TV","2019/10/31 19:43:46","新北市板橋區中正路360巷61號","121.456726666667","25.0228016666667","6500100","板橋區"
"220065","072-UY","2019/10/31 19:43:35","新北市板橋區民族路256號","121.46923","25.007045","6500100","板橋區"
"220086","073-UY","2019/10/31 19:43:38","新北市板橋區中正路218號","121.455866666667","25.0183883333333","6500100","板橋區"
"220106","075-UY","2019/10/31 19:43:42","新北市板橋區民治街71巷33號","121.480585","25.033285","6500100","板橋區"
"220069","AAD-861","2019/10/31 19:43:43","新北市板橋區貴興路81號","121.456701666667","25.0028816666667","6500100","板橋區"
"247004","341-TH","2019/10/31 19:43:36","新北市蘆洲區中原路21巷7弄40號","121.46182","25.083035","6501400","蘆洲區"
"247002","001-UY","2019/10/31 19:43:53","新北市蘆洲區長榮路665號","121.460128333333","25.0915266666667","6501400","蘆洲區"
"226004","312-R5","2019/10/31 19:43:39","新北市平溪區十分里十分街60號","121.775693333333","25.0415783333333","6502400","平溪區"
"235049","251-BX","2019/10/31 19:43:45","新北市中和區景平路429號","121.501443333333","24.9953166666667","6500300","中和區"
"228003","097-TW","2019/10/31 19:43:55","新北市貢寮區真理里美艷山街15-3號","121.923728333333","25.068015","6502600","貢寮區"
"228001","212-TW","2019/10/31 19:43:55","新北市貢寮區真理里新港街52號","121.92642","25.0558233333333","6502600","貢寮區"
"224010","AGQ-8101","2019/10/31 19:43:54","新北市瑞芳區輕便路300-1號","121.843401666667","25.1087666666667","6501200","瑞芳區"
"227002","642-TC","2019/10/31 19:43:39","新北市雙溪區雙溪里內挖路36號","121.863181666667","25.0368033333333","6502500","雙溪區"
"227001","030-BX","2019/10/31 19:43:47","新北市雙溪區新基里中華路44號","121.865908333333","25.03742","6502500","雙溪區"
"222001","KEA-2212","2019/10/31 19:43:53","新北市深坑區北深路三段26號","121.60928","25.0012133333333","6501800","深坑區"
"208002","KEA-2872","2019/10/31 19:43:51","新北市金山區中山路322號","121.634","25.224935","6502700","金山區"
"208003","665-BX","2019/10/31 19:43:40","新北市金山區中正路26號","121.635835","25.2223033333333","6502700","金山區"
"251005","010-UM","2019/10/31 19:43:53","新北市淡水區原德路77號","121.442463333333","25.1724833333333","6501000","淡水區"
"251015","KEA-2871","2019/10/31 19:43:43","新北市淡水區山子頂24-1號","121.491375","25.1871633333333","6501000","淡水區"
"251016","180-VK","2019/10/31 19:43:38","新北市淡水區下圭柔山121-12號","121.455115","25.2086783333333","6501000","淡水區"
"251013","182-VK","2019/10/31 19:43:35","新北市淡水區頂田寮11-2號","121.463065","25.2139133333333","6501000","淡水區"
"251010","413-VK","2019/10/31 19:43:52","新北市淡水區崁頂76-2號","121.431701666667","25.20437","6501000","淡水區"
"251007","442-VK","2019/10/31 19:43:57","新北市淡水區中正東路一段89號","121.45308","25.1615366666667","6501000","淡水區"
"251001","559-UM","2019/10/31 19:43:54","新北市淡水區中正東路二段85號","121.459448333333","25.1532633333333","6501000","淡水區"
"251006","561-UM","2019/10/31 19:43:52","新北市淡水區中山北路一段207巷68號","121.441663333333","25.1792466666667","6501000","淡水區"
"251009","575-R6","2019/10/31 19:43:44","新北市淡水區中山北路一段184巷7號","121.44531","25.1786983333333","6501000","淡水區"
"251014","577-R6","2019/10/31 19:43:44","新北市淡水區番社前9號","121.476195","25.233885","6501000","淡水區"
"251011","650-BX","2019/10/31 19:43:55","新北市淡水區八勢路50巷66號","121.46211","25.1496683333333","6501000","淡水區"
"251002","672-BX","2019/10/31 19:43:51","新北市淡水區下圭柔山90-2號","121.431668333333","25.2117816666667","6501000","淡水區"
"207003","550-UM","2019/10/31 19:43:50","新北市萬里區大鵬里下社17-4號","121.648181666667","25.21769","6502800","萬里區"
"207004","291-VK","2019/10/31 19:43:42","新北市萬里區萬里里瑪鋉路83-2號","121.68851","25.1766583333333","6502800","萬里區"
"252002","178-VK","2019/10/31 19:43:54","新北市三芝區三民街31號","121.504566666667","25.2585833333333","6502100","三芝區"
"208001","170-UY","2019/10/31 19:43:50","新北市金山區重和里六股林口39號","121.602455","25.2194316666667","6502700","金山區"
"237004","KEA-2597","2019/10/31 19:43:41","新北市三峽區金敏17號","121.39148","24.8743116666667","6500900","三峽區"
"237007","153-BY","2019/10/31 19:43:44","新北市三峽區二鬮路136巷22弄45號","121.357445","24.910415","6500900","三峽區"
"237009","210-TH","2019/10/31 19:43:50","新北市三峽區中園街62-2號","121.368075","24.925775","6500900","三峽區"
"237013","252-BX","2019/10/31 19:43:53","新北市三峽區橫溪路15號","121.396248333333","24.9358933333333","6500900","三峽區"
"237012","275-BY","2019/10/31 19:43:45","新北市三峽區光明路39-1號","121.374373333333","24.93","6500900","三峽區"
"237008","302-VK","2019/10/31 19:43:39","新北市三峽區大同路147巷9號","121.37117","24.9264083333333","6500900","三峽區"
"237014","433-BY","2019/10/31 19:43:46","新北市三峽區嘉添67號","121.368628333333","24.91033","6500900","三峽區"
"237006","5529-G3","2019/10/31 19:43:39","新北市三峽區中正路一段336巷15弄2號","121.369971666667","24.9249516666667","6500900","三峽區"
"237011","KEA-2596","2019/10/31 19:43:48","新北市三峽區中正路一段490號","121.370256666667","24.920795","6500900","三峽區"
"237015","649-BX","2019/10/31 19:43:47","新北市三峽區成福路75號","121.418663333333","24.9292866666667","6500900","三峽區"
"237010","706-TV","2019/10/31 19:43:50","新北市三峽區復興路36-8號","121.373871666667","24.9365933333333","6500900","三峽區"
"237005","AKY-6261","2019/10/31 19:43:55","新北市三峽區和平街29巷7號","121.36991","24.9352816666667","6500900","三峽區"
"236042","KED-0685","2019/10/31 19:43:55","新北市土城區清水路87號","121.45619","24.9819016666667","6501300","土城區"
"236078","166-UM","2019/10/31 19:43:40","新北市土城區溪頭路43號","121.412053333333","24.95506","6501300","土城區"
"236030","253-BX","2019/10/31 19:43:43","新北市土城區中央路一段294號","121.44329","24.98239","6501300","土城區"
"236070","KEA-2877","2019/10/31 19:43:43","新北市土城區農豐街9-1號","121.442831666667","24.9740666666667","6501300","土城區"
"252001","KED-0821","2019/10/31 19:43:53","新北市三芝區公正街9號","121.499753333333","25.2575133333333","6502100","三芝區"
"236021","401-BY","2019/10/31 19:43:48","新北市土城區峰廷街31號","121.469483333333","24.98655","6501300","土城區"
"236063","752-BX","2019/10/31 19:43:36","新北市土城區延和路105巷5弄2號","121.46725","24.9912383333333","6501300","土城區"
"236059","912-UM","2019/10/31 19:43:47","新北市土城區中央路一段289-2號","121.444188333333","24.98401","6501300","土城區"
"236049","913-UM","2019/10/31 19:43:49","新北市土城區明德路一段202號","121.461445","24.9777916666667","6501300","土城區"
"236055","AAC-216","2019/10/31 19:43:37","新北市土城區延和路66號","121.465883333333","24.9891483333333","6501300","土城區"
"242004","751-BX","2019/10/31 19:43:51","新北市新莊區化成路29巷84號","121.462008333333","25.0440216666667","6500500","新莊區"
"242048","566-BX","2019/10/31 19:43:50","新北市新莊區後港一路1號","121.42399","25.02624","6500500","新莊區"
"242023","353-BY","2019/10/31 19:43:41","新北市新莊區復興路三段115號","121.464276666667","25.04455","6500500","新莊區"
"242039","135-UY","2019/10/31 19:43:42","新北市新莊區建國二路30號","121.433288333333","25.024485","6500500","新莊區"
"242017","173-VK","2019/10/31 19:43:53","新北市新莊區新泰路370號","121.444261666667","25.0429716666667","6500500","新莊區"
"242031","175-VK","2019/10/31 19:43:54","新北市新莊區公園一路134號","121.446175","25.0381566666667","6500500","新莊區"
"242036","348-TH","2019/10/31 19:43:58","新北市新莊區建安街101巷4弄2號","121.426983333333","25.0237866666667","6500500","新莊區"
"242034","350-TH","2019/10/31 19:43:53","新北市新莊區中正路344號","121.444226666667","25.0346016666667","6500500","新莊區"
"238015","755-BX","2019/10/31 19:43:37","新北市樹林區日新街106號","121.421285","24.9898266666667","6500700","樹林區"
"238023","601-UM","2019/10/31 19:43:52","新北市樹林區三福街114號","121.406641666667","25.0163183333333","6500700","樹林區"
"238019","599-UM","2019/10/31 19:43:50","新北市樹林區大同街23號","121.418161666667","24.98255","6500700","樹林區"
"238024","5061-A6","2019/10/31 19:43:57","新北市樹林區中山路三段155巷14弄2號","121.396048333333","24.9724533333333","6500700","樹林區"
"238022","KEA-2213","2019/10/31 19:43:44","新北市樹林區名園街82號","121.420168333333","24.9777333333333","6500700","樹林區"
"238021","KEA-2539","2019/10/31 19:43:45","新北市樹林區佳園路三段111號","121.387013333333","24.9510316666667","6500700","樹林區"
"238025","303-VK","2019/10/31 19:43:43","新北市樹林區中山路一段149號","121.422176666667","24.9893466666667","6500700","樹林區"
"238017","283-BY","2019/10/31 19:43:57","新北市樹林區保安街二段197巷8號","121.41391","25.0031116666667","6500700","樹林區"
"238014","282-BY","2019/10/31 19:43:41","新北市樹林區千歲街30巷26弄6號","121.4263","24.9958833333333","6500700","樹林區"
"238020","268-VK","2019/10/31 19:43:42","新北市板橋區大觀路三段50巷63號","121.431715","24.9960933333333","6500700","樹林區"
"238026","172-UY","2019/10/31 19:43:58","新北市樹林區佳園路二段81號","121.39068","24.959525","6500700","樹林區"
"238016","169-UY","2019/10/31 19:43:51","新北市樹林區東和街28號","121.4024","24.9815766666667","6500700","樹林區"
"239007","AAC-297","2019/10/31 19:43:51","新北市鶯歌區大湖路185巷2號","121.344401666667","24.9696966666667","6500800","鶯歌區"
"239006","891-R6","2019/10/31 19:43:51","新北市鶯歌區永昌街84號","121.341781666667","24.9496683333333","6500800","鶯歌區"
"239008","527-UM","2019/10/31 19:43:51","新北市鶯歌區國際二路4巷2號","121.338581666667","24.9731366666667","6500800","鶯歌區"
"239005","526-UM","2019/10/31 19:43:56","新北市鶯歌區中湖街57-13號","121.349181666667","24.974195","6500800","鶯歌區"
"239001","417-VK","2019/10/31 19:43:55","新北市鶯歌區永智街45號","121.336625","24.9541516666667","6500800","鶯歌區"
"239003","360-BY","2019/10/31 19:43:46","新北市鶯歌區中正二路151號","121.345873333333","24.949965","6500800","鶯歌區"
"239002","359-BY","2019/10/31 19:43:57","新北市鶯歌區湖山路13號","121.340536666667","24.973655","6500800","鶯歌區"
"239004","193-VK","2019/10/31 19:43:39","新北市鶯歌區二甲路33-27號","121.34017","24.9377366666667","6500800","鶯歌區"
"221008","489-VK","2019/10/31 19:43:53","新北市汐止區康寧街61巷44號","121.620181666667","25.0677583333333","6501100","汐止區"
"221010","269-BY","2019/10/31 19:43:57","新北市汐止區汐萬路一段333巷23號","121.648366666667","25.0761066666667","6501100","汐止區"
"221012","278-VK","2019/10/31 19:43:37","新北市汐止區大同路三段318號","121.678925","25.0711116666667","6501100","汐止區"
"221023","279-VK","2019/10/31 19:43:55","新北市汐止區中興路272號","121.628763333333","25.0689733333333","6501100","汐止區"
"221027","281-BY","2019/10/31 19:43:44","新北市汐止區忠孝東路9號","121.658288333333","25.0659083333333","6501100","汐止區"
"221029","298-VK","2019/10/31 19:43:46","新北市汐止區康寧街901號","121.6515","25.075025","6501100","汐止區"
"221021","299-VK","2019/10/31 19:43:41","新北市汐止區莊敬街29巷13號","121.65717","25.0607766666667","6501100","汐止區"
"221031","353-TW","2019/10/31 19:43:43","新北市汐止區康寧街901號","121.6508","25.075315","6501100","汐止區"
"221025","623-UM","2019/10/31 19:43:44","新北市汐止區福安街20巷1號","121.662555","25.06496","6501100","汐止區"
"221038","646-BX","2019/10/31 19:43:48","新北市汐止區忠孝東路293號","121.664038333333","25.068775","6501100","汐止區"
"221033","647-BX","2019/10/31 19:43:48","新北市汐止區東勢街32號","121.625336666667","25.038665","6501100","汐止區"
"220079","145-BY","2019/10/31 19:43:50","新北市板橋區民權路302巷4號","121.45739","25.01649","6500100","板橋區"
"220080","200-UY","2019/10/31 19:43:53","新北市板橋區大觀路二段37巷224號","121.449696666667","25.0007033333333","6500100","板橋區"
"224002","257-TC","2019/10/31 19:43:53","新北市瑞芳區三爪子坑路13巷211號","121.815918333333","25.1060083333333","6501200","瑞芳區"
"220056","276-BY","2019/10/31 19:43:35","新北市板橋區四川路一段487號","121.457285","24.99705","6500100","板橋區"
"220072","277-BY","2019/10/31 19:43:56","新北市板橋區金門街151巷40弄15號","121.433478333333","24.989565","6500100","板橋區"
"220094","283-UM","2019/10/31 19:43:52","新北市板橋區陽明街277號","121.462083333333","25.0260383333333","6500100","板橋區"
"220071","283-VK","2019/10/31 19:43:53","新北市板橋區四川路一段325巷8號","121.458853333333","25.0003983333333","6500100","板橋區"
"220101","285-UM","2019/10/31 19:43:52","新北市板橋區縣民大道三段79巷13號","121.475138333333","25.0220016666667","6500100","板橋區"
"220053","285-VK","2019/10/31 19:43:45","新北市板橋區中山路二段60巷1弄15號","121.474855","25.015625","6500100","板橋區"
"220083","286-VK","2019/10/31 19:43:49","新北市板橋區龍興街63巷8號","121.442898333333","25.0013666666667","6500100","板橋區"
"220081","287-VK","2019/10/31 19:43:49","新北市板橋區大觀路一段29巷20號","121.44912","25.00533","6500100","板橋區"
"220090","288-VK","2019/10/31 19:43:38","新北市板橋區龍泉街84-1號","121.456313333333","25.02543","6500100","板橋區"
"220061","293-UM","2019/10/31 19:43:49","新北市板橋區中山路一段283巷3弄1號","121.47023","25.0151033333333","6500100","板橋區"
"220062","295-UM","2019/10/31 19:43:37","新北市板橋區中山路二段416巷38弄29號","121.481815","25.0194383333333","6500100","板橋區"
"220084","296-UM","2019/10/31 19:43:40","新北市板橋區滿平二街2巷1弄28號","121.424871666667","24.9871416666667","6500100","板橋區"
"220075","303-R5","2019/10/31 19:43:52","新北市板橋區中正路253巷74號","121.452661666667","25.017205","6500100","板橋區"
"220092","307-R5","2019/10/31 19:43:36","新北市板橋區新海路109巷1弄2號","121.460733333333","25.0224116666667","6500100","板橋區"
"220098","317-R6","2019/10/31 19:43:40","新北市板橋區民生路三段281巷2弄20號","121.463353333333","25.0304616666667","6500100","板橋區"
"220089","487-VK","2019/10/31 19:43:47","新北市板橋區互助街35號","121.461395","25.0267616666667","6500100","板橋區"
"220088","491-VK","2019/10/31 19:43:46","新北市板橋區文聖街138號","121.478481666667","25.0280483333333","6500100","板橋區"
"220103","561-BX","2019/10/31 19:43:35","新北市板橋區文化路一段435巷31弄11號","121.466875","25.0229383333333","6500100","板橋區"
"220063","609-BX","2019/10/31 19:43:45","新北市板橋區三民路一段141號","121.47921","25.0199183333333","6500100","板橋區"
"220091","637-BX","2019/10/31 19:43:40","新北市板橋區懷德街127巷23弄30號","121.480493333333","25.0320216666667","6500100","板橋區"
"220057","686-BX","2019/10/31 19:43:55","新北市板橋區四川路一段338號","121.456825","24.9968066666667","6500100","板橋區"
"220077","687-BX","2019/10/31 19:43:45","新北市板橋區僑中二街104巷1號","121.445878333333","25.00775","6500100","板橋區"
"220093","689-BX","2019/10/31 19:43:36","新北市板橋區長江路三段2號","121.471705","25.0334516666667","6500100","板橋區"
"220054","741-BX","2019/10/31 19:43:39","新北市板橋區忠孝路202號","121.465831666667","25.0027566666667","6500100","板橋區"
"220102","KEA-2699","2019/10/31 19:43:47","新北市板橋區仁化街55號","121.4753","25.03172","6500100","板橋區"
"220055","827-TW","2019/10/31 19:43:49","新北市板橋區國慶路149巷6號","121.46126","24.9969183333333","6500100","板橋區"
"220068","830-TW","2019/10/31 19:43:43","新北市板橋區光復街133巷15號","121.48464","25.0197783333333","6500100","板橋區"
"220067","831-TW","2019/10/31 19:43:49","新北市板橋區長安街259巷39號","121.472653333333","25.0113283333333","6500100","板橋區"
"220082","833-TW","2019/10/31 19:43:37","新北市板橋區大觀路三段263號","121.429123333333","24.9923216666667","6500100","板橋區"
"220074","895-R6","2019/10/31 19:43:52","新北市板橋區館前西路138號","121.45643","25.0081183333333","6500100","板橋區"
"220073","985-R7","2019/10/31 19:43:54","新北市板橋區國光路49巷17號","121.458951666667","25.0187633333333","6500100","板橋區"
"220097","AAC-210","2019/10/31 19:43:49","新北市板橋區文化路一段51號","121.460695","25.0134883333333","6500100","板橋區"
"220064","AAC-253","2019/10/31 19:43:49","新北市板橋區實踐路147號","121.464198333333","25.00449","6500100","板橋區"
"235068","KEA-2873","2019/10/31 19:43:30","新北市中和區莊敬路2號","121.499458333333","25.00412","6500300","中和區"
"235061","KEA-2875","2019/10/31 19:43:26","新北市中和區員山路263號","121.481248333333","24.9991933333333","6500300","中和區"
