"lineid","car","time","location","longitude","latitude","cityid","cityname"
"234046","148-BY","2019/10/31 20:13:52","新北市永和區得和路297號","121.522865","24.9995983333333","6500400","永和區"
"234081","298-R6","2019/10/31 20:13:51","新北市永和區永亨路83號","121.521926666667","25.0056883333333","6500400","永和區"
"234038","336-UY","2019/10/31 20:13:55","新北市永和區成功路一段93巷23弄13號","121.52846","25.003335","6500400","永和區"
"234064","337-UY","2019/10/31 20:13:49","新北市永和區得和路259號","121.521348333333","24.99988","6500400","永和區"
"234086","338-UY","2019/10/31 20:13:42","新北市永和區中正路664號","121.516786666667","25.0088616666667","6500400","永和區"
"234070","552-UM","2019/10/31 20:13:49","新北市永和區永亨路35號","121.519881666667","25.0062283333333","6500400","永和區"
"234050","553-UM","2019/10/31 20:13:55","新北市永和區環河西路二段33號","121.5074","25.0157","6500400","永和區"
"234017","745-BX","2019/10/31 20:13:52","新北市永和區仁愛路21號","121.514593333333","25.0133916666667","6500400","永和區"
"234030","746-BX","2019/10/31 20:13:48","新北市永和區民權路110號","121.519688333333","24.996515","6500400","永和區"
"234054","KEA-2590","2019/10/31 20:13:51","新北市永和區光復街4號","121.516383333333","25.016715","6500400","永和區"
"234013","KEA-2591","2019/10/31 20:13:53","新北市永和區保生路5巷3號","121.506061666667","25.0070283333333","6500400","永和區"
"234061","AAD-866","2019/10/31 20:13:55","新北市永和區安樂路100巷33號","121.515283333333","24.998855","6500400","永和區"
"234042","862-TW","2019/10/31 20:13:52","新北市中和區中和路350巷1號","121.510305","25.001265","6500400","永和區"
"249005","172-UM","2019/10/31 20:13:56","新北市八里區下罟子8-1號","121.385518333333","25.1397433333333","6502300","八里區"
"249001","173-UM","2019/10/31 20:13:37","新北市八里區中華路二段380-7號","121.40239","25.1470983333333","6502300","八里區"
"249004","303-UY","2019/10/31 20:13:39","新北市八里區中山路一段398巷52-2號","121.411285","25.1589","6502300","八里區"
"249002","305-UY","2019/10/31 20:13:39","新北市五股區成泰路四段22巷46-3號","121.458551666667","25.1134316666667","6502300","八里區"
"249003","593-UM","2019/10/31 20:13:56","新北市八里區中山路二段447巷16號","121.396951666667","25.14541","6502300","八里區"
"248016","026-BX","2019/10/31 20:13:50","新北市五股區成泰路三段577巷150號","121.447826666667","25.1043583333333","6501500","五股區"
"248008","KED-0815","2019/10/31 20:13:39","新北市五股區中興路二段37巷26號","121.460573333333","25.075145","6501500","五股區"
"248012","247-BX","2019/10/31 20:13:35","新北市五股區六合街116號","121.430423333333","25.0908566666667","6501500","五股區"
"248010","272-BY","2019/10/31 20:13:39","新北市五股區成泰路一段55號","121.434276666667","25.06738","6501500","五股區"
"248004","677-BX","2019/10/31 20:13:40","新北市五股區成泰路二段88號","121.437496666667","25.0826266666667","6501500","五股區"
"248002","678-BX","2019/10/31 20:13:38","新北市五股區成泰路三段243號","121.446465","25.0933866666667","6501500","五股區"
"234023","9380-KE","2019/10/31 20:13:56","新北市永和區永和路二段85號","121.514846666667","25.0114133333333","6500400","永和區"
"234077","969-R7","2019/10/31 20:13:47","新北市永和區民享街16號","121.51533","24.9952166666667","6500400","永和區"
"234074","AAC-211","2019/10/31 20:13:41","新北市永和區竹林路191巷5號","121.521026666667","25.0095833333333","6500400","永和區"
"234067","AAC-212","2019/10/31 20:13:48","新北市永和區保平路214巷1弄11號","121.509106666667","25.0057466666667","6500400","永和區"
"234003","AAC-295","2019/10/31 20:13:45","新北市永和區自強街28巷3號","121.515648333333","25.0079216666667","6500400","永和區"
"243012","AAD-798","2019/10/31 20:13:35","新北市泰山區楓江路48號","121.435171666667","25.0623433333333","6501600","泰山區"
"243010","297-R6","2019/10/31 20:13:53","新北市泰山區明志路二段214巷16弄15號","121.426678333333","25.0496433333333","6501600","泰山區"
"243014","KEA-2801","2019/10/31 20:13:47","新北市泰山區明志路一段113號","121.433481666667","25.063595","6501600","泰山區"
"243016","421-VK","2019/10/31 20:13:42","新北市泰山區明志路三段227號","121.423745","25.0379783333333","6501600","泰山區"
"243009","KEA-2215","2019/10/31 20:13:38","新北市泰山區泰林路二段118號","121.434675","25.059355","6501600","泰山區"
"243011","KEA-2216","2019/10/31 20:13:51","新北市新莊區壽山路33-7號","121.418111666667","25.03029","6501600","泰山區"
"243013","646-TV","2019/10/31 20:13:55","新北市泰山區明志路三段74巷21號","121.424141666667","25.04166","6501600","泰山區"
"243015","680-BX","2019/10/31 20:13:41","新北市泰山區明志路二段194號","121.427501666667","25.04966","6501600","泰山區"
"222003","436-BY","2019/10/31 20:13:42","新北市深坑區埔新街99號","121.619236666667","25.00222","6501800","深坑區"
"222002","659-BX","2019/10/31 20:13:43","新北市深坑區北深路三段206巷1弄18號","121.601573333333","25.0044983333333","6501800","深坑區"
"231061","002-UM","2019/10/31 20:13:38","新北市新店區安興路65巷16號","121.51599","24.97287","6500600","新店區"
"231055","0291-UT","2019/10/31 20:13:44","新北市新店區中華路42巷22號","121.540728333333","24.9688233333333","6500600","新店區"
"231044","046-UY","2019/10/31 20:13:47","新北市新店區寶元路一段23號","121.541426666667","24.9866483333333","6500600","新店區"
"231042","047-UY","2019/10/31 20:13:47","新北市新店區中興路二段100巷1號","121.547551666667","24.9715966666667","6500600","新店區"
"231060","106-UY","2019/10/31 20:13:56","新北市新店區安康路三段452號","121.4844","24.9512583333333","6500600","新店區"
"231051","107-UY","2019/10/31 20:13:37","新北市新店區中央六街30號","121.52919","24.9750366666667","6500600","新店區"
"231049","108-UY","2019/10/31 20:13:51","新北市新店區北新路二段59巷11號","121.542515","24.9734766666667","6500600","新店區"
"231065","110-UY","2019/10/31 20:13:46","新北市新店區安祥路106巷38號","121.477233333333","24.9618883333333","6500600","新店區"
"231068","187-VK","2019/10/31 20:13:56","新北市新店區中興路三段200號","121.543938333333","24.98191","6500600","新店區"
"231062","256-BX","2019/10/31 20:13:56","新北市新店區車子路1-1號","121.504695","24.9579716666667","6500600","新店區"
"231054","260-TV","2019/10/31 20:13:38","新北市新店區檳榔路174號","121.543901666667","24.9619983333333","6500600","新店區"
"231064","278-BY","2019/10/31 20:13:47","新北市新店區安和路二段3-5號","121.517973333333","24.9673066666667","6500600","新店區"
"231050","AAD-862","2019/10/31 20:13:45","新北市新店區北新路一段331號","121.541796666667","24.968545","6500600","新店區"
"231045","355-BY","2019/10/31 20:13:49","新北市新店區北宜路一段113號","121.540181666667","24.95435","6500600","新店區"
"231056","4715-K9","2019/10/31 20:13:48","新北市新店區中正路328巷42弄12號","121.538463333333","24.97592","6500600","新店區"
"231067","4772-VM","2019/10/31 20:13:39","新北市新店區溪洲路8巷7號","121.533428333333","24.9617333333333","6500600","新店區"
"231052","513-UM","2019/10/31 20:13:44","新北市新店區新烏路三段42號","121.55379","24.9048816666667","6500600","新店區"
"231063","616-UM","2019/10/31 20:13:51","新北市新店區車子路11號","121.502993333333","24.951655","6500600","新店區"
"231041","619-UM","2019/10/31 20:13:51","新北市新店區民權路117號","121.536016666667","24.9828233333333","6500600","新店區"
"231047","KED-0819","2019/10/31 20:13:54","新北市新店區永華街24號","121.544226666667","24.9759083333333","6500600","新店區"
"231057","720-UM","2019/10/31 20:13:41","新北市新店區梅花一路2號","121.551745","24.933275","6500600","新店區"
"231059","897-TW","2019/10/31 20:13:50","新北市新店區安德街58-1號","121.51086","24.962225","6500600","新店區"
"231040","898-TW","2019/10/31 20:13:39","新北市新店區北新路二段2號","121.542916666667","24.9707583333333","6500600","新店區"
"231043","899-TW","2019/10/31 20:13:43","新北市新店區建國路131號","121.53938","24.9781633333333","6500600","新店區"
"231066","AKT-0513","2019/10/31 20:13:53","新北市新店區安興路20號","121.515031666667","24.9659816666667","6500600","新店區"
"241011","013-R5","2019/10/31 20:13:49","新北市三重區龍濱路182號","121.501285","25.073005","6500200","三重區"
"241028","022-UY","2019/10/31 20:13:53","新北市三重區大同南路119號","121.496321666667","25.0582783333333","6500200","三重區"
"241008","059-VK","2019/10/31 20:13:39","新北市三重區永福街211巷2弄2號","121.479851666667","25.0741883333333","6500200","三重區"
"241023","060-VK","2019/10/31 20:13:37","新北市三重區頂崁街199號","121.47758","25.066775","6500200","三重區"
"241031","061-VK","2019/10/31 20:13:39","新北市三重區三寧街18號","121.489306666667","25.0598266666667","6500200","三重區"
"241015","062-VK","2019/10/31 20:13:51","新北市三重區福德北路9號","121.502623333333","25.0642083333333","6500200","三重區"
"241017","063-VK","2019/10/31 20:13:51","新北市三重區長壽西街211號","121.491756666667","25.0663","6500200","三重區"
"241024","065-VK","2019/10/31 20:13:51","新北市三重區中正北路165巷33號","121.479608333333","25.0702883333333","6500200","三重區"
"241007","066-VK","2019/10/31 20:13:57","新北市三重區三和路四段117巷12號","121.485918333333","25.0777633333333","6500200","三重區"
"241002","090-VK","2019/10/31 20:13:37","新北市三重區環河北路二段324號","121.49826","25.083305","6500200","三重區"
"241003","091-VK","2019/10/31 20:13:44","新北市三重區富華街18號","121.489588333333","25.0824733333333","6500200","三重區"
"241006","262-UM","2019/10/31 20:13:39","新北市三重區車路頭街139巷12號","121.484218333333","25.0762033333333","6500200","三重區"
"241016","266-UM","2019/10/31 20:13:43","新北市三重區大同北路56-2號","121.494158333333","25.063815","6500200","三重區"
"241009","267-UM","2019/10/31 20:13:53","新北市三重區永福街125巷15-1號","121.477898333333","25.0773616666667","6500200","三重區"
"241018","268-UM","2019/10/31 20:13:55","新北市三重區雙園街57巷1號","121.495058333333","25.067565","6500200","三重區"
"241032","269-UM","2019/10/31 20:13:42","新北市三重區捷運路19巷2弄1號","121.48511","25.056295","6500200","三重區"
"241013","270-UM","2019/10/31 20:13:42","新北市三重區三和路三段165號","121.49175","25.0738683333333","6500200","三重區"
"241025","271-UM","2019/10/31 20:13:43","新北市三重區三民街281號","121.479003333333","25.0681966666667","6500200","三重區"
"241035","462-BY","2019/10/31 20:13:52","新北市三重區正義北路31號","121.497615","25.06362","6500200","三重區"
"241004","475-VK","2019/10/31 20:13:43","新北市三重區溪尾街105號","121.489796666667","25.0784516666667","6500200","三重區"
"241020","478-VK","2019/10/31 20:13:49","新北市三重區三和路三段142號","121.493476666667","25.0726766666667","6500200","三重區"
"241026","480-VK","2019/10/31 20:13:50","新北市三重區中央南路57號","121.501388333333","25.0615333333333","6500200","三重區"
"241014","543-UM","2019/10/31 20:13:40","新北市三重區長樂街112號","121.501591666667","25.0695583333333","6500200","三重區"
"241001","547-UM","2019/10/31 20:13:49","新北市三重區三和路四段91號","121.488898333333","25.0756483333333","6500200","三重區"
"241019","KEA-2593","2019/10/31 20:13:57","新北市三重區自強路二段47巷20號","121.489623333333","25.0698433333333","6500200","三重區"
"241005","AAD-863","2019/10/31 20:13:47","新北市三重區碧華街295號","121.490495","25.0839316666667","6500200","三重區"
"241012","743-BX","2019/10/31 20:13:53","新北市三重區仁厚街98號","121.501156666667","25.07704","6500200","三重區"
"241022","KED-0820","2019/10/31 20:13:43","新北市三重區中正北路28號","121.488106666667","25.06356","6500200","三重區"
"241029","942-UM","2019/10/31 20:13:38","新北市三重區中正南路131-1號","121.493705","25.0569366666667","6500200","三重區"
"241033","AAC-255","2019/10/31 20:13:50","新北市三重區五谷王北街42巷2號","121.475796666667","25.04944","6500200","三重區"
"235066","003-UY","2019/10/31 20:13:34","新北市中和區光華街59-1號","121.506333333333","25.00337","6500300","中和區"
"235039","097-UM","2019/10/31 20:13:39","新北市中和區大勇街27巷10號","121.516991666667","24.9938533333333","6500300","中和區"
"235065","098-UM","2019/10/31 20:13:49","新北市中和區橋和路296號","121.496903333333","25.006945","6500300","中和區"
"235040","150-BY","2019/10/31 20:13:46","新北市中和區保健路33巷8號","121.50902","24.9979133333333","6500300","中和區"
"235055","183-VK","2019/10/31 20:13:57","新北市三重區光復路二段178-1號","121.471973333333","25.0623766666667","6500300","中和區"
"247016","KEA-2869","2019/10/31 20:13:37","新北市蘆洲區光華路162巷14號","121.464831666667","25.082945","6501400","蘆洲區"
"247010","KED-0682","2019/10/31 20:13:35","新北市蘆洲區信義路188巷4弄2號","121.479733333333","25.0844683333333","6501400","蘆洲區"
"235050","4979-A6","2019/10/31 20:13:57","新北市中和區景新街321號","121.511178333333","24.99225","6500300","中和區"
"235069","4980-A6","2019/10/31 20:13:46","新北市中和區圓通路172號","121.497365","24.9947116666667","6500300","中和區"
"235059","AAC-215","2019/10/31 20:13:41","新北市中和區圓通路367巷13弄39號","121.493481666667","24.987955","6500300","中和區"
"220035","015-TV","2019/10/31 20:13:46","新北市板橋區新生街87巷10號","121.457595","25.0218783333333","6500100","板橋區"
"220065","072-UY","2019/10/31 20:13:35","新北市板橋區永豐街89巷5弄16號","121.472456666667","25.0192966666667","6500100","板橋區"
"247006","893-R6","2019/10/31 20:13:23","新北市蘆洲區九芎街113號","121.465563333333","25.07959","6501400","蘆洲區"
"247020","546-UM","2019/10/31 20:13:51","新北市蘆洲區民義街119-1號","121.474158333333","25.0911883333333","6501400","蘆洲區"
"247004","341-TH","2019/10/31 20:13:36","新北市蘆洲區長安街285巷23號","121.457358333333","25.0840866666667","6501400","蘆洲區"
"247024","057-VK","2019/10/31 20:13:51","新北市蘆洲區光明路116號","121.463653333333","25.0882016666667","6501400","蘆洲區"
"247014","056-VK","2019/10/31 20:13:44","新北市蘆洲區中山二路170號","121.470706666667","25.080795","6501400","蘆洲區"
"247018","053-VK","2019/10/31 20:13:53","新北市蘆洲區民族路305號","121.47488","25.0912983333333","6501400","蘆洲區"
"247022","007-UY","2019/10/31 20:13:53","新北市蘆洲區民族路463號","121.467005","25.088505","6501400","蘆洲區"
"247002","001-UY","2019/10/31 20:13:53","新北市蘆洲區長安街315號","121.457551666667","25.0860333333333","6501400","蘆洲區"
"222001","KEA-2212","2019/10/31 20:13:53","新北市深坑區北深路三段236號","121.600361666667","25.00421","6501800","深坑區"
"251004","009-UM","2019/10/31 20:13:40","新北市淡水區民族路31巷21-1號","121.461845","25.136695","6501000","淡水區"
"251015","KEA-2871","2019/10/31 20:13:43","新北市淡水區商工路329號","121.465095","25.1858","6501000","淡水區"
"251016","180-VK","2019/10/31 20:13:38","新北市淡水區番子田30號","121.458755","25.2293883333333","6501000","淡水區"
"251013","182-VK","2019/10/31 20:13:55","新北市淡水區奎柔山路760號","121.474915","25.2036133333333","6501000","淡水區"
"251010","413-VK","2019/10/31 20:13:52","新北市淡水區中正路二段395號","121.426211666667","25.19109","6501000","淡水區"
"251012","441-VK","2019/10/31 20:13:52","新北市淡水區淡金路三段304號","121.449045","25.207845","6501000","淡水區"
"251001","559-UM","2019/10/31 20:13:54","新北市淡水區淡金路二段15號","121.44635","25.1891916666667","6501000","淡水區"
"251006","561-UM","2019/10/31 20:13:52","新北市淡水區北新路141巷1號","121.449275","25.1791866666667","6501000","淡水區"
"251009","575-R6","2019/10/31 20:13:44","新北市淡水區清水街3號","121.445098333333","25.1704033333333","6501000","淡水區"
"251014","577-R6","2019/10/31 20:13:44","新北市淡水區石頭厝2-1號","121.458101666667","25.2357083333333","6501000","淡水區"
"251011","650-BX","2019/10/31 20:13:55","新北市淡水區崁頂133號","121.431086666667","25.2055216666667","6501000","淡水區"
"251002","672-BX","2019/10/31 20:13:51","新北市淡水區中正路292號","121.437591666667","25.1719866666667","6501000","淡水區"
"251003","673-BX","2019/10/31 20:13:53","新北市淡水區中山北路一段249號","121.444715","25.1807183333333","6501000","淡水區"
"207003","550-UM","2019/10/31 20:13:50","新北市萬里區大鵬里萬里加投19-10號","121.649528333333","25.20991","6502800","萬里區"
"207004","291-VK","2019/10/31 20:13:42","新北市萬里區北基里仁四街30號","121.681658333333","25.1762583333333","6502800","萬里區"
"252002","178-VK","2019/10/31 20:13:54","新北市三芝區利民街2號","121.503206666667","25.2592","6502100","三芝區"
"237012","275-BY","2019/10/31 20:13:45","新北市三峽區中華路74-5號","121.371558333333","24.9291683333333","6500900","三峽區"
"237006","5529-G3","2019/10/31 20:13:39","新北市三峽區嘉添181號","121.370026666667","24.91139","6500900","三峽區"
"237005","AKY-6261","2019/10/31 20:13:55","新北市三峽區三樹路98巷102-5號","121.386443333333","24.9396116666667","6500900","三峽區"
"236042","KED-0685","2019/10/31 20:13:47","新北市土城區學享街12號","121.45137","24.9873583333333","6501300","土城區"
"236078","166-UM","2019/10/31 20:13:40","新北市土城區德安街4巷2號","121.422233333333","24.964855","6501300","土城區"
"236030","253-BX","2019/10/31 20:13:43","新北市土城區裕民路32巷6號","121.447623333333","24.9880816666667","6501300","土城區"
"236026","269-VK","2019/10/31 20:13:48","新北市土城區裕生路83巷30號","121.447933333333","24.98393","6501300","土城區"
"236014","270-VK","2019/10/31 20:13:41","新北市土城區廣明街41巷25號","121.45438","24.9927033333333","6501300","土城區"
"236038","271-VK","2019/10/31 20:13:48","新北市土城區延吉街377號","121.46363","24.9839483333333","6501300","土城區"
"247012","KED-0683","2019/10/31 20:13:46","新北市蘆洲區中興街15巷36號","121.47998","25.0882116666667","6501400","蘆洲區"
"236070","KEA-2877","2019/10/31 20:13:43","新北市土城區大安路18號","121.432896666667","24.9661533333333","6501300","土城區"
"252001","KED-0821","2019/10/31 20:13:53","新北市三芝區中山路一段11號","121.500351666667","25.258475","6502100","三芝區"
"236021","401-BY","2019/10/31 20:13:48","新北市土城區延吉街5巷2號","121.471985","24.9893083333333","6501300","土城區"
"236059","912-UM","2019/10/31 20:13:48","新北市土城區中央路三段4-3號","121.439056666667","24.9699283333333","6501300","土城區"
"242042","AAC-296","2019/10/31 20:13:52","新北市新莊區青山路一段10號","121.411538333333","25.027515","6500500","新莊區"
"242061","986-R7","2019/10/31 20:13:39","新北市新莊區瓊林路100巷1號","121.443598333333","25.02656","6500500","新莊區"
"242004","751-BX","2019/10/31 20:13:50","新北市新莊區頭興街13巷5號","121.461428333333","25.0534066666667","6500500","新莊區"
"242029","615-BX","2019/10/31 20:13:42","新北市新莊區中原路263號","121.448436666667","25.0542483333333","6500500","新莊區"
"242027","613-BX","2019/10/31 20:13:55","新北市新莊區立信三街73號","121.444051666667","25.0510033333333","6500500","新莊區"
"242058","612-BX","2019/10/31 20:13:48","新北市新莊區八德街218號","121.423266666667","25.0191816666667","6500500","新莊區"
"242048","566-BX","2019/10/31 20:13:50","新北市新莊區四維路152巷30號","121.421976666667","25.0225216666667","6500500","新莊區"
"242053","497-BY","2019/10/31 20:13:48","新北市新莊區民安西路273號","121.426256666667","25.012505","6500500","新莊區"
"242002","441-UM","2019/10/31 20:13:47","新北市新莊區中正路48-2號","121.46394","25.0410416666667","6500500","新莊區"
"242007","440-UM","2019/10/31 20:13:48","新北市新莊區思源路419巷1弄15號","121.45927","25.0522","6500500","新莊區"
"242013","413-TV","2019/10/31 20:13:47","新北市新莊區中港路483巷6號","121.451733333333","25.04977","6500500","新莊區"
"242051","400-BY","2019/10/31 20:13:46","新北市新莊區民安西路196巷12號","121.425111666667","25.0154933333333","6500500","新莊區"
"242025","362-BY","2019/10/31 20:13:54","新北市新莊區五權一路12巷25弄2號","121.458023333333","25.0639133333333","6500500","新莊區"
"242023","353-BY","2019/10/31 20:13:41","新北市新莊區化成路604號","121.46619","25.0545666666667","6500500","新莊區"
"242015","132-UY","2019/10/31 20:13:52","新北市新莊區永樂街211號","121.447541666667","25.0444716666667","6500500","新莊區"
"242039","135-UY","2019/10/31 20:13:51","新北市新莊區龍安路479號","121.425368333333","25.01825","6500500","新莊區"
"242056","172-VK","2019/10/31 20:13:48","新北市新莊區豐年街48號","121.446246666667","25.0318483333333","6500500","新莊區"
"242017","173-VK","2019/10/31 20:13:53","新北市新莊區中港路375號","121.45166","25.0466733333333","6500500","新莊區"
"242031","175-VK","2019/10/31 20:13:54","新北市新莊區義豐街19號","121.441068333333","25.0349533333333","6500500","新莊區"
"242021","KED-0687","2019/10/31 20:13:53","新北市新莊區新泰路151號","121.44792","25.0367133333333","6500500","新莊區"
"242044","347-TH","2019/10/31 20:13:48","桃園市龜山區萬壽路一段27號","121.410326666667","25.0205233333333","6500500","新莊區"
"242036","348-TH","2019/10/31 20:13:58","新北市新莊區建安街50號","121.427385","25.0247416666667","6500500","新莊區"
"242009","349-TH","2019/10/31 20:13:53","新北市新莊區昌平街14號","121.454893333333","25.0526933333333","6500500","新莊區"
"242034","350-TH","2019/10/31 20:13:53","新北市新莊區中正路326號","121.44607","25.034775","6500500","新莊區"
"242019","351-TH","2019/10/31 20:13:44","新北市新莊區博愛路4巷1號","121.45649","25.042845","6500500","新莊區"
"221008","489-VK","2019/10/31 20:13:53","台北市內湖區康樂街201巷47號","121.622778333333","25.0768716666667","6501100","汐止區"
"221036","130-UY","2019/10/31 20:13:52","新北市汐止區新台五路二段102號","121.66254","25.0659516666667","6501100","汐止區"
"221015","131-UY","2019/10/31 20:13:45","新北市汐止區建成路37巷1號","121.663628333333","25.072775","6501100","汐止區"
"221010","269-BY","2019/10/31 20:13:37","新北市汐止區八連路一段86巷2號","121.645048333333","25.0806616666667","6501100","汐止區"
"221012","278-VK","2019/10/31 20:13:57","新北市汐止區大同路三段425-1號","121.67734","25.0715333333333","6501100","汐止區"
"221023","279-VK","2019/10/31 20:13:49","新北市汐止區明峰街297巷1號","121.625575","25.06789","6501100","汐止區"
"221032","280-BY","2019/10/31 20:13:56","新北市汐止區弘道街8巷1弄1號","121.61701","25.0484283333333","6501100","汐止區"
"221029","298-VK","2019/10/31 20:13:46","新北市汐止區樟樹一路119巷8-6號","121.641331666667","25.0643316666667","6501100","汐止區"
"221021","299-VK","2019/10/31 20:13:40","新北市汐止區水源路一段275號","121.654125","25.0588583333333","6501100","汐止區"
"221031","353-TW","2019/10/31 20:13:43","新北市汐止區中興路214巷7弄2號","121.631426666667","25.06659","6501100","汐止區"
"221035","622-UM","2019/10/31 20:13:46","新北市汐止區長江街39巷10號","121.655493333333","25.0718183333333","6501100","汐止區"
"221025","623-UM","2019/10/31 20:13:44","新北市汐止區秀峰路62號","121.659768333333","25.0646533333333","6501100","汐止區"
"221038","646-BX","2019/10/31 20:13:48","新北市汐止區忠孝東路478號","121.666301666667","25.073715","6501100","汐止區"
"221033","647-BX","2019/10/31 20:13:48","新北市汐止區東勢街201巷104號","121.633545","25.0428983333333","6501100","汐止區"
"221002","707-TV","2019/10/31 20:13:57","新北市汐止區福德一路10號","121.638865","25.0697466666667","6501100","汐止區"
"221018","753-BX","2019/10/31 20:13:40","新北市汐止區茄興街20巷1弄1號","121.673523333333","25.0671033333333","6501100","汐止區"
"220079","145-BY","2019/10/31 20:13:50","新北市板橋區建國街54巷10號","121.45926","25.016845","6500100","板橋區"
"220080","200-UY","2019/10/31 20:13:51","新北市板橋區大觀路二段205號","121.444788333333","24.9993583333333","6500100","板橋區"
"224002","257-TC","2019/10/31 20:13:53","新北市瑞芳區三爪子坑路73號","121.812426666667","25.1073616666667","6501200","瑞芳區"
"220083","286-VK","2019/10/31 20:13:49","新北市板橋區僑中二街92巷30號","121.444821666667","25.00921","6500100","板橋區"
"220081","287-VK","2019/10/31 20:13:49","新北市板橋區僑中一街124巷19弄2號","121.446133333333","25.01407","6500100","板橋區"
"220061","293-UM","2019/10/31 20:13:51","新北市板橋區四川路一段282號","121.458766666667","25.0008483333333","6500100","板橋區"
"242046","281-VK","2019/10/31 20:13:50","新北市新莊區裕民街132號","121.41797","25.0220983333333","6500500","新莊區"
"220075","303-R5","2019/10/31 20:13:44","新北市板橋區金華街10巷43號","121.457233333333","25.0202683333333","6500100","板橋區"
"242011","280-VK","2019/10/31 20:13:42","新北市新莊區幸福路710巷8號","121.449755","25.0497183333333","6500500","新莊區"
"220103","561-BX","2019/10/31 20:13:55","新北市板橋區漢生東路33巷36號","121.466001666667","25.01762","6500100","板橋區"
"220054","741-BX","2019/10/31 20:13:50","新北市板橋區忠孝路忠義巷9弄44號","121.465238333333","25.0045433333333","6500100","板橋區"
"220102","KEA-2699","2019/10/31 20:13:47","新北市板橋區萬板路558-1號","121.480778333333","25.0265","6500100","板橋區"
"220055","827-TW","2019/10/31 20:13:49","新北市板橋區仁愛路86巷9號","121.46102","24.99929","6500100","板橋區"
"220082","833-TW","2019/10/31 20:13:56","新北市板橋區大觀路三段133巷19號","121.432735","24.9944883333333","6500100","板橋區"
"220074","895-R6","2019/10/31 20:13:38","新北市板橋區南門街39號","121.45732","25.008715","6500100","板橋區"
"235068","KEA-2873","2019/10/31 20:13:30","新北市中和區福祥路98號","121.499091666667","25.00603","6500300","中和區"
