"lineid","car","time","location","longitude","latitude","cityid","cityname"
"251004","009-UM","2019/10/31 22:29:54","新北市淡水區民族路33號","121.462295","25.135825","6501000","淡水區"
"251008","181-VK","2019/10/31 22:29:39","新北市淡水區學府路104號","121.449898333333","25.17179","6501000","淡水區"
"251010","413-VK","2019/10/31 22:29:52","新北市淡水區中正路一段22巷100號","121.426765","25.18566","6501000","淡水區"
"251007","442-VK","2019/10/31 22:29:57","新北市淡水區北新路186-3號","121.449563333333","25.17867","6501000","淡水區"
"251011","650-BX","2019/10/31 22:29:55","新北市淡水區水碓街7號","121.44317","25.1771183333333","6501000","淡水區"
