"lineid","car","time","location","longitude","latitude","cityid","cityname"
"232010","375-UM","2019/10/17 07:59:22","新北市坪林區厚德岡坑8-5號","121.733165","24.9409483333333","6502000","坪林區"
"232014","705-BZ","2019/10/17 07:59:25","新北市坪林區金瓜寮34-1號","121.676896666667","24.9033666666667","6502000","坪林區"
"232001","758-BX","2019/10/17 07:59:20","新北市坪林區坪雙路一段53號","121.712601666667","24.94339","6502000","坪林區"
"244006","080-UY","2019/10/17 07:59:29","新北市林口區粉寮路二段167-1號","121.404433333333","25.088425","6501700","林口區"
"244003","248-BX","2019/10/17 07:59:31","新北市林口區嘉溪雅坑3-4號","121.34272","25.1025333333333","6501700","林口區"
"244012","KEA-2802","2019/10/17 07:59:28","新北市林口區粉寮69號","121.404781666667","25.0908016666667","6501700","林口區"
"244022","483-VK","2019/10/17 07:59:14","新北市林口區粉寮路二段160巷28號","121.405128333333","25.09078","6501700","林口區"
"244008","656-BX","2019/10/17 07:59:21","新北市林口區粉寮69號","121.405028333333","25.0908333333333","6501700","林口區"
"244024","837-TS","2019/10/17 07:59:25","新北市林口區粉寮69號","121.404966666667","25.0908083333333","6501700","林口區"
"222006","289-BY","2019/10/17 07:59:18","新北市深坑區文化街45號","121.617","25.0017766666667","6501800","深坑區"
"231008","192-VK","2019/10/17 07:59:22","新北市新店區中興路一段162號","121.542568333333","24.9640633333333","6500600","新店區"
"235008","293-VK","2019/10/17 07:59:19","新北市中和區和平街158號","121.506091666667","24.9919483333333","6500300","中和區"
"226005","5620-A6","2019/10/17 07:59:27","新北市平溪區石底里公園街18-3號","121.733475","25.02567","6502400","平溪區"
"226007","APG-9813","2019/10/17 07:59:21","新北市平溪區靜安路三段369號","121.780911666667","25.04592","6502400","平溪區"
"226003","AGD-0702","2019/10/17 07:59:20","新北市平溪區新寮里頂寮子3-10號","121.773533333333","25.051785","6502400","平溪區"
"223003","205-TH","2019/10/17 07:58:54","新北市石碇區月扇湖1號","121.657673333333","24.9556983333333","6501900","石碇區"
"223001","592-UM","2019/10/17 07:59:05","新北市石碇區月扇湖1號","121.657445","24.954665","6501900","石碇區"
"223004","660-BX","2019/10/17 07:59:29","新北市石碇區楓子林1-2號","121.642563333333","25.008735","6501900","石碇區"
"223007","661-BX","2019/10/17 07:39:14","新北市石碇區靜安路一段337號","121.698863333333","25.0144633333333","6501900","石碇區"
"227005","282-VK","2019/10/17 07:59:26","新北市雙溪區平林里梅竹蹊16號","121.861961666667","25.0360266666667","6502500","雙溪區"
"252004","249-BX","2019/10/17 07:59:21","新北市三芝區店子里菜公坑81號","121.512795","25.2020766666667","6502100","三芝區"
"252007","AAC-283","2019/10/17 07:59:31","新北市三芝區後厝里北勢子45-33號","121.470388333333","25.2510633333333","6502100","三芝區"
"237014","760-BX","2019/10/17 07:59:23","新北市三峽區詩朗74-1號","121.35919","24.8450816666667","6500900","三峽區"
"242040","AAC-296","2019/10/17 07:59:17","新北市新莊區新樹路113巷15號","121.438461666667","25.0267266666667","6500500","新莊區"
"242059","986-R7","2019/10/17 07:59:16","新北市新莊區瓊林路59-38號","121.441121666667","25.0234516666667","6500500","新莊區"
"242003","751-BX","2019/10/17 07:59:15","新北市新莊區中港路280號","121.453006666667","25.0441","6500500","新莊區"
"242028","615-BX","2019/10/17 07:59:26","新北市新莊區復興路二段178號","121.458796666667","25.0443983333333","6500500","新莊區"
"242026","613-BX","2019/10/17 07:59:15","新北市新莊區思源路63號","121.460163333333","25.0404183333333","6500500","新莊區"
"242057","612-BX","2019/10/17 07:59:10","新北市新莊區三和路10號","121.44196","25.035475","6500500","新莊區"
"242047","566-BX","2019/10/17 07:59:19","新北市新莊區福營路435號","121.420475","25.0261133333333","6500500","新莊區"
"242052","497-BY","2019/10/17 07:59:26","新北市新莊區瓊林南路317號","121.434571666667","25.0055316666667","6500500","新莊區"
"242001","441-UM","2019/10/17 07:59:27","新北市新莊區新莊路154號","121.45527","25.0354533333333","6500500","新莊區"
"242006","440-UM","2019/10/17 07:59:15","新北市新莊區自信街2號","121.453165","25.04825","6500500","新莊區"
"242012","413-TV","2019/10/17 07:59:24","新北市新莊區中誠街16巷2號","121.452091666667","25.0483433333333","6500500","新莊區"
"242024","362-BY","2019/10/17 07:59:24","新北市新莊區中港路268號","121.453315","25.0439433333333","6500500","新莊區"
"242022","353-BY","2019/10/17 07:59:27","新北市新莊區中華路一段130號","121.452586666667","25.0410566666667","6500500","新莊區"
"242014","132-UY","2019/10/17 07:59:16","新北市新莊區新泰路154號","121.447776666667","25.0374366666667","6500500","新莊區"
"242038","135-UY","2019/10/17 07:59:22","新北市新莊區民安東路37號","121.42885","25.0209783333333","6500500","新莊區"
"242055","172-VK","2019/10/17 07:59:22","新北市新莊區新泰路51號","121.449486666667","25.0338533333333","6500500","新莊區"
"242016","173-VK","2019/10/17 07:59:10","新北市新莊區中華路一段103號","121.452691666667","25.0439266666667","6500500","新莊區"
"242030","175-VK","2019/10/17 07:59:29","新北市新莊區新泰路442號","121.443446666667","25.0447416666667","6500500","新莊區"
"242020","KED-0687","2019/10/17 07:59:28","新北市新莊區中正路193號","121.453076666667","25.03603","6500500","新莊區"
"242043","346-TH","2019/10/17 07:59:28","新北市新莊區富國路101-1號","121.42137","25.0255333333333","6500500","新莊區"
"242033","347-TH","2019/10/17 07:59:22","新北市新莊區新莊路370號","121.449351666667","25.0334683333333","6500500","新莊區"
"242035","348-TH","2019/10/17 07:59:28","新北市新莊區新樹路223號","121.435353333333","25.0230283333333","6500500","新莊區"
"242008","349-TH","2019/10/17 07:59:15","新北市新莊區中原路238號","121.45278","25.0545766666667","6500500","新莊區"
"242049","350-TH","2019/10/17 07:59:13","新北市新莊區新樹路447號","121.432758333333","25.0135266666667","6500500","新莊區"
"242018","351-TH","2019/10/17 07:59:13","新北市新莊區中港路61號","121.455348333333","25.03843","6500500","新莊區"
"242045","281-VK","2019/10/17 07:59:15","新北市新莊區新樹路65-7號","121.439355","25.030725","6500500","新莊區"
"242010","280-VK","2019/10/17 07:59:22","新北市新莊區中華路二段83號","121.452533333333","25.0479966666667","6500500","新莊區"
