"lineid","car","time","location","longitude","latitude","cityid","cityname"
"244022","483-VK","2019/10/17 09:59:14","新北市林口區民權路201號","121.375296666667","25.0853816666667","6501700","林口區"
"222006","289-BY","2019/10/17 09:59:18","新北市深坑區王軍寮1號","121.619436666667","24.9874466666667","6501800","深坑區"
"231069","189-VK","2019/10/17 09:59:26","新北市新店區新潭路三段87號","121.504005","24.9098566666667","6500600","新店區"
"231008","192-VK","2019/10/17 09:58:22","新北市新店區小坑一路21-1號","121.53043","24.9110466666667","6500600","新店區"
"226007","APG-9813","2019/10/17 09:55:10","新北市平溪區望古里望古坑29號","121.763636666667","25.0338116666667","",""
"252004","249-BX","2019/10/17 09:59:20","新北市三芝區錫板里棟板頭24號","121.514528333333","25.227985","6502100","三芝區"
"252007","AAC-283","2019/10/17 09:59:11","新北市三芝區新庄里新庄子51-25號","121.507493333333","25.2780583333333","6502100","三芝區"
"237014","760-BX","2019/10/17 09:54:23","新北市三峽區中山路459巷135號","121.348833333333","24.9330266666667","6500900","三峽區"
"242059","986-R7","2019/10/17 09:59:16","新北市新莊區新樹路286號","121.432625","25.0124966666667","6500500","新莊區"
"242026","613-BX","2019/10/17 09:59:15","新北市新莊區化成路45號","121.465181666667","25.044755","6500500","新莊區"
"244018","KED-0667","2019/10/17 09:59:26","新北市林口區四維路130號","121.37916","25.0771383333333","6501700","林口區"
"233003","KEA-2870","2019/10/17 09:59:18","新北市烏來區信福路73-3號","121.525976666667","24.8375033333333","6502900","烏來區"
