"lineid","car","time","location","longitude","latitude","cityid","cityname"
"244003","657-BX","2019/10/17 12:09:16","新北市林口區粉寮路二段160巷28號","121.405115","25.0906533333333","6501700","林口區"
"228005","097-TW","2019/10/17 12:09:21","新北市貢寮區福隆里興隆街38號","121.939548333333","25.0182883333333","6502600","貢寮區"
"228004","212-TW","2019/10/17 12:09:21","新北市貢寮區貢寮里長泰路1號","121.90749","25.019105","6502600","貢寮區"
"207002","749-BX","2019/10/17 12:09:25","新北市萬里區中幅里大湖路6號","121.660646666667","25.171185","6502800","萬里區"
"235026","KEA-2876","2019/10/17 12:09:27","新北市中和區員山路36巷16-3號","121.485063333333","24.9914833333333","6500300","中和區"
