"lineid","car","time","location","longitude","latitude","cityid","cityname"
"234044","148-BY","2019/10/17 13:19:15","新北市永和區得和路373巷16弄11號","121.525645","25.0001383333333","6500400","永和區"
"234078","298-R6","2019/10/17 13:19:13","新北市永和區福和路7巷7號","121.525366666667","25.007855","6500400","永和區"
"234036","336-UY","2019/10/17 13:19:14","新北市永和區民樂街45巷2號","121.527461666667","24.9992166666667","6500400","永和區"
"234084","338-UY","2019/10/17 13:19:26","新北市永和區永利路25號","121.51814","25.0059983333333","6500400","永和區"
"234068","552-UM","2019/10/17 13:19:23","新北市永和區豫溪街53號","121.517133333333","25.0099416666667","6500400","永和區"
"234062","553-UM","2019/10/17 13:19:14","新北市永和區永元路17巷6弄2號","121.521423333333","25.0006733333333","6500400","永和區"
"234015","745-BX","2019/10/17 13:19:28","新北市永和區文化路192巷14弄21號","121.511733333333","25.01698","6500400","永和區"
"234028","746-BX","2019/10/17 13:19:14","新北市永和區民生路4號","121.522698333333","24.99794","6500400","永和區"
"234052","KEA-2590","2019/10/17 13:19:26","新北市永和區中興街45號","121.516408333333","25.0117683333333","6500400","永和區"
"234005","KED-0605","2019/10/17 13:19:13","新北市中和區中山路二段58號","121.504073333333","25.00481","6500400","永和區"
"234012","KEA-2591","2019/10/17 13:19:13","新北市永和區信義路46-1號","121.51338","25.0124183333333","6500400","永和區"
"234060","AAD-866","2019/10/17 13:19:18","新北市永和區秀朗路一段171號","121.516928333333","25.0037966666667","6500400","永和區"
"234040","862-TW","2019/10/17 13:19:22","新北市永和區保平路151巷2弄2號","121.509905","25.00562","6500400","永和區"
"234048","863-TW","2019/10/17 13:19:11","新北市永和區仁愛路104巷3號","121.512013333333","25.0134616666667","6500400","永和區"
"234025","9371-KE","2019/10/17 13:19:23","新北市永和區豫溪街28巷22號","121.514986666667","25.00903","6500400","永和區"
"234010","9373-KE","2019/10/17 13:19:28","新北市永和區永和路二段405巷43號","121.514313333333","25.01695","6500400","永和區"
"248013","025-BX","2019/10/17 13:19:24","新北市五股區自強路61號","121.433181666667","25.0731066666667","6501500","五股區"
"248015","026-BX","2019/10/17 13:19:29","新北市五股區西雲路176號","121.447078333333","25.0949166666667","6501500","五股區"
"248006","077-UY","2019/10/17 13:19:32","新北市五股區中興路二段37巷28號","121.46014","25.0749783333333","6501500","五股區"
"248007","KED-0815","2019/10/17 13:19:27","新北市五股區更洲路32巷8弄14號","121.459228333333","25.0796533333333","6501500","五股區"
"248017","KED-0813","2019/10/17 13:19:28","新北市五股區御史路205-1號","121.431498333333","25.1011116666667","6501500","五股區"
"248005","261-SL","2019/10/17 13:19:13","新北市五股區中興路一段132號","121.465266666667","25.0735916666667","6501500","五股區"
"248009","272-BY","2019/10/17 13:19:20","新北市五股區成泰路一段130-1號","121.435158333333","25.075025","6501500","五股區"
"248003","677-BX","2019/10/17 13:19:31","新北市五股區成泰路二段106號","121.437715","25.0829866666667","6501500","五股區"
"248001","678-BX","2019/10/17 13:19:11","新北市五股區西雲路46號","121.443456666667","25.090965","6501500","五股區"
"248011","682-TV","2019/10/17 13:19:26","新北市五股區御史路1巷101弄4號","121.440873333333","25.0912216666667","6501500","五股區"
"234022","9380-KE","2019/10/17 13:19:27","新北市永和區竹林路90號","121.519441666667","25.0123916666667","6500400","永和區"
"234076","969-R7","2019/10/17 13:19:15","新北市永和區民有街61號","121.517633333333","24.9959516666667","6500400","永和區"
"234072","AAC-211","2019/10/17 13:19:20","新北市永和區竹林路23號","121.517196666667","25.0147466666667","6500400","永和區"
"234066","AAC-212","2019/10/17 13:19:14","新北市永和區永平路81巷12號","121.511626666667","25.0079633333333","6500400","永和區"
"234001","AAC-295","2019/10/17 13:19:19","新北市永和區保福路一段96號","121.512041666667","25.0105416666667","6500400","永和區"
"244003","657-BX","2019/10/17 13:19:16","新北市林口區嘉溪雅坑5-4號","121.350728333333","25.09988","6501700","林口區"
"243005","646-TV","2019/10/17 13:19:24","新北市泰山區南林路93號","121.415563333333","25.051195","6501600","泰山區"
"231030","002-UM","2019/10/17 13:19:29","新北市新店區安華路28-1號","121.519601666667","24.9608366666667","6500600","新店區"
"231027","0293-UT","2019/10/17 13:19:29","新北市新店區安康路一段102號","121.527406666667","24.9623833333333","6500600","新店區"
"231005","046-UY","2019/10/17 13:19:26","新北市新店區安一路一段1-1號","121.51958","24.9614683333333","6500600","新店區"
"231029","106-UY","2019/10/17 13:19:25","新北市新店區安華路28-1號","121.519975","24.9607616666667","6500600","新店區"
"231018","107-UY","2019/10/17 13:19:12","新北市新店區安康路一段35-5號","121.531941666667","24.96065","6500600","新店區"
"231036","110-UY","2019/10/17 13:19:29","新北市新店區建業路15號","121.482643333333","24.952705","6500600","新店區"
"231031","256-BX","2019/10/17 13:19:20","新北市新店區安忠路205巷8號","121.510131666667","24.9554683333333","6500600","新店區"
"231023","260-TV","2019/10/17 13:19:30","新北市新店區安一路一段1-1號","121.519105","24.9615366666667","6500600","新店區"
"231003","268-BY","2019/10/17 13:19:24","新北市新店區北新路一段128號","121.542318333333","24.9698116666667","6500600","新店區"
"231035","278-BY","2019/10/17 13:19:28","新北市新店區安一路一段1-1號","121.519865","24.9611266666667","6500600","新店區"
"231017","AAD-862","2019/10/17 13:19:27","新北市新店區安華路28-1號","121.519576666667","24.960805","6500600","新店區"
"231006","355-BY","2019/10/17 13:19:11","新北市新店區安一路一段1-1號","121.519098333333","24.9609816666667","6500600","新店區"
"231038","3712-VJ","2019/10/17 13:19:12","新北市新店區安華路3號","121.518943333333","24.9606216666667","6500600","新店區"
"231024","4716-K9","2019/10/17 13:19:28","新北市新店區安康路一段105號","121.529013333333","24.961625","6500600","新店區"
"231025","4715-K9","2019/10/17 13:19:17","新北市新店區中央五街3號","121.530276666667","24.97417","6500600","新店區"
"231021","513-UM","2019/10/17 13:19:30","新北市新店區安一路一段1-1號","121.51971","24.9611266666667","6500600","新店區"
"231034","616-UM","2019/10/17 13:19:23","新北市新店區安華路28-1號","121.519543333333","24.9607","6500600","新店區"
"231011","KED-0819","2019/10/17 13:19:25","新北市新店區安一路一段1-1號","121.52006","24.9612033333333","6500600","新店區"
"231010","719-UM","2019/10/17 13:19:13","新北市新店區秀山路70號","121.531141666667","24.9609583333333","6500600","新店區"
"231026","720-UM","2019/10/17 13:19:14","新北市新店區安一路一段1-1號","121.519148333333","24.9613083333333","6500600","新店區"
"231028","897-TW","2019/10/17 13:19:18","新北市新店區安華路28-1號","121.519513333333","24.9607383333333","6500600","新店區"
"231001","898-TW","2019/10/17 13:19:26","新北市新店區安華路28-1號","121.51943","24.9607383333333","6500600","新店區"
"231037","AKT-0513","2019/10/17 13:19:15","新北市新店區安華路28-1號","121.519546666667","24.9605916666667","6500600","新店區"
"235030","003-UY","2019/10/17 13:19:14","新北市中和區中山路二段120號","121.50262","25.0037983333333","6500300","中和區"
"235027","006-UY","2019/10/17 13:19:25","新北市中和區中正路589巷1號","121.485913333333","24.9944133333333","6500300","中和區"
"235020","096-UM","2019/10/17 13:19:23","新北市中和區連城路469巷31號","121.483601666667","24.9947983333333","6500300","中和區"
"235003","097-UM","2019/10/17 13:19:30","新北市中和區安平路59號","121.509656666667","24.9949533333333","6500300","中和區"
"235029","098-UM","2019/10/17 13:19:28","新北市中和區莊敬路49巷20弄18號","121.502543333333","25.0060083333333","6500300","中和區"
"235004","150-BY","2019/10/17 13:19:15","新北市中和區保健路50巷66號","121.509305","24.9951666666667","6500300","中和區"
"235022","151-BY","2019/10/17 13:19:20","新北市中和區圓通路369巷156弄2號","121.488125","24.9818766666667","6500300","中和區"
"235019","183-VK","2019/10/17 13:19:20","新北市中和區莒光路222-8號","121.469113333333","24.994815","6500300","中和區"
"235002","185-VK","2019/10/17 13:19:33","新北市中和區大智街109巷7號","121.523375","24.9926433333333","6500300","中和區"
"235031","255-BX","2019/10/17 13:19:13","新北市中和區員山路148巷46號","121.482536666667","24.9970683333333","6500300","中和區"
"235036","301-VK","2019/10/17 13:19:16","新北市中和區連城路263巷4弄2號","121.491533333333","24.9958766666667","6500300","中和區"
"235007","352-BY","2019/10/17 13:19:26","新北市中和區景平路381號","121.503878333333","24.9934183333333","6500300","中和區"
"235006","KEA-2878","2019/10/17 13:19:11","新北市中和區大智街57號","121.521123333333","24.9920716666667","6500300","中和區"
"235014","4979-A6","2019/10/17 13:19:14","新北市中和區捷運路61巷9號","121.50906","24.98939","6500300","中和區"
"235033","4980-A6","2019/10/17 13:19:09","新北市中和區中和路126號","121.503376666667","24.9997233333333","6500300","中和區"
"235034","558-UM","2019/10/17 13:19:25","新北市中和區景平路429-1號","121.5014","24.9954283333333","6500300","中和區"
"235009","565-BX","2019/10/17 13:19:18","新北市中和區復興路22號","121.505323333333","24.9899366666667","6500300","中和區"
"235024","KED-0823","2019/10/17 13:19:20","新北市中和區中山路二段582號","121.48264","25.005195","6500300","中和區"
"235011","732-UM","2019/10/17 13:19:17","新北市中和區復興路262-1號","121.503413333333","24.9903583333333","6500300","中和區"
"235035","783-BX","2019/10/17 13:19:15","新北市中和區中板路21號","121.484018333333","25.0116933333333","6500300","中和區"
"235021","801-TS","2019/10/17 13:19:23","新北市中和區民安街43號","121.479848333333","25.0003183333333","6500300","中和區"
"235005","802-TS","2019/10/17 13:19:27","新北市中和區中和路260-1號","121.508183333333","24.9994016666667","6500300","中和區"
"235016","805-TS","2019/10/17 13:19:21","新北市中和區興南路二段96號","121.50515","24.984275","6500300","中和區"
"235012","896-TW","2019/10/17 13:19:23","新北市中和區員山路36巷16-2號","121.485286666667","24.991575","6500300","中和區"
"235017","900-TW","2019/10/17 13:19:24","新北市中和區員山路36巷16-2號","121.48531","24.9914966666667","6500300","中和區"
"235028","911-UM","2019/10/17 13:19:19","新北市中和區圓通路143號","121.49892","24.995515","6500300","中和區"
"235015","157-BY","2019/10/17 13:19:30","新北市中和區信義街39號","121.511156666667","24.9890633333333","6500300","中和區"
"235001","AAC-213","2019/10/17 13:19:28","新北市中和區景德街74號","121.516725","24.9915166666667","6500300","中和區"
"235023","AAC-215","2019/10/17 13:19:17","新北市中和區員山路36巷16-3號","121.485013333333","24.99125","6500300","中和區"
"220013","072-UY","2019/10/17 13:19:33","新北市板橋區華東街1-10號","121.448733333333","24.9949083333333","6500100","板橋區"
"247013","056-VK","2019/10/17 13:19:11","新北市五股區中興路三段163號","121.449076666667","25.081015","6501400","蘆洲區"
"235013","251-BX","2019/10/17 13:19:17","新北市中和區中正路525號","121.488046666667","24.99358","6500300","中和區"
"228005","097-TW","2019/10/17 13:19:21","新北市貢寮區美豐里丹裡街38號","121.909171666667","25.060015","6502600","貢寮區"
"228004","212-TW","2019/10/17 13:19:01","新北市貢寮區吉林里內寮街23號","121.90193","24.9846783333333","6502600","貢寮區"
"253003","6232-TK","2019/10/17 13:19:18","新北市石門區石崩山20-3號","121.567213333333","25.2739466666667","6502200","石門區"
"253004","6251-TK","2019/10/17 13:19:16","新北市石門區竹子湖1號","121.615093333333","25.2643883333333","6502200","石門區"
"253002","637-UY","2019/10/17 13:19:22","新北市石門區大溪墘8號","121.551841666667","25.2749133333333","6502200","石門區"
"253001","KEC-0718","2019/10/17 13:19:25","新北市石門區楓林7號","121.537633333333","25.2943033333333","6502200","石門區"
"207002","749-BX","2019/10/17 13:09:24","","121.643556666667","25.1592933333333","6502800","萬里區"
"252005","073-UM","2019/10/17 13:19:25","新北市三芝區八賢里八連溪51-1號","121.515596666667","25.2339716666667","6502100","三芝區"
"207001","662-BX","2019/10/17 13:19:12","新北市萬里區龜吼里光宇大道2號","121.679805","25.1907733333333","6502800","萬里區"
"237014","760-BX","2019/10/17 13:19:13","新北市三峽區大同路152號","121.373271666667","24.9267083333333","6500900","三峽區"
"220030","610-BX","2019/10/17 13:19:29","新北市板橋區華東街1-10號","121.44826","24.9949466666667","6500100","板橋區"
"220029","287-VK","2019/10/17 13:19:19","新北市板橋區華東街1-10號","121.448228333333","24.9950433333333","6500100","板橋區"
"220028","568-UM","2019/10/17 13:19:16","新北市板橋區華東街1-9號","121.448171666667","24.9949833333333","6500100","板橋區"
"220025","687-BX","2019/10/17 13:19:31","新北市板橋區華東街1-10號","121.44833","24.9949283333333","6500100","板橋區"
"220021","985-R7","2019/10/17 13:19:14","新北市板橋區華東街1-10號","121.448323333333","24.9949766666667","6500100","板橋區"
"220046","AAC-210","2019/10/17 13:19:17","新北市板橋區民生路二段161巷9號","121.4702","25.019575","6500100","板橋區"
"220012","AAC-253","2019/10/17 13:19:26","新北市板橋區華東街1-10號","121.44838","24.9949683333333","6500100","板橋區"
"235032","KEA-2873","2019/10/17 13:19:17","新北市中和區和城路一段271巷1號","121.485446666667","24.9918916666667","6500300","中和區"
"235025","KEA-2875","2019/10/17 13:19:24","新北市中和區民享街95-4號","121.474948333333","25.0000066666667","6500300","中和區"
"235026","KEA-2876","2019/10/17 13:19:05","新北市中和區景平路999巷2號","121.495395","25.005975","6500300","中和區"
