"lineid","car","time","location","longitude","latitude","cityid","cityname"
"234078","298-R6","2019/10/17 14:29:22","新北市永和區永貞路68號","121.520473333333","25.0055016666667","6500400","永和區"
"234036","336-UY","2019/10/17 14:29:12","新北市永和區環河東路四段38號","121.528716666667","24.9989616666667","6500400","永和區"
"234084","338-UY","2019/10/17 14:29:33","新北市永和區光復街21號","121.516501666667","25.0173966666667","6500400","永和區"
"234068","552-UM","2019/10/17 14:29:23","新北市永和區永亨路7號","121.51945","25.00572","6500400","永和區"
"234062","553-UM","2019/10/17 14:29:14","新北市永和區中正路528號","121.517266666667","25.0050966666667","6500400","永和區"
"234015","745-BX","2019/10/17 14:29:28","新北市中和區環河西路三段123號","121.489601666667","25.0102566666667","6500400","永和區"
"234052","KEA-2590","2019/10/17 14:29:26","新北市永和區光復街31-1號","121.516413333333","25.0178866666667","6500400","永和區"
"234005","KED-0605","2019/10/17 14:29:13","新北市永和區中正路417號","121.51714","25.0047966666667","6500400","永和區"
"234060","AAD-866","2019/10/17 14:29:21","新北市永和區秀安街19號","121.516218333333","25.00372","6500400","永和區"
"234040","862-TW","2019/10/17 14:29:21","新北市永和區安樂路348號","121.51444","25.0064483333333","6500400","永和區"
"234048","863-TW","2019/10/17 14:29:30","新北市永和區新生路138巷1弄1號","121.50663","25.0143633333333","6500400","永和區"
"234025","9371-KE","2019/10/17 14:29:23","新北市永和區安樂路64號","121.514946666667","24.9982116666667","6500400","永和區"
"248013","025-BX","2019/10/17 14:29:14","新北市五股區工商路162號","121.433473333333","25.0878766666667","6501500","五股區"
"248015","026-BX","2019/10/17 14:29:29","新北市五股區成泰路四段22巷29-6號","121.455951666667","25.1086416666667","6501500","五股區"
"248007","KED-0815","2019/10/17 14:29:27","新北市五股區中興路二段63巷17號","121.460276666667","25.0753466666667","6501500","五股區"
"248017","KED-0813","2019/10/17 14:29:28","新北市五股區外寮路7-11號","121.423665","25.080095","6501500","五股區"
"248003","677-BX","2019/10/17 14:29:11","新北市五股區工商路127號","121.43574","25.0861616666667","6501500","五股區"
"248001","678-BX","2019/10/17 14:29:14","新北市五股區成泰路三段436號","121.450981666667","25.0996716666667","6501500","五股區"
"248011","682-TV","2019/10/17 14:29:26","新北市五股區蓬萊路4號","121.435561666667","25.0795","6501500","五股區"
"234072","AAC-211","2019/10/17 14:29:20","新北市永和區環河東路一段126號","121.520766666667","25.0154","6500400","永和區"
"234001","AAC-295","2019/10/17 14:29:19","新北市永和區大新街6號","121.51457","25.0085666666667","6500400","永和區"
"244003","657-BX","2019/10/17 14:29:17","新北市林口區瑞平里33-1號","121.348463333333","25.128725","6501700","林口區"
"243004","AAD-798","2019/10/17 14:29:29","新北市泰山區明志路一段501巷19號","121.431411666667","25.054575","6501600","泰山區"
"243002","297-R6","2019/10/17 14:16:43","新北市泰山區明志路二段32巷2-1號","121.429381666667","25.053565","6501600","泰山區"
"243006","KEA-2801","2019/10/17 14:29:24","新北市泰山區中港西路442號","121.433913333333","25.05362","6501600","泰山區"
"243008","421-VK","2019/10/17 14:29:20","新北市泰山區中山路三段71號","121.418515","25.0320916666667","6501600","泰山區"
"243001","KEA-2215","2019/10/17 14:29:27","新北市五股區成泰路一段7巷12號","121.433241666667","25.0667716666667","6501600","泰山區"
"243003","KEA-2216","2019/10/17 14:29:29","新北市泰山區貴子路67巷10號","121.431033333333","25.040705","6501600","泰山區"
"243005","646-TV","2019/10/17 14:29:28","新北市泰山區民國街40號","121.425825","25.0433883333333","6501600","泰山區"
"243007","680-BX","2019/10/17 14:29:23","新北市泰山區民權街21號","121.42857","25.0507533333333","6501600","泰山區"
"231030","002-UM","2019/10/17 14:29:29","新北市新店區安民街74號","121.516598333333","24.96685","6500600","新店區"
"231027","0293-UT","2019/10/17 14:29:09","新北市新店區北新路一段96巷29號","121.543085","24.969155","6500600","新店區"
"231005","046-UY","2019/10/17 14:29:26","新北市新店區中興路三段133號","121.544693333333","24.979675","6500600","新店區"
"231029","106-UY","2019/10/17 14:29:25","新北市新店區安康路二段382號","121.500526666667","24.95704","6500600","新店區"
"231018","107-UY","2019/10/17 14:29:12","新北市新店區中央三街84號","121.525806666667","24.9755033333333","6500600","新店區"
"231013","108-UY","2019/10/17 14:29:24","新北市新店區民權路108-4號","121.536051666667","24.9833833333333","6500600","新店區"
"231036","110-UY","2019/10/17 14:29:29","新北市新店區安祥路106巷8弄1號","121.478808333333","24.962655","6500600","新店區"
"231068","187-VK","2019/10/17 14:24:49","新北市新店區安一路一段1-1號","121.519633333333","24.9611333333333","6500600","新店區"
"231031","256-BX","2019/10/17 14:29:20","新北市新店區安業街231-2號","121.525441666667","24.9702683333333","6500600","新店區"
"231023","260-TV","2019/10/17 14:29:30","新北市新店區光明街185號","121.539973333333","24.96321","6500600","新店區"
"231003","268-BY","2019/10/17 14:29:24","新北市新店區中興路一段268-3號","121.545331666667","24.9678466666667","6500600","新店區"
"231035","278-BY","2019/10/17 14:29:28","新北市新店區安民街12號","121.515308333333","24.9643283333333","6500600","新店區"
"231017","AAD-862","2019/10/17 14:29:27","新北市新店區北宜路三段100號","121.578835","24.95096","6500600","新店區"
"231006","355-BY","2019/10/17 14:29:30","新北市新店區北宜路二段521號","121.563558333333","24.9535216666667","6500600","新店區"
"231038","3712-VJ","2019/10/17 14:29:12","新北市新店區溪洲路143號","121.52872","24.9638133333333","6500600","新店區"
"231021","513-UM","2019/10/17 14:29:10","新北市新店區新烏路三段69號","121.555231666667","24.9038133333333","6500600","新店區"
"231034","616-UM","2019/10/17 14:29:23","新北市新店區車子路11號","121.503096666667","24.9520716666667","6500600","新店區"
"231002","619-UM","2019/10/17 14:29:26","新北市新店區中央路31號","121.533035","24.97789","6500600","新店區"
"231011","KED-0819","2019/10/17 14:29:24","新北市新店區寶興路65巷1號","121.5509","24.971735","6500600","新店區"
"231028","897-TW","2019/10/17 14:29:18","新北市新店區安和路二段18號","121.518076666667","24.967475","6500600","新店區"
"231001","898-TW","2019/10/17 14:29:26","新北市新店區中正路75巷71號","121.543133333333","24.9688383333333","6500600","新店區"
"231004","899-TW","2019/10/17 14:29:13","新北市新店區中正路263-3號","121.538366666667","24.9738116666667","6500600","新店區"
"231037","AKT-0513","2019/10/17 14:29:15","新北市新店區車子路10-2號","121.504666666667","24.9546883333333","6500600","新店區"
"235030","003-UY","2019/10/17 14:29:14","新北市中和區景新街32號","121.503233333333","24.99935","6500300","中和區"
"235027","006-UY","2019/10/17 14:29:25","新北市中和區連城路171巷41弄1號","121.496443333333","24.99672","6500300","中和區"
"235020","096-UM","2019/10/17 14:29:23","新北市中和區員山路581巷31弄22號","121.476701666667","25.010435","6500300","中和區"
"235003","097-UM","2019/10/17 14:29:10","新北市中和區景德街1號","121.519131666667","24.9913566666667","6500300","中和區"
"235029","098-UM","2019/10/17 14:29:28","新北市中和區莊敬路7號","121.4998","25.004455","6500300","中和區"
"235004","150-BY","2019/10/17 14:29:15","新北市中和區安樂路77號","121.51268","24.9942933333333","6500300","中和區"
"235022","151-BY","2019/10/17 14:29:20","新北市中和區員山路132巷15號","121.482068333333","24.996355","6500300","中和區"
"235019","183-VK","2019/10/17 14:29:20","新北市中和區德光路13號","121.471153333333","25.004395","6500300","中和區"
"235002","185-VK","2019/10/17 14:29:13","新北市中和區自立路103號","121.522041666667","24.994725","6500300","中和區"
"235031","255-BX","2019/10/17 14:29:13","新北市中和區新生街283號","121.483791666667","24.99765","6500300","中和區"
"235008","293-VK","2019/10/17 14:29:13","新北市中和區捷運路155號","121.506496666667","24.9910633333333","6500300","中和區"
"235036","301-VK","2019/10/17 14:29:16","新北市中和區莊敬路33巷18號","121.500221666667","25.00539","6500300","中和區"
"235007","352-BY","2019/10/17 14:29:26","新北市中和區景平路416號","121.508086666667","24.9931766666667","6500300","中和區"
"235006","KEA-2878","2019/10/17 14:29:11","新北市中和區中和路262巷43弄3號","121.509616666667","24.999485","6500300","中和區"
"247015","KEA-2869","2019/10/17 14:29:21","新北市蘆洲區中正路243巷19號","121.466443333333","25.0852183333333","6501400","蘆洲區"
"247009","KED-0682","2019/10/17 14:29:28","新北市蘆洲區鷺江街31號","121.478651666667","25.0824033333333","6501400","蘆洲區"
"235033","4980-A6","2019/10/17 14:29:09","新北市中和區連城路134巷14-1號","121.49555","24.9995983333333","6500300","中和區"
"235034","558-UM","2019/10/17 14:29:29","新北市中和區連勝街37號","121.49837","24.9977266666667","6500300","中和區"
"235009","565-BX","2019/10/17 14:29:18","新北市中和區景平路342號","121.511583333333","24.992865","6500300","中和區"
"235024","KED-0823","2019/10/17 14:29:20","新北市中和區員山路388號","121.480646666667","25.0043983333333","6500300","中和區"
"235018","640-BX","2019/10/17 14:29:28","新北市中和區莒光路99號","121.472421666667","25.002965","6500300","中和區"
"235011","732-UM","2019/10/17 14:29:17","新北市中和區景平路259巷14號","121.507976666667","24.9926916666667","6500300","中和區"
"235010","733-UM","2019/10/17 14:29:12","新北市中和區忠孝街37巷52號","121.51113","24.984895","6500300","中和區"
"235035","783-BX","2019/10/17 14:29:15","新北市中和區連城路316號","121.48351","24.9960783333333","6500300","中和區"
"235021","801-TS","2019/10/17 14:29:23","新北市中和區員山路154號","121.48142","24.999045","6500300","中和區"
"235005","802-TS","2019/10/17 14:29:27","新北市中和區宜安路159號","121.508855","24.9988066666667","6500300","中和區"
"235016","805-TS","2019/10/17 14:29:21","新北市中和區華新街143巷46號","121.506258333333","24.97992","6500300","中和區"
"235012","896-TW","2019/10/17 14:29:23","新北市中和區忠孝街106巷4號","121.512141666667","24.9844216666667","6500300","中和區"
"235017","900-TW","2019/10/17 14:29:23","新北市中和區民德路197號","121.468973333333","24.9982366666667","6500300","中和區"
"235028","911-UM","2019/10/17 14:29:19","新北市中和區南山路28號","121.50196","24.9979516666667","6500300","中和區"
"235015","157-BY","2019/10/17 14:29:15","新北市中和區南山路146巷1號","121.503958333333","24.992245","6500300","中和區"
"235001","AAC-213","2019/10/17 14:29:28","新北市中和區秀朗路三段99號","121.526601666667","24.9949166666667","6500300","中和區"
"235023","AAC-215","2019/10/17 14:29:17","新北市中和區圓通路252巷3號","121.493455","24.991255","6500300","中和區"
"220013","072-UY","2019/10/17 14:29:13","新北市板橋區國泰街75巷25號","121.467835","25.00568","6500100","板橋區"
"220034","073-UY","2019/10/17 14:29:25","新北市板橋區中正路216巷12號","121.45644","25.0184316666667","6500100","板橋區"
"220105","075-UY","2019/10/17 14:29:21","新北市板橋區雙十路三段10巷1弄40號","121.471421666667","25.0317966666667","6500100","板橋區"
"220017","AAD-861","2019/10/17 14:29:19","新北市板橋區貴興路106巷5號","121.455305","25.0026583333333","6500100","板橋區"
"247005","893-R6","2019/10/17 14:29:29","新北市蘆洲區永安南路二段226號","121.460811666667","25.07927","6501400","蘆洲區"
"247019","500-BY","2019/10/17 14:29:26","新北市蘆洲區水湳街257號","121.469496666667","25.0924116666667","6501400","蘆洲區"
"247003","341-TH","2019/10/17 14:29:17","新北市蘆洲區長安街218號","121.45846","25.0846333333333","6501400","蘆洲區"
"247011","337-TH","2019/10/17 14:29:31","新北市蘆洲區集賢路224巷37弄10-1號","121.480658333333","25.08816","6501400","蘆洲區"
"247023","057-VK","2019/10/17 14:29:22","新北市蘆洲區中正路263巷2號","121.467236666667","25.08753","6501400","蘆洲區"
"247013","056-VK","2019/10/17 14:29:11","新北市蘆洲區中山二路150號","121.471181666667","25.0812616666667","6501400","蘆洲區"
"247017","053-VK","2019/10/17 14:29:28","新北市蘆洲區民族路300號","121.477635","25.08986","6501400","蘆洲區"
"247021","007-UY","2019/10/17 14:29:25","新北市蘆洲區三民路128巷47號","121.469776666667","25.0898533333333","6501400","蘆洲區"
"247007","002-UY","2019/10/17 14:29:16","新北市蘆洲區信義路74號","121.476413333333","25.07935","6501400","蘆洲區"
"247001","001-UY","2019/10/17 14:29:20","新北市蘆洲區環堤大道170號","121.456235","25.0898533333333","6501400","蘆洲區"
"235013","251-BX","2019/10/17 14:29:17","新北市中和區景新街273巷32號","121.510761666667","24.9940316666667","6500300","中和區"
"228004","212-TW","2019/10/17 14:29:21","新北市貢寮區雙玉里田寮洋街33號","121.932516666667","25.0130716666667","6502600","貢寮區"
"253003","6232-TK","2019/10/17 14:29:18","新北市石門區尖子鹿87號","121.57891","25.2919433333333","6502200","石門區"
"253004","6251-TK","2019/10/17 14:29:16","新北市石門區內阿里磅25號","121.592008333333","25.245565","6502200","石門區"
"253002","637-UY","2019/10/17 14:29:22","新北市石門區七股5號","121.547466666667","25.2697733333333","6502200","石門區"
"253001","KEC-0718","2019/10/17 14:29:25","新北市石門區崁子腳78-2號","121.529885","25.2811666666667","6502200","石門區"
"207002","749-BX","2019/10/17 14:29:24","新北市萬里區崁腳里內崁路2號","121.637948333333","25.1612866666667","6502800","萬里區"
"252005","073-UM","2019/10/17 14:29:25","新北市三芝區橫山里橫山13-1號","121.537641666667","25.2627333333333","6502100","三芝區"
"207001","662-BX","2019/10/17 14:29:32","新北市萬里區磺潭里清水9號","121.640441666667","25.1998933333333","6502800","萬里區"
"237014","760-BX","2019/10/17 14:29:13","新北市三峽區中山路459巷135號","121.348846666667","24.9330816666667","6500900","三峽區"
"236040","KED-0685","2019/10/17 14:29:26","新北市土城區學成路91巷12號","121.450555","24.9879833333333","6501300","土城區"
"236074","166-UM","2019/10/17 14:29:31","新北市土城區大暖路57號","121.422333333333","24.958545","6501300","土城區"
"236029","253-BX","2019/10/17 14:29:28","新北市土城區福仁街10號","121.440173333333","24.97622","6501300","土城區"
"236024","269-VK","2019/10/17 14:29:26","新北市土城區承天路69號","121.439816666667","24.9633283333333","6501300","土城區"
"236012","270-VK","2019/10/17 14:29:18","新北市土城區青雲路39巷7號","121.460406666667","24.987575","6501300","土城區"
"236032","271-VK","2019/10/17 14:29:28","新北市土城區明德路一段311號","121.45949","24.9771583333333","6501300","土城區"
"236068","KEA-2877","2019/10/17 14:29:13","新北市土城區永豐路211-2號","121.474573333333","24.976395","6501300","土城區"
"236017","401-BY","2019/10/17 14:29:26","新北市土城區永豐路143號","121.46659","24.9834283333333","6501300","土城區"
"236060","752-BX","2019/10/17 14:29:28","新北市土城區延壽路1-9號","121.46922","24.993915","6501300","土城區"
"236057","912-UM","2019/10/17 14:29:15","新北市土城區中央路四段91號","121.416923333333","24.958035","6501300","土城區"
"236045","913-UM","2019/10/17 14:29:16","新北市土城區青雲路457號","121.458656666667","24.9744483333333","6501300","土城區"
"236054","AAC-216","2019/10/17 14:29:25","新北市土城區中華路一段245號","121.440993333333","24.9818033333333","6501300","土城區"
"220027","145-BY","2019/10/17 14:29:16","新北市板橋區公館街94-1號","121.461356666667","25.0166066666667","6500100","板橋區"
"220030","610-BX","2019/10/17 14:29:29","新北市板橋區溪城路97號","121.427131666667","24.9826466666667","6500100","板橋區"
"220004","276-BY","2019/10/17 14:29:23","新北市板橋區和平路4-1號","121.458205","24.9943516666667","6500100","板橋區"
"220020","277-BY","2019/10/17 14:29:28","新北市板橋區金門街222號","121.430998333333","24.9880183333333","6500100","板橋區"
"220043","283-UM","2019/10/17 14:29:31","新北市板橋區銘傳街41號","121.468786666667","25.0312666666667","6500100","板橋區"
"220019","283-VK","2019/10/17 14:29:28","新北市板橋區忠孝路48巷9弄1號","121.46121","25.0000833333333","6500100","板橋區"
"220050","285-UM","2019/10/17 14:29:21","新北市板橋區莊敬路220巷29弄3號","121.472796666667","25.0204733333333","6500100","板橋區"
"220031","286-VK","2019/10/17 14:29:29","新北市板橋區龍興街71巷46號","121.441876666667","25.0026983333333","6500100","板橋區"
"220029","287-VK","2019/10/17 14:29:19","新北市板橋區大觀路一段75巷43號","121.449073333333","25.0041","6500100","板橋區"
"220039","288-VK","2019/10/17 14:29:23","新北市板橋區裕民街134號","121.458678333333","25.0272166666667","6500100","板橋區"
"220009","293-UM","2019/10/17 14:29:18","新北市板橋區板新路238號","121.468175","25.0161083333333","6500100","板橋區"
"220001","295-UM","2019/10/17 14:29:18","新北市板橋區永豐街116號","121.476218333333","25.0207916666667","6500100","板橋區"
"220032","296-UM","2019/10/17 14:29:32","新北市板橋區篤行路三段玉平巷95號","121.428016666667","24.9854816666667","6500100","板橋區"
"220023","303-R5","2019/10/17 14:29:15","新北市板橋區南雅西路一段122號","121.452476666667","25.0064683333333","6500100","板橋區"
"220010","305-R5","2019/10/17 14:29:22","新北市板橋區三民路二段181巷1號","121.479626666667","25.0143933333333","6500100","板橋區"
"220041","307-R5","2019/10/17 14:29:14","新北市板橋區陽明街164巷21號","121.464365","25.0245633333333","6500100","板橋區"
"220047","317-R6","2019/10/17 14:29:31","新北市板橋區四維路266巷2弄20號","121.463946666667","25.0280966666667","6500100","板橋區"
"220038","487-VK","2019/10/17 14:29:28","新北市板橋區英士路51巷1號","121.460895","25.0244433333333","6500100","板橋區"
"220037","491-VK","2019/10/17 14:29:27","新北市板橋區雙十路二段26號","121.476218333333","25.0270483333333","6500100","板橋區"
"220104","560-BX","2019/10/17 14:29:21","新北市板橋區中正路433巷1號","121.45414","25.023205","6500100","板橋區"
"220052","561-BX","2019/10/17 14:29:28","新北市板橋區陽明街29巷10號","121.464853333333","25.021945","6500100","板橋區"
"220028","568-UM","2019/10/17 14:29:16","新北市板橋區大觀路二段37巷166號","121.449383333333","25.00162","6500100","板橋區"
"220011","609-BX","2019/10/17 14:29:25","新北市板橋區三民路二段247號","121.479031666667","25.0124383333333","6500100","板橋區"
"220040","637-BX","2019/10/17 14:29:16","新北市板橋區懷德街201巷1號","121.480801666667","25.0292883333333","6500100","板橋區"
"220005","686-BX","2019/10/17 14:29:24","新北市板橋區和平路101巷27號","121.461948333333","24.995535","6500100","板橋區"
"220025","687-BX","2019/10/17 14:29:11","新北市板橋區大觀路二段91號","121.446341666667","25.00195","6500100","板橋區"
"220042","689-BX","2019/10/17 14:29:12","新北市板橋區新海路405號","121.458458333333","25.02682","6500100","板橋區"
"220002","741-BX","2019/10/17 14:29:23","新北市板橋區光明街92號","121.462085","25.0026733333333","6500100","板橋區"
"220051","KEA-2699","2019/10/17 14:29:20","新北市板橋區松柏街36巷19號","121.47542","25.0296366666667","6500100","板橋區"
"220003","827-TW","2019/10/17 14:29:18","新北市板橋區忠孝路120號","121.463005","25.0022733333333","6500100","板橋區"
"220014","829-TW","2019/10/17 14:29:29","新北市板橋區長安街138巷7弄10號","121.473458333333","25.008365","6500100","板橋區"
"220016","831-TW","2019/10/17 14:29:24","新北市板橋區萬安街10號","121.484715","25.0225283333333","6500100","板橋區"
"220022","895-R6","2019/10/17 14:29:22","新北市板橋區北門街25號","121.456611666667","25.0110866666667","6500100","板橋區"
"220021","985-R7","2019/10/17 14:29:14","新北市板橋區中正路370號","121.45474","25.0243","6500100","板橋區"
"220046","AAC-210","2019/10/17 14:29:16","新北市板橋區文化路一段285巷2弄32號","121.463976666667","25.0197216666667","6500100","板橋區"
"220012","AAC-253","2019/10/17 14:29:26","新北市板橋區中山路一段48號","121.460915","25.009065","6500100","板橋區"
"235032","KEA-2873","2019/10/17 14:29:17","新北市中和區福美路230號","121.499153333333","25.005305","6500300","中和區"
"235025","KEA-2875","2019/10/17 14:29:24","新北市中和區民安街24號","121.480353333333","25.0008416666667","6500300","中和區"
"235026","KEA-2876","2019/10/17 14:29:05","新北市中和區建三路27號","121.486166666667","25.00235","6500300","中和區"
