"lineid","car","time","location","longitude","latitude","cityid","cityname"
"234062","553-UM","2019/10/17 14:39:14","新北市永和區保生路55-6號","121.503481666667","25.0122783333333","6500400","永和區"
"234015","745-BX","2019/10/17 14:39:28","新北市五股區中興路三段2巷10號","121.448153333333","25.0834283333333","6500400","永和區"
"234040","862-TW","2019/10/17 14:39:21","新北市永和區永和路二段170號","121.515358333333","25.0131783333333","6500400","永和區"
"234025","9371-KE","2019/10/17 14:39:23","新北市永和區中和路501巷5號","121.510435","25.0026983333333","6500400","永和區"
"248013","025-BX","2019/10/17 14:39:14","新北市五股區五福路34號","121.434006666667","25.08916","6501500","五股區"
"248015","026-BX","2019/10/17 14:39:09","新北市五股區成泰路三段577巷80弄7號","121.449493333333","25.1043033333333","6501500","五股區"
"248007","KED-0815","2019/10/17 14:39:27","新北市五股區中興路二段83巷26-6號","121.459563333333","25.0751833333333","6501500","五股區"
"248017","KED-0813","2019/10/17 14:39:28","新北市五股區外寮路13-1號","121.4249","25.0812133333333","6501500","五股區"
"248009","272-BY","2019/10/17 14:39:20","新北市五股區登林路88-2號","121.429226666667","25.0696033333333","6501500","五股區"
"248003","677-BX","2019/10/17 14:39:31","新北市五股區成泰路一段219-1號","121.43532","25.07726","6501500","五股區"
"248001","678-BX","2019/10/17 14:39:11","新北市五股區成泰路三段369-1號","121.448886666667","25.0960416666667","6501500","五股區"
"248011","682-TV","2019/10/17 14:39:26","新北市五股區民義路一段113號","121.433716666667","25.0867633333333","6501500","五股區"
"234072","AAC-211","2019/10/17 14:39:20","新北市永和區環河東路二段8號","121.522088333333","25.0134433333333","6500400","永和區"
"234001","AAC-295","2019/10/17 14:39:19","新北市永和區中正路620號","121.517128333333","25.0078183333333","6500400","永和區"
"244003","657-BX","2019/10/17 14:39:16","新北市林口區瑞平里33-1號","121.348496666667","25.1285866666667","6501700","林口區"
"243004","AAD-798","2019/10/17 14:39:29","新北市泰山區仁愛路94號","121.433276666667","25.05529","6501600","泰山區"
"243002","297-R6","2019/10/17 14:35:03","新北市泰山區中華街18巷1號","121.427285","25.0518816666667","6501600","泰山區"
"243006","KEA-2801","2019/10/17 14:39:24","新北市泰山區泰林路二段135號","121.434115","25.0599166666667","6501600","泰山區"
"243008","421-VK","2019/10/17 14:39:21","新北市泰山區新北大道六段323號","121.423451666667","25.0336516666667","6501600","泰山區"
"243001","KEA-2215","2019/10/17 14:39:26","新北市泰山區楓江路16巷11號","121.433935","25.061895","6501600","泰山區"
"243003","KEA-2216","2019/10/17 14:39:29","新北市泰山區明志路三段204巷10弄20號","121.422973333333","25.03881","6501600","泰山區"
"231030","002-UM","2019/10/17 14:39:29","新北市新店區安民街131號","121.5164","24.9691016666667","6500600","新店區"
"231027","0293-UT","2019/10/17 14:39:29","新北市新店區德正街17巷2號","121.54365","24.9728283333333","6500600","新店區"
"231005","046-UY","2019/10/17 14:39:26","新北市新店區北新路三段195號","121.540915","24.9844733333333","6500600","新店區"
"231029","106-UY","2019/10/17 14:39:25","新北市新店區安康路三段108號","121.491461666667","24.9518383333333","6500600","新店區"
"231018","107-UY","2019/10/17 14:39:32","新北市新店區中央二街5巷2號","121.528945","24.9729566666667","6500600","新店區"
"231013","108-UY","2019/10/17 14:39:24","新北市新店區明德路38號","121.541418333333","24.9778816666667","6500600","新店區"
"231036","110-UY","2019/10/17 14:39:29","新北市新店區安祥路106巷66號","121.475323333333","24.9606183333333","6500600","新店區"
"231068","187-VK","2019/10/17 14:24:49","新北市新店區安一路一段1-1號","121.519633333333","24.9611333333333","6500600","新店區"
"231031","256-BX","2019/10/17 14:39:20","新北市新店區安德街148巷31號","121.506138333333","24.9606016666667","6500600","新店區"
"231023","260-TV","2019/10/17 14:39:30","新北市新店區檳榔路55號","121.543218333333","24.9628283333333","6500600","新店區"
"231003","268-BY","2019/10/17 14:39:24","新北市新店區中興路一段292號","121.545893333333","24.9692066666667","6500600","新店區"
"231035","278-BY","2019/10/17 14:39:28","新北市新店區安德街20號","121.512316666667","24.9631866666667","6500600","新店區"
"231017","AAD-862","2019/10/17 14:39:27","新北市新店區北宜路三段221號","121.592485","24.9529816666667","6500600","新店區"
"231006","355-BY","2019/10/17 14:39:30","新北市新店區北宜路二段271號","121.55478","24.95357","6500600","新店區"
"231038","3712-VJ","2019/10/17 14:39:32","新北市新店區安華路28-1號","121.519791666667","24.9608716666667","6500600","新店區"
"231024","4716-K9","2019/10/17 14:39:28","新北市新店區中華路83巷45號","121.53864","24.9676283333333","6500600","新店區"
"231025","4715-K9","2019/10/17 14:39:18","新北市新店區中央二街56號","121.526693333333","24.974035","6500600","新店區"
"231021","513-UM","2019/10/17 14:39:10","新北市新店區桂山路51巷6-1號","121.561931666667","24.9015483333333","6500600","新店區"
"231034","616-UM","2019/10/17 14:39:23","新北市新店區黎明路53巷1號","121.50227","24.9487816666667","6500600","新店區"
"231002","619-UM","2019/10/17 14:39:26","新北市新店區中正路468-3號","121.533921666667","24.98038","6500600","新店區"
"231011","KED-0819","2019/10/17 14:39:24","新北市新店區寶宏路38號","121.549438333333","24.975515","6500600","新店區"
"231028","897-TW","2019/10/17 14:39:18","新北市新店區安德街81號","121.50974","24.9610766666667","6500600","新店區"
"231001","898-TW","2019/10/17 14:39:25","新北市新店區中正路59號","121.544283333333","24.9700183333333","6500600","新店區"
"231004","899-TW","2019/10/17 14:39:13","新北市新店區中正路287號","121.53738","24.9744733333333","6500600","新店區"
"231037","AKT-0513","2019/10/17 14:39:15","新北市新店區安康路二段320巷6號","121.5044","24.958925","6500600","新店區"
"235030","003-UY","2019/10/17 14:39:14","新北市中和區景新街164號","121.505821666667","24.9970933333333","6500300","中和區"
"235027","006-UY","2019/10/17 14:39:25","新北市中和區連城路263巷7弄1號","121.492203333333","24.9958316666667","6500300","中和區"
"235020","096-UM","2019/10/17 14:39:23","新北市中和區中山路三段47號","121.476955","25.00579","6500300","中和區"
"235003","097-UM","2019/10/17 14:39:10","新北市中和區安平路186號","121.51306","24.9989983333333","6500300","中和區"
"235029","098-UM","2019/10/17 14:39:28","新北市中和區福美路230號","121.499058333333","25.0052866666667","6500300","中和區"
"235004","150-BY","2019/10/17 14:39:15","新北市中和區宜安路17號","121.513045","24.99563","6500300","中和區"
"235022","151-BY","2019/10/17 14:39:20","新北市中和區員山路150巷5-2號","121.481728333333","24.9983433333333","6500300","中和區"
"235019","183-VK","2019/10/17 14:39:20","新北市中和區民生街85巷1弄2號","121.468993333333","25.0045583333333","6500300","中和區"
"235002","185-VK","2019/10/17 14:39:13","新北市中和區自強路27巷22號","121.521683333333","24.9932683333333","6500300","中和區"
"235031","255-BX","2019/10/17 14:39:13","新北市中和區新生街186巷1弄1號","121.483438333333","24.9996416666667","6500300","中和區"
"235008","293-VK","2019/10/17 14:39:33","新北市中和區南山路282號","121.507941666667","24.987775","6500300","中和區"
"235036","301-VK","2019/10/17 14:39:16","新北市中和區中和路74號","121.50085","25.000165","6500300","中和區"
"235007","352-BY","2019/10/17 14:39:26","新北市中和區景新街149號","121.506473333333","24.9965533333333","6500300","中和區"
"235006","KEA-2878","2019/10/17 14:39:11","新北市中和區保健路2巷8號","121.507585","24.99802","6500300","中和區"
"247015","KEA-2869","2019/10/17 14:39:21","新北市蘆洲區正和街31號","121.469696666667","25.0819083333333","6501400","蘆洲區"
"247009","KED-0682","2019/10/17 14:39:28","新北市蘆洲區信義路222巷41號","121.480356666667","25.0855416666667","6501400","蘆洲區"
"235034","558-UM","2019/10/17 14:39:29","新北市中和區連勝街39號","121.498316666667","24.9976033333333","6500300","中和區"
"235018","640-BX","2019/10/17 14:39:25","新北市中和區莒光路211號","121.469503333333","24.9952216666667","6500300","中和區"
"235011","732-UM","2019/10/17 14:39:22","新北市中和區南山路281號","121.50426","24.9923883333333","6500300","中和區"
"235010","733-UM","2019/10/17 14:39:31","新北市中和區景新街496巷22號","121.513403333333","24.9861733333333","6500300","中和區"
"235035","783-BX","2019/10/17 14:39:31","新北市中和區連城路467-6號","121.483633333333","24.99595","6500300","中和區"
"235005","802-TS","2019/10/17 14:39:27","新北市中和區中和路252巷3號","121.507745","24.9992266666667","6500300","中和區"
"235016","805-TS","2019/10/17 14:39:21","新北市中和區華新街206巷1號","121.506508333333","24.9820666666667","6500300","中和區"
"235012","896-TW","2019/10/17 14:39:23","新北市中和區景新街508號","121.514143333333","24.98686","6500300","中和區"
"235017","900-TW","2019/10/17 14:39:23","新北市中和區民德路146巷7弄1號","121.467745","25.000445","6500300","中和區"
"235015","157-BY","2019/10/17 14:39:30","新北市中和區中興街125巷2號","121.500133333333","24.9917383333333","6500300","中和區"
"235001","AAC-213","2019/10/17 14:39:28","新北市中和區秀朗路三段173號","121.524485","24.991575","6500300","中和區"
"235023","AAC-215","2019/10/17 14:39:17","新北市中和區圓通路268-2號","121.492471666667","24.9907716666667","6500300","中和區"
"220013","072-UY","2019/10/17 14:39:32","新北市板橋區國泰街111巷1號","121.465846666667","25.006375","6500100","板橋區"
"220034","073-UY","2019/10/17 14:39:25","新北市板橋區中正路216巷133號","121.460641666667","25.019745","6500100","板橋區"
"220105","075-UY","2019/10/17 14:39:21","新北市板橋區文化路二段650巷1號","121.478505","25.03558","6500100","板橋區"
"220017","AAD-861","2019/10/17 14:39:19","新北市板橋區貴興路119巷4號","121.455655","25.0022316666667","6500100","板橋區"
"247005","893-R6","2019/10/17 14:39:29","新北市蘆洲區長安街46巷7弄12號","121.463461666667","25.0806716666667","6501400","蘆洲區"
"247003","341-TH","2019/10/17 14:39:17","新北市蘆洲區長安街285巷26號","121.456916666667","25.0839066666667","6501400","蘆洲區"
"247011","337-TH","2019/10/17 14:39:31","新北市蘆洲區中興街50號","121.481521666667","25.0873466666667","6501400","蘆洲區"
"247023","057-VK","2019/10/17 14:39:22","新北市蘆洲區中山二路222巷11號","121.469451666667","25.0801883333333","6501400","蘆洲區"
"247013","056-VK","2019/10/17 14:39:31","新北市蘆洲區成功路104號","121.472481666667","25.0821916666667","6501400","蘆洲區"
"247021","007-UY","2019/10/17 14:39:25","新北市蘆洲區三民路300巷2-2號","121.466435","25.09088","6501400","蘆洲區"
"247007","002-UY","2019/10/17 14:39:15","新北市蘆洲區中山一路265號","121.47259","25.0801083333333","6501400","蘆洲區"
"247001","001-UY","2019/10/17 14:39:20","新北市蘆洲區永樂街38巷24號","121.458413333333","25.089305","6501400","蘆洲區"
"235013","251-BX","2019/10/17 14:39:17","新北市中和區景平路385號","121.503033333333","24.9940316666667","6500300","中和區"
"228004","212-TW","2019/10/17 14:39:21","新北市貢寮區福隆里龜壽谷街30-1號","121.947068333333","25.013165","6502600","貢寮區"
"253003","6232-TK","2019/10/17 14:39:18","新北市石門區尖子鹿116-6號","121.575426666667","25.2960133333333","6502200","石門區"
"253004","6251-TK","2019/10/17 14:39:16","新北市石門區內阿里磅50號","121.58016","25.244725","6502200","石門區"
"253002","637-UY","2019/10/17 14:34:01","新北市三芝區橫山里橫山39-7號","121.545776666667","25.2545683333333","6502200","石門區"
"253001","KEC-0718","2019/10/17 14:39:25","新北市石門區崁子腳90-1號","121.537061666667","25.2703566666667","6502200","石門區"
"207002","749-BX","2019/10/17 14:36:44","新北市萬里區崁腳里崁腳路73號","121.647613333333","25.1595666666667","6502800","萬里區"
"252005","073-UM","2019/10/17 14:39:25","新北市三芝區橫山里大坑12號","121.521746666667","25.25687","6502100","三芝區"
"207001","662-BX","2019/10/17 14:39:12","新北市萬里區磺潭里員潭路59號","121.64342","25.190515","6502800","萬里區"
"237014","760-BX","2019/10/17 14:29:49","新北市三峽區中山路459巷135號","121.348863333333","24.93309","6500900","三峽區"
"236040","KED-0685","2019/10/17 14:39:26","新北市土城區裕民路56號","121.448798333333","24.98796","6501300","土城區"
"236074","166-UM","2019/10/17 14:39:23","新北市土城區頂埔街48-1號","121.417586666667","24.9594166666667","6501300","土城區"
"236029","253-BX","2019/10/17 14:39:28","新北市土城區中華路二段92號","121.438261666667","24.9745433333333","6501300","土城區"
"236024","269-VK","2019/10/17 14:39:27","新北市土城區忠義路47號","121.440471666667","24.9693366666667","6501300","土城區"
"236012","270-VK","2019/10/17 14:39:18","新北市土城區清水路202號","121.460541666667","24.9819283333333","6501300","土城區"
"236032","271-VK","2019/10/17 14:39:28","新北市土城區明德路一段232號","121.460505","24.9774216666667","6501300","土城區"
"236068","KEA-2877","2019/10/17 14:39:25","新北市土城區永豐路209號","121.473803333333","24.9771816666667","6501300","土城區"
"236017","401-BY","2019/10/17 14:39:26","新北市土城區延吉街255號","121.467386666667","24.98484","6501300","土城區"
"236060","752-BX","2019/10/17 14:39:28","新北市土城區延壽路13巷7號","121.470858333333","24.9904533333333","6501300","土城區"
"236057","912-UM","2019/10/17 14:39:31","新北市土城區中央路三段212號","121.429493333333","24.964555","6501300","土城區"
"236045","913-UM","2019/10/17 14:39:16","新北市土城區明德路一段12號","121.464935","24.98516","6501300","土城區"
"236054","AAC-216","2019/10/17 14:39:25","新北市土城區裕民路26號","121.447758333333","24.9886","6501300","土城區"
"220027","145-BY","2019/10/17 14:39:16","新北市板橋區民權路260巷1號","121.458058333333","25.0154066666667","6500100","板橋區"
"220030","610-BX","2019/10/17 14:39:29","新北市板橋區金門街263號","121.431621666667","24.9886716666667","6500100","板橋區"
"220004","276-BY","2019/10/17 14:39:23","新北市板橋區干城路162號","121.460626666667","24.9920233333333","6500100","板橋區"
"220020","277-BY","2019/10/17 14:39:28","新北市板橋區金門街253巷10弄19-1號","121.433405","24.988095","6500100","板橋區"
"220043","283-UM","2019/10/17 14:39:17","新北市板橋區吳鳳路91-4號","121.466533333333","25.0316766666667","6500100","板橋區"
"220019","283-VK","2019/10/17 14:39:27","新北市板橋區四川路一段325巷6號","121.458811666667","25.0003883333333","6500100","板橋區"
"220050","285-UM","2019/10/17 14:39:21","新北市板橋區莊敬路263巷17號","121.47306","25.0217633333333","6500100","板橋區"
"220031","286-VK","2019/10/17 14:39:29","新北市板橋區龍興街63巷25號","121.442265","25.0016266666667","6500100","板橋區"
"220029","287-VK","2019/10/17 14:39:22","新北市板橋區大觀路一段29巷143號","121.449453333333","25.0054316666667","6500100","板橋區"
"220039","288-VK","2019/10/17 14:39:23","新北市板橋區龍泉街90巷16號","121.456115","25.024995","6500100","板橋區"
"220009","293-UM","2019/10/17 14:39:18","新北市板橋區觀光街3巷1號","121.471893333333","25.0157933333333","6500100","板橋區"
"220001","295-UM","2019/10/17 14:39:18","新北市板橋區民享街91號","121.47703","25.0158233333333","6500100","板橋區"
"220032","296-UM","2019/10/17 14:39:12","新北市板橋區滿平二街2巷1弄48號","121.424785","24.987945","6500100","板橋區"
"220023","303-R5","2019/10/17 14:39:15","新北市板橋區中正路275巷93號","121.451328333333","25.0186566666667","6500100","板橋區"
"220010","305-R5","2019/10/17 14:39:22","新北市板橋區三民路二段79號","121.479578333333","25.0166666666667","6500100","板橋區"
"220041","307-R5","2019/10/17 14:39:14","新北市板橋區四維路259巷87號","121.460085","25.0264666666667","6500100","板橋區"
"220047","317-R6","2019/10/17 14:39:24","新北市板橋區民生路三段299巷4號","121.463305","25.03046","6500100","板橋區"
"220038","487-VK","2019/10/17 14:39:24","新北市板橋區龍泉街106-2號","121.45674","25.0246366666667","6500100","板橋區"
"220037","491-VK","2019/10/17 14:39:27","新北市板橋區文化路二段438號","121.47441","25.03211","6500100","板橋區"
"220104","560-BX","2019/10/17 14:39:21","新北市板橋區中正路375巷1號","121.454136666667","25.0208816666667","6500100","板橋區"
"220052","561-BX","2019/10/17 14:39:28","新北市板橋區自由路44號","121.46565","25.0232816666667","6500100","板橋區"
"220028","568-UM","2019/10/17 14:39:16","新北市板橋區大觀路二段153巷46弄10號","121.448993333333","24.9996133333333","6500100","板橋區"
"220011","609-BX","2019/10/17 14:39:25","新北市板橋區三民路二段33號","121.479473333333","25.01757","6500100","板橋區"
"220040","637-BX","2019/10/17 14:39:16","新北市板橋區懷德街139巷20弄2號","121.479995","25.03076","6500100","板橋區"
"220005","686-BX","2019/10/17 14:39:24","新北市板橋區和平路安樂巷52弄3號","121.462265","24.9928433333333","6500100","板橋區"
"220025","687-BX","2019/10/17 14:39:31","新北市板橋區僑中一街80巷6弄30號","121.448636666667","25.0113883333333","6500100","板橋區"
"220042","689-BX","2019/10/17 14:39:32","新北市板橋區長江路二段67號","121.464781666667","25.0315083333333","6500100","板橋區"
"220002","741-BX","2019/10/17 14:38:56","新北市中和區德光路122號","121.467786666667","25.003875","6500100","板橋區"
"220051","KEA-2699","2019/10/17 14:39:19","新北市板橋區文化路二段410巷23號","121.474763333333","25.0307783333333","6500100","板橋區"
"220003","827-TW","2019/10/17 14:39:18","新北市板橋區重慶路290巷3號","121.461686666667","24.9985883333333","6500100","板橋區"
"220014","829-TW","2019/10/17 14:39:14","新北市板橋區長安街138巷18號","121.472988333333","25.0090133333333","6500100","板橋區"
"220016","831-TW","2019/10/17 14:39:25","新北市板橋區中山路二段412巷16-1號","121.483346666667","25.0202966666667","6500100","板橋區"
"220022","895-R6","2019/10/17 14:39:15","新北市板橋區館前西路148號","121.455698333333","25.0083383333333","6500100","板橋區"
"220021","985-R7","2019/10/17 14:39:14","新北市板橋區瑞安街67號","121.455546666667","25.0215383333333","6500100","板橋區"
"220046","AAC-210","2019/10/17 14:39:26","新北市板橋區文化路一段49號","121.460546666667","25.013345","6500100","板橋區"
"220012","AAC-253","2019/10/17 14:37:46","新北市板橋區民權路27號","121.462431666667","25.0108016666667","6500100","板橋區"
"235032","KEA-2873","2019/10/17 14:39:17","新北市中和區中山路二段248號","121.497668333333","25.0027116666667","6500300","中和區"
"235025","KEA-2875","2019/10/17 14:39:24","新北市中和區新生街166巷20號","121.482593333333","25.0002666666667","6500300","中和區"
"235026","KEA-2876","2019/10/17 14:39:05","新北市新店區安華路16號","121.517153333333","24.95792","6500300","中和區"
