"lineid","car","time","location","longitude","latitude","cityid","cityname"
"248007","KED-0815","2019/10/17 15:09:47","新北市五股區四維路151號","121.467636666667","25.0744","6501500","五股區"
"248017","KED-0813","2019/10/17 15:09:48","新北市五股區登林路103-1號","121.40964","25.07826","6501500","五股區"
"248003","677-BX","2019/10/17 15:09:51","新北市五股區成泰路二段106號","121.437661666667","25.0829333333333","6501500","五股區"
"244003","657-BX","2019/10/17 15:09:56","新北市林口區瑞平里33-1號","121.348596666667","25.1287216666667","6501700","林口區"
"243004","AAD-798","2019/10/17 15:09:49","新北市泰山區美寧街58號","121.43077","25.0647","6501600","泰山區"
"243001","KEA-2215","2019/10/17 15:09:47","新北市泰山區泰林路二段410號","121.427378333333","25.0643833333333","6501600","泰山區"
"243003","KEA-2216","2019/10/17 15:09:49","新北市泰山區新北大道六段313巷16號","121.424083333333","25.0333433333333","6501600","泰山區"
"243007","680-BX","2019/10/17 15:09:51","新北市泰山區福興街22號","121.434196666667","25.057555","6501600","泰山區"
"231030","002-UM","2019/10/17 15:09:49","新北市新店區安民街341號","121.516976666667","24.974975","6500600","新店區"
"231005","046-UY","2019/10/17 15:09:58","新北市新店區北新路三段115號","121.541371666667","24.9823933333333","6500600","新店區"
"231029","106-UY","2019/10/17 15:09:45","新北市新店區錦秀路23號","121.47936","24.9443166666667","6500600","新店區"
"231018","107-UY","2019/10/17 15:09:52","新北市新店區中央六街62號","121.52767","24.9759866666667","6500600","新店區"
"231036","110-UY","2019/10/17 15:09:49","新北市新店區安祥路104巷10號","121.48128","24.96317","6500600","新店區"
"231039","187-VK","2019/10/17 15:09:43","新北市新店區寶安街2巷1號","121.542336666667","24.9807","6500600","新店區"
"231031","256-BX","2019/10/17 15:10:00","新北市新店區安泰路109-3號","121.486698333333","24.9435333333333","6500600","新店區"
"231023","260-TV","2019/10/17 15:09:50","新北市新店區檳榔路174號","121.544293333333","24.9619033333333","6500600","新店區"
"231003","268-BY","2019/10/17 15:09:44","新北市新店區寶橋路210號","121.550966666667","24.9784666666667","6500600","新店區"
"231035","278-BY","2019/10/17 15:09:48","新北市新店區安和路三段175號","121.515843333333","24.9862116666667","6500600","新店區"
"231017","AAD-862","2019/10/17 15:09:47","新北市新店區銀河路40號","121.574478333333","24.95748","6500600","新店區"
"231006","355-BY","2019/10/17 15:09:50","新北市新店區新坡一街72號","121.548921666667","24.9645666666667","6500600","新店區"
"231038","3712-VJ","2019/10/17 15:09:52","新北市新店區安華路28-1號","121.519891666667","24.96094","6500600","新店區"
"231024","4716-K9","2019/10/17 15:09:48","新北市新店區中華路42巷24號","121.540861666667","24.96891","6500600","新店區"
"231025","4715-K9","2019/10/17 15:09:57","新北市新店區環河路105-12號","121.531906666667","24.970025","6500600","新店區"
"231021","513-UM","2019/10/17 15:09:43","新北市新店區屈尺路2號","121.549371666667","24.9223816666667","6500600","新店區"
"231034","616-UM","2019/10/17 15:10:03","新北市新店區玫瑰路4-1號","121.493636666667","24.9514133333333","6500600","新店區"
"231002","619-UM","2019/10/17 15:09:45","新北市新店區中正路539-5號","121.533518333333","24.9865916666667","6500600","新店區"
"231011","KED-0819","2019/10/17 15:09:44","新北市新店區寶元路一段61號","121.542175","24.98601","6500600","新店區"
"231026","720-UM","2019/10/17 15:09:56","新北市新店區建安街15巷1號","121.539716666667","24.97529","6500600","新店區"
"231028","897-TW","2019/10/17 15:10:00","新北市新店區安康路二段327號","121.49968","24.9546933333333","6500600","新店區"
"231001","898-TW","2019/10/17 15:09:45","新北市新店區中正路251號","121.538986666667","24.9734833333333","6500600","新店區"
"231004","899-TW","2019/10/17 15:09:53","新北市新店區建國路2號","121.539871666667","24.9731566666667","6500600","新店區"
"231037","AKT-0513","2019/10/17 15:09:55","新北市新店區安德街60巷35號","121.510936666667","24.9637183333333","6500600","新店區"
"235030","003-UY","2019/10/17 15:09:54","新北市中和區水源路114號","121.506768333333","25.0035","6500300","中和區"
"235003","097-UM","2019/10/17 15:09:50","新北市中和區安平路176號","121.512818333333","24.9988016666667","6500300","中和區"
"235004","150-BY","2019/10/17 15:09:54","新北市中和區安平路38號","121.509986666667","24.9950133333333","6500300","中和區"
"235019","183-VK","2019/10/17 15:10:00","新北市五股區中直路1號","121.428305","25.10903","6500300","中和區"
"235036","301-VK","2019/10/17 15:09:56","新北市中和區連城路144巷4弄11號","121.495581666667","24.9987916666667","6500300","中和區"
"235007","352-BY","2019/10/17 15:09:46","新北市中和區興南路二段159巷12號","121.505051666667","24.9829733333333","6500300","中和區"
"235014","4979-A6","2019/10/17 15:09:54","新北市中和區安樂路3號","121.511495","24.9920033333333","6500300","中和區"
"235033","4980-A6","2019/10/17 15:09:49","新北市中和區景新街64巷7弄6號","121.504075","24.9985883333333","6500300","中和區"
"235034","558-UM","2019/10/17 15:09:48","新北市中和區橋和路172號","121.494858333333","25.00637","6500300","中和區"
"235035","783-BX","2019/10/17 15:09:55","新北市中和區中正路774號","121.485123333333","25.0001466666667","6500300","中和區"
"235012","896-TW","2019/10/17 15:09:43","新北市中和區興南路一段106號","121.509656666667","24.9887933333333","6500300","中和區"
"235015","157-BY","2019/10/17 15:09:50","新北市中和區四維街10號","121.51324","24.9872933333333","6500300","中和區"
"235023","AAC-215","2019/10/17 15:09:57","新北市中和區圓通路335巷33弄1號","121.493486666667","24.9894533333333","6500300","中和區"
"220013","072-UY","2019/10/17 15:09:52","新北市板橋區中山路一段154巷19號","121.465296666667","25.0107416666667","6500100","板橋區"
"220034","073-UY","2019/10/17 15:09:45","新北市板橋區大觀路一段28巷104號","121.450181666667","25.0110716666667","6500100","板橋區"
"228004","212-TW","2019/10/17 15:09:41","新北市貢寮區雙玉里田寮洋街18號","121.921808333333","25.0243766666667","6502600","貢寮區"
"253004","6251-TK","2019/10/17 15:09:56","新北市石門區小坑26-1號","121.595245","25.2764183333333","6502200","石門區"
"253002","637-UY","2019/10/17 15:10:01","新北市石門區尖子鹿76號","121.571983333333","25.296345","6502200","石門區"
"207002","749-BX","2019/10/17 15:09:44","新北市萬里區崁腳里崁腳路44號","121.650036666667","25.1604833333333","6502800","萬里區"
"207001","662-BX","2019/10/17 15:09:52","新北市萬里區磺潭里員潭路47號","121.647386666667","25.1891233333333","6502800","萬里區"
"236040","KED-0685","2019/10/17 15:09:49","新北市土城區裕民路280號","121.45539","24.9821766666667","6501300","土城區"
"236074","166-UM","2019/10/17 15:09:42","新北市土城區中州路24巷5號","121.414773333333","24.9576216666667","6501300","土城區"
"236029","253-BX","2019/10/17 15:09:48","新北市土城區福祥街12號","121.440775","24.9796566666667","6501300","土城區"
"236024","269-VK","2019/10/17 15:09:53","新北市土城區中央路二段193號","121.442121666667","24.9752716666667","6501300","土城區"
"236012","270-VK","2019/10/17 15:09:58","新北市土城區學府路一段23巷35號","121.457373333333","24.9867033333333","6501300","土城區"
"236068","KEA-2877","2019/10/17 15:09:53","新北市土城區學成路99巷1號","121.450226666667","24.9887766666667","6501300","土城區"
"236017","401-BY","2019/10/17 15:09:52","新北市土城區延峰街18號","121.468773333333","24.9862433333333","6501300","土城區"
"236057","912-UM","2019/10/17 15:09:55","新北市土城區金城路二段208號","121.455233333333","24.9820166666667","6501300","土城區"
"236045","913-UM","2019/10/17 15:09:56","新北市土城區清水路211號","121.460463333333","24.9819833333333","6501300","土城區"
"236054","AAC-216","2019/10/17 15:09:45","新北市土城區學府路一段276號","121.450173333333","24.9833133333333","6501300","土城區"
"238010","601-UM","2019/10/17 15:09:42","新北市樹林區保安街一段334-1號","121.418088333333","24.9979416666667","6500700","樹林區"
"238006","599-UM","2019/10/17 15:09:51","新北市樹林區太平路247巷24號","121.419755","24.974545","6500700","樹林區"
"238005","KEA-2217","2019/10/17 15:10:00","新北市板橋區大觀路三段36巷5-3號","121.432976666667","24.9958633333333","6500700","樹林區"
"238009","KEA-2213","2019/10/17 15:09:52","新北市樹林區忠孝街31號","121.423696666667","24.982175","6500700","樹林區"
"238008","KEA-2539","2019/10/17 15:09:42","新北市樹林區西圳街一段165巷20弄11號","121.395596666667","24.9602033333333","6500700","樹林區"
"238012","303-VK","2019/10/17 15:09:51","新北市樹林區中山路二段152號","121.412878333333","24.9827733333333","6500700","樹林區"
"238004","283-BY","2019/10/17 15:09:43","新北市樹林區大安路323巷10弄12號","121.417078333333","24.9913516666667","6500700","樹林區"
"238007","268-VK","2019/10/17 15:09:45","新北市樹林區大安路349號","121.41641","24.9904683333333","6500700","樹林區"
"238013","172-UY","2019/10/17 15:09:58","新北市樹林區東大街144號","121.410071666667","24.9759416666667","6500700","樹林區"
"220027","145-BY","2019/10/17 15:09:56","新北市板橋區建國街56號","121.458823333333","25.0170983333333","6500100","板橋區"
"220030","610-BX","2019/10/17 15:09:48","新北市板橋區金門街184-3號","121.43263","24.990845","6500100","板橋區"
"220050","285-UM","2019/10/17 15:09:41","新北市板橋區雙十路二段47巷4弄22號","121.474913333333","25.0264083333333","6500100","板橋區"
"220031","286-VK","2019/10/17 15:09:54","新北市板橋區僑中二街92巷22號","121.44513","25.0091016666667","6500100","板橋區"
"220029","287-VK","2019/10/17 15:09:59","新北市板橋區僑中一街124巷19弄1號","121.446113333333","25.0139983333333","6500100","板橋區"
"220023","303-R5","2019/10/17 15:09:55","新北市板橋區金華街10巷48弄78-4號","121.460108333333","25.020375","6500100","板橋區"
"220010","305-R5","2019/10/17 15:09:42","新北市板橋區中山路二段494號","121.48574","25.022255","6500100","板橋區"
"220038","487-VK","2019/10/17 15:09:44","新北市板橋區四維路133號","121.46501","25.02518","6500100","板橋區"
"220037","491-VK","2019/10/17 15:09:55","新北市板橋區民治街65號","121.479586666667","25.03302","6500100","板橋區"
"220104","560-BX","2019/10/17 15:10:01","新北市板橋區新生街53巷3弄9號","121.45707","25.0217066666667","6500100","板橋區"
"220052","561-BX","2019/10/17 15:09:48","新北市板橋區漢生東路53巷9號","121.46628","25.01709","6500100","板橋區"
"220028","568-UM","2019/10/17 15:09:56","新北市板橋區大觀路二段153巷44弄53號","121.446043333333","24.9989783333333","6500100","板橋區"
"220011","609-BX","2019/10/17 15:09:45","新北市板橋區三民路一段149號","121.479215","25.0196733333333","6500100","板橋區"
"220005","686-BX","2019/10/17 15:09:44","新北市板橋區四川路二段245巷71號","121.452738333333","24.9919466666667","6500100","板橋區"
"220025","687-BX","2019/10/17 15:09:56","新北市板橋區僑中一街102巷5弄16號","121.446036666667","25.01279","6500100","板橋區"
"220042","689-BX","2019/10/17 15:09:52","新北市板橋區長江路二段71號","121.46486","25.0315583333333","6500100","板橋區"
"220002","741-BX","2019/10/17 15:08:07","新北市板橋區忠孝路201巷94號","121.464901666667","25.00482","6500100","板橋區"
"220051","KEA-2699","2019/10/17 15:09:59","新北市板橋區莒光路79巷6號","121.472061666667","25.0243933333333","6500100","板橋區"
"220003","827-TW","2019/10/17 15:09:58","新北市板橋區國慶路213巷13號","121.462945","24.9972816666667","6500100","板橋區"
"220014","829-TW","2019/10/17 15:09:53","新北市板橋區中山路一段206巷71號","121.471563333333","25.0130866666667","6500100","板橋區"
"220022","895-R6","2019/10/17 15:09:55","新北市板橋區縣民大道一段295號","121.46113","25.0105316666667","6500100","板橋區"
"220012","AAC-253","2019/10/17 15:09:46","新北市板橋區民族路222巷2-9號","121.468558333333","25.0071733333333","6500100","板橋區"
