"lineid","car","time","location","longitude","latitude","cityid","cityname"
"231030","002-UM","2019/10/17 15:49:29","新北市新店區永安街48號","121.518326666667","24.9867866666667","6500600","新店區"
"231029","106-UY","2019/10/17 15:49:25","新北市新店區安康路二段337-1號","121.497991666667","24.9556766666667","6500600","新店區"
"231018","107-UY","2019/10/17 15:49:12","新北市新店區中正路663巷1弄1號","121.533056666667","24.9898166666667","6500600","新店區"
"231013","108-UY","2019/10/17 15:49:24","新北市新店區永業路81巷1弄1-1號","121.529625","24.9494033333333","6500600","新店區"
"231039","187-VK","2019/10/17 15:49:23","新北市新店區北新路一段1號","121.535985","24.9588116666667","6500600","新店區"
"231031","256-BX","2019/10/17 15:49:20","新北市新店區雙城路60巷16弄10號","121.492171666667","24.9478316666667","6500600","新店區"
"231003","268-BY","2019/10/17 15:49:24","新北市新店區寶興路60巷3號","121.549866666667","24.9718183333333","6500600","新店區"
"231035","278-BY","2019/10/17 15:49:28","新北市新店區安民街365巷10弄4號","121.515953333333","24.9758866666667","6500600","新店區"
"231017","AAD-862","2019/10/17 15:49:27","新北市新店區光明街113號","121.538916666667","24.9614966666667","6500600","新店區"
"231038","3712-VJ","2019/10/17 15:49:12","新北市新店區安康路二段226號","121.509536666667","24.9593166666667","6500600","新店區"
"231021","513-UM","2019/10/17 15:49:22","新北市新店區新烏路一段201號","121.548066666667","24.931295","6500600","新店區"
"231034","616-UM","2019/10/17 15:49:23","新北市新店區吉祥街15巷1號","121.497785","24.9456283333333","6500600","新店區"
"231046","719-UM","2019/10/17 15:49:17","新北市新店區安一路一段1-1號","121.51999","24.9611033333333","6500600","新店區"
"231026","720-UM","2019/10/17 15:49:16","新北市新店區中正路480號","121.533866666667","24.9814733333333","6500600","新店區"
"231004","899-TW","2019/10/17 15:49:13","新北市新店區中央路155號","121.529631666667","24.9725566666667","6500600","新店區"
"231037","AKT-0513","2019/10/17 15:49:15","新北市新店區吉安街35號","121.515851666667","24.9660783333333","6500600","新店區"
"241011","013-R5","2019/10/17 15:49:21","新北市三重區文化北路224-1號","121.497638333333","25.0692","6500200","三重區"
"241028","022-UY","2019/10/17 15:49:28","新北市三重區重新路三段94號","121.4928","25.0606666666667","6500200","三重區"
"241017","063-VK","2019/10/17 15:49:30","新北市三重區大仁街38號","121.491626666667","25.0642216666667","6500200","三重區"
"241024","065-VK","2019/10/17 15:49:22","新北市三重區忠孝路三段84巷1號","121.480206666667","25.0646333333333","6500200","三重區"
"241007","066-VK","2019/10/17 15:49:33","新北市三重區新北大道一段250號","121.479895","25.0612733333333","6500200","三重區"
"241015","742-BX","2019/10/17 15:49:23","新北市三重區重新路四段121號","121.485171666667","25.0519666666667","6500200","三重區"
"241016","266-UM","2019/10/17 15:49:20","新北市三重區重新路四段121號","121.485275","25.0519733333333","6500200","三重區"
"241018","268-UM","2019/10/17 15:49:23","新北市三重區重新路四段121號","121.48526","25.0520366666667","6500200","三重區"
"241013","270-UM","2019/10/17 15:49:19","新北市三重區六張街22號","121.495415","25.0706016666667","6500200","三重區"
"241020","478-VK","2019/10/17 15:49:16","新北市三重區力行路一段179巷20號","121.485116666667","25.070205","6500200","三重區"
"241014","543-UM","2019/10/17 15:49:21","新北市三重區重新路四段121號","121.485133333333","25.0519966666667","6500200","三重區"
"241001","547-UM","2019/10/17 15:49:14","新北市三重區光復路二段117-1號","121.472313333333","25.0586883333333","6500200","三重區"
"241012","743-BX","2019/10/17 15:49:12","新北市三重區文化北路85巷1號","121.498376666667","25.0671516666667","6500200","三重區"
"241022","KED-0820","2019/10/17 15:49:31","新北市三重區新北大道一段250號","121.47995","25.0611333333333","6500200","三重區"
"241023","887-TS","2019/10/17 15:49:30","新北市三重區忠孝路三段84巷18號","121.480783333333","25.0646216666667","6500200","三重區"
"241029","942-UM","2019/10/17 15:49:15","新北市三重區大同南路242號","121.496948333333","25.0558483333333","6500200","三重區"
"241033","AAC-255","2019/10/17 15:49:25","新北市三重區光復路一段126號","121.471951666667","25.0519233333333","6500200","三重區"
"235019","183-VK","2019/10/17 15:49:20","新北市五股區凌雲路二段66號","121.44007","25.106175","6500300","中和區"
"235045","565-BX","2019/10/17 15:49:07","新北市中和區員山路36巷13號","121.484181666667","24.9909933333333","6500300","中和區"
"235023","AAC-215","2019/10/17 15:49:17","新北市中和區員山路36巷1號","121.482586666667","24.9905066666667","6500300","中和區"
"224007","285-BY","2019/10/17 15:49:28","新北市瑞芳區傑魚坑路245巷2-1號","121.787708333333","25.1064916666667","6501200","瑞芳區"
"224005","271-BY","2019/10/17 15:47:26","新北市瑞芳區明燈路二段66號","121.809505","25.1075483333333","6501200","瑞芳區"
"227002","642-TC","2019/10/17 15:49:31","新北市雙溪區平林里外平林48號","121.851973333333","25.0360466666667","6502500","雙溪區"
"227001","400-TW","2019/10/17 15:49:14","新北市雙溪區三港里雙澳路26號","121.869516666667","25.0482716666667","6502500","雙溪區"
"236074","166-UM","2019/10/17 15:49:27","新北市土城區福安街92號","121.41786","24.9641916666667","6501300","土城區"
"236024","269-VK","2019/10/17 15:49:17","新北市土城區裕生路82巷2號","121.447333333333","24.985755","6501300","土城區"
"236068","KEA-2877","2019/10/17 15:49:14","新北市土城區中山路71號","121.427238333333","24.9657583333333","6501300","土城區"
"236017","401-BY","2019/10/17 15:49:25","新北市土城區延吉街29號","121.472431666667","24.9882016666667","6501300","土城區"
"236057","912-UM","2019/10/17 15:49:15","新北市土城區中央路一段245-1號","121.445333333333","24.986005","6501300","土城區"
"236045","913-UM","2019/10/17 15:49:16","新北市土城區清水路199號","121.459936666667","24.9816433333333","6501300","土城區"
"236054","AAC-216","2019/10/17 15:49:24","新北市土城區中華路一段195號","121.443051666667","24.9853766666667","6501300","土城區"
"238002","755-BX","2019/10/17 15:49:28","新北市樹林區文德街3巷28號","121.418116666667","24.9917566666667","6500700","樹林區"
"238010","601-UM","2019/10/17 15:49:30","新北市樹林區福興街36號","121.403896666667","25.0152766666667","6500700","樹林區"
"238011","5061-A6","2019/10/17 15:49:18","新北市樹林區山佳街57-1號","121.392915","24.9724466666667","6500700","樹林區"
"238005","KEA-2217","2019/10/17 15:49:20","新北市樹林區鎮前街25號","121.425733333333","24.9924333333333","6500700","樹林區"
"238009","KEA-2213","2019/10/17 15:49:27","新北市樹林區太順街86巷28號","121.416566666667","24.9787416666667","6500700","樹林區"
"238008","KEA-2539","2019/10/17 15:49:22","新北市樹林區柑園街二段138號","121.383711666667","24.95489","6500700","樹林區"
"238012","303-VK","2019/10/17 15:49:31","新北市樹林區中山路二段10號","121.417638333333","24.9850466666667","6500700","樹林區"
"238004","283-BY","2019/10/17 15:49:23","新北市樹林區保安街二段167巷26號","121.414221666667","25.0027583333333","6500700","樹林區"
"238001","282-BY","2019/10/17 15:49:27","新北市樹林區保安二街64巷5弄1號","121.424346666667","24.9957966666667","6500700","樹林區"
"238007","268-VK","2019/10/17 15:49:25","新北市樹林區三俊街213-1號","121.420916666667","25.0151816666667","6500700","樹林區"
"238013","172-UY","2019/10/17 15:49:18","新北市樹林區育德街2號","121.392811666667","24.9706083333333","6500700","樹林區"
"238003","169-UY","2019/10/17 15:49:23","新北市樹林區啟智街173巷10號","121.416053333333","24.9872016666667","6500700","樹林區"
"220104","560-BX","2019/10/17 15:49:21","新北市樹林區中山路三段210-2號","121.380726666667","24.967045","6500100","板橋區"
"220012","AAC-253","2019/10/17 15:49:26","新北市樹林區八德街262-1號","121.41741","24.9720783333333","6500100","板橋區"
"235026","KEA-2876","2019/10/17 15:49:04","新北市中和區中山路二段332巷9號","121.49436","25.0027216666667","6500300","中和區"
