"lineid","car","time","location","longitude","latitude","cityid","cityname"
"249005","172-UM","2019/10/17 16:39:23","新北市八里區忠孝路298號","121.418273333333","25.1613516666667","6502300","八里區"
"249002","305-UY","2019/10/17 16:39:15","新北市八里區大堀湖7-3號","121.425753333333","25.1516766666667","6502300","八里區"
"249003","593-UM","2019/10/17 16:39:22","新北市八里區博物館路555號","121.404086666667","25.1552983333333","6502300","八里區"
"244007","080-UY","2019/10/17 16:39:17","新北市林口區粉寮69號","121.404981666667","25.0908983333333","6501700","林口區"
"231046","719-UM","2019/10/17 16:39:17","新北市新店區灣潭路3-5號","121.5381","24.9508233333333","6500600","新店區"
"241011","013-R5","2019/10/17 16:39:21","新北市三重區仁愛街49號","121.496546666667","25.0716683333333","6500200","三重區"
"241028","022-UY","2019/10/17 16:39:28","新北市三重區重新路三段40號","121.494508333333","25.0614283333333","6500200","三重區"
"241008","059-VK","2019/10/17 16:39:14","新北市三重區永安北路一段27巷24號","121.477333333333","25.0755533333333","6500200","三重區"
"241002","060-VK","2019/10/17 16:39:28","新北市三重區仁義街241巷18號","121.496743333333","25.0829166666667","6500200","三重區"
"241031","061-VK","2019/10/17 16:39:16","新北市三重區重陽路一段5號","121.487","25.057625","6500200","三重區"
"241017","063-VK","2019/10/17 16:39:13","新北市三重區中正北路25巷9號","121.492595","25.0622516666667","6500200","三重區"
"241024","065-VK","2019/10/17 16:39:22","新北市三重區中正北路315巷6弄76號","121.477105","25.0724833333333","6500200","三重區"
"241007","066-VK","2019/10/17 16:39:12","新北市三重區三和路四段167巷94號","121.485548333333","25.0796033333333","6500200","三重區"
"241003","091-VK","2019/10/17 16:39:24","新北市三重區五華街71巷95號","121.494455","25.0839583333333","6500200","三重區"
"241015","742-BX","2019/10/17 16:39:23","新北市三重區文化北路41號","121.498905","25.0651733333333","6500200","三重區"
"241006","262-UM","2019/10/17 16:39:30","新北市三重區車路頭街142號","121.48414","25.0757566666667","6500200","三重區"
"241016","266-UM","2019/10/17 16:39:20","新北市三重區大智街5號","121.494765","25.06495","6500200","三重區"
"241009","267-UM","2019/10/17 16:39:32","新北市三重區三和路四段203巷104號","121.484745","25.0801966666667","6500200","三重區"
"241018","268-UM","2019/10/17 16:39:23","新北市三重區正義北路338巷37號","121.493401666667","25.0704516666667","6500200","三重區"
"241032","269-UM","2019/10/17 16:39:32","新北市三重區新北大道一段117號","121.483485","25.061315","6500200","三重區"
"241013","270-UM","2019/10/17 16:39:11","新北市三重區仁愛街75號","121.496208333333","25.0729816666667","6500200","三重區"
"241025","271-UM","2019/10/17 16:39:29","新北市三重區中正北路331巷12號","121.473676666667","25.07208","6500200","三重區"
"241030","KED-0822","2019/10/17 16:39:22","新北市三重區環河南路253號","121.491218333333","25.050405","6500200","三重區"
"241004","475-VK","2019/10/17 16:39:21","新北市三重區五福街30號","121.49242","25.0812083333333","6500200","三重區"
"241020","478-VK","2019/10/17 16:39:16","新北市三重區車路頭街51巷7號","121.484646666667","25.0723533333333","6500200","三重區"
"241026","480-VK","2019/10/17 16:39:14","新北市三重區和平街38號","121.501986666667","25.06269","6500200","三重區"
"241014","543-UM","2019/10/17 16:39:21","新北市三重區長安街120號","121.502948333333","25.06797","6500200","三重區"
"241001","547-UM","2019/10/17 16:39:14","新北市三重區仁愛街206號","121.493816666667","25.0775233333333","6500200","三重區"
"241019","KEA-2593","2019/10/17 16:39:27","新北市三重區力行路一段91號","121.486231666667","25.0681616666667","6500200","三重區"
"241005","AAD-863","2019/10/17 16:39:23","新北市三重區仁華街62巷16號","121.483713333333","25.0833366666667","6500200","三重區"
"241012","743-BX","2019/10/17 16:39:12","新北市三重區仁興街3巷21號","121.500555","25.0740333333333","6500200","三重區"
"241022","KED-0820","2019/10/17 16:39:12","新北市三重區新北大道一段148號","121.484296666667","25.06169","6500200","三重區"
"241023","887-TS","2019/10/17 16:39:30","新北市三重區忠孝路三段50巷82號","121.483013333333","25.0644683333333","6500200","三重區"
"241029","942-UM","2019/10/17 16:39:15","新北市三重區集美街112巷13號","121.489451666667","25.0541116666667","6500200","三重區"
"241033","AAC-255","2019/10/17 16:39:25","新北市三重區光復路二段86號","121.472023333333","25.0572283333333","6500200","三重區"
"235045","565-BX","2019/10/17 16:24:44","新北市中和區員山路36巷13號","121.484108333333","24.9910633333333","6500300","中和區"
"247014","056-VK","2019/10/17 16:39:20","新北市蘆洲區中正路507號","121.461455","25.0971583333333","6501400","蘆洲區"
"224007","285-BY","2019/10/17 16:39:28","新北市瑞芳區月眉路24號","121.760595","25.10781","6501200","瑞芳區"
"224009","275-VK","2019/10/17 16:39:21","新北市瑞芳區明燈路二段89號","121.809745","25.1082716666667","6501200","瑞芳區"
"224005","271-BY","2019/10/17 16:39:18","新北市瑞芳區洞頂路130號","121.860276666667","25.118495","6501200","瑞芳區"
"227002","642-TC","2019/10/17 16:39:31","新北市雙溪區外柑里外柑腳94號","121.806595","25.0181","6502500","雙溪區"
"227001","400-TW","2019/10/17 16:39:15","新北市雙溪區牡丹里聖南1-1號","121.86164","25.0503166666667","6502500","雙溪區"
"251015","KEA-2871","2019/10/17 16:39:22","新北市淡水區水源街一段75號","121.444753333333","25.172315","6501000","淡水區"
"251016","179-VK","2019/10/17 16:39:14","新北市淡水區新市一路一段12號","121.429753333333","25.1869733333333","6501000","淡水區"
"251013","182-VK","2019/10/17 16:39:28","新北市淡水區楓樹湖12-6號","121.497893333333","25.188055","6501000","淡水區"
"251014","577-R6","2019/10/17 16:39:25","新北市淡水區淡金路四段476號","121.452431666667","25.2239116666667","6501000","淡水區"
"252002","178-VK","2019/10/17 16:39:31","新北市三芝區晴光街5號","121.510773333333","25.2576066666667","6502100","三芝區"
"233002","762-BX","2019/10/17 16:39:24","新北市烏來區啦卡路70-1號","121.5651","24.8559533333333","6502900","烏來區"
"247012","KED-0683","2019/10/17 16:39:18","新北市五股區中興路三段163號","121.449195","25.0807366666667","6501400","蘆洲區"
"252001","KED-0821","2019/10/17 16:39:16","新北市三芝區茂長里陳厝坑3-5號","121.510545","25.26422","6502100","三芝區"
"238023","601-UM","2019/10/17 16:39:22","新北市樹林區大安路211號","121.42024","24.995315","6500700","樹林區"
"238025","303-VK","2019/10/17 16:39:11","新北市樹林區中正路22-1號","121.427873333333","24.9993383333333","6500700","樹林區"
"238004","283-BY","2019/10/17 16:39:23","新北市樹林區中正路433-1號","121.414926666667","25.0081383333333","6500700","樹林區"
"238001","282-BY","2019/10/17 16:39:13","新北市樹林區中正路22-1號","121.427741666667","24.999605","6500700","樹林區"
"233001","KEA-2870","2019/10/17 16:39:32","新北市烏來區啦卡路70-1號","121.56516","24.8560483333333","6502900","烏來區"
