"lineid","car","time","location","longitude","latitude","cityid","cityname"
"234026","9371-KE","2019/10/17 17:59:18","新北市永和區水源街2巷14號","121.51229","25.0055566666667","6500400","永和區"
"249005","172-UM","2019/10/17 17:59:23","新北市八里區荖阡坑路20-9號","121.39848","25.1377783333333","6502300","八里區"
"249001","173-UM","2019/10/17 17:59:17","新北市八里區龍米路二段35號","121.448361666667","25.1400183333333","6502300","八里區"
"249004","303-UY","2019/10/17 17:59:22","新北市八里區龍米路三段46號","121.42785","25.15918","6502300","八里區"
"249002","305-UY","2019/10/17 17:59:16","新北市八里區龍形五街13號","121.450343333333","25.1335866666667","6502300","八里區"
"249003","593-UM","2019/10/17 17:59:22","新北市八里區中華路二段165巷19弄26號","121.410396666667","25.1517366666667","6502300","八里區"
"248014","025-BX","2019/10/17 17:59:24","新北市五股區中興路三段5號","121.450096666667","25.079755","6501500","五股區"
"248016","026-BX","2019/10/17 17:59:27","新北市五股區中興路二段83巷26-6號","121.459815","25.0752916666667","6501500","五股區"
"248006","077-UY","2019/10/17 17:59:21","新北市五股區中興路二段168號","121.458271666667","25.077895","6501500","五股區"
"248008","KED-0815","2019/10/17 17:59:21","新北市五股區中興路二段150號","121.458593333333","25.0785733333333","6501500","五股區"
"248020","KED-0813","2019/10/17 17:59:25","新北市五股區中興路二段57-6號","121.460368333333","25.0753216666667","6501500","五股區"
"248010","272-BY","2019/10/17 17:59:29","新北市五股區中興路二段83巷26-6號","121.459725","25.0752733333333","6501500","五股區"
"248004","677-BX","2019/10/17 17:59:31","新北市五股區成泰路一段98巷77號","121.452636666667","25.0788233333333","6501500","五股區"
"248002","678-BX","2019/10/17 17:59:26","新北市五股區中興路二段83巷26-6號","121.459951666667","25.075295","6501500","五股區"
"248010","682-TV","2019/10/17 17:59:22","新北市五股區中興路二段37巷28號","121.460373333333","25.07478","6501500","五股區"
"232011","375-UM","2019/10/17 17:59:25","新北市坪林區北宜路八段229號","121.708998333333","24.9350316666667","6502000","坪林區"
"244007","080-UY","2019/10/17 17:59:17","新北市林口區林口路230號","121.386928333333","25.083955","6501700","林口區"
"244019","402-UM","2019/10/17 17:59:19","新北市林口區麗園路52巷1號","121.373638333333","25.0698783333333","6501700","林口區"
"244013","KEA-2802","2019/10/17 17:59:15","新北市林口區中山路130號","121.392476666667","25.0786383333333","6501700","林口區"
"244023","483-VK","2019/10/17 17:59:28","新北市林口區東湖路75巷48號","121.38543","25.0719616666667","6501700","林口區"
"244017","485-VK","2019/10/17 17:59:22","新北市林口區忠孝路372號","121.369208333333","25.0713733333333","6501700","林口區"
"244009","656-BX","2019/10/17 17:59:21","新北市林口區佳林路56巷31號","121.38525","25.0810016666667","6501700","林口區"
"244011","701-TV","2019/10/17 17:59:17","新北市林口區中正路30巷6號","121.395876666667","25.0776966666667","6501700","林口區"
"244025","837-TS","2019/10/17 17:59:16","新北市林口區三民路77-5號","121.35889","25.0685633333333","6501700","林口區"
"244021","838-TS","2019/10/17 17:59:13","新北市林口區新寮45號","121.404231666667","25.0643066666667","6501700","林口區"
"222003","436-BY","2019/10/17 17:59:18","新北市深坑區炮子崙20號","121.606443333333","24.989205","6501800","深坑區"
"222002","659-BX","2019/10/17 17:59:12","新北市深坑區深坑街3巷22號","121.616888333333","25.00191","6501800","深坑區"
"221008","KEA-2785","2019/10/17 17:59:12","新北市汐止區康寧街777-1號","121.645045","25.0759116666667","6501100","汐止區"
"241016","266-UM","2019/10/17 17:59:20","新北市三重區新北大道一段252號","121.480563333333","25.0617266666667","6500200","三重區"
"241024","KEA-2210","2019/10/17 17:59:24","新北市三重區中正北路193巷35弄63號","121.47854","25.071355","6500200","三重區"
"241033","AAC-255","2019/10/17 17:59:25","新北市三重區重新路五段593號","121.469651666667","25.0456016666667","6500200","三重區"
"235063","006-UY","2019/10/17 17:59:25","新北市中和區員山路36巷16-3號","121.484878333333","24.9914016666667","6500300","中和區"
"235065","098-UM","2019/10/17 17:59:28","新北市中和區中山路二段512號","121.486403333333","25.0049233333333","6500300","中和區"
"235058","151-BY","2019/10/17 17:59:19","新北市中和區圓通路369巷2號","121.491226666667","24.98956","6500300","中和區"
"235038","185-VK","2019/10/17 17:59:16","新北市中和區景平路321號","121.506006666667","24.993255","6500300","中和區"
"235043","352-BY","2019/10/17 17:59:28","新北市中和區員山路36巷16-8號","121.485391666667","24.9922833333333","6500300","中和區"
"235042","KEA-2878","2019/10/17 17:59:30","新北市中和區景平路315號","121.506288333333","24.9931783333333","6500300","中和區"
"247016","KEA-2869","2019/10/17 17:59:17","新北市蘆洲區中正路185巷78弄38號","121.46578","25.0848716666667","6501400","蘆洲區"
"247010","KED-0682","2019/10/17 17:59:27","新北市蘆洲區三民路26巷22號","121.47738","25.082905","6501400","蘆洲區"
"235070","558-UM","2019/10/17 17:59:24","新北市中和區錦和路350-1號","121.490438333333","24.993635","6500300","中和區"
"235045","565-BX","2019/10/17 17:59:24","新北市中和區中正路501號","121.489115","24.994105","6500300","中和區"
"235054","640-BX","2019/10/17 17:59:23","新北市中和區連城路569巷9弄22號","121.47993","24.9935966666667","6500300","中和區"
"235047","732-UM","2019/10/17 17:59:23","新北市中和區和城路一段271巷1號","121.485371666667","24.9920883333333","6500300","中和區"
"235057","801-TS","2019/10/17 17:59:23","新北市中和區員山路243號","121.481233333333","24.9985533333333","6500300","中和區"
"235041","802-TS","2019/10/17 17:59:23","新北市中和區和城路一段271巷1號","121.48549","24.9916666666667","6500300","中和區"
"235053","900-TW","2019/10/17 17:59:27","新北市中和區員山路36巷16-2號","121.485366666667","24.9915416666667","6500300","中和區"
"235064","911-UM","2019/10/17 17:59:28","新北市中和區錦和路350-1號","121.490535","24.993565","6500300","中和區"
"235051","157-BY","2019/10/17 17:59:28","新北市中和區錦和路350-1號","121.49011","24.9935233333333","6500300","中和區"
"235037","AAC-213","2019/10/17 17:59:15","新北市中和區景平路342號","121.511526666667","24.992705","6500300","中和區"
"247006","893-R6","2019/10/17 17:59:21","新北市蘆洲區中華街6號","121.463396666667","25.0816583333333","6501400","蘆洲區"
"247014","056-VK","2019/10/17 17:59:20","新北市蘆洲區復興路11號","121.472048333333","25.08532","6501400","蘆洲區"
"247018","053-VK","2019/10/17 17:59:15","新北市蘆洲區復興路245號","121.48051","25.0898616666667","6501400","蘆洲區"
"247022","007-UY","2019/10/17 17:59:28","新北市蘆洲區永平街62號","121.45734","25.0918783333333","6501400","蘆洲區"
"247008","002-UY","2019/10/17 17:59:25","新北市蘆洲區信義路32號","121.474373333333","25.0793883333333","6501400","蘆洲區"
"247002","001-UY","2019/10/17 17:59:09","新北市蘆洲區永平街32巷57弄21號","121.459015","25.0931333333333","6501400","蘆洲區"
"228003","097-TW","2019/10/17 17:59:15","新北市貢寮區真理里美艷山街6-2號","121.928845","25.0607766666667","6502600","貢寮區"
"228001","212-TW","2019/10/17 17:59:20","新北市貢寮區真理里新港街26巷53號","121.928355","25.0536833333333","6502600","貢寮區"
"228002","663-BX","2019/10/17 17:59:28","新北市貢寮區福隆里桂安街15號","121.9632","25.0210283333333","6502600","貢寮區"
"224006","676-BX","2019/10/17 17:59:19","新北市瑞芳區傑魚坑路183號","121.788601666667","25.1082133333333","6501200","瑞芳區"
"224009","275-VK","2019/10/17 17:59:21","新北市瑞芳區山尖路191號","121.851156666667","25.1119783333333","6501200","瑞芳區"
"224008","273-VK","2019/10/17 17:57:25","新北市瑞芳區明燈路一段45巷87號","121.82193","25.1045133333333","6501200","瑞芳區"
"224005","271-BY","2019/10/17 17:59:21","新北市瑞芳區深澳路199-1號","121.81948","25.1335483333333","6501200","瑞芳區"
"227001","400-TW","2019/10/17 17:59:14","新北市雙溪區三貂里定福路1-2號","121.850716666667","25.063445","6502500","雙溪區"
"253006","295-VK","2019/10/17 17:59:18","新北市石門區大丘田45-2號","121.549795","25.274865","6502200","石門區"
"253005","741-TV","2019/10/17 17:59:21","新北市石門區中山路62-11號","121.567503333333","25.28966","6502200","石門區"
"222001","KEA-2212","2019/10/17 17:59:25","新北市深坑區北深路二段222號","121.61229","25.0013183333333","6501800","深坑區"
"208002","KEA-2872","2019/10/17 17:59:15","新北市金山區清泉里清水路1號","121.629756666667","25.2273333333333","6502700","金山區"
"208003","665-BX","2019/10/17 17:59:27","新北市金山區磺港里磺港路313號","121.644225","25.2278366666667","6502700","金山區"
"251005","010-UM","2019/10/17 17:59:27","新北市淡水區英專路127號","121.446245","25.1727233333333","6501000","淡水區"
"251015","KEA-2871","2019/10/17 17:59:22","新北市淡水區興福寮88巷1號","121.4853","25.165005","6501000","淡水區"
"251016","179-VK","2019/10/17 17:59:16","新北市淡水區埤島30-13號","121.447913333333","25.19813","6501000","淡水區"
"251004","180-VK","2019/10/17 17:59:10","新北市淡水區民權路187號","121.459658333333","25.1335266666667","6501000","淡水區"
"251008","181-VK","2019/10/17 17:59:18","新北市淡水區八勢一街73號","121.461701666667","25.155155","6501000","淡水區"
"251010","413-VK","2019/10/17 17:59:28","新北市淡水區中正路一段132巷16號","121.422783333333","25.1798533333333","6501000","淡水區"
"251012","443-VK","2019/10/17 17:59:21","新北市淡水區北新路三段30號","121.483671666667","25.18645","6501000","淡水區"
"251001","559-UM","2019/10/17 17:59:22","新北市淡水區民權路94巷1號","121.463098333333","25.1249066666667","6501000","淡水區"
"251006","561-UM","2019/10/17 17:59:27","新北市淡水區新生街74號","121.438931666667","25.1746466666667","6501000","淡水區"
"251009","575-R6","2019/10/17 17:59:15","新北市淡水區水源街一段44號","121.443856666667","25.1721116666667","6501000","淡水區"
"251014","577-R6","2019/10/17 17:59:25","新北市淡水區公埔子16-6號","121.481036666667","25.2245916666667","6501000","淡水區"
"251011","650-BX","2019/10/17 17:55:32","新北市淡水區吳(仔)厝7-1號","121.480445","25.1472333333333","6501000","淡水區"
"251002","672-BX","2019/10/17 17:59:22","新北市淡水區中正路1號","121.444818333333","25.1680283333333","6501000","淡水區"
"251003","673-BX","2019/10/17 17:59:30","新北市淡水區大忠街47號","121.444665","25.17642","6501000","淡水區"
"207003","550-UM","2019/10/17 17:59:21","新北市萬里區野柳里東澳路66號","121.69265","25.2009016666667","6502800","萬里區"
"207004","291-VK","2019/10/17 17:59:13","新北市萬里區萬里里瑪鋉路5號","121.686085","25.174985","6502800","萬里區"
"252002","178-VK","2019/10/17 17:59:11","新北市三芝區中山路二段29號","121.502786666667","25.2553016666667","6502100","三芝區"
"208001","170-UY","2019/10/17 17:59:12","新北市金山區磺港里磺港路249號","121.643985","25.2251583333333","6502700","金山區"
"237004","KEA-2597","2019/10/17 17:59:25","新北市三峽區中正路二段122號","121.366333333333","24.9170933333333","6500900","三峽區"
"237007","153-BY","2019/10/17 17:59:32","新北市三峽區中園街154號","121.366886666667","24.9200116666667","6500900","三峽區"
"237009","210-TH","2019/10/17 17:59:22","新北市三峽區中山路108號","121.36605","24.9358483333333","6500900","三峽區"
"237013","252-BX","2019/10/17 17:59:17","新北市三峽區長泰街94號","121.376061666667","24.9332116666667","6500900","三峽區"
"237012","275-BY","2019/10/17 17:59:18","新北市三峽區民生街17號","121.376276666667","24.93658","6500900","三峽區"
"237008","302-VK","2019/10/17 17:59:28","新北市三峽區白雞24號","121.368431666667","24.9125266666667","6500900","三峽區"
"237014","433-BY","2019/10/17 17:59:16","新北市三峽區復興路101巷1弄79號","121.371003333333","24.9376883333333","6500900","三峽區"
"237006","5529-G3","2019/10/17 17:59:23","新北市三峽區介壽路二段138巷1弄45-5號","121.398086666667","24.93248","6500900","三峽區"
"237011","KEA-2596","2019/10/17 17:59:30","新北市三峽區中正路一段32號","121.375748333333","24.9307833333333","6500900","三峽區"
"237015","649-BX","2019/10/17 17:59:28","新北市三峽區紫微路109號","121.408806666667","24.911205","6500900","三峽區"
"237010","706-TV","2019/10/17 17:59:14","新北市三峽區中山路93號","121.366321666667","24.9353983333333","6500900","三峽區"
"237005","AKY-6261","2019/10/17 17:59:16","新北市三峽區復興路239-1號","121.368165","24.9386716666667","6500900","三峽區"
"236042","KED-0685","2019/10/17 17:59:31","新北市土城區城林路6巷80號","121.438538333333","24.9796283333333","6501300","土城區"
"233002","762-BX","2019/10/17 17:59:23","新北市烏來區烏來街82號","121.55146","24.86266","6502900","烏來區"
"236078","166-UM","2019/10/17 17:59:12","新北市土城區永寧路32巷10弄23號","121.428868333333","24.9610416666667","6501300","土城區"
"236026","269-VK","2019/10/17 17:59:22","新北市土城區中央路三段96-1號","121.435738333333","24.96651","6501300","土城區"
"236014","270-VK","2019/10/17 17:59:16","新北市土城區城林路6巷80號","121.438498333333","24.9796483333333","6501300","土城區"
"236038","271-VK","2019/10/17 17:59:13","新北市土城區中華路一段301號","121.439815","24.9794","6501300","土城區"
"247012","KED-0683","2019/10/17 17:59:18","新北市蘆洲區民族路184號","121.479831666667","25.086985","6501400","蘆洲區"
"236070","KEA-2877","2019/10/17 17:59:11","新北市土城區青雲路665-2號","121.46641","24.9646566666667","6501300","土城區"
"252001","KED-0821","2019/10/17 17:59:16","新北市三芝區中興街二段2號","121.498435","25.2566416666667","6502100","三芝區"
"236021","401-BY","2019/10/17 17:59:23","新北市土城區城林路6巷80號","121.43855","24.9797466666667","6501300","土城區"
"236063","752-BX","2019/10/17 17:59:28","新北市土城區城林路6巷80號","121.438713333333","24.9797016666667","6501300","土城區"
"236059","912-UM","2019/10/17 17:59:28","新北市土城區中央路三段250號","121.427536666667","24.9642083333333","6501300","土城區"
"236049","913-UM","2019/10/17 17:59:30","新北市土城區中正路63號","121.444431666667","24.9755666666667","6501300","土城區"
"236055","AAC-216","2019/10/17 17:59:21","新北市土城區城林路6巷80號","121.43811","24.97958","6501300","土城區"
"242042","AAC-296","2019/10/17 17:59:27","新北市新莊區丹鳳街40號","121.421611666667","25.0296033333333","6500500","新莊區"
"242061","986-R7","2019/10/17 17:59:13","新北市新莊區新樹路595號","121.432986666667","25.0064233333333","6500500","新莊區"
"242004","751-BX","2019/10/17 17:59:23","新北市新莊區思源路177巷50號","121.45926","25.0467383333333","6500500","新莊區"
"242029","615-BX","2019/10/17 17:59:16","新北市新莊區中平路77號","121.444703333333","25.0451066666667","6500500","新莊區"
"242027","613-BX","2019/10/17 17:59:24","新北市新莊區思源路455號","121.4597","25.0534566666667","6500500","新莊區"
"242058","612-BX","2019/10/17 17:59:17","新北市新莊區中山路三段627號","121.413885","25.0237183333333","6500500","新莊區"
"242048","566-BX","2019/10/17 17:59:24","新北市新莊區萬安街28號","121.421376666667","25.0243966666667","6500500","新莊區"
"242053","497-BY","2019/10/17 17:59:30","新北市新莊區西盛街395巷29弄11號","121.42854","25.011865","6500500","新莊區"
"242039","442-UM","2019/10/17 17:59:14","新北市新莊區民安路301號","121.429563333333","25.0225133333333","6500500","新莊區"
"242002","441-UM","2019/10/17 17:59:25","新北市新莊區大觀街43號","121.453618333333","25.0356433333333","6500500","新莊區"
"242007","440-UM","2019/10/17 17:59:18","新北市新莊區自信街65巷16號","121.455573333333","25.0488266666667","6500500","新莊區"
"242013","413-TV","2019/10/17 17:59:19","新北市新莊區中和街125巷7號","121.446975","25.04857","6500500","新莊區"
"242051","400-BY","2019/10/17 17:59:26","新北市新莊區龍安路500號","121.426613333333","25.017065","6500500","新莊區"
"242025","362-BY","2019/10/17 17:59:22","新北市三重區光復路二段172-1號","121.471203333333","25.06153","6500500","新莊區"
"242023","353-BY","2019/10/17 17:59:16","新北市新莊區福壽街39號","121.458188333333","25.0485983333333","6500500","新莊區"
"242015","132-UY","2019/10/17 17:59:30","新北市新莊區新泰路502巷38號","121.443601666667","25.0465733333333","6500500","新莊區"
"242056","172-VK","2019/10/17 17:59:14","新北市新莊區豐年街124巷18號","121.44552","25.0298116666667","6500500","新莊區"
"242017","173-VK","2019/10/17 17:59:31","新北市新莊區中和街60巷13號","121.44853","25.0448166666667","6500500","新莊區"
"242031","175-VK","2019/10/17 17:59:18","新北市新莊區新泰路305巷12號","121.444641666667","25.0409466666667","6500500","新莊區"
"242019","176-VK","2019/10/17 17:59:19","新北市新莊區明中街47巷15號","121.456981666667","25.0386516666667","6500500","新莊區"
"242021","KED-0687","2019/10/17 17:59:29","新北市新莊區建興街32號","121.450038333333","25.0372183333333","6500500","新莊區"
"242044","346-TH","2019/10/17 17:59:17","新北市新莊區雙鳳路80號","121.415018333333","25.027645","6500500","新莊區"
"242034","347-TH","2019/10/17 17:59:23","新北市新莊區中正路421巷7號","121.444731666667","25.0339366666667","6500500","新莊區"
"242036","348-TH","2019/10/17 17:59:21","新北市新莊區建福路68號","121.42681","25.0269266666667","6500500","新莊區"
"242009","349-TH","2019/10/17 17:59:33","新北市新莊區中華路二段260號","121.452605","25.0532216666667","6500500","新莊區"
"238015","755-BX","2019/10/17 17:59:28","新北市樹林區大安路307巷1弄14號","121.418556666667","24.9923916666667","6500700","樹林區"
"238023","601-UM","2019/10/17 17:59:22","新北市樹林區龍興街46巷36號","121.401868333333","25.0152216666667","6500700","樹林區"
"238019","599-UM","2019/10/17 17:59:31","新北市樹林區太平路176號","121.418443333333","24.976805","6500700","樹林區"
"238018","KEA-2217","2019/10/17 17:59:13","新北市樹林區中正路7-1號","121.430223333333","24.9976283333333","6500700","樹林區"
"238022","KEA-2213","2019/10/17 17:59:32","新北市樹林區太平路150巷34號","121.417646666667","24.97763","6500700","樹林區"
"238021","KEA-2539","2019/10/17 17:59:26","新北市樹林區柑園街一段132巷17號","121.39938","24.9583033333333","6500700","樹林區"
"238025","303-VK","2019/10/17 17:59:31","新北市樹林區三俊街111號","121.417161666667","25.0155183333333","6500700","樹林區"
"238017","283-BY","2019/10/17 17:59:23","新北市樹林區中正路644號","121.40992","25.016275","6500700","樹林區"
"238014","282-BY","2019/10/17 17:59:13","新北市樹林區中正路89號","121.425851666667","25.0004383333333","6500700","樹林區"
"238020","268-VK","2019/10/17 17:59:25","新北市樹林區三俊街199巷20弄1-1號","121.420508333333","25.0177633333333","6500700","樹林區"
"238026","172-UY","2019/10/17 17:59:18","新北市樹林區中山路三段125-10號","121.39735","24.973405","6500700","樹林區"
"238016","169-UY","2019/10/17 17:59:19","新北市樹林區育英街146號","121.419238333333","24.98946","6500700","樹林區"
"239007","AAC-297","2019/10/17 17:59:28","新北市鶯歌區鶯桃路94巷33-2號","121.342015","24.9547783333333","6500800","鶯歌區"
"239006","891-R6","2019/10/17 17:59:15","新北市鶯歌區鶯桃路413巷34弄4號","121.331123333333","24.963625","6500800","鶯歌區"
"239008","527-UM","2019/10/17 17:59:18","新北市鶯歌區香賓街9巷3號","121.336426666667","24.9790133333333","6500800","鶯歌區"
"239005","526-UM","2019/10/17 17:59:29","新北市鶯歌區鶯桃路658巷87號","121.331426666667","24.9707016666667","6500800","鶯歌區"
"239001","417-VK","2019/10/17 17:59:23","新北市鶯歌區中正三路248號","121.329836666667","24.9365983333333","6500800","鶯歌區"
"239003","360-BY","2019/10/17 17:59:25","新北市鶯歌區永吉街45號","121.335563333333","24.9572716666667","6500800","鶯歌區"
"239002","359-BY","2019/10/17 17:59:14","新北市鶯歌區國華路63號","121.342835","24.954935","6500800","鶯歌區"
"221010","269-BY","2019/10/17 17:59:30","新北市汐止區汐萬路二段247號","121.646468333333","25.0882483333333","6501100","汐止區"
"221023","279-VK","2019/10/17 17:59:26","新北市汐止區明峰街115號","121.631133333333","25.071115","6501100","汐止區"
"221029","298-VK","2019/10/17 17:59:13","新北市汐止區樟樹二路331號","121.64141","25.0704816666667","6501100","汐止區"
"221031","353-TW","2019/10/17 17:59:29","新北市汐止區中興路96巷1-3號","121.635238333333","25.06254","6501100","汐止區"
"221035","622-UM","2019/10/17 17:59:20","新北市汐止區汐萬路一段213號","121.651836666667","25.0720116666667","6501100","汐止區"
"221025","623-UM","2019/10/17 17:59:18","新北市汐止區仁愛路17號","121.659215","25.063905","6501100","汐止區"
"221033","647-BX","2019/10/17 17:59:23","新北市汐止區合順街21號","121.62015","25.04321","6501100","汐止區"
"221018","753-BX","2019/10/17 17:59:22","新北市汐止區忠孝東路341號","121.66537","25.0700083333333","6501100","汐止區"
"224002","257-TC","2019/10/17 17:59:19","新北市瑞芳區三爪子坑路133號","121.810348333333","25.1066716666667","6501200","瑞芳區"
"242046","281-VK","2019/10/17 17:59:19","新北市新莊區福營路165巷16號","121.432495","25.0303483333333","6500500","新莊區"
"242011","280-VK","2019/10/17 17:59:19","新北市新莊區中港路629-1號","121.450625","25.053845","6500500","新莊區"
"235061","KEA-2875","2019/10/17 17:59:04","新北市中和區員山路63號","121.480766666667","24.993705","6500300","中和區"
"235062","KEA-2876","2019/10/17 17:59:24","新北市中和區民樂路69-2號","121.48412","25.001315","6500300","中和區"
