"lineid","car","time","location","longitude","latitude","cityid","cityname"
"234046","148-BY","2019/10/17 18:49:17","新北市永和區秀朗路二段124-3號","121.52482","25.0014583333333","6500400","永和區"
"234081","298-R6","2019/10/17 18:49:25","新北市永和區永利路108號","121.521248333333","25.00342","6500400","永和區"
"234086","338-UY","2019/10/17 18:49:22","新北市永和區中正路170號","121.515121666667","24.9967816666667","6500400","永和區"
"234070","552-UM","2019/10/17 18:49:17","新北市永和區福和路1號","121.525705","25.0094","6500400","永和區"
"234064","553-UM","2019/10/17 18:49:27","新北市永和區福和路1號","121.525711666667","25.009385","6500400","永和區"
"234017","745-BX","2019/10/17 18:49:19","新北市永和區永和路二段297號","121.516001666667","25.016045","6500400","永和區"
"234030","746-BX","2019/10/17 18:49:17","新北市永和區得和路326號","121.523221666667","24.99957","6500400","永和區"
"234054","KEA-2590","2019/10/17 18:49:25","新北市永和區豫溪街191巷3弄1號","121.523288333333","25.0103783333333","6500400","永和區"
"234007","KED-0605","2019/10/17 18:49:12","新北市永和區文化路168號","121.512088333333","25.0153383333333","6500400","永和區"
"234013","KEA-2591","2019/10/17 18:49:31","新北市永和區保福路二段133巷34號","121.508898333333","25.0134016666667","6500400","永和區"
"234061","AAD-866","2019/10/17 18:49:26","新北市永和區福和路307號","121.5163","25.0071883333333","6500400","永和區"
"234042","862-TW","2019/10/17 18:49:11","新北市永和區永貞路308號","121.51182","25.00485","6500400","永和區"
"234050","863-TW","2019/10/17 18:49:25","新北市永和區環河東路二段20號","121.522571666667","25.012935","6500400","永和區"
"234026","9371-KE","2019/10/17 18:49:18","新北市永和區自由街58號","121.513771666667","25.0059166666667","6500400","永和區"
"234011","9373-KE","2019/10/17 18:49:25","新北市永和區文化路126巷15弄2號","121.513051666667","25.0158883333333","6500400","永和區"
"249005","172-UM","2019/10/17 18:49:23","新北市八里區長道坑17號","121.396216666667","25.1155816666667","6502300","八里區"
"249001","173-UM","2019/10/17 18:49:17","新北市八里區龍米路二段58-1號","121.44816","25.1408483333333","6502300","八里區"
"249004","303-UY","2019/10/17 18:49:25","新北市八里區中山路一段150巷80號","121.415971666667","25.1603033333333","6502300","八里區"
"249002","305-UY","2019/10/17 18:49:15","新北市八里區龍形一街33巷6-2號","121.449326666667","25.1294683333333","6502300","八里區"
"249003","593-UM","2019/10/17 18:39:36","新北市八里區博物館路10-1號","121.415118333333","25.1639766666667","6502300","八里區"
"248016","026-BX","2019/10/17 18:49:27","新北市五股區成泰路三段543巷50號","121.450043333333","25.1028566666667","6501500","五股區"
"248006","077-UY","2019/10/17 18:49:20","新北市五股區中興路一段48號","121.468116666667","25.07257","6501500","五股區"
"248008","KED-0815","2019/10/17 18:49:21","新北市五股區中興路一段151巷1弄2號","121.46497","25.0730016666667","6501500","五股區"
"248020","KED-0813","2019/10/17 18:49:25","新北市五股區凌雲路三段92-2號","121.428183333333","25.11985","6501500","五股區"
"248010","272-BY","2019/10/17 18:49:29","新北市五股區水碓九路57號","121.429418333333","25.072395","6501500","五股區"
"248004","677-BX","2019/10/17 18:49:31","新北市五股區民義路二段73號","121.409006666667","25.105595","6501500","五股區"
"248002","678-BX","2019/10/17 18:49:26","新北市五股區成泰路三段454號","121.451421666667","25.1003666666667","6501500","五股區"
"248012","682-TV","2019/10/17 18:49:22","新北市五股區成泰路二段147巷6號","121.437618333333","25.0892033333333","6501500","五股區"
"234023","9380-KE","2019/10/17 18:49:17","新北市永和區竹林路119巷45號","121.521913333333","25.011905","6500400","永和區"
"234077","969-R7","2019/10/17 18:49:18","新北市永和區中正路2巷29弄7號","121.513755","24.9938383333333","6500400","永和區"
"234067","AAC-212","2019/10/17 18:49:18","新北市永和區永和路一段2號","121.512675","25.0044566666667","6500400","永和區"
"232011","375-UM","2019/10/17 18:49:24","新北市坪林區坪雙路一段5號","121.711293333333","24.9395516666667","6502000","坪林區"
"244007","080-UY","2019/10/17 18:49:17","新北市林口區太平里5鄰23號","121.376463333333","25.1158633333333","6501700","林口區"
"244019","402-UM","2019/10/17 18:49:19","新北市林口區麗園二街12巷3-2號","121.378985","25.0695583333333","6501700","林口區"
"244013","KEA-2802","2019/10/17 18:49:15","新北市林口區麗園一街11巷3號","121.377418333333","25.0704333333333","6501700","林口區"
"244023","483-VK","2019/10/17 18:49:28","新北市林口區吉祥路178號","121.376645","25.080525","6501700","林口區"
"244017","485-VK","2019/10/17 18:49:22","新北市林口區文化二路一段20巷25弄9號","121.36538","25.0672016666667","6501700","林口區"
"244009","656-BX","2019/10/17 18:49:15","新北市林口區竹林路418巷8號","121.389465","25.0848266666667","6501700","林口區"
"244011","701-TV","2019/10/17 18:49:17","新北市林口區仁愛路一段285巷50號","121.395476666667","25.0746566666667","6501700","林口區"
"244025","837-TS","2019/10/17 18:49:20","新北市林口區南勢街204號","121.359803333333","25.07491","6501700","林口區"
"243010","297-R6","2019/10/17 18:49:13","新北市泰山區辭修路48號","121.428496666667","25.0572016666667","6501600","泰山區"
"243016","421-VK","2019/10/17 18:49:20","新北市泰山區明志路一段517號","121.430385","25.0541766666667","6501600","泰山區"
"243015","680-BX","2019/10/17 18:49:22","新北市泰山區美寧街50號","121.430498333333","25.0644483333333","6501600","泰山區"
"222003","436-BY","2019/10/17 18:49:18","新北市深坑區深南路51-1號","121.62134","25.0101483333333","6501800","深坑區"
"222002","659-BX","2019/10/17 18:49:32","新北市深坑區文山路一段69號","121.627126666667","25.00194","6501800","深坑區"
"231061","002-UM","2019/10/17 18:49:29","新北市新店區安華路28-1號","121.52001","24.9609966666667","6500600","新店區"
"231044","046-UY","2019/10/17 18:49:29","新北市新店區中興路三段88號","121.545653333333","24.9782766666667","6500600","新店區"
"231060","106-UY","2019/10/17 18:49:23","新北市新店區安華路28-1號","121.51975","24.960935","6500600","新店區"
"231051","107-UY","2019/10/17 18:49:17","新北市新店區安康路一段85號","121.52947","24.9613466666667","6500600","新店區"
"231049","108-UY","2019/10/17 18:49:28","新北市新店區中央路153號","121.529813333333","24.97297","6500600","新店區"
"231065","110-UY","2019/10/17 18:49:20","新北市新店區安康路三段250號","121.487578333333","24.9518133333333","6500600","新店區"
"231062","256-BX","2019/10/17 18:49:20","新北市新店區安一路一段1-1號","121.519838333333","24.9610916666667","6500600","新店區"
"231054","260-TV","2019/10/17 18:49:15","新北市新店區安一路一段1-1號","121.519335","24.9611616666667","6500600","新店區"
"231042","268-BY","2019/10/17 18:49:24","新北市新店區中興路二段89號","121.54707","24.9714516666667","6500600","新店區"
"231064","278-BY","2019/10/17 18:49:16","新北市新店區安一路一段1-1號","121.519868333333","24.9611666666667","6500600","新店區"
"231050","AAD-862","2019/10/17 18:49:12","新北市新店區安康路一段83-2號","121.529536666667","24.9613833333333","6500600","新店區"
"231045","355-BY","2019/10/17 18:49:33","新北市新店區安華路28-1號","121.519231666667","24.96095","6500600","新店區"
"231058","3713-VJ","2019/10/17 18:48:32","新北市新店區北宜路一段168號","121.540466666667","24.952975","6500600","新店區"
"231055","4716-K9","2019/10/17 18:49:30","新北市新店區中華路47巷9號","121.539698333333","24.96729","6500600","新店區"
"231056","4715-K9","2019/10/17 18:49:15","新北市新店區大同街12號","121.539661666667","24.9799","6500600","新店區"
"231067","4772-VM","2019/10/17 18:49:24","新北市新店區安華路28-1號","121.519293333333","24.96069","6500600","新店區"
"231052","513-UM","2019/10/17 18:49:25","新北市新店區新烏路一段107號","121.545758333333","24.9405016666667","6500600","新店區"
"231041","619-UM","2019/10/17 18:49:14","新北市新店區安華路28-1號","121.519381666667","24.9609066666667","6500600","新店區"
"231063","641-BX","2019/10/17 18:49:29","新北市新店區安華路28-1號","121.519593333333","24.9606233333333","6500600","新店區"
"231047","KED-0819","2019/10/17 18:49:25","新北市新店區北新路一段91號","121.53872","24.9617516666667","6500600","新店區"
"231046","719-UM","2019/10/17 18:49:17","新北市新店區直潭路71號","121.532396666667","24.9422133333333","6500600","新店區"
"231057","720-UM","2019/10/17 18:49:19","新北市新店區花園一路二段28號","121.551388333333","24.9319866666667","6500600","新店區"
"231059","897-TW","2019/10/17 18:49:29","新北市新店區安華路28-1號","121.519693333333","24.9610333333333","6500600","新店區"
"231040","898-TW","2019/10/17 18:49:23","新北市新店區安康路一段222-2號","121.52297","24.9636583333333","6500600","新店區"
"231043","899-TW","2019/10/17 18:49:12","新北市新店區安一路一段1-1號","121.519656666667","24.9613533333333","6500600","新店區"
"241035","462-BY","2019/10/17 18:49:21","新北市三重區重新路四段121號","121.484938333333","25.0519","6500200","三重區"
"235066","003-UY","2019/10/17 18:49:17","新北市中和區廣福路56巷6號","121.503488333333","25.0023933333333","6500300","中和區"
"235063","006-UY","2019/10/17 18:49:25","新北市中和區連城路319巷6號","121.48916","24.995375","6500300","中和區"
"235056","096-UM","2019/10/17 18:49:23","新北市中和區員山路466巷17弄20號","121.480491666667","25.0075116666667","6500300","中和區"
"235039","097-UM","2019/10/17 18:49:29","新北市中和區安樂路217巷45號","121.513266666667","24.9977916666667","6500300","中和區"
"235065","098-UM","2019/10/17 18:49:28","新北市中和區莊敬路33巷21號","121.500441666667","25.0071216666667","6500300","中和區"
"235040","150-BY","2019/10/17 18:49:21","新北市中和區安平路64號","121.510666666667","24.996175","6500300","中和區"
"235058","151-BY","2019/10/17 18:49:19","新北市中和區連城路518巷1號","121.476371666667","24.9917683333333","6500300","中和區"
"235055","183-VK","2019/10/17 18:49:30","新北市中和區民德路8-1號","121.468745","25.0029466666667","6500300","中和區"
"235038","185-VK","2019/10/17 18:49:16","新北市中和區大勇街35號","121.517478333333","24.9941816666667","6500300","中和區"
"235067","255-BX","2019/10/17 18:49:23","新北市中和區民樂路81號","121.484785","25.0014783333333","6500300","中和區"
"235044","293-VK","2019/10/17 18:49:31","新北市中和區中興街169號","121.49984","24.99056","6500300","中和區"
"235072","301-VK","2019/10/17 18:49:25","新北市中和區景平路740號","121.496575","25.0041283333333","6500300","中和區"
"235043","352-BY","2019/10/17 18:49:28","新北市永和區成功路二段193號","121.526561666667","24.9964583333333","6500300","中和區"
"235042","KEA-2878","2019/10/17 18:49:30","新北市中和區秀朗路三段70巷41號","121.525265","24.99433","6500300","中和區"
"235050","4979-A6","2019/10/17 18:49:19","新北市中和區忠孝街62巷9弄1號","121.513133333333","24.98394","6500300","中和區"
"235069","4980-A6","2019/10/17 18:49:17","新北市中和區南山路52巷10號","121.501546666667","24.9973866666667","6500300","中和區"
"235070","558-UM","2019/10/17 18:49:24","新北市中和區安和路216-1號","121.506106666667","24.99903","6500300","中和區"
"235045","565-BX","2019/10/17 18:49:24","新北市中和區景新街467巷20弄15號","121.514758333333","24.9873816666667","6500300","中和區"
"235060","KED-0823","2019/10/17 18:49:27","新北市中和區民享街93巷14號","121.475388333333","25.0010366666667","6500300","中和區"
"235054","640-BX","2019/10/17 18:49:22","新北市中和區民享街34號","121.473943333333","25.00311","6500300","中和區"
"235047","732-UM","2019/10/17 18:49:23","新北市中和區興南路二段34巷57弄1號","121.504846666667","24.9859416666667","6500300","中和區"
"235046","733-UM","2019/10/17 18:49:23","新北市中和區興南路一段147號","121.508658333333","24.987295","6500300","中和區"
"235057","801-TS","2019/10/17 18:49:23","新北市中和區民利街70號","121.478565","24.998405","6500300","中和區"
"235041","802-TS","2019/10/17 18:49:23","新北市中和區宜安路118巷26號","121.511096666667","24.9989116666667","6500300","中和區"
"235052","805-TS","2019/10/17 18:49:16","新北市中和區興南路二段399巷98弄48號","121.498","24.9764633333333","6500300","中和區"
"235048","896-TW","2019/10/17 18:49:12","新北市中和區南山路300號","121.507861666667","24.9870483333333","6500300","中和區"
"235053","900-TW","2019/10/17 18:49:27","新北市中和區民德路290巷15號","121.466656666667","24.9959566666667","6500300","中和區"
"235064","911-UM","2019/10/17 18:49:28","新北市中和區泰和街44巷33號","121.498035","25.0012316666667","6500300","中和區"
"235051","157-BY","2019/10/17 18:49:28","新北市中和區忠孝街106巷9弄9號","121.512665","24.9844316666667","6500300","中和區"
"235037","AAC-213","2019/10/17 18:49:15","新北市中和區秀朗路三段10巷14弄43號","121.524075","24.9963716666667","6500300","中和區"
"235059","AAC-215","2019/10/17 18:49:14","新北市中和區圓通路393巷9號","121.489866666667","24.9886283333333","6500300","中和區"
"220065","072-UY","2019/10/17 18:49:14","新北市板橋區民族路61號","121.46491","25.0086033333333","6500100","板橋區"
"220086","073-UY","2019/10/17 18:49:22","新北市板橋區南雅西路二段145巷5號","121.451721666667","25.011395","6500100","板橋區"
"220106","075-UY","2019/10/17 18:49:26","新北市板橋區莒光路48-1號","121.470691666667","25.0243616666667","6500100","板橋區"
"220069","AAD-861","2019/10/17 18:49:16","新北市板橋區華興街81號","121.456881666667","25.0050983333333","6500100","板橋區"
"226004","312-R5","2019/10/17 18:49:17","新北市平溪區平溪里平溪街60-1號","121.73802","25.0273733333333","6502400","平溪區"
"235049","251-BX","2019/10/17 18:49:21","新北市中和區景安路177巷19號","121.506203333333","24.99441","6500300","中和區"
"228003","097-TW","2019/10/17 18:49:14","新北市貢寮區和美里龍洞街12-2號","121.918323333333","25.111825","6502600","貢寮區"
"228001","212-TW","2019/10/17 18:49:20","新北市貢寮區仁理村研海街12-1號","121.923785","25.0516516666667","6502600","貢寮區"
"228002","663-BX","2019/10/17 18:49:28","新北市貢寮區福隆里東興街6-11號","121.950731666667","25.021105","6502600","貢寮區"
"224010","AGQ-8101","2019/10/17 18:49:12","新北市瑞芳區基山街34號","121.84493","25.1083666666667","6501200","瑞芳區"
"224006","676-BX","2019/10/17 18:49:19","新北市瑞芳區民權街4巷1-1號","121.807846666667","25.1065633333333","6501200","瑞芳區"
"224007","285-BY","2019/10/17 18:49:28","新北市瑞芳區大埔路慶安新村7號","121.762356666667","25.1005383333333","6501200","瑞芳區"
"224009","275-VK","2019/10/17 18:49:21","新北市瑞芳區祈堂路8號","121.858888333333","25.1134783333333","6501200","瑞芳區"
"224008","273-VK","2019/10/17 18:49:25","新北市瑞芳區裕民新城2號","121.801911666667","25.1119666666667","6501200","瑞芳區"
"224005","271-BY","2019/10/17 18:49:18","新北市瑞芳區海濱路87-1號","121.830643333333","25.12255","6501200","瑞芳區"
"227002","642-TC","2019/10/17 18:49:25","新北市雙溪區魚行里坤溪35號","121.870566666667","25.0302833333333","6502500","雙溪區"
"227001","400-TW","2019/10/17 18:49:14","新北市雙溪區牡丹里下坑11號","121.850976666667","25.0562033333333","6502500","雙溪區"
"253006","295-VK","2019/10/17 18:49:18","新北市石門區下員坑15-13號","121.512375","25.28416","6502200","石門區"
"253005","741-TV","2019/10/17 18:49:21","新北市石門區中山路28-2號","121.56571","25.2896916666667","6502200","石門區"
"222001","KEA-2212","2019/10/17 18:49:25","新北市深坑區北深路一段62號","121.636991666667","25.010735","6501800","深坑區"
"208002","KEA-2872","2019/10/17 18:49:15","新北市金山區信義路66號","121.63569","25.2189366666667","6502700","金山區"
"208003","665-BX","2019/10/17 18:49:27","新北市金山區中山路344號","121.633525","25.2254066666667","6502700","金山區"
"251015","KEA-2871","2019/10/17 18:49:22","新北市淡水區糞箕湖60號","121.48522","25.17232","6501000","淡水區"
"251016","179-VK","2019/10/17 18:49:14","新北市淡水區下圭柔山71-3號","121.446995","25.2061883333333","6501000","淡水區"
"251013","182-VK","2019/10/17 18:49:13","新北市淡水區安子內5號","121.483156666667","25.21446","6501000","淡水區"
"251010","413-VK","2019/10/17 18:49:28","新北市淡水區沙崙路24號","121.421313333333","25.1812666666667","6501000","淡水區"
"251012","443-VK","2019/10/17 18:49:21","新北市淡水區北新路2號","121.44417","25.1777633333333","6501000","淡水區"
"251001","559-UM","2019/10/17 18:49:22","新北市淡水區自強路108-1號","121.461771666667","25.1303916666667","6501000","淡水區"
"251009","575-R6","2019/10/17 18:49:15","新北市淡水區重建街220號","121.441356666667","25.174795","6501000","淡水區"
"251014","577-R6","2019/10/17 18:49:25","新北市淡水區崙頂17號","121.48664","25.2230916666667","6501000","淡水區"
"251011","650-BX","2019/10/17 18:49:31","新北市淡水區學府路32巷87號","121.448171666667","25.1677033333333","6501000","淡水區"
"251002","672-BX","2019/10/17 18:49:22","新北市淡水區學府路88號","121.449251666667","25.17091","6501000","淡水區"
"251003","673-BX","2019/10/17 18:49:30","新北市淡水區中山北路一段212巷38號","121.446076666667","25.1790216666667","6501000","淡水區"
"207003","550-UM","2019/10/17 18:49:21","新北市萬里區野柳里港東路160號","121.690008333333","25.2047833333333","6502800","萬里區"
"207004","291-VK","2019/10/17 18:49:13","新北市萬里區萬里里獅頭路23號","121.693245","25.1782133333333","6502800","萬里區"
"252002","178-VK","2019/10/17 18:49:31","新北市三芝區中正路一段101-1號","121.504748333333","25.2562733333333","6502100","三芝區"
"252003","249-BX","2019/10/17 18:49:17","新北市三芝區後厝里大片頭81-1號","121.459106666667","25.2444183333333","6502100","三芝區"
"208001","170-UY","2019/10/17 18:49:12","新北市金山區文化三路66巷1號","121.634205","25.2256316666667","6502700","金山區"
"237004","KEA-2597","2019/10/17 18:49:25","新北市三峽區插角235號","121.412156666667","24.8690033333333","6500900","三峽區"
"237007","153-BY","2019/10/17 18:49:12","新北市三峽區大埔路136號","121.367748333333","24.903835","6500900","三峽區"
"237013","252-BX","2019/10/17 18:49:17","新北市三峽區光明路69巷25號","121.376505","24.9291483333333","6500900","三峽區"
"237012","275-BY","2019/10/17 18:49:17","新北市三峽區三樹路340號","121.383943333333","24.9433216666667","6500900","三峽區"
"237008","302-VK","2019/10/17 18:49:28","新北市三峽區白雞24號","121.368445","24.9125333333333","6500900","三峽區"
"237014","433-BY","2019/10/17 18:49:16","新北市三峽區隆恩街241號","121.358126666667","24.9412266666667","6500900","三峽區"
"237006","5529-G3","2019/10/17 18:49:27","新北市三峽區溪東路211巷31弄11號","121.40544","24.9343083333333","6500900","三峽區"
"237011","KEA-2596","2019/10/17 18:49:30","新北市三峽區溪東路231號","121.406323333333","24.9328333333333","6500900","三峽區"
"237015","649-BX","2019/10/17 18:49:28","新北市三峽區建安107-5號","121.456798333333","24.9227633333333","6500900","三峽區"
"237010","706-TV","2019/10/17 18:49:14","新北市三峽區復興路489號","121.361243333333","24.9384383333333","6500900","三峽區"
"237005","AKY-6261","2019/10/17 18:49:16","新北市三峽區中山路169巷16-9號","121.364151666667","24.9355233333333","6500900","三峽區"
"236042","KED-0685","2019/10/17 18:49:11","新北市土城區裕民路92巷25弄3號","121.4497","24.98593","6501300","土城區"
"236078","166-UM","2019/10/17 18:49:12","新北市土城區中央路四段185巷46號","121.41611","24.95585","6501300","土城區"
"236030","253-BX","2019/10/17 18:49:16","新北市土城區忠義路26巷10號","121.439876666667","24.9698866666667","6501300","土城區"
"236026","269-VK","2019/10/17 18:49:27","新北市土城區興城路28巷1號","121.442038333333","24.9729283333333","6501300","土城區"
"236014","270-VK","2019/10/17 18:49:16","新北市土城區清水路235巷5弄1號","121.460813333333","24.9836883333333","6501300","土城區"
"236038","271-VK","2019/10/17 18:49:33","新北市土城區明德路一段197號","121.463805","24.97886","6501300","土城區"
"236070","KEA-2877","2019/10/17 18:49:31","新北市土城區延和路21巷1號","121.464215","24.9884766666667","6501300","土城區"
"252001","KED-0821","2019/10/17 18:49:16","新北市三芝區中正路三段9號","121.502823333333","25.253985","6502100","三芝區"
"236021","401-BY","2019/10/17 18:49:23","新北市土城區延吉街253巷5號","121.467795","24.98466","6501300","土城區"
"236063","752-BX","2019/10/17 18:45:08","新北市中和區民享街498號","121.469401666667","24.9916733333333","6501300","土城區"
"236059","912-UM","2019/10/17 18:49:28","新北市土城區金城路一段112號","121.44645","24.975115","6501300","土城區"
"236049","913-UM","2019/10/17 18:49:29","新北市板橋區廣權路2號","121.460153333333","24.9907616666667","6501300","土城區"
"236055","AAC-216","2019/10/17 18:49:21","新北市土城區裕民路155號","121.452208333333","24.98585","6501300","土城區"
"242061","986-R7","2019/10/17 18:49:33","新北市新莊區新樹路206巷3號","121.433446666667","25.0203933333333","6500500","新莊區"
"242002","441-UM","2019/10/17 18:49:25","新北市樹林區八德街834號","121.392413333333","24.9686366666667","6500500","新莊區"
"242034","347-TH","2019/10/17 18:49:23","新北市樹林區八德街1166號","121.390456666667","24.96836","6500500","新莊區"
"242009","349-TH","2019/10/17 18:49:13","新北市泰山區民生路175-3號","121.435933333333","25.0410633333333","6500500","新莊區"
"238023","601-UM","2019/10/17 18:49:22","桃園市龜山區萬壽路一段425號","121.399511666667","25.0162066666667","6500700","樹林區"
"238024","5061-A6","2019/10/17 18:49:18","新北市樹林區太順街49巷5號","121.418123333333","24.978875","6500700","樹林區"
"238022","KEA-2213","2019/10/17 18:49:32","新北市樹林區中華路190-8號","121.41134","24.980505","6500700","樹林區"
"238021","KEA-2539","2019/10/17 18:49:21","新北市樹林區西圳街二段56號","121.38707","24.9597983333333","6500700","樹林區"
"238020","268-VK","2019/10/17 18:49:24","新北市樹林區俊英街280號","121.423785","25.01312","6500700","樹林區"
"238026","172-UY","2019/10/17 18:49:18","新北市樹林區信和街90號","121.388725","24.9734","6500700","樹林區"
"238016","169-UY","2019/10/17 18:49:19","新北市樹林區中山路二段34號","121.417346666667","24.9851766666667","6500700","樹林區"
"239008","527-UM","2019/10/17 18:49:18","新北市鶯歌區朝陽街4號","121.336243333333","24.9766233333333","6500800","鶯歌區"
"239005","526-UM","2019/10/17 18:49:29","新北市鶯歌區鶯桃路668巷1號","121.328926666667","24.9696366666667","6500800","鶯歌區"
"239001","417-VK","2019/10/17 18:49:23","新北市鶯歌區國中街178號","121.338241666667","24.93919","6500800","鶯歌區"
"239003","360-BY","2019/10/17 18:49:25","新北市鶯歌區鶯桃路401號","121.333278333333","24.964135","6500800","鶯歌區"
"239002","359-BY","2019/10/17 18:49:14","新北市鶯歌區光明街191號","121.343315","24.955745","6500800","鶯歌區"
"239004","193-VK","2019/10/17 18:49:25","新北市鶯歌區尖山路348號","121.341246666667","24.9437116666667","6500800","鶯歌區"
"221036","130-UY","2019/10/17 18:49:23","新北市汐止區大同路二段613號","121.664183333333","25.0707316666667","6501100","汐止區"
"221015","131-UY","2019/10/17 18:49:29","新北市汐止區鄉友街16號","121.668391666667","25.0808716666667","6501100","汐止區"
"221032","280-BY","2019/10/17 18:49:26","新北市汐止區橫科路121巷52弄3號","121.62264","25.0509083333333","6501100","汐止區"
"221029","298-VK","2019/10/17 18:49:13","新北市汐止區工建路66號","121.640541666667","25.0631016666667","6501100","汐止區"
"221021","299-VK","2019/10/17 18:49:24","新北市汐止區新興路47號","121.65723","25.0631766666667","6501100","汐止區"
"221031","353-TW","2019/10/17 18:49:28","新北市汐止區福德一路274號","121.632078333333","25.0640766666667","6501100","汐止區"
"221035","622-UM","2019/10/17 18:49:20","新北市汐止區大同路二段33號","121.647701666667","25.0630366666667","6501100","汐止區"
"221025","623-UM","2019/10/17 18:49:18","新北市汐止區福安街20巷22號","121.661875","25.0645066666667","6501100","汐止區"
"221002","707-TV","2019/10/17 18:49:30","新北市汐止區大同路一段149號","121.632098333333","25.056155","6501100","汐止區"
"221018","753-BX","2019/10/17 18:49:31","新北市汐止區茄福街10號","121.672848333333","25.0674133333333","6501100","汐止區"
"220079","145-BY","2019/10/17 18:49:33","新北市板橋區南雅西路二段192巷1弄13號","121.452123333333","25.0148266666667","6500100","板橋區"
"220082","610-BX","2019/10/17 18:49:23","新北市板橋區篤行路三段43號","121.428356666667","24.9865283333333","6500100","板橋區"
"224002","257-TC","2019/10/17 18:49:11","新北市瑞芳區中山路312號","121.796988333333","25.1099683333333","6501200","瑞芳區"
"220056","276-BY","2019/10/17 18:49:27","新北市板橋區信義路6號","121.456908333333","24.9961466666667","6500100","板橋區"
"220072","277-BY","2019/10/17 18:49:24","新北市板橋區大觀路三段36巷4號","121.433958333333","24.9958333333333","6500100","板橋區"
"220094","283-UM","2019/10/17 18:49:24","新北市板橋區文化路二段28號","121.469311666667","25.0249033333333","6500100","板橋區"
"220071","283-VK","2019/10/17 18:49:25","新北市板橋區四川路一段95號","121.45968","25.00547","6500100","板橋區"
"220101","285-UM","2019/10/17 18:49:21","新北市板橋區莊敬路70號","121.471768333333","25.02522","6500100","板橋區"
"220083","286-VK","2019/10/17 18:49:30","新北市板橋區大觀路二段22巷38-2號","121.444628333333","25.00381","6500100","板橋區"
"220081","287-VK","2019/10/17 18:49:18","新北市板橋區光華街13巷29號","121.453111666667","25.0112966666667","6500100","板橋區"
"220090","288-VK","2019/10/17 18:49:16","新北市板橋區四維路177巷4弄4號","121.463683333333","25.026195","6500100","板橋區"
"220061","293-UM","2019/10/17 18:49:24","新北市板橋區富山街109巷63弄23號","121.475411666667","25.0205233333333","6500100","板橋區"
"220053","295-UM","2019/10/17 18:49:24","新北市板橋區成功路47號","121.474911666667","25.0178633333333","6500100","板橋區"
"220084","296-UM","2019/10/17 18:49:30","新北市板橋區大觀路二段150巷36號","121.441615","25.00002","6500100","板橋區"
"220075","303-R5","2019/10/17 18:49:12","新北市板橋區大觀路一段28巷106-3號","121.451063333333","25.0107266666667","6500100","板橋區"
"220092","307-R5","2019/10/17 18:49:26","新北市板橋區文化路一段136巷8弄10號","121.465588333333","25.0180533333333","6500100","板橋區"
"220098","317-R6","2019/10/17 18:49:19","新北市板橋區民生路二段234巷26弄9號","121.470488333333","25.0221283333333","6500100","板橋區"
"220089","487-VK","2019/10/17 18:49:26","新北市板橋區仁化街66號","121.475808333333","25.0318133333333","6500100","板橋區"
"220088","491-VK","2019/10/17 18:49:14","新北市板橋區文化路二段10號","121.468758333333","25.0241366666667","6500100","板橋區"
"220035","560-BX","2019/10/17 18:49:18","新北市板橋區中正路275巷79弄4號","121.452196666667","25.017935","6500100","板橋區"
"220103","561-BX","2019/10/17 18:49:31","新北市板橋區介壽街84巷58號","121.468466666667","25.0181383333333","6500100","板橋區"
"220080","568-UM","2019/10/17 18:49:18","新北市板橋區大觀路二段265巷20弄49號","121.441185","24.997925","6500100","板橋區"
"220063","609-BX","2019/10/17 18:49:24","新北市板橋區民生路一段57號","121.475325","25.0130716666667","6500100","板橋區"
"220091","637-BX","2019/10/17 18:49:16","新北市板橋區雙十路二段47巷3號","121.47624","25.0260616666667","6500100","板橋區"
"220057","686-BX","2019/10/17 18:49:26","新北市板橋區重慶路182號","121.462496666667","25.0036483333333","6500100","板橋區"
"220077","687-BX","2019/10/17 18:49:29","新北市板橋區大觀路二段174巷165弄2號","121.441883333333","25.0033516666667","6500100","板橋區"
"220093","689-BX","2019/10/17 18:49:12","新北市板橋區民生路三段120-2號","121.466471666667","25.0267116666667","6500100","板橋區"
"220054","741-BX","2019/10/17 18:49:17","新北市板橋區館前東路23號","121.460315","25.0072883333333","6500100","板橋區"
"220102","KEA-2699","2019/10/17 18:49:24","新北市板橋區萬板路478號","121.479945","25.026015","6500100","板橋區"
"220055","827-TW","2019/10/17 18:49:13","新北市板橋區重慶路183號","121.462873333333","25.002315","6500100","板橋區"
"220067","829-TW","2019/10/17 18:49:23","新北市板橋區中山路二段90巷47弄2號","121.47657","25.0146666666667","6500100","板橋區"
"220068","831-TW","2019/10/17 18:49:19","新北市板橋區大同街35巷9號","121.477603333333","25.027645","6500100","板橋區"
"220074","895-R6","2019/10/17 18:49:19","新北市板橋區南門街1號","121.457815","25.009485","6500100","板橋區"
"220073","985-R7","2019/10/17 18:49:28","新北市板橋區館前西路52號","121.458428333333","25.00698","6500100","板橋區"
"220097","AAC-210","2019/10/17 18:49:20","新北市板橋區漢生西路183號","121.463278333333","25.023955","6500100","板橋區"
"220064","AAC-253","2019/10/17 18:49:10","新北市板橋區漢生東路123號","121.467533333333","25.01451","6500100","板橋區"
"235068","KEA-2873","2019/10/17 18:49:26","新北市中和區中正路211巷36弄20號","121.496853333333","24.9925","6500300","中和區"
"235061","KEA-2875","2019/10/17 18:49:04","新北市中和區民享街69巷1號","121.474373333333","25.0022683333333","6500300","中和區"
"235062","KEA-2876","2019/10/17 18:49:24","新北市中和區中山路二段348巷8號","121.492951666667","25.00303","6500300","中和區"
