"lineid","car","time","location","longitude","latitude","cityid","cityname"
"234046","148-BY","2019/10/17 18:59:17","新北市永和區得和路373巷29號","121.525066666667","25.0003633333333","6500400","永和區"
"234081","298-R6","2019/10/17 18:59:25","新北市永和區國中路156號","121.522633333333","25.0067","6500400","永和區"
"234038","336-UY","2019/10/17 18:59:16","新北市永和區成功路二段207號","121.526551666667","24.9959233333333","6500400","永和區"
"234086","338-UY","2019/10/17 18:59:22","新北市永和區永利路18號","121.518003333333","25.0057366666667","6500400","永和區"
"234070","552-UM","2019/10/17 18:59:19","新北市永和區中興街98號","121.518978333333","25.01204","6500400","永和區"
"234064","553-UM","2019/10/17 18:59:27","新北市永和區秀朗路一段146號","121.518173333333","25.0033666666667","6500400","永和區"
"234017","745-BX","2019/10/17 18:59:19","新北市永和區永和路二段297號","121.516031666667","25.016025","6500400","永和區"
"234030","746-BX","2019/10/17 18:59:22","新北市永和區厚德街14號","121.525788333333","24.9979666666667","6500400","永和區"
"234054","KEA-2590","2019/10/17 18:59:25","新北市永和區竹林路66巷4號","121.518198333333","25.013365","6500400","永和區"
"234007","KED-0605","2019/10/17 18:59:32","新北市永和區中山路一段64號","121.51271","25.010715","6500400","永和區"
"234013","KEA-2591","2019/10/17 18:59:31","新北市永和區中山路一段60巷5號","121.51298","25.0110266666667","6500400","永和區"
"234061","AAD-866","2019/10/17 18:59:25","新北市永和區福和路307號","121.516223333333","25.007165","6500400","永和區"
"234042","862-TW","2019/10/17 18:59:11","新北市永和區永貞路267號","121.51176","25.0047966666667","6500400","永和區"
"234050","863-TW","2019/10/17 18:59:25","新北市永和區文化路139號","121.511048333333","25.01595","6500400","永和區"
"234026","9371-KE","2019/10/17 18:59:18","新北市永和區自由街49號","121.514001666667","25.0058033333333","6500400","永和區"
"234011","9373-KE","2019/10/17 18:59:24","新北市永和區仁愛路109巷9號","121.51235","25.012725","6500400","永和區"
"249005","172-UM","2019/10/17 18:59:23","新北市八里區長道坑5-2號","121.393625","25.1225783333333","6502300","八里區"
"249001","173-UM","2019/10/17 18:59:17","新北市八里區龍米路二段222號","121.432885","25.1584283333333","6502300","八里區"
"249003","593-UM","2019/10/17 18:39:36","新北市八里區博物館路10-1號","121.415118333333","25.1639766666667","6502300","八里區"
"248016","026-BX","2019/10/17 18:59:27","新北市五股區成泰路三段543巷12弄11號","121.451318333333","25.102375","6501500","五股區"
"248006","077-UY","2019/10/17 18:59:20","新北市蘆洲區中山二路300巷1號","121.468481666667","25.0766766666667","6501500","五股區"
"248008","KED-0815","2019/10/17 18:59:21","新北市五股區中興路一段118巷6弄1號","121.466218333333","25.0738866666667","6501500","五股區"
"248020","KED-0813","2019/10/17 18:59:25","新北市五股區凌雲路三段57號","121.425261666667","25.1249966666667","6501500","五股區"
"248004","677-BX","2019/10/17 18:59:11","新北市五股區民義路一段240號","121.426986666667","25.0915716666667","6501500","五股區"
"248002","678-BX","2019/10/17 18:59:26","新北市五股區凌雲路一段156巷1號","121.448948333333","25.1026116666667","6501500","五股區"
"248012","682-TV","2019/10/17 18:59:22","新北市五股區中興路四段38巷11-2號","121.439261666667","25.083645","6501500","五股區"
"234023","9380-KE","2019/10/17 18:59:17","新北市永和區竹林路75巷33弄3號","121.520575","25.0142883333333","6500400","永和區"
"234077","969-R7","2019/10/17 18:59:18","新北市永和區智光街33號","121.517968333333","24.9988716666667","6500400","永和區"
"234074","AAC-211","2019/10/17 18:59:14","新北市永和區福和路1號","121.525753333333","25.00944","6500400","永和區"
"234067","AAC-212","2019/10/17 18:59:18","新北市永和區自由街55號","121.513685","25.00552","6500400","永和區"
"234003","AAC-295","2019/10/17 18:59:25","新北市永和區和平街38號","121.513056666667","25.0099366666667","6500400","永和區"
"232011","375-UM","2019/10/17 18:59:24","新北市坪林區坪林街1號","121.711453333333","24.93553","6502000","坪林區"
"244019","402-UM","2019/10/17 18:59:19","新北市林口區仁愛路二段235號","121.375565","25.0759583333333","6501700","林口區"
"244013","KEA-2802","2019/10/17 18:59:15","新北市林口區麗園一街5號","121.376146666667","25.0720216666667","6501700","林口區"
"244023","483-VK","2019/10/17 18:59:28","新北市林口區民權路110號","121.373608333333","25.0832483333333","6501700","林口區"
"244017","485-VK","2019/10/17 18:59:22","新北市林口區文化二路一段120巷5號","121.367913333333","25.0699733333333","6501700","林口區"
"244009","656-BX","2019/10/17 18:59:15","新北市林口區林口路78號","121.389246666667","25.080635","6501700","林口區"
"244011","701-TV","2019/10/17 18:59:17","新北市林口區中正路332號","121.387491666667","25.0777233333333","6501700","林口區"
"244025","837-TS","2019/10/17 18:59:16","新北市林口區南勢街192巷13號","121.361433333333","25.0750166666667","6501700","林口區"
"243010","297-R6","2019/10/17 18:59:13","新北市泰山區辭修路24號","121.429003333333","25.058165","6501600","泰山區"
"243014","KEA-2801","2019/10/17 18:59:27","新北市泰山區黎明路6號","121.420898333333","25.062125","6501600","泰山區"
"243016","421-VK","2019/10/17 18:59:20","新北市泰山區明志路二段133號","121.427786666667","25.05079","6501600","泰山區"
"243011","KEA-2216","2019/10/17 18:59:13","新北市泰山區明志路230號","121.427071666667","25.0482466666667","6501600","泰山區"
"243015","680-BX","2019/10/17 18:59:22","新北市泰山區美寧街50號","121.430523333333","25.064435","6501600","泰山區"
"222003","436-BY","2019/10/17 18:59:18","新北市深坑區深南路88巷1號","121.621458333333","25.010555","6501800","深坑區"
"222002","659-BX","2019/10/17 18:59:12","新北市深坑區文山路一段31巷2號","121.62993","25.0033666666667","6501800","深坑區"
"231061","002-UM","2019/10/17 18:59:09","新北市新店區安華路28-1號","121.519856666667","24.9608983333333","6500600","新店區"
"231044","046-UY","2019/10/17 18:59:29","新北市新店區寶中路72號","121.547848333333","24.9805983333333","6500600","新店區"
"231060","106-UY","2019/10/17 18:59:23","新北市新店區安忠路57巷11弄14號","121.51527","24.9578966666667","6500600","新店區"
"231051","107-UY","2019/10/17 18:59:17","新北市新店區中央路9號","121.533475","24.9785333333333","6500600","新店區"
"231049","108-UY","2019/10/17 18:59:28","新北市新店區中正路454-5號","121.534533333333","24.979075","6500600","新店區"
"231065","110-UY","2019/10/17 18:59:20","新北市新店區安祥路147巷84號","121.475571666667","24.9554233333333","6500600","新店區"
"221008","KEA-2785","2019/10/17 18:59:12","新北市汐止區康寧街582號","121.63499","25.069875","6501100","汐止區"
"231062","256-BX","2019/10/17 18:59:19","新北市新店區安豐路59號","121.498733333333","24.9541066666667","6500600","新店區"
"231054","260-TV","2019/10/17 18:59:15","新北市新店區新店路13號","121.540246666667","24.952895","6500600","新店區"
"231042","268-BY","2019/10/17 18:59:24","新北市新店區中正路2號","121.545963333333","24.9694533333333","6500600","新店區"
"231064","278-BY","2019/10/17 18:59:16","新北市新店區安康路一段355-3號","121.519841666667","24.9625266666667","6500600","新店區"
"231050","AAD-862","2019/10/17 18:59:12","新北市新店區新烏路一段11巷1弄2號","121.547396666667","24.9513633333333","6500600","新店區"
"231045","355-BY","2019/10/17 18:59:12","新北市新店區安康路一段90號","121.527935","24.9619616666667","6500600","新店區"
"231058","3713-VJ","2019/10/17 18:59:32","新北市新店區中興路一段202號","121.54379","24.9653316666667","6500600","新店區"
"231055","4716-K9","2019/10/17 18:59:22","新北市新店區北新路一段271巷26號","121.540141666667","24.9672366666667","6500600","新店區"
"231056","4715-K9","2019/10/17 18:59:15","新北市新店區二十張路46巷37弄21-1號","121.53575","24.9814383333333","6500600","新店區"
"231067","4772-VM","2019/10/17 18:59:24","新北市新店區安康路一段76巷18-1號","121.52847","24.9628616666667","6500600","新店區"
"231052","513-UM","2019/10/17 18:59:25","新北市新店區屈尺路22號","121.548603333333","24.9226216666667","6500600","新店區"
"231041","619-UM","2019/10/17 18:59:14","新北市新店區安康路一段3-1號","121.534076666667","24.9606266666667","6500600","新店區"
"231063","641-BX","2019/10/17 18:59:29","新北市新店區安華路1-1號","121.51967","24.9602716666667","6500600","新店區"
"231047","KED-0819","2019/10/17 18:59:25","新北市新店區德正街23巷10號","121.544485","24.972145","6500600","新店區"
"231046","719-UM","2019/10/17 18:59:26","新北市新店區直潭二街23號","121.535393333333","24.9419733333333","6500600","新店區"
"231057","720-UM","2019/10/17 18:59:19","新北市新店區百齡一路12號","121.553058333333","24.9324716666667","6500600","新店區"
"231059","897-TW","2019/10/17 18:59:28","新北市新店區安華路28-1號","121.519688333333","24.9610333333333","6500600","新店區"
"231040","898-TW","2019/10/17 18:59:23","新北市新店區中央路210-1號","121.530131666667","24.9736183333333","6500600","新店區"
"231043","899-TW","2019/10/17 18:59:12","新北市新店區北新路一段140號","121.54251","24.9703583333333","6500600","新店區"
"231066","AKT-0513","2019/10/17 18:59:24","新北市新店區安豐路30-1號","121.501001666667","24.9567866666667","6500600","新店區"
"241035","462-BY","2019/10/17 18:59:21","新北市三重區重新路四段121號","121.484978333333","25.0519783333333","6500200","三重區"
"241029","942-UM","2019/10/17 18:59:26","新北市三重區重安街1號","121.489916666667","25.0583916666667","6500200","三重區"
"235066","003-UY","2019/10/17 18:59:17","新北市中和區水源路6巷6號","121.503518333333","25.0033966666667","6500300","中和區"
"235063","006-UY","2019/10/17 18:59:25","新北市中和區中正路580號","121.485988333333","24.994755","6500300","中和區"
"235056","096-UM","2019/10/17 18:59:23","新北市板橋區三民路二段204-4號","121.478816666667","25.012455","6500300","中和區"
"235039","097-UM","2019/10/17 18:59:29","新北市中和區景平路64巷13弄22號","121.521421666667","24.99154","6500300","中和區"
"235065","098-UM","2019/10/17 18:59:28","新北市中和區福祥路158號","121.498676666667","25.0077416666667","6500300","中和區"
"235040","150-BY","2019/10/17 18:59:21","新北市中和區安樂路81號","121.51258","24.994345","6500300","中和區"
"235058","151-BY","2019/10/17 18:59:19","新北市中和區員山路84號","121.480836666667","24.9941933333333","6500300","中和區"
"235055","183-VK","2019/10/17 18:59:10","新北市中和區德光路43號","121.470436666667","25.0041966666667","6500300","中和區"
"235038","185-VK","2019/10/17 18:59:16","新北市中和區立人街24-4號","121.518938333333","24.9941716666667","6500300","中和區"
"235067","255-BX","2019/10/17 18:59:23","新北市中和區中正路751巷3弄1號","121.484393333333","24.999675","6500300","中和區"
"235044","293-VK","2019/10/17 18:59:12","新北市中和區中興街159號","121.500115","24.990885","6500300","中和區"
"235072","301-VK","2019/10/17 18:59:25","新北市中和區永和路1-1號","121.499856666667","25.00297","6500300","中和區"
"235043","352-BY","2019/10/17 18:59:28","新北市中和區景平路4號","121.52445","24.9905016666667","6500300","中和區"
"235042","KEA-2878","2019/10/17 18:59:30","新北市永和區成功路二段193號","121.526588333333","24.9963766666667","6500300","中和區"
"235050","4979-A6","2019/10/17 18:59:18","新北市中和區忠孝街2-17號","121.509698333333","24.98278","6500300","中和區"
"235069","4980-A6","2019/10/17 18:59:17","新北市中和區中和路138號","121.503556666667","24.9997683333333","6500300","中和區"
"235070","558-UM","2019/10/17 18:59:24","新北市中和區中和路110號","121.50298","24.9997033333333","6500300","中和區"
"235045","565-BX","2019/10/17 18:59:23","新北市中和區景新街426號","121.512985","24.9888266666667","6500300","中和區"
"235060","KED-0823","2019/10/17 18:59:27","新北市中和區中山路三段73號","121.476326666667","25.0057333333333","6500300","中和區"
"235054","640-BX","2019/10/17 18:59:22","新北市中和區民德路153號","121.468803333333","25.00015","6500300","中和區"
"235047","732-UM","2019/10/17 18:59:22","新北市中和區興南路二段54巷11弄1號","121.505868333333","24.9855416666667","6500300","中和區"
"235046","733-UM","2019/10/17 18:59:23","新北市中和區興南路二段19號","121.50794","24.9860816666667","6500300","中和區"
"235057","801-TS","2019/10/17 18:59:23","新北市中和區民利街80號","121.478155","24.9982066666667","6500300","中和區"
"235041","802-TS","2019/10/17 18:59:23","新北市中和區景安路69號","121.506965","24.9976316666667","6500300","中和區"
"235052","805-TS","2019/10/17 18:59:16","新北市中和區興南路二段114巷2號","121.504326666667","24.9842016666667","6500300","中和區"
"235048","896-TW","2019/10/17 18:59:12","新北市中和區華新街109巷16號","121.50872","24.9809983333333","6500300","中和區"
"235053","900-TW","2019/10/17 18:59:27","新北市中和區和平路200巷33-3號","121.46522","24.9944666666667","6500300","中和區"
"235064","911-UM","2019/10/17 18:59:28","新北市中和區連城路28號","121.498693333333","25.0020833333333","6500300","中和區"
"235051","157-BY","2019/10/17 18:59:28","新北市中和區忠孝街31巷33弄2號","121.509673333333","24.9846383333333","6500300","中和區"
"235037","AAC-213","2019/10/17 18:59:15","新北市中和區秀朗路三段60巷9號","121.525738333333","24.9950833333333","6500300","中和區"
"235059","AAC-215","2019/10/17 18:59:14","新北市中和區圓通路367巷20弄29號","121.491256666667","24.9881566666667","6500300","中和區"
"220065","072-UY","2019/10/17 18:59:14","新北市板橋區漢生東路324號","121.47173","25.0079083333333","6500100","板橋區"
"220086","073-UY","2019/10/17 18:59:21","新北市板橋區大智街22號","121.455666666667","25.0148783333333","6500100","板橋區"
"220106","075-UY","2019/10/17 18:59:26","新北市板橋區雙十路三段10巷14號","121.472223333333","25.03084","6500100","板橋區"
"220069","AAD-861","2019/10/17 18:59:20","新北市板橋區四川路一段104號","121.459596666667","25.0046683333333","6500100","板橋區"
"226004","312-R5","2019/10/17 18:59:17","新北市平溪區靜安路二段441號","121.74025","25.02496","6502400","平溪區"
"235049","251-BX","2019/10/17 18:59:21","新北市中和區景安路68號","121.505878333333","24.9966666666667","6500300","中和區"
"228003","097-TW","2019/10/17 18:59:14","新北市貢寮區和美里龍洞街60號","121.914288333333","25.11629","6502600","貢寮區"
"228001","212-TW","2019/10/17 18:59:20","新北市貢寮區仁理村保健街85號","121.923858333333","25.05212","6502600","貢寮區"
"228002","663-BX","2019/10/17 18:59:28","新北市貢寮區福隆里東興街106巷25弄1號","121.946408333333","25.0182916666667","6502600","貢寮區"
"224006","676-BX","2019/10/17 18:59:19","新北市瑞芳區三爪子坑路106巷1-11號","121.807828333333","25.1051466666667","6501200","瑞芳區"
"224007","285-BY","2019/10/17 18:59:28","新北市瑞芳區瑞竹路122號","121.762045","25.1039766666667","6501200","瑞芳區"
"224009","275-VK","2019/10/17 18:59:24","新北市瑞芳區長仁路35-1號","121.866168333333","25.1177766666667","6501200","瑞芳區"
"224008","273-VK","2019/10/17 18:59:25","新北市瑞芳區逢甲路340-9號","121.798435","25.11688","6501200","瑞芳區"
"224005","271-BY","2019/10/17 18:59:18","新北市瑞芳區中正路8號","121.808773333333","25.10705","6501200","瑞芳區"
"227002","642-TC","2019/10/17 18:59:25","新北市雙溪區平林里外平林9-4號","121.859166666667","25.0380283333333","6502500","雙溪區"
"227001","400-TW","2019/10/17 18:59:15","新北市雙溪區牡丹里中正路64號","121.865463333333","25.0434133333333","6502500","雙溪區"
"253006","295-VK","2019/10/17 18:59:18","新北市石門區下員坑46-6號","121.517415","25.2772166666667","6502200","石門區"
"253005","741-TV","2019/10/17 18:59:21","新北市石門區中央路6號","121.566525","25.2913833333333","6502200","石門區"
"222001","KEA-2212","2019/10/17 18:59:25","新北市深坑區北深路一段300號","121.624208333333","25.0057633333333","6501800","深坑區"
"208002","KEA-2872","2019/10/17 18:59:15","新北市金山區信義路32號","121.635263333333","25.219645","6502700","金山區"
"208003","665-BX","2019/10/17 18:59:27","新北市金山區中正路6號","121.636336666667","25.2223583333333","6502700","金山區"
"251015","KEA-2871","2019/10/17 18:59:22","新北市淡水區糞箕湖60號","121.485203333333","25.172325","6501000","淡水區"
"251016","179-VK","2019/10/17 18:59:21","新北市淡水區淡金路三段329號","121.448705","25.2062233333333","6501000","淡水區"
"251013","182-VK","2019/10/17 18:59:33","新北市淡水區小坑子頭3-1號","121.489401666667","25.214475","6501000","淡水區"
"251010","413-VK","2019/10/17 18:59:28","新北市淡水區中正路一段156巷8號","121.421655","25.1807316666667","6501000","淡水區"
"251007","442-VK","2019/10/17 18:59:22","新北市淡水區民生路113巷1弄42號","121.462951666667","25.1386766666667","6501000","淡水區"
"251012","443-VK","2019/10/17 18:59:21","新北市淡水區新春街126巷15弄17號","121.440611666667","25.180885","6501000","淡水區"
"251001","559-UM","2019/10/17 18:59:22","新北市淡水區自強路60號","121.463131666667","25.1275716666667","6501000","淡水區"
"251009","575-R6","2019/10/17 18:59:15","新北市淡水區重建街永興巷11號","121.439218333333","25.17272","6501000","淡水區"
"251014","577-R6","2019/10/17 18:59:25","新北市淡水區小中寮32-1號","121.4916","25.226","6501000","淡水區"
"251011","650-BX","2019/10/17 18:59:31","新北市淡水區鄧公路30巷2弄24號","121.453651666667","25.16904","6501000","淡水區"
"251002","672-BX","2019/10/17 18:59:22","新北市淡水區中正東路37號","121.446165","25.168195","6501000","淡水區"
"251003","673-BX","2019/10/17 18:59:30","新北市淡水區中山北路一段149巷35號","121.44316","25.1779683333333","6501000","淡水區"
"207003","550-UM","2019/10/17 18:59:21","新北市萬里區大鵬里頂社2-1號","121.660353333333","25.20721","6502800","萬里區"
"207004","291-VK","2019/10/17 18:59:13","新北市萬里區萬里里獅頭路23號","121.693208333333","25.1782316666667","6502800","萬里區"
"252002","178-VK","2019/10/17 18:59:11","新北市三芝區中正路一段50號","121.503468333333","25.2581166666667","6502100","三芝區"
"252003","249-BX","2019/10/17 18:59:17","新北市三芝區後厝里北勢子42-1號","121.471651666667","25.2521133333333","6502100","三芝區"
"208001","170-UY","2019/10/17 18:59:27","新北市金山區民生路61號","121.640853333333","25.2206283333333","6502700","金山區"
"237004","KEA-2597","2019/10/17 18:59:25","新北市三峽區有木194-1號","121.447501666667","24.8452133333333","6500900","三峽區"
"237007","153-BY","2019/10/17 18:59:12","新北市三峽區中正路二段125-4號","121.366288333333","24.9163633333333","6500900","三峽區"
"237013","252-BX","2019/10/17 18:59:17","新北市三峽區光明路69巷24號","121.376613333333","24.9291066666667","6500900","三峽區"
"237012","275-BY","2019/10/17 18:59:17","新北市三峽區三樹路222巷60號","121.382261666667","24.9423266666667","6500900","三峽區"
"237008","302-VK","2019/10/17 18:59:30","新北市三峽區中正路一段187號","121.372686666667","24.9278866666667","6500900","三峽區"
"237014","433-BY","2019/10/17 18:59:16","新北市三峽區隆恩街168-10號","121.363181666667","24.943145","6500900","三峽區"
"237006","5529-G3","2019/10/17 18:59:16","新北市三峽區溪東路233巷47弄2號","121.411051666667","24.934905","6500900","三峽區"
"237011","KEA-2596","2019/10/17 18:59:30","新北市三峽區介壽路三段71號","121.395576666667","24.9381433333333","6500900","三峽區"
"237015","649-BX","2019/10/17 18:59:28","新北市三峽區建安71號","121.448783333333","24.9261166666667","6500900","三峽區"
"237010","706-TV","2019/10/17 18:59:14","新北市三峽區復興路361號","121.363691666667","24.9385916666667","6500900","三峽區"
"237005","AKY-6261","2019/10/17 18:59:16","新北市三峽區中山路459巷135號","121.34865","24.9329583333333","6500900","三峽區"
"236042","KED-0685","2019/10/17 18:59:16","新北市土城區學府路一段229巷4號","121.451373333333","24.9839033333333","6501300","土城區"
"236078","166-UM","2019/10/17 18:59:32","新北市土城區中央路四段232號","121.415438333333","24.9571016666667","6501300","土城區"
"236030","253-BX","2019/10/17 18:59:16","新北市土城區慶利街9號","121.43962","24.97361","6501300","土城區"
"236026","269-VK","2019/10/17 18:59:21","新北市土城區光明街26-1號","121.442111666667","24.9738883333333","6501300","土城區"
"236014","270-VK","2019/10/17 18:59:16","新北市土城區永豐路98巷16號","121.462983333333","24.9870783333333","6501300","土城區"
"236038","271-VK","2019/10/17 18:59:33","新北市土城區仁愛路18號","121.460736666667","24.9803416666667","6501300","土城區"
"236070","KEA-2877","2019/10/17 18:59:10","新北市土城區裕民路288號","121.45566","24.9818133333333","6501300","土城區"
"252001","KED-0821","2019/10/17 18:59:16","新北市三芝區中興街二段260號","121.50177","25.2530133333333","6502100","三芝區"
"236021","401-BY","2019/10/17 18:59:23","新北市土城區延吉街168巷9號","121.468101666667","24.9858266666667","6501300","土城區"
"236063","752-BX","2019/10/17 18:59:28","新北市土城區延和路108巷4弄1號","121.467381666667","24.9892833333333","6501300","土城區"
"236059","912-UM","2019/10/17 18:59:28","新北市土城區金城路二段234號","121.456653333333","24.9829333333333","6501300","土城區"
"236049","913-UM","2019/10/17 18:59:30","新北市土城區青雲路271號","121.459103333333","24.9804416666667","6501300","土城區"
"236055","AAC-216","2019/10/17 18:59:21","新北市土城區學成路147號","121.44877","24.98954","6501300","土城區"
"242061","986-R7","2019/10/17 18:59:13","新北市新莊區新樹路647-3號","121.432718333333","24.999735","6500500","新莊區"
"242002","441-UM","2019/10/17 18:59:25","新北市樹林區中山路三段214號","121.380531666667","24.9665416666667","6500500","新莊區"
"242034","347-TH","2019/10/17 18:59:22","新北市新莊區瓊林南路187巷50-16號","121.436105","25.006425","6500500","新莊區"
"238023","601-UM","2019/10/17 18:59:22","新北市樹林區大慶街83號","121.39676","25.0135583333333","6500700","樹林區"
"238019","599-UM","2019/10/17 18:59:31","新北市樹林區東陽街3號","121.412761666667","24.9821","6500700","樹林區"
"238024","5061-A6","2019/10/17 18:59:18","新北市樹林區八德街636號","121.39679","24.9694033333333","6500700","樹林區"
"238022","KEA-2213","2019/10/17 18:59:32","新北市樹林區東順街34號","121.411591666667","24.9783416666667","6500700","樹林區"
"238021","KEA-2539","2019/10/17 18:59:20","新北市樹林區柑園街二段310號","121.373448333333","24.9517883333333","6500700","樹林區"
"238025","303-VK","2019/10/17 18:59:11","新北市樹林區中山路三段22號","121.39558","24.9729766666667","6500700","樹林區"
"238017","283-BY","2019/10/17 18:59:23","新北市樹林區中山路三段125-5號","121.398571666667","24.97381","6500700","樹林區"
"238014","282-BY","2019/10/17 18:59:13","新北市樹林區潭興街143巷4號","121.425681666667","24.999875","6500700","樹林區"
"238020","268-VK","2019/10/17 18:59:24","新北市樹林區俊英街238號","121.424766666667","25.010425","6500700","樹林區"
"238026","172-UY","2019/10/17 18:59:18","新北市樹林區中和街11號","121.39205","24.9729333333333","6500700","樹林區"
"238016","169-UY","2019/10/17 18:59:19","新北市樹林區文化街28-1號","121.41911","24.9878216666667","6500700","樹林區"
"239007","AAC-297","2019/10/17 18:59:31","新北市鶯歌區中正一路建德巷6號","121.364588333333","24.956965","6500800","鶯歌區"
"239008","527-UM","2019/10/17 18:59:18","新北市鶯歌區朝陽街4號","121.336261666667","24.9766033333333","6500800","鶯歌區"
"239005","526-UM","2019/10/17 18:59:29","新北市鶯歌區鳳吉二街124號","121.328021666667","24.9745416666667","6500800","鶯歌區"
"239001","417-VK","2019/10/17 18:59:23","新北市鶯歌區二橋街76號","121.33698","24.93854","6500800","鶯歌區"
"239003","360-BY","2019/10/17 18:59:25","新北市鶯歌區永和街230-1號","121.337216666667","24.9719916666667","6500800","鶯歌區"
"239002","359-BY","2019/10/17 18:59:14","新北市鶯歌區文化路110號","121.352271666667","24.9522816666667","6500800","鶯歌區"
"239004","193-VK","2019/10/17 18:59:25","新北市鶯歌區中正三路149號","121.336846666667","24.940175","6500800","鶯歌區"
"221036","130-UY","2019/10/17 18:59:29","新北市汐止區水碓街51號","121.665183333333","25.06938","6501100","汐止區"
"221015","131-UY","2019/10/17 18:59:30","新北市汐止區吉祥街12巷12號","121.668798333333","25.0804083333333","6501100","汐止區"
"221032","280-BY","2019/10/17 18:59:26","新北市汐止區橫科路407巷25弄17-4號","121.626498333333","25.048855","6501100","汐止區"
"221029","298-VK","2019/10/17 18:59:13","新北市汐止區樟樹一路228號","121.64236","25.06664","6501100","汐止區"
"221031","353-TW","2019/10/17 18:59:28","新北市汐止區福德一路300巷45號","121.630341666667","25.06454","6501100","汐止區"
"221035","622-UM","2019/10/17 18:59:20","新北市汐止區大同路二段278號","121.65486","25.0662783333333","6501100","汐止區"
"221002","707-TV","2019/10/17 18:59:30","新北市汐止區大同路一段2號","121.621001666667","25.055055","6501100","汐止區"
"220079","145-BY","2019/10/17 18:59:12","新北市板橋區大智街71巷8弄2號","121.453456666667","25.0152933333333","6500100","板橋區"
"220082","610-BX","2019/10/17 18:59:23","新北市板橋區篤行路二段137號","121.42989","24.988375","6500100","板橋區"
"224002","257-TC","2019/10/17 18:59:31","新北市瑞芳區八分寮路12號","121.795561666667","25.0899033333333","6501200","瑞芳區"
"220056","276-BY","2019/10/17 18:59:24","新北市板橋區信義路152號","121.458968333333","24.9917616666667","6500100","板橋區"
"220072","277-BY","2019/10/17 18:59:24","新北市板橋區溪北路154號","121.43051","24.9882566666667","6500100","板橋區"
"220094","283-UM","2019/10/17 18:59:24","新北市板橋區光武街157號","121.465418333333","25.0296316666667","6500100","板橋區"
"220071","283-VK","2019/10/17 18:59:24","新北市板橋區忠孝路196巷43號","121.46554","25.0016383333333","6500100","板橋區"
"220101","285-UM","2019/10/17 18:59:22","新北市板橋區莊敬路220巷52號","121.471686666667","25.0204716666667","6500100","板橋區"
"220083","286-VK","2019/10/17 18:59:30","新北市板橋區大觀路一段38巷156弄59號","121.442826666667","25.0068216666667","6500100","板橋區"
"220081","287-VK","2019/10/17 18:59:18","新北市板橋區光華街19巷70號","121.452916666667","25.011915","6500100","板橋區"
"220090","288-VK","2019/10/17 18:59:17","新北市板橋區裕民街52號","121.461485","25.0287083333333","6500100","板橋區"
"220061","293-UM","2019/10/17 18:59:24","新北市板橋區中山路二段295巷17號","121.477766666667","25.0187433333333","6500100","板橋區"
"220053","295-UM","2019/10/17 18:59:23","新北市板橋區太和街5巷20號","121.473193333333","25.0196216666667","6500100","板橋區"
"220084","296-UM","2019/10/17 18:59:20","新北市板橋區龍興街63巷4號","121.442933333333","25.0013133333333","6500100","板橋區"
"220062","299-UM","2019/10/17 18:59:20","新北市板橋區民享街164號","121.47755","25.0170816666667","6500100","板橋區"
"220075","303-R5","2019/10/17 18:59:25","新北市板橋區館前西路213巷25號","121.454158333333","25.0078883333333","6500100","板橋區"
"220092","307-R5","2019/10/17 18:59:15","新北市板橋區文化路二段225巷60弄56號","121.469123333333","25.029705","6500100","板橋區"
"220098","317-R6","2019/10/17 18:59:19","新北市板橋區民生路二段226巷24號","121.470976666667","25.022005","6500100","板橋區"
"220089","487-VK","2019/10/17 18:59:26","新北市板橋區文化路二段169號","121.470381666667","25.0273966666667","6500100","板橋區"
"220088","491-VK","2019/10/17 18:59:14","新北市板橋區文化路二段182巷7弄9號","121.472233333333","25.0273566666667","6500100","板橋區"
"220035","560-BX","2019/10/17 18:59:24","新北市板橋區中正路277號","121.455571666667","25.0189666666667","6500100","板橋區"
"220103","561-BX","2019/10/17 18:59:32","新北市板橋區介壽街37號","121.468586666667","25.0197983333333","6500100","板橋區"
"220080","568-UM","2019/10/17 18:59:18","新北市板橋區大觀路二段文和巷55-1號","121.443056666667","24.9990016666667","6500100","板橋區"
"220063","609-BX","2019/10/17 18:59:24","新北市板橋區中山路二段265號","121.477623333333","25.01767","6500100","板橋區"
"220091","637-BX","2019/10/17 18:58:16","新北市板橋區大同街26巷33號","121.478525","25.0263333333333","6500100","板橋區"
"220057","686-BX","2019/10/17 18:59:26","新北市板橋區國慶路212號","121.463658333333","24.9971683333333","6500100","板橋區"
"220077","687-BX","2019/10/17 18:59:20","新北市板橋區龍興街56號","121.44328","25.0012916666667","6500100","板橋區"
"220093","689-BX","2019/10/17 18:59:23","新北市板橋區民生路三段191號","121.465278333333","25.0275116666667","6500100","板橋區"
"220054","741-BX","2019/10/17 18:59:17","新北市板橋區重慶路139巷21號","121.463786666667","25.0046816666667","6500100","板橋區"
"220102","KEA-2699","2019/10/17 18:59:24","新北市板橋區萬板路810-1號","121.4828","25.0273483333333","6500100","板橋區"
"220055","827-TW","2019/10/17 18:59:13","新北市板橋區中山路一段152號","121.464326666667","25.0112416666667","6500100","板橋區"
"220067","829-TW","2019/10/17 18:59:22","新北市板橋區民享街116巷9號","121.47839","25.0155883333333","6500100","板橋區"
"220068","831-TW","2019/10/17 18:59:15","新北市板橋區三民路一段1巷15號","121.479716666667","25.0243283333333","6500100","板橋區"
"220074","895-R6","2019/10/17 18:59:26","新北市板橋區林園街7號","121.454025","25.0093733333333","6500100","板橋區"
"220073","985-R7","2019/10/17 18:59:28","新北市板橋區中正路123號","121.456531666667","25.0151916666667","6500100","板橋區"
"220097","AAC-210","2019/10/17 18:59:12","新北市板橋區幸福路70巷30號","121.460195","25.02093","6500100","板橋區"
"220064","AAC-253","2019/10/17 18:59:32","新北市板橋區板新路35號","121.474253333333","25.0131733333333","6500100","板橋區"
"235068","KEA-2873","2019/10/17 18:59:26","新北市中和區圓通路162巷3號","121.497096666667","24.995285","6500300","中和區"
"235061","KEA-2875","2019/10/17 18:59:04","新北市中和區中山路三段113號","121.474685","25.00606","6500300","中和區"
"235062","KEA-2876","2019/10/17 18:59:24","新北市中和區中山路二段524號","121.485986666667","25.00493","6500300","中和區"
