"lineid","car","time","location","longitude","latitude","cityid","cityname"
"234046","148-BY","2019/10/17 19:29:25","新北市永和區秀朗路二段231號","121.526423333333","25.00023","6500400","永和區"
"234081","298-R6","2019/10/17 19:29:25","新北市永和區環河東路三段52巷2弄2號","121.526546666667","25.0060933333333","6500400","永和區"
"234038","336-UY","2019/10/17 19:29:29","新北市永和區成功路一段139號","121.52692","25.0014583333333","6500400","永和區"
"234086","338-UY","2019/10/17 19:29:22","新北市永和區國中路2號","121.524123333333","25.0042283333333","6500400","永和區"
"234070","552-UM","2019/10/17 19:29:17","新北市永和區警光街12號","121.519748333333","25.0095416666667","6500400","永和區"
"234064","553-UM","2019/10/17 19:29:27","新北市永和區得和路243巷26號","121.52076","25.001165","6500400","永和區"
"234017","745-BX","2019/10/17 19:29:20","新北市永和區環河西路一段79號","121.51311","25.0180833333333","6500400","永和區"
"234030","746-BX","2019/10/17 19:29:17","新北市永和區四維街119號","121.523153333333","24.9981633333333","6500400","永和區"
"234054","KEA-2590","2019/10/17 19:29:25","新北市永和區復興街21號","121.516118333333","25.0131033333333","6500400","永和區"
"234007","KED-0605","2019/10/17 19:29:12","新北市永和區永和路一段153號","121.514246666667","25.0092533333333","6500400","永和區"
"234013","KEA-2591","2019/10/17 19:29:31","新北市永和區永和路二段28號","121.5147","25.01046","6500400","永和區"
"234061","AAD-866","2019/10/17 19:29:25","新北市永和區中正路504號","121.51735","25.0044866666667","6500400","永和區"
"234042","862-TW","2019/10/17 19:29:31","新北市永和區水源街39巷6號","121.510411666667","25.003985","6500400","永和區"
"234050","863-TW","2019/10/17 19:29:25","新北市永和區信義路79號","121.51247","25.0134166666667","6500400","永和區"
"234026","9371-KE","2019/10/17 19:29:17","新北市中和區安樂路191巷7號","121.514516666667","24.9980383333333","6500400","永和區"
"234011","9373-KE","2019/10/17 19:29:24","新北市永和區保生路55號","121.504525","25.010865","6500400","永和區"
"249003","593-UM","2019/10/17 19:29:12","新北市八里區中山路二段482號","121.398663333333","25.1470266666667","6502300","八里區"
"248014","025-BX","2019/10/17 19:29:26","新北市五股區民義路一段152號","121.433213333333","25.0874933333333","6501500","五股區"
"248008","KED-0815","2019/10/17 19:29:22","新北市五股區中興路一段105號","121.466375","25.0731383333333","6501500","五股區"
"248020","KED-0813","2019/10/17 19:29:25","新北市五股區凌雲路三段35-1號","121.430421666667","25.1167333333333","6501500","五股區"
"248004","677-BX","2019/10/17 19:29:11","新北市五股區成泰路二段186號","121.438728333333","25.0847","6501500","五股區"
"248002","678-BX","2019/10/17 19:29:26","新北市五股區凌雲路一段158巷6號","121.4478","25.10294","6501500","五股區"
"248012","682-TV","2019/10/17 19:29:22","新北市五股區成泰路二段91巷11號","121.437465","25.0841316666667","6501500","五股區"
"234023","9380-KE","2019/10/17 19:29:22","新北市永和區竹林路91巷70號","121.522006666667","25.0136616666667","6500400","永和區"
"234077","969-R7","2019/10/17 19:29:25","新北市永和區民族街43巷12號","121.519173333333","24.9983683333333","6500400","永和區"
"234074","AAC-211","2019/10/17 19:29:26","新北市永和區環河東路二段30號","121.522601666667","25.012685","6500400","永和區"
"234067","AAC-212","2019/10/17 19:29:18","新北市永和區永貞路354號","121.510421666667","25.0063766666667","6500400","永和區"
"234003","AAC-295","2019/10/17 19:29:31","新北市永和區福和路385號","121.514266666667","25.0076483333333","6500400","永和區"
"244019","402-UM","2019/10/17 19:29:19","新北市林口區粉寮69號","121.404976666667","25.09087","6501700","林口區"
"244023","483-VK","2019/10/17 19:29:28","新北市林口區民有街70號","121.372943333333","25.0771083333333","6501700","林口區"
"243012","AAD-798","2019/10/17 19:29:18","新北市泰山區仁義路207號","121.433108333333","25.0537266666667","6501600","泰山區"
"243010","297-R6","2019/10/17 19:21:53","新北市泰山區明志路一段519號","121.430353333333","25.054095","6501600","泰山區"
"243014","KEA-2801","2019/10/17 19:29:26","新北市泰山區仁愛路6巷77號","121.431646666667","25.053295","6501600","泰山區"
"243016","421-VK","2019/10/17 19:29:20","新北市泰山區明志路三段352巷10號","121.421206666667","25.0356033333333","6501600","泰山區"
"243009","KEA-2215","2019/10/17 19:29:30","新北市泰山區半山雅2號","121.431808333333","25.0673633333333","6501600","泰山區"
"243011","KEA-2216","2019/10/17 19:29:33","新北市三重區新北大道六段50-1號","121.42914","25.0402483333333","6501600","泰山區"
"243013","646-TV","2019/10/17 19:29:33","新北市泰山區明志路三段145巷5弄32號","121.425765","25.0406833333333","6501600","泰山區"
"243015","680-BX","2019/10/17 19:29:22","新北市泰山區明志路二段136巷1-1號","121.427288333333","25.0511933333333","6501600","泰山區"
"222003","436-BY","2019/10/17 19:29:32","新北市深坑區深南路51-1號","121.621308333333","25.0097666666667","6501800","深坑區"
"222002","659-BX","2019/10/17 19:29:12","新北市深坑區北深路一段177號","121.632531666667","25.0108466666667","6501800","深坑區"
"231061","002-UM","2019/10/17 19:29:29","新北市新店區安康路二段1-5號","121.517261666667","24.9639333333333","6500600","新店區"
"231044","046-UY","2019/10/17 19:29:29","新北市新店區中興路三段134號","121.544886666667","24.9797916666667","6500600","新店區"
"231060","106-UY","2019/10/17 19:29:23","新北市新店區安康路二段62號","121.514916666667","24.9636533333333","6500600","新店區"
"231051","107-UY","2019/10/17 19:29:17","新北市新店區中央路97號","121.531321666667","24.9749966666667","6500600","新店區"
"231049","108-UY","2019/10/17 19:29:28","新北市新店區二十張路1巷3弄1號","121.540473333333","24.9821366666667","6500600","新店區"
"231065","110-UY","2019/10/17 19:29:20","新北市新店區安祥路109巷1弄17號","121.476185","24.959815","6500600","新店區"
"221008","KEA-2785","2019/10/17 19:29:32","新北市汐止區康寧街241號","121.624581666667","25.0668333333333","6501100","汐止區"
"231062","256-BX","2019/10/17 19:29:19","新北市新店區莒光路70號","121.522925","24.95479","6500600","新店區"
"231054","260-TV","2019/10/17 19:29:15","新北市新店區文中路40號","121.539763333333","24.956475","6500600","新店區"
"231042","268-BY","2019/10/17 19:29:24","新北市新店區中興路一段144號","121.542433333333","24.9637333333333","6500600","新店區"
"231064","278-BY","2019/10/17 19:29:16","新北市新店區安和路二段47號","121.518201666667","24.9680733333333","6500600","新店區"
"231050","AAD-862","2019/10/17 19:29:21","新北市新店區北宜路二段82巷3號","121.553516666667","24.9530833333333","6500600","新店區"
"231045","355-BY","2019/10/17 19:29:12","新北市新店區北宜路二段207號","121.553086666667","24.9532683333333","6500600","新店區"
"231058","3713-VJ","2019/10/17 19:29:12","新北市新店區北新路一段106號","121.542643333333","24.96933","6500600","新店區"
"231052","513-UM","2019/10/17 19:29:25","新北市新店區新烏路二段315號","121.549578333333","24.9112333333333","6500600","新店區"
"231041","619-UM","2019/10/17 19:29:18","新北市新店區中正路568號","121.533838333333","24.9877533333333","6500600","新店區"
"231063","641-BX","2019/10/17 19:29:29","新北市新店區達觀路16號","121.503158333333","24.9413183333333","6500600","新店區"
"231047","KED-0819","2019/10/17 19:29:28","新北市新店區五峰路75號","121.546305","24.967845","6500600","新店區"
"231046","719-UM","2019/10/17 19:28:17","新北市新店區北新路一段32號","121.540866666667","24.9658","6500600","新店區"
"231057","720-UM","2019/10/17 19:29:19","新北市新店區花園一路二段21號","121.550948333333","24.9328733333333","6500600","新店區"
"231059","897-TW","2019/10/17 19:29:28","新北市新店區安和路三段46號","121.517986666667","24.98179","6500600","新店區"
"231040","898-TW","2019/10/17 19:29:23","新北市新店區中華路68號","121.539195","24.9691166666667","6500600","新店區"
"231043","899-TW","2019/10/17 19:29:32","新北市新店區北新路二段190號","121.543008333333","24.9765183333333","6500600","新店區"
"231066","AKT-0513","2019/10/17 19:29:29","新北市新店區安康路三段359巷12弄2號","121.48451","24.9502266666667","6500600","新店區"
"241028","022-UY","2019/10/17 19:29:18","新北市三重區中寮街31號","121.492556666667","25.0589666666667","6500200","三重區"
"241008","059-VK","2019/10/17 19:29:22","新北市三重區永福街135巷32弄7號","121.47708","25.0771033333333","6500200","三重區"
"241031","061-VK","2019/10/17 19:29:16","新北市三重區集美街100號","121.488556666667","25.0541733333333","6500200","三重區"
"241017","063-VK","2019/10/17 19:29:13","新北市三重區大仁街27號","121.492348333333","25.064965","6500200","三重區"
"241024","065-VK","2019/10/17 19:29:22","新北市三重區國道路一段58巷20號","121.481258333333","25.0720716666667","6500200","三重區"
"241006","262-UM","2019/10/17 19:29:18","新北市三重區三和路四段95號","121.488055","25.075985","6500200","三重區"
"241009","267-UM","2019/10/17 19:29:32","新北市三重區溪尾街242巷68號","121.486143333333","25.0814216666667","6500200","三重區"
"241032","269-UM","2019/10/17 19:29:18","新北市三重區三陽路39號","121.4853","25.058785","6500200","三重區"
"241013","270-UM","2019/10/17 19:29:10","新北市三重區仁愛街125巷3號","121.49613","25.07527","6500200","三重區"
"241025","271-UM","2019/10/17 19:29:31","新北市三重區頂崁街210巷28弄20號","121.475753333333","25.0671583333333","6500200","三重區"
"241030","KED-0822","2019/10/17 19:29:14","新北市三重區成功路41巷10號","121.49027","25.0515283333333","6500200","三重區"
"241035","462-BY","2019/10/17 19:29:21","新北市三重區信義西街3號","121.498015","25.0648483333333","6500200","三重區"
"241020","478-VK","2019/10/17 19:29:30","新北市三重區三和路四段20巷22-1號","121.490201666667","25.0737633333333","6500200","三重區"
"241026","480-VK","2019/10/17 19:29:14","新北市三重區文化南路38-1號","121.500325","25.0611533333333","6500200","三重區"
"241012","743-BX","2019/10/17 19:29:31","新北市三重區仁興街41號","121.499076666667","25.0757633333333","6500200","三重區"
"241022","KED-0820","2019/10/17 19:29:28","新北市三重區三民街165巷2號","121.483871666667","25.0651833333333","6500200","三重區"
"241023","887-TS","2019/10/17 19:29:26","新北市三重區頂崁街99號","121.477933333333","25.0638733333333","6500200","三重區"
"241029","942-UM","2019/10/17 19:29:26","新北市三重區重安街146號","121.495518333333","25.0550183333333","6500200","三重區"
"235066","003-UY","2019/10/17 19:29:17","新北市中和區中和路132號","121.503761666667","24.99931","6500300","中和區"
"235063","006-UY","2019/10/17 19:29:25","新北市中和區連城路203巷10弄5號","121.494898333333","24.9972366666667","6500300","中和區"
"235056","096-UM","2019/10/17 19:29:23","新北市中和區員山路581巷31弄10號","121.477038333333","25.0104183333333","6500300","中和區"
"235039","097-UM","2019/10/17 19:29:29","新北市中和區秀峰街127巷1號","121.51971","24.9909516666667","6500300","中和區"
"235065","098-UM","2019/10/17 19:27:28","新北市中和區中山路二段2巷13弄14號","121.503026666667","25.0064916666667","6500300","中和區"
"235040","150-BY","2019/10/17 19:29:21","新北市中和區保健路46巷22弄1號","121.508706666667","24.9957666666667","6500300","中和區"
"235058","151-BY","2019/10/17 19:29:19","新北市中和區員山路124巷19號","121.482195","24.996","6500300","中和區"
"235055","183-VK","2019/10/17 19:29:30","新北市中和區中山路三段179巷3號","121.4729","25.00598","6500300","中和區"
"235038","185-VK","2019/10/17 19:29:16","新北市中和區立人街3號","121.521828333333","24.99413","6500300","中和區"
"235067","255-BX","2019/10/17 19:29:23","新北市中和區新生街186巷5弄1號","121.482995","24.9996666666667","6500300","中和區"
"235044","293-VK","2019/10/17 19:29:12","新北市中和區捷運路129號","121.507053333333","24.9907683333333","6500300","中和區"
"235072","301-VK","2019/10/17 19:29:25","新北市中和區連城路263巷4弄6號","121.491576666667","24.9956633333333","6500300","中和區"
"235043","352-BY","2019/10/17 19:29:28","新北市中和區安和路29號","121.5103","24.994355","6500300","中和區"
"235042","KEA-2878","2019/10/17 19:29:30","新北市中和區中和路262巷35-4號","121.509675","24.99939","6500300","中和區"
"235070","558-UM","2019/10/17 19:29:24","新北市中和區景平路668號","121.497278333333","25.000885","6500300","中和區"
"235045","565-BX","2019/10/17 19:29:23","新北市中和區景新街368號","121.512126666667","24.9903683333333","6500300","中和區"
"235060","KED-0823","2019/10/17 19:29:32","新北市中和區中山路二段523巷18號","121.48163","25.0042466666667","6500300","中和區"
"235054","640-BX","2019/10/17 19:29:22","新北市中和區莒光路4號","121.471941666667","25.0047283333333","6500300","中和區"
"235047","732-UM","2019/10/17 19:29:22","新北市中和區景平路259巷34號","121.50692","24.9927533333333","6500300","中和區"
"235046","733-UM","2019/10/17 19:29:23","新北市中和區忠孝街37巷7號","121.511065","24.983575","6500300","中和區"
"235071","783-BX","2019/10/17 19:29:26","新北市中和區連城路469巷21弄22號","121.484221666667","24.9950616666667","6500300","中和區"
"235057","801-TS","2019/10/17 19:29:23","新北市中和區員山路146號","121.48127","24.996855","6500300","中和區"
"235041","802-TS","2019/10/17 19:29:23","新北市中和區中和路390號","121.511008333333","25.00249","6500300","中和區"
"235052","805-TS","2019/10/17 19:29:16","新北市中和區華新街143巷67弄35號","121.50759","24.9792733333333","6500300","中和區"
"235048","896-TW","2019/10/17 19:29:12","新北市中和區忠孝街103號","121.511995","24.98626","6500300","中和區"
"235053","900-TW","2019/10/17 19:29:27","新北市中和區民德路78號","121.46881","25.0015033333333","6500300","中和區"
"235064","911-UM","2019/10/17 19:29:28","新北市中和區南華路19號","121.502876666667","24.99579","6500300","中和區"
"235051","157-BY","2019/10/17 19:29:27","新北市中和區南華路89號","121.505656666667","24.9973166666667","6500300","中和區"
"235037","AAC-213","2019/10/17 19:29:15","新北市中和區成功路1巷4號","121.526448333333","24.99448","6500300","中和區"
"235059","AAC-215","2019/10/17 19:29:14","新北市中和區圓通路252巷5弄3號","121.49338","24.9913133333333","6500300","中和區"
"220065","072-UY","2019/10/17 19:29:14","新北市板橋區國泰街75巷28弄60號","121.46757","25.0045083333333","6500100","板橋區"
"220086","073-UY","2019/10/17 19:29:21","新北市板橋區中正路216巷22號","121.456793333333","25.0185383333333","6500100","板橋區"
"220106","075-UY","2019/10/17 19:29:26","新北市板橋區民治街26巷15號","121.4776","25.0337733333333","6500100","板橋區"
"220069","AAD-861","2019/10/17 19:29:20","新北市板橋區南雅南路二段1-1號","121.454756666667","25.0036216666667","6500100","板橋區"
"247004","341-TH","2019/10/17 19:29:16","新北市蘆洲區長安街148號","121.459953333333","25.0823183333333","6501400","蘆洲區"
"226004","312-R5","2019/10/17 19:29:17","新北市平溪區十分里十分街193號","121.778395","25.0438116666667","6502400","平溪區"
"235049","251-BX","2019/10/17 19:29:21","新北市中和區景新街273巷30號","121.51061","24.9940216666667","6500300","中和區"
"228003","097-TW","2019/10/17 19:29:14","新北市貢寮區和美里和美街19-2號","121.912791666667","25.082615","6502600","貢寮區"
"228001","212-TW","2019/10/17 19:29:26","新北市貢寮區真理里大澳街31號","121.925045","25.056285","6502600","貢寮區"
"224008","273-VK","2019/10/17 19:29:25","新北市瑞芳區一坑路97-1號","121.801983333333","25.107905","6501200","瑞芳區"
"227002","642-TC","2019/10/17 19:29:25","新北市雙溪區雙溪里光復街18號","121.86515","25.0354133333333","6502500","雙溪區"
"227001","400-TW","2019/10/17 19:29:14","新北市雙溪區新基里新基北街43號","121.86819","25.0396933333333","6502500","雙溪區"
"253005","741-TV","2019/10/17 19:29:21","新北市石門區小坑9號","121.594335","25.28863","6502200","石門區"
"222001","KEA-2212","2019/10/17 19:29:25","新北市深坑區深坑街10號","121.615901666667","25.0027866666667","6501800","深坑區"
"208002","KEA-2872","2019/10/17 19:29:15","新北市金山區仁愛路87巷1號","121.634591666667","25.2215383333333","6502700","金山區"
"208003","665-BX","2019/10/17 19:29:27","新北市金山區中山路263巷14號","121.636453333333","25.2215566666667","6502700","金山區"
"251006","009-UM","2019/10/17 19:29:32","新北市淡水區大信街52巷5弄1號","121.44139","25.17769","6501000","淡水區"
"251005","010-UM","2019/10/17 19:29:27","新北市淡水區水源街一段47巷29號","121.443935","25.1731866666667","6501000","淡水區"
"251015","KEA-2871","2019/10/17 19:29:22","新北市淡水區山子頂24-1號","121.49138","25.1871533333333","6501000","淡水區"
"251016","179-VK","2019/10/17 19:29:13","新北市淡水區下圭柔山119-51號","121.45068","25.208525","6501000","淡水區"
"251008","181-VK","2019/10/17 19:29:14","新北市淡水區中正路一段80號","121.42475","25.1772766666667","6501000","淡水區"
"251013","182-VK","2019/10/17 19:29:13","新北市淡水區安子內18號","121.473198333333","25.2187366666667","6501000","淡水區"
"251010","413-VK","2019/10/17 19:29:28","新北市淡水區中正路二段391號","121.426406666667","25.1910466666667","6501000","淡水區"
"251007","442-VK","2019/10/17 19:29:22","新北市淡水區八勢路30巷19號","121.462368333333","25.15373","6501000","淡水區"
"251001","559-UM","2019/10/17 19:29:22","新北市淡水區民權路155號","121.460041666667","25.1362933333333","6501000","淡水區"
"251009","575-R6","2019/10/17 19:29:15","新北市淡水區中山路157-3號","121.440656666667","25.172895","6501000","淡水區"
"251014","577-R6","2019/10/17 19:29:25","新北市淡水區小中寮19-7號","121.484733333333","25.2296066666667","6501000","淡水區"
"251003","673-BX","2019/10/17 19:29:30","新北市淡水區濱海路一段53號","121.443851666667","25.18912","6501000","淡水區"
"207003","550-UM","2019/10/17 19:29:21","新北市萬里區大鵬里萬里加投103-1號","121.646125","25.2130366666667","6502800","萬里區"
"207004","291-VK","2019/10/17 19:29:13","新北市萬里區萬里里瑪鋉路87-1號","121.688745","25.1772","6502800","萬里區"
"252002","178-VK","2019/10/17 19:29:11","新北市三芝區淡金路二段18-1號","121.502638333333","25.259475","6502100","三芝區"
"208001","170-UY","2019/10/17 19:29:12","新北市金山區中正路29號","121.635228333333","25.222115","6502700","金山區"
"237004","KEA-2597","2019/10/17 19:29:25","新北市三峽區有木205-1號","121.439038333333","24.8516266666667","6500900","三峽區"
"237007","153-BY","2019/10/17 19:29:32","新北市三峽區二鬮路136巷20弄85號","121.358285","24.9089366666667","6500900","三峽區"
"237009","210-TH","2019/10/17 19:29:22","新北市三峽區中山路13巷9號","121.369165","24.9338666666667","6500900","三峽區"
"237013","252-BX","2019/10/17 19:29:27","新北市三峽區介壽路一段316號","121.380655","24.93019","6500900","三峽區"
"237012","275-BY","2019/10/17 19:29:17","新北市三峽區三樹路98巷175號","121.384543333333","24.9399483333333","6500900","三峽區"
"237008","302-VK","2019/10/17 19:29:28","新北市三峽區永安街95巷23號","121.374456666667","24.9283233333333","6500900","三峽區"
"237014","433-BY","2019/10/17 19:29:15","新北市三峽區中山路67巷32號","121.366905","24.9342883333333","6500900","三峽區"
"237006","5529-G3","2019/10/17 19:29:16","新北市三峽區中正路一段336巷15弄2號","121.369973333333","24.92492","6500900","三峽區"
"237011","KEA-2596","2019/10/17 19:29:30","新北市三峽區介壽路一段269號","121.380018333333","24.9302883333333","6500900","三峽區"
"237015","649-BX","2019/10/17 19:29:28","新北市三峽區安坑13-3號","121.444291666667","24.9265766666667","6500900","三峽區"
"237010","706-TV","2019/10/17 19:29:26","新北市三峽區民生街68號","121.374651666667","24.9359583333333","6500900","三峽區"
"237005","AKY-6261","2019/10/17 19:29:16","新北市三峽區復興路367巷9號","121.363796666667","24.93775","6500900","三峽區"
"236078","166-UM","2019/10/17 19:29:32","新北市土城區中州路3巷33弄1號","121.413618333333","24.9565433333333","6501300","土城區"
"236030","253-BX","2019/10/17 19:29:16","新北市土城區中央路二段14巷12-27號","121.442456666667","24.9807466666667","6501300","土城區"
"236014","270-VK","2019/10/17 19:29:25","新北市土城區廣福街121號","121.456241666667","24.9928083333333","6501300","土城區"
"236070","KEA-2877","2019/10/17 19:29:31","新北市土城區學府路一段161號","121.453248333333","24.98568","6501300","土城區"
"252001","KED-0821","2019/10/17 19:29:16","新北市三芝區長勤街63-5號","121.50007","25.256035","6502100","三芝區"
"236021","401-BY","2019/10/17 19:29:23","新北市土城區峰廷街3號","121.469083333333","24.9873166666667","6501300","土城區"
"236049","913-UM","2019/10/17 19:29:29","新北市土城區清水路196號","121.46025","24.9818066666667","6501300","土城區"
"236055","AAC-216","2019/10/17 19:29:21","新北市土城區學府路一段276號","121.450116666667","24.9830633333333","6501300","土城區"
"242061","986-R7","2019/10/17 19:29:13","新北市樹林區八德街395號","121.415506666667","24.9713583333333","6500500","新莊區"
"242031","175-VK","2019/10/17 19:29:27","新北市新莊區新泰路225巷1號","121.446318333333","25.0391983333333","6500500","新莊區"
"238015","755-BX","2019/10/17 19:29:22","新北市樹林區大安路591號","121.41177","24.9833166666667","6500700","樹林區"
"238023","601-UM","2019/10/17 19:29:22","新北市樹林區中正路859-1號","121.408858333333","25.0179033333333","6500700","樹林區"
"238019","599-UM","2019/10/17 19:29:31","新北市樹林區鎮前街347巷2弄1號","121.416713333333","24.9836016666667","6500700","樹林區"
"238024","5061-A6","2019/10/17 19:29:18","新北市樹林區福德街36-2號","121.400361666667","24.9751766666667","6500700","樹林區"
"238018","KEA-2217","2019/10/17 19:29:32","新北市樹林區中華路10號","121.421415","24.9824283333333","6500700","樹林區"
"238022","KEA-2213","2019/10/17 19:29:32","新北市樹林區國凱街82號","121.421168333333","24.9792816666667","6500700","樹林區"
"238021","KEA-2539","2019/10/17 19:29:20","新北市樹林區佳園路三段366號","121.384423333333","24.9453183333333","6500700","樹林區"
"238025","303-VK","2019/10/17 19:29:31","新北市樹林區中山路二段89號","121.41153","24.9829933333333","6500700","樹林區"
"238017","283-BY","2019/10/17 19:29:25","新北市樹林區光興街134巷3號","121.406723333333","25.0033266666667","6500700","樹林區"
"238014","282-BY","2019/10/17 19:29:33","新北市樹林區千歲街17號","121.424908333333","24.99557","6500700","樹林區"
"238020","268-VK","2019/10/17 19:29:24","新北市樹林區俊英街111巷1-5號","121.424226666667","25.0096033333333","6500700","樹林區"
"238026","172-UY","2019/10/17 19:29:18","新北市樹林區佳園路三段15號","121.388256666667","24.9551733333333","6500700","樹林區"
"238016","169-UY","2019/10/17 19:29:19","新北市樹林區復興路464巷46號","121.412821666667","24.9833966666667","6500700","樹林區"
"239007","AAC-297","2019/10/17 19:29:28","新北市鶯歌區中山路138巷36號","121.351278333333","24.9595333333333","6500800","鶯歌區"
"239006","891-R6","2019/10/17 19:29:14","新北市鶯歌區鶯桃路296巷84弄36號","121.337503333333","24.96125","6500800","鶯歌區"
"239008","527-UM","2019/10/17 19:29:18","新北市鶯歌區國際二路4巷6號","121.33881","24.9733116666667","6500800","鶯歌區"
"239005","526-UM","2019/10/17 19:29:29","新北市鶯歌區大湖路361巷36弄21號","121.329938333333","24.977195","6500800","鶯歌區"
"239001","417-VK","2019/10/17 19:29:23","新北市鶯歌區永安街76號","121.33844","24.9560683333333","6500800","鶯歌區"
"239003","360-BY","2019/10/17 19:29:24","新北市鶯歌區德昌二街127號","121.332883333333","24.9558166666667","6500800","鶯歌區"
"239004","193-VK","2019/10/17 19:29:25","新北市鶯歌區中正三路390-3號","121.326588333333","24.9347616666667","6500800","鶯歌區"
"221027","281-BY","2019/10/17 19:29:23","新北市汐止區忠孝東路9號","121.658118333333","25.06584","6501100","汐止區"
"221031","353-TW","2019/10/17 19:29:28","新北市汐止區康寧街901號","121.650751666667","25.0752783333333","6501100","汐止區"
"221025","623-UM","2019/10/17 19:29:23","新北市汐止區新台五路二段6號","121.66019","25.0649866666667","6501100","汐止區"
"221033","647-BX","2019/10/17 19:29:23","新北市汐止區南勢街3號","121.627063333333","25.037395","6501100","汐止區"
"221002","707-TV","2019/10/17 19:29:30","新北市汐止區大同路一段331號","121.638323333333","25.0592683333333","6501100","汐止區"
"220079","145-BY","2019/10/17 19:29:12","新北市板橋區民權路202巷14弄1號","121.460626666667","25.0158983333333","6500100","板橋區"
"220082","610-BX","2019/10/17 19:29:23","新北市板橋區金門街279號","121.431375","24.988165","6500100","板橋區"
"220056","276-BY","2019/10/17 19:29:24","新北市板橋區和平路4號","121.458098333333","24.9943333333333","6500100","板橋區"
"220072","277-BY","2019/10/17 19:29:24","新北市板橋區金門街222號","121.431118333333","24.9880166666667","6500100","板橋區"
"220094","283-UM","2019/10/17 19:29:24","新北市板橋區銘傳街78號","121.46912","25.03133","6500100","板橋區"
"220071","283-VK","2019/10/17 19:29:24","新北市板橋區忠孝路48巷9弄19號","121.462096666667","25.0004366666667","6500100","板橋區"
"220101","285-UM","2019/10/17 19:29:21","新北市板橋區莒光路196巷31號","121.472753333333","25.0224883333333","6500100","板橋區"
"220083","286-VK","2019/10/17 19:29:30","新北市板橋區龍興街73巷31號","121.442571666667","25.0026583333333","6500100","板橋區"
"220081","287-VK","2019/10/17 19:29:18","新北市板橋區南雅西路一段96號","121.452528333333","25.00566","6500100","板橋區"
"220090","288-VK","2019/10/17 19:29:16","新北市板橋區長江路一段36號","121.45836","25.0289416666667","6500100","板橋區"
"220061","293-UM","2019/10/17 19:29:24","新北市板橋區中山路一段263號","121.468763333333","25.0135433333333","6500100","板橋區"
"220053","295-UM","2019/10/17 19:29:03","新北市板橋區富山街53巷1弄54號","121.477981666667","25.02052","6500100","板橋區"
"220084","296-UM","2019/10/17 19:29:20","新北市板橋區滿平街136巷2弄1號","121.428586666667","24.9879616666667","6500100","板橋區"
"220062","299-UM","2019/10/17 19:29:20","新北市板橋區三民路二段167號","121.479198333333","25.01454","6500100","板橋區"
"220075","303-R5","2019/10/17 19:29:12","新北市板橋區中正路275巷93號","121.45076","25.0180566666667","6500100","板橋區"
"220092","307-R5","2019/10/17 19:29:15","新北市板橋區陽明街164巷2號","121.464","25.0243983333333","6500100","板橋區"
"220098","317-R6","2019/10/17 19:29:19","新北市板橋區民有街89巷11號","121.464273333333","25.0273533333333","6500100","板橋區"
"220089","487-VK","2019/10/17 19:29:26","新北市板橋區龍泉街112號","121.456911666667","25.024565","6500100","板橋區"
"220088","491-VK","2019/10/17 19:29:27","新北市板橋區文化路二段560號","121.476406666667","25.0342816666667","6500100","板橋區"
"220035","560-BX","2019/10/17 19:29:18","新北市板橋區中正路433巷1號","121.454113333333","25.0231633333333","6500100","板橋區"
"220103","561-BX","2019/10/17 19:29:31","新北市板橋區陽明街29巷13號","121.464808333333","25.0219283333333","6500100","板橋區"
"220080","568-UM","2019/10/17 19:29:18","新北市板橋區大觀路二段37巷182號","121.449656666667","25.0021566666667","6500100","板橋區"
"220063","609-BX","2019/10/17 19:29:24","新北市板橋區三民路一段31巷87弄5號","121.481378333333","25.0233483333333","6500100","板橋區"
"220091","637-BX","2019/10/17 19:29:16","新北市板橋區文聖街149巷48號","121.48032","25.0291283333333","6500100","板橋區"
"220057","686-BX","2019/10/17 19:29:26","新北市板橋區和平路安樂巷40號","121.461828333333","24.9932333333333","6500100","板橋區"
"220077","687-BX","2019/10/17 19:29:20","新北市板橋區大觀路一段28巷44號","121.449861666667","25.0100416666667","6500100","板橋區"
"220093","689-BX","2019/10/17 19:29:29","新北市板橋區長江路一段38號","121.458373333333","25.0290016666667","6500100","板橋區"
"220054","741-BX","2019/10/17 19:29:17","新北市板橋區重慶路182號","121.462295","25.0036916666667","6500100","板橋區"
"220102","KEA-2699","2019/10/17 19:29:24","新北市板橋區雙十路二段46巷35號","121.476201666667","25.02899","6500100","板橋區"
"220055","827-TW","2019/10/17 19:29:33","新北市板橋區重慶路278巷1號","121.462776666667","24.9996416666667","6500100","板橋區"
"220067","829-TW","2019/10/17 19:29:22","新北市板橋區漢生東路313巷4號","121.47241","25.00821","6500100","板橋區"
"220068","831-TW","2019/10/17 19:29:15","新北市板橋區萬安街102號","121.48382","25.02426","6500100","板橋區"
"220074","895-R6","2019/10/17 19:29:25","新北市板橋區民權路170巷2號","121.459811666667","25.012915","6500100","板橋區"
"220073","985-R7","2019/10/17 19:29:28","新北市板橋區瑞安街46巷1號","121.455311666667","25.022045","6500100","板橋區"
"220097","AAC-210","2019/10/17 19:29:32","新北市板橋區文化路一段285巷1弄15號","121.464158333333","25.0186966666667","6500100","板橋區"
"220064","AAC-253","2019/10/17 19:29:30","新北市板橋區中山路一段118號","121.462906666667","25.0104883333333","6500100","板橋區"
"235068","KEA-2873","2019/10/17 19:29:26","新北市中和區景平路493巷3-1號","121.499805","24.99754","6500300","中和區"
"235061","KEA-2875","2019/10/17 19:29:12","新北市中和區民安街4號","121.480766666667","25.0011","6500300","中和區"
