"lineid","car","time","location","longitude","latitude","cityid","cityname"
"234046","148-BY","2019/10/17 19:59:17","新北市永和區成功路一段99號","121.526878333333","25.00261","6500400","永和區"
"234081","298-R6","2019/10/17 19:59:25","新北市永和區國中路2-1號","121.524093333333","25.0042583333333","6500400","永和區"
"234038","336-UY","2019/10/17 19:59:15","新北市永和區成功路二段2號","121.526701666667","25.001225","6500400","永和區"
"234086","338-UY","2019/10/17 19:59:22","新北市永和區福和路243號","121.518228333333","25.0074683333333","6500400","永和區"
"234070","552-UM","2019/10/17 19:59:28","新北市永和區國光路14號","121.519261666667","25.0084016666667","6500400","永和區"
"234064","553-UM","2019/10/17 19:59:27","新北市永和區中正路368巷1弄47號","121.519175","25.0012433333333","6500400","永和區"
"234017","745-BX","2019/10/17 19:59:19","新北市永和區文化路19-1號","121.514993333333","25.0149766666667","6500400","永和區"
"234030","746-BX","2019/10/17 19:59:17","新北市永和區民權路49巷10號","121.520641666667","24.99716","6500400","永和區"
"234054","KEA-2590","2019/10/17 19:59:25","新北市永和區環河東路一段122號","121.520635","25.0155033333333","6500400","永和區"
"234007","KED-0605","2019/10/17 19:59:12","新北市永和區保生路22巷21號","121.507203333333","25.0081283333333","6500400","永和區"
"234013","KEA-2591","2019/10/17 19:59:11","新北市永和區保生路55號","121.504695","25.0105466666667","6500400","永和區"
"234061","AAD-866","2019/10/17 19:59:25","新北市永和區中正路283巷53弄1號","121.515995","24.9995066666667","6500400","永和區"
"234042","862-TW","2019/10/17 19:59:22","新北市永和區中和路421巷5弄5號","121.508663333333","25.0009516666667","6500400","永和區"
"234050","863-TW","2019/10/17 19:59:04","新北市永和區保安路151號","121.506848333333","25.0130166666667","6500400","永和區"
"234026","9371-KE","2019/10/17 19:59:17","新北市永和區水源街27巷8號","121.511158333333","25.003905","6500400","永和區"
"234011","9373-KE","2019/10/17 19:59:24","新北市永和區仁愛路352巷122弄13號","121.500658333333","25.00907","6500400","永和區"
"249005","172-UM","2019/10/17 19:59:23","新北市八里區楓林路1-6號","121.387038333333","25.1316083333333","6502300","八里區"
"249001","173-UM","2019/10/17 19:59:19","新北市八里區中華路二段312號","121.403821666667","25.1482966666667","6502300","八里區"
"249004","303-UY","2019/10/17 19:59:26","新北市八里區中華路一段333-1號","121.413351666667","25.1537816666667","6502300","八里區"
"249002","305-UY","2019/10/17 19:58:10","新北市八里區頂寮五街17號","121.451351666667","25.1260233333333","6502300","八里區"
"249003","593-UM","2019/10/17 19:59:12","新北市八里區中華路二段560巷13號","121.398298333333","25.1451416666667","6502300","八里區"
"249002","759-BX","2019/10/17 19:59:12","新北市八里區龍米路三段2號","121.429453333333","25.1592966666667","6502300","八里區"
"248016","026-BX","2019/10/17 19:59:27","新北市五股區成泰路三段577巷80弄7號","121.449451666667","25.1042783333333","6501500","五股區"
"248008","KED-0815","2019/10/17 19:59:21","新北市五股區四維路30巷36弄1號","121.469005","25.0714533333333","6501500","五股區"
"248020","KED-0813","2019/10/17 19:59:25","新北市五股區凌雲路三段3號","121.431256666667","25.1061816666667","6501500","五股區"
"248010","272-BY","2019/10/17 19:59:29","新北市五股區成泰路一段87號","121.434595","25.0687883333333","6501500","五股區"
"248004","677-BX","2019/10/17 19:59:31","新北市五股區成泰路一段70-1號","121.435528333333","25.06994","6501500","五股區"
"248002","678-BX","2019/10/17 19:59:29","新北市五股區凌雲路一段50號","121.45161","25.1008783333333","6501500","五股區"
"248012","682-TV","2019/10/17 19:59:28","新北市五股區民義路一段208號","121.430565","25.0892133333333","6501500","五股區"
"234023","9380-KE","2019/10/17 19:59:17","新北市永和區中正路696-1號","121.516488333333","25.0098","6500400","永和區"
"234077","969-R7","2019/10/17 19:59:18","新北市永和區智光街94號","121.516136666667","24.99695","6500400","永和區"
"234074","AAC-211","2019/10/17 19:59:14","新北市永和區豫溪街207巷5號","121.523438333333","25.009925","6500400","永和區"
"234067","AAC-212","2019/10/17 19:59:18","新北市永和區保生路2號","121.506935","25.007135","6500400","永和區"
"234003","AAC-295","2019/10/17 19:59:10","新北市永和區中正路720號","121.515845","25.010035","6500400","永和區"
"243012","AAD-798","2019/10/17 19:59:18","新北市泰山區全興路20號","121.43232","25.0589","6501600","泰山區"
"243014","KEA-2801","2019/10/17 19:59:26","新北市泰山區泰林路二段33-1號","121.435833333333","25.0567733333333","6501600","泰山區"
"243009","KEA-2215","2019/10/17 19:59:10","新北市泰山區楓江路16巷32號","121.434028333333","25.0614166666667","6501600","泰山區"
"243011","KEA-2216","2019/10/17 19:59:13","新北市泰山區工專路66號","121.422746666667","25.0403466666667","6501600","泰山區"
"222003","436-BY","2019/10/17 19:59:28","新北市深坑區埔新街14號","121.620726666667","25.0039266666667","6501800","深坑區"
"222002","659-BX","2019/10/17 19:59:12","新北市深坑區北深路二段81巷8弄3號","121.618246666667","25.00305","6501800","深坑區"
"231061","002-UM","2019/10/17 19:59:29","新北市新店區安和路二段217巷5號","121.517241666667","24.9749983333333","6500600","新店區"
"231044","046-UY","2019/10/17 19:59:29","新北市新店區復興路27號","121.539041666667","24.986665","6500600","新店區"
"231060","106-UY","2019/10/17 19:59:23","新北市新店區安康路二段406號","121.496833333333","24.955315","6500600","新店區"
"231051","107-UY","2019/10/17 19:59:17","新北市新店區中央路216-1號","121.529923333333","24.9732366666667","6500600","新店區"
"231049","108-UY","2019/10/17 19:59:28","新北市新店區建國路116號","121.53937","24.978485","6500600","新店區"
"231065","110-UY","2019/10/17 19:59:19","新北市新店區安祥路106巷10號","121.478768333333","24.9626016666667","6500600","新店區"
"231068","187-VK","2019/10/17 19:59:26","新北市新店區安康路一段355-3號","121.51981","24.962515","6500600","新店區"
"221008","KEA-2785","2019/10/17 19:59:32","新北市汐止區康寧街83巷113號","121.620391666667","25.06721","6501100","汐止區"
"231062","256-BX","2019/10/17 19:59:20","新北市新店區華城路36號","121.528383333333","24.9555516666667","6500600","新店區"
"231054","260-TV","2019/10/17 19:59:15","新北市新店區光明街137號","121.539521666667","24.9620016666667","6500600","新店區"
"231042","268-BY","2019/10/17 19:59:24","新北市新店區中興路一段292號","121.5459","24.969165","6500600","新店區"
"231064","278-BY","2019/10/17 19:59:16","新北市新店區安光路10-1號","121.513796666667","24.9641133333333","6500600","新店區"
"231050","AAD-862","2019/10/17 19:59:12","新北市新店區北宜路二段435號","121.561066666667","24.954255","6500600","新店區"
"231045","355-BY","2019/10/17 19:59:12","新北市新店區北宜路二段483號","121.562146666667","24.9538933333333","6500600","新店區"
"231055","4716-K9","2019/10/17 19:59:22","新北市新店區力行路14巷16弄2號","121.539201666667","24.96546","6500600","新店區"
"231056","4715-K9","2019/10/17 19:59:15","新北市新店區北新路二段37號","121.54288","24.9727983333333","6500600","新店區"
"231067","4772-VM","2019/10/17 19:59:24","新北市新店區秀山路11巷28號","121.531495","24.9585783333333","6500600","新店區"
"231052","513-UM","2019/10/17 19:59:25","新北市新店區新烏路三段寶島巷2弄3號","121.552001666667","24.8986433333333","6500600","新店區"
"231041","619-UM","2019/10/17 19:59:14","新北市新店區中央路9號","121.53345","24.9785083333333","6500600","新店區"
"231063","641-BX","2019/10/17 19:59:29","新北市新店區車子路11號","121.503073333333","24.9520183333333","6500600","新店區"
"231047","KED-0819","2019/10/17 19:59:28","新北市新店區寶宏路3-3號","121.549173333333","24.9766533333333","6500600","新店區"
"231046","719-UM","2019/10/17 19:44:17","新北市新店區福園街1號","121.533676666667","24.973095","6500600","新店區"
"231057","720-UM","2019/10/17 19:59:19","新北市新店區花園二路一段11號","121.55548","24.9325133333333","6500600","新店區"
"231059","897-TW","2019/10/17 19:59:28","新北市新店區安和路一段15號","121.516916666667","24.9640666666667","6500600","新店區"
"231040","898-TW","2019/10/17 19:59:23","新北市新店區中正路75巷71號","121.543196666667","24.9687716666667","6500600","新店區"
"231043","899-TW","2019/10/17 19:59:12","新北市新店區中正路263-5號","121.53819","24.9738066666667","6500600","新店區"
"231066","AKT-0513","2019/10/17 19:59:24","新北市新店區安康路二段416號","121.496541666667","24.9551483333333","6500600","新店區"
"241011","013-R5","2019/10/17 19:59:21","新北市三重區三和路二段167號","121.497865","25.0696433333333","6500200","三重區"
"241028","022-UY","2019/10/17 19:59:18","新北市三重區中正南路55號","121.494025","25.0595233333333","6500200","三重區"
"241008","059-VK","2019/10/17 19:59:22","新北市三重區永福街179巷28號","121.478035","25.074765","6500200","三重區"
"241002","060-VK","2019/10/17 19:59:29","新北市三重區仁愛街277號","121.492865","25.0786616666667","6500200","三重區"
"241031","061-VK","2019/10/17 19:59:16","新北市三重區重新路四段144巷23號","121.487023333333","25.0552966666667","6500200","三重區"
"241017","063-VK","2019/10/17 19:59:13","新北市三重區自強路一段223號","121.491196666667","25.0686233333333","6500200","三重區"
"241024","065-VK","2019/10/17 19:59:22","新北市三重區力行路二段2號","121.481765","25.0718783333333","6500200","三重區"
"241007","066-VK","2019/10/17 19:59:32","新北市三重區慈愛街129號","121.48864","25.07991","6500200","三重區"
"241003","091-VK","2019/10/17 19:59:13","新北市三重區五華街91-4號","121.491776666667","25.0835583333333","6500200","三重區"
"241015","742-BX","2019/10/17 19:59:23","新北市三重區三和路二段37-2號","121.500951666667","25.06736","6500200","三重區"
"241006","262-UM","2019/10/17 19:59:18","新北市三重區力行路二段33巷8號","121.482348333333","25.073635","6500200","三重區"
"241016","266-UM","2019/10/17 19:59:20","新北市三重區正義北路42號","121.497371666667","25.0635683333333","6500200","三重區"
"241009","267-UM","2019/10/17 19:59:32","新北市三重區三和路四段392號","121.48178","25.0791466666667","6500200","三重區"
"241018","268-UM","2019/10/17 19:59:31","新北市三重區正義北路244巷24號","121.495411666667","25.0680633333333","6500200","三重區"
"241032","269-UM","2019/10/17 19:59:18","新北市三重區捷運路37巷32號","121.483928333333","25.0575833333333","6500200","三重區"
"241013","270-UM","2019/10/17 19:59:30","新北市三重區三和路三段121號","121.492786666667","25.07326","6500200","三重區"
"241025","271-UM","2019/10/17 19:59:31","新北市三重區頂崁街210巷16號","121.476403333333","25.0676816666667","6500200","三重區"
"241030","KED-0822","2019/10/17 19:59:25","新北市三重區成功路187號","121.485795","25.052945","6500200","三重區"
"241035","462-BY","2019/10/17 19:59:21","新北市三重區大榮街7號","121.498206666667","25.063115","6500200","三重區"
"241004","475-VK","2019/10/17 19:59:28","新北市三重區五華街65號","121.492628333333","25.0825783333333","6500200","三重區"
"241020","478-VK","2019/10/17 19:59:30","新北市三重區忠孝路一段101號","121.489628333333","25.0721483333333","6500200","三重區"
"241026","480-VK","2019/10/17 19:59:14","新北市三重區仁慈街29號","121.502293333333","25.063115","6500200","三重區"
"241014","543-UM","2019/10/17 19:59:21","新北市三重區三和路二段156號","121.499398333333","25.06849","6500200","三重區"
"241001","547-UM","2019/10/17 19:59:17","新北市三重區福隆路12號","121.490328333333","25.0774066666667","6500200","三重區"
"241019","KEA-2593","2019/10/17 19:59:24","新北市三重區自強路二段9號","121.490036666667","25.0690216666667","6500200","三重區"
"241012","743-BX","2019/10/17 19:59:31","新北市三重區仁厚街73號","121.500931666667","25.0767833333333","6500200","三重區"
"241023","887-TS","2019/10/17 19:59:26","新北市三重區頂崁街172號","121.477568333333","25.0659133333333","6500200","三重區"
"241029","942-UM","2019/10/17 19:59:26","新北市三重區重安街14號","121.490278333333","25.0581616666667","6500200","三重區"
"241033","AAC-255","2019/10/17 19:59:27","新北市三重區中興北街87號","121.46946","25.04798","6500200","三重區"
"235066","003-UY","2019/10/17 19:59:17","新北市中和區中山路二段31號","121.504741666667","25.00525","6500300","中和區"
"235039","097-UM","2019/10/17 19:59:29","新北市中和區景平路278巷16弄8號","121.514296666667","24.993545","6500300","中和區"
"235065","098-UM","2019/10/17 19:59:28","新北市中和區永和路90巷9號","121.497623333333","25.006035","6500300","中和區"
"235040","150-BY","2019/10/17 19:59:21","新北市中和區保健路10巷1弄1號","121.50796","24.997945","6500300","中和區"
"235055","183-VK","2019/10/17 19:59:30","新北市中和區中山路二段481號","121.482891666667","25.005","6500300","中和區"
"235044","293-VK","2019/10/17 19:59:12","新北市中和區景安路202號","121.504135","24.9910833333333","6500300","中和區"
"247016","KEA-2869","2019/10/17 19:59:29","新北市蘆洲區中正路102號","121.469823333333","25.0843533333333","6501400","蘆洲區"
"235050","4979-A6","2019/10/17 19:59:18","新北市中和區景平路239巷1號","121.509976666667","24.9927083333333","6500300","中和區"
"235070","558-UM","2019/10/17 19:59:24","新北市中和區中正路434號","121.491396666667","24.9942383333333","6500300","中和區"
"235046","733-UM","2019/10/17 19:59:23","新北市中和區興南路一段105巷20弄6號","121.510301666667","24.9856116666667","6500300","中和區"
"235052","805-TS","2019/10/17 19:59:16","新北市中和區華新街98號","121.508598333333","24.9830433333333","6500300","中和區"
"235051","157-BY","2019/10/17 19:59:27","新北市中和區景安路198號","121.504246666667","24.9913266666667","6500300","中和區"
"235037","AAC-213","2019/10/17 19:59:15","新北市中和區自強路52號","121.520075","24.994815","6500300","中和區"
"235059","AAC-215","2019/10/17 19:59:29","新北市中和區圓通路355號","121.491448333333","24.990065","6500300","中和區"
"220065","072-UY","2019/10/17 19:59:16","新北市板橋區區運路72號","121.466771666667","25.00992","6500100","板橋區"
"220086","073-UY","2019/10/17 19:59:21","新北市板橋區館前西路160巷3號","121.45257","25.008885","6500100","板橋區"
"220106","075-UY","2019/10/17 19:59:26","新北市板橋區懷德街76巷8號","121.477626666667","25.031735","6500100","板橋區"
"247006","893-R6","2019/10/17 19:59:20","新北市蘆洲區九芎街109號","121.465696666667","25.07968","6501400","蘆洲區"
"247004","341-TH","2019/10/17 19:59:16","新北市蘆洲區長安街202號","121.45857","25.0841816666667","6501400","蘆洲區"
"247020","337-TH","2019/10/17 19:59:31","新北市蘆洲區民權路109號","121.472505","25.0894333333333","6501400","蘆洲區"
"247024","057-VK","2019/10/17 19:59:34","新北市蘆洲區光復路58號","121.463998333333","25.08526","6501400","蘆洲區"
"247014","056-VK","2019/10/17 19:59:22","新北市蘆洲區成功路129號","121.472371666667","25.0822766666667","6501400","蘆洲區"
"247018","053-VK","2019/10/17 19:59:23","新北市蘆洲區民族路290巷13號","121.478575","25.0898033333333","6501400","蘆洲區"
"247008","002-UY","2019/10/17 19:59:23","新北市蘆洲區信義路93號","121.477696666667","25.0800016666667","6501400","蘆洲區"
"247002","001-UY","2019/10/17 19:59:26","新北市蘆洲區長安街274巷4號","121.457705","25.0869383333333","6501400","蘆洲區"
"226004","312-R5","2019/10/17 19:59:17","新北市平溪區望古里灰3號","121.759633333333","25.0307733333333","6502400","平溪區"
"228003","097-TW","2019/10/17 19:59:14","新北市貢寮區仁理村仁和路192號","121.923476666667","25.0526483333333","6502600","貢寮區"
"227002","642-TC","2019/10/17 19:59:25","新北市雙溪區雙溪里長安街16號","121.864993333333","25.0346583333333","6502500","雙溪區"
"227001","400-TW","2019/10/17 19:59:14","新北市雙溪區新基里新基南街25號","121.866263333333","25.0381166666667","6502500","雙溪區"
"222001","KEA-2212","2019/10/17 19:59:28","新北市深坑區北深路三段157號","121.602056666667","25.0032566666667","6501800","深坑區"
"208002","KEA-2872","2019/10/17 19:59:15","新北市金山區中山路16號","121.641213333333","25.2175066666667","6502700","金山區"
"208003","665-BX","2019/10/17 19:59:27","新北市金山區永興里忠義路1號","121.633093333333","25.2586","6502700","金山區"
"251006","009-UM","2019/10/17 19:59:12","新北市淡水區水碓街15號","121.443518333333","25.1770016666667","6501000","淡水區"
"251005","010-UM","2019/10/17 19:59:27","新北市淡水區學府路136巷26號","121.451473333333","25.1726716666667","6501000","淡水區"
"251015","KEA-2871","2019/10/17 19:59:22","新北市淡水區大埤頭1號","121.49275","25.1945566666667","6501000","淡水區"
"251016","179-VK","2019/10/17 19:59:14","新北市淡水區淡金路四段660號","121.45252","25.2318933333333","6501000","淡水區"
"251004","180-VK","2019/10/17 19:59:29","新北市淡水區民權路177巷9號","121.460745","25.1353883333333","6501000","淡水區"
"251008","181-VK","2019/10/17 19:59:14","新北市淡水區淡海路72巷8號","121.423563333333","25.1809566666667","6501000","淡水區"
"251013","182-VK","2019/10/17 19:59:13","新北市淡水區下圭柔山63-7號","121.451891666667","25.20615","6501000","淡水區"
"251012","443-VK","2019/10/17 19:59:24","新北市淡水區下圭柔山93-3號","121.436221666667","25.2091383333333","6501000","淡水區"
"251001","559-UM","2019/10/17 19:59:22","新北市淡水區北投子14-2號","121.44855","25.18368","6501000","淡水區"
"251009","575-R6","2019/10/17 19:59:15","新北市淡水區英專路21巷15號","121.444975","25.1696616666667","6501000","淡水區"
"251014","577-R6","2019/10/17 19:59:25","新北市淡水區石頭厝2-1號","121.458123333333","25.2357083333333","6501000","淡水區"
"251011","650-BX","2019/10/17 19:59:18","新北市淡水區北投子14-2號","121.448611666667","25.1835983333333","6501000","淡水區"
"207003","550-UM","2019/10/17 19:59:21","新北市萬里區大鵬里萬里加投46號","121.64203","25.2118283333333","6502800","萬里區"
"207004","291-VK","2019/10/17 19:59:13","新北市萬里區北基里忠一街1號","121.686801666667","25.1763316666667","6502800","萬里區"
"252002","178-VK","2019/10/17 19:59:31","新北市三芝區忠孝街116-3號","121.505453333333","25.25758","6502100","三芝區"
"237004","KEA-2597","2019/10/17 19:59:25","新北市三峽區添福2號","121.371923333333","24.9060016666667","6500900","三峽區"
"237009","210-TH","2019/10/17 19:59:22","新北市三峽區民族街84號","121.36955","24.9298666666667","6500900","三峽區"
"237012","275-BY","2019/10/17 19:59:17","新北市三峽區光明路15號","121.373076666667","24.9313233333333","6500900","三峽區"
"237014","433-BY","2019/10/17 19:59:15","新北市三峽區嘉添183號","121.369913333333","24.9114","6500900","三峽區"
"237006","5529-G3","2019/10/17 19:59:16","新北市三峽區中正路二段168號","121.366048333333","24.915635","6500900","三峽區"
"237015","649-BX","2019/10/17 19:59:28","新北市三峽區介壽路二段138巷1弄13-1號","121.396263333333","24.933875","6500900","三峽區"
"237005","AKY-6261","2019/10/17 19:59:16","新北市三峽區民生街1巷19-15號","121.379383333333","24.9362466666667","6500900","三峽區"
"236042","KED-0685","2019/10/17 19:59:30","新北市土城區學府路一段98巷17號","121.455586666667","24.9886733333333","6501300","土城區"
"236078","166-UM","2019/10/17 19:59:31","新北市土城區福安街100號","121.417626666667","24.9640266666667","6501300","土城區"
"236030","253-BX","2019/10/17 19:59:16","新北市土城區中央路一段242巷8弄1號","121.443733333333","24.9852516666667","6501300","土城區"
"236026","269-VK","2019/10/17 19:59:21","新北市土城區員林街5號","121.442553333333","24.9781116666667","6501300","土城區"
"236014","270-VK","2019/10/17 19:59:15","新北市土城區廣福街123號","121.456263333333","24.9928566666667","6501300","土城區"
"236038","271-VK","2019/10/17 19:59:18","新北市土城區國際路72-1號","121.466698333333","24.9763833333333","6501300","土城區"
"236070","KEA-2877","2019/10/17 19:59:31","新北市土城區忠義路77-1號","121.442866666667","24.9652316666667","6501300","土城區"
"252001","KED-0821","2019/10/17 19:59:16","新北市三芝區公正街66號","121.499771666667","25.257425","6502100","三芝區"
"236021","401-BY","2019/10/17 19:59:23","新北市土城區延吉街111巷12弄2號","121.471713333333","24.9859033333333","6501300","土城區"
"236063","752-BX","2019/10/17 19:57:28","新北市土城區金城路三段73巷9弄3號","121.466143333333","24.987595","6501300","土城區"
"236059","912-UM","2019/10/17 19:59:14","新北市土城區中央路一段299號","121.444003333333","24.9836983333333","6501300","土城區"
"236049","913-UM","2019/10/17 19:59:29","新北市中和區連城路534巷2號","121.47535","24.9911783333333","6501300","土城區"
"236055","AAC-216","2019/10/17 19:59:21","新北市土城區學府路一段35號","121.45792","24.98837","6501300","土城區"
"242061","986-R7","2019/10/17 19:59:13","新北市新莊區瓊林路59-72號","121.444338333333","25.0274366666667","6500500","新莊區"
"242004","751-BX","2019/10/17 19:59:23","新北市新莊區化成路314巷8號","121.466551666667","25.0482266666667","6500500","新莊區"
"242029","615-BX","2019/10/17 19:59:17","新北市新莊區中平路375號","121.444563333333","25.05236","6500500","新莊區"
"242058","612-BX","2019/10/17 19:59:14","新北市新莊區八德街80號","121.424538333333","25.021855","6500500","新莊區"
"242048","566-BX","2019/10/17 19:59:28","新北市新莊區四維路10號","121.423768333333","25.0251733333333","6500500","新莊區"
"242053","497-BY","2019/10/17 19:59:15","新北市新莊區西盛街418號","121.42722","25.012185","6500500","新莊區"
"242039","442-UM","2019/10/17 19:59:14","新北市新莊區民安路272號","121.427603333333","25.0213583333333","6500500","新莊區"
"242007","440-UM","2019/10/17 19:59:13","新北市新莊區思源路682號","121.459705","25.0579533333333","6500500","新莊區"
"242013","413-TV","2019/10/17 19:59:23","新北市新莊區中誠街53巷32號","121.451463333333","25.0472433333333","6500500","新莊區"
"242051","400-BY","2019/10/17 19:59:33","新北市新莊區西盛街188號","121.428181666667","25.0185183333333","6500500","新莊區"
"242025","362-BY","2019/10/17 19:59:27","新北市新莊區五工二路86巷12-1號","121.460005","25.06678","6500500","新莊區"
"242023","353-BY","2019/10/17 19:59:16","新北市新莊區化成路370號","121.465891666667","25.04968","6500500","新莊區"
"242015","132-UY","2019/10/17 19:59:18","新北市新莊區復興路一段47巷11號","121.446685","25.0426983333333","6500500","新莊區"
"242056","172-VK","2019/10/17 19:59:24","新北市新莊區中正路347巷17-1號","121.447495","25.03439","6500500","新莊區"
"242031","175-VK","2019/10/17 19:59:27","新北市新莊區公園一路27號","121.443243333333","25.0352566666667","6500500","新莊區"
"242019","176-VK","2019/10/17 19:59:14","新北市新莊區民生街15巷3弄9號","121.455273333333","25.042555","6500500","新莊區"
"242021","KED-0687","2019/10/17 19:59:31","新北市新莊區建中街48巷10弄12號","121.44865","25.0384083333333","6500500","新莊區"
"242044","346-TH","2019/10/17 19:59:17","新北市新莊區新北大道七段712號","121.41236","25.0264833333333","6500500","新莊區"
"242034","347-TH","2019/10/17 19:59:28","新北市新莊區建中街77號","121.447335","25.0367066666667","6500500","新莊區"
"242036","348-TH","2019/10/17 19:59:18","新北市新莊區建安街41巷2號","121.42889","25.025435","6500500","新莊區"
"238021","KEA-2539","2019/10/17 19:59:20","新北市樹林區佳園路三段71號","121.387671666667","24.9527933333333","6500700","樹林區"
"238025","303-VK","2019/10/17 19:59:11","新北市樹林區民和街1號","121.385491666667","24.96818","6500700","樹林區"
"238017","283-BY","2019/10/17 19:59:23","新北市樹林區保安街二段45巷40號","121.41427","25.0001633333333","6500700","樹林區"
"239007","AAC-297","2019/10/17 19:59:28","新北市鶯歌區大湖路326巷66號","121.346555","24.96916","6500800","鶯歌區"
"239006","891-R6","2019/10/17 19:59:14","新北市鶯歌區永昌街29號","121.342563333333","24.9497466666667","6500800","鶯歌區"
"239005","526-UM","2019/10/17 19:59:29","新北市鶯歌區大湖路402號","121.34303","24.9732216666667","6500800","鶯歌區"
"239001","417-VK","2019/10/17 19:59:23","新北市鶯歌區尖山埔路114號","121.344176666667","24.950285","6500800","鶯歌區"
"239002","359-BY","2019/10/17 19:59:14","新北市鶯歌區湖山路64巷3號","121.339838333333","24.9767483333333","6500800","鶯歌區"
"239004","193-VK","2019/10/17 19:59:25","新北市鶯歌區二甲路中心巷13弄1號","121.337718333333","24.9354433333333","6500800","鶯歌區"
"221015","131-UY","2019/10/17 19:59:12","新北市汐止區橋東街21號","121.666451666667","25.0755716666667","6501100","汐止區"
"221010","269-BY","2019/10/17 19:59:30","新北市汐止區汐萬路一段409號","121.649248333333","25.0793683333333","6501100","汐止區"
"221012","278-VK","2019/10/17 19:59:33","新北市汐止區保長路273巷1號","121.681128333333","25.0740266666667","6501100","汐止區"
"221023","279-VK","2019/10/17 19:59:20","新北市汐止區民族三街44號","121.629558333333","25.07005","6501100","汐止區"
"221027","281-BY","2019/10/17 19:59:23","新北市汐止區中正路85號","121.66129","25.0694","6501100","汐止區"
"221029","298-VK","2019/10/17 19:59:33","新北市汐止區樟樹一路137巷24號","121.641058333333","25.0660083333333","6501100","汐止區"
"221021","299-VK","2019/10/17 19:59:24","新北市汐止區水源路一段175號","121.655146666667","25.06184","6501100","汐止區"
"221031","353-TW","2019/10/17 19:59:29","新北市汐止區福德二路55巷6弄1號","121.63461","25.06652","6501100","汐止區"
"221035","622-UM","2019/10/17 19:59:20","新北市汐止區長江街11號","121.654708333333","25.071175","6501100","汐止區"
"221025","623-UM","2019/10/17 19:59:18","新北市汐止區秀峰路109巷26弄8號","121.661043333333","25.063425","6501100","汐止區"
"221038","646-BX","2019/10/17 19:59:22","新北市汐止區忠孝東路483號","121.666011666667","25.0735033333333","6501100","汐止區"
"221033","647-BX","2019/10/17 19:59:23","新北市汐止區東勢街201巷2號","121.633773333333","25.0420283333333","6501100","汐止區"
"220079","145-BY","2019/10/17 19:59:30","新北市板橋區民權路296號","121.45723","25.0160283333333","6500100","板橋區"
"220082","610-BX","2019/10/17 19:59:23","新北市板橋區存德街3號","121.429933333333","24.99188","6500100","板橋區"
"224002","257-TC","2019/10/17 19:59:31","新北市瑞芳區民享新村1號","121.817473333333","25.1055666666667","6501200","瑞芳區"
"220056","276-BY","2019/10/17 19:59:24","新北市板橋區四川路二段99巷2弄3號","121.452636666667","24.9941916666667","6500100","板橋區"
"220072","277-BY","2019/10/17 19:59:28","新北市板橋區金門街109巷18號","121.433993333333","24.99172","6500100","板橋區"
"220094","283-UM","2019/10/17 19:59:24","新北市板橋區文化路一段156號","121.465601666667","25.01915","6500100","板橋區"
"220071","283-VK","2019/10/17 19:59:24","新北市板橋區廣權路103號","121.464621666667","24.9927483333333","6500100","板橋區"
"220101","285-UM","2019/10/17 19:59:21","新北市板橋區雙十路二段47巷4弄22號","121.474915","25.0264033333333","6500100","板橋區"
"220083","286-VK","2019/10/17 19:59:16","新北市板橋區僑中二街10巷38號","121.445436666667","25.011315","6500100","板橋區"
"220081","287-VK","2019/10/17 19:59:18","新北市板橋區大觀路一段28巷91-1號","121.45014","25.0114866666667","6500100","板橋區"
"220090","288-VK","2019/10/17 19:59:16","新北市板橋區新海路72巷5弄21號","121.461595","25.0227266666667","6500100","板橋區"
"220061","293-UM","2019/10/17 19:59:24","新北市板橋區中山路一段34號","121.460545","25.0086","6500100","板橋區"
"220053","295-UM","2019/10/17 19:59:23","新北市板橋區永豐街155號","121.475378333333","25.02021","6500100","板橋區"
"220084","296-UM","2019/10/17 19:59:29","新北市板橋區溪崑二街111巷17號","121.427065","24.9884383333333","6500100","板橋區"
"220062","299-UM","2019/10/17 19:59:20","新北市板橋區光復街189號","121.484698333333","25.0207733333333","6500100","板橋區"
"220075","303-R5","2019/10/17 19:56:52","新北市板橋區金華街1號","121.45546","25.0200366666667","6500100","板橋區"
"220092","307-R5","2019/10/17 19:59:15","新北市板橋區民權路174號","121.459546666667","25.0132866666667","6500100","板橋區"
"220098","317-R6","2019/10/17 19:59:18","新北市板橋區新海路385巷24號","121.457931666667","25.0255416666667","6500100","板橋區"
"220089","487-VK","2019/10/17 19:59:26","新北市板橋區四維路313號","121.462965","25.02878","6500100","板橋區"
"242011","280-VK","2019/10/17 19:59:18","新北市新莊區中港路531巷33號","121.45005","25.051435","6500500","新莊區"
"220088","491-VK","2019/10/17 19:59:14","新北市板橋區民治街92-1號","121.479151666667","25.0317316666667","6500100","板橋區"
"220035","560-BX","2019/10/17 19:59:18","新北市板橋區金華街104號","121.45859","25.02078","6500100","板橋區"
"220103","561-BX","2019/10/17 19:59:11","新北市板橋區漢生東路43巷28號","121.466458333333","25.01755","6500100","板橋區"
"220080","568-UM","2019/10/17 19:59:26","新北市板橋區大觀路二段153巷37號","121.446853333333","25.00038","6500100","板橋區"
"220063","609-BX","2019/10/17 19:59:27","新北市板橋區中山路二段323號","121.479118333333","25.018745","6500100","板橋區"
"220091","637-BX","2019/10/17 19:59:16","新北市板橋區文聖街70號","121.477208333333","25.030285","6500100","板橋區"
"220057","686-BX","2019/10/17 19:59:26","新北市板橋區四川路二段130巷43號","121.449618333333","24.994655","6500100","板橋區"
"220077","687-BX","2019/10/17 19:59:20","新北市板橋區僑中一街104號","121.446621666667","25.0116183333333","6500100","板橋區"
"220093","689-BX","2019/10/17 19:59:32","新北市板橋區長江路二段192號","121.467318333333","25.0321266666667","6500100","板橋區"
"220054","741-BX","2019/10/17 19:59:17","新北市板橋區實踐路93巷40號","121.465575","25.0049933333333","6500100","板橋區"
"220102","KEA-2699","2019/10/17 19:59:24","新北市板橋區莒光路16巷32號","121.469396666667","25.023885","6500100","板橋區"
"220055","827-TW","2019/10/17 19:59:33","新北市板橋區仁愛路62巷15弄2號","121.459993333333","24.9984266666667","6500100","板橋區"
"220067","829-TW","2019/10/17 19:59:22","新北市板橋區漢生東路195號","121.470035","25.0115883333333","6500100","板橋區"
"220068","831-TW","2019/10/17 19:59:15","新北市板橋區光復街237號","121.484561666667","25.0214566666667","6500100","板橋區"
"220074","895-R6","2019/10/17 19:59:19","新北市板橋區文化路一段46巷19號","121.460276666667","25.0115733333333","6500100","板橋區"
"220073","985-R7","2019/10/17 19:59:28","新北市板橋區南雅西路二段206號","121.451836666667","25.0149616666667","6500100","板橋區"
"220097","AAC-210","2019/10/17 19:59:12","新北市板橋區公館街132號","121.461298333333","25.0183333333333","6500100","板橋區"
"220064","AAC-253","2019/10/17 19:59:30","新北市板橋區民族路165號","121.46836","25.007635","6500100","板橋區"
"235068","KEA-2873","2019/10/17 19:59:26","新北市中和區中山路二段248號","121.497658333333","25.0026716666667","6500300","中和區"
"235026","KEA-2876","2019/10/17 19:59:24","新北市中和區員山路36巷16-3號","121.48501","24.9914233333333","6500300","中和區"
