"lineid","car","time","location","longitude","latitude","cityid","cityname"
"231061","002-UM","2019/10/17 20:59:29","新北市新店區永安街64號","121.519371666667","24.986895","6500600","新店區"
"231060","106-UY","2019/10/17 20:59:23","新北市新店區安康路三段535號","121.480046666667","24.9475466666667","6500600","新店區"
"231051","107-UY","2019/10/17 20:58:57","新北市新店區溪園路247號","121.525818333333","24.9834633333333","6500600","新店區"
"231049","108-UY","2019/10/17 20:59:28","新北市新店區薏仁坑路6號","121.50051","24.9581133333333","6500600","新店區"
"231065","110-UY","2019/10/17 20:59:19","新北市新店區安祥路67巷28弄1號","121.4848","24.9593966666667","6500600","新店區"
"231068","187-VK","2019/10/17 20:59:26","新北市新店區寶中路77號","121.547666666667","24.9806816666667","6500600","新店區"
"231062","256-BX","2019/10/17 20:59:19","新北市新店區裕合街92號","121.49033","24.948725","6500600","新店區"
"231054","260-TV","2019/10/17 20:59:15","新北市新店區中興路一段283號","121.54533","24.9685","6500600","新店區"
"231042","268-BY","2019/10/17 20:59:24","新北市新店區寶興路60巷3號","121.549901666667","24.97184","6500600","新店區"
"231064","278-BY","2019/10/17 20:58:56","新北市新店區安康路二段320巷15弄2號","121.503796666667","24.9595816666667","6500600","新店區"
"231050","AAD-862","2019/10/17 20:59:12","新北市新店區三民路75巷3弄2號","121.535641666667","24.9709883333333","6500600","新店區"
"231063","641-BX","2019/10/17 20:59:29","新北市新店區玫瑰路49巷2號","121.49598","24.94829","6500600","新店區"
"231059","897-TW","2019/10/17 20:59:28","新北市新店區僑信路63號","121.499603333333","24.948625","6500600","新店區"
"231040","898-TW","2019/10/17 20:59:24","新北市新店區中正路139號","121.541658333333","24.97146","6500600","新店區"
"231043","899-TW","2019/10/17 20:59:12","新北市新店區溪園路385號","121.523171666667","24.9794083333333","6500600","新店區"
"231066","AKT-0513","2019/10/17 20:59:24","新北市新店區吉安街9號","121.516658333333","24.9657366666667","6500600","新店區"
"241011","013-R5","2019/10/17 20:59:21","新北市三重區秀江街117號","121.499771666667","25.07219","6500200","三重區"
"241028","022-UY","2019/10/17 20:59:18","新北市三重區正義南路53號","121.49822","25.0606216666667","6500200","三重區"
"241008","059-VK","2019/10/17 20:59:22","新北市三重區車路頭街135-1號","121.484245","25.0759316666667","6500200","三重區"
"241002","060-VK","2019/10/17 20:59:29","新北市三重區五華街1巷92號","121.497166666667","25.0805966666667","6500200","三重區"
"241031","061-VK","2019/10/17 20:59:16","新北市三重區重陽路一段113巷2弄2號","121.487401666667","25.0599066666667","6500200","三重區"
"241017","063-VK","2019/10/17 20:59:13","新北市三重區大仁街23號","121.49194","25.0646183333333","6500200","三重區"
"241024","065-VK","2019/10/17 20:59:22","新北市三重區大勇街51號","121.481286666667","25.0719033333333","6500200","三重區"
"241007","066-VK","2019/10/17 20:59:12","新北市三重區三和路四段145巷82號","121.486376666667","25.07885","6500200","三重區"
"241003","091-VK","2019/10/17 20:59:13","新北市三重區五華街141巷58號","121.493491666667","25.0867283333333","6500200","三重區"
"241015","742-BX","2019/10/17 20:59:23","新北市三重區福德北路46號","121.50199","25.0655416666667","6500200","三重區"
"241006","262-UM","2019/10/17 20:59:18","新北市三重區永福街178號","121.481263333333","25.07443","6500200","三重區"
"241016","266-UM","2019/10/17 20:58:59","新北市三重區正義北路152號","121.496321666667","25.0662616666667","6500200","三重區"
"241009","267-UM","2019/10/17 20:59:12","新北市三重區車路頭街139巷2號","121.48394","25.0762733333333","6500200","三重區"
"241018","268-UM","2019/10/17 20:59:31","新北市三重區雙園街57巷3號","121.4949","25.0676166666667","6500200","三重區"
"241032","269-UM","2019/10/17 20:59:18","新北市三重區三陽路118號","121.482995","25.0587983333333","6500200","三重區"
"241013","270-UM","2019/10/17 20:59:10","新北市三重區仁賢街12-1號","121.495731666667","25.0749183333333","6500200","三重區"
"241025","271-UM","2019/10/17 20:59:11","新北市三重區貴陽街14號","121.484255","25.0617766666667","6500200","三重區"
"241030","KED-0822","2019/10/17 20:59:14","新北市三重區中正南路252巷5號","121.493295","25.0522083333333","6500200","三重區"
"241004","475-VK","2019/10/17 20:59:27","新北市三重區仁愛街418號","121.490476666667","25.08134","6500200","三重區"
"241020","478-VK","2019/10/17 20:59:30","新北市三重區忠孝路二段34號","121.485825","25.0710216666667","6500200","三重區"
"241026","480-VK","2019/10/17 20:59:14","新北市三重區環河南路125號","121.497091666667","25.055355","6500200","三重區"
"241014","543-UM","2019/10/17 20:59:21","新北市三重區長壽街120巷19弄9號","121.502516666667","25.0691633333333","6500200","三重區"
"241001","547-UM","2019/10/17 20:58:17","新北市三重區三和路四段128-1號","121.488808333333","25.0751416666667","6500200","三重區"
"241019","KEA-2593","2019/10/17 20:59:24","新北市三重區自強路二段74巷23-1號","121.487901666667","25.069865","6500200","三重區"
"241005","AAD-863","2019/10/17 20:59:22","新北市三重區三信路186號","121.487755","25.0860533333333","6500200","三重區"
"241012","743-BX","2019/10/17 20:59:11","新北市三重區龍門路274巷45號","121.501221666667","25.0755433333333","6500200","三重區"
"241022","KED-0820","2019/10/17 20:59:28","新北市三重區中正北路20巷12號","121.487985","25.0624666666667","6500200","三重區"
"241023","887-TS","2019/10/17 20:59:26","新北市三重區洛陽街45巷15號","121.482428333333","25.0637416666667","6500200","三重區"
"241029","942-UM","2019/10/17 20:59:26","新北市三重區正義南路111號","121.49823","25.0585633333333","6500200","三重區"
"241033","AAC-255","2019/10/17 20:59:32","新北市三重區光復路二段11號","121.472123333333","25.0541366666667","6500200","三重區"
"235055","183-VK","2019/10/17 20:59:10","新北市中和區中山路二段550號","121.483918333333","25.0054233333333","6500300","中和區"
"247016","KEA-2869","2019/10/17 20:59:22","新北市蘆洲區正和街83號","121.468158333333","25.0807283333333","6501400","蘆洲區"
"247010","KED-0682","2019/10/17 20:59:31","新北市蘆洲區鷺江街76號","121.477031666667","25.0837566666667","6501400","蘆洲區"
"235069","4980-A6","2019/10/17 20:59:17","新北市中和區中正路637巷32號","121.484941666667","24.9945866666667","6500300","中和區"
"235009","565-BX","2019/10/17 20:52:58","新北市中和區員山路36巷13號","121.484151666667","24.99107","6500300","中和區"
"247006","893-R6","2019/10/17 20:59:20","新北市蘆洲區永安南路二段16巷8號","121.467746666667","25.0772633333333","6501400","蘆洲區"
"247004","341-TH","2019/10/17 20:59:16","新北市蘆洲區永安南路二段258號","121.45956","25.0804583333333","6501400","蘆洲區"
"247024","057-VK","2019/10/17 20:59:13","新北市蘆洲區長興路213號","121.461165","25.0863466666667","6501400","蘆洲區"
"247014","056-VK","2019/10/17 20:59:19","新北市蘆洲區中山二路36巷42-1號","121.473938333333","25.08364","6501400","蘆洲區"
"247018","053-VK","2019/10/17 20:59:23","新北市蘆洲區民權路85號","121.47322","25.0886966666667","6501400","蘆洲區"
"247002","001-UY","2019/10/17 20:59:26","新北市蘆洲區永樂街38巷65號","121.458406666667","25.0903533333333","6501400","蘆洲區"
"251005","010-UM","2019/10/17 20:59:27","新北市淡水區學府路51巷2弄6號","121.44778","25.1697216666667","6501000","淡水區"
"251015","KEA-2871","2019/10/17 20:59:22","新北市淡水區淡金路四段542巷17號","121.452838333333","25.22707","6501000","淡水區"
"251016","179-VK","2019/10/17 20:59:13","新北市淡水區牛埔子11-1號","121.450355","25.218485","6501000","淡水區"
"251013","182-VK","2019/10/17 20:59:13","新北市淡水區番子厝13號","121.46137","25.2014233333333","6501000","淡水區"
"251010","413-VK","2019/10/17 20:59:28","新北市淡水區淡海路22號","121.423953333333","25.17874","6501000","淡水區"
"251007","442-VK","2019/10/17 20:59:21","新北市淡水區仁愛街2巷2號","121.446261666667","25.1706783333333","6501000","淡水區"
"251012","443-VK","2019/10/17 20:59:24","新北市淡水區淡金路五段20號","121.453326666667","25.23242","6501000","淡水區"
"251001","559-UM","2019/10/17 20:59:30","新北市淡水區新市一路三段100號","121.44621","25.18283","6501000","淡水區"
"251014","577-R6","2019/10/17 20:59:25","新北市淡水區溪口10號","121.455955","25.236425","6501000","淡水區"
"251011","650-BX","2019/10/17 20:59:18","新北市淡水區新民街103號","121.436065","25.1809366666667","6501000","淡水區"
"251002","672-BX","2019/10/17 20:59:21","新北市淡水區英專路68號","121.445715","25.171095","6501000","淡水區"
"251003","673-BX","2019/10/17 20:59:30","新北市淡水區新春街146-2號","121.441878333333","25.1815466666667","6501000","淡水區"
"247012","KED-0683","2019/10/17 20:59:13","新北市蘆洲區民權路6號","121.476981666667","25.08549","6501400","蘆洲區"
"242051","400-BY","2019/10/17 20:59:13","新北市新莊區新樹路40號","121.437796666667","25.0283066666667","6500500","新莊區"
"242025","362-BY","2019/10/17 20:59:27","新北市八里區下罟子17號","121.379965","25.1432566666667","6500500","新莊區"
"242036","348-TH","2019/10/17 20:59:18","新北市新莊區中環路一段299號","121.442003333333","25.0324316666667","6500500","新莊區"
"242009","349-TH","2019/10/17 20:59:13","新北市新莊區思源路55號","121.459926666667","25.04021","6500500","新莊區"
"221035","622-UM","2019/10/17 20:59:20","新北市汐止區汐萬路一段115巷1號","121.65461","25.07007","6501100","汐止區"
"224002","257-TC","2019/10/17 20:34:46","新北市瑞芳區傑魚坑路255號","121.787726666667","25.1061933333333","6501200","瑞芳區"
