"lineid","car","time","location","longitude","latitude","cityid","cityname"
"231061","002-UM","2019/10/17 21:09:29","新北市新店區永平街31號","121.516613333333","24.98359","6500600","新店區"
"231060","106-UY","2019/10/17 21:09:23","新北市新店區安康路三段250號","121.487591666667","24.9517716666667","6500600","新店區"
"231051","107-UY","2019/10/17 21:09:17","新北市新店區復興路106-25號","121.532475","24.990525","6500600","新店區"
"231065","110-UY","2019/10/17 21:09:20","新北市新店區安祥路69巷89弄11號","121.483308333333","24.95981","6500600","新店區"
"231068","187-VK","2019/10/17 21:09:26","新北市新店區安康路二段46號","121.5154","24.9637433333333","6500600","新店區"
"231062","256-BX","2019/10/17 21:09:19","新北市新店區安康路三段79號","121.491988333333","24.9519466666667","6500600","新店區"
"231054","260-TV","2019/10/17 21:09:15","新北市新店區檳榔路18號","121.541191666667","24.96434","6500600","新店區"
"231042","268-BY","2019/10/17 21:09:24","新北市新店區安興路20號","121.51503","24.9659433333333","6500600","新店區"
"231064","278-BY","2019/10/17 21:09:16","新北市新店區薏仁坑路自強巷6號","121.496408333333","24.95841","6500600","新店區"
"231050","AAD-862","2019/10/17 21:09:12","新北市新店區中華路115號","121.538846666667","24.9693866666667","6500600","新店區"
"231063","641-BX","2019/10/17 21:09:29","新北市新店區玫瑰路64巷2號","121.49587","24.9457383333333","6500600","新店區"
"231059","897-TW","2019/10/17 21:09:28","新北市新店區僑信路25號","121.499483333333","24.951205","6500600","新店區"
"231040","898-TW","2019/10/17 21:09:23","新北市新店區北新路一段209號","121.54047","24.9649783333333","6500600","新店區"
"241011","013-R5","2019/10/17 21:09:21","新北市三重區龍濱路170號","121.501341666667","25.072695","6500200","三重區"
"241028","022-UY","2019/10/17 21:09:18","新北市三重區正義南路169號","121.49893","25.057475","6500200","三重區"
"241008","059-VK","2019/10/17 21:09:28","新北市三重區自強路一段58號","121.497475","25.066875","6500200","三重區"
"241002","060-VK","2019/10/17 21:09:29","新北市三重區五華街11號","121.494961666667","25.0803166666667","6500200","三重區"
"241031","061-VK","2019/10/17 21:09:16","新北市三重區重新路五段318號","121.478133333333","25.04868","6500200","三重區"
"241017","063-VK","2019/10/17 21:09:33","新北市三重區國隆路30號","121.492241666667","25.0643533333333","6500200","三重區"
"241024","065-VK","2019/10/17 21:09:22","新北市三重區國道路一段58巷20號","121.481226666667","25.0720583333333","6500200","三重區"
"241007","066-VK","2019/10/17 21:09:12","新北市三重區慈愛街53號","121.486271666667","25.0790883333333","6500200","三重區"
"241003","091-VK","2019/10/17 21:09:15","新北市三重區仁義街230巷2號","121.49474","25.0849633333333","6500200","三重區"
"241015","742-BX","2019/10/17 21:09:23","新北市三重區三和路一段99號","121.502018333333","25.0663716666667","6500200","三重區"
"241006","262-UM","2019/10/17 21:09:18","新北市三重區中正北路2號","121.489235","25.0631766666667","6500200","三重區"
"241016","266-UM","2019/10/17 21:09:20","新北市三重區大智街12號","121.495386666667","25.06447","6500200","三重區"
"241009","267-UM","2019/10/17 21:09:32","新北市三重區忠孝路二段124號","121.483051666667","25.0688616666667","6500200","三重區"
"241018","268-UM","2019/10/17 21:09:11","新北市三重區正義北路332-1號","121.494366666667","25.0705466666667","6500200","三重區"
"241032","269-UM","2019/10/17 21:09:18","新北市三重區中興北街283號","121.469205","25.0617366666667","6500200","三重區"
"241013","270-UM","2019/10/17 21:09:10","新北市三重區仁愛街66號","121.495795","25.0731633333333","6500200","三重區"
"241025","271-UM","2019/10/17 21:09:31","新北市三重區中正北路208巷8號","121.482318333333","25.0669283333333","6500200","三重區"
"241030","KED-0822","2019/10/17 21:09:14","新北市三重區五谷王北街20巷15弄1號","121.475043333333","25.048495","6500200","三重區"
"241004","475-VK","2019/10/17 21:09:27","新北市三重區仁愛街418號","121.49046","25.081345","6500200","三重區"
"241026","480-VK","2019/10/17 21:09:14","新北市三重區大同南路210號","121.49668","25.056475","6500200","三重區"
"241014","543-UM","2019/10/17 21:09:21","新北市三重區三和路二段37-9號","121.50134","25.0676616666667","6500200","三重區"
"241001","547-UM","2019/10/17 21:08:57","新北市三重區福隆路101號","121.492413333333","25.0783383333333","6500200","三重區"
"241019","KEA-2593","2019/10/17 21:09:24","新北市三重區三張街104號","121.487913333333","25.0698833333333","6500200","三重區"
"241005","AAD-863","2019/10/17 21:09:22","新北市三重區仁華街77號","121.485625","25.082965","6500200","三重區"
"241012","743-BX","2019/10/17 21:09:31","新北市三重區龍門路274巷45號","121.501218333333","25.07554","6500200","三重區"
"241022","KED-0820","2019/10/17 21:09:28","新北市三重區中正北路64巷23號","121.486018333333","25.0637233333333","6500200","三重區"
"241023","887-TS","2019/10/17 21:09:26","新北市三重區忠孝路三段50巷74號","121.48283","25.064575","6500200","三重區"
"241029","942-UM","2019/10/17 21:09:26","新北市三重區正義南路111號","121.498215","25.0585466666667","6500200","三重區"
"241033","AAC-255","2019/10/17 21:09:27","新北市三重區中興北街289號","121.469086666667","25.0623683333333","6500200","三重區"
"235055","183-VK","2019/10/17 21:09:30","新北市中和區員山路36巷13號","121.484225","24.99065","6500300","中和區"
"247016","KEA-2869","2019/10/17 21:09:22","新北市蘆洲區中正路185巷72號","121.466383333333","25.08439","6501400","蘆洲區"
"247010","KED-0682","2019/10/17 21:09:11","新北市蘆洲區鷺江街38號","121.477318333333","25.0829883333333","6501400","蘆洲區"
"235009","565-BX","2019/10/17 20:52:58","新北市中和區員山路36巷13號","121.484151666667","24.99107","6500300","中和區"
"235018","640-BX","2019/10/17 21:03:44","新北市中和區員山路36巷16-2號","121.48534","24.991615","6500300","中和區"
"247006","893-R6","2019/10/17 21:09:20","新北市蘆洲區長安街22巷18號","121.464601666667","25.0798283333333","6501400","蘆洲區"
"247004","341-TH","2019/10/17 21:09:15","新北市蘆洲區永安南路二段312號","121.457145","25.0826283333333","6501400","蘆洲區"
"247024","057-VK","2019/10/17 21:09:13","新北市蘆洲區長興路50巷1號","121.463738333333","25.0837716666667","6501400","蘆洲區"
"247014","056-VK","2019/10/17 21:09:19","新北市蘆洲區中央路155號","121.472641666667","25.0846166666667","6501400","蘆洲區"
"247022","007-UY","2019/10/17 21:09:17","新北市蘆洲區三民路229號","121.469506666667","25.0885316666667","6501400","蘆洲區"
"247008","002-UY","2019/10/17 21:09:23","新北市蘆洲區民生街95號","121.473913333333","25.0786533333333","6501400","蘆洲區"
"247002","001-UY","2019/10/17 21:09:26","新北市蘆洲區永樂街38巷40號","121.458593333333","25.09003","6501400","蘆洲區"
"251005","010-UM","2019/10/17 21:09:27","新北市淡水區英專路2巷27號","121.44649","25.169325","6501000","淡水區"
"251015","KEA-2871","2019/10/17 21:09:23","新北市淡水區淡金路四段542巷90號","121.454608333333","25.2253166666667","6501000","淡水區"
"251016","179-VK","2019/10/17 21:09:33","新北市淡水區前洲子3-1號","121.443698333333","25.2162783333333","6501000","淡水區"
"251004","180-VK","2019/10/17 21:09:29","新北市淡水區民族路33號","121.462311666667","25.135835","6501000","淡水區"
"251008","181-VK","2019/10/17 21:09:13","新北市淡水區北投子99號","121.465293333333","25.1776466666667","6501000","淡水區"
"251013","182-VK","2019/10/17 21:09:13","新北市淡水區水汴頭12號","121.46974","25.2034116666667","6501000","淡水區"
"251010","413-VK","2019/10/17 21:09:28","新北市淡水區中正路一段63巷7弄2號","121.422975","25.1773183333333","6501000","淡水區"
"251012","443-VK","2019/10/17 21:09:20","新北市淡水區六塊厝14-1號","121.453231666667","25.2408633333333","6501000","淡水區"
"251001","559-UM","2019/10/17 21:09:22","新北市淡水區新市一路三段2號","121.444806666667","25.1829483333333","6501000","淡水區"
"251014","577-R6","2019/10/17 21:09:25","新北市淡水區六塊厝1-2號","121.451085","25.2423483333333","6501000","淡水區"
"251011","650-BX","2019/10/17 21:09:18","新北市淡水區新民街180巷7弄27號","121.437015","25.1798516666667","6501000","淡水區"
"251002","672-BX","2019/10/17 21:09:21","新北市淡水區水源街一段145號","121.44735","25.1717983333333","6501000","淡水區"
"251003","673-BX","2019/10/17 21:09:10","新北市淡水區新春街132-3號","121.44105","25.1818383333333","6501000","淡水區"
"247012","KED-0683","2019/10/17 21:09:33","新北市蘆洲區三民路88號","121.473385","25.08557","6501400","蘆洲區"
"242025","362-BY","2019/10/17 21:09:27","新北市林口區太平里180號","121.366801666667","25.1349816666667","6500500","新莊區"
"242009","349-TH","2019/10/17 21:09:13","新北市三重區光復路二段175號","121.472508333333","25.0617733333333","6500500","新莊區"
