"lineid","car","time","location","longitude","latitude","cityid","cityname"
"231060","106-UY","2019/10/17 21:19:23","新北市新店區薏仁坑路23號","121.498046666667","24.9589466666667","6500600","新店區"
"231051","107-UY","2019/10/17 21:19:17","新北市新店區中正路700巷73號","121.535955","24.9933033333333","6500600","新店區"
"231054","260-TV","2019/10/17 21:19:15","新北市新店區安德街60巷35號","121.511198333333","24.9634383333333","6500600","新店區"
"231050","AAD-862","2019/10/17 21:19:32","新北市新店區中正路183巷4號","121.540415","24.972","6500600","新店區"
"231063","641-BX","2019/10/17 21:19:29","新北市新店區玫瑰路57巷47號","121.497555","24.946485","6500600","新店區"
"231059","897-TW","2019/10/17 21:19:28","新北市新店區安豐路30-1號","121.500655","24.9569266666667","6500600","新店區"
"241011","013-R5","2019/10/17 21:19:21","新北市三重區介壽路39巷168號","121.502033333333","25.07089","6500200","三重區"
"241028","022-UY","2019/10/17 21:19:18","新北市三重區重安街32號","121.49067","25.0578233333333","6500200","三重區"
"241008","059-VK","2019/10/17 21:19:29","新北市三重區自強路一段68號","121.497063333333","25.066515","6500200","三重區"
"241002","060-VK","2019/10/17 21:19:29","新北市三重區自強路五段59號","121.49467","25.081775","6500200","三重區"
"241031","061-VK","2019/10/17 21:19:16","新北市三重區五谷王南街46巷37號","121.47573","25.0455366666667","6500200","三重區"
"241017","063-VK","2019/10/17 21:19:13","新北市三重區中正北路25巷25弄2號","121.49324","25.0626566666667","6500200","三重區"
"241024","065-VK","2019/10/17 21:19:22","新北市三重區中正北路145巷14號","121.484166666667","25.0677466666667","6500200","三重區"
"241007","066-VK","2019/10/17 21:19:12","新北市三重區正義北路113號","121.496901666667","25.06574","6500200","三重區"
"241003","091-VK","2019/10/17 21:19:13","新北市三重區仁義街317號","121.495351666667","25.0841566666667","6500200","三重區"
"241015","742-BX","2019/10/17 21:19:23","新北市三重區重新路三段45-1號","121.493276666667","25.0612966666667","6500200","三重區"
"241006","262-UM","2019/10/17 21:19:18","新北市新莊區五工一路86號","121.461573333333","25.0677316666667","6500200","三重區"
"241016","266-UM","2019/10/17 21:19:19","新北市三重區自強路一段162號","121.495573333333","25.06611","6500200","三重區"
"241009","267-UM","2019/10/17 21:19:11","新北市五股區中興路三段1-7號","121.45241","25.0751683333333","6500200","三重區"
"241018","268-UM","2019/10/17 21:19:31","新北市三重區忠孝路三段12號","121.48173","25.0673666666667","6500200","三重區"
"241032","269-UM","2019/10/17 21:19:18","新北市三重區光復路二段170號","121.472141666667","25.061155","6500200","三重區"
"241013","270-UM","2019/10/17 21:19:30","新北市三重區仁愛街83號","121.495841666667","25.0731716666667","6500200","三重區"
"241025","271-UM","2019/10/17 21:19:11","新北市三重區中正北路208巷10弄4號","121.482355","25.0669216666667","6500200","三重區"
"241030","KED-0822","2019/10/17 21:19:14","新北市三重區光復路二段153號","121.472208333333","25.0599683333333","6500200","三重區"
"241004","475-VK","2019/10/17 21:19:27","新北市三重區仁義街288號","121.493646666667","25.0862883333333","6500200","三重區"
"241026","480-VK","2019/10/17 21:19:14","新北市三重區重新路三段82號","121.49329","25.0607566666667","6500200","三重區"
"241014","543-UM","2019/10/17 21:19:21","新北市三重區萬全街9號","121.499345","25.0696733333333","6500200","三重區"
"241005","AAD-863","2019/10/17 21:19:22","新北市三重區碧華街50號","121.4835","25.0812283333333","6500200","三重區"
"241023","887-TS","2019/10/17 21:19:26","新北市三重區忠孝路三段40巷21號","121.482498333333","25.0659733333333","6500200","三重區"
"241033","AAC-255","2019/10/17 21:19:27","新北市三重區光復路二段126巷37號","121.470206666667","25.0587466666667","6500200","三重區"
"235009","565-BX","2019/10/17 20:52:58","新北市中和區員山路36巷13號","121.484151666667","24.99107","6500300","中和區"
"235018","640-BX","2019/10/17 21:03:44","新北市中和區員山路36巷16-2號","121.48534","24.991615","6500300","中和區"
"247006","893-R6","2019/10/17 21:19:20","新北市蘆洲區長安街91號","121.462061666667","25.08034","6501400","蘆洲區"
"247018","053-VK","2019/10/17 21:19:23","新北市蘆洲區民族路580號","121.466946666667","25.0885383333333","6501400","蘆洲區"
"247022","007-UY","2019/10/17 21:19:17","新北市蘆洲區仁愛街190號","121.46657","25.0934333333333","6501400","蘆洲區"
"247008","002-UY","2019/10/17 21:19:23","新北市蘆洲區中山一路97巷23號","121.475968333333","25.0808033333333","6501400","蘆洲區"
"247002","001-UY","2019/10/17 21:19:26","新北市蘆洲區永樂街57號","121.456678333333","25.08855","6501400","蘆洲區"
"251005","010-UM","2019/10/17 21:19:27","新北市淡水區水源街一段122巷40號","121.446853333333","25.1704666666667","6501000","淡水區"
"251015","KEA-2871","2019/10/17 21:19:22","新北市淡水區淡金路四段518號","121.451825","25.226195","6501000","淡水區"
"251016","179-VK","2019/10/17 21:19:13","新北市淡水區前洲子28號","121.44106","25.2192133333333","6501000","淡水區"
"251004","180-VK","2019/10/17 21:19:29","新北市淡水區民族路33號","121.462318333333","25.1358116666667","6501000","淡水區"
"251008","181-VK","2019/10/17 21:19:13","新北市淡水區水源街二段212號","121.45963","25.176555","6501000","淡水區"
"251013","182-VK","2019/10/17 21:19:13","新北市淡水區行忠路330號","121.460683333333","25.1998966666667","6501000","淡水區"
"251010","413-VK","2019/10/17 21:19:28","新北市淡水區中正路一段156巷51號","121.421828333333","25.18087","6501000","淡水區"
"251012","443-VK","2019/10/17 21:19:20","新北市淡水區淡金路五段35巷46號","121.452486666667","25.2347433333333","6501000","淡水區"
"251001","559-UM","2019/10/17 21:19:21","新北市淡水區濱海路一段308號","121.440726666667","25.189415","6501000","淡水區"
"251009","575-R6","2019/10/17 21:19:15","新北市淡水區民族路112巷40號","121.461983333333","25.1344366666667","6501000","淡水區"
"251014","577-R6","2019/10/17 21:19:25","新北市淡水區六塊厝2-1號","121.450136666667","25.2404416666667","6501000","淡水區"
"251011","650-BX","2019/10/17 21:19:18","新北市淡水區新民街120巷29號","121.43887","25.1788066666667","6501000","淡水區"
"251002","672-BX","2019/10/17 21:19:21","新北市淡水區學府路172巷21號","121.4483","25.1749066666667","6501000","淡水區"
"251003","673-BX","2019/10/17 21:19:30","新北市淡水區崁頂15-5號","121.43906","25.1858866666667","6501000","淡水區"
"242009","349-TH","2019/10/17 21:17:13","新北市五股區中直路17-4號","121.422858333333","25.1113166666667","6500500","新莊區"
