"lineid","car","time","location","longitude","latitude","cityid","cityname"
"232019","290-BY","2019/10/18 06:39:27","新北市坪林區北宜路八段558號","121.717993333333","24.9092383333333","6502000","坪林區"
"232008","291-BY","2019/10/18 06:39:17","新北市坪林區北宜路八段558號","121.717945","24.90933","6502000","坪林區"
"232003","758-BX","2019/10/18 06:39:28","新北市坪林區北宜路八段558號","121.718015","24.9092683333333","6502000","坪林區"
"231052","512-UM","2019/10/18 06:39:32","新北市新店區新和街33號","121.518955","24.9847233333333","6500600","新店區"
"223006","022-BY","2019/10/18 06:39:15","新北市石碇區楓子林55-5號","121.64286","25.0081033333333","6501900","石碇區"
"223002","KEA-2673","2019/10/18 06:39:15","新北市石碇區碇坪路一段132號","121.659495","24.9911633333333","6501900","石碇區"
"223003","205-TH","2019/10/18 06:39:19","新北市石碇區碇坪路一段107號","121.663703333333","24.9888266666667","6501900","石碇區"
"223008","406-TH","2019/10/18 06:37:50","新北市石碇區碇坪路一段282號","121.677068333333","24.9772066666667","6501900","石碇區"
"223001","592-UM","2019/10/18 06:39:24","新北市石碇區下橫坪15號","121.668066666667","24.9840866666667","6501900","石碇區"
"223007","661-BX","2019/10/18 06:39:27","新北市石碇區石崁1號","121.651988333333","25.0006133333333","6501900","石碇區"
"227003","282-VK","2019/10/18 06:39:22","新北市雙溪區牡丹里聖南10-2號","121.860761666667","25.0496566666667","6502500","雙溪區"
