"lineid","car","time","location","longitude","latitude","cityid","cityname"
"244022","483-VK","2019/06/24 10:29:31","新北市林口區仁愛路二段269號","121.373383333333","25.0772416666667","6501700","林口區"
"231008","512-UM","2019/06/24 10:28:21","新北市新店區成功路126號","121.533636666667","24.8946416666667","6500600","新店區"
"227003","282-VK","2019/06/24 10:09:55","新北市雙溪區泰平里灣潭路35-1號","121.81196","24.928725","6502500","雙溪區"
"237014","760-BX","2019/06/24 10:29:25","新北市三峽區中山路459巷163-3號","121.348883333333","24.9332133333333","6500900","三峽區"
"242030","347-TH","2019/06/24 10:29:17","新北市樹林區中山路三段210-2號","121.381375","24.9656466666667","6500500","新莊區"
