"lineid","car","time","location","longitude","latitude","cityid","cityname"
"244023","483-VK","2019/06/24 11:59:23","新北市林口區粉寮路二段160巷28號","121.40512","25.0907616666667","6501700","林口區"
"231008","512-UM","2019/06/24 11:59:21","新北市新店區安華路1-1號","121.519516666667","24.960435","6500600","新店區"
"227003","282-VK","2019/06/24 11:59:15","新北市雙溪區三貂里定福路1-1號","121.849638333333","25.0626583333333","6502500","雙溪區"
"207002","749-BX","2019/06/24 11:59:32","新北市萬里區中幅里中福路170號","121.674381666667","25.166115","6502800","萬里區"
"207001","662-BX","2019/06/24 11:59:23","新北市萬里區萬里里獅頭路15-1號","121.697778333333","25.1800466666667","6502800","萬里區"
"235025","KEA-2875","2019/06/24 11:46:12","新北市中和區員山路36巷16-2號","121.485333333333","24.99163","6500300","中和區"
