"lineid","car","time","location","longitude","latitude","cityid","cityname"
"234044","148-BY","2019/06/24 13:19:34","新北市永和區得和路373巷6弄1號","121.524871666667","24.9998266666667","6500400","永和區"
"234036","336-UY","2019/06/24 13:19:25","新北市永和區民樂街55巷2號","121.527521666667","24.998405","6500400","永和區"
"234062","337-UY","2019/06/24 13:19:20","新北市永和區永元路17巷15號","121.521335","25.0007183333333","6500400","永和區"
"234084","338-UY","2019/06/24 13:19:31","新北市永和區永利路4巷23號","121.517628333333","25.0049316666667","6500400","永和區"
"234068","552-UM","2019/06/24 13:19:31","新北市永和區豫溪街55號","121.517241666667","25.0099483333333","6500400","永和區"
"234015","745-BX","2019/06/24 13:19:35","新北市永和區環河西路一段95巷19弄3-1號","121.511893333333","25.01712","6500400","永和區"
"234028","746-BX","2019/06/24 13:19:29","新北市永和區厚德街95號","121.523628333333","24.9988083333333","6500400","永和區"
"234052","KEA-2590","2019/06/24 13:19:17","新北市永和區中興街45號","121.51645","25.011805","6500400","永和區"
"234005","KED-0605","2019/06/24 13:19:29","新北市永和區中山路一段334號","121.506213333333","25.0064166666667","6500400","永和區"
"234012","KEA-2591","2019/06/24 13:19:20","新北市永和區仁愛路122號","121.511605","25.0130866666667","6500400","永和區"
"234060","AAD-866","2019/06/24 13:19:32","新北市永和區秀朗路一段175號","121.517088333333","25.0035883333333","6500400","永和區"
"234078","748-BX","2019/06/24 13:19:24","新北市永和區福和路7巷5弄1號","121.525236666667","25.007945","6500400","永和區"
"234040","862-TW","2019/06/24 13:19:32","新北市永和區水源街43巷2號","121.509693333333","25.0041166666667","6500400","永和區"
"234048","863-TW","2019/06/24 13:19:24","新北市永和區仁愛路104巷10號","121.512108333333","25.01364","6500400","永和區"
"234025","9371-KE","2019/06/24 13:19:29","新北市永和區豫溪街42巷3號","121.515545","25.0095766666667","6500400","永和區"
"234010","9373-KE","2019/06/24 13:19:23","新北市永和區文化路90巷32弄1號","121.513508333333","25.0166266666667","6500400","永和區"
"248013","025-BX","2019/06/24 13:19:33","新北市五股區自強路90巷45號","121.431605","25.071495","6501500","五股區"
"248015","026-BX","2019/06/24 13:19:26","新北市五股區成泰路三段477巷18號","121.449905","25.0988683333333","6501500","五股區"
"248005","077-UY","2019/06/24 13:19:20","新北市五股區中興路一段97號","121.466606666667","25.0729783333333","6501500","五股區"
"248007","KED-0815","2019/06/24 13:19:20","新北市五股區更洲路32巷8弄14號","121.459238333333","25.07962","6501500","五股區"
"248019","KED-0813","2019/06/24 13:18:20","新北市五股區孝義路38-1號","121.454286666667","25.1100333333333","6501500","五股區"
"248011","247-BX","2019/06/24 13:19:16","新北市五股區御史路1巷101弄2號","121.440916666667","25.0911666666667","6501500","五股區"
"248003","677-BX","2019/06/24 13:19:28","新北市五股區成泰路二段224號","121.439378333333","25.0858933333333","6501500","五股區"
"248002","678-BX","2019/06/24 13:19:29","新北市五股區西雲路46號","121.443461666667","25.090875","6501500","五股區"
"248009","682-TV","2019/06/24 13:19:26","新北市五股區成泰路一段189巷24-1號","121.433656666667","25.0773666666667","6501500","五股區"
"234022","9380-KE","2019/06/24 13:19:15","新北市永和區竹林路118號","121.519735","25.0113116666667","6500400","永和區"
"234076","969-R7","2019/06/24 13:19:22","新北市永和區民有街100號","121.517831666667","24.9956366666667","6500400","永和區"
"234072","AAC-211","2019/06/24 13:19:21","新北市永和區竹林路94-1號","121.519511666667","25.0122283333333","6500400","永和區"
"234066","AAC-212","2019/06/24 13:19:34","新北市永和區保平路30巷6號","121.51181","25.0074866666667","6500400","永和區"
"234001","AAC-295","2019/06/24 13:19:21","新北市永和區和平街63號","121.512013333333","25.00987","6500400","永和區"
"244001","248-BX","2019/06/24 13:19:18","新北市林口區嘉寶里89-1號","121.332491666667","25.1204683333333","6501700","林口區"
"243005","646-TV","2019/06/24 13:19:23","新北市泰山區南林路99巷1-1號","121.415365","25.05114","6501600","泰山區"
"231029","001-UM","2019/06/24 13:19:24","新北市新店區安華路28-1號","121.519538333333","24.9608483333333","6500600","新店區"
"231030","002-UM","2019/06/24 13:19:27","新北市新店區安華路28-1號","121.519665","24.9609033333333","6500600","新店區"
"231027","0293-UT","2019/06/24 13:19:21","新北市新店區安華路28-1號","121.519451666667","24.9606333333333","6500600","新店區"
"231028","046-UY","2019/06/24 13:19:29","新北市新店區安華路28-1號","121.519578333333","24.960905","6500600","新店區"
"231018","107-UY","2019/06/24 13:19:30","新北市新店區環河路29巷1號","121.536696666667","24.9613133333333","6500600","新店區"
"231013","108-UY","2019/06/24 13:19:32","新北市新店區安一路一段1-1號","121.519746666667","24.961165","6500600","新店區"
"231036","110-UY","2019/06/24 13:19:32","新北市新店區安康路二段393號","121.494366666667","24.953865","6500600","新店區"
"231031","256-BX","2019/06/24 13:19:25","新北市新店區安一路一段1-1號","121.519686666667","24.961175","6500600","新店區"
"231023","260-TV","2019/06/24 13:19:37","新北市新店區安一路一段1-1號","121.51921","24.9611983333333","6500600","新店區"
"231003","268-BY","2019/06/24 13:19:33","新北市新店區北新路一段72號","121.541295","24.9668366666667","6500600","新店區"
"231035","278-BY","2019/06/24 13:19:35","新北市新店區安一路一段1-1號","121.519756666667","24.9612283333333","6500600","新店區"
"231014","AAD-862","2019/06/24 13:19:24","新北市新店區安一路一段1-1號","121.519685","24.9611083333333","6500600","新店區"
"231006","355-BY","2019/06/24 13:19:28","新北市新店區安華路28-1號","121.51931","24.96096","6500600","新店區"
"231038","3712-VJ","2019/06/24 13:19:14","新北市新店區安華路28-1號","121.519356666667","24.9606","6500600","新店區"
"231024","4716-K9","2019/06/24 13:19:18","新北市新店區安一路一段1-1號","121.51975","24.961455","6500600","新店區"
"231025","4715-K9","2019/06/24 13:19:26","新北市新店區力行路15號","121.537025","24.965795","6500600","新店區"
"231019","513-UM","2019/06/24 13:19:27","新北市新店區安一路一段1-1號","121.519686666667","24.96113","6500600","新店區"
"231001","617-UM","2019/06/24 13:19:35","新北市新店區安康路一段33-1號","121.532235","24.9604816666667","6500600","新店區"
"231002","619-UM","2019/06/24 13:19:35","新北市新店區安華路28-1號","121.519471666667","24.9609333333333","6500600","新店區"
"231034","641-BX","2019/06/24 13:19:31","新北市新店區安華路28-1號","121.519533333333","24.960525","6500600","新店區"
"231011","KED-0819","2019/06/24 13:19:27","新北市新店區安一路一段1-1號","121.519893333333","24.96129","6500600","新店區"
"231010","719-UM","2019/06/24 13:19:18","新北市新店區安一路一段1-1號","121.519521666667","24.9612566666667","6500600","新店區"
"231026","720-UM","2019/06/24 13:19:21","新北市新店區安一路一段1-1號","121.51917","24.9611766666667","6500600","新店區"
"231005","897-TW","2019/06/24 13:19:23","新北市新店區安華路28-1號","121.519538333333","24.9607833333333","6500600","新店區"
"231004","899-TW","2019/06/24 13:19:33","新北市新店區安華路28-1號","121.51953","24.9607816666667","6500600","新店區"
"231037","AKT-0513","2019/06/24 13:19:16","新北市新店區安一路一段1-1號","121.519805","24.9612966666667","6500600","新店區"
"235030","003-UY","2019/06/24 13:19:20","新北市中和區中山路二段120號","121.502713333333","25.0037416666667","6500300","中和區"
"235027","006-UY","2019/06/24 13:19:16","新北市中和區中正路589巷9號","121.48572","24.994025","6500300","中和區"
"235020","096-UM","2019/06/24 13:19:25","新北市中和區中正路637巷52弄1號","121.485398333333","24.99351","6500300","中和區"
"235003","097-UM","2019/06/24 13:19:35","新北市中和區景新街269號","121.509028333333","24.993765","6500300","中和區"
"235029","098-UM","2019/06/24 13:19:26","新北市中和區莊敬路49巷20弄24號","121.502806666667","25.0059083333333","6500300","中和區"
"235004","150-BY","2019/06/24 13:19:19","新北市中和區安平路8號","121.509048333333","24.9935883333333","6500300","中和區"
"235022","151-BY","2019/06/24 13:19:27","新北市中和區圓通路369巷156弄46號","121.489446666667","24.9820766666667","6500300","中和區"
"235019","183-VK","2019/06/24 13:19:29","新北市中和區莒光路220號","121.470273333333","24.99616","6500300","中和區"
"235002","185-VK","2019/06/24 13:19:34","新北市中和區大智街70號","121.523338333333","24.9924516666667","6500300","中和區"
"235013","186-VK","2019/06/24 13:19:34","新北市中和區錦和路350-1號","121.490121666667","24.993545","6500300","中和區"
"235031","255-BX","2019/06/24 13:19:32","新北市中和區新生街179號","121.483858333333","25.0006316666667","6500300","中和區"
"235008","293-VK","2019/06/24 13:19:36","新北市中和區錦和路350-1號","121.490573333333","24.99356","6500300","中和區"
"235036","301-VK","2019/06/24 13:19:29","新北市中和區連城路263巷4弄4號","121.491591666667","24.99582","6500300","中和區"
"235007","352-BY","2019/06/24 13:19:24","新北市中和區景平路381號","121.503866666667","24.9933716666667","6500300","中和區"
"235006","KEA-2878","2019/06/24 13:19:36","新北市中和區大仁街98號","121.520323333333","24.993045","6500300","中和區"
"235014","4979-A6","2019/06/24 13:19:19","新北市中和區中正路21號","121.502778333333","24.9932833333333","6500300","中和區"
"235033","4980-A6","2019/06/24 13:19:30","新北市中和區連城路237-1號","121.493858333333","24.9973816666667","6500300","中和區"
"235005","551-UM","2019/06/24 13:19:25","新北市永和區中和路373號","121.50836","24.9999033333333","6500300","中和區"
"235034","558-UM","2019/06/24 13:19:22","新北市中和區景平路429-2號","121.50132","24.99551","6500300","中和區"
"235001","565-BX","2019/06/24 13:19:25","新北市中和區景安路200巷3弄1號","121.503531666667","24.9915366666667","6500300","中和區"
"235024","KED-0823","2019/06/24 13:19:35","新北市中和區員山路471號","121.480115","25.0047966666667","6500300","中和區"
"235011","732-UM","2019/06/24 13:19:21","新北市中和區中興街124-1號","121.499853333333","24.9930866666667","6500300","中和區"
"235010","733-UM","2019/06/24 13:19:35","新北市中和區員山路36巷16-3號","121.484706666667","24.9913666666667","6500300","中和區"
"235035","783-BX","2019/06/24 13:19:21","新北市中和區中板路7-4號","121.484858333333","25.0111233333333","6500300","中和區"
"235026","800-TS","2019/06/24 13:19:17","新北市中和區景平路752號","121.49643","25.0044783333333","6500300","中和區"
"235021","801-TS","2019/06/24 13:19:27","新北市中和區民享街97巷12號","121.475221666667","24.9995933333333","6500300","中和區"
"235016","805-TS","2019/06/24 13:19:24","新北市中和區興南路二段96號","121.505191666667","24.9842366666667","6500300","中和區"
"235012","896-TW","2019/06/24 13:19:23","新北市中和區員山路36巷16-2號","121.485301666667","24.9915716666667","6500300","中和區"
"235017","900-TW","2019/06/24 13:19:29","新北市中和區員山路36巷16-2號","121.485256666667","24.991465","6500300","中和區"
"235028","911-UM","2019/06/24 13:19:21","新北市中和區圓通路141巷48弄17號","121.498203333333","24.9943983333333","6500300","中和區"
"235015","157-BY","2019/06/24 13:19:22","新北市中和區忠孝街2-1號","121.50888","24.982845","6500300","中和區"
"235001","AAC-213","2019/06/24 13:19:19","新北市中和區景德街95-9號","121.515171666667","24.991155","6500300","中和區"
"235023","AAC-215","2019/06/24 13:19:22","新北市中和區員山路36巷16-3號","121.48493","24.9913433333333","6500300","中和區"
"220013","072-UY","2019/06/24 13:19:31","新北市板橋區華東街1-10號","121.448766666667","24.9948166666667","6500100","板橋區"
"235018","251-BX","2019/06/24 13:19:33","新北市中和區民享街86巷2號","121.474413333333","25.0010316666667","6500300","中和區"
"253003","6232-TK","2019/06/24 13:19:23","新北市石門區石崩山20-8號","121.567115","25.275335","6502200","石門區"
"253004","6251-TK","2019/06/24 13:19:18","新北市石門區阿里荖69號","121.611826666667","25.2702583333333","6502200","石門區"
"253002","637-UY","2019/06/24 13:19:27","新北市石門區大溪墘10-3號","121.553061666667","25.2735316666667","6502200","石門區"
"253001","KEC-0718","2019/06/24 13:19:30","新北市石門區楓林17-6號","121.536296666667","25.2921483333333","6502200","石門區"
"207002","749-BX","2019/06/24 13:19:28","新北市萬里區崁腳里崁腳路166號","121.645115","25.1558366666667","6502800","萬里區"
"252005","073-UM","2019/06/24 13:19:29","新北市三芝區八賢里八連溪71號","121.518611666667","25.230375","6502100","三芝區"
"207001","662-BX","2019/06/24 13:19:23","新北市萬里區龜吼里玉田路29號","121.681176666667","25.19543","6502800","萬里區"
"247009","KED-0683","2019/06/24 13:19:22","新北市五股區中興路三段2巷10號","121.449166666667","25.080955","6501400","蘆洲區"
"221029","298-VK","2019/06/24 13:19:33","新北市汐止區南陽街111號","121.623936666667","25.0612733333333","6501100","汐止區"
"220021","985-R7","2019/06/24 13:19:25","新北市板橋區華東街1-10號","121.448301666667","24.9949633333333","6500100","板橋區"
"235032","KEA-2873","2019/06/24 13:19:12","新北市中和區員山路36巷16-3號","121.484968333333","24.9912066666667","6500300","中和區"
"235025","KEA-2875","2019/06/24 13:19:35","新北市中和區民享街97巷11號","121.475215","24.9994833333333","6500300","中和區"
