"lineid","car","time","location","longitude","latitude","cityid","cityname"
"248007","KED-0815","2019/06/24 15:09:20","新北市五股區四維路153號","121.467686666667","25.0745733333333","6501500","五股區"
"248019","KED-0813","2019/06/24 15:09:25","新北市五股區凌雲路三段24巷21-3號","121.434091666667","25.106755","6501500","五股區"
"248011","247-BX","2019/06/24 15:09:36","新北市五股區中興路二段103巷14號","121.458166666667","25.0765466666667","6501500","五股區"
"248003","677-BX","2019/06/24 15:09:28","新北市五股區成泰路二段88號","121.437511666667","25.08259","6501500","五股區"
"243004","AAD-798","2019/06/24 15:09:35","新北市泰山區楓江路23-7號","121.434446666667","25.062505","6501600","泰山區"
"243008","421-VK","2019/06/24 15:09:31","新北市泰山區文程路18巷1號","121.428433333333","25.0491833333333","6501600","泰山區"
"243001","KEA-2215","2019/06/24 15:09:20","新北市泰山區泰林路二段542巷3弄1號","121.423288333333","25.0643116666667","6501600","泰山區"
"243003","KEA-2216","2019/06/24 15:09:32","新北市泰山區新北大道六段313巷12號","121.424073333333","25.0333983333333","6501600","泰山區"
"243007","680-BX","2019/06/24 15:09:34","新北市泰山區福興三街26號","121.434143333333","25.057585","6501600","泰山區"
"231029","001-UM","2019/06/24 15:09:24","新北市新店區錦秀路47號","121.47924","24.9435916666667","6500600","新店區"
"231030","002-UM","2019/06/24 15:09:27","新北市新店區安興路96-3號","121.51509","24.9766383333333","6500600","新店區"
"231028","046-UY","2019/06/24 15:09:29","新北市新店區安豐路56-3號","121.49948","24.9545716666667","6500600","新店區"
"231018","107-UY","2019/06/24 15:09:30","新北市新店區中央六街94號","121.526115","24.9768416666667","6500600","新店區"
"231036","110-UY","2019/06/24 15:09:32","新北市新店區安祥路102巷121弄6號","121.486036666667","24.9644883333333","6500600","新店區"
"231039","187-VK","2019/06/24 15:09:21","新北市新店區寶安街31號","121.541876666667","24.98231","6500600","新店區"
"231031","256-BX","2019/06/24 15:09:25","新北市新店區安泰路45巷17號","121.485741666667","24.9466633333333","6500600","新店區"
"231023","260-TV","2019/06/24 15:09:37","新北市新店區檳榔路117號","121.544596666667","24.9613933333333","6500600","新店區"
"231003","268-BY","2019/06/24 15:09:33","新北市新店區寶橋路156-2號","121.548606666667","24.97703","6500600","新店區"
"231035","278-BY","2019/06/24 15:09:34","新北市新店區永安街56巷8弄2號","121.517975","24.9859133333333","6500600","新店區"
"231014","AAD-862","2019/06/24 15:09:24","新北市新店區銀河路88號","121.580591666667","24.95956","6500600","新店區"
"231006","355-BY","2019/06/24 15:09:28","新北市新店區新坡一街72號","121.5489","24.9645433333333","6500600","新店區"
"231038","3712-VJ","2019/06/24 15:09:34","新北市新店區安華路28-1號","121.519628333333","24.9608683333333","6500600","新店區"
"231024","4716-K9","2019/06/24 15:09:18","新北市新店區中華路83號","121.53935","24.9686783333333","6500600","新店區"
"231025","4715-K9","2019/06/24 15:09:26","新北市新店區中正路468號","121.53389","24.9795483333333","6500600","新店區"
"231019","513-UM","2019/06/24 15:09:27","新北市新店區新烏路二段9-2號","121.544218333333","24.9294533333333","6500600","新店區"
"231001","617-UM","2019/06/24 15:09:35","新北市新店區中正路257號","121.538786666667","24.97342","6500600","新店區"
"231002","619-UM","2019/06/24 15:09:35","新北市新店區民權路75號","121.538538333333","24.9829233333333","6500600","新店區"
"231034","641-BX","2019/06/24 15:09:31","新北市新店區玫瑰路4-1號","121.493571666667","24.9514533333333","6500600","新店區"
"231011","KED-0819","2019/06/24 15:09:27","新北市新店區中興路三段307號","121.542025","24.98578","6500600","新店區"
"231005","897-TW","2019/06/24 15:09:23","新北市新店區寶慶街66號","121.54197","24.9866916666667","6500600","新店區"
"231004","899-TW","2019/06/24 15:09:33","新北市新店區建國路51號","121.540605","24.9756716666667","6500600","新店區"
"231037","AKT-0513","2019/06/24 15:09:36","新北市新店區安興路81號","121.515436666667","24.97523","6500600","新店區"
"235030","003-UY","2019/06/24 15:09:20","新北市中和區中山路二段3巷22弄10號","121.50616","25.004965","6500300","中和區"
"235029","098-UM","2019/06/24 15:09:26","新北市中和區福美路312巷9號","121.496515","25.0052883333333","6500300","中和區"
"235004","150-BY","2019/06/24 15:09:19","新北市中和區安平路38號","121.509986666667","24.9950566666667","6500300","中和區"
"235022","151-BY","2019/06/24 15:09:27","新北市八里區荖阡坑路28-2號","121.403336666667","25.127755","6500300","中和區"
"235019","183-VK","2019/06/24 15:09:29","新北市三重區重化街3號","121.468351666667","25.06422","6500300","中和區"
"235007","352-BY","2019/06/24 15:09:24","新北市中和區興南路二段159巷12號","121.505225","24.9831033333333","6500300","中和區"
"235014","4979-A6","2019/06/24 15:09:19","新北市中和區安樂路62號","121.512195","24.993205","6500300","中和區"
"235033","4980-A6","2019/06/24 15:09:30","新北市中和區景新街34巷16弄1號","121.503331666667","24.9988216666667","6500300","中和區"
"235005","551-UM","2019/06/24 15:09:25","新北市中和區景安路10號","121.5076","24.9991733333333","6500300","中和區"
"235034","558-UM","2019/06/24 15:09:21","新北市中和區中正路366號","121.493416666667","24.99411","6500300","中和區"
"235035","783-BX","2019/06/24 15:09:21","新北市中和區中板路47巷15號","121.482161666667","25.0115816666667","6500300","中和區"
"235026","800-TS","2019/06/24 15:09:36","新北市中和區橋和路108號","121.490951666667","25.005515","6500300","中和區"
"235012","896-TW","2019/06/24 15:09:23","新北市中和區興南路一段115號","121.509115","24.9878716666667","6500300","中和區"
"235023","AAC-215","2019/06/24 15:09:22","新北市中和區圓通路335巷37弄1號","121.493915","24.9891683333333","6500300","中和區"
"220013","072-UY","2019/06/24 15:09:31","新北市板橋區中山路一段154巷3弄2號","121.46534","25.0104416666667","6500100","板橋區"
"220105","075-UY","2019/06/24 15:09:25","新北市板橋區民治街132號","121.477715","25.0308316666667","6500100","板橋區"
"220017","AAD-861","2019/06/24 15:09:20","新北市板橋區貴興路109號","121.455898333333","25.0026016666667","6500100","板橋區"
"253004","6251-TK","2019/06/24 15:09:38","新北市石門區茂林社區3-1號","121.592066666667","25.2709216666667","6502200","石門區"
"253002","637-UY","2019/06/24 15:09:27","新北市石門區海園路37號","121.555856666667","25.291325","6502200","石門區"
"207002","749-BX","2019/06/24 15:09:28","新北市萬里區崁腳里內中福路42號","121.657948333333","25.166335","6502800","萬里區"
"207001","662-BX","2019/06/24 15:09:39","新北市萬里區雙興里麗水路8-1號","121.649513333333","25.1875883333333","6502800","萬里區"
"236040","KED-0685","2019/06/24 15:09:27","新北市土城區金城路二段210號","121.455556666667","24.9821916666667","6501300","土城區"
"236074","166-UM","2019/06/24 15:09:23","新北市土城區中州路3巷43號","121.413336666667","24.95635","6501300","土城區"
"236029","253-BX","2019/06/24 15:09:22","新北市土城區中央路二段84號","121.442361666667","24.9788883333333","6501300","土城區"
"236024","269-VK","2019/06/24 15:09:29","新北市土城區中央路二段189巷21號","121.442885","24.9757933333333","6501300","土城區"
"236012","270-VK","2019/06/24 15:09:35","新北市土城區學府路一段115巷1號","121.456231666667","24.9875866666667","6501300","土城區"
"236064","KEA-2877","2019/06/24 15:09:23","新北市土城區中央路一段71號","121.447726666667","24.9896516666667","6501300","土城區"
"236016","401-BY","2019/06/24 15:09:27","新北市土城區延峰街36巷2號","121.469615","24.984705","6501300","土城區"
"236057","912-UM","2019/06/24 15:09:22","新北市土城區金城路一段141號","121.445331666667","24.9742416666667","6501300","土城區"
"236045","913-UM","2019/06/24 15:09:24","新北市土城區清水路157號","121.458648333333","24.98154","6501300","土城區"
"236054","AAC-216","2019/06/24 15:09:32","新北市土城區學府路一段276號","121.450208333333","24.9833316666667","6501300","土城區"
"238010","601-UM","2019/06/24 15:09:07","新北市樹林區中華路190-6號","121.410076666667","24.9805133333333","6500700","樹林區"
"238006","599-UM","2019/06/24 15:09:31","新北市樹林區國凱街82-2號","121.421371666667","24.9791433333333","6500700","樹林區"
"238005","KEA-2217","2019/06/24 15:09:24","新北市板橋區金門街369巷83-1號","121.431073333333","24.9818133333333","6500700","樹林區"
"238008","KEA-2539","2019/06/24 15:09:17","新北市樹林區西圳街一段172號","121.393123333333","24.9625383333333","6500700","樹林區"
"238012","303-VK","2019/06/24 15:09:27","新北市樹林區中山路一段296號","121.420348333333","24.9864133333333","6500700","樹林區"
"238004","283-BY","2019/06/24 15:09:17","新北市樹林區大安路305號","121.417775","24.99216","6500700","樹林區"
"238001","282-BY","2019/06/24 15:09:32","新北市樹林區大安路347號","121.416518333333","24.9906","6500700","樹林區"
"238013","172-UY","2019/06/24 15:09:32","新北市樹林區東順街79巷3號","121.409871666667","24.976355","6500700","樹林區"
"238003","169-UY","2019/06/24 15:08:56","新北市樹林區大安路586號","121.411523333333","24.9836833333333","6500700","樹林區"
"220027","145-BY","2019/06/24 15:09:25","新北市板橋區建國街95號","121.45975","25.0173816666667","6500100","板橋區"
"220028","200-UY","2019/06/24 15:09:34","新北市板橋區大觀路二段187巷11號","121.445413333333","24.99954","6500100","板橋區"
"220030","610-BX","2019/06/24 15:09:36","新北市板橋區存德街3號","121.429936666667","24.99194","6500100","板橋區"
"220050","245-BX","2019/06/24 15:09:30","新北市板橋區雙十路二段47巷9號","121.475983333333","25.0259966666667","6500100","板橋區"
"220004","276-BY","2019/06/24 15:09:36","新北市板橋區四川路二段74號","121.452366666667","24.9948633333333","6500100","板橋區"
"220020","277-BY","2019/06/24 15:09:33","新北市板橋區金門街111-3號","121.43304","24.9920166666667","6500100","板橋區"
"220031","286-VK","2019/06/24 15:09:30","新北市板橋區僑中二街90巷30-2號","121.44478","25.0094","6500100","板橋區"
"220029","287-VK","2019/06/24 15:09:30","新北市板橋區僑中一街80巷5弄19號","121.44688","25.012585","6500100","板橋區"
"220023","303-R5","2019/06/24 15:09:32","新北市板橋區金華街10巷48弄67-3號","121.459493333333","25.0202733333333","6500100","板橋區"
"220010","305-R5","2019/06/24 15:09:31","新北市板橋區中山路二段489號","121.482456666667","25.0207316666667","6500100","板橋區"
"220047","317-R6","2019/06/24 15:09:33","新北市板橋區新海路385巷30號","121.457646666667","25.0254383333333","6500100","板橋區"
"220038","487-VK","2019/06/24 15:09:29","新北市板橋區互助街8號","121.46316","25.0276683333333","6500100","板橋區"
"220037","491-VK","2019/06/24 15:09:24","新北市板橋區仁化街131號","121.477185","25.0326716666667","6500100","板橋區"
"220052","561-BX","2019/06/24 15:09:31","新北市板橋區文化路一段90號","121.464261666667","25.01751","6500100","板橋區"
"220011","609-BX","2019/06/24 15:09:21","新北市板橋區中山路二段318巷4號","121.480251666667","25.0192783333333","6500100","板橋區"
"220104","630-UY","2019/06/24 15:09:26","新北市板橋區金華街27號","121.455965","25.0206433333333","6500100","板橋區"
"220040","637-BX","2019/06/24 15:09:22","新北市板橋區文聖街89巷27號","121.478408333333","25.03072","6500100","板橋區"
"220005","686-BX","2019/06/24 15:09:30","新北市板橋區四川路二段245巷34號","121.451423333333","24.9926583333333","6500100","板橋區"
"220025","687-BX","2019/06/24 15:09:25","新北市板橋區僑中一街102巷3弄20號","121.445946666667","25.0125566666667","6500100","板橋區"
"220042","689-BX","2019/06/24 15:09:37","新北市板橋區長江路二段210號","121.467755","25.0322016666667","6500100","板橋區"
"220051","KEA-2699","2019/06/24 15:09:23","新北市板橋區莒光路79巷2-1號","121.47185","25.02438","6500100","板橋區"
"220003","827-TW","2019/06/24 15:09:35","新北市板橋區仁愛路84號","121.46093","24.999645","6500100","板橋區"
"220014","829-TW","2019/06/24 15:09:28","新北市板橋區中山路一段206巷4弄4號","121.470095","25.0130466666667","6500100","板橋區"
"220022","895-R6","2019/06/24 15:09:24","新北市板橋區縣民大道一段295號","121.461028333333","25.0105733333333","6500100","板橋區"
"220021","985-R7","2019/06/24 15:09:25","新北市板橋區南雅西路二段2-1號","121.453136666667","25.0088616666667","6500100","板橋區"
"220046","AAC-210","2019/06/24 15:09:31","新北市板橋區文化路一段101巷13號","121.46078","25.0146783333333","6500100","板橋區"
"220012","AAC-253","2019/06/24 15:09:24","新北市板橋區民族路171號","121.468453333333","25.0075416666667","6500100","板橋區"
