"lineid","car","time","location","longitude","latitude","cityid","cityname"
"248007","KED-0815","2019/06/24 15:19:20","新北市五股區中興路一段1巷20號","121.4698","25.0708816666667","6501500","五股區"
"243001","KEA-2215","2019/06/24 15:19:20","新北市泰山區泰林路三段778號","121.400885","25.071065","6501600","泰山區"
"231029","001-UM","2019/06/24 15:19:24","新北市新店區安康路三段738號","121.47383","24.94201","6500600","新店區"
"231030","002-UM","2019/06/24 15:19:27","新北市新店區安民街339號","121.516848333333","24.97483","6500600","新店區"
"231028","046-UY","2019/06/24 15:19:29","新北市新店區僑愛三路5號","121.499931666667","24.9446266666667","6500600","新店區"
"231018","107-UY","2019/06/24 15:19:30","新北市新店區中央七街1號","121.530625","24.974715","6500600","新店區"
"231036","110-UY","2019/06/24 15:19:12","新北市新店區安祥路69巷15號","121.482018333333","24.9614366666667","6500600","新店區"
"231039","187-VK","2019/06/24 15:19:21","新北市新店區民權路13號","121.54241","24.9828066666667","6500600","新店區"
"231031","256-BX","2019/06/24 15:19:25","新北市新店區雙城路4巷1號","121.491268333333","24.95086","6500600","新店區"
"231023","260-TV","2019/06/24 15:19:37","新北市新店區北新路一段64巷39弄16號","121.54256","24.9658566666667","6500600","新店區"
"231003","268-BY","2019/06/24 15:19:33","新北市新店區寶高路116號","121.554565","24.976155","6500600","新店區"
"231035","278-BY","2019/06/24 15:19:14","新北市新店區永平街16巷21號","121.517145","24.984255","6500600","新店區"
"231014","AAD-862","2019/06/24 15:19:24","新北市新店區北宜路二段599號","121.56811","24.955455","6500600","新店區"
"231006","355-BY","2019/06/24 15:19:28","新北市新店區新坡一街109號","121.547511666667","24.9632083333333","6500600","新店區"
"231038","3712-VJ","2019/06/24 15:19:34","新北市新店區安華路28-1號","121.519658333333","24.960865","6500600","新店區"
"231024","4716-K9","2019/06/24 15:19:18","新北市新店區北新路一段297巷37號","121.540296666667","24.9684266666667","6500600","新店區"
"231025","4715-K9","2019/06/24 15:19:26","新北市新店區力行路15號","121.53686","24.9654716666667","6500600","新店區"
"231019","513-UM","2019/06/24 15:19:27","新北市新店區永福路54號","121.558058333333","24.928705","6500600","新店區"
"231001","617-UM","2019/06/24 15:19:35","新北市新店區北新路一段331號","121.541681666667","24.9685033333333","6500600","新店區"
"231002","619-UM","2019/06/24 15:19:35","新北市新店區中正路545號","121.53378","24.9876666666667","6500600","新店區"
"231034","641-BX","2019/06/24 15:19:31","新北市新店區如意街4巷1號","121.495448333333","24.9491616666667","6500600","新店區"
"231011","KED-0819","2019/06/24 15:19:33","新北市新店區復興路12號","121.539888333333","24.98674","6500600","新店區"
"231005","897-TW","2019/06/24 15:19:33","新北市新店區民族路39號","121.540703333333","24.9787083333333","6500600","新店區"
"231004","899-TW","2019/06/24 15:19:33","新北市新店區建國路31號","121.5402","24.9741183333333","6500600","新店區"
"231037","AKT-0513","2019/06/24 15:19:36","新北市新店區安興路81號","121.515556666667","24.9753083333333","6500600","新店區"
"241011","013-R5","2019/06/24 15:19:23","新北市三重區重新路四段121號","121.485093333333","25.0518933333333","6500200","三重區"
"241017","063-VK","2019/06/24 15:19:33","新北市三重區重新路四段121號","121.485165","25.051955","6500200","三重區"
"241033","AAC-255","2019/06/24 15:19:35","新北市三重區重新路四段121號","121.485078333333","25.0521766666667","6500200","三重區"
"235030","003-UY","2019/06/24 15:19:20","新北市中和區保平路366號","121.5065","25.0036683333333","6500300","中和區"
"235019","183-VK","2019/06/24 15:19:29","新北市八里區商港路2號","121.39761","25.1439483333333","6500300","中和區"
"235014","4979-A6","2019/06/24 15:19:39","新北市中和區景平路404號","121.509078333333","24.9931066666667","6500300","中和區"
"235033","4980-A6","2019/06/24 15:19:30","新北市中和區圓通路160號","121.497775","24.9955433333333","6500300","中和區"
"235026","800-TS","2019/06/24 15:19:36","新北市中和區立業路83巷26號","121.491256666667","25.0065866666667","6500300","中和區"
"235012","896-TW","2019/06/24 15:19:23","新北市中和區景新街368號","121.512133333333","24.9903983333333","6500300","中和區"
"235023","AAC-215","2019/06/24 15:19:22","新北市中和區圓通路435巷2-13號","121.487746666667","24.9862716666667","6500300","中和區"
"253004","6251-TK","2019/06/24 15:19:38","新北市石門區小坑32號","121.597988333333","25.269595","6502200","石門區"
"207002","749-BX","2019/06/24 15:19:28","新北市萬里區崁腳里內中福路1號","121.669565","25.1656466666667","6502800","萬里區"
"207001","662-BX","2019/06/24 15:19:23","新北市萬里區大鵬里萬里加投18-3號","121.650386666667","25.2091766666667","6502800","萬里區"
"236040","KED-0685","2019/06/24 15:19:22","新北市土城區裕民路185巷11號","121.45413","24.9849316666667","6501300","土城區"
"236074","166-UM","2019/06/24 15:19:23","新北市土城區中州路27巷34-1號","121.413108333333","24.9570366666667","6501300","土城區"
"236029","253-BX","2019/06/24 15:19:22","新北市土城區中央路一段262巷13號","121.443361666667","24.9840933333333","6501300","土城區"
"236024","269-VK","2019/06/24 15:19:29","新北市土城區員林街76號","121.444328333333","24.976725","6501300","土城區"
"236012","270-VK","2019/06/24 15:19:36","新北市土城區廣福街74巷43號","121.45788","24.99015","6501300","土城區"
"236032","271-VK","2019/06/24 15:19:28","新北市土城區國際路139巷55號","121.468425","24.97756","6501300","土城區"
"236064","KEA-2877","2019/06/24 15:19:23","新北市土城區裕民路185巷36弄10號","121.454331666667","24.98449","6501300","土城區"
"236016","401-BY","2019/06/24 15:19:27","新北市土城區峰廷街2號","121.468546666667","24.9878116666667","6501300","土城區"
"236057","912-UM","2019/06/24 15:19:22","新北市土城區中央路二段237號","121.440208333333","24.9720866666667","6501300","土城區"
"236045","913-UM","2019/06/24 15:19:30","新北市土城區延吉街331號","121.465233333333","24.98408","6501300","土城區"
"236060","915-UM","2019/06/24 15:19:27","新北市土城區延平街33巷14號","121.46733","24.991645","6501300","土城區"
"236054","AAC-216","2019/06/24 15:19:32","新北市土城區立德路36號","121.463493333333","24.9874816666667","6501300","土城區"
"238010","601-UM","2019/06/24 15:19:27","新北市樹林區中正路282-8號","121.415186666667","25.009505","6500700","樹林區"
"238006","599-UM","2019/06/24 15:19:31","新北市樹林區中華路82號","121.419005","24.981375","6500700","樹林區"
"238011","5061-A6","2019/06/24 15:19:39","新北市樹林區鎮前街86巷2號","121.425365","24.99192","6500700","樹林區"
"238005","KEA-2217","2019/06/24 15:19:24","新北市新莊區新崑路59號","121.430986666667","24.999985","6500700","樹林區"
"238009","KEA-2213","2019/06/24 15:19:16","新北市樹林區仁愛街73巷1號","121.423595","24.9827433333333","6500700","樹林區"
"238008","KEA-2539","2019/06/24 15:19:37","新北市樹林區西圳街一段165巷20弄11號","121.395658333333","24.960185","6500700","樹林區"
"238012","303-VK","2019/06/24 15:19:33","新北市樹林區中山路一段115號","121.422951666667","24.9904766666667","6500700","樹林區"
"238004","283-BY","2019/06/24 15:19:17","新北市樹林區保安街二段333巷2號","121.412368333333","25.0076033333333","6500700","樹林區"
"238001","282-BY","2019/06/24 15:19:32","新北市樹林區大安路161號","121.421505","24.99669","6500700","樹林區"
"238007","268-VK","2019/06/24 15:19:32","新北市樹林區俊英街80號","121.428138333333","25.0041016666667","6500700","樹林區"
"238013","172-UY","2019/06/24 15:19:34","新北市樹林區新興街17號","121.400305","24.9727583333333","6500700","樹林區"
"238003","169-UY","2019/06/24 15:17:16","新北市樹林區中山路二段10號","121.417671666667","24.985165","6500700","樹林區"
"220030","610-BX","2019/06/24 15:19:27","新北市板橋區大觀路三段121號","121.4327","24.994475","6500100","板橋區"
"220050","245-BX","2019/06/24 15:19:30","新北市板橋區莊敬路75巷2號","121.473186666667","25.026695","6500100","板橋區"
"220031","286-VK","2019/06/24 15:19:30","新北市板橋區僑中二街102巷38號","121.444695","25.0086633333333","6500100","板橋區"
"220023","303-R5","2019/06/24 15:19:32","新北市板橋區金華街9巷2號","121.455596666667","25.0204083333333","6500100","板橋區"
"220038","487-VK","2019/06/24 15:19:28","新北市板橋區四維路137巷1弄2號","121.464801666667","25.025075","6500100","板橋區"
"220037","491-VK","2019/06/24 15:19:24","新北市板橋區民治街92-1號","121.479185","25.0317216666667","6500100","板橋區"
"220052","561-BX","2019/06/24 15:19:31","新北市板橋區漢生東路63巷1號","121.465868333333","25.0163466666667","6500100","板橋區"
"220011","609-BX","2019/06/24 15:19:21","新北市板橋區三民路一段94號","121.479395","25.0215166666667","6500100","板橋區"
"220042","689-BX","2019/06/24 15:19:26","新北市板橋區長江路一段110號","121.459743333333","25.0296783333333","6500100","板橋區"
"220003","827-TW","2019/06/24 15:19:35","新北市板橋區國慶路149巷37弄2號","121.460825","24.9980266666667","6500100","板橋區"
"220022","895-R6","2019/06/24 15:19:21","新北市板橋區府中路15號","121.45944","25.009575","6500100","板橋區"
"220012","AAC-253","2019/06/24 15:19:24","新北市板橋區民族路67號","121.465303333333","25.008685","6500100","板橋區"
