"lineid","car","time","location","longitude","latitude","cityid","cityname"
"249005","172-UM","2019/06/24 17:19:40","新北市八里區荖阡坑路50-1號","121.410771666667","25.1214816666667","6502300","八里區"
"249001","173-UM","2019/06/24 17:19:34","新北市八里區中華路二段165巷2-1號","121.407605","25.1508283333333","6502300","八里區"
"249004","303-UY","2019/06/24 17:19:22","新北市八里區賢三街23號","121.418851666667","25.1590033333333","6502300","八里區"
"249002","305-UY","2019/06/24 17:19:23","新北市八里區龍米路二段117巷1號","121.446928333333","25.1428816666667","6502300","八里區"
"249003","593-UM","2019/06/24 17:19:20","新北市八里區中山路二段459號","121.396261666667","25.145445","6502300","八里區"
"244007","080-UY","2019/06/24 17:19:31","新北市林口區湖子7-2號","121.388791666667","25.0924433333333","6501700","林口區"
"244019","402-UM","2019/06/24 17:19:24","新北市林口區文化二路一段350-1號","121.373083333333","25.0753283333333","6501700","林口區"
"244023","483-VK","2019/06/24 17:19:23","新北市林口區隆林街75號","121.386526666667","25.075275","6501700","林口區"
"244017","485-VK","2019/06/24 17:19:25","新北市林口區粉寮路一段77號","121.39692","25.0788416666667","6501700","林口區"
"244009","656-BX","2019/06/24 17:19:25","新北市林口區中湖40-3號","121.383175","25.0911683333333","6501700","林口區"
"244011","701-TV","2019/06/24 17:19:26","新北市林口區中山路2號","121.396753333333","25.078355","6501700","林口區"
"244025","837-TS","2019/06/24 17:19:25","新北市林口區民族路203號","121.367128333333","25.0765666666667","6501700","林口區"
"244021","838-TS","2019/06/24 17:19:36","新北市林口區粉寮路二段286號","121.405065","25.0952533333333","6501700","林口區"
"231041","618-UM","2019/06/24 17:18:51","新北市中和區興南路三段35號","121.49682","24.9781083333333","6500600","新店區"
"231046","719-UM","2019/06/24 17:18:29","新北市新店區直潭七街60號","121.53223","24.9400033333333","6500600","新店區"
"241011","013-R5","2019/06/24 17:19:23","新北市三重區河邊北街100巷20號","121.503055","25.0702216666667","6500200","三重區"
"241028","022-UY","2019/06/24 17:19:29","新北市三重區仁化街56號","121.493841666667","25.059155","6500200","三重區"
"241008","059-VK","2019/06/24 17:19:37","新北市三重區永福街172號","121.480983333333","25.0744983333333","6500200","三重區"
"241012","060-VK","2019/06/24 17:19:37","新北市三重區仁昌街93-1號","121.499511666667","25.07491","6500200","三重區"
"241015","062-VK","2019/06/24 17:19:33","新北市三重區福德北路89號","121.501918333333","25.066245","6500200","三重區"
"241017","063-VK","2019/06/24 17:19:33","新北市三重區大同北路91號","121.49477","25.0636","6500200","三重區"
"241024","065-VK","2019/06/24 17:19:29","新北市三重區中正北路179號","121.47785","25.0694366666667","6500200","三重區"
"241001","066-VK","2019/06/24 17:19:26","新北市三重區仁愛街377巷2號","121.491551666667","25.0803516666667","6500200","三重區"
"241002","090-VK","2019/06/24 17:19:22","新北市三重區自強路五段13號","121.492658333333","25.0805983333333","6500200","三重區"
"241003","091-VK","2019/06/24 17:19:34","新北市三重區五華街148號","121.491075","25.0838966666667","6500200","三重區"
"241005","262-UM","2019/06/24 17:19:29","新北市三重區永安北路二段15號","121.482398333333","25.0815033333333","6500200","三重區"
"241016","266-UM","2019/06/24 17:19:15","新北市三重區大同北路54巷3號","121.494045","25.0635266666667","6500200","三重區"
"241009","267-UM","2019/06/24 17:19:27","新北市三重區仁愛街644號","121.482953333333","25.0804883333333","6500200","三重區"
"241018","268-UM","2019/06/24 17:19:30","新北市三重區安慶街145號","121.494445","25.0689216666667","6500200","三重區"
"241032","269-UM","2019/06/24 17:19:21","新北市三重區名源街28巷4號","121.482335","25.0603833333333","6500200","三重區"
"241013","270-UM","2019/06/24 17:19:25","新北市三重區仁愛街104號","121.495306666667","25.0741666666667","6500200","三重區"
"241025","271-UM","2019/06/24 17:19:28","新北市三重區中正北路380號","121.476456666667","25.0699233333333","6500200","三重區"
"241007","398-BY","2019/06/24 17:19:38","新北市三重區三和路四段155巷9號","121.484436666667","25.0786233333333","6500200","三重區"
"241004","475-VK","2019/06/24 17:19:24","新北市三重區五華街110巷4號","121.491845","25.0827833333333","6500200","三重區"
"241020","478-VK","2019/06/24 17:19:34","新北市三重區自強路三段7巷38號","121.488236666667","25.0722566666667","6500200","三重區"
"241026","480-VK","2019/06/24 17:19:38","新北市三重區正義南路20號","121.49826","25.0614383333333","6500200","三重區"
"241014","543-UM","2019/06/24 17:19:35","新北市三重區長榮路5號","121.500278333333","25.0683583333333","6500200","三重區"
"241019","743-BX","2019/06/24 17:19:25","新北市三重區忠孝路二段68號","121.484678333333","25.0702566666667","6500200","三重區"
"241022","KED-0820","2019/06/24 17:19:41","新北市三重區重陽路二段34巷18號","121.486331666667","25.0634133333333","6500200","三重區"
"241033","AAC-255","2019/06/24 17:19:34","新北市三重區中興北街152號","121.469041666667","25.0566016666667","6500200","三重區"
"247014","KEA-2869","2019/06/24 17:19:39","新北市蘆洲區中正路96號","121.470106666667","25.08394","6501400","蘆洲區"
"247008","KED-0682","2019/06/24 17:19:41","新北市蘆洲區永安北路一段72巷10號","121.476821666667","25.0771683333333","6501400","蘆洲區"
"235064","911-UM","2019/06/24 16:53:47","新北市中和區員山路36巷16-3號","121.484986666667","24.9910333333333","6500300","中和區"
"247004","893-R6","2019/06/24 17:19:24","新北市蘆洲區永安南路二段286號","121.457675","25.0812883333333","6501400","蘆洲區"
"247018","546-UM","2019/06/24 17:19:25","新北市蘆洲區民權路76號","121.474756666667","25.0874766666667","6501400","蘆洲區"
"247002","500-BY","2019/06/24 17:19:34","新北市蘆洲區永樂街38巷33弄19號","121.457351666667","25.0896116666667","6501400","蘆洲區"
"247024","337-TH","2019/06/24 17:19:32","新北市蘆洲區長榮路262號","121.46036","25.086065","6501400","蘆洲區"
"247022","057-VK","2019/06/24 17:19:33","新北市蘆洲區三民路136號","121.470971666667","25.0878033333333","6501400","蘆洲區"
"247012","056-VK","2019/06/24 17:19:31","新北市蘆洲區信義路319巷10弄12號","121.477566666667","25.0865216666667","6501400","蘆洲區"
"247016","053-VK","2019/06/24 17:19:29","新北市蘆洲區正和街103號","121.467685","25.0804616666667","6501400","蘆洲區"
"247020","007-UY","2019/06/24 17:19:22","新北市蘆洲區民族路426號","121.47359","25.0919383333333","6501400","蘆洲區"
"247006","002-UY","2019/06/24 17:19:36","新北市蘆洲區長安街73巷25號","121.461978333333","25.0792916666667","6501400","蘆洲區"
"228003","097-TW","2019/06/24 17:19:35","新北市貢寮區福隆里興隆街24-1號","121.944363333333","25.016685","6502600","貢寮區"
"228002","663-BX","2019/06/24 17:19:42","新北市貢寮區雙玉里田寮洋街42號","121.92559","25.0123266666667","6502600","貢寮區"
"228001","670-TC","2019/06/24 17:19:31","新北市貢寮區仁理村尖山腳街18-3號","121.925405","25.0483033333333","6502600","貢寮區"
"224010","AGQ-8101","2019/06/24 17:19:24","新北市瑞芳區明燈路二段44-1號","121.80952","25.1082683333333","6501200","瑞芳區"
"224006","676-BX","2019/06/24 17:19:37","新北市瑞芳區大寮路23號","121.78289","25.098945","6501200","瑞芳區"
"224009","275-VK","2019/06/24 17:19:36","新北市瑞芳區石崁巷49號","121.837681666667","25.1095883333333","6501200","瑞芳區"
"224008","273-VK","2019/06/24 17:19:26","新北市瑞芳區侯硐路296號","121.831326666667","25.08963","6501200","瑞芳區"
"224005","271-BY","2019/06/24 17:19:39","新北市瑞芳區鼻頭路247號","121.907015","25.1211583333333","6501200","瑞芳區"
"227002","642-TC","2019/06/24 17:19:27","新北市雙溪區共和里東榮街42號","121.86612","25.0337233333333","6502500","雙溪區"
"251009","008-UM","2019/06/24 17:19:34","新北市淡水區三民街22號","121.439058333333","25.1717683333333","6501000","淡水區"
"251004","009-UM","2019/06/24 17:11:04","新北市淡水區中正東路二段88巷15號","121.459068333333","25.1505083333333","6501000","淡水區"
"251005","010-UM","2019/06/24 17:19:24","新北市淡水區鄧公路29巷1號","121.45146","25.1700966666667","6501000","淡水區"
"251002","012-UM","2019/06/24 17:19:34","新北市淡水區中正路二段31號","121.41948","25.1815533333333","6501000","淡水區"
"251015","KEA-2871","2019/06/24 17:19:35","新北市淡水區樹林口25號","121.475965","25.16917","6501000","淡水區"
"251016","179-VK","2019/06/24 17:19:28","新北市淡水區鄒厝崙12-1號","121.46651","25.1897266666667","6501000","淡水區"
"251008","181-VK","2019/06/24 17:19:23","新北市淡水區大同路269號","121.467335","25.14223","6501000","淡水區"
"251010","413-VK","2019/06/24 17:19:38","新北市淡水區沙崙路198號","121.424493333333","25.1837866666667","6501000","淡水區"
"251012","441-VK","2019/06/24 17:19:40","新北市淡水區北新路17號","121.444755","25.1776333333333","6501000","淡水區"
"251007","442-VK","2019/06/24 17:19:37","新北市淡水區民生路47-4號","121.462083333333","25.13797","6501000","淡水區"
"251006","561-UM","2019/06/24 17:19:30","新北市淡水區新生街124號","121.440968333333","25.17457","6501000","淡水區"
"251014","577-R6","2019/06/24 17:18:14","新北市淡水區番子田132號","121.464711666667","25.22768","6501000","淡水區"
"251011","650-BX","2019/06/24 17:19:24","新北市淡水區坪頂路103號","121.463505","25.1625433333333","6501000","淡水區"
"251003","673-BX","2019/06/24 17:19:36","新北市淡水區中正路259號","121.43298","25.174525","6501000","淡水區"
"207003","550-UM","2019/06/24 17:19:36","新北市萬里區萬里里獅頭路23號","121.693411666667","25.1783066666667","6502800","萬里區"
"252002","178-VK","2019/06/24 17:19:22","新北市三芝區忠孝街1-14號","121.505445","25.2539366666667","6502100","三芝區"
"233002","762-BX","2019/06/24 17:19:22","新北市烏來區環山路82巷60號","121.547308333333","24.863865","6502900","烏來區"
"247010","KED-0683","2019/06/24 17:19:31","新北市蘆洲區鷺江街51號","121.477746666667","25.0824983333333","6501400","蘆洲區"
"252001","KED-0821","2019/06/24 17:19:24","新北市三芝區長安街119號","121.498025","25.2596283333333","6502100","三芝區"
"242039","AAC-296","2019/06/24 17:19:24","新北市新莊區中正路400號","121.44182","25.03399","6500500","新莊區"
"242060","986-R7","2019/06/24 17:19:31","新北市泰山區磚雅厝3號","121.442113333333","25.04168","6500500","新莊區"
"242002","751-BX","2019/06/24 17:19:36","新北市新莊區瓊林路50-12號","121.44603","25.0288166666667","6500500","新莊區"
"242029","615-BX","2019/06/24 17:19:34","新北市新莊區幸福路614號","121.451545","25.04924","6500500","新莊區"
"242027","613-BX","2019/06/24 17:19:31","新北市新莊區復興路二段191號","121.459366666667","25.044575","6500500","新莊區"
"242058","612-BX","2019/06/24 17:19:23","新北市新莊區新泰路357巷3弄57號","121.442106666667","25.0392666666667","6500500","新莊區"
"242046","566-BX","2019/06/24 17:19:39","新北市新莊區三和路12-21號","121.442351666667","25.038305","6500500","新莊區"
"242056","441-UM","2019/06/24 17:19:30","新北市新莊區中正路473-1號","121.441955","25.03309","6500500","新莊區"
"242004","440-UM","2019/06/24 17:19:30","新北市新莊區中平路82巷29號","121.446216666667","25.045045","6500500","新莊區"
"242042","415-TV","2019/06/24 17:19:38","新北市新莊區新樹路52-26號","121.437176666667","25.0269233333333","6500500","新莊區"
"242011","413-TV","2019/06/24 17:19:35","新北市新莊區新泰路496號","121.442601666667","25.04624","6500500","新莊區"
"242025","362-BY","2019/06/24 17:19:23","新北市新莊區中平路82巷29號","121.446006666667","25.04495","6500500","新莊區"
"242023","353-BY","2019/06/24 17:19:28","新北市新莊區復興路一段93號","121.448778333333","25.04277","6500500","新莊區"
"242036","135-UY","2019/06/24 17:19:25","新北市新莊區中正路481號","121.441256666667","25.0337866666667","6500500","新莊區"
"242053","172-VK","2019/06/24 17:19:23","新北市新莊區中正路471號","121.441915","25.033345","6500500","新莊區"
"242015","173-VK","2019/06/24 17:19:21","新北市新莊區三和路12-21號","121.44198","25.0387616666667","6500500","新莊區"
"242048","175-VK","2019/06/24 17:19:32","新北市新莊區福營路435號","121.420545","25.0261016666667","6500500","新莊區"
"242034","176-VK","2019/06/24 17:19:26","新北市新莊區中正路473-1號","121.441948333333","25.03304","6500500","新莊區"
"242019","KED-0687","2019/06/24 17:19:36","新北市新莊區中港路135號","121.455166666667","25.04045","6500500","新莊區"
"242021","346-TH","2019/06/24 17:19:34","新北市新莊區新中街20號","121.456721666667","25.0398166666667","6500500","新莊區"
"242031","347-TH","2019/06/24 17:19:28","新北市新莊區新泰路484號","121.442726666667","25.0457933333333","6500500","新莊區"
"242007","349-TH","2019/06/24 17:19:35","新北市新莊區新泰路498號","121.442606666667","25.0461266666667","6500500","新莊區"
"242050","350-TH","2019/06/24 17:19:38","新北市新莊區瓊林南路12-4號","121.436251666667","25.0187683333333","6500500","新莊區"
"242017","351-TH","2019/06/24 17:19:36","新北市新莊區新泰路488號","121.442586666667","25.0459116666667","6500500","新莊區"
"238015","755-BX","2019/06/24 17:19:28","新北市樹林區大安路263號","121.419128333333","24.9937716666667","6500700","樹林區"
"238023","601-UM","2019/06/24 17:19:27","新北市樹林區中正路433-1號","121.414953333333","25.0078616666667","6500700","樹林區"
"238019","599-UM","2019/06/24 17:19:30","新北市樹林區八德街368號","121.40822","24.9695816666667","6500700","樹林區"
"238024","5061-A6","2019/06/24 17:19:36","新北市樹林區樹新路79巷11號","121.427133333333","24.9956083333333","6500700","樹林區"
"238018","KEA-2217","2019/06/24 17:19:31","新北市樹林區太平路1-6號","121.418703333333","24.9846416666667","6500700","樹林區"
"238022","KEA-2213","2019/06/24 17:19:36","新北市樹林區忠孝街16號","121.423458333333","24.9824483333333","6500700","樹林區"
"238021","KEA-2539","2019/06/24 17:19:36","新北市樹林區西圳街一段54號","121.400866666667","24.9619983333333","6500700","樹林區"
"238025","303-VK","2019/06/24 17:19:27","新北市樹林區保安二街56號","121.42428","24.9951733333333","6500700","樹林區"
"238017","283-BY","2019/06/24 17:19:37","新北市樹林區中正路419號","121.416738333333","25.0072066666667","6500700","樹林區"
"238014","282-BY","2019/06/24 17:19:32","新北市樹林區長壽街70巷31弄12號","121.421505","24.9947666666667","6500700","樹林區"
"238020","268-VK","2019/06/24 17:19:32","新北市樹林區中正路22-1號","121.427966666667","24.99924","6500700","樹林區"
"238026","172-UY","2019/06/24 17:19:32","新北市樹林區新興街11巷1-3號","121.40087","24.97364","6500700","樹林區"
"238016","169-UY","2019/06/24 17:19:36","新北市樹林區日新街63號","121.42234","24.9912866666667","6500700","樹林區"
"239007","AAC-297","2019/06/24 17:19:28","新北市鶯歌區行政路6號","121.351091666667","24.9553983333333","6500800","鶯歌區"
"239006","891-R6","2019/06/24 17:19:33","新北市鶯歌區福昌街24號","121.332918333333","24.9609666666667","6500800","鶯歌區"
"239008","527-UM","2019/06/24 16:58:18","新北市鶯歌區二甲路13-16號","121.345111666667","24.934985","6500800","鶯歌區"
"239005","526-UM","2019/06/24 17:19:32","新北市鶯歌區福德三街10號","121.329806666667","24.96764","6500800","鶯歌區"
"239001","417-VK","2019/06/24 17:19:32","新北市鶯歌區尖山路卓厝巷1號","121.342108333333","24.9458566666667","6500800","鶯歌區"
"239003","360-BY","2019/06/24 17:19:26","新北市鶯歌區德昌二街3巷1-1號","121.333203333333","24.9594116666667","6500800","鶯歌區"
"239002","359-BY","2019/06/24 17:19:33","新北市鶯歌區建國路156號","121.350601666667","24.9537033333333","6500800","鶯歌區"
"239004","193-VK","2019/06/24 17:19:35","新北市鶯歌區文化路479號","121.353435","24.9488233333333","6500800","鶯歌區"
"233001","KEA-2870","2019/06/24 17:19:31","新北市烏來區溫泉街142號","121.551556666667","24.8591516666667","6502900","烏來區"
"242044","281-VK","2019/06/24 17:19:36","新北市新莊區建福路67號","121.42688","25.026945","6500500","新莊區"
"242009","280-VK","2019/06/24 17:19:40","新北市新莊區新泰路502巷6號","121.442611666667","25.0466616666667","6500500","新莊區"
"235061","KEA-2875","2019/06/24 17:07:54","新北市中和區員山路36巷16-2號","121.485318333333","24.9916683333333","6500300","中和區"
"235054","KEA-2876","2019/06/24 16:49:57","新北市中和區和城路一段271巷1號","121.485456666667","24.9917883333333","6500300","中和區"
