"lineid","car","time","location","longitude","latitude","cityid","cityname"
"234007","KED-0605","2019/06/24 18:09:23","新北市永和區環河東路二段46號","121.523161666667","25.0120716666667","6500400","永和區"
"234026","9371-KE","2019/06/24 18:09:38","新北市永和區秀朗路一段10巷19號","121.51343","25.0061483333333","6500400","永和區"
"249005","172-UM","2019/06/24 18:09:40","新北市八里區荖阡坑路15-40號","121.401653333333","25.13975","6502300","八里區"
"249001","173-UM","2019/06/24 18:09:34","新北市八里區龍米路二段37號","121.448196666667","25.1400216666667","6502300","八里區"
"249004","303-UY","2019/06/24 18:09:42","新北市八里區龍米路二段200巷3號","121.433733333333","25.15874","6502300","八里區"
"249002","305-UY","2019/06/24 18:09:22","新北市八里區龍米路一段356巷20號","121.452253333333","25.130795","6502300","八里區"
"249003","593-UM","2019/06/24 18:09:40","新北市八里區松子腳4-3號","121.402975","25.1442166666667","6502300","八里區"
"248014","025-BX","2019/06/24 18:09:27","新北市五股區成泰路一段235-3號","121.436343333333","25.0796066666667","6501500","五股區"
"248016","026-BX","2019/06/24 18:09:32","新北市五股區成泰路三段123號","121.444446666667","25.090825","6501500","五股區"
"248006","077-UY","2019/06/24 18:09:30","新北市五股區中興路二段53號","121.461873333333","25.0764633333333","6501500","五股區"
"248008","KED-0815","2019/06/24 18:09:26","新北市蘆洲區永安南路二段294號","121.457271666667","25.08185","6501500","五股區"
"248018","KED-0813","2019/06/24 18:09:39","新北市五股區工商路16號","121.439678333333","25.0830966666667","6501500","五股區"
"248004","677-BX","2019/06/24 18:09:25","新北市五股區工商路63號","121.438956666667","25.0843683333333","6501500","五股區"
"248002","678-BX","2019/06/24 18:09:37","新北市五股區中興路三段186號","121.444488333333","25.081215","6501500","五股區"
"248010","682-TV","2019/06/24 18:09:41","新北市五股區成泰路一段212號","121.436373333333","25.0792016666667","6501500","五股區"
"232011","375-UM","2019/06/24 18:09:26","新北市坪林區坪林街16-1號","121.712435","24.936215","6502000","坪林區"
"244007","080-UY","2019/06/24 18:09:31","新北市林口區林口路113巷47號","121.387953333333","25.07988","6501700","林口區"
"244019","402-UM","2019/06/24 18:09:24","新北市林口區忠孝路569巷50號","121.374513333333","25.0684166666667","6501700","林口區"
"244013","KEA-2802","2019/06/24 18:09:27","新北市林口區佳林路101巷36號","121.386998333333","25.0800166666667","6501700","林口區"
"244023","483-VK","2019/06/24 18:09:44","新北市林口區東湖路153巷125號","121.382268333333","25.0733266666667","6501700","林口區"
"244017","485-VK","2019/06/24 18:09:25","新北市林口區八德路36號","121.36752","25.0665116666667","6501700","林口區"
"244009","656-BX","2019/06/24 18:09:38","新北市林口區文化二路二段126號","121.38002","25.08286","6501700","林口區"
"244011","701-TV","2019/06/24 18:09:26","新北市林口區中正路74巷5弄1號","121.394625","25.0778633333333","6501700","林口區"
"244025","837-TS","2019/06/24 18:09:25","新北市林口區文化北路一段299巷39號","121.358741666667","25.0730683333333","6501700","林口區"
"244021","838-TS","2019/06/24 18:09:36","新北市林口區自強四街1號","121.398748333333","25.0769083333333","6501700","林口區"
"243013","646-TV","2019/06/24 18:09:26","新北市泰山區南林路99巷23號","121.418465","25.0502916666667","6501600","泰山區"
"222003","436-BY","2019/06/24 18:09:40","新北市深坑區文山路三段15號","121.612558333333","24.9980166666667","6501800","深坑區"
"222002","659-BX","2019/06/24 18:09:33","新北市深坑區文化街52號","121.619","25.0017366666667","6501800","深坑區"
"231059","046-UY","2019/06/24 18:09:37","新北市新店區安華路28-1號","121.519483333333","24.960945","6500600","新店區"
"221025","KEA-2785","2019/06/24 18:09:35","新北市汐止區秀峰路133號","121.66028","25.0625466666667","6501100","汐止區"
"231042","268-BY","2019/06/24 18:09:30","新北市新店區安一路一段1-1號","121.519726666667","24.9613283333333","6500600","新店區"
"231050","AAD-862","2019/06/24 18:09:31","新北市新店區安華路28-1號","121.519891666667","24.96095","6500600","新店區"
"231045","355-BY","2019/06/24 18:09:20","新北市新店區安華路28-1號","121.519288333333","24.9609016666667","6500600","新店區"
"231055","4716-K9","2019/06/24 18:09:23","新北市新店區安華路28-1號","121.519645","24.96058","6500600","新店區"
"231056","4715-K9","2019/06/24 18:09:35","新北市新店區安華路1-1號","121.519308333333","24.9604933333333","6500600","新店區"
"231052","513-UM","2019/06/24 18:09:42","新北市新店區安一路一段1-1號","121.51952","24.9611333333333","6500600","新店區"
"231041","619-UM","2019/06/24 18:09:38","新北市新店區安華路28-1號","121.51949","24.961005","6500600","新店區"
"231047","KED-0819","2019/06/24 18:09:30","新北市新店區安一路一段1-1號","121.519615","24.9611733333333","6500600","新店區"
"231044","897-TW","2019/06/24 18:09:31","新北市新店區安華路28-1號","121.519461666667","24.9606866666667","6500600","新店區"
"231066","AKT-0513","2019/06/24 18:09:41","新北市新店區安華路1-1號","121.519435","24.960485","6500600","新店區"
"241033","AAC-255","2019/06/24 18:09:34","新北市三重區中興北街141號","121.469053333333","25.051785","6500200","三重區"
"235063","006-UY","2019/06/24 18:09:28","新北市中和區員山路36巷16-3號","121.485033333333","24.991195","6500300","中和區"
"235056","096-UM","2019/06/24 18:09:31","新北市中和區中正路637巷52弄1號","121.485436666667","24.9935666666667","6500300","中和區"
"235039","097-UM","2019/06/24 18:09:12","新北市中和區中正路637巷52弄1號","121.4855","24.9933183333333","6500300","中和區"
"235065","098-UM","2019/06/24 18:09:26","新北市中和區莊敬路49巷18號","121.501671666667","25.0061316666667","6500300","中和區"
"235040","150-BY","2019/06/24 18:09:23","新北市中和區中正路305號","121.492435","24.9937366666667","6500300","中和區"
"235058","151-BY","2019/06/24 18:09:25","新北市中和區圓通路367巷61弄2號","121.491816666667","24.9832583333333","6500300","中和區"
"235055","183-VK","2019/06/24 18:09:24","新北市中和區員山路36巷16-3號","121.485023333333","24.9912216666667","6500300","中和區"
"235038","185-VK","2019/06/24 18:09:36","新北市中和區景平路143號","121.51412","24.992275","6500300","中和區"
"235072","301-VK","2019/06/24 18:09:31","新北市中和區錦和路216號","121.49045","24.99414","6500300","中和區"
"235043","352-BY","2019/06/24 18:09:38","新北市中和區錦和路350-1號","121.490126666667","24.99355","6500300","中和區"
"235042","KEA-2878","2019/06/24 18:09:27","新北市中和區景平路253號","121.50873","24.9929366666667","6500300","中和區"
"235041","551-UM","2019/06/24 18:09:36","新北市中和區員山路36巷16-2號","121.485395","24.9915783333333","6500300","中和區"
"235070","558-UM","2019/06/24 18:09:30","新北市中和區圓通路207號","121.497246666667","24.9944466666667","6500300","中和區"
"235045","565-BX","2019/06/24 18:09:32","新北市中和區板南路190號","121.50025","24.9928733333333","6500300","中和區"
"235060","KED-0823","2019/06/24 18:09:23","新北市中和區員山路72-1號","121.481128333333","24.99353","6500300","中和區"
"235062","800-TS","2019/06/24 18:09:42","新北市中和區板南路448-1號","121.489563333333","25.0052833333333","6500300","中和區"
"235057","801-TS","2019/06/24 18:09:38","新北市中和區民享街97巷19號","121.475421666667","24.9995283333333","6500300","中和區"
"235052","805-TS","2019/06/24 18:09:23","新北市中和區中正路273號","121.495573333333","24.99379","6500300","中和區"
"235048","896-TW","2019/06/24 18:09:30","新北市中和區員山路36巷16-2號","121.485295","24.9916866666667","6500300","中和區"
"235053","900-TW","2019/06/24 18:09:26","新北市中和區員山路36巷16-2號","121.485288333333","24.9913983333333","6500300","中和區"
"235064","911-UM","2019/06/24 18:09:29","新北市中和區中正路128號","121.49968","24.9939166666667","6500300","中和區"
"235051","157-BY","2019/06/24 18:09:42","新北市中和區捷運路8-11號","121.509648333333","24.9897683333333","6500300","中和區"
"235037","AAC-213","2019/06/24 18:09:26","新北市中和區景德街29號","121.518745","24.9912683333333","6500300","中和區"
"226004","312-R5","2019/06/24 18:09:27","新北市平溪區白石里白石腳4號","121.721688333333","25.0214633333333","6502400","平溪區"
"228003","097-TW","2019/06/24 18:09:35","新北市貢寮區真理里美艷山街6-2號","121.928838333333","25.0607433333333","6502600","貢寮區"
"228002","663-BX","2019/06/24 18:09:42","新北市貢寮區福連里馬崗街13-1號","122.001965","25.0129083333333","6502600","貢寮區"
"228001","670-TC","2019/06/24 18:09:31","新北市貢寮區真理里新港街26巷55弄2-1號","121.927373333333","25.05287","6502600","貢寮區"
"224006","676-BX","2019/06/24 18:09:25","新北市瑞芳區中山路72號","121.802728333333","25.106485","6501200","瑞芳區"
"224007","285-BY","2019/06/24 18:09:28","新北市瑞芳區四腳亭坑路8號","121.77775","25.10966","6501200","瑞芳區"
"224009","275-VK","2019/06/24 18:09:36","新北市瑞芳區金光路117號","121.853805","25.1061833333333","6501200","瑞芳區"
"224008","273-VK","2019/06/24 18:09:26","新北市瑞芳區明燈路二段60號","121.80964","25.10752","6501200","瑞芳區"
"224005","271-BY","2019/06/24 18:09:39","新北市瑞芳區建基路二段10號","121.815523333333","25.1284516666667","6501200","瑞芳區"
"253006","032-BX","2019/06/24 18:09:39","新北市石門區老梅路52巷25弄1號","121.54643","25.2880666666667","6502200","石門區"
"253005","295-VK","2019/06/24 18:09:24","新北市石門區福安街53號","121.568383333333","25.2917083333333","6502200","石門區"
"222001","KEA-2212","2019/06/24 18:09:30","新北市深坑區北深路二段186號","121.613931666667","25.002505","6501800","深坑區"
"208002","KEA-2872","2019/06/24 18:09:29","新北市金山區三界壇路111巷20-3號","121.617226666667","25.231805","6502700","金山區"
"208003","665-BX","2019/06/24 18:09:31","新北市金山區民生路196號","121.645641666667","25.22175","6502700","金山區"
"251009","008-UM","2019/06/24 18:09:34","新北市淡水區大忠街24巷3號","121.443135","25.1756433333333","6501000","淡水區"
"251004","009-UM","2019/06/24 18:09:20","新北市淡水區民權路187巷86弄1號","121.461443333333","25.1348","6501000","淡水區"
"251005","010-UM","2019/06/24 18:09:24","新北市淡水區水源街一段143巷6-1號","121.447428333333","25.17206","6501000","淡水區"
"251001","011-UM","2019/06/24 18:09:30","新北市淡水區自立路10號","121.463003333333","25.1297566666667","6501000","淡水區"
"251002","012-UM","2019/06/24 18:09:34","新北市淡水區中正東路40-7號","121.450225","25.1649816666667","6501000","淡水區"
"251015","KEA-2871","2019/06/24 18:09:35","新北市淡水區興福寮88巷1號","121.485321666667","25.1649333333333","6501000","淡水區"
"251016","179-VK","2019/06/24 18:09:28","新北市淡水區淡金路三段46巷52號","121.45008","25.1999816666667","6501000","淡水區"
"251008","181-VK","2019/06/24 18:09:23","新北市淡水區中正東路二段7號","121.458005","25.1587816666667","6501000","淡水區"
"251010","413-VK","2019/06/24 18:09:38","新北市淡水區淡海路158號","121.42098","25.1832566666667","6501000","淡水區"
"251012","441-VK","2019/06/24 18:09:39","新北市淡水區北新路三段171-1號","121.492091666667","25.191625","6501000","淡水區"
"251006","561-UM","2019/06/24 18:09:30","新北市淡水區真理街3巷21-1號","121.43773","25.17623","6501000","淡水區"
"251014","577-R6","2019/06/24 18:09:34","新北市淡水區南平15號","121.488571666667","25.21892","6501000","淡水區"
"251011","650-BX","2019/06/24 18:09:24","新北市淡水區三空泉7-1號","121.476765","25.1624383333333","6501000","淡水區"
"251003","673-BX","2019/06/24 18:09:36","新北市淡水區大忠街113巷6號","121.446686666667","25.1775533333333","6501000","淡水區"
"207003","550-UM","2019/06/24 18:09:36","新北市萬里區野柳里港西路65-1號","121.685173333333","25.2040783333333","6502800","萬里區"
"207004","225-TW","2019/06/24 18:09:39","新北市萬里區中幅里中福路97號","121.675463333333","25.1701016666667","6502800","萬里區"
"252002","178-VK","2019/06/24 18:09:22","新北市三芝區中山路二段41號","121.502953333333","25.2550716666667","6502100","三芝區"
"252003","249-BX","2019/06/24 18:09:20","新北市三芝區埔頭里埔頭43-3號","121.499905","25.26136","6502100","三芝區"
"208001","170-UY","2019/06/24 18:09:32","新北市金山區磺港里磺港路73號","121.647551666667","25.2271433333333","6502700","金山區"
"237004","KEA-2597","2019/06/24 18:09:23","新北市三峽區大埔路162號","121.370658333333","24.8978683333333","6500900","三峽區"
"237007","153-BY","2019/06/24 18:09:37","新北市三峽區中正路二段370巷16號","121.365141666667","24.9103433333333","6500900","三峽區"
"237009","210-TH","2019/06/24 18:09:32","新北市三峽區大仁路50巷11號","121.365325","24.93797","6500900","三峽區"
"237013","252-BX","2019/06/24 18:09:32","新北市三峽區長泰街20號","121.378806666667","24.9316916666667","6500900","三峽區"
"237012","275-BY","2019/06/24 18:09:40","新北市三峽區民生街19巷7弄20號","121.377191666667","24.9354583333333","6500900","三峽區"
"237014","433-BY","2019/06/24 18:09:36","新北市三峽區復興路80巷24號","121.373706666667","24.9378616666667","6500900","三峽區"
"237008","280-TH","2019/06/24 18:09:39","新北市三峽區白雞47號","121.38281","24.9123083333333","6500900","三峽區"
"237006","5529-G3","2019/06/24 18:09:38","新北市三峽區溪東路47號","121.400523333333","24.9348233333333","6500900","三峽區"
"237011","KEA-2596","2019/06/24 18:09:31","新北市三峽區大同路1-9號","121.37785","24.9293566666667","6500900","三峽區"
"237015","649-BX","2019/06/24 18:09:31","新北市三峽區紫新路38巷2號","121.421983333333","24.9224966666667","6500900","三峽區"
"237010","706-TV","2019/06/24 18:09:35","新北市三峽區中園街18號","121.368088333333","24.9271816666667","6500900","三峽區"
"237005","AKY-6261","2019/06/24 18:09:36","新北市三峽區忠孝街13號","121.370841666667","24.9343516666667","6500900","三峽區"
"236042","KED-0685","2019/06/24 18:09:25","新北市土城區城林路6巷80號","121.438463333333","24.9797033333333","6501300","土城區"
"233002","762-BX","2019/06/24 18:09:43","新北市烏來區新烏路五段60號","121.54626","24.8752716666667","6502900","烏來區"
"236078","166-UM","2019/06/24 18:09:29","新北市土城區永安街84號","121.431671666667","24.963705","6501300","土城區"
"236030","253-BX","2019/06/24 18:09:39","新北市土城區城林路6巷80號","121.438653333333","24.9796216666667","6501300","土城區"
"236026","269-VK","2019/06/24 18:09:25","新北市土城區承天路18號","121.43951","24.963485","6501300","土城區"
"236014","270-VK","2019/06/24 18:09:36","新北市土城區學府路一段202號","121.452601666667","24.98553","6501300","土城區"
"236039","271-VK","2019/06/24 18:09:31","新北市土城區青雲路449號","121.458805","24.974905","6501300","土城區"
"236069","KEA-2877","2019/06/24 18:09:23","新北市土城區明德路一段126號","121.463816666667","24.9790533333333","6501300","土城區"
"252001","KED-0821","2019/06/24 18:09:24","新北市三芝區中興街二段2號","121.498395","25.25664","6502100","三芝區"
"236020","401-BY","2019/06/24 18:09:24","新北市土城區城林路6巷80號","121.438495","24.97959","6501300","土城區"
"236059","912-UM","2019/06/24 18:09:41","新北市土城區中央路四段123號","121.416395","24.95767","6501300","土城區"
"236048","913-UM","2019/06/24 18:09:41","新北市土城區明德路一段365-1號","121.45356","24.979025","6501300","土城區"
"236063","915-UM","2019/06/24 18:09:27","新北市土城區中正路75號","121.445118333333","24.9756966666667","6501300","土城區"
"236055","AAC-216","2019/06/24 18:09:31","新北市土城區中華路二段92號","121.438301666667","24.974735","6501300","土城區"
"242039","AAC-296","2019/06/24 18:09:24","新北市新莊區民安西路38巷2號","121.42721","25.0210316666667","6500500","新莊區"
"242060","986-R7","2019/06/24 18:09:36","新北市新莊區新樹路309號","121.433483333333","25.0193866666667","6500500","新莊區"
"242002","751-BX","2019/06/24 18:09:36","新北市新莊區新莊路38號","121.458205","25.0370733333333","6500500","新莊區"
"242029","615-BX","2019/06/24 18:09:34","新北市新莊區幸福路860號","121.44376","25.0490916666667","6500500","新莊區"
"242027","613-BX","2019/06/24 18:09:31","新北市新莊區幸福路79號","121.456776666667","25.049335","6500500","新莊區"
"242058","612-BX","2019/06/24 18:09:03","新北市新莊區新北大道七段180號","121.415461666667","25.0315266666667","6500500","新莊區"
"242046","566-BX","2019/06/24 18:09:39","新北市新莊區福營路227巷12號","121.430165","25.0292166666667","6500500","新莊區"
"242056","441-UM","2019/06/24 18:09:30","新北市新莊區豐年街豐1巷13號","121.447108333333","25.0312516666667","6500500","新莊區"
"242004","440-UM","2019/06/24 18:09:30","新北市新莊區自立街108號","121.455083333333","25.04525","6500500","新莊區"
"242042","415-TV","2019/06/24 18:09:38","新北市新莊區天祥街133號","121.41391","25.0297883333333","6500500","新莊區"
"242011","413-TV","2019/06/24 18:09:35","新北市新莊區中信街76號","121.447986666667","25.0529466666667","6500500","新莊區"
"242025","362-BY","2019/06/24 18:09:27","新北市新莊區五權一路112號","121.45986","25.0679916666667","6500500","新莊區"
"242013","132-UY","2019/06/24 18:09:31","新北市新莊區中正路400號","121.441936666667","25.0342483333333","6500500","新莊區"
"242036","135-UY","2019/06/24 18:09:40","新北市新莊區後港一路65巷11弄9號","121.425886666667","25.0270616666667","6500500","新莊區"
"242053","172-VK","2019/06/24 18:09:43","新北市新莊區民安西路327巷2弄1號","121.427928333333","25.0113316666667","6500500","新莊區"
"242015","173-VK","2019/06/24 18:09:22","新北市新莊區中和街59巷12號","121.446868333333","25.0469683333333","6500500","新莊區"
"242048","175-VK","2019/06/24 18:09:32","新北市新莊區富國路142號","121.422915","25.0250083333333","6500500","新莊區"
"242034","176-VK","2019/06/24 18:09:26","新北市新莊區景德路382號","121.446275","25.0336066666667","6500500","新莊區"
"242019","KED-0687","2019/06/24 18:09:36","新北市新莊區中港路132巷12號","121.455893333333","25.0406516666667","6500500","新莊區"
"242021","346-TH","2019/06/24 18:09:34","新北市新莊區建興街66號","121.449968333333","25.039195","6500500","新莊區"
"242031","347-TH","2019/06/24 18:09:28","新北市新莊區新泰路289巷51號","121.443306666667","25.04029","6500500","新莊區"
"242007","349-TH","2019/06/24 18:09:14","新北市新莊區中華路二段94號","121.453533333333","25.0471566666667","6500500","新莊區"
"242050","350-TH","2019/06/24 18:09:40","新北市新莊區民本街29巷21號","121.429083333333","25.0190066666667","6500500","新莊區"
"242017","351-TH","2019/06/24 18:09:35","新北市新莊區中港路277號","121.453375","25.0436866666667","6500500","新莊區"
"238015","755-BX","2019/06/24 18:09:29","新北市樹林區大安路339巷10號","121.417093333333","24.9907516666667","6500700","樹林區"
"238023","601-UM","2019/06/24 18:09:32","新北市樹林區忠信街1號","121.40939","25.0149816666667","6500700","樹林區"
"238019","599-UM","2019/06/24 18:09:30","新北市樹林區水源街15號","121.425128333333","24.9830966666667","6500700","樹林區"
"238018","KEA-2217","2019/06/24 18:09:24","新北市板橋區溪崑二街76號","121.42688","24.9910716666667","6500700","樹林區"
"238021","KEA-2539","2019/06/24 18:09:37","新北市樹林區柑園街二段61號","121.387043333333","24.9552483333333","6500700","樹林區"
"238025","303-VK","2019/06/24 18:09:36","新北市樹林區保安街一段327號","121.417683333333","24.99834","6500700","樹林區"
"238017","283-BY","2019/06/24 18:09:37","新北市樹林區中正路698號","121.409266666667","25.0174716666667","6500700","樹林區"
"238014","282-BY","2019/06/24 18:09:32","新北市樹林區潭興街101號","121.424693333333","24.9984466666667","6500700","樹林區"
"238020","268-VK","2019/06/24 18:09:32","新北市樹林區俊興街298號","121.418578333333","25.018","6500700","樹林區"
"238026","172-UY","2019/06/24 18:09:32","新北市樹林區佳園路一段50號","121.392851666667","24.9706283333333","6500700","樹林區"
"238016","169-UY","2019/06/24 18:09:36","新北市樹林區復興路323號","121.418305","24.98834","6500700","樹林區"
"239007","AAC-297","2019/06/24 18:09:28","新北市鶯歌區尖山埔路102號","121.347258333333","24.9510883333333","6500800","鶯歌區"
"239006","891-R6","2019/06/24 18:09:42","新北市鶯歌區鶯桃路381巷2弄5號","121.33309","24.963535","6500800","鶯歌區"
"239008","527-UM","2019/06/24 18:09:28","新北市鶯歌區二甲路13-16號","121.345041666667","24.9351916666667","6500800","鶯歌區"
"239005","526-UM","2019/06/24 18:09:32","新北市鶯歌區中正一路461號","121.362938333333","24.9566733333333","6500800","鶯歌區"
"239001","417-VK","2019/06/24 18:09:32","新北市鶯歌區國中街80-9號","121.341856666667","24.94175","6500800","鶯歌區"
"239003","360-BY","2019/06/24 18:09:26","新北市鶯歌區福安街1號","121.334253333333","24.9639633333333","6500800","鶯歌區"
"239002","359-BY","2019/06/24 18:09:32","新北市鶯歌區光明街76號","121.346923333333","24.9559083333333","6500800","鶯歌區"
"221008","489-VK","2019/06/24 18:09:33","新北市汐止區明峰街206號","121.627578333333","25.06934","6501100","汐止區"
"221036","130-UY","2019/06/24 18:09:34","新北市汐止區大同路三段116號","121.672041666667","25.0767866666667","6501100","汐止區"
"221015","131-UY","2019/06/24 18:09:28","新北市汐止區長江街267號","121.664183333333","25.08028","6501100","汐止區"
"221010","269-BY","2019/06/24 18:09:27","新北市汐止區汐萬路二段246號","121.646271666667","25.0887316666667","6501100","汐止區"
"221012","278-VK","2019/06/24 18:09:22","新北市汐止區長興街二段50巷27號","121.674546666667","25.081155","6501100","汐止區"
"221023","279-VK","2019/06/24 18:09:37","新北市汐止區民族五街64號","121.628288333333","25.0705866666667","6501100","汐止區"
"221032","280-BY","2019/06/24 18:09:35","新北市汐止區橫科路73巷1號","121.61938","25.05059","6501100","汐止區"
"221027","281-BY","2019/06/24 18:09:34","新北市汐止區大同路二段532號","121.66133","25.0685866666667","6501100","汐止區"
"221029","298-VK","2019/06/24 18:09:36","新北市汐止區樟樹二路134號","121.6399","25.065745","6501100","汐止區"
"221021","299-VK","2019/06/24 18:09:22","新北市汐止區新興路2號","121.656121666667","25.064965","6501100","汐止區"
"221031","353-TW","2019/06/24 18:09:32","新北市汐止區中興路161號","121.631018333333","25.0661233333333","6501100","汐止區"
"221035","622-UM","2019/06/24 18:09:21","新北市汐止區汐萬路一段115巷24號","121.653795","25.0703083333333","6501100","汐止區"
"221038","646-BX","2019/06/24 18:09:34","新北市汐止區南興路85號","121.653048333333","25.0590216666667","6501100","汐止區"
"221033","647-BX","2019/06/24 18:09:28","新北市汐止區林森街21號","121.621741666667","25.0405366666667","6501100","汐止區"
"221002","707-TV","2019/06/24 18:09:29","新北市汐止區福德一路231號","121.634233333333","25.0650066666667","6501100","汐止區"
"221018","753-BX","2019/06/24 18:09:38","新北市汐止區招商街19巷25號","121.667583333333","25.0682516666667","6501100","汐止區"
"233001","KEA-2870","2019/06/24 18:09:30","新北市烏來區新烏路五段133號","121.547626666667","24.870935","6502900","烏來區"
"224002","257-TC","2019/06/24 18:09:26","新北市瑞芳區三爪子坑路74號","121.810323333333","25.1055583333333","6501200","瑞芳區"
"242044","281-VK","2019/06/24 18:09:37","新北市新莊區雙鳳路155號","121.412788333333","25.0270216666667","6500500","新莊區"
"242009","280-VK","2019/06/24 18:09:40","新北市新莊區中華路二段150號","121.453291666667","25.0503316666667","6500500","新莊區"
"235061","KEA-2875","2019/06/24 18:09:16","新北市中和區民德路270號","121.468098333333","24.99648","6500300","中和區"
"235054","KEA-2876","2019/06/24 18:09:19","新北市中和區莒光路203號","121.472633333333","24.9989483333333","6500300","中和區"
