"lineid","car","time","location","longitude","latitude","cityid","cityname"
"234046","148-BY","2019/06/24 18:39:05","新北市永和區永元路68號","121.522555","25.0015533333333","6500400","永和區"
"234038","336-UY","2019/06/24 18:38:55","新北市永和區福和路1號","121.526691666667","25.0101216666667","6500400","永和區"
"234064","337-UY","2019/06/24 18:39:07","新北市永和區福和路1號","121.526511666667","25.0099583333333","6500400","永和區"
"234086","338-UY","2019/06/24 18:39:05","新北市永和區中正路612號","121.517105","25.0074166666667","6500400","永和區"
"234070","552-UM","2019/06/24 18:39:01","新北市永和區福和路1號","121.525618333333","25.0093616666667","6500400","永和區"
"234017","745-BX","2019/06/24 18:38:55","新北市永和區福和路1號","121.526346666667","25.009655","6500400","永和區"
"234030","746-BX","2019/06/24 18:38:58","新北市永和區得和路321號","121.523393333333","24.9996683333333","6500400","永和區"
"234007","KED-0605","2019/06/24 18:39:03","新北市永和區文化路123號","121.512205","25.0153183333333","6500400","永和區"
"234013","KEA-2591","2019/06/24 18:38:54","新北市永和區信義路10-1號","121.514508333333","25.0121166666667","6500400","永和區"
"234081","748-BX","2019/06/24 18:39:05","新北市永和區林森路81號","121.523971666667","25.0037383333333","6500400","永和區"
"234026","9371-KE","2019/06/24 18:38:58","新北市永和區永貞路443號","121.506586666667","25.0101883333333","6500400","永和區"
"234011","9373-KE","2019/06/24 18:39:05","新北市永和區文化路9巷22弄53號","121.514251666667","25.014465","6500400","永和區"
"249005","172-UM","2019/06/24 18:39:00","新北市八里區中華路三段200號","121.388613333333","25.1255566666667","6502300","八里區"
"249001","173-UM","2019/06/24 18:38:53","新北市八里區龍米路一段368號","121.451545","25.1315116666667","6502300","八里區"
"249004","303-UY","2019/06/24 18:39:01","新北市八里區忠四街53號","121.425076666667","25.1617183333333","6502300","八里區"
"249002","305-UY","2019/06/24 18:39:02","新北市八里區龍形一街16號","121.449896666667","25.1306433333333","6502300","八里區"
"248014","025-BX","2019/06/24 18:39:07","新北市五股區成泰路一段231-1號","121.43486","25.0779766666667","6501500","五股區"
"248016","026-BX","2019/06/24 18:38:51","新北市五股區凌雲路一段149巷7號","121.448891666667","25.10162","6501500","五股區"
"248008","KED-0815","2019/06/24 18:39:06","新北市五股區中興路一段140巷4號","121.465065","25.0740916666667","6501500","五股區"
"248018","KED-0813","2019/06/24 18:38:59","新北市五股區民義路二段93-9號","121.406955","25.10695","6501500","五股區"
"248012","247-BX","2019/06/24 18:38:59","新北市五股區成泰路三段2巷1-20號","121.441206666667","25.086625","6501500","五股區"
"248004","677-BX","2019/06/24 18:39:05","新北市五股區民義路一段277號","121.425863333333","25.09271","6501500","五股區"
"248002","678-BX","2019/06/24 18:38:57","新北市五股區西雲路201號","121.448358333333","25.09634","6501500","五股區"
"248010","682-TV","2019/06/24 18:39:01","新北市五股區明德路2號","121.434576666667","25.0713366666667","6501500","五股區"
"234023","9380-KE","2019/06/24 18:39:04","新北市永和區豫溪街217巷23號","121.52435","25.0100633333333","6500400","永和區"
"234077","969-R7","2019/06/24 18:39:04","新北市永和區福和路292號","121.517345","25.0074666666667","6500400","永和區"
"234067","AAC-212","2019/06/24 18:39:04","新北市永和區豫溪街217巷15號","121.524493333333","25.0098433333333","6500400","永和區"
"234003","AAC-295","2019/06/24 18:39:09","新北市永和區福和路1號","121.526056666667","25.0091483333333","6500400","永和區"
"232011","375-UM","2019/06/24 18:39:06","新北市坪林區坪雙路一段43號","121.711715","24.9424416666667","6502000","坪林區"
"244007","080-UY","2019/06/24 18:38:51","新北市林口區太平里8-1號","121.380461666667","25.1140233333333","6501700","林口區"
"244019","402-UM","2019/06/24 18:39:03","新北市林口區麗園二街42巷25號","121.38225","25.0665316666667","6501700","林口區"
"244013","KEA-2802","2019/06/24 18:39:07","新北市林口區麗園一街6巷7-3號","121.375181666667","25.0709283333333","6501700","林口區"
"244023","483-VK","2019/06/24 18:39:03","新北市林口區民享路36號","121.380728333333","25.080675","6501700","林口區"
"244017","485-VK","2019/06/24 18:39:05","新北市林口區文化二路一段289號","121.368296666667","25.0714766666667","6501700","林口區"
"244009","656-BX","2019/06/24 18:39:05","新北市林口區竹林路330巷28號","121.392713333333","25.0827133333333","6501700","林口區"
"244011","701-TV","2019/06/24 18:39:06","新北市林口區新寮1-61號","121.392798333333","25.0765233333333","6501700","林口區"
"244025","837-TS","2019/06/24 18:39:05","新北市林口區南勢四街305號","121.356488333333","25.0744616666667","6501700","林口區"
"244021","838-TS","2019/06/24 18:38:56","新北市林口區粉寮路一段64號","121.396983333333","25.0786433333333","6501700","林口區"
"243015","680-BX","2019/06/24 18:38:58","新北市泰山區黎明路25號","121.422043333333","25.0607183333333","6501600","泰山區"
"222003","436-BY","2019/06/24 18:38:58","新北市深坑區翠谷街10號","121.627091666667","25.0083533333333","6501800","深坑區"
"222002","659-BX","2019/06/24 18:39:13","新北市深坑區文山路一段62巷33號","121.62118","25.000225","6501800","深坑區"
"231060","001-UM","2019/06/24 18:38:56","新北市新店區安華路28-1號","121.51947","24.9608833333333","6500600","新店區"
"231061","002-UM","2019/06/24 18:39:10","新北市新店區安華路28-1號","121.519581666667","24.96079","6500600","新店區"
"231059","046-UY","2019/06/24 18:38:57","新北市新店區安華路28-1號","121.519525","24.9608166666667","6500600","新店區"
"231051","107-UY","2019/06/24 18:39:08","新北市新店區安康路一段94-2號","121.527843333333","24.9621283333333","6500600","新店區"
"231049","108-UY","2019/06/24 18:39:00","新北市新店區安一路一段1-1號","121.51966","24.9610933333333","6500600","新店區"
"231065","110-UY","2019/06/24 18:38:57","新北市新店區安一路一段1-1號","121.519466666667","24.9612483333333","6500600","新店區"
"221025","KEA-2785","2019/06/24 18:38:55","新北市汐止區仁愛路136-2號","121.66334","25.06417","6501100","汐止區"
"231062","256-BX","2019/06/24 18:38:57","新北市新店區安一路一段1-1號","121.519716666667","24.9610733333333","6500600","新店區"
"231054","260-TV","2019/06/24 18:38:51","新北市新店區安一路一段1-1號","121.519296666667","24.9612633333333","6500600","新店區"
"231042","268-BY","2019/06/24 18:38:50","新北市新店區北新路一段96巷21號","121.542498333333","24.9688716666667","6500600","新店區"
"231064","278-BY","2019/06/24 18:39:02","新北市新店區安一路一段1-1號","121.519483333333","24.9611466666667","6500600","新店區"
"231050","AAD-862","2019/06/24 18:39:11","新北市新店區安華路28-1號","121.519703333333","24.961015","6500600","新店區"
"231045","355-BY","2019/06/24 18:39:01","新北市新店區安華路28-1號","121.519335","24.96096","6500600","新店區"
"231058","3713-VJ","2019/06/24 18:38:50","新北市新店區新店後街21號","121.537726666667","24.9539283333333","6500600","新店區"
"231055","4716-K9","2019/06/24 18:39:03","新北市新店區中正路154巷6號","121.541815","24.9720316666667","6500600","新店區"
"231056","4715-K9","2019/06/24 18:38:55","新北市新店區建國路148號","121.538778333333","24.9790566666667","6500600","新店區"
"231052","513-UM","2019/06/24 18:39:02","新北市新店區新烏路一段58-2號","121.546095","24.945915","6500600","新店區"
"231040","617-UM","2019/06/24 18:38:58","新北市新店區環河路29巷1號","121.536986666667","24.9613733333333","6500600","新店區"
"231041","619-UM","2019/06/24 18:38:58","新北市新店區安康路一段355號","121.519798333333","24.9628083333333","6500600","新店區"
"231063","641-BX","2019/06/24 18:39:06","新北市新店區安華路28-1號","121.51949","24.9605366666667","6500600","新店區"
"231047","KED-0819","2019/06/24 18:39:10","新北市新店區安一路一段1-1號","121.519673333333","24.961195","6500600","新店區"
"231046","719-UM","2019/06/24 18:39:08","新北市新店區直潭二街1號","121.535361666667","24.9431216666667","6500600","新店區"
"231057","720-UM","2019/06/24 18:39:07","新北市新店區光明街21號","121.538226666667","24.9595566666667","6500600","新店區"
"231044","897-TW","2019/06/24 18:39:11","新北市新店區安華路28-1號","121.51952","24.9607983333333","6500600","新店區"
"231043","899-TW","2019/06/24 18:38:56","新北市新店區安華路28-1號","121.519326666667","24.9608516666667","6500600","新店區"
"231066","AKT-0513","2019/06/24 18:39:01","新北市新店區安華路28-1號","121.519433333333","24.9605666666667","6500600","新店區"
"235066","003-UY","2019/06/24 18:39:00","新北市中和區水源路30號","121.504641666667","25.0035333333333","6500300","中和區"
"235063","006-UY","2019/06/24 18:39:08","新北市中和區連城路347巷4弄30號","121.487015","24.9956766666667","6500300","中和區"
"235056","096-UM","2019/06/24 18:39:11","新北市中和區員山路611巷5弄5號","121.478038333333","25.0110516666667","6500300","中和區"
"235039","097-UM","2019/06/24 18:39:12","新北市中和區宜安路2號","121.513675","24.9954966666667","6500300","中和區"
"235065","098-UM","2019/06/24 18:39:05","新北市中和區莊敬路49巷27號","121.501606666667","25.006215","6500300","中和區"
"235040","150-BY","2019/06/24 18:39:03","新北市中和區安平路59號","121.509565","24.9950816666667","6500300","中和區"
"235058","151-BY","2019/06/24 18:39:05","新北市中和區員山路143巷3號","121.480613333333","24.9960816666667","6500300","中和區"
"235055","183-VK","2019/06/24 18:39:03","新北市板橋區民族路276巷3弄4號","121.469996666667","25.0060966666667","6500300","中和區"
"235038","185-VK","2019/06/24 18:38:56","新北市中和區大勇街60巷16號","121.518775","24.9947066666667","6500300","中和區"
"235049","186-VK","2019/06/24 18:38:54","新北市中和區明義街36號","121.503776666667","24.9951216666667","6500300","中和區"
"235044","293-VK","2019/06/24 18:38:53","新北市中和區復興路280巷18弄8號","121.50222","24.9916783333333","6500300","中和區"
"235072","301-VK","2019/06/24 18:39:11","新北市中和區中山路二段131-6號","121.502298333333","25.0031916666667","6500300","中和區"
"235043","352-BY","2019/06/24 18:39:08","新北市中和區景平路77號","121.518005","24.991665","6500300","中和區"
"235042","KEA-2878","2019/06/24 18:39:07","新北市中和區秀朗路三段135巷8號","121.525383333333","24.9923483333333","6500300","中和區"
"235050","4979-A6","2019/06/24 18:39:12","新北市中和區忠孝街117號","121.512643333333","24.9877966666667","6500300","中和區"
"235069","4980-A6","2019/06/24 18:39:07","新北市中和區連城路99巷40號","121.496956666667","24.998845","6500300","中和區"
"235041","551-UM","2019/06/24 18:38:56","新北市中和區中安街178巷16號","121.51058","24.9991716666667","6500300","中和區"
"235070","558-UM","2019/06/24 18:39:06","新北市中和區南山路24號","121.502023333333","24.9983016666667","6500300","中和區"
"235045","565-BX","2019/06/24 18:39:12","新北市中和區復興路10號","121.505968333333","24.9898266666667","6500300","中和區"
"235060","KED-0823","2019/06/24 18:39:03","新北市中和區中山路三段124號","121.474216666667","25.0062566666667","6500300","中和區"
"235047","732-UM","2019/06/24 18:39:04","新北市中和區南山路320巷10弄11號","121.50678","24.9866166666667","6500300","中和區"
"235046","733-UM","2019/06/24 18:39:11","新北市中和區忠孝街99-3號","121.512043333333","24.9861533333333","6500300","中和區"
"235062","800-TS","2019/06/24 18:39:02","新北市中和區中山路二段312巷33弄10號","121.494911666667","25.0038733333333","6500300","中和區"
"235057","801-TS","2019/06/24 18:38:58","新北市中和區民安街42巷14號","121.479671666667","25.000735","6500300","中和區"
"235052","805-TS","2019/06/24 18:39:03","新北市中和區興南路三段46號","121.49572","24.9767383333333","6500300","中和區"
"235048","896-TW","2019/06/24 18:39:10","新北市中和區南山路309號","121.5048","24.9915583333333","6500300","中和區"
"235053","900-TW","2019/06/24 18:39:06","新北市中和區民德路262號","121.468075","24.99672","6500300","中和區"
"235064","911-UM","2019/06/24 18:39:09","新北市中和區連城路127巷5號","121.496491666667","24.999065","6500300","中和區"
"235051","157-BY","2019/06/24 18:39:03","新北市中和區華新街143巷106弄34號","121.506293333333","24.978595","6500300","中和區"
"235037","AAC-213","2019/06/24 18:39:06","新北市中和區秀朗路三段128巷1弄2號","121.524628333333","24.9923533333333","6500300","中和區"
"235059","AAC-215","2019/06/24 18:39:04","新北市中和區錦和路350-1號","121.490543333333","24.99353","6500300","中和區"
"220065","072-UY","2019/06/24 18:39:12","新北市板橋區實踐路46號","121.463756666667","25.0063083333333","6500100","板橋區"
"220106","075-UY","2019/06/24 18:39:08","新北市板橋區民生路二段120號","121.47047","25.0197083333333","6500100","板橋區"
"220069","AAD-861","2019/06/24 18:39:08","新北市板橋區南雅南路一段1巷35號","121.457673333333","25.006485","6500100","板橋區"
"226004","312-R5","2019/06/24 18:39:07","新北市平溪區石底里公園街18-3號","121.733265","25.02582","6502400","平溪區"
"228003","097-TW","2019/06/24 18:39:00","新北市貢寮區和美里龍洞街40-1號","121.91547","25.1116683333333","6502600","貢寮區"
"228002","663-BX","2019/06/24 18:39:02","新北市貢寮區福隆里東興街6-11號","121.950796666667","25.02109","6502600","貢寮區"
"228001","670-TC","2019/06/24 18:39:11","新北市貢寮區仁理村研海街12-1號","121.923801666667","25.0517433333333","6502600","貢寮區"
"224010","AGQ-8101","2019/06/24 18:39:04","新北市瑞芳區基山街3號","121.845185","25.1097","6501200","瑞芳區"
"224006","676-BX","2019/06/24 18:39:05","新北市瑞芳區明燈路三段120號","121.804641666667","25.1084583333333","6501200","瑞芳區"
"224007","285-BY","2019/06/24 18:39:08","新北市瑞芳區大埔路93號","121.76375","25.1013016666667","6501200","瑞芳區"
"224009","275-VK","2019/06/24 18:38:56","新北市瑞芳區祈堂路40號","121.85886","25.110455","6501200","瑞芳區"
"224008","273-VK","2019/06/24 18:39:06","新北市瑞芳區瑞芳街46號","121.805988333333","25.1097233333333","6501200","瑞芳區"
"224005","271-BY","2019/06/24 18:38:59","新北市瑞芳區建基路一段44-6號","121.81893","25.1218716666667","6501200","瑞芳區"
"227002","642-TC","2019/06/24 18:39:08","新北市雙溪區魚行里坤溪3-5號","121.87619","25.0208316666667","6502500","雙溪區"
"227001","400-TW","2019/06/24 18:39:08","新北市雙溪區牡丹里下坑10號","121.850833333333","25.05624","6502500","雙溪區"
"253006","032-BX","2019/06/24 18:39:06","新北市石門區楓林28-5號","121.542613333333","25.2897816666667","6502200","石門區"
"253005","295-VK","2019/06/24 18:39:04","新北市石門區石門街1號","121.565955","25.291355","6502200","石門區"
"222001","KEA-2212","2019/06/24 18:39:09","新北市深坑區北深路一段82號","121.63632","25.0106866666667","6501800","深坑區"
"208002","KEA-2872","2019/06/24 18:39:09","新北市金山區忠孝一路19巷17號","121.637441666667","25.2178166666667","6502700","金山區"
"208003","665-BX","2019/06/24 18:39:11","新北市金山區中山路340號","121.633486666667","25.2252616666667","6502700","金山區"
"251004","009-UM","2019/06/24 18:39:00","新北市淡水區大同路2號","121.461568333333","25.1407783333333","6501000","淡水區"
"251001","011-UM","2019/06/24 18:39:10","新北市淡水區自強路419號","121.465576666667","25.1342816666667","6501000","淡水區"
"251002","012-UM","2019/06/24 18:38:54","新北市淡水區中正東路一段3巷14弄1號","121.450951666667","25.16421","6501000","淡水區"
"251015","KEA-2871","2019/06/24 18:38:55","新北市淡水區興福寮66巷271號","121.48663","25.16199","6501000","淡水區"
"251016","179-VK","2019/06/24 18:39:08","新北市淡水區下圭柔山76-12號","121.443361666667","25.205635","6501000","淡水區"
"251008","181-VK","2019/06/24 18:39:03","新北市淡水區北投子80號","121.461176666667","25.1786416666667","6501000","淡水區"
"251010","413-VK","2019/06/24 18:38:58","新北市淡水區沙崙路141號","121.423233333333","25.1828583333333","6501000","淡水區"
"251012","441-VK","2019/06/24 18:38:59","新北市淡水區北新路121號","121.448966666667","25.178675","6501000","淡水區"
"251006","561-UM","2019/06/24 18:39:10","新北市淡水區中山北路二段200號","121.444251666667","25.1860933333333","6501000","淡水區"
"251014","577-R6","2019/06/24 18:38:54","新北市淡水區崙頂12-8號","121.495658333333","25.2172216666667","6501000","淡水區"
"251011","650-BX","2019/06/24 18:39:03","新北市淡水區中正東路8-8號","121.447883333333","25.1667733333333","6501000","淡水區"
"251003","673-BX","2019/06/24 18:38:56","新北市淡水區北新路69巷26號","121.44664","25.1800483333333","6501000","淡水區"
"207003","550-UM","2019/06/24 18:38:56","新北市萬里區野柳里八斗60-1號","121.676231666667","25.20073","6502800","萬里區"
"207004","225-TW","2019/06/24 18:39:09","新北市萬里區萬里里獅頭路7號","121.691805","25.17823","6502800","萬里區"
"252002","178-VK","2019/06/24 18:39:02","新北市三芝區民生街64巷8號","121.503578333333","25.2552216666667","6502100","三芝區"
"252003","249-BX","2019/06/24 18:38:59","新北市三芝區後厝里土地公坑55號","121.461958333333","25.2481233333333","6502100","三芝區"
"208001","170-UY","2019/06/24 18:38:53","新北市金山區文化三路7號","121.635115","25.224905","6502700","金山區"
"237004","KEA-2597","2019/06/24 18:39:03","新北市三峽區插角43號","121.405191666667","24.871925","6500900","三峽區"
"237007","153-BY","2019/06/24 18:38:57","新北市三峽區柑樹路9號","121.362091666667","24.9062033333333","6500900","三峽區"
"237009","210-TH","2019/06/24 18:39:12","新北市三峽區大同路311號","121.363335","24.92473","6500900","三峽區"
"237013","252-BX","2019/06/24 18:39:12","新北市三峽區光明路69巷25號","121.376751666667","24.92913","6500900","三峽區"
"237012","275-BY","2019/06/24 18:39:00","新北市三峽區三樹路302號","121.380863333333","24.9438766666667","6500900","三峽區"
"237014","433-BY","2019/06/24 18:38:55","新北市三峽區復興路480巷28號","121.359253333333","24.939105","6500900","三峽區"
"237008","280-TH","2019/06/24 18:38:59","新北市三峽區白雞38-2號","121.37389","24.91246","6500900","三峽區"
"237006","5529-G3","2019/06/24 18:38:57","新北市三峽區溪東路371巷2弄2號","121.411958333333","24.9296166666667","6500900","三峽區"
"237011","KEA-2596","2019/06/24 18:38:51","新北市三峽區溪東路426-1號","121.415331666667","24.9276633333333","6500900","三峽區"
"237015","649-BX","2019/06/24 18:39:11","新北市三峽區成福路311號","121.42928","24.9237083333333","6500900","三峽區"
"237010","706-TV","2019/06/24 18:38:55","新北市三峽區復興路485號","121.361286666667","24.9384416666667","6500900","三峽區"
"237005","AKY-6261","2019/06/24 18:38:56","新北市三峽區復興路15號","121.373895","24.9361816666667","6500900","三峽區"
"236042","KED-0685","2019/06/24 18:39:05","新北市土城區學成路94巷9弄2號","121.450673333333","24.989445","6501300","土城區"
"236078","166-UM","2019/06/24 18:39:08","新北市土城區頂埔街47號","121.417096666667","24.959125","6501300","土城區"
"236030","253-BX","2019/06/24 18:38:59","新北市土城區福仁街65號","121.439555","24.974625","6501300","土城區"
"236026","269-VK","2019/06/24 18:39:05","新北市土城區千歲路28巷6-1號","121.441383333333","24.968655","6501300","土城區"
"236014","270-VK","2019/06/24 18:38:56","新北市土城區青雲路183巷18號","121.459766666667","24.982695","6501300","土城區"
"236039","271-VK","2019/06/24 18:39:11","新北市土城區明德路一段247巷10號","121.46272","24.9778216666667","6501300","土城區"
"236069","KEA-2877","2019/06/24 18:39:02","新北市土城區永豐路157巷29弄6-1號","121.468343333333","24.9814816666667","6501300","土城區"
"252001","KED-0821","2019/06/24 18:39:04","新北市三芝區中興街二段260號","121.501853333333","25.2529233333333","6502100","三芝區"
"236020","401-BY","2019/06/24 18:39:04","新北市土城區明德路一段51號","121.465193333333","24.9847016666667","6501300","土城區"
"236059","912-UM","2019/06/24 18:39:01","新北市土城區中央路四段11號","121.425366666667","24.9627333333333","6501300","土城區"
"236048","913-UM","2019/06/24 18:39:01","新北市土城區金城路二段253號","121.463495","24.9857833333333","6501300","土城區"
"236063","915-UM","2019/06/24 18:39:06","新北市土城區延壽路23號","121.471096666667","24.9908216666667","6501300","土城區"
"236055","AAC-216","2019/06/24 18:39:11","新北市土城區裕民路31號","121.448136666667","24.9884416666667","6501300","土城區"
"242060","986-R7","2019/06/24 18:39:11","新北市新莊區富國路176巷7號","121.424165","25.0240966666667","6500500","新莊區"
"242058","612-BX","2019/06/24 18:39:03","新北市新莊區中正路881-13號","121.417215","25.0251733333333","6500500","新莊區"
"242056","441-UM","2019/06/24 18:39:09","新北市新莊區瓊林路59-89號","121.442253333333","25.024415","6500500","新莊區"
"242031","347-TH","2019/06/24 18:39:08","新北市新莊區新泰路357巷1弄2號","121.442718333333","25.04131","6500500","新莊區"
"242007","349-TH","2019/06/24 18:38:55","新北市新莊區瓊林路59-56號","121.444918333333","25.02632","6500500","新莊區"
"242017","351-TH","2019/06/24 18:38:55","新北市樹林區中山路三段210-2號","121.380841666667","24.96705","6500500","新莊區"
"238023","601-UM","2019/06/24 18:39:07","新北市樹林區三福街114號","121.406415","25.0163283333333","6500700","樹林區"
"238019","599-UM","2019/06/24 18:38:50","新北市樹林區中華路190-16號","121.411753333333","24.98061","6500700","樹林區"
"238024","5061-A6","2019/06/24 18:38:56","新北市樹林區中山路二段162號","121.411893333333","24.982905","6500700","樹林區"
"238018","KEA-2217","2019/06/24 18:39:04","新北市樹林區鎮前街25號","121.425806666667","24.9924466666667","6500700","樹林區"
"238022","KEA-2213","2019/06/24 18:15:36","新北市樹林區中山路三段337-1號","121.390571666667","24.971095","6500700","樹林區"
"238025","303-VK","2019/06/24 18:39:07","新北市樹林區中山路三段22號","121.395616666667","24.9729283333333","6500700","樹林區"
"238020","268-VK","2019/06/24 18:39:12","新北市樹林區俊安街24巷9號","121.418966666667","25.013695","6500700","樹林區"
"238026","172-UY","2019/06/24 18:38:52","新北市樹林區育德街78-1號","121.387596666667","24.9681566666667","6500700","樹林區"
"238016","169-UY","2019/06/24 18:38:56","新北市樹林區中山路一段412號","121.41745","24.98506","6500700","樹林區"
"239007","AAC-297","2019/06/24 18:39:08","新北市鶯歌區中正一路461-2號","121.363165","24.9567316666667","6500800","鶯歌區"
"239008","527-UM","2019/06/24 18:13:18","新北市鶯歌區二甲路13-16號","121.345001666667","24.935165","6500800","鶯歌區"
"239005","526-UM","2019/06/24 18:38:52","新北市鶯歌區鶯桃路670號","121.32883","24.96946","6500800","鶯歌區"
"239001","417-VK","2019/06/24 18:38:52","新北市鶯歌區二橋街80號","121.33707","24.9383733333333","6500800","鶯歌區"
"239003","360-BY","2019/06/24 18:39:06","新北市鶯歌區永和街116號","121.334675","24.96924","6500800","鶯歌區"
"239004","193-VK","2019/06/24 18:38:55","新北市鶯歌區尖山路242號","121.342863333333","24.9467483333333","6500800","鶯歌區"
"221036","130-UY","2019/06/24 18:38:54","新北市汐止區長安路85號","121.669428333333","25.0784466666667","6501100","汐止區"
"221015","131-UY","2019/06/24 18:39:08","新北市汐止區鄉長路二段23巷10號","121.667398333333","25.083005","6501100","汐止區"
"221010","269-BY","2019/06/24 18:39:07","新北市汐止區瑞松街49巷6號","121.64539","25.1071116666667","6501100","汐止區"
"221012","278-VK","2019/06/24 18:39:02","新北市汐止區保長路51巷1號","121.673258333333","25.0788933333333","6501100","汐止區"
"221023","279-VK","2019/06/24 18:38:57","新北市汐止區康寧街541巷14號","121.633748333333","25.0693666666667","6501100","汐止區"
"221032","280-BY","2019/06/24 18:38:55","新北市汐止區福山街58巷16號","121.617983333333","25.0460266666667","6501100","汐止區"
"221029","298-VK","2019/06/24 18:38:56","新北市汐止區樟樹一路127號","121.642008333333","25.0648716666667","6501100","汐止區"
"221021","299-VK","2019/06/24 18:39:02","新北市汐止區連興街122號","121.653683333333","25.0622216666667","6501100","汐止區"
"221031","353-TW","2019/06/24 18:38:52","新北市汐止區大同路一段166號","121.633951666667","25.057165","6501100","汐止區"
"221035","622-UM","2019/06/24 18:39:01","新北市汐止區大同路二段189號","121.652223333333","25.0643816666667","6501100","汐止區"
"221033","647-BX","2019/06/24 18:39:08","新北市汐止區宜興街1號","121.620863333333","25.0411883333333","6501100","汐止區"
"221002","707-TV","2019/06/24 18:39:09","新北市汐止區中興路3號","121.637291666667","25.059065","6501100","汐止區"
"221018","753-BX","2019/06/24 18:38:59","新北市汐止區茄苳路224巷3弄3號","121.670848333333","25.0683183333333","6501100","汐止區"
"220079","145-BY","2019/06/24 18:38:56","新北市板橋區大觀路一段51號","121.447606666667","25.00664","6500100","板橋區"
"220082","610-BX","2019/06/24 18:39:06","新北市板橋區大觀路二段431-1號","121.441636666667","24.9949183333333","6500100","板橋區"
"220101","245-BX","2019/06/24 18:39:12","新北市板橋區民生路二段161巷1號","121.470183333333","25.01993","6500100","板橋區"
"224002","257-TC","2019/06/24 18:39:06","新北市瑞芳區國中新村29號","121.816883333333","25.107675","6501200","瑞芳區"
"220056","276-BY","2019/06/24 18:38:57","新北市板橋區南雅南路二段11-4號","121.454156666667","25.002435","6500100","板橋區"
"220071","283-VK","2019/06/24 18:39:00","新北市板橋區四川路二段241號","121.450583333333","24.9937133333333","6500100","板橋區"
"220094","285-UM","2019/06/24 18:39:05","新北市板橋區民生路二段161巷5號","121.470213333333","25.0197066666667","6500100","板橋區"
"220083","286-VK","2019/06/24 18:39:04","新北市板橋區板城路421號","121.448248333333","24.9957616666667","6500100","板橋區"
"220090","288-VK","2019/06/24 18:38:57","新北市板橋區民生路二段120號","121.470415","25.0197","6500100","板橋區"
"220084","296-UM","2019/06/24 18:39:12","新北市板橋區大觀路二段179巷34號","121.446301666667","24.9994983333333","6500100","板橋區"
"242044","281-VK","2019/06/24 18:38:57","新北市新莊區中正路新旺巷30弄1號","121.416081666667","25.02279","6500500","新莊區"
"220062","305-R5","2019/06/24 18:39:01","新北市板橋區民生路二段148號","121.471526666667","25.0195533333333","6500100","板橋區"
"220092","307-R5","2019/06/24 18:38:58","新北市板橋區民生路二段120號","121.470596666667","25.01945","6500100","板橋區"
"220089","487-VK","2019/06/24 18:39:02","新北市板橋區民生路二段161巷1號","121.469916666667","25.02005","6500100","板橋區"
"220088","491-VK","2019/06/24 18:39:00","新北市板橋區民生路二段188號","121.470031666667","25.0202583333333","6500100","板橋區"
"220103","561-BX","2019/06/24 18:38:54","新北市板橋區民生路二段56-6號","121.470805","25.0189216666667","6500100","板橋區"
"220063","609-BX","2019/06/24 18:39:10","新北市板橋區民生路二段188號","121.469896666667","25.0204","6500100","板橋區"
"220035","630-UY","2019/06/24 18:39:00","新北市板橋區南雅西路二段145巷3號","121.451661666667","25.01161","6500100","板橋區"
"220091","637-BX","2019/06/24 18:38:50","新北市板橋區民生路二段161巷1號","121.470023333333","25.0199516666667","6500100","板橋區"
"220057","686-BX","2019/06/24 18:39:03","新北市板橋區館前西路4-1號","121.459283333333","25.0071066666667","6500100","板橋區"
"220093","689-BX","2019/06/24 18:38:58","新北市板橋區民生路二段161巷1號","121.470048333333","25.0200866666667","6500100","板橋區"
"220054","741-BX","2019/06/24 18:39:02","新北市板橋區南雅南路二段116號","121.45254","25.0005183333333","6500100","板橋區"
"220102","KEA-2699","2019/06/24 18:39:13","新北市板橋區民生路二段161巷1號","121.470136666667","25.020135","6500100","板橋區"
"220055","827-TW","2019/06/24 18:38:54","新北市板橋區忠孝路40號","121.460446666667","25.0018116666667","6500100","板橋區"
"220067","829-TW","2019/06/24 18:38:56","新北市板橋區民生路二段120號","121.470511666667","25.0201216666667","6500100","板橋區"
"220068","831-TW","2019/06/24 18:38:12","新北市板橋區三民路一段120號","121.47915","25.020715","6500100","板橋區"
"220073","985-R7","2019/06/24 18:39:01","新北市板橋區四川路二段28號","121.45435","24.9956766666667","6500100","板橋區"
"220097","AAC-210","2019/06/24 18:39:05","新北市板橋區民生路二段120號","121.470585","25.0194733333333","6500100","板橋區"
"220064","AAC-253","2019/06/24 18:38:56","新北市板橋區縣民大道二段68-1號","121.463301666667","25.01277","6500100","板橋區"
"235068","KEA-2873","2019/06/24 18:38:48","新北市中和區中正路194號","121.497388333333","24.9937283333333","6500300","中和區"
"235061","KEA-2875","2019/06/24 18:38:46","新北市中和區民享街30巷6號","121.473618333333","25.003525","6500300","中和區"
"235054","KEA-2876","2019/06/24 18:38:49","新北市中和區民享街54巷17號","121.47321","25.0023116666667","6500300","中和區"
