"lineid","car","time","location","longitude","latitude","cityid","cityname"
"234046","148-BY","2019/06/24 19:59:25","新北市永和區永元路126號","121.522815","25.00289","6500400","永和區"
"234038","336-UY","2019/06/24 19:59:35","新北市永和區成功路二段134號","121.526541666667","24.9974166666667","6500400","永和區"
"234064","337-UY","2019/06/24 19:59:27","新北市永和區中正路412巷19號","121.518616666667","25.0021233333333","6500400","永和區"
"234086","338-UY","2019/06/24 19:59:25","新北市永和區中正路513號","121.516895","25.0071666666667","6500400","永和區"
"234070","552-UM","2019/06/24 19:59:41","新北市永和區國光路29號","121.519565","25.0084283333333","6500400","永和區"
"234017","745-BX","2019/06/24 19:59:35","新北市永和區文化路53號","121.514263333333","25.0150516666667","6500400","永和區"
"234030","746-BX","2019/06/24 19:59:38","新北市永和區民生路22巷23號","121.521386666667","24.9969966666667","6500400","永和區"
"234054","KEA-2590","2019/06/24 19:59:37","新北市永和區環河東路一段122號","121.52068","25.015465","6500400","永和區"
"234007","KED-0605","2019/06/24 19:59:23","新北市永和區保生路22巷8號","121.507208333333","25.00795","6500400","永和區"
"234013","KEA-2591","2019/06/24 19:59:34","新北市永和區保生路55號","121.504733333333","25.0106033333333","6500400","永和區"
"234061","AAD-866","2019/06/24 19:59:31","新北市永和區中正路283巷31號","121.516343333333","24.999695","6500400","永和區"
"234081","748-BX","2019/06/24 19:59:25","新北市永和區永利路81巷2弄1號","121.521693333333","25.0036633333333","6500400","永和區"
"234042","862-TW","2019/06/24 19:59:32","新北市永和區雙和街17巷18號","121.508968333333","25.001635","6500400","永和區"
"234050","863-TW","2019/06/24 19:59:37","新北市永和區保安路244號","121.506478333333","25.012775","6500400","永和區"
"234026","9371-KE","2019/06/24 19:59:38","新北市永和區水源街21巷9號","121.511585","25.0042033333333","6500400","永和區"
"234011","9373-KE","2019/06/24 19:59:25","新北市永和區仁愛路352巷112弄10號","121.50114","25.0084583333333","6500400","永和區"
"249005","172-UM","2019/06/24 19:59:19","新北市八里區楓林路1-6號","121.387098333333","25.13152","6502300","八里區"
"249001","173-UM","2019/06/24 19:59:40","新北市八里區中華路二段310號","121.403875","25.1483333333333","6502300","八里區"
"249004","303-UY","2019/06/24 19:59:34","新北市八里區中華路一段333-1號","121.41315","25.154005","6502300","八里區"
"249002","305-UY","2019/06/24 19:59:42","新北市八里區頂寮一街52號","121.450466666667","25.1243316666667","6502300","八里區"
"249003","593-UM","2019/06/24 19:59:19","新北市八里區中華路二段560巷1號","121.398653333333","25.14503","6502300","八里區"
"248014","025-BX","2019/06/24 19:59:36","新北市五股區成泰路二段147巷23-15號","121.43772","25.087185","6501500","五股區"
"248016","026-BX","2019/06/24 19:59:31","新北市五股區成泰路三段577巷80弄7號","121.449513333333","25.1042983333333","6501500","五股區"
"248008","KED-0815","2019/06/24 19:59:26","新北市五股區四維路32號","121.467588333333","25.0715083333333","6501500","五股區"
"248018","KED-0813","2019/06/24 19:59:39","新北市五股區登林路118-11號","121.413546666667","25.0762366666667","6501500","五股區"
"248012","247-BX","2019/06/24 19:59:39","新北市五股區民義路一段138-1號","121.434035","25.0865283333333","6501500","五股區"
"248004","677-BX","2019/06/24 19:59:25","新北市五股區成泰路一段59-1號","121.434411666667","25.06746","6501500","五股區"
"248002","678-BX","2019/06/24 19:59:37","新北市五股區成泰路三段521號","121.451431666667","25.100585","6501500","五股區"
"248010","682-TV","2019/06/24 19:59:40","新北市五股區登林路46巷2號","121.432091666667","25.0686533333333","6501500","五股區"
"234023","9380-KE","2019/06/24 19:59:24","新北市永和區豫溪街39號","121.516796666667","25.00992","6500400","永和區"
"234077","969-R7","2019/06/24 19:59:24","新北市永和區民有街28號","121.516828333333","24.996355","6500400","永和區"
"234074","AAC-211","2019/06/24 19:59:29","新北市永和區豫溪街207巷2號","121.523796666667","25.0095533333333","6500400","永和區"
"234067","AAC-212","2019/06/24 19:59:24","新北市永和區永貞路356號","121.51024","25.0065033333333","6500400","永和區"
"234003","AAC-295","2019/06/24 19:59:29","新北市永和區中正路708號","121.516073333333","25.0099066666667","6500400","永和區"
"243012","AAD-798","2019/06/24 19:59:29","新北市泰山區全興路13號","121.432276666667","25.0589583333333","6501600","泰山區"
"243010","297-R6","2019/06/24 19:59:28","新北市泰山區民生路11號","121.429666666667","25.05268","6501600","泰山區"
"243014","KEA-2801","2019/06/24 19:59:36","新北市泰山區泰林路二段29號","121.43591","25.0567883333333","6501600","泰山區"
"243016","421-VK","2019/06/24 19:59:23","新北市泰山區貴陽街3號","121.421058333333","25.033495","6501600","泰山區"
"243009","KEA-2215","2019/06/24 19:59:26","新北市泰山區楓江路16巷19號","121.433983333333","25.0615866666667","6501600","泰山區"
"243011","KEA-2216","2019/06/24 19:59:31","新北市泰山區工專路65號","121.42213","25.0404783333333","6501600","泰山區"
"222003","436-BY","2019/06/24 19:59:38","新北市深坑區埔新街14號","121.62074","25.0039166666667","6501800","深坑區"
"222002","659-BX","2019/06/24 19:59:33","新北市深坑區北深路二段81巷8弄1號","121.618368333333","25.0030216666667","6501800","深坑區"
"231060","001-UM","2019/06/24 19:59:36","新北市新店區安康路二段352號","121.50232","24.9574716666667","6500600","新店區"
"231061","002-UM","2019/06/24 19:59:30","新北市新店區安民街254號","121.517671666667","24.97327","6500600","新店區"
"231059","046-UY","2019/06/24 19:59:37","新北市新店區安和路一段52巷2-1號","121.517586666667","24.966485","6500600","新店區"
"231051","107-UY","2019/06/24 19:59:28","新北市新店區中央五街17號","121.529505","24.9744733333333","6500600","新店區"
"231049","108-UY","2019/06/24 19:59:40","新北市新店區建國路222號","121.537698333333","24.9813466666667","6500600","新店區"
"231065","110-UY","2019/06/24 19:59:37","新北市新店區安祥路106巷155號","121.473588333333","24.9590583333333","6500600","新店區"
"231068","187-VK","2019/06/24 19:59:38","新北市新店區安一路一段1-1號","121.519805","24.961785","6500600","新店區"
"221025","KEA-2785","2019/06/24 19:59:35","新北市汐止區秀峰路81巷48號","121.661781666667","25.064835","6501100","汐止區"
"231062","256-BX","2019/06/24 19:59:37","新北市新店區華城路36巷1號","121.52783","24.95534","6500600","新店區"
"231054","260-TV","2019/06/24 19:59:32","新北市新店區光明街183號","121.539968333333","24.963085","6500600","新店區"
"231042","268-BY","2019/06/24 19:59:30","新北市新店區中興路二段25號","121.546038333333","24.9694766666667","6500600","新店區"
"231064","278-BY","2019/06/24 19:59:42","新北市新店區安光路10-1號","121.513843333333","24.9639466666667","6500600","新店區"
"231050","AAD-862","2019/06/24 19:59:31","新北市新店區北宜路二段445號","121.561291666667","24.9541933333333","6500600","新店區"
"231045","355-BY","2019/06/24 19:59:21","新北市新店區北宜路二段461號","121.561656666667","24.9540883333333","6500600","新店區"
"231058","3713-VJ","2019/06/24 19:59:09","新北市新店區安康路二段320巷15弄2號","121.503641666667","24.95957","6500600","新店區"
"231055","4716-K9","2019/06/24 19:59:23","新北市新店區新生街5巷17號","121.539645","24.9655916666667","6500600","新店區"
"231056","4715-K9","2019/06/24 19:59:35","新北市新店區北新路二段29巷1弄2號","121.542526666667","24.97256","6500600","新店區"
"231067","4772-VM","2019/06/24 19:59:26","新北市新店區秀山路11巷16號","121.531731666667","24.95914","6500600","新店區"
"231052","513-UM","2019/06/24 19:59:22","新北市新店區新烏路三段251號","121.546325","24.8953183333333","6500600","新店區"
"231040","617-UM","2019/06/24 19:59:38","新北市新店區中正路75巷71號","121.543183333333","24.9688733333333","6500600","新店區"
"231041","619-UM","2019/06/24 19:59:32","新北市新店區民族路192號","121.535993333333","24.9754683333333","6500600","新店區"
"231063","641-BX","2019/06/24 19:59:26","新北市新店區車子路11號","121.50307","24.9520883333333","6500600","新店區"
"231047","KED-0819","2019/06/24 19:59:38","新北市新店區寶宏路5號","121.549316666667","24.9762133333333","6500600","新店區"
"231057","720-UM","2019/06/24 19:59:26","新北市新店區花園二路一段11號","121.555448333333","24.93255","6500600","新店區"
"231044","897-TW","2019/06/24 19:59:31","新北市新店區復興路27號","121.539","24.9867216666667","6500600","新店區"
"231043","899-TW","2019/06/24 19:59:36","新北市新店區中正路263-3號","121.538386666667","24.9738416666667","6500600","新店區"
"231066","AKT-0513","2019/06/24 19:59:41","新北市新店區安康路二段341巷38號","121.496641666667","24.9543483333333","6500600","新店區"
"241011","013-R5","2019/06/24 19:59:23","新北市三重區介壽路3-1號","121.498955","25.0690733333333","6500200","三重區"
"241028","022-UY","2019/06/24 19:59:29","新北市三重區中正南路47號","121.493955","25.0596066666667","6500200","三重區"
"241008","059-VK","2019/06/24 19:59:37","新北市三重區力行路二段136巷49弄3號","121.47961","25.0752366666667","6500200","三重區"
"241012","060-VK","2019/06/24 19:59:37","新北市三重區仁厚街1-1號","121.499115","25.07604","6500200","三重區"
"241031","061-VK","2019/06/24 19:59:30","新北市三重區重新路四段184巷16號","121.487083333333","25.0549283333333","6500200","三重區"
"241015","062-VK","2019/06/24 19:59:23","新北市三重區三和路二段8號","121.501056666667","25.0669033333333","6500200","三重區"
"241017","063-VK","2019/06/24 19:59:32","新北市三重區重陽路三段188號","121.490278333333","25.0682383333333","6500200","三重區"
"241024","065-VK","2019/06/24 19:59:29","新北市三重區大勇街51號","121.481335","25.0717083333333","6500200","三重區"
"241001","066-VK","2019/06/24 19:59:30","新北市三重區福隆路10號","121.490071666667","25.0773466666667","6500200","三重區"
"241003","091-VK","2019/06/24 19:59:35","新北市三重區仁愛街466號","121.489921666667","25.0822766666667","6500200","三重區"
"241005","262-UM","2019/06/24 19:59:29","新北市三重區溪尾街325巷32號","121.488631666667","25.08345","6500200","三重區"
"241016","266-UM","2019/06/24 19:59:34","新北市三重區正義北路36巷21號","121.496571666667","25.0634283333333","6500200","三重區"
"241009","267-UM","2019/06/24 19:59:27","新北市三重區三和路四段390巷8號","121.481651666667","25.0789683333333","6500200","三重區"
"241018","268-UM","2019/06/24 19:59:30","新北市三重區正義北路244巷26號","121.495366666667","25.0679616666667","6500200","三重區"
"241032","269-UM","2019/06/24 19:59:24","新北市三重區捷運路37巷32號","121.483811666667","25.0575216666667","6500200","三重區"
"241013","270-UM","2019/06/24 19:59:22","新北市三重區三和路三段125巷42號","121.4941","25.0737666666667","6500200","三重區"
"241025","271-UM","2019/06/24 19:59:38","新北市三重區頂崁街210巷11號","121.476505","25.0678383333333","6500200","三重區"
"241007","398-BY","2019/06/24 19:59:38","新北市三重區慈愛街81號","121.487195","25.0794483333333","6500200","三重區"
"241035","462-BY","2019/06/24 19:59:26","新北市三重區大榮街7號","121.4982","25.0630733333333","6500200","三重區"
"241004","475-VK","2019/06/24 19:59:30","新北市三重區仁愛街425巷95號","121.492293333333","25.0827016666667","6500200","三重區"
"241020","478-VK","2019/06/24 19:59:35","新北市三重區後竹圍街88號","121.489506666667","25.0729216666667","6500200","三重區"
"241026","480-VK","2019/06/24 19:59:37","新北市三重區仁慈街14號","121.501801666667","25.06316","6500200","三重區"
"241014","543-UM","2019/06/24 19:59:26","新北市三重區三和路二段103號","121.499506666667","25.0684833333333","6500200","三重區"
"241006","AAD-863","2019/06/24 19:59:23","新北市三重區力行路二段138-1號","121.482486666667","25.0758333333333","6500200","三重區"
"241019","743-BX","2019/06/24 19:59:38","新北市三重區大智街117號","121.491318333333","25.07008","6500200","三重區"
"241022","KED-0820","2019/06/24 19:59:39","新北市三重區過圳街19號","121.488705","25.060455","6500200","三重區"
"241029","942-UM","2019/06/24 19:59:31","新北市三重區重安街1號","121.489896666667","25.0582816666667","6500200","三重區"
"241033","AAC-255","2019/06/24 19:59:20","新北市三重區中興北街20號","121.469621666667","25.0484883333333","6500200","三重區"
"235066","003-UY","2019/06/24 19:59:40","新北市中和區光華街28號","121.504641666667","25.00417","6500300","中和區"
"235056","096-UM","2019/06/24 19:59:31","新北市中和區中山路三段170巷4弄25號","121.473341666667","25.007155","6500300","中和區"
"235039","097-UM","2019/06/24 19:59:32","新北市中和區景平路278巷16弄24號","121.514345","24.993825","6500300","中和區"
"235065","098-UM","2019/06/24 19:59:25","新北市中和區福美路269號","121.498125","25.0050066666667","6500300","中和區"
"235040","150-BY","2019/06/24 19:59:24","新北市中和區保健路19巷5號","121.50819","24.9983966666667","6500300","中和區"
"235055","183-VK","2019/06/24 19:59:24","新北市中和區中山路三段218號","121.471355","25.006535","6500300","中和區"
"235067","255-BX","2019/06/24 19:59:27","新北市中和區民樂路81號","121.484745","25.0013466666667","6500300","中和區"
"235044","293-VK","2019/06/24 19:59:33","新北市中和區中興街118巷2號","121.500135","24.99326","6500300","中和區"
"247014","KEA-2869","2019/06/24 19:59:27","新北市蘆洲區成功路156號","121.471643333333","25.0832233333333","6501400","蘆洲區"
"247008","KED-0682","2019/06/24 19:59:21","新北市蘆洲區信義路109號","121.478295","25.0800516666667","6501400","蘆洲區"
"235050","4979-A6","2019/06/24 19:59:32","新北市中和區景平路241巷64弄9號","121.50752","24.99239","6500300","中和區"
"235070","558-UM","2019/06/24 19:59:26","新北市中和區中正路244號","121.495883333333","24.9940133333333","6500300","中和區"
"235047","732-UM","2019/06/24 19:59:23","新北市中和區和平街108號","121.507131666667","24.991395","6500300","中和區"
"235046","733-UM","2019/06/24 19:59:31","新北市中和區興南路一段105巷20弄5號","121.510288333333","24.9855433333333","6500300","中和區"
"235026","800-TS","2019/06/24 19:34:39","新北市中和區員山路36巷16-3號","121.484993333333","24.9913616666667","6500300","中和區"
"235052","805-TS","2019/06/24 19:59:26","新北市中和區華新街30巷18號","121.506721666667","24.9841733333333","6500300","中和區"
"235048","896-TW","2019/06/24 19:59:33","新北市中和區景新街568-1號","121.514741666667","24.9866066666667","6500300","中和區"
"235051","157-BY","2019/06/24 19:59:22","新北市中和區景安路247巷18號","121.504375","24.9905333333333","6500300","中和區"
"235037","AAC-213","2019/06/24 19:59:26","新北市中和區秀朗路三段128巷17弄41號","121.522913333333","24.9931633333333","6500300","中和區"
"235059","AAC-215","2019/06/24 19:59:24","新北市中和區圓通路305巷5弄19號","121.494221666667","24.9903183333333","6500300","中和區"
"220065","072-UY","2019/06/24 19:59:32","新北市板橋區民族路229號","121.469746666667","25.0071716666667","6500100","板橋區"
"220086","073-UY","2019/06/24 19:59:39","新北市板橋區光華街2號","121.454355","25.0111883333333","6500100","板橋區"
"220106","075-UY","2019/06/24 19:59:37","新北市板橋區文化路二段548巷8弄13號","121.476385","25.0332283333333","6500100","板橋區"
"220069","AAD-861","2019/06/24 19:59:28","新北市板橋區大明街25巷2弄25號","121.457373333333","25.0025633333333","6500100","板橋區"
"247004","893-R6","2019/06/24 19:59:39","新北市蘆洲區長安街198號","121.458678333333","25.0840983333333","6501400","蘆洲區"
"247018","546-UM","2019/06/24 19:59:38","新北市蘆洲區民族路290巷11號","121.478413333333","25.0899283333333","6501400","蘆洲區"
"247024","337-TH","2019/06/24 19:59:21","新北市蘆洲區光榮路120巷8弄35號","121.46479","25.0880016666667","6501400","蘆洲區"
"247002","336-TH","2019/06/24 19:59:38","新北市蘆洲區長安街274巷4號","121.457656666667","25.0870116666667","6501400","蘆洲區"
"247012","056-VK","2019/06/24 19:59:36","新北市蘆洲區民族路151號","121.479561666667","25.0879883333333","6501400","蘆洲區"
"247016","053-VK","2019/06/24 19:59:28","新北市蘆洲區中正路87號","121.470011666667","25.0837866666667","6501400","蘆洲區"
"247020","007-UY","2019/06/24 19:59:21","新北市蘆洲區民義街53號","121.472758333333","25.08976","6501400","蘆洲區"
"247006","002-UY","2019/06/24 19:59:33","新北市蘆洲區九芎街108號","121.465468333333","25.0796166666667","6501400","蘆洲區"
"226004","312-R5","2019/06/24 19:59:27","新北市平溪區十分里十分街129號","121.77688","25.0431533333333","6502400","平溪區"
"228003","097-TW","2019/06/24 19:59:35","新北市貢寮區仁理村仁和路268號","121.9242","25.05446","6502600","貢寮區"
"227002","642-TC","2019/06/24 19:59:27","新北市雙溪區雙溪里長安街16號","121.864961666667","25.0347","6502500","雙溪區"
"227001","400-TW","2019/06/24 19:59:21","新北市雙溪區新基里新基南街25號","121.86624","25.0381516666667","6502500","雙溪區"
"222001","KEA-2212","2019/06/24 19:59:29","新北市深坑區北深路三段172號","121.602186666667","25.0035933333333","6501800","深坑區"
"208002","KEA-2872","2019/06/24 19:59:29","新北市金山區環金路59號","121.638696666667","25.21726","6502700","金山區"
"208003","665-BX","2019/06/24 19:59:31","新北市金山區香園6號","121.634291666667","25.24729","6502700","金山區"
"251009","008-UM","2019/06/24 19:59:34","新北市淡水區英專路21巷19號","121.444886666667","25.16972","6501000","淡水區"
"251004","009-UM","2019/06/24 19:59:34","新北市淡水區民權路173巷15號","121.460701666667","25.1355466666667","6501000","淡水區"
"251005","010-UM","2019/06/24 19:59:24","新北市淡水區學府路136巷14號","121.451055","25.1727266666667","6501000","淡水區"
"251001","011-UM","2019/06/24 19:59:30","新北市淡水區淡金路一段166-5號","121.453978333333","25.1800116666667","6501000","淡水區"
"251002","012-UM","2019/06/24 19:59:34","新北市淡水區新市二路三段16號","121.43162","25.1937616666667","6501000","淡水區"
"251015","KEA-2871","2019/06/24 19:59:35","新北市三芝區興華里田心子26號","121.492553333333","25.1954766666667","6501000","淡水區"
"251016","179-VK","2019/06/24 19:59:28","新北市淡水區淡金路四段499號","121.451728333333","25.2279733333333","6501000","淡水區"
"251008","181-VK","2019/06/24 19:59:23","新北市淡水區淡海路63巷18號","121.422533333333","25.1805833333333","6501000","淡水區"
"251013","182-VK","2019/06/24 19:59:28","新北市淡水區奎柔山路67號","121.451901666667","25.2059633333333","6501000","淡水區"
"251012","441-VK","2019/06/24 19:59:39","新北市淡水區下圭柔山93號","121.43595","25.2090566666667","6501000","淡水區"
"251006","561-UM","2019/06/24 19:59:30","新北市淡水區水碓街39號","121.444035","25.1773533333333","6501000","淡水區"
"251014","577-R6","2019/06/24 19:59:34","新北市淡水區石頭厝2-1號","121.457858333333","25.2358266666667","6501000","淡水區"
"251011","650-BX","2019/06/24 19:59:30","新北市淡水區淡金路二段509號","121.447051666667","25.1898166666667","6501000","淡水區"
"207003","550-UM","2019/06/24 19:59:36","新北市萬里區大鵬里萬里加投61-1號","121.642355","25.2124033333333","6502800","萬里區"
"207004","225-TW","2019/06/24 19:59:39","新北市萬里區北基里忠一街1號","121.68679","25.1763366666667","6502800","萬里區"
"252002","178-VK","2019/06/24 19:59:22","新北市三芝區忠孝街116-3號","121.505468333333","25.2575483333333","6502100","三芝區"
"208001","170-UY","2019/06/24 19:59:41","新北市金山區南勢湖11號","121.62137","25.2193133333333","6502700","金山區"
"237004","KEA-2597","2019/06/24 19:59:22","新北市三峽區添福15-32號","121.37252","24.90478","6500900","三峽區"
"237009","210-TH","2019/06/24 19:59:32","新北市三峽區民族街76號","121.369523333333","24.9299083333333","6500900","三峽區"
"237012","275-BY","2019/06/24 19:59:19","新北市三峽區光明路10號","121.37317","24.93116","6500900","三峽區"
"237014","433-BY","2019/06/24 19:59:35","新北市三峽區正義街11號","121.369976666667","24.9199733333333","6500900","三峽區"
"237008","280-TH","2019/06/24 19:59:27","新北市三峽區中華路63巷6號","121.372496666667","24.9302033333333","6500900","三峽區"
"237006","5529-G3","2019/06/24 19:59:18","新北市三峽區中正路二段136號","121.366208333333","24.9165183333333","6500900","三峽區"
"237015","649-BX","2019/06/24 19:59:31","新北市三峽區介壽路二段138巷1弄5-2號","121.39616","24.9340816666667","6500900","三峽區"
"237005","AKY-6261","2019/06/24 19:59:36","新北市三峽區民生街1巷29-7號","121.381923333333","24.9325933333333","6500900","三峽區"
"236042","KED-0685","2019/06/24 19:59:39","新北市土城區學府路一段98巷22號","121.455613333333","24.9887683333333","6501300","土城區"
"236078","166-UM","2019/06/24 19:59:28","新北市土城區福安街53號","121.418586666667","24.964395","6501300","土城區"
"236030","253-BX","2019/06/24 19:59:38","新北市土城區中央路一段252號","121.444231666667","24.9846583333333","6501300","土城區"
"236026","269-VK","2019/06/24 19:59:25","新北市土城區員林街5號","121.442593333333","24.9780716666667","6501300","土城區"
"236039","271-VK","2019/06/24 19:59:19","新北市土城區國際路150號","121.467843333333","24.9761366666667","6501300","土城區"
"247010","KED-0683","2019/06/24 19:59:25","新北市三重區集賢路188號","121.48383","25.087945","6501400","蘆洲區"
"236069","KEA-2877","2019/06/24 19:59:23","新北市土城區忠義路55巷75號","121.442288333333","24.9659016666667","6501300","土城區"
"252001","KED-0821","2019/06/24 19:59:24","新北市三芝區公正街9號","121.499786666667","25.2574883333333","6502100","三芝區"
"236020","401-BY","2019/06/24 19:59:24","新北市土城區延吉街64號","121.471361666667","24.986765","6501300","土城區"
"236059","912-UM","2019/06/24 19:59:41","新北市土城區中央路一段304號","121.44331","24.9818633333333","6501300","土城區"
"236048","913-UM","2019/06/24 19:59:21","新北市中和區連城路534巷2號","121.475426666667","24.9912533333333","6501300","土城區"
"236063","915-UM","2019/06/24 19:59:26","新北市土城區金城路三段163巷18號","121.468936666667","24.9893016666667","6501300","土城區"
"236055","AAC-216","2019/06/24 19:59:37","新北市土城區學府路一段8號","121.45946","24.988455","6501300","土城區"
"242039","AAC-296","2019/06/24 19:59:28","新北市新莊區民安路299巷19號","121.428903333333","25.02304","6500500","新莊區"
"242060","986-R7","2019/06/24 19:59:34","新北市新莊區瓊泰路3號","121.444915","25.02862","6500500","新莊區"
"242002","751-BX","2019/06/24 19:59:36","新北市新莊區新泰路107號","121.448921666667","25.0350466666667","6500500","新莊區"
"242029","615-BX","2019/06/24 19:59:40","新北市新莊區中榮街152巷18號","121.44593","25.0534716666667","6500500","新莊區"
"242058","612-BX","2019/06/24 19:59:37","新北市新莊區八德街100號","121.424266666667","25.0213583333333","6500500","新莊區"
"242056","441-UM","2019/06/24 19:59:29","新北市新莊區中正路347巷19號","121.447148333333","25.034225","6500500","新莊區"
"242004","440-UM","2019/06/24 19:59:35","新北市新莊區化成路328號","121.465721666667","25.0487383333333","6500500","新莊區"
"242011","413-TV","2019/06/24 19:59:35","新北市新莊區中港路531巷122號","121.449986666667","25.0515016666667","6500500","新莊區"
"242025","362-BY","2019/06/24 19:59:23","新北市新莊區五工二路86巷23號","121.46012","25.0670733333333","6500500","新莊區"
"242023","353-BY","2019/06/24 19:59:28","新北市新莊區化成路372號","121.465826666667","25.0497533333333","6500500","新莊區"
"242013","132-UY","2019/06/24 19:59:31","新北市新莊區中港路415號","121.452171666667","25.047485","6500500","新莊區"
"242036","135-UY","2019/06/24 19:59:29","新北市新莊區建安街39號","121.42895","25.0255366666667","6500500","新莊區"
"242053","172-VK","2019/06/24 19:59:36","新北市新莊區西盛街422號","121.427138333333","25.0121","6500500","新莊區"
"242015","173-VK","2019/06/24 19:59:28","新北市新莊區泰順街42號","121.447045","25.0428183333333","6500500","新莊區"
"242048","175-VK","2019/06/24 19:59:32","新北市新莊區四維路126巷6號","121.422995","25.0242533333333","6500500","新莊區"
"242034","176-VK","2019/06/24 19:59:38","新北市新莊區建中街92號","121.446915","25.0365983333333","6500500","新莊區"
"242019","KED-0687","2019/06/24 19:59:39","新北市新莊區中港路206巷2號","121.455236666667","25.0426216666667","6500500","新莊區"
"242021","346-TH","2019/06/24 19:59:34","新北市新莊區建中街16巷29號","121.448923333333","25.0385983333333","6500500","新莊區"
"242031","347-TH","2019/06/24 19:59:36","新北市新莊區公園一路38號","121.443335","25.0354766666667","6500500","新莊區"
"242007","349-TH","2019/06/24 19:59:38","新北市新莊區思源路595號","121.45954","25.0596683333333","6500500","新莊區"
"242050","350-TH","2019/06/24 19:59:38","新北市新莊區西盛街131號","121.428223333333","25.0186716666667","6500500","新莊區"
"242017","351-TH","2019/06/24 19:59:35","新北市新莊區中安街2-1號","121.452868333333","25.0452566666667","6500500","新莊區"
"238021","KEA-2539","2019/06/24 19:59:20","新北市樹林區田尾街192巷7號","121.400195","24.9493583333333","6500700","樹林區"
"238017","283-BY","2019/06/24 19:59:37","新北市樹林區保安街一段343號","121.416886666667","24.9991916666667","6500700","樹林區"
"239006","891-R6","2019/06/24 19:59:33","新北市鶯歌區文化路66號","121.356006666667","24.9544633333333","6500800","鶯歌區"
"221008","489-VK","2019/06/24 19:59:24","新北市汐止區康寧街141巷18號","121.621421666667","25.0674433333333","6501100","汐止區"
"221015","131-UY","2019/06/24 19:59:28","新北市汐止區橋東街18號","121.666446666667","25.07577","6501100","汐止區"
"221010","269-BY","2019/06/24 19:59:27","新北市汐止區汐萬路一段333巷1號","121.64993","25.076135","6501100","汐止區"
"221012","278-VK","2019/06/24 19:59:22","新北市汐止區保長路273巷1號","121.68111","25.0740366666667","6501100","汐止區"
"221023","279-VK","2019/06/24 19:59:37","新北市汐止區民族三街42號","121.62967","25.0700566666667","6501100","汐止區"
"221027","281-BY","2019/06/24 19:59:34","新北市汐止區中正路87號","121.66125","25.0694716666667","6501100","汐止區"
"221029","298-VK","2019/06/24 19:59:35","新北市汐止區樟樹一路137巷26號","121.640906666667","25.065915","6501100","汐止區"
"221021","299-VK","2019/06/24 19:59:22","新北市汐止區水源路一段175號","121.655171666667","25.0618666666667","6501100","汐止區"
"221031","353-TW","2019/06/24 19:59:31","新北市汐止區福德二路55巷6弄11號","121.63461","25.066435","6501100","汐止區"
"221035","622-UM","2019/06/24 19:59:35","新北市汐止區長江街11號","121.65471","25.07122","6501100","汐止區"
"221038","646-BX","2019/06/24 19:59:26","新北市汐止區忠孝東路456號","121.6661","25.0729266666667","6501100","汐止區"
"221033","647-BX","2019/06/24 19:59:28","新北市汐止區東勢街190巷3號","121.633878333333","25.0416083333333","6501100","汐止區"
"221018","753-BX","2019/06/24 19:59:38","新北市汐止區茄苳路25號","121.665351666667","25.07087","6501100","汐止區"
"220079","145-BY","2019/06/24 19:59:37","新北市板橋區民權路302巷7號","121.457333333333","25.016535","6500100","板橋區"
"220080","200-UY","2019/06/24 19:59:35","新北市板橋區大觀路二段69巷11號","121.447026666667","25.0022466666667","6500100","板橋區"
"220082","610-BX","2019/06/24 19:59:26","新北市板橋區存德街13號","121.43011","24.9919166666667","6500100","板橋區"
"220101","245-BX","2019/06/24 19:59:32","新北市板橋區萬板路126號","121.474993333333","25.0234133333333","6500100","板橋區"
"224002","257-TC","2019/06/24 19:59:37","新北市瑞芳區三爪子坑路333號","121.818745","25.1044583333333","6501200","瑞芳區"
"220056","276-BY","2019/06/24 19:59:37","新北市板橋區四川路二段99巷7號","121.452888333333","24.9942166666667","6500100","板橋區"
"220072","277-BY","2019/06/24 19:59:36","新北市板橋區金門街159號","121.432871666667","24.9904733333333","6500100","板橋區"
"220071","283-VK","2019/06/24 19:59:40","新北市板橋區五權街32巷22號","121.464093333333","24.99282","6500100","板橋區"
"220094","285-UM","2019/06/24 19:59:25","新北市板橋區文化路一段371號","121.466846666667","25.0216316666667","6500100","板橋區"
"220053","285-VK","2019/06/24 19:59:40","新北市板橋區永豐街169號","121.47567","25.020505","6500100","板橋區"
"220083","286-VK","2019/06/24 19:59:31","新北市板橋區僑中一街125巷6弄2號","121.445436666667","25.0113633333333","6500100","板橋區"
"220081","287-VK","2019/06/24 19:59:41","新北市板橋區大觀路一段29巷179弄32號","121.449763333333","25.0043","6500100","板橋區"
"220090","288-VK","2019/06/24 19:59:38","新北市板橋區新海路72巷5弄7號","121.461945","25.022385","6500100","板橋區"
"220061","293-UM","2019/06/24 19:59:27","新北市板橋區觀光街79巷2號","121.469388333333","25.0169283333333","6500100","板橋區"
"220084","296-UM","2019/06/24 19:59:32","新北市板橋區溪崑二街94號","121.426831666667","24.98918","6500100","板橋區"
"242044","281-VK","2019/06/24 19:59:35","新北市新莊區中正路746巷29號","121.410611666667","25.02453","6500500","新莊區"
"220075","303-R5","2019/06/24 19:59:25","新北市板橋區金華街12號","121.45597","25.020265","6500100","板橋區"
"220062","305-R5","2019/06/24 19:59:42","新北市板橋區中山路二段337號","121.479566666667","25.0189183333333","6500100","板橋區"
"220092","307-R5","2019/06/24 19:59:38","新北市板橋區光正街23巷46號","121.46164","25.0157283333333","6500100","板橋區"
"220098","317-R6","2019/06/24 19:59:28","新北市板橋區新海路385巷12號","121.458575","25.0257416666667","6500100","板橋區"
"220089","487-VK","2019/06/24 19:59:22","新北市板橋區四維路268號","121.463241666667","25.02852","6500100","板橋區"
"220088","491-VK","2019/06/24 19:59:21","新北市板橋區民治街57巷2號","121.479485","25.0333616666667","6500100","板橋區"
"220103","561-BX","2019/06/24 19:59:34","新北市板橋區新海路204號","121.461133333333","25.02356","6500100","板橋區"
"220063","609-BX","2019/06/24 19:59:30","新北市板橋區中山路二段84-5號","121.474896666667","25.01619","6500100","板橋區"
"220035","630-UY","2019/06/24 19:59:20","新北市板橋區金華街85巷42號","121.45919","25.02142","6500100","板橋區"
"220091","637-BX","2019/06/24 19:59:36","新北市板橋區文聖街89巷27號","121.478418333333","25.0307083333333","6500100","板橋區"
"220057","686-BX","2019/06/24 19:59:25","新北市板橋區四川路二段245巷12-2號","121.45089","24.9930416666667","6500100","板橋區"
"220077","687-BX","2019/06/24 19:59:33","新北市板橋區僑中一街150號","121.444951666667","25.0119066666667","6500100","板橋區"
"220093","689-BX","2019/06/24 19:59:38","新北市板橋區長江路一段36號","121.458246666667","25.0289","6500100","板橋區"
"220054","741-BX","2019/06/24 19:59:43","新北市板橋區忠孝路忠義巷9弄40號","121.465236666667","25.0045016666667","6500100","板橋區"
"220102","KEA-2699","2019/06/24 19:59:33","新北市板橋區莒光路40巷17弄7號","121.470511666667","25.0236633333333","6500100","板橋區"
"220055","827-TW","2019/06/24 19:59:34","新北市板橋區國慶路149巷38弄5號","121.461403333333","24.9981483333333","6500100","板橋區"
"220067","829-TW","2019/06/24 19:59:36","新北市板橋區漢生東路193巷73號","121.47246","25.0118766666667","6500100","板橋區"
"220068","831-TW","2019/06/24 19:59:22","新北市板橋區中山路二段489號","121.482485","25.0207566666667","6500100","板橋區"
"220074","895-R6","2019/06/24 19:59:35","新北市板橋區文化路一段46巷23號","121.460378333333","25.0115033333333","6500100","板橋區"
"220073","985-R7","2019/06/24 19:59:32","新北市板橋區南雅西路二段303號","121.452148333333","25.0156066666667","6500100","板橋區"
"220097","AAC-210","2019/06/24 19:59:26","新北市板橋區光正街45巷2弄11-1號","121.461318333333","25.0173033333333","6500100","板橋區"
"220064","AAC-253","2019/06/24 19:59:36","新北市板橋區區運路20號","121.465221666667","25.009285","6500100","板橋區"
"235068","KEA-2873","2019/06/24 19:59:18","新北市中和區中山路二段250巷22號","121.497356666667","25.00325","6500300","中和區"
