"lineid","car","time","location","longitude","latitude","cityid","cityname"
"231051","107-UY","2019/06/24 21:29:28","新北市中和區興南路二段342號","121.499063333333","24.9802166666667","6500600","新店區"
"231068","187-VK","2019/06/24 21:29:38","新北市樹林區中山路三段206-3號","121.382833333333","24.9663383333333","6500600","新店區"
"231062","256-BX","2019/06/24 21:29:25","新北市土城區大暖路110巷1號","121.420595","24.9568466666667","6500600","新店區"
"231063","641-BX","2019/06/24 21:29:28","新北市新店區如意街61號","121.493725","24.947235","6500600","新店區"
"241017","063-VK","2019/06/24 21:29:32","新北市三重區中正北路25巷25弄2號","121.493198333333","25.0626266666667","6500200","三重區"
"241024","065-VK","2019/06/24 21:29:29","新北市三重區中正北路145巷14號","121.484148333333","25.0677483333333","6500200","三重區"
"241003","091-VK","2019/06/24 21:29:35","新北市三重區環河北路三段86號","121.496271666667","25.085775","6500200","三重區"
"241005","262-UM","2019/06/24 21:29:41","新北市三重區碧華街148巷41號","121.485048333333","25.0828833333333","6500200","三重區"
"241016","266-UM","2019/06/24 21:29:34","新北市三重區正義北路105號","121.49695","25.0655366666667","6500200","三重區"
"241007","398-BY","2019/06/24 21:29:37","新北市三重區信義西街148號","121.495293333333","25.06388","6500200","三重區"
"241026","480-VK","2019/06/24 21:29:37","新北市三重區新北大道一段38號","121.48808","25.0614416666667","6500200","三重區"
"235067","255-BX","2019/06/24 21:16:47","新北市中和區員山路36巷16號","121.484391666667","24.9915683333333","6500300","中和區"
"247014","KEA-2869","2019/06/24 21:29:27","新北市五股區孝義路9-18號","121.449716666667","25.10694","6501400","蘆洲區"
"247004","893-R6","2019/06/24 21:29:39","新北市八里區下罟子8-10號","121.38261","25.1443233333333","6501400","蘆洲區"
"247006","002-UY","2019/06/24 21:29:33","新北市蘆洲區環堤大道92號","121.455441666667","25.08512","6501400","蘆洲區"
"251009","008-UM","2019/06/24 21:29:33","新北市淡水區民族路33巷3號","121.463495","25.1362516666667","6501000","淡水區"
"251004","009-UM","2019/06/24 21:29:34","新北市淡水區民族路2號","121.460303333333","25.13701","6501000","淡水區"
"251005","010-UM","2019/06/24 21:29:31","新北市淡水區長興街70號","121.444395","25.1721333333333","6501000","淡水區"
"251001","011-UM","2019/06/24 21:29:30","新北市淡水區濱海路三段148巷50弄76號","121.431413333333","25.1905683333333","6501000","淡水區"
"251002","012-UM","2019/06/24 21:29:34","新北市淡水區學府路172巷21號","121.44832","25.174925","6501000","淡水區"
"251015","KEA-2871","2019/06/24 21:29:28","新北市淡水區淡金路三段36號","121.447983333333","25.199105","6501000","淡水區"
"251016","179-VK","2019/06/24 21:29:28","新北市淡水區前洲子28號","121.441286666667","25.21907","6501000","淡水區"
"251008","181-VK","2019/06/24 21:29:22","新北市淡水區水源街二段160-8號","121.454823333333","25.17526","6501000","淡水區"
"251013","182-VK","2019/06/24 21:29:27","新北市淡水區埤島58-3號","121.458923333333","25.19503","6501000","淡水區"
"251010","413-VK","2019/06/24 21:29:38","新北市淡水區沙崙路25巷21號","121.42062","25.18245","6501000","淡水區"
"251012","441-VK","2019/06/24 21:29:39","新北市淡水區淡金路五段37號","121.453886666667","25.233125","6501000","淡水區"
"251006","561-UM","2019/06/24 21:29:29","新北市淡水區公明街67號","121.443723333333","25.16853","6501000","淡水區"
"251014","577-R6","2019/06/24 21:29:34","新北市淡水區六塊厝2-1號","121.450145","25.240505","6501000","淡水區"
"251011","650-BX","2019/06/24 21:29:30","新北市淡水區新民街166號","121.436985","25.1784966666667","6501000","淡水區"
"251003","673-BX","2019/06/24 21:29:36","新北市淡水區新春街65巷12號","121.438051666667","25.182385","6501000","淡水區"
"220101","245-BX","2019/06/24 21:29:32","新北市板橋區民生路二段161巷3號","121.470055","25.019765","6500100","板橋區"
