"lineid","car","time","location","longitude","latitude","cityid","cityname"
"231051","107-UY","2019/06/24 22:09:08","新北市土城區青雲路483巷13弄60號","121.460401666667","24.9752116666667","6500600","新店區"
"251004","009-UM","2019/06/24 22:09:14","新北市淡水區民族路33號","121.462295","25.1358216666667","6501000","淡水區"
"251005","010-UM","2019/06/24 22:09:03","新北市淡水區鄧公路29巷2-1號","121.45152","25.1699883333333","6501000","淡水區"
"251008","181-VK","2019/06/24 22:09:03","新北市淡水區學府路104號","121.449893333333","25.1717916666667","6501000","淡水區"
"251010","413-VK","2019/06/24 22:08:58","新北市淡水區沙崙路200號","121.424685","25.1838683333333","6501000","淡水區"
"251007","442-VK","2019/06/24 22:08:57","新北市淡水區北新路184巷31號","121.450373333333","25.1780533333333","6501000","淡水區"
"251011","650-BX","2019/06/24 22:09:10","新北市淡水區水碓街7號","121.443171666667","25.177155","6501000","淡水區"
