"lineid","car","time","location","longitude","latitude","cityid","cityname"
"234044","148-BY","2019/08/02 13:19:53","新北市永和區得和路326號","121.52324","24.9995333333333","6500400","永和區"
"234078","298-R6","2019/08/02 13:19:57","新北市永和區福和路7巷7號","121.525341666667","25.0078133333333","6500400","永和區"
"234036","336-UY","2019/08/02 13:19:53","新北市永和區民樂街55巷2號","121.5275","24.9985116666667","6500400","永和區"
"234062","337-UY","2019/08/02 13:19:49","新北市永和區永元路17巷15號","121.521293333333","25.000765","6500400","永和區"
"234084","338-UY","2019/08/02 13:19:58","新北市永和區永利路73號","121.52107","25.0037233333333","6500400","永和區"
"234068","552-UM","2019/08/02 13:19:43","新北市永和區豫溪街76號","121.517298333333","25.00991","6500400","永和區"
"234015","745-BX","2019/08/02 13:19:45","新北市永和區環河西路一段95巷19弄4號","121.511746666667","25.0170333333333","6500400","永和區"
"234028","746-BX","2019/08/02 13:19:46","新北市永和區厚德街93號","121.523716666667","24.99876","6500400","永和區"
"234052","KEA-2590","2019/08/02 13:19:50","新北市永和區中興街45號","121.516451666667","25.01183","6500400","永和區"
"234005","KED-0605","2019/08/02 13:19:47","新北市中和區中山路二段23號","121.504965","25.0053516666667","6500400","永和區"
"234012","KEA-2591","2019/08/02 13:19:49","新北市永和區信義路21號","121.514071666667","25.012175","6500400","永和區"
"234060","AAD-866","2019/08/02 13:19:42","新北市永和區秀朗路一段175號","121.517095","25.00368","6500400","永和區"
"234040","862-TW","2019/08/02 13:19:45","新北市永和區保平路151巷2弄6-2號","121.50969","25.00534","6500400","永和區"
"234048","863-TW","2019/08/02 13:19:56","新北市永和區仁愛路100號","121.512206666667","25.0132366666667","6500400","永和區"
"234025","9371-KE","2019/08/02 13:19:42","新北市永和區豫溪街42巷19號","121.515355","25.0089616666667","6500400","永和區"
"234010","9373-KE","2019/08/02 13:20:01","新北市永和區忠孝街34巷11號","121.51461","25.0164183333333","6500400","永和區"
"248019","KED-0813","2019/08/02 13:19:47","新北市五股區孝義路47巷1-2號","121.454071666667","25.110415","6501500","五股區"
"234022","9380-KE","2019/08/02 13:19:44","新北市永和區竹林路111號","121.519841666667","25.0118333333333","6500400","永和區"
"234076","969-R7","2019/08/02 13:19:57","新北市永和區民有街69號","121.517853333333","24.995745","6500400","永和區"
"234072","AAC-211","2019/08/02 13:19:45","新北市永和區竹林路46號","121.517675","25.0143083333333","6500400","永和區"
"234066","AAC-212","2019/08/02 13:19:42","新北市永和區保平路50巷8弄1號","121.511075","25.007575","6500400","永和區"
"234001","AAC-295","2019/08/02 13:19:55","新北市永和區和平街54巷5弄18號","121.512213333333","25.01044","6500400","永和區"
"244004","248-BX","2019/08/02 13:19:59","新北市林口區頭湖74-16號","121.359978333333","25.09256","6501700","林口區"
"231028","001-UM","2019/08/02 13:19:40","","121.519536666667","24.96093","6500600","新店區"
"231030","002-UM","2019/08/02 13:19:49","新北市新店區安華路28-1號","121.519701666667","24.9606633333333","6500600","新店區"
"231005","046-UY","2019/08/02 13:19:41","新北市新店區安華路28-1號","121.51928","24.9607983333333","6500600","新店區"
"231029","106-UY","2019/08/02 13:19:43","新北市新店區安華路28-1號","121.519845","24.960795","6500600","新店區"
"231018","107-UY","2019/08/02 13:19:50","新北市新店區安康路一段3-1號","121.535118333333","24.960905","6500600","新店區"
"231036","110-UY","2019/08/02 13:19:20","","121.483291666667","24.9527566666667","6500600","新店區"
"231032","256-BX","2019/08/02 13:19:40","","121.519736666667","24.9612016666667","6500600","新店區"
"231023","260-TV","2019/08/02 13:19:53","新北市新店區安一路一段1-1號","121.519356666667","24.9612166666667","6500600","新店區"
"231003","268-BY","2019/08/02 13:19:49","新北市新店區北新路一段126巷25號","121.5434","24.9697533333333","6500600","新店區"
"231035","278-BY","2019/08/02 13:06:43","","121.519476666667","24.9609266666667","6500600","新店區"
"231006","355-BY","2019/08/02 13:19:54","新北市新店區安華路28-1號","121.519068333333","24.9609166666667","6500600","新店區"
"231038","3712-VJ","2019/08/02 13:19:47","新北市新店區安華路28-1號","121.519095","24.9606783333333","6500600","新店區"
"231027","3713-VJ","2019/08/02 13:19:55","新北市新店區安華路8號","121.519848333333","24.962545","6500600","新店區"
"231024","4716-K9","2019/08/02 13:19:42","新北市新店區安康路一段126號","121.526826666667","24.9627066666667","6500600","新店區"
"231025","4715-K9","2019/08/02 13:19:48","新北市新店區中央五街42-1號","121.528356666667","24.9750433333333","6500600","新店區"
"231022","513-UM","2019/08/02 13:19:44","新北市新店區安華路8號","121.519848333333","24.9624666666667","6500600","新店區"
"231001","617-UM","2019/08/02 13:19:40","","121.51941","24.9609433333333","6500600","新店區"
"231002","619-UM","2019/08/02 13:19:47","新北市新店區安華路28-1號","121.519591666667","24.96076","6500600","新店區"
"231034","641-BX","2019/08/02 13:19:53","新北市新店區安華路1-1號","121.519538333333","24.9604016666667","6500600","新店區"
"231012","718-UY","2019/08/02 13:19:41","新北市新店區安一路一段1-1號","121.51922","24.9612","6500600","新店區"
"231010","719-UM","2019/08/02 13:19:30","","121.528621666667","24.961685","6500600","新店區"
"231026","720-UM","2019/08/02 13:19:50","新北市新店區安一路一段1-1號","121.519271666667","24.96139","6500600","新店區"
"231004","899-TW","2019/08/02 13:19:54","新北市新店區安華路28-1號","121.519153333333","24.9608716666667","6500600","新店區"
"231037","AKT-0513","2019/08/02 13:19:48","新北市新店區安華路28-1號","121.5195","24.9605733333333","6500600","新店區"
"235030","003-UY","2019/08/02 13:19:41","新北市中和區中山路二段120號","121.502861666667","25.0037533333333","6500300","中和區"
"235028","005-UY","2019/08/02 13:19:45","新北市中和區圓通路141巷37弄1號","121.498996666667","24.9948983333333","6500300","中和區"
"235027","006-UY","2019/08/02 13:19:41","新北市中和區中正路585號","121.486148333333","24.9944533333333","6500300","中和區"
"235003","097-UM","2019/08/02 13:19:56","新北市中和區安和路39號","121.509671666667","24.9948933333333","6500300","中和區"
"235029","098-UM","2019/08/02 13:19:46","新北市中和區莊敬路49巷20弄24號","121.50281","25.0058416666667","6500300","中和區"
"235004","150-BY","2019/08/02 13:19:54","新北市中和區安平路59號","121.509421666667","24.9951816666667","6500300","中和區"
"235022","151-BY","2019/08/02 13:19:50","新北市中和區圓通路369巷36弄107號","121.48953","24.9821933333333","6500300","中和區"
"235019","183-VK","2019/08/02 13:19:44","新北市土城區金城路三段216號","121.472301666667","24.9900933333333","6500300","中和區"
"235002","185-VK","2019/08/02 13:19:57","新北市中和區大智街42巷9號","121.52248","24.992025","6500300","中和區"
"235013","186-VK","2019/08/02 13:19:54","新北市中和區中正路637巷52弄1號","121.485506666667","24.9933166666667","6500300","中和區"
"235031","255-BX","2019/08/02 13:19:57","新北市中和區新生街286號","121.4835","24.9965783333333","6500300","中和區"
"235036","301-VK","2019/08/02 13:19:49","新北市中和區連城路263巷4弄2號","121.491551666667","24.9960266666667","6500300","中和區"
"235007","352-BY","2019/08/02 13:19:58","新北市中和區景平路381號","121.503811666667","24.9933433333333","6500300","中和區"
"235006","KEA-2878","2019/08/02 13:19:41","新北市中和區景平路202號","121.515853333333","24.9928383333333","6500300","中和區"
"235014","4979-A6","2019/08/02 13:19:48","新北市中和區捷運路163號","121.506116666667","24.9911183333333","6500300","中和區"
"235033","4980-A6","2019/08/02 13:19:41","","121.494415","24.99184","6500300","中和區"
"235034","558-UM","2019/08/02 13:19:43","新北市中和區圓通路61號","121.500455","24.9971633333333","6500300","中和區"
"235009","565-BX","2019/08/02 13:19:59","新北市中和區南山路236巷24弄20號","121.504945","24.9891016666667","6500300","中和區"
"235024","KED-0823","2019/08/02 13:19:46","新北市中和區員山路419號","121.481011666667","25.00335","6500300","中和區"
"235011","732-UM","2019/08/02 13:19:54","新北市中和區連城路270號","121.484945","24.996335","6500300","中和區"
"235035","783-BX","2019/08/02 13:19:41","","121.484366666667","25.0108466666667","6500300","中和區"
"235026","800-TS","2019/08/02 13:19:50","新北市中和區景平路999巷1號","121.495461666667","25.0060233333333","6500300","中和區"
"235021","801-TS","2019/08/02 13:19:53","新北市中和區民享街97巷21號","121.47539","24.99951","6500300","中和區"
"235016","805-TS","2019/08/02 13:19:48","新北市中和區興南路二段96號","121.505186666667","24.9841916666667","6500300","中和區"
"235012","896-TW","2019/08/02 13:19:53","新北市中和區員山路36巷16-2號","121.485278333333","24.9916783333333","6500300","中和區"
"235017","900-TW","2019/08/02 13:19:57","新北市中和區員山路36巷16-2號","121.48522","24.9915016666667","6500300","中和區"
"235015","157-BY","2019/08/02 13:19:55","新北市中和區華新街134號","121.508206666667","24.9826233333333","6500300","中和區"
"235001","AAC-213","2019/08/02 13:19:44","新北市中和區景德街97號","121.515771666667","24.99123","6500300","中和區"
"220013","072-UY","2019/08/02 13:19:56","新北市板橋區華東街1-10號","121.448521666667","24.995005","6500100","板橋區"
"247011","056-VK","2019/08/02 13:19:47","新北市五股區中興路三段2巷10號","121.449138333333","25.0810316666667","6501400","蘆洲區"
"235005","251-BX","2019/08/02 13:19:57","新北市中和區中正路2-1號","121.503296666667","24.9937033333333","6500300","中和區"
"207002","749-BX","2019/08/02 13:19:43","新北市萬里區崁腳里內崁路2-3號","121.638875","25.16051","6502800","萬里區"
"207001","662-BX","2019/08/02 13:19:56","新北市萬里區龜吼里玉田路74號","121.680385","25.19282","6502800","萬里區"
"221029","298-VK","2019/08/02 13:19:03","","121.625761666667","25.064365","6501100","汐止區"
"220012","AAC-253","2019/08/02 13:19:54","新北市板橋區華東街1-10號","121.448373333333","24.99494","6500100","板橋區"
"235032","KEA-2873","2019/08/02 13:19:32","","121.489786666667","24.9935083333333","6500300","中和區"
"235025","KEA-2875","2019/08/02 13:19:53","新北市中和區民享街116巷6-1號","121.474208333333","24.9988183333333","6500300","中和區"
