"lineid","car","time","location","longitude","latitude","cityid","cityname"
"234044","148-BY","2019/08/02 13:39:53","新北市永和區永利路141號","121.524186666667","25.0034416666667","6500400","永和區"
"234078","298-R6","2019/08/02 13:39:57","新北市永和區林森路20巷7號","121.525833333333","25.0056766666667","6500400","永和區"
"234036","336-UY","2019/08/02 13:39:48","新北市永和區民樂街31巷6弄2號","121.528058333333","25.0012583333333","6500400","永和區"
"234062","337-UY","2019/08/02 13:39:49","新北市永和區秀朗路一段192巷6弄12號","121.519096666667","25.0023183333333","6500400","永和區"
"234084","338-UY","2019/08/02 13:39:38","新北市永和區林森路62號","121.523961666667","25.0042933333333","6500400","永和區"
"234068","552-UM","2019/08/02 13:39:43","新北市永和區永和路二段237-2號","121.515651666667","25.0145033333333","6500400","永和區"
"234015","745-BX","2019/08/02 13:39:44","新北市永和區永和路二段405巷3號","121.515315","25.0172433333333","6500400","永和區"
"234028","746-BX","2019/08/02 13:39:57","新北市永和區民權路29巷10號","121.520616666667","24.9978416666667","6500400","永和區"
"234052","KEA-2590","2019/08/02 13:39:50","新北市永和區竹林路39巷24弄20號","121.519256666667","25.0140833333333","6500400","永和區"
"234005","KED-0605","2019/08/02 13:39:47","新北市永和區永和路一段180號","121.51428","25.0089433333333","6500400","永和區"
"234012","KEA-2591","2019/08/02 13:39:52","新北市永和區仁愛路215號","121.509476666667","25.0122916666667","6500400","永和區"
"234060","AAD-866","2019/08/02 13:39:42","新北市永和區中正路446號","121.517463333333","25.0028366666667","6500400","永和區"
"234040","862-TW","2019/08/02 13:39:45","新北市永和區中和路373號","121.508225","24.999625","6500400","永和區"
"234048","863-TW","2019/08/02 13:39:56","新北市永和區環河西路一段107號","121.510975","25.017555","6500400","永和區"
"234025","9371-KE","2019/08/02 13:39:42","新北市永和區自由街38號","121.513958333333","25.0061083333333","6500400","永和區"
"234010","9373-KE","2019/08/02 13:39:21","新北市永和區保福路二段15巷9號","121.510581666667","25.0109866666667","6500400","永和區"
"248019","KED-0813","2019/08/02 13:39:24","新北市五股區孝義路108-1號","121.442595","25.119785","6501500","五股區"
"234022","9380-KE","2019/08/02 13:39:44","新北市永和區中正路702巷20弄1號","121.516498333333","25.0105983333333","6500400","永和區"
"234076","969-R7","2019/08/02 13:39:57","新北市永和區民權路32號","121.52019","24.9990333333333","6500400","永和區"
"234072","AAC-211","2019/08/02 13:39:45","新北市永和區竹林路203號","121.520745","25.0090533333333","6500400","永和區"
"234066","AAC-212","2019/08/02 13:39:59","新北市永和區中山路一段191巷2弄1號","121.509401666667","25.008545","6500400","永和區"
"234001","AAC-295","2019/08/02 13:39:55","新北市永和區永和路一段116號","121.513765","25.0075783333333","6500400","永和區"
"244004","248-BX","2019/08/02 13:39:52","新北市林口區頂福里13號","121.359006666667","25.0837516666667","6501700","林口區"
"231028","001-UM","2019/08/02 13:39:40","新北市新店區安和路一段6-6號","121.51736","24.9655266666667","6500600","新店區"
"231030","002-UM","2019/08/02 13:39:49","新北市新店區安康路一段229號","121.525541666667","24.9631333333333","6500600","新店區"
"231005","046-UY","2019/08/02 13:39:41","新北市新店區寶中路45-3號","121.545205","24.9790366666667","6500600","新店區"
"231029","106-UY","2019/08/02 13:39:43","新北市新店區車子路1-1號","121.504581666667","24.9578816666667","6500600","新店區"
"231018","107-UY","2019/08/02 13:39:50","新北市新店區百忍街8號","121.535078333333","24.9756033333333","6500600","新店區"
"231013","108-UY","2019/08/02 13:39:45","新北市新店區中正路454-5號","121.534483333333","24.9790233333333","6500600","新店區"
"231036","110-UY","2019/08/02 13:39:40","新北市新店區安祥路147巷37號","121.476571666667","24.9565216666667","6500600","新店區"
"231032","256-BX","2019/08/02 13:39:40","新北市新店區安康路一段355-3號","121.519765","24.9626166666667","6500600","新店區"
"231023","260-TV","2019/08/02 13:39:53","新北市新店區新店路256號","121.537341666667","24.957095","6500600","新店區"
"231003","268-BY","2019/08/02 13:39:49","新北市新店區中正路2號","121.545886666667","24.9692816666667","6500600","新店區"
"231035","278-BY","2019/08/02 13:39:44","新北市新店區安忠路65巷2號","121.511388333333","24.957745","6500600","新店區"
"231016","AAD-862","2019/08/02 13:39:45","新北市新店區竹林路2巷29弄9號","121.55046","24.9503","6500600","新店區"
"231006","355-BY","2019/08/02 13:39:54","新北市新店區北新路一段51號","121.538173333333","24.9595433333333","6500600","新店區"
"231038","3712-VJ","2019/08/02 13:39:47","新北市新店區安華路30巷1號","121.519766666667","24.959305","6500600","新店區"
"231027","3713-VJ","2019/08/02 13:39:55","新北市新店區國校路68號","121.538618333333","24.9531466666667","6500600","新店區"
"231024","4716-K9","2019/08/02 13:39:42","新北市新店區中華路74號","121.538768333333","24.970855","6500600","新店區"
"231025","4715-K9","2019/08/02 13:39:48","新北市新店區中央五街35號","121.528696666667","24.9750483333333","6500600","新店區"
"231022","513-UM","2019/08/02 13:39:44","新北市新店區永興路88-1號","121.544086666667","24.9337983333333","6500600","新店區"
"231001","617-UM","2019/08/02 13:39:40","新北市新店區中央路57號","121.532751666667","24.977385","6500600","新店區"
"231002","619-UM","2019/08/02 13:39:47","新北市新店區中央三街127號","121.524098333333","24.9768216666667","6500600","新店區"
"231034","641-BX","2019/08/02 13:39:52","新北市新店區車子路134號","121.505145","24.9489366666667","6500600","新店區"
"231012","718-UY","2019/08/02 13:39:41","新北市新店區德正街23巷12-1號","121.544698333333","24.972165","6500600","新店區"
"231010","719-UM","2019/08/02 13:39:50","新北市新店區中正路293號","121.537181666667","24.9745916666667","6500600","新店區"
"231026","720-UM","2019/08/02 13:39:50","新北市新店區北宜路一段168號","121.540325","24.9529566666667","6500600","新店區"
"231004","899-TW","2019/08/02 13:39:54","新北市新店區北新路一段150號","121.542728333333","24.9705483333333","6500600","新店區"
"231037","AKT-0513","2019/08/02 13:39:48","新北市新店區安康路二段422-1號","121.49611","24.9556083333333","6500600","新店區"
"235030","003-UY","2019/08/02 13:39:41","新北市中和區光華街48號","121.505081666667","25.00361","6500300","中和區"
"235028","005-UY","2019/08/02 13:39:45","新北市中和區景平路634-3號","121.499235","24.9990866666667","6500300","中和區"
"235027","006-UY","2019/08/02 13:39:41","新北市中和區連城路395號","121.486348333333","24.9962616666667","6500300","中和區"
"235020","096-UM","2019/08/02 13:39:52","新北市中和區員山路466巷10號","121.480646666667","25.0065633333333","6500300","中和區"
"235003","097-UM","2019/08/02 13:39:50","新北市中和區景平路278巷14弄16號","121.514978333333","24.99319","6500300","中和區"
"235029","098-UM","2019/08/02 13:39:46","新北市中和區中山路二段2巷59號","121.501756666667","25.0073","6500300","中和區"
"235004","150-BY","2019/08/02 13:39:54","新北市中和區安平路59號","121.509598333333","24.9952283333333","6500300","中和區"
"235022","151-BY","2019/08/02 13:39:50","新北市中和區員山路126號","121.481098333333","24.9960133333333","6500300","中和區"
"235019","183-VK","2019/08/02 13:39:44","新北市中和區民德路25巷11號","121.469948333333","25.0031483333333","6500300","中和區"
"235002","185-VK","2019/08/02 13:39:57","新北市中和區大勇街45巷1號","121.517928333333","24.994945","6500300","中和區"
"235013","186-VK","2019/08/02 13:39:54","新北市中和區明義街1號","121.504385","24.99493","6500300","中和區"
"235031","255-BX","2019/08/02 13:39:57","新北市中和區新生街220巷1弄1號","121.483423333333","24.998515","6500300","中和區"
"235008","293-VK","2019/08/02 13:39:57","新北市中和區復興路280巷1弄2號","121.50219","24.9907583333333","6500300","中和區"
"235036","301-VK","2019/08/02 13:39:54","新北市中和區連城路87號","121.496813333333","25.0003166666667","6500300","中和區"
"235007","352-BY","2019/08/02 13:39:58","新北市中和區景平路111巷2號","121.516503333333","24.9918183333333","6500300","中和區"
"235006","KEA-2878","2019/08/02 13:39:59","新北市中和區秀朗路三段153巷15號","121.525393333333","24.9916133333333","6500300","中和區"
"235014","4979-A6","2019/08/02 13:39:48","新北市中和區景新街496巷28弄12號","121.51304","24.9858983333333","6500300","中和區"
"235033","4980-A6","2019/08/02 13:39:41","新北市中和區連城路65巷12號","121.49794","25.0007166666667","6500300","中和區"
"235034","558-UM","2019/08/02 13:39:43","新北市中和區圓通路40號","121.50089","24.9977666666667","6500300","中和區"
"235009","565-BX","2019/08/02 13:39:39","新北市中和區南山路291號","121.504513333333","24.9920033333333","6500300","中和區"
"235024","KED-0823","2019/08/02 13:39:45","新北市中和區中山路三段206號","121.471613333333","25.0064816666667","6500300","中和區"
"235018","640-BX","2019/08/02 13:39:44","新北市中和區民享街33-2號","121.474078333333","25.0040683333333","6500300","中和區"
"235011","732-UM","2019/08/02 13:39:54","新北市中和區興南路二段30巷10號","121.50707","24.9861833333333","6500300","中和區"
"235010","733-UM","2019/08/02 13:39:55","新北市中和區忠孝街126-1號","121.512148333333","24.986315","6500300","中和區"
"235035","783-BX","2019/08/02 13:39:41","新北市中和區光環路二段39號","121.485211666667","25.0139666666667","6500300","中和區"
"235026","800-TS","2019/08/02 13:39:50","新北市中和區中山路二段312巷12號","121.49538","25.003725","6500300","中和區"
"235021","801-TS","2019/08/02 13:39:53","新北市中和區民安街1號","121.480816666667","25.00087","6500300","中和區"
"235016","805-TS","2019/08/02 13:39:48","新北市中和區興南路三段46號","121.495213333333","24.9762916666667","6500300","中和區"
"235012","896-TW","2019/08/02 13:39:53","新北市中和區中正路77號","121.500866666667","24.993425","6500300","中和區"
"235017","900-TW","2019/08/02 13:39:57","新北市中和區華福街5號","121.465446666667","24.9968733333333","6500300","中和區"
"235015","157-BY","2019/08/02 13:39:55","新北市中和區華新街109巷11弄5號","121.508825","24.9792433333333","6500300","中和區"
"235001","AAC-213","2019/08/02 13:39:44","新北市中和區秀朗路三段128巷13號","121.52452","24.99337","6500300","中和區"
"235023","AAC-215","2019/08/02 13:39:45","新北市中和區錦和路350-1號","121.490043333333","24.993485","6500300","中和區"
"220013","072-UY","2019/08/02 13:39:56","新北市板橋區成都街72-3號","121.463561666667","25.005235","6500100","板橋區"
"220034","073-UY","2019/08/02 13:39:48","新北市板橋區南雅南路二段144巷60號","121.450273333333","24.9974016666667","6500100","板橋區"
"220017","AAD-861","2019/08/02 13:39:50","新北市板橋區縣民大道一段114號","121.45732","25.0059733333333","6500100","板橋區"
"220016","120-SR","2019/08/02 13:39:49","新北市板橋區民生路二段56-6號","121.471221666667","25.0189516666667","6500100","板橋區"
"247023","337-TH","2019/08/02 13:39:43","新北市蘆洲區環堤大道365號","121.457376666667","25.0982666666667","6501400","蘆洲區"
"247011","056-VK","2019/08/02 13:39:47","新北市五股區中興路三段163號","121.449126666667","25.0809766666667","6501400","蘆洲區"
"247005","002-UY","2019/08/02 13:40:00","新北市蘆洲區中山二路309號","121.4688","25.0772933333333","6501400","蘆洲區"
"235005","251-BX","2019/08/02 13:39:57","新北市永和區中和路491號","121.510413333333","25.0021883333333","6500300","中和區"
"253005","295-VK","2019/08/02 13:38:16","新北市石門區小坑9號","121.594193333333","25.28865","6502200","石門區"
"207002","749-BX","2019/08/02 13:39:43","新北市萬里區崁腳里崁腳路166號","121.645086666667","25.1557783333333","6502800","萬里區"
"207001","662-BX","2019/08/02 13:39:44","新北市萬里區大鵬里萬里加投45-1號","121.641938333333","25.2109333333333","6502800","萬里區"
"236013","270-VK","2019/08/02 13:39:44","新北市土城區城林路6巷80號","121.438518333333","24.97986","6501300","土城區"
"247009","KED-0683","2019/08/02 13:39:42","新北市五股區中興路三段163號","121.449116666667","25.0809383333333","6501400","蘆洲區"
"236060","915-UM","2019/08/02 13:39:54","新北市土城區城林路6巷80號","121.438726666667","24.9797566666667","6501300","土城區"
"221029","298-VK","2019/08/02 13:39:43","新北市汐止區南陽街1巷2號","121.624711666667","25.0660233333333","6501100","汐止區"
"220027","145-BY","2019/08/02 13:39:48","新北市板橋區大觀路二段107號","121.446338333333","25.001585","6500100","板橋區"
"220028","200-UY","2019/08/02 13:39:58","新北市板橋區華東街1-8號","121.447658333333","24.99484","6500100","板橋區"
"220030","610-BX","2019/08/02 13:39:50","新北市板橋區大觀路三段59巷17弄6-1號","121.435946666667","24.995515","6500100","板橋區"
"220032","256-TC","2019/08/02 13:39:39","新北市板橋區大觀路二段205號","121.444653333333","24.9994366666667","6500100","板橋區"
"220004","276-BY","2019/08/02 13:39:49","新北市板橋區館前西路39號","121.458213333333","25.0068316666667","6500100","板橋區"
"220043","283-UM","2019/08/02 13:39:56","新北市板橋區民生路二段120號","121.470496666667","25.0196816666667","6500100","板橋區"
"220019","283-VK","2019/08/02 13:39:41","新北市板橋區四川路二段14號","121.456101666667","24.9962116666667","6500100","板橋區"
"220031","286-VK","2019/08/02 13:39:39","新北市板橋區華東街1-10號","121.448703333333","24.9949033333333","6500100","板橋區"
"220029","287-VK","2019/08/02 13:39:42","新北市板橋區大觀路二段266號","121.448441666667","24.9969783333333","6500100","板橋區"
"220039","288-VK","2019/08/02 13:39:42","新北市板橋區民生路二段120號","121.47043","25.0197216666667","6500100","板橋區"
"220023","303-R5","2019/08/02 13:39:54","新北市板橋區南雅南路二段144巷60號","121.450086666667","24.997245","6500100","板橋區"
"220041","307-R5","2019/08/02 13:39:53","新北市板橋區縣民大道三段32號","121.47154","25.01857","6500100","板橋區"
"220047","317-R6","2019/08/02 13:39:40","新北市板橋區民生路二段120號","121.470731666667","25.019715","6500100","板橋區"
"220003","461-BY","2019/08/02 13:39:54","新北市板橋區忠孝路42號","121.460473333333","25.001835","6500100","板橋區"
"220038","487-VK","2019/08/02 13:39:56","新北市板橋區民生路二段161巷1號","121.469973333333","25.02016","6500100","板橋區"
"220037","491-VK","2019/08/02 13:39:49","新北市板橋區民生路二段161巷1號","121.470128333333","25.020115","6500100","板橋區"
"220104","560-BX","2019/08/02 13:39:43","新北市板橋區館前西路160巷2號","121.452981666667","25.00871","6500100","板橋區"
"220052","561-BX","2019/08/02 13:39:46","新北市板橋區民生路二段123號","121.470758333333","25.01857","6500100","板橋區"
"220011","609-BX","2019/08/02 13:39:43","新北市板橋區民生路二段171號","121.469796666667","25.0200833333333","6500100","板橋區"
"220005","686-BX","2019/08/02 13:39:58","新北市板橋區館前東路2-2號","121.45966","25.0070716666667","6500100","板橋區"
"220025","687-BX","2019/08/02 13:39:40","新北市板橋區溪崑一街11-3號","121.430806666667","24.99233","6500100","板橋區"
"220042","689-BX","2019/08/02 13:39:57","新北市板橋區民生路二段171號","121.46981","25.020075","6500100","板橋區"
"220002","741-BX","2019/08/02 13:39:56","新北市板橋區華東街1-8號","121.447518333333","24.995","6500100","板橋區"
"220051","KEA-2699","2019/08/02 13:39:55","新北市板橋區民生路二段120號","121.470445","25.0200333333333","6500100","板橋區"
"220022","895-R6","2019/08/02 13:39:43","新北市板橋區南雅南路一段4巷2號","121.4554","25.005485","6500100","板橋區"
"220021","985-R7","2019/08/02 13:39:53","新北市板橋區南雅南路二段15號","121.45394","24.99883","6500100","板橋區"
"220046","AAC-210","2019/08/02 13:39:58","新北市板橋區民生路二段161巷1號","121.470145","25.01997","6500100","板橋區"
"220012","AAC-253","2019/08/02 13:39:54","新北市板橋區民生路二段89-1號","121.47186","25.0171566666667","6500100","板橋區"
"235032","KEA-2873","2019/08/02 13:39:32","新北市中和區圓通路238號","121.494863333333","24.9925966666667","6500300","中和區"
"235025","KEA-2875","2019/08/02 13:39:53","新北市中和區自治街22號","121.474715","25.0030083333333","6500300","中和區"
