"lineid","car","time","location","longitude","latitude","cityid","cityname"
"231028","001-UM","2019/08/02 15:29:40","新北市新店區僑信路86號","121.499725","24.9481566666667","6500600","新店區"
"231030","002-UM","2019/08/02 15:29:49","新北市新店區安和路三段61號","121.517966666667","24.983285","6500600","新店區"
"231005","046-UY","2019/08/02 15:29:41","新北市新店區建國路293巷1號","121.53673","24.9861833333333","6500600","新店區"
"231029","106-UY","2019/08/02 15:29:43","新北市新店區安康路三段622號","121.479458333333","24.9462666666667","6500600","新店區"
"231018","107-UY","2019/08/02 15:29:50","新北市新店區民生路156巷2號","121.528748333333","24.9809633333333","6500600","新店區"
"231013","108-UY","2019/08/02 15:29:49","新北市新店區永業路81巷5弄1號","121.53017","24.9490466666667","6500600","新店區"
"231036","110-UY","2019/08/02 15:29:46","新北市新店區安祥路67巷50弄5號","121.484761666667","24.95901","6500600","新店區"
"231039","187-VK","2019/08/02 15:29:58","新北市新店區寶元路一段74巷1號","121.544108333333","24.984125","6500600","新店區"
"231032","256-BX","2019/08/02 15:29:40","新北市新店區安泰路20-1號","121.485546666667","24.948535","6500600","新店區"
"231023","260-TV","2019/08/02 15:29:53","新北市新店區五峰路24號","121.543661666667","24.9690833333333","6500600","新店區"
"231003","268-BY","2019/08/02 15:29:49","新北市新店區寶高路120巷1號","121.554596666667","24.9760283333333","6500600","新店區"
"231035","278-BY","2019/08/02 15:29:44","新北市新店區安民街365巷10弄3號","121.515528333333","24.9756066666667","6500600","新店區"
"231016","AAD-862","2019/08/02 15:29:45","新北市新店區明山路45號","121.563773333333","24.9559283333333","6500600","新店區"
"231038","3712-VJ","2019/08/02 15:29:47","新北市新店區安康路二段16巷40號","121.516698333333","24.965265","6500600","新店區"
"231025","4715-K9","2019/08/02 15:29:48","新北市新店區安光路16號","121.51366","24.9647866666667","6500600","新店區"
"231022","513-UM","2019/08/02 15:29:58","新北市新店區永福路61號","121.557181666667","24.929115","6500600","新店區"
"231032","515-UM","2019/08/02 15:29:39","新北市新店區安康路一段266巷4號","121.519836666667","24.96401","6500600","新店區"
"231002","619-UM","2019/08/02 15:29:47","新北市新店區環河路121-2號","121.530475","24.97126","6500600","新店區"
"231034","641-BX","2019/08/02 15:29:52","新北市新店區玫瑰路51巷2號","121.495748333333","24.9478383333333","6500600","新店區"
"231012","718-UY","2019/08/02 15:30:01","新北市新店區寶元路一段109號","121.545713333333","24.983115","6500600","新店區"
"231026","720-UM","2019/08/02 15:29:59","新北市新店區三民路117巷3弄1號","121.53456","24.97166","6500600","新店區"
"231004","899-TW","2019/08/02 15:29:54","新北市新店區光明街296號","121.54047","24.9647466666667","6500600","新店區"
"231037","AKT-0513","2019/08/02 15:29:48","新北市新店區安興路91巷41號","121.513555","24.97451","6500600","新店區"
"241017","063-VK","2019/08/02 15:29:50","新北市三重區重新路四段121號","121.485156666667","25.0520183333333","6500200","三重區"
"241011","066-VK","2019/08/02 15:29:46","新北市三重區中正南路252巷5號","121.49406","25.0520916666667","6500200","三重區"
"241018","268-UM","2019/08/02 15:29:46","新北市三重區重新路四段121號","121.485198333333","25.0521","6500200","三重區"
"241007","398-BY","2019/08/02 15:30:01","新北市三重區重新路四段121號","121.484945","25.051875","6500200","三重區"
"241022","KED-0820","2019/08/02 15:29:54","新北市三重區重新路四段121號","121.484766666667","25.05203","6500200","三重區"
"241012","941-UM","2019/08/02 15:29:53","新北市三重區重新路四段121號","121.484945","25.051735","6500200","三重區"
"241029","942-UM","2019/08/02 15:29:48","新北市三重區重新路四段121號","121.484746666667","25.0519366666667","6500200","三重區"
"241033","AAC-255","2019/08/02 15:29:48","新北市三重區重新路五段283號","121.480711666667","25.0499616666667","6500200","三重區"
"235033","4980-A6","2019/08/02 15:29:41","新北市中和區建八路14號","121.486763333333","24.998505","6500300","中和區"
"235054","640-BX","2019/08/02 15:29:44","新北市中和區員山路36巷16-2號","121.485313333333","24.9916283333333","6500300","中和區"
"235026","800-TS","2019/08/02 15:29:50","新北市中和區中山路二段482巷31號","121.489793333333","25.00669","6500300","中和區"
"235001","AAC-213","2019/08/02 15:29:44","新北市八里區中山路三段409號","121.36866","25.1353883333333","6500300","中和區"
"235023","AAC-215","2019/08/02 15:29:44","新北市中和區員山路5-5號","121.483158333333","24.984515","6500300","中和區"
"220034","073-UY","2019/08/02 15:29:48","新北市樹林區中山路三段210-2號","121.380811666667","24.9661683333333","6500100","板橋區"
"227002","642-TC","2019/08/02 15:29:54","新北市雙溪區三貂里政光路3-1號","121.850933333333","25.0632266666667","6502500","雙溪區"
"207001","662-BX","2019/08/02 15:29:44","新北市萬里區野柳里八斗60號","121.671115","25.2013666666667","6502800","萬里區"
"236040","KED-0685","2019/08/02 15:29:48","新北市土城區學府路一段164巷6弄2號","121.453583333333","24.987375","6501300","土城區"
"236077","166-UM","2019/08/02 15:29:46","新北市土城區中州路67巷18號","121.41226","24.95723","6501300","土城區"
"236029","253-BX","2019/08/02 15:29:54","新北市土城區中央路一段242巷9號","121.444036666667","24.98514","6501300","土城區"
"236024","269-VK","2019/08/02 15:29:49","新北市土城區明德路二段102巷6號","121.445455","24.98437","6501300","土城區"
"236013","270-VK","2019/08/02 15:29:44","新北市土城區廣明街23巷24號","121.454668333333","24.992205","6501300","土城區"
"236032","271-VK","2019/08/02 15:29:57","新北市土城區延吉街373巷6號","121.463731666667","24.9835483333333","6501300","土城區"
"236067","KEA-2877","2019/08/02 15:29:59","新北市土城區中央路二段192巷2號","121.44155","24.9761033333333","6501300","土城區"
"236016","401-BY","2019/08/02 15:29:58","新北市土城區延吉街70號","121.47124","24.9866583333333","6501300","土城區"
"236057","912-UM","2019/08/02 15:29:51","新北市土城區中央路一段286號","121.443603333333","24.9825133333333","6501300","土城區"
"236045","913-UM","2019/08/02 15:29:48","新北市土城區青雲路151巷21號","121.459731666667","24.984515","6501300","土城區"
"236060","915-UM","2019/08/02 15:29:54","新北市土城區立德路135巷5弄1號","121.46492","24.98701","6501300","土城區"
"236054","AAC-216","2019/08/02 15:29:45","新北市土城區學府路一段42號","121.45791","24.9885366666667","6501300","土城區"
"220031","286-VK","2019/08/02 15:29:58","新北市板橋區僑中二街108巷28號","121.444676666667","25.0075066666667","6500100","板橋區"
"220003","461-BY","2019/08/02 15:29:53","新北市板橋區華東街1-9號","121.448236666667","24.9948333333333","6500100","板橋區"
"220042","689-BX","2019/08/02 15:29:57","新北市八里區中山路三段380號","121.369945","25.1367733333333","6500100","板橋區"
