"lineid","car","time","location","longitude","latitude","cityid","cityname"
"234026","9371-KE","2019/08/02 17:59:45","新北市永和區水源街2巷20號","121.512141666667","25.00563","6500400","永和區"
"249005","172-UM","2019/08/02 17:59:40","新北市八里區荖阡坑路16號","121.397763333333","25.138335","6502300","八里區"
"249001","173-UM","2019/08/02 17:59:35","新北市八里區龍米路二段37號","121.448396666667","25.1400666666667","6502300","八里區"
"249004","303-UY","2019/08/02 17:59:39","新北市八里區大崁腳47-3號","121.424533333333","25.158985","6502300","八里區"
"249002","305-UY","2019/08/02 17:59:29","新北市八里區龍形五街15號","121.450051666667","25.1334666666667","6502300","八里區"
"249003","593-UM","2019/08/02 17:59:44","新北市八里區中華路二段199號","121.406393333333","25.1503416666667","6502300","八里區"
"248008","KED-0815","2019/08/02 17:59:38","新北市五股區中興路二段168號","121.458126666667","25.0778683333333","6501500","五股區"
"248018","KED-0813","2019/08/02 17:59:42","新北市五股區中興路二段63巷17號","121.460205","25.075255","6501500","五股區"
"248004","677-BX","2019/08/02 17:59:36","新北市五股區中興路二段182巷5號","121.457001666667","25.07882","6501500","五股區"
"232011","375-UM","2019/08/02 17:59:47","新北市坪林區北宜路八段157號","121.70734","24.9345766666667","6502000","坪林區"
"244007","080-UY","2019/08/02 17:59:29","新北市林口區林口路197號","121.387625","25.0825983333333","6501700","林口區"
"244013","KEA-2802","2019/08/02 17:59:43","新北市林口區中山路138-1號","121.39168","25.0786883333333","6501700","林口區"
"244023","483-VK","2019/08/02 17:59:44","新北市林口區隆林街99號","121.385056666667","25.074675","6501700","林口區"
"244017","485-VK","2019/08/02 17:59:36","新北市林口區忠孝路372號","121.369245","25.0714216666667","6501700","林口區"
"244009","656-BX","2019/08/02 17:59:33","新北市林口區佳林路56巷6弄9號","121.38536","25.0822766666667","6501700","林口區"
"244011","701-TV","2019/08/02 17:59:45","新北市林口區中正路59號","121.395296666667","25.0774233333333","6501700","林口區"
"244025","837-TS","2019/08/02 17:59:44","新北市林口區文化三路一段39巷185號","121.359331666667","25.067985","6501700","林口區"
"244021","838-TS","2019/08/02 17:59:47","新北市林口區粉寮路一段21號","121.39644","25.07669","6501700","林口區"
"222003","436-BY","2019/08/02 17:59:39","新北市深坑區炮子崙23號","121.607193333333","24.9909066666667","6501800","深坑區"
"222002","659-BX","2019/08/02 17:59:41","新北市深坑區文化街102號","121.616686666667","25.0018783333333","6501800","深坑區"
"241024","065-VK","2019/08/02 17:59:48","新北市三重區國道路一段42號","121.483098333333","25.072965","6500200","三重區"
"241001","887-TS","2019/08/02 17:59:39","新北市八里區中山路三段380號","121.369313333333","25.1362316666667","6500200","三重區"
"241033","AAC-255","2019/08/02 17:59:48","新北市三重區重新路五段593號","121.469508333333","25.0459233333333","6500200","三重區"
"235064","005-UY","2019/08/02 17:59:33","新北市中和區中正路395號","121.489928333333","24.9935766666667","6500300","中和區"
"235063","006-UY","2019/08/02 17:59:43","新北市中和區員山路36巷16-3號","121.48497","24.9911666666667","6500300","中和區"
"235065","098-UM","2019/08/02 17:59:46","新北市中和區中山路二段478號","121.487905","25.004775","6500300","中和區"
"235040","150-BY","2019/08/02 17:59:41","新北市中和區和城路一段271巷1號","121.485465","24.99178","6500300","中和區"
"235058","151-BY","2019/08/02 17:59:33","新北市中和區圓通路367巷20弄1號","121.492143333333","24.9882083333333","6500300","中和區"
"235038","185-VK","2019/08/02 17:59:35","新北市中和區中正路395號","121.489868333333","24.9935816666667","6500300","中和區"
"235042","KEA-2878","2019/08/02 17:59:40","新北市中和區中正路637巷48號","121.48549","24.9941533333333","6500300","中和區"
"247014","KEA-2869","2019/08/02 17:59:50","新北市蘆洲區忠孝路51號","121.47134","25.0864033333333","6501400","蘆洲區"
"235045","565-BX","2019/08/02 17:59:39","新北市中和區員山路36巷16-2號","121.485275","24.9917","6500300","中和區"
"235054","640-BX","2019/08/02 17:59:35","新北市中和區連城路523巷13弄28號","121.482393333333","24.9936966666667","6500300","中和區"
"235062","800-TS","2019/08/02 17:59:45","新北市中和區新生街280號","121.483701666667","24.9968","6500300","中和區"
"235057","801-TS","2019/08/02 17:59:47","新北市中和區連城路469巷13號","121.48361","24.9953366666667","6500300","中和區"
"235052","805-TS","2019/08/02 17:59:34","新北市中和區中正路637巷52弄1號","121.485453333333","24.99356","6500300","中和區"
"235048","896-TW","2019/08/02 17:59:08","新北市中和區員山路36巷16-3號","121.485136666667","24.9913916666667","6500300","中和區"
"235051","157-BY","2019/08/02 17:59:45","新北市中和區員山路36巷13號","121.48415","24.99112","6500300","中和區"
"235037","AAC-213","2019/08/02 17:59:33","新北市中和區景平路255號","121.508675","24.9928716666667","6500300","中和區"
"247018","546-UM","2019/08/02 17:59:35","新北市蘆洲區復興路183號","121.479028333333","25.089385","6501400","蘆洲區"
"247002","336-TH","2019/08/02 17:59:50","新北市蘆洲區永平街32巷45弄36號","121.458363333333","25.0933083333333","6501400","蘆洲區"
"247012","056-VK","2019/08/02 17:59:47","新北市蘆洲區民族路157號","121.4795","25.0880733333333","6501400","蘆洲區"
"247016","053-VK","2019/08/02 17:59:35","新北市蘆洲區中正路185巷78弄1號","121.466166666667","25.0842716666667","6501400","蘆洲區"
"247020","007-UY","2019/08/02 17:59:42","新北市蘆洲區民權路188-3號","121.471583333333","25.0908716666667","6501400","蘆洲區"
"226004","312-R5","2019/08/02 17:59:50","新北市平溪區石底里公園街18-3號","121.733343333333","25.0258166666667","6502400","平溪區"
"228002","663-BX","2019/08/02 17:59:35","新北市貢寮區福連里香蘭街2-1號","121.968","25.0233283333333","6502600","貢寮區"
"228001","670-TC","2019/08/02 17:59:28","新北市貢寮區真理里新港街26巷31號","121.929488333333","25.0545683333333","6502600","貢寮區"
"228003","828-UM","2019/08/02 17:59:36","新北市貢寮區真理里美艷山街6-2號","121.92882","25.0607316666667","6502600","貢寮區"
"224006","676-BX","2019/08/02 17:59:44","新北市瑞芳區大寮路356-1號","121.785075","25.1033016666667","6501200","瑞芳區"
"224007","285-BY","2019/08/02 17:59:40","新北市瑞芳區大寮路84號","121.780233333333","25.1012483333333","6501200","瑞芳區"
"224009","275-VK","2019/08/02 17:59:43","新北市瑞芳區金光路336號","121.850211666667","25.1097716666667","6501200","瑞芳區"
"224008","273-VK","2019/08/02 17:59:38","新北市瑞芳區明燈路一段45巷99號","121.8221","25.1041666666667","6501200","瑞芳區"
"224005","271-BY","2019/08/02 17:59:44","新北市瑞芳區深澳路18號","121.820578333333","25.132655","6501200","瑞芳區"
"227001","400-TW","2019/08/02 17:59:34","新北市雙溪區三貂里定福路1-2號","121.850711666667","25.063425","6502500","雙溪區"
"253006","032-BX","2019/08/02 17:59:40","新北市石門區大丘田45-2號","121.549866666667","25.2749316666667","6502200","石門區"
"253005","295-VK","2019/08/02 17:59:40","新北市石門區中山路62-7號","121.567275","25.2900616666667","6502200","石門區"
"222001","KEA-2212","2019/08/02 17:59:37","新北市深坑區北深路三段8號","121.61076","25.001","6501800","深坑區"
"208002","KEA-2872","2019/08/02 17:59:36","新北市金山區三界壇路54號","121.622555","25.2293516666667","6502700","金山區"
"208003","665-BX","2019/08/02 17:59:36","新北市金山區磺港里磺港路309號","121.644095","25.227655","6502700","金山區"
"251004","009-UM","2019/08/02 17:59:36","新北市淡水區民權路187號","121.45968","25.1335683333333","6501000","淡水區"
"251010","012-UM","2019/08/02 17:59:46","新北市淡水區中正路一段87巷1號","121.421911666667","25.1792366666667","6501000","淡水區"
"251008","181-VK","2019/08/02 17:59:31","新北市淡水區八勢路30巷19號","121.462438333333","25.1537983333333","6501000","淡水區"
"251012","441-VK","2019/08/02 17:59:39","新北市淡水區北新路三段38巷7號","121.484426666667","25.1869933333333","6501000","淡水區"
"251007","442-VK","2019/08/02 17:59:28","新北市淡水區中正東路二段143巷1弄7號","121.460695","25.1481983333333","6501000","淡水區"
"251005","443-VK","2019/08/02 17:59:43","新北市淡水區英專路112號","121.445836666667","25.1721383333333","6501000","淡水區"
"251001","559-UM","2019/08/02 17:59:47","新北市淡水區民權路14號","121.46306","25.124505","6501000","淡水區"
"251006","561-UM","2019/08/02 17:59:47","新北市淡水區真理街2號","121.438796666667","25.173095","6501000","淡水區"
"251009","575-R6","2019/08/02 17:59:36","新北市淡水區中山路123號","121.44156","25.1710733333333","6501000","淡水區"
"251011","650-BX","2019/08/02 17:55:44","新北市淡水區吳(仔)厝7-1號","121.480278333333","25.1471083333333","6501000","淡水區"
"251002","672-BX","2019/08/02 17:59:45","新北市淡水區中山路18-1號","121.444518333333","25.169125","6501000","淡水區"
"251003","766-UM","2019/08/02 17:59:37","新北市淡水區大忠街35號","121.444243333333","25.17631","6501000","淡水區"
"207003","550-UM","2019/08/02 17:59:35","新北市萬里區野柳里東澳路66號","121.692768333333","25.2009616666667","6502800","萬里區"
"207004","225-TW","2019/08/02 17:59:38","新北市萬里區萬里里瑪鋉路5號","121.686405","25.1751583333333","6502800","萬里區"
"252002","AAC-283","2019/08/02 17:59:46","新北市三芝區中山路二段41號","121.502963333333","25.2550766666667","6502100","三芝區"
"208001","170-UY","2019/08/02 17:59:45","新北市金山區磺港里磺港路248號","121.643803333333","25.2250516666667","6502700","金山區"
"237004","KEA-2597","2019/08/02 17:59:35","新北市三峽區中正路二段196號","121.365986666667","24.9151116666667","6500900","三峽區"
"237007","153-BY","2019/08/02 17:59:47","新北市三峽區中園街108號","121.36717","24.9229966666667","6500900","三峽區"
"237009","210-TH","2019/08/02 17:59:39","新北市三峽區中山路106巷21號","121.36604","24.9363816666667","6500900","三峽區"
"237013","252-BX","2019/08/02 17:59:43","新北市三峽區中華路5-1號","121.37461","24.9327366666667","6500900","三峽區"
"237012","275-BY","2019/08/02 17:59:32","新北市三峽區民生街27巷1號","121.37608","24.9362516666667","6500900","三峽區"
"237008","302-VK","2019/08/02 17:59:44","新北市三峽區白雞30-1號","121.371026666667","24.91204","6500900","三峽區"
"237014","433-BY","2019/08/02 17:59:41","新北市三峽區和平街36巷7弄6號","121.37093","24.937345","6500900","三峽區"
"237006","5529-G3","2019/08/02 17:59:44","新北市三峽區介壽路二段138巷9-2號","121.39585","24.9340816666667","6500900","三峽區"
"237011","KEA-2596","2019/08/02 17:59:43","新北市三峽區光明路69巷5號","121.376033333333","24.9287616666667","6500900","三峽區"
"237015","649-BX","2019/08/02 17:59:33","新北市三峽區紫微路109號","121.408571666667","24.9112166666667","6500900","三峽區"
"237010","706-TV","2019/08/02 17:59:42","新北市三峽區中山路45號","121.368061666667","24.9345033333333","6500900","三峽區"
"237005","AKY-6261","2019/08/02 17:59:47","新北市三峽區和平街87號","121.369995","24.9375233333333","6500900","三峽區"
"236042","KED-0685","2019/08/02 17:59:40","新北市土城區城林路6巷80號","121.438641666667","24.9795416666667","6501300","土城區"
"233002","762-BX","2019/08/02 17:59:28","新北市烏來區烏來街91號","121.551516666667","24.8640583333333","6502900","烏來區"
"236079","166-UM","2019/08/02 17:59:44","新北市土城區永寧路32巷10弄3號","121.428848333333","24.9610216666667","6501300","土城區"
"236030","253-BX","2019/08/02 17:59:32","新北市土城區城林路6巷80號","121.438603333333","24.9796233333333","6501300","土城區"
"236026","269-VK","2019/08/02 17:59:37","新北市土城區中央路三段92號","121.436088333333","24.96676","6501300","土城區"
"236014","270-VK","2019/08/02 17:59:34","新北市土城區城林路6巷80號","121.43843","24.9799866666667","6501300","土城區"
"236039","271-VK","2019/08/02 17:59:35","新北市土城區員福街32號","121.441155","24.9787516666667","6501300","土城區"
"247010","KED-0683","2019/08/02 17:59:48","新北市蘆洲區信義路194號","121.479095","25.0845016666667","6501400","蘆洲區"
"236069","KEA-2877","2019/08/02 17:59:34","新北市土城區中華路一段263號","121.440338333333","24.9804916666667","6501300","土城區"
"252001","KED-0821","2019/08/02 17:59:32","新北市三芝區中興街二段2號","121.498308333333","25.256665","6502100","三芝區"
"236020","401-BY","2019/08/02 17:59:27","新北市土城區城林路6巷80號","121.438475","24.9796","6501300","土城區"
"236059","912-UM","2019/08/02 17:59:43","新北市土城區中央路三段238-4號","121.42831","24.9643166666667","6501300","土城區"
"236048","913-UM","2019/08/02 17:59:49","新北市土城區中央路二段207號","121.441683333333","24.974485","6501300","土城區"
"236063","915-UM","2019/08/02 17:59:37","新北市土城區城林路6巷80號","121.438653333333","24.9799316666667","6501300","土城區"
"236055","AAC-216","2019/08/02 17:59:46","新北市土城區城林路6巷80號","121.43852","24.9796583333333","6501300","土城區"
"242039","AAC-296","2019/08/02 17:59:45","新北市新莊區民安西路24巷18弄2號","121.426145","25.0208466666667","6500500","新莊區"
"242060","986-R7","2019/08/02 17:59:44","新北市新莊區新樹路601號","121.433211666667","25.005855","6500500","新莊區"
"242002","751-BX","2019/08/02 17:59:49","新北市新莊區中正路161號","121.455471666667","25.0366733333333","6500500","新莊區"
"242029","615-BX","2019/08/02 17:59:35","新北市新莊區中平路110巷4-1號","121.445513333333","25.0459733333333","6500500","新莊區"
"242058","612-BX","2019/08/02 17:59:35","新北市新莊區雙鳳路134巷4號","121.4129","25.0280733333333","6500500","新莊區"
"242046","566-BX","2019/08/02 17:59:50","新北市新莊區福營路165巷21號","121.432586666667","25.0306","6500500","新莊區"
"242007","442-UM","2019/08/02 17:59:37","新北市新莊區自信街63號","121.455418333333","25.0482816666667","6500500","新莊區"
"242056","441-UM","2019/08/02 17:59:35","新北市新莊區豐年街57-1號","121.446533333333","25.0298416666667","6500500","新莊區"
"242005","440-UM","2019/08/02 17:59:47","新北市新莊區思源路177巷17號","121.45911","25.0462483333333","6500500","新莊區"
"242041","415-TV","2019/08/02 17:59:37","新北市新莊區丹鳳街26號","121.421716666667","25.02927","6500500","新莊區"
"242011","413-TV","2019/08/02 17:59:39","新北市新莊區中原路217巷5號","121.450518333333","25.0539033333333","6500500","新莊區"
"242048","400-BY","2019/08/02 17:59:44","新北市新莊區萬安街102巷1號","121.420098333333","25.022515","6500500","新莊區"
"242025","362-BY","2019/08/02 17:59:47","新北市新莊區五工路58號","121.458816666667","25.062855","6500500","新莊區"
"242023","353-BY","2019/08/02 17:59:34","新北市新莊區福壽街33號","121.45817","25.048425","6500500","新莊區"
"242013","132-UY","2019/08/02 17:59:50","新北市新莊區中和街125巷10弄6-1號","121.447058333333","25.048835","6500500","新莊區"
"242037","135-UY","2019/08/02 17:59:33","新北市新莊區建福路29號","121.426351666667","25.028805","6500500","新莊區"
"242054","172-VK","2019/08/02 17:59:48","新北市新莊區民安西路412-2號","121.429108333333","25.0099033333333","6500500","新莊區"
"242015","173-VK","2019/08/02 17:59:34","新北市新莊區新泰路502巷42弄10號","121.444135","25.0459433333333","6500500","新莊區"
"242021","175-VK","2019/08/02 17:59:41","新北市新莊區中正路217號","121.451076666667","25.0358316666667","6500500","新莊區"
"242019","KED-0687","2019/08/02 17:59:43","新北市新莊區明中街51巷13號","121.456458333333","25.0393233333333","6500500","新莊區"
"242009","346-TH","2019/08/02 17:59:36","新北市新莊區中華路二段260號","121.452571666667","25.0531866666667","6500500","新莊區"
"242050","347-TH","2019/08/02 17:59:42","新北市新莊區民安西路155巷1號","121.426443333333","25.016565","6500500","新莊區"
"242034","348-TH","2019/08/02 17:59:38","新北市新莊區中正路421巷9號","121.444778333333","25.0337983333333","6500500","新莊區"
"242032","350-TH","2019/08/02 17:59:41","新北市新莊區新泰路305巷14號","121.444556666667","25.041005","6500500","新莊區"
"242017","351-TH","2019/08/02 17:59:47","新北市新莊區中和街60巷5號","121.44822","25.044785","6500500","新莊區"
"238015","755-BX","2019/08/02 17:59:41","新北市樹林區大安路493號","121.414331666667","24.986875","6500700","樹林區"
"238023","601-UM","2019/08/02 17:59:46","新北市樹林區龍興街46巷30號","121.401933333333","25.01528","6500700","樹林區"
"238019","599-UM","2019/08/02 17:59:42","新北市樹林區太平路207號","121.418653333333","24.97803","6500700","樹林區"
"238018","KEA-2217","2019/08/02 17:59:43","新北市樹林區中正路7-1號","121.430236666667","24.9975783333333","6500700","樹林區"
"238021","KEA-2539","2019/08/02 17:59:34","新北市樹林區柑園街一段136號","121.399488333333","24.9571016666667","6500700","樹林區"
"238025","303-VK","2019/08/02 17:59:37","新北市樹林區三俊街43號","121.412613333333","25.0156316666667","6500700","樹林區"
"238017","283-BY","2019/08/02 17:59:42","新北市樹林區三德街29-7號","121.414806666667","25.0132133333333","6500700","樹林區"
"238014","282-BY","2019/08/02 17:59:51","新北市樹林區大安路11號","121.425","25.0004683333333","6500700","樹林區"
"238020","268-VK","2019/08/02 17:59:39","新北市樹林區三俊街199巷20弄1-1號","121.420571666667","25.017805","6500700","樹林區"
"238026","172-UY","2019/08/02 17:59:20","新北市樹林區中洲街30巷6弄4號","121.397351666667","24.971425","6500700","樹林區"
"238016","169-UY","2019/08/02 17:59:25","新北市樹林區啟智街98-9號","121.416986666667","24.9883066666667","6500700","樹林區"
"239007","AAC-297","2019/08/02 17:59:29","新北市鶯歌區鶯桃路16號","121.342218333333","24.9515983333333","6500800","鶯歌區"
"239006","891-R6","2019/08/02 17:57:30","桃園市蘆竹區蘆竹里蘆竹108-33號","121.266321666667","25.0487566666667","6500800","鶯歌區"
"239008","527-UM","2019/08/02 17:59:47","新北市鶯歌區香賓街11巷17號","121.33618","24.9796883333333","6500800","鶯歌區"
"239005","526-UM","2019/08/02 17:59:47","新北市鶯歌區鶯桃路668巷73號","121.329875","24.9717533333333","6500800","鶯歌區"
"239001","417-VK","2019/08/02 17:59:44","新北市鶯歌區中正三路280號","121.329038333333","24.9361816666667","6500800","鶯歌區"
"239003","360-BY","2019/08/02 17:59:33","新北市鶯歌區永吉街7巷1號","121.33665","24.95856","6500800","鶯歌區"
"239002","359-BY","2019/08/02 17:59:36","新北市鶯歌區國華路37號","121.342821666667","24.95553","6500800","鶯歌區"
"239004","193-VK","2019/08/02 17:59:37","新北市鶯歌區尖山路135號","121.346973333333","24.9485666666667","6500800","鶯歌區"
"221008","489-VK","2019/08/02 17:59:38","新北市汐止區康寧街753巷2弄8號","121.639241666667","25.07383","6501100","汐止區"
"244019","KED-0667","2019/08/02 17:59:30","新北市林口區文化一路一段122號","121.374528333333","25.072105","6501700","林口區"
"221010","269-BY","2019/08/02 17:59:50","新北市汐止區汐萬路二段247號","121.646356666667","25.0882283333333","6501100","汐止區"
"221023","279-VK","2019/08/02 17:59:48","新北市汐止區明峰街72號","121.631598333333","25.0711883333333","6501100","汐止區"
"221031","297-VK","2019/08/02 17:59:36","新北市汐止區合順街39巷1號","121.620666666667","25.0433133333333","6501100","汐止區"
"221029","298-VK","2019/08/02 17:59:46","新北市汐止區樟樹二路339巷6弄3-1號","121.641251666667","25.0706633333333","6501100","汐止區"
"221031","353-TW","2019/08/02 17:59:28","新北市汐止區中興路96巷1-3號","121.635236666667","25.06251","6501100","汐止區"
"221035","622-UM","2019/08/02 17:59:42","新北市汐止區汐萬路一段244-1號","121.651308333333","25.0734316666667","6501100","汐止區"
"221025","623-UM","2019/08/02 17:59:36","新北市汐止區仁愛路25號","121.659356666667","25.0637566666667","6501100","汐止區"
"221038","646-BX","2019/08/02 17:59:37","新北市汐止區新台五路一段140號","121.65305","25.0619083333333","6501100","汐止區"
"221018","753-BX","2019/08/02 17:59:36","新北市汐止區中正路7號","121.663128333333","25.0698883333333","6501100","汐止區"
"224002","257-TC","2019/08/02 17:59:50","新北市瑞芳區三爪子坑路145號","121.810495","25.1064433333333","6501200","瑞芳區"
"242044","281-VK","2019/08/02 17:59:40","新北市新莊區雙鳳路53號","121.415823333333","25.0271733333333","6500500","新莊區"
"235061","KEA-2875","2019/08/02 17:59:20","新北市中和區員山路72-1號","121.481075","24.9935816666667","6500300","中和區"
