"lineid","car","time","location","longitude","latitude","cityid","cityname"
"234046","148-BY","2019/08/02 19:39:56","新北市永和區秀朗路二段89號","121.523176666667","25.0016983333333","6500400","永和區"
"234081","298-R6","2019/08/02 19:39:46","新北市永和區國中路104巷8弄12號","121.525046666667","25.0065183333333","6500400","永和區"
"234038","336-UY","2019/08/02 19:39:45","新北市永和區民樂街21號","121.527636666667","25.0019866666667","6500400","永和區"
"234064","337-UY","2019/08/02 19:39:42","新北市永和區秀朗路一段192巷6弄12號","121.519065","25.002315","6500400","永和區"
"234086","338-UY","2019/08/02 19:39:58","新北市永和區永亨路150號","121.525425","25.00387","6500400","永和區"
"234070","552-UM","2019/08/02 19:39:47","新北市永和區永和路二段233號","121.515568333333","25.0141333333333","6500400","永和區"
"234017","745-BX","2019/08/02 19:39:52","新北市永和區永和路二段425巷57弄7號","121.51357","25.01706","6500400","永和區"
"234030","746-BX","2019/08/02 19:39:54","新北市永和區四維街101號","121.523963333333","24.9979933333333","6500400","永和區"
"234054","KEA-2590","2019/08/02 19:39:47","新北市永和區竹林路39巷18號","121.518633333333","25.0146383333333","6500400","永和區"
"234007","KED-0605","2019/08/02 19:39:58","新北市中和區中和路416號","121.511596666667","25.003245","6500400","永和區"
"234013","KEA-2591","2019/08/02 19:39:46","新北市永和區永平路254號","121.508323333333","25.0111366666667","6500400","永和區"
"234061","AAD-866","2019/08/02 19:39:45","新北市永和區中正路446號","121.517416666667","25.00278","6500400","永和區"
"234042","862-TW","2019/08/02 19:39:55","新北市中和區中和路260-1號","121.508105","24.9996683333333","6500400","永和區"
"234050","863-TW","2019/08/02 19:39:51","新北市永和區文化路208號","121.510298333333","25.0166516666667","6500400","永和區"
"234026","9371-KE","2019/08/02 19:39:45","新北市永和區中和路501巷5號","121.51038","25.0026316666667","6500400","永和區"
"234011","9373-KE","2019/08/02 19:39:57","新北市永和區仁愛路335號","121.503061666667","25.0073733333333","6500400","永和區"
"249002","305-UY","2019/08/02 19:39:48","新北市八里區頂寮二街83號","121.450056666667","25.1255666666667","6502300","八里區"
"249003","593-UM","2019/08/02 19:39:47","新北市八里區中華路二段532號","121.399136666667","25.1457","6502300","八里區"
"248016","026-BX","2019/08/02 19:39:45","新北市五股區成泰路三段476號","121.451858333333","25.1014616666667","6501500","五股區"
"248008","KED-0815","2019/08/02 19:39:58","新北市五股區四維路155巷27號","121.466818333333","25.074185","6501500","五股區"
"248018","KED-0813","2019/08/02 19:40:02","新北市五股區外寮路1-5號","121.425886666667","25.0768183333333","6501500","五股區"
"248012","247-BX","2019/08/02 19:39:58","新北市五股區蓬萊路6巷43號","121.43582","25.080325","6501500","五股區"
"248014","261-SL","2019/08/02 19:39:44","新北市五股區五福路42巷12號","121.434346666667","25.0896466666667","6501500","五股區"
"248010","272-BY","2019/08/02 19:39:48","新北市五股區自強路148號","121.432196666667","25.070585","6501500","五股區"
"248004","677-BX","2019/08/02 19:40:01","新北市五股區成泰路二段26號","121.437126666667","25.0811916666667","6501500","五股區"
"248002","678-BX","2019/08/02 19:39:49","新北市五股區成泰路三段577巷81號","121.449655","25.1037083333333","6501500","五股區"
"234023","9380-KE","2019/08/02 19:39:55","新北市永和區仁愛路301號","121.503873333333","25.0081366666667","6500400","永和區"
"234077","969-R7","2019/08/02 19:39:50","新北市永和區民族街67巷12號","121.519068333333","24.9971716666667","6500400","永和區"
"234074","AAC-211","2019/08/02 19:38:21","新北市永和區竹林路225巷11號","121.521453333333","25.008555","6500400","永和區"
"234067","AAC-212","2019/08/02 19:39:45","新北市永和區中山路一段213號","121.508585","25.0080783333333","6500400","永和區"
"234003","AAC-295","2019/08/02 19:39:44","新北市永和區福和路352號","121.514891666667","25.0074133333333","6500400","永和區"
"244023","483-VK","2019/08/02 19:39:44","新北市林口區仁愛路二段267巷1號","121.373483333333","25.077215","6501700","林口區"
"243012","AAD-798","2019/08/02 19:39:57","新北市泰山區仁愛路132號","121.434318333333","25.0558233333333","6501600","泰山區"
"243016","421-VK","2019/08/02 19:39:59","新北市泰山區新北大道七段46號","121.41938","25.0321883333333","6501600","泰山區"
"243009","KEA-2215","2019/08/02 19:39:58","新北市泰山區美寧街68號","121.431015","25.06465","6501600","泰山區"
"243011","KEA-2216","2019/08/02 19:39:53","新北市泰山區台麗街24-3號","121.426056666667","25.037455","6501600","泰山區"
"243015","680-BX","2019/08/02 19:39:56","新北市泰山區民權街97號","121.428555","25.0494633333333","6501600","泰山區"
"222003","436-BY","2019/08/02 19:39:59","新北市深坑區深南路51號","121.621111666667","25.0097766666667","6501800","深坑區"
"222002","659-BX","2019/08/02 19:39:53","新北市深坑區北深路一段177號","121.632526666667","25.0108166666667","6501800","深坑區"
"231059","001-UM","2019/08/02 19:39:41","新北市新店區安和路三段47-1號","121.517998333333","24.9823333333333","6500600","新店區"
"231061","002-UM","2019/08/02 19:39:46","新北市新店區安民街125號","121.516333333333","24.9687466666667","6500600","新店區"
"231058","0293-UT","2019/08/02 19:39:45","新北市新店區中正路102巷8弄2號","121.543326666667","24.9710066666667","6500600","新店區"
"231044","046-UY","2019/08/02 19:39:54","新北市新店區北新路三段115號","121.541333333333","24.9823566666667","6500600","新店區"
"231060","106-UY","2019/08/02 19:39:45","新北市新店區安康路二段161號","121.510221666667","24.959385","6500600","新店區"
"231051","107-UY","2019/08/02 19:39:46","新北市新店區中央四街40號","121.528168333333","24.9746466666667","6500600","新店區"
"231049","108-UY","2019/08/02 19:39:56","新北市新店區大豐路53號","121.539918333333","24.97974","6500600","新店區"
"231065","110-UY","2019/08/02 19:39:50","新北市新店區安祥路109巷90弄44號","121.476748333333","24.9590116666667","6500600","新店區"
"231062","256-BX","2019/08/02 19:39:52","新北市新店區合作路7號","121.533445","24.9576966666667","6500600","新店區"
"231054","260-TV","2019/08/02 19:39:42","新北市新店區文中路43號","121.539691666667","24.9567383333333","6500600","新店區"
"231042","268-BY","2019/08/02 19:40:00","新北市新店區中興路一段202號","121.54367","24.96531","6500600","新店區"
"231064","278-BY","2019/08/02 19:39:57","新北市新店區安和路一段52巷2-1號","121.517633333333","24.966315","6500600","新店區"
"231050","AAD-862","2019/08/02 19:39:45","新北市新店區北宜路二段94號","121.555256666667","24.9535416666667","6500600","新店區"
"231045","355-BY","2019/08/02 19:40:02","新北市新店區北宜路二段207號","121.55311","24.9534216666667","6500600","新店區"
"231055","4716-K9","2019/08/02 19:39:47","新北市新店區中華路83巷67號","121.53835","24.9673983333333","6500600","新店區"
"231056","4715-K9","2019/08/02 19:39:45","新北市新店區民權路124號","121.535231666667","24.9828166666667","6500600","新店區"
"231067","4772-VM","2019/08/02 19:40:01","新北市新店區安康路一段35號","121.531631666667","24.9607183333333","6500600","新店區"
"231053","513-UM","2019/08/02 19:39:53","新北市新店區新烏路二段336號","121.550578333333","24.9102016666667","6500600","新店區"
"231040","617-UM","2019/08/02 19:39:58","新北市新店區北新路一段251號","121.540873333333","24.966005","6500600","新店區"
"231041","619-UM","2019/08/02 19:39:47","新北市新店區中正路487號","121.533801666667","24.9821166666667","6500600","新店區"
"231063","641-BX","2019/08/02 19:39:43","新北市新店區達觀路27-1號","121.503993333333","24.93829","6500600","新店區"
"231048","718-UY","2019/08/02 19:39:56","新北市新店區中興路一段296號","121.546391666667","24.9692133333333","6500600","新店區"
"231046","719-UM","2019/08/02 19:39:46","新北市新店區中正路342號","121.536523333333","24.9750433333333","6500600","新店區"
"231057","720-UM","2019/08/02 19:40:03","新北市新店區橘園一路7號","121.54797","24.9339016666667","6500600","新店區"
"231043","899-TW","2019/08/02 19:39:59","新北市新店區中正路167號","121.541091666667","24.9719766666667","6500600","新店區"
"231066","AKT-0513","2019/08/02 19:39:59","新北市新店區安康路三段355巷1號","121.484263333333","24.950895","6500600","新店區"
"241028","022-UY","2019/08/02 19:39:59","新北市三重區中寮街90號","121.493316666667","25.0579333333333","6500200","三重區"
"241008","059-VK","2019/08/02 19:39:53","新北市三重區永福街68號","121.47909","25.07698","6500200","三重區"
"241016","060-VK","2019/08/02 19:39:45","新北市三重區正義北路16巷18號","121.497006666667","25.0628416666667","6500200","三重區"
"241031","061-VK","2019/08/02 19:40:01","新北市三重區重新路四段216號","121.485933333333","25.054365","6500200","三重區"
"241017","063-VK","2019/08/02 19:39:49","新北市三重區重陽路三段5巷30號","121.491255","25.065305","6500200","三重區"
"241011","066-VK","2019/08/02 19:39:40","新北市三重區秀江街188號","121.497793333333","25.0716516666667","6500200","三重區"
"241015","742-BX","2019/08/02 19:39:56","新北市三重區福德南路56號","121.504465","25.0610133333333","6500200","三重區"
"241006","262-UM","2019/08/02 19:39:53","新北市三重區聯華街78號","121.48607","25.07542","6500200","三重區"
"241009","267-UM","2019/08/02 19:39:50","新北市三重區三和路四段400巷28號","121.480188333333","25.0790966666667","6500200","三重區"
"241032","269-UM","2019/08/02 19:39:44","新北市三重區重陽路一段60巷45號","121.484896666667","25.0582266666667","6500200","三重區"
"241013","270-UM","2019/08/02 19:39:55","新北市三重區仁愛街119號","121.495353333333","25.07461","6500200","三重區"
"241025","271-UM","2019/08/02 19:39:59","新北市三重區忠孝路三段52號","121.48069","25.0656483333333","6500200","三重區"
"241007","398-BY","2019/08/02 19:39:53","新北市三重區三和路四段125巷68號","121.48704","25.0784616666667","6500200","三重區"
"241035","KEA-2210","2019/08/02 19:39:51","新北市三重區正義北路63號","121.497516666667","25.064565","6500200","三重區"
"241030","KED-0822","2019/08/02 19:39:58","新北市三重區新興路30-1號","121.49189","25.0531066666667","6500200","三重區"
"241020","478-VK","2019/08/02 19:39:55","新北市三重區自強路三段97號","121.487621666667","25.0751966666667","6500200","三重區"
"241026","480-VK","2019/08/02 19:39:50","新北市三重區文化南路65巷13號","121.499695","25.060955","6500200","三重區"
"241014","543-UM","2019/08/02 19:40:00","新北市三重區河邊北街82號","121.504166666667","25.0690083333333","6500200","三重區"
"241023","545-UM","2019/08/02 19:39:45","新北市三重區忠孝路三段99巷11號","121.479825","25.064255","6500200","三重區"
"241019","KEA-2593","2019/08/02 19:39:43","新北市三重區安慶街361巷23號","121.488501666667","25.0679366666667","6500200","三重區"
"241001","887-TS","2019/08/02 19:39:58","新北市三重區仁愛街315巷15號","121.493418333333","25.0796866666667","6500200","三重區"
"241012","941-UM","2019/08/02 19:39:53","新北市三重區仁興街28巷11號","121.498808333333","25.0753183333333","6500200","三重區"
"241029","942-UM","2019/08/02 19:39:52","新北市三重區重安街70-20號","121.492103333333","25.056795","6500200","三重區"
"235066","003-UY","2019/08/02 19:40:00","新北市中和區景新街140-3號","121.505511666667","24.9977483333333","6500300","中和區"
"235063","006-UY","2019/08/02 19:39:43","新北市中和區連城路263巷20號","121.492586666667","24.9947183333333","6500300","中和區"
"235056","096-UM","2019/08/02 19:39:54","新北市中和區中山路三段114巷46號","121.475798333333","25.007255","6500300","中和區"
"235039","097-UM","2019/08/02 19:39:51","新北市中和區景平路160號","121.517371666667","24.9922633333333","6500300","中和區"
"235065","098-UM","2019/08/02 19:39:46","新北市中和區福祥路90巷7弄5號","121.499476666667","25.0061616666667","6500300","中和區"
"235040","150-BY","2019/08/02 19:40:00","新北市中和區安平路38號","121.5099","24.9951816666667","6500300","中和區"
"235058","151-BY","2019/08/02 19:39:53","新北市中和區員山路146巷11號","121.482043333333","24.9968166666667","6500300","中和區"
"235055","183-VK","2019/08/02 19:39:53","新北市中和區中山路三段181巷18弄5號","121.472603333333","25.0052766666667","6500300","中和區"
"235038","185-VK","2019/08/02 19:39:55","新北市中和區自立路141巷3號","121.522458333333","24.9936166666667","6500300","中和區"
"235049","186-VK","2019/08/02 19:39:58","新北市中和區中正路30號","121.502448333333","24.9936133333333","6500300","中和區"
"235067","255-BX","2019/08/02 19:39:43","新北市中和區新生街220巷1弄11號","121.48335","24.9980616666667","6500300","中和區"
"235044","293-VK","2019/08/02 19:39:44","新北市中和區南山路421巷1弄3號","121.50735","24.9895883333333","6500300","中和區"
"235072","301-VK","2019/08/02 19:39:53","新北市中和區連城路281巷2弄13號","121.490225","24.9957533333333","6500300","中和區"
"235043","352-BY","2019/08/02 19:39:50","新北市中和區華新街230號","121.506058333333","24.9816083333333","6500300","中和區"
"235042","KEA-2878","2019/08/02 19:40:00","新北市中和區景安路79巷5號","121.506603333333","24.9971583333333","6500300","中和區"
"235070","558-UM","2019/08/02 19:40:01","新北市中和區連勝街30號","121.498251666667","24.9978566666667","6500300","中和區"
"235045","565-BX","2019/08/02 19:39:59","新北市中和區安樂路17號","121.51169","24.99218","6500300","中和區"
"235060","KED-0823","2019/08/02 19:39:57","新北市中和區員山路372號","121.48072","25.00408","6500300","中和區"
"235054","640-BX","2019/08/02 19:39:54","新北市中和區莒光路14號","121.472108333333","25.0043716666667","6500300","中和區"
"235047","732-UM","2019/08/02 19:39:47","新北市中和區興南路一段56巷11號","121.510218333333","24.9912266666667","6500300","中和區"
"235046","733-UM","2019/08/02 19:39:59","新北市中和區景新街496巷22號","121.513275","24.98616","6500300","中和區"
"235071","783-BX","2019/08/02 19:39:57","新北市中和區新生街116巷5號","121.48331","25.002025","6500300","中和區"
"235057","801-TS","2019/08/02 19:39:47","新北市中和區員山路249號","121.481348333333","24.9987083333333","6500300","中和區"
"235052","805-TS","2019/08/02 19:39:53","新北市中和區華新街192巷31號","121.506271666667","24.98327","6500300","中和區"
"235048","896-TW","2019/08/02 19:40:00","新北市中和區華新街66號","121.508098333333","24.9837216666667","6500300","中和區"
"235053","900-TW","2019/08/02 19:39:39","新北市中和區國光街215巷43號","121.467345","25.0004116666667","6500300","中和區"
"235051","157-BY","2019/08/02 19:39:45","新北市中和區中興街132巷22號","121.498826666667","24.9917783333333","6500300","中和區"
"235037","AAC-213","2019/08/02 19:39:53","新北市中和區自立路64號","121.52381","24.99132","6500300","中和區"
"235059","AAC-215","2019/08/02 19:39:43","新北市中和區圓通路319號","121.492696666667","24.9906583333333","6500300","中和區"
"220065","072-UY","2019/08/02 19:39:58","新北市板橋區國泰街111巷4-2號","121.465673333333","25.0061983333333","6500100","板橋區"
"220086","073-UY","2019/08/02 19:39:48","新北市板橋區中正路216巷8號","121.45625","25.0184116666667","6500100","板橋區"
"220106","075-UY","2019/08/02 19:39:49","新北市板橋區文化路二段608巷64號","121.480138333333","25.0340366666667","6500100","板橋區"
"220069","AAD-861","2019/08/02 19:39:58","新北市板橋區南雅南路二段18號","121.454451666667","25.0035083333333","6500100","板橋區"
"220068","120-SR","2019/08/02 19:39:54","新北市板橋區中山路二段412巷15號","121.48339","25.0204583333333","6500100","板橋區"
"247004","893-R6","2019/08/02 19:39:46","新北市蘆洲區中華街6巷5號","121.462265","25.082455","6501400","蘆洲區"
"247002","500-BY","2019/08/02 19:39:54","新北市蘆洲區三民路595號","121.460995","25.0936233333333","6501400","蘆洲區"
"226004","312-R5","2019/08/02 19:39:30","新北市平溪區十分里十分街106號","121.776756666667","25.0428033333333","6502400","平溪區"
"235041","251-BX","2019/08/02 19:39:48","新北市中和區永貞路221號","121.513731666667","25.0035866666667","6500300","中和區"
"228001","670-TC","2019/08/02 19:39:48","新北市貢寮區真理里延平街43號","121.924386666667","25.055605","6502600","貢寮區"
"228003","828-UM","2019/08/02 19:39:56","新北市貢寮區真理里美艷山街19-1號","121.923506666667","25.06831","6502600","貢寮區"
"224010","AGQ-8101","2019/08/02 19:39:55","新北市瑞芳區基山街212號","121.841941666667","25.1070183333333","6501200","瑞芳區"
"227002","642-TC","2019/08/02 19:39:44","新北市雙溪區雙溪里勝利街14-1號","121.865508333333","25.0357583333333","6502500","雙溪區"
"227001","400-TW","2019/08/02 19:39:53","新北市雙溪區新基里新基北街22號","121.867258333333","25.039075","6502500","雙溪區"
"222001","KEA-2212","2019/08/02 19:39:57","新北市深坑區深坑街148號","121.6131","25.001355","6501800","深坑區"
"208002","KEA-2872","2019/08/02 19:39:42","新北市金山區三民街34號","121.63491","25.223585","6502700","金山區"
"208003","665-BX","2019/08/02 19:39:56","新北市金山區仁愛路1巷1號","121.63859","25.2200866666667","6502700","金山區"
"251010","012-UM","2019/08/02 19:39:45","新北市淡水區崁頂三路115號","121.431456666667","25.2009166666667","6501000","淡水區"
"251008","181-VK","2019/08/02 19:39:53","新北市淡水區中正路32巷9號","121.430248333333","25.1754783333333","6501000","淡水區"
"251007","442-VK","2019/08/02 19:39:48","新北市淡水區中正東路一段111巷27號","121.455468333333","25.160615","6501000","淡水區"
"251005","443-VK","2019/08/02 19:39:43","新北市淡水區原德路108巷2號","121.443376666667","25.1734733333333","6501000","淡水區"
"251001","559-UM","2019/08/02 19:39:54","新北市淡水區民權路13-5號","121.459785","25.1418966666667","6501000","淡水區"
"251006","561-UM","2019/08/02 19:39:47","新北市淡水區中山北路一段207巷56號","121.442291666667","25.179095","6501000","淡水區"
"251009","575-R6","2019/08/02 19:39:56","新北市淡水區中山北路一段184巷9號","121.445398333333","25.1786566666667","6501000","淡水區"
"251011","650-BX","2019/08/02 19:39:45","新北市淡水區中正東路二段143巷2弄1號","121.460595","25.1472333333333","6501000","淡水區"
"251002","672-BX","2019/08/02 19:39:44","新北市淡水區下圭柔山91-3號","121.430936666667","25.21008","6501000","淡水區"
"251003","766-UM","2019/08/02 19:39:57","新北市淡水區中山北路三段159號","121.445281666667","25.1964333333333","6501000","淡水區"
"207003","550-UM","2019/08/02 19:39:55","新北市萬里區大鵬里萬里加投292號","121.645523333333","25.2190483333333","6502800","萬里區"
"207004","225-TW","2019/08/02 19:39:58","新北市萬里區萬里里瑪鋉路21號","121.687186666667","25.1753916666667","6502800","萬里區"
"252002","AAC-283","2019/08/02 19:39:46","新北市三芝區中正路一段36巷25號","121.504055","25.2588416666667","6502100","三芝區"
"208001","170-UY","2019/08/02 19:39:54","新北市金山區重和里六股林口20號","121.603013333333","25.2189966666667","6502700","金山區"
"237004","KEA-2597","2019/08/02 19:39:59","新北市三峽區插角234號","121.412445","24.8687283333333","6500900","三峽區"
"237007","153-BY","2019/08/02 19:39:07","新北市三峽區二鬮路136巷24弄65號","121.357453333333","24.9104683333333","6500900","三峽區"
"237009","210-TH","2019/08/02 19:39:59","新北市三峽區中園街64號","121.368033333333","24.9255066666667","6500900","三峽區"
"237013","252-BX","2019/08/02 19:39:43","新北市三峽區介壽路二段36號","121.391051666667","24.9352383333333","6500900","三峽區"
"237012","275-BY","2019/08/02 19:39:51","新北市三峽區民生街3號","121.374646666667","24.9353766666667","6500900","三峽區"
"237008","302-VK","2019/08/02 19:39:44","新北市三峽區中正路一段231號","121.372255","24.9268466666667","6500900","三峽區"
"237014","433-BY","2019/08/02 19:39:55","新北市三峽區中園街124-1號","121.36717","24.9222016666667","6500900","三峽區"
"237006","5529-G3","2019/08/02 19:39:44","新北市三峽區中正路一段336巷15弄2號","121.369953333333","24.924965","6500900","三峽區"
"237011","KEA-2596","2019/08/02 19:40:03","新北市三峽區中正路一段322號","121.371343333333","24.9250333333333","6500900","三峽區"
"237015","649-BX","2019/08/02 19:39:53","新北市三峽區成福路167號","121.421105","24.9300283333333","6500900","三峽區"
"237010","706-TV","2019/08/02 19:40:02","新北市三峽區復興路69號","121.372826666667","24.9373966666667","6500900","三峽區"
"237005","AKY-6261","2019/08/02 19:39:46","新北市三峽區文化路266-13號","121.366026666667","24.9356933333333","6500900","三峽區"
"236042","KED-0685","2019/08/02 19:39:59","新北市土城區學士路2號","121.45405","24.9833166666667","6501300","土城區"
"236079","166-UM","2019/08/02 19:40:03","新北市土城區溪頭路111號","121.41003","24.9516716666667","6501300","土城區"
"236030","253-BX","2019/08/02 19:39:52","新北市土城區福祥街64號","121.44155","24.9816","6501300","土城區"
"236039","271-VK","2019/08/02 19:39:58","新北市土城區青雲路295巷15號","121.459993333333","24.9798983333333","6501300","土城區"
"236069","KEA-2877","2019/08/02 19:39:54","新北市土城區金城路二段2巷5號","121.447355","24.9760116666667","6501300","土城區"
"252001","KED-0821","2019/08/02 19:39:52","新北市三芝區公正街66號","121.499843333333","25.2574616666667","6502100","三芝區"
"236020","401-BY","2019/08/02 19:39:47","新北市土城區峰廷街3號","121.469095","24.9873333333333","6501300","土城區"
"236059","912-UM","2019/08/02 19:39:50","新北市土城區中央路二段16-3號","121.442875","24.980525","6501300","土城區"
"236048","913-UM","2019/08/02 19:39:49","新北市土城區明德路一段97號","121.465665","24.9829216666667","6501300","土城區"
"236063","915-UM","2019/08/02 19:39:57","新北市土城區延平街69巷43號","121.46766","24.9917716666667","6501300","土城區"
"236055","AAC-216","2019/08/02 19:39:46","新北市土城區青雲路35號","121.460135","24.9882916666667","6501300","土城區"
"242060","986-R7","2019/08/02 19:39:46","新北市新莊區新泰路357巷1弄57號","121.442506666667","25.0395","6500500","新莊區"
"242002","751-BX","2019/08/02 19:39:49","新北市新莊區中正路473-1號","121.442038333333","25.0331283333333","6500500","新莊區"
"242056","441-UM","2019/08/02 19:39:56","新北市新莊區中正路400號","121.441983333333","25.0341866666667","6500500","新莊區"
"242005","440-UM","2019/08/02 19:39:51","新北市新莊區化成路31號","121.465156666667","25.0439283333333","6500500","新莊區"
"242013","132-UY","2019/08/02 19:39:59","新北市新莊區中泰街106號","121.4488","25.04663","6500500","新莊區"
"242037","135-UY","2019/08/02 19:39:53","新北市新莊區民安路207巷19號","121.42688","25.0231266666667","6500500","新莊區"
"242034","348-TH","2019/08/02 19:39:51","新北市新莊區仁愛街8號","121.444368333333","25.0351066666667","6500500","新莊區"
"242032","350-TH","2019/08/02 19:39:49","新北市新莊區新泰路213巷52號","121.445025","25.03844","6500500","新莊區"
"238015","755-BX","2019/08/02 19:39:49","新北市樹林區中山路一段149-2號","121.422203333333","24.9891983333333","6500700","樹林區"
"238023","601-UM","2019/08/02 19:39:55","新北市樹林區三寶街5號","121.4066","25.0157016666667","6500700","樹林區"
"238019","599-UM","2019/08/02 19:39:54","新北市樹林區八德街33號","121.418495","24.983735","6500700","樹林區"
"238024","5061-A6","2019/08/02 19:39:50","新北市樹林區佳園路一段46號","121.39293","24.9708566666667","6500700","樹林區"
"238022","KEA-2213","2019/08/02 19:39:55","新北市樹林區名園街78巷14號","121.419535","24.9777033333333","6500700","樹林區"
"238021","KEA-2539","2019/08/02 19:39:54","新北市樹林區佳園路三段101巷12-1號","121.388201666667","24.9513733333333","6500700","樹林區"
"238025","303-VK","2019/08/02 19:39:56","新北市樹林區中山路一段163號","121.421771666667","24.98861","6500700","樹林區"
"238017","283-BY","2019/08/02 19:39:53","新北市樹林區光興街63巷1號","121.410875","25.002535","6500700","樹林區"
"238014","282-BY","2019/08/02 19:39:51","新北市樹林區千歲街4號","121.425091666667","24.995695","6500700","樹林區"
"238020","268-VK","2019/08/02 19:39:59","新北市板橋區大觀路三段50巷59號","121.431801666667","24.9960966666667","6500700","樹林區"
"238026","172-UY","2019/08/02 19:40:00","新北市樹林區佳園路二段91號","121.390596666667","24.9593383333333","6500700","樹林區"
"238016","169-UY","2019/08/02 19:39:55","新北市樹林區大安路593號","121.41184","24.9829333333333","6500700","樹林區"
"239006","891-R6","2019/08/02 19:39:50","新北市鶯歌區永昌街75號","121.341011666667","24.9498483333333","6500800","鶯歌區"
"239002","359-BY","2019/08/02 19:39:56","新北市鶯歌區大湖路342號","121.346398333333","24.9721816666667","6500800","鶯歌區"
"239004","193-VK","2019/08/02 19:39:57","新北市鶯歌區二甲路43-12號","121.337243333333","24.93428","6500800","鶯歌區"
"221008","489-VK","2019/08/02 19:39:58","新北市汐止區康寧街145號","121.621916666667","25.0666033333333","6501100","汐止區"
"221010","269-BY","2019/08/02 19:39:44","新北市汐止區連峰街7號","121.646578333333","25.0771966666667","6501100","汐止區"
"221027","281-BY","2019/08/02 19:39:50","新北市汐止區忠孝東路9號","121.658295","25.065915","6501100","汐止區"
"221033","297-VK","2019/08/02 19:39:56","新北市汐止區南勢街1巷1號","121.627093333333","25.037455","6501100","汐止區"
"221021","299-VK","2019/08/02 19:39:49","新北市汐止區新台五路一段162號","121.65434","25.0625083333333","6501100","汐止區"
"221031","353-TW","2019/08/02 19:39:48","新北市汐止區康寧街901號","121.650713333333","25.0752783333333","6501100","汐止區"
"221025","623-UM","2019/08/02 19:39:56","新北市汐止區福安街20巷5號","121.662453333333","25.0649083333333","6501100","汐止區"
"221038","646-BX","2019/08/02 19:39:57","新北市汐止區忠孝東路241號","121.662753333333","25.0673333333333","6501100","汐止區"
"220079","145-BY","2019/08/02 19:39:40","新北市板橋區民權路260巷42號","121.459396666667","25.015195","6500100","板橋區"
"220080","200-UY","2019/08/02 19:39:59","新北市板橋區大觀路二段37巷248號","121.44979","25.001965","6500100","板橋區"
"220082","610-BX","2019/08/02 19:39:48","新北市板橋區大觀路三段263號","121.4291","24.9923016666667","6500100","板橋區"
"220101","245-BX","2019/08/02 19:39:49","新北市板橋區縣民大道三段93巷28號","121.474836666667","25.0225","6500100","板橋區"
"220084","256-TC","2019/08/02 19:39:57","新北市板橋區滿平二街36號","121.42523","24.98768","6500100","板橋區"
"224002","257-TC","2019/08/02 19:39:51","新北市瑞芳區三爪子坑路13巷281-6號","121.814536666667","25.1064166666667","6501200","瑞芳區"
"220091","267-BY","2019/08/02 19:39:56","新北市板橋區懷德街139巷14-3號","121.479523333333","25.0305816666667","6500100","板橋區"
"220056","276-BY","2019/08/02 19:39:59","新北市板橋區國慶路31號","121.458878333333","24.99564","6500100","板橋區"
"220072","277-BY","2019/08/02 19:39:43","新北市板橋區金門街253巷17弄20號","121.43349","24.988945","6500100","板橋區"
"220094","283-UM","2019/08/02 19:39:53","新北市板橋區長江路二段147號","121.465756666667","25.031845","6500100","板橋區"
"220071","283-VK","2019/08/02 19:40:00","新北市板橋區四川路一段353號","121.458335","24.999775","6500100","板橋區"
"220053","285-VK","2019/08/02 19:39:51","新北市板橋區民享街91號","121.477021666667","25.0158316666667","6500100","板橋區"
"220083","286-VK","2019/08/02 19:39:52","新北市板橋區龍興街71巷8號","121.44338","25.00203","6500100","板橋區"
"220081","287-VK","2019/08/02 19:39:56","新北市板橋區大觀路一段29巷139號","121.449658333333","25.00547","6500100","板橋區"
"220090","288-VK","2019/08/02 19:39:42","新北市板橋區龍泉街82巷14弄23號","121.455986666667","25.0262366666667","6500100","板橋區"
"220061","295-UM","2019/08/02 19:39:49","新北市板橋區中山路一段265巷3號","121.468263333333","25.0145816666667","6500100","板橋區"
"220075","303-R5","2019/08/02 19:39:57","新北市板橋區中正路253巷9-1號","121.45522","25.018125","6500100","板橋區"
"220062","305-R5","2019/08/02 19:39:58","新北市板橋區三民路二段29巷13號","121.48191","25.0181033333333","6500100","板橋區"
"220092","307-R5","2019/08/02 19:39:58","新北市板橋區四維路259巷67號","121.460775","25.0267883333333","6500100","板橋區"
"220098","317-R6","2019/08/02 19:39:40","新北市板橋區民生路三段299巷11-1號","121.462946666667","25.030215","6500100","板橋區"
"220055","461-BY","2019/08/02 19:39:46","新北市板橋區國慶路149巷2弄1-4號","121.461351666667","24.9965533333333","6500100","板橋區"
"220089","487-VK","2019/08/02 19:39:53","新北市板橋區新海路385巷22弄12號","121.457698333333","25.0263116666667","6500100","板橋區"
"220088","491-VK","2019/08/02 19:39:43","新北市板橋區文聖街62號","121.476796666667","25.030985","6500100","板橋區"
"220035","560-BX","2019/08/02 19:39:54","新北市板橋區中正路375巷42號","121.453698333333","25.0205216666667","6500100","板橋區"
"220103","561-BX","2019/08/02 19:39:43","新北市板橋區陽明街29巷3號","121.465215","25.0215083333333","6500100","板橋區"
"220063","609-BX","2019/08/02 19:39:55","新北市板橋區中山路二段366號","121.481791666667","25.0201833333333","6500100","板橋區"
"220057","686-BX","2019/08/02 19:40:00","新北市板橋區信義路16-2號","121.457018333333","24.995875","6500100","板橋區"
"220077","687-BX","2019/08/02 19:39:54","新北市板橋區僑中二街86號","121.446491666667","25.00961","6500100","板橋區"
"220093","689-BX","2019/08/02 19:39:51","新北市板橋區長江路二段146-1號","121.466471666667","25.0317833333333","6500100","板橋區"
"220054","741-BX","2019/08/02 19:39:54","新北市板橋區四川路一段253號","121.459683333333","25.0024466666667","6500100","板橋區"
"220102","KEA-2699","2019/08/02 19:39:59","新北市板橋區松柏街31-3號","121.475203333333","25.0302516666667","6500100","板橋區"
"220067","829-TW","2019/08/02 19:39:48","新北市板橋區長安街251巷42號","121.471808333333","25.0116333333333","6500100","板橋區"
"220074","895-R6","2019/08/02 19:39:44","新北市板橋區館前西路152-3號","121.455511666667","25.0086866666667","6500100","板橋區"
"220073","985-R7","2019/08/02 19:39:50","新北市板橋區國光路67巷2號","121.459183333333","25.0183","6500100","板橋區"
"220097","AAC-210","2019/08/02 19:40:01","新北市板橋區文化路一段33號","121.460258333333","25.012995","6500100","板橋區"
"220064","AAC-253","2019/08/02 19:39:48","新北市板橋區民權路45號","121.462011666667","25.01112","6500100","板橋區"
"235068","KEA-2873","2019/08/02 19:39:55","新北市中和區廟美街54號","121.500351666667","25.00236","6500300","中和區"
"235061","KEA-2875","2019/08/02 19:39:50","新北市中和區員山路263號","121.481313333333","24.999335","6500300","中和區"
