"lineid","car","time","location","longitude","latitude","cityid","cityname"
"249005","172-UM","2019/08/02 21:19:59","新北市八里區挖子尾街6號","121.415453333333","25.1641833333333","6502300","八里區"
"248012","247-BX","2019/08/02 21:19:38","新北市五股區中興路三段5號","121.448855","25.07917","6501500","五股區"
"231059","001-UM","2019/08/02 21:19:41","新北市新店區僑信路27號","121.499385","24.9506666666667","6500600","新店區"
"231051","107-UY","2019/08/02 21:19:46","新北市新店區復興路106-1號","121.531341666667","24.989505","6500600","新店區"
"231050","AAD-862","2019/08/02 21:20:00","新北市新店區中正路282-9號","121.538185","24.97452","6500600","新店區"
"231063","641-BX","2019/08/02 21:20:03","新北市新店區吉祥街13巷1號","121.497683333333","24.9461466666667","6500600","新店區"
"241028","022-UY","2019/08/02 21:20:00","新北市三重區中正南路163號","121.493531666667","25.0560866666667","6500200","三重區"
"241008","059-VK","2019/08/02 21:19:53","新北市三重區自強路一段153號","121.493568333333","25.066965","6500200","三重區"
"241016","060-VK","2019/08/02 21:19:45","新北市三重區自強路一段95號","121.495898333333","25.06633","6500200","三重區"
"241031","061-VK","2019/08/02 21:19:41","新北市三重區重新路五段408巷19號","121.47572","25.045605","6500200","三重區"
"241017","063-VK","2019/08/02 21:19:49","新北市三重區中正北路25巷25弄1號","121.493148333333","25.0626133333333","6500200","三重區"
"241024","065-VK","2019/08/02 21:19:48","新北市三重區中正北路145巷14號","121.484178333333","25.0677833333333","6500200","三重區"
"241011","066-VK","2019/08/02 21:20:00","新北市三重區龍濱路191號","121.50206","25.07108","6500200","三重區"
"241002","090-VK","2019/08/02 21:19:52","新北市三重區自強路五段93號","121.495375","25.0822566666667","6500200","三重區"
"241003","091-VK","2019/08/02 21:19:42","新北市三重區仁義街321號","121.49535","25.0843433333333","6500200","三重區"
"241015","742-BX","2019/08/02 21:19:56","新北市三重區龍濱路178號","121.501313333333","25.0729416666667","6500200","三重區"
"241009","267-UM","2019/08/02 21:19:50","新北市五股區中興路三段163號","121.44884","25.080965","6500200","三重區"
"241018","268-UM","2019/08/02 21:19:58","新北市三重區新北大道一段252號","121.480343333333","25.0615966666667","6500200","三重區"
"241032","269-UM","2019/08/02 21:19:44","新北市五股區五工一路104號","121.458116666667","25.0697183333333","6500200","三重區"
"241013","270-UM","2019/08/02 21:19:55","新北市三重區仁愛街81-1號","121.495928333333","25.0731316666667","6500200","三重區"
"241007","398-BY","2019/08/02 21:19:53","新北市三重區正義北路204號","121.49646","25.0672983333333","6500200","三重區"
"241030","KED-0822","2019/08/02 21:19:57","新北市三重區光復路二段152號","121.472173333333","25.0607316666667","6500200","三重區"
"241004","475-VK","2019/08/02 21:19:55","新北市三重區碧華街415號","121.493483333333","25.085995","6500200","三重區"
"241026","480-VK","2019/08/02 21:19:50","新北市三重區大同南路210號","121.496655","25.0564266666667","6500200","三重區"
"241014","543-UM","2019/08/02 21:20:00","新北市三重區介壽路39巷13號","121.499188333333","25.0699383333333","6500200","三重區"
"241023","545-UM","2019/08/02 21:19:45","新北市三重區中正北路176巷27號","121.482653333333","25.0659116666667","6500200","三重區"
"241005","AAD-863","2019/08/02 21:19:49","新北市三重區仁華街118巷6號","121.485716666667","25.0830133333333","6500200","三重區"
"241001","887-TS","2019/08/02 21:19:58","新北市三重區仁愛街467號","121.489373333333","25.0820416666667","6500200","三重區"
"241033","AAC-255","2019/08/02 21:19:45","新北市三重區光復路二段86號","121.471988333333","25.0574283333333","6500200","三重區"
"247014","KEA-2869","2019/08/02 21:19:51","新北市蘆洲區中正路185巷78弄1號","121.466121666667","25.0842233333333","6501400","蘆洲區"
"247008","KED-0682","2019/08/02 21:19:55","新北市蘆洲區中山一路103巷20號","121.475823333333","25.0811066666667","6501400","蘆洲區"
"235018","640-BX","2019/08/02 20:57:54","新北市中和區員山路36巷16-2號","121.485353333333","24.9917133333333","6500300","中和區"
"235016","805-TS","2019/08/02 20:55:34","新北市中和區員山路36巷16-3號","121.484658333333","24.9910816666667","6500300","中和區"
"247004","893-R6","2019/08/02 21:19:46","新北市五股區中興路三段2巷10號","121.44823","25.083985","6501400","蘆洲區"
"247002","500-BY","2019/08/02 21:19:54","新北市蘆洲區永樂街90號","121.456606666667","25.0886433333333","6501400","蘆洲區"
"247006","002-UY","2019/08/02 21:19:53","新北市蘆洲區中華街55號","121.462581666667","25.0809866666667","6501400","蘆洲區"
"251004","009-UM","2019/08/02 21:19:57","新北市淡水區民族路33號","121.462345","25.1357933333333","6501000","淡水區"
"251010","012-UM","2019/08/02 21:19:45","新北市淡水區中正路一段156巷12號","121.421848333333","25.1808033333333","6501000","淡水區"
"251008","181-VK","2019/08/02 21:19:45","新北市淡水區水源街二段238號","121.461021666667","25.1763683333333","6501000","淡水區"
"251012","441-VK","2019/08/02 21:19:59","新北市淡水區淡金路五段35巷46號","121.4525","25.23474","6501000","淡水區"
"251005","443-VK","2019/08/02 21:19:43","新北市淡水區仁愛街18巷4號","121.446941666667","25.1704133333333","6501000","淡水區"
"251001","559-UM","2019/08/02 21:19:47","新北市淡水區濱海路一段306巷60弄35號","121.442185","25.1915166666667","6501000","淡水區"
"251009","575-R6","2019/08/02 21:19:52","新北市淡水區民族路82號","121.462423333333","25.1355933333333","6501000","淡水區"
"251011","650-BX","2019/08/02 21:19:45","新北市淡水區新民街120巷29號","121.438901666667","25.1788283333333","6501000","淡水區"
"251002","672-BX","2019/08/02 21:19:44","新北市淡水區學府路172巷21號","121.448468333333","25.175045","6501000","淡水區"
"251003","766-UM","2019/08/02 21:19:57","新北市淡水區新春街91巷21號","121.438698333333","25.1831733333333","6501000","淡水區"
"247010","KED-0683","2019/08/02 21:19:43","新北市蘆洲區三民路25號","121.475655","25.0825483333333","6501400","蘆洲區"
"242029","615-BX","2019/08/02 21:19:46","新北市林口區太平里180號","121.36702","25.133825","6500500","新莊區"
