"lineid","car","time","location","longitude","latitude","cityid","cityname"
"249005","172-UM","2019/08/02 21:29:59","新北市八里區挖子尾街6號","121.415448333333","25.1641866666667","6502300","八里區"
"248012","247-BX","2019/08/02 21:29:58","新北市五股區中興路二段37巷28號","121.460116666667","25.0748566666667","6501500","五股區"
"231063","641-BX","2019/08/02 21:29:43","新北市新店區如意街34號","121.493503333333","24.94836","6500600","新店區"
"241016","060-VK","2019/08/02 21:30:01","新北市三重區正義北路68號","121.497108333333","25.06447","6500200","三重區"
"241024","065-VK","2019/08/02 21:29:48","新北市三重區中正北路145巷14號","121.484158333333","25.0678033333333","6500200","三重區"
"241003","091-VK","2019/08/02 21:29:51","新北市三重區仁義街238號","121.494341666667","25.0855366666667","6500200","三重區"
"241007","398-BY","2019/08/02 21:29:53","新北市三重區信義西街51號","121.495155","25.0638166666667","6500200","三重區"
"241005","AAD-863","2019/08/02 21:29:49","新北市三重區碧華街1號","121.483493333333","25.0812266666667","6500200","三重區"
"247004","893-R6","2019/08/02 21:29:46","新北市八里區中山路三段363號","121.375003333333","25.1388466666667","6501400","蘆洲區"
"251004","009-UM","2019/08/02 21:29:56","新北市淡水區民族路2號","121.460401666667","25.1369433333333","6501000","淡水區"
"251010","012-UM","2019/08/02 21:29:45","新北市淡水區中正路二段50巷12弄28號","121.420541666667","25.1826066666667","6501000","淡水區"
"251008","181-VK","2019/08/02 21:29:52","新北市淡水區水源街二段150號","121.454305","25.175035","6501000","淡水區"
"251012","441-VK","2019/08/02 21:29:59","新北市淡水區石頭埔6號","121.452993333333","25.2341933333333","6501000","淡水區"
"251005","443-VK","2019/08/02 21:29:46","新北市淡水區水源街一段48號","121.443938333333","25.1722066666667","6501000","淡水區"
"251001","559-UM","2019/08/02 21:29:47","新北市淡水區濱海路三段148巷50弄76號","121.43144","25.1906183333333","6501000","淡水區"
"251006","561-UM","2019/08/02 21:29:49","新北市淡水區公明街35號","121.443163333333","25.1689666666667","6501000","淡水區"
"251009","575-R6","2019/08/02 21:29:46","新北市淡水區民族路29巷3弄13號","121.46389","25.137175","6501000","淡水區"
"251011","650-BX","2019/08/02 21:29:45","新北市淡水區新民街166號","121.436948333333","25.178565","6501000","淡水區"
"251002","672-BX","2019/08/02 21:29:44","新北市淡水區學府路172巷21號","121.4485","25.1750616666667","6501000","淡水區"
"251003","766-UM","2019/08/02 21:29:57","新北市淡水區新春街87號","121.438928333333","25.18253","6501000","淡水區"
"242029","615-BX","2019/08/02 21:28:46","新北市八里區荖阡坑路34號","121.402153333333","25.1288166666667","6500500","新莊區"
