"lineid","car","time","location","longitude","latitude","cityid","cityname"
"249005","172-UM","2019/08/02 21:47:19","新北市八里區挖子尾街6號","121.415458333333","25.1642","6502300","八里區"
"241016","060-VK","2019/08/02 21:49:45","新北市八里區商港路120號","121.392905","25.1500066666667","6500200","三重區"
"241005","AAD-863","2019/08/02 21:49:49","新北市五股區成泰路三段318-1號","121.45022","25.0963183333333","6500200","三重區"
"251004","009-UM","2019/08/02 21:49:36","新北市淡水區民權路14號","121.46303","25.1245583333333","6501000","淡水區"
"251010","012-UM","2019/08/02 21:49:45","新北市淡水區中正路二段211號","121.42622","25.1891333333333","6501000","淡水區"
"251008","181-VK","2019/08/02 21:49:52","新北市淡水區學府路96號","121.449391666667","25.1711616666667","6501000","淡水區"
"251012","441-VK","2019/08/02 21:49:59","新北市淡水區淡金路三段337號","121.448843333333","25.206515","6501000","淡水區"
"251007","442-VK","2019/08/02 21:49:48","新北市淡水區水源街二段177巷53號","121.452106666667","25.1771183333333","6501000","淡水區"
"251005","443-VK","2019/08/02 21:50:03","新北市淡水區鄧公路30巷28號","121.453496666667","25.1697533333333","6501000","淡水區"
"251001","559-UM","2019/08/02 21:49:47","新北市淡水區新市二路三段152號","121.4353","25.1940666666667","6501000","淡水區"
"251006","561-UM","2019/08/02 21:45:30","新北市淡水區中正路11巷3號","121.43779","25.1708","6501000","淡水區"
"251011","650-BX","2019/08/02 21:49:45","新北市淡水區新民街322巷6號","121.436066666667","25.1830566666667","6501000","淡水區"
"251002","672-BX","2019/08/02 21:49:44","新北市淡水區大忠街113巷6號","121.446788333333","25.1773533333333","6501000","淡水區"
"251003","766-UM","2019/08/02 21:49:57","新北市淡水區新春街81號","121.43873","25.1824566666667","6501000","淡水區"
