"lineid","car","time","location","longitude","latitude","cityid","cityname"
"232005","291-BY","2019/12/23 08:43:25","新北市坪林區石10-3號","121.709211666667","24.9084716666667","6502000","坪林區"
"244006","080-UY","2019/12/23 08:43:30","新北市林口區林口路78號","121.389235","25.0805566666667","6501700","林口區"
"244001","248-BX","2019/12/23 08:43:32","新北市林口區嘉寶里15鄰43-2號","121.341913333333","25.1082466666667","6501700","林口區"
"244018","402-UM","2019/12/23 08:43:35","新北市林口區公園路151號","121.370245","25.0713283333333","6501700","林口區"
"244012","KEA-2802","2019/12/23 08:43:34","新北市林口區中山路160巷23號","121.391801666667","25.0794316666667","6501700","林口區"
"244022","483-VK","2019/12/23 08:43:40","新北市林口區興林路221巷23號","121.389611666667","25.07168","6501700","林口區"
"244016","485-VK","2019/12/23 08:43:36","新北市林口區忠孝路502號","121.3706","25.0700333333333","6501700","林口區"
"244008","657-BX","2019/12/23 08:43:28","新北市林口區竹林路582巷16號","121.385986666667","25.083375","6501700","林口區"
"244010","701-TV","2019/12/23 08:43:26","新北市林口區中正路71號","121.395123333333","25.0773916666667","6501700","林口區"
"244024","837-TS","2019/12/23 08:43:43","新北市林口區文化北路一段192-100號","121.357588333333","25.07059","6501700","林口區"
"244020","838-TS","2019/12/23 08:43:30","新北市林口區自強一街46號","121.399285","25.077515","6501700","林口區"
"222004","289-BY","2019/12/23 08:43:30","台北市南港區南深路63號","121.623618333333","25.0216066666667","6501800","深坑區"
"231007","189-VK","2019/12/23 08:43:33","新北市新店區新潭路二段61號","121.5218","24.9263","6500600","新店區"
"223003","205-TH","2019/12/23 08:43:30","新北市石碇區北宜路六段柑腳巷2號","121.659526666667","24.9380916666667","6501900","石碇區"
"223008","406-TH","2019/12/23 08:43:37","新北市石碇區十八重溪69號","121.673331666667","25.0146766666667","6501900","石碇區"
"223004","437-BY","2019/12/23 08:43:31","新北市石碇區崩山3-2號","121.675366666667","24.97363","6501900","石碇區"
"223001","592-UM","2019/12/23 08:43:36","新北市石碇區北宜路六段柑腳巷2號","121.659556666667","24.93811","6501900","石碇區"
"223007","661-BX","2019/12/23 08:43:32","新北市石碇區十八重溪68號","121.674146666667","25.0152033333333","6501900","石碇區"
"223005","677-TV","2019/12/23 08:43:37","新北市石碇區崩山23-4號","121.677418333333","24.9694966666667","6501900","石碇區"
"227003","282-VK","2019/12/23 08:43:42","新北市雙溪區外柑里四分子3-1號","121.838321666667","25.0025233333333","6502500","雙溪區"
"252006","073-UM","2019/12/23 08:43:33","新北市三芝區後厝里北勢子7號","121.475788333333","25.2560516666667","6502100","三芝區"
"252004","249-BX","2019/12/23 08:43:35","新北市三芝區興華里楓子林38號","121.490903333333","25.2077916666667","6502100","三芝區"
"242040","AAC-296","2019/12/23 08:43:34","新北市新莊區天祥街88號","121.415351666667","25.0294966666667","6500500","新莊區"
"242059","986-R7","2019/12/23 08:43:31","新北市新莊區新樹路168號","121.434878333333","25.0223216666667","6500500","新莊區"
"242003","751-BX","2019/12/23 08:43:39","新北市新莊區復興路二段177號","121.458788333333","25.0445383333333","6500500","新莊區"
"242028","615-BX","2019/12/23 08:43:40","新北市新莊區中平路375號","121.444635","25.0523633333333","6500500","新莊區"
"242026","613-BX","2019/12/23 08:43:39","新北市新莊區中平路377巷37號","121.443348333333","25.0525","6500500","新莊區"
"242057","612-BX","2019/12/23 08:43:28","新北市新莊區中正路806號","121.410046666667","25.0209533333333","6500500","新莊區"
"242047","566-BX","2019/12/23 08:43:38","新北市新莊區富國路105號","121.422636666667","25.0253083333333","6500500","新莊區"
"242052","497-BY","2019/12/23 08:43:24","新北市新莊區西盛街437號","121.427058333333","25.0118433333333","6500500","新莊區"
"242018","442-UM","2019/12/23 08:43:29","新北市新莊區民生街15巷9號","121.45531","25.0425916666667","6500500","新莊區"
"242001","441-UM","2019/12/23 08:43:27","新北市新莊區新泰路69號","121.449233333333","25.03424","6500500","新莊區"
"242006","440-UM","2019/12/23 08:43:32","新北市新莊區思源路595號","121.459533333333","25.0596633333333","6500500","新莊區"
"242043","415-TV","2019/12/23 08:43:29","新北市新莊區天泉二街24巷2號","121.414801666667","25.0252266666667","6500500","新莊區"
"242012","413-TV","2019/12/23 08:43:33","新北市新莊區中誠街53巷20號","121.451385","25.047435","6500500","新莊區"
"242049","400-BY","2019/12/23 08:43:38","新北市新莊區民安西路75巷21號","121.428223333333","25.0195766666667","6500500","新莊區"
"242024","362-BY","2019/12/23 08:43:38","新北市新莊區五工二路94巷17號","121.459928333333","25.0673433333333","6500500","新莊區"
"242022","353-BY","2019/12/23 08:43:30","新北市新莊區化成路354號","121.465845","25.0492016666667","6500500","新莊區"
"242014","132-UY","2019/12/23 08:43:30","新北市新莊區中平路184巷10弄1號","121.445476666667","25.04808","6500500","新莊區"
"242038","135-UY","2019/12/23 08:43:41","新北市新莊區民安路299巷34號","121.429558333333","25.0233016666667","6500500","新莊區"
"242016","173-VK","2019/12/23 08:43:33","新北市新莊區中安街17號","121.452955","25.0460283333333","6500500","新莊區"
"242030","175-VK","2019/12/23 08:43:34","新北市新莊區新泰路255巷46號","121.44426","25.0396683333333","6500500","新莊區"
"242055","176-VK","2019/12/23 08:43:30","新北市新莊區豐年街豐2巷17號","121.447295","25.0308466666667","6500500","新莊區"
"242020","KED-0687","2019/12/23 08:43:30","新北市新莊區中正路170號","121.450815","25.0359016666667","6500500","新莊區"
"242045","347-TH","2019/12/23 08:43:41","新北市新莊區民安路40號","121.423105","25.02751","6500500","新莊區"
"242035","348-TH","2019/12/23 08:43:40","新北市新莊區民安路181巷2弄9號","121.42656","25.02273","6500500","新莊區"
"242008","349-TH","2019/12/23 08:43:19","新北市新莊區昌平街59巷11弄5號","121.453868333333","25.0530333333333","6500500","新莊區"
"242033","350-TH","2019/12/23 08:43:22","新北市新莊區仁愛街12號","121.444261666667","25.03527","6500500","新莊區"
"242010","280-VK","2019/12/23 08:43:38","新北市新莊區中榮街49巷1號","121.449275","25.0525633333333","6500500","新莊區"
