"lineid","car","time","location","longitude","latitude","cityid","cityname"
"234044","148-BY","2019/12/23 14:13:25","新北市永和區得和路311號","121.52315","24.99967","6500400","永和區"
"234078","298-R6","2019/12/23 14:13:36","新北市永和區國中路109巷3弄2號","121.523863333333","25.00548","6500400","永和區"
"234036","336-UY","2019/12/23 14:13:31","新北市永和區成功路一段93巷23弄13號","121.528486666667","25.0033983333333","6500400","永和區"
"234062","337-UY","2019/12/23 14:13:34","新北市永和區得和路271號","121.521735","24.999815","6500400","永和區"
"234084","338-UY","2019/12/23 14:13:37","新北市永和區福和路273號","121.51755","25.0074266666667","6500400","永和區"
"234068","552-UM","2019/12/23 14:13:23","新北市永和區永亨路31號","121.519671666667","25.0061883333333","6500400","永和區"
"234015","745-BX","2019/12/23 14:13:31","新北市永和區仁愛路93號","121.51294","25.01317","6500400","永和區"
"234028","746-BX","2019/12/23 14:13:31","新北市永和區民權路49巷21號","121.521108333333","24.9974066666667","6500400","永和區"
"234052","KEA-2590","2019/12/23 14:13:29","新北市永和區博愛街5號","121.516706666667","25.01581","6500400","永和區"
"234005","KED-0605","2019/12/23 14:13:26","新北市永和區中和路309號","121.506808333333","24.9997683333333","6500400","永和區"
"234012","KEA-2591","2019/12/23 14:13:28","新北市永和區仁愛路263號","121.50641","25.0100983333333","6500400","永和區"
"234060","AAD-866","2019/12/23 14:13:40","新北市永和區得和路29號","121.515836666667","25.0002483333333","6500400","永和區"
"234040","862-TW","2019/12/23 14:13:25","新北市永和區雙和街41號","121.508841666667","25.0025866666667","6500400","永和區"
"234048","863-TW","2019/12/23 14:13:34","新北市永和區保安路13號","121.510448333333","25.0169383333333","6500400","永和區"
"234025","9371-KE","2019/12/23 14:13:34","新北市永和區安樂路198號","121.515113333333","25.0015983333333","6500400","永和區"
"248007","KED-0815","2019/12/23 14:13:39","新北市五股區中興路二段37巷28號","121.4601","25.07493","6501500","五股區"
"248019","KED-0813","2019/12/23 14:02:38","新北市五股區凌雲路三段57號","121.42527","25.1250016666667","6501500","五股區"
"248011","247-BX","2019/12/23 14:13:42","新北市五股區工商路66號","121.438835","25.08461","6501500","五股區"
"248009","272-BY","2019/12/23 14:13:39","新北市五股區水碓一路23號","121.430543333333","25.0712966666667","6501500","五股區"
"248003","677-BX","2019/12/23 14:13:33","新北市五股區五福路144號","121.432138333333","25.09133","6501500","五股區"
"248001","678-BX","2019/12/23 14:13:39","新北市五股區成泰路三段577巷20號","121.451683333333","25.102805","6501500","五股區"
"234022","9380-KE","2019/12/23 14:13:28","新北市永和區復興街91號","121.517818333333","25.014165","6500400","永和區"
"234076","969-R7","2019/12/23 14:13:36","新北市永和區民有街75巷10弄1號","121.518386666667","24.9961983333333","6500400","永和區"
"234072","AAC-211","2019/12/23 14:13:40","新北市永和區竹林路201巷3號","121.521066666667","25.0092","6500400","永和區"
"234066","AAC-212","2019/12/23 14:13:33","新北市永和區保平路268巷11號","121.508263333333","25.0055183333333","6500400","永和區"
"234001","AAC-295","2019/12/23 14:13:26","新北市永和區中正路609巷28號","121.515905","25.00879","6500400","永和區"
"244001","248-BX","2019/12/23 14:13:43","新北市林口區太平里11鄰38號","121.360058333333","25.131845","6501700","林口區"
"243004","AAD-798","2019/12/23 14:13:30","","121.430738333333","25.0576916666667","6501600","泰山區"
"243002","297-R6","2019/12/23 14:12:04","新北市泰山區明志路一段488號","121.430545","25.0545283333333","6501600","泰山區"
"243006","KEA-2801","2019/12/23 14:13:08","新北市泰山區泰林路二段374號","121.428381666667","25.063895","6501600","泰山區"
"243008","421-VK","2019/12/23 14:13:31","新北市泰山區明志路三段44號","121.42485","25.0423916666667","6501600","泰山區"
"243001","KEA-2215","2019/12/23 14:13:27","新北市泰山區明志路一段94號","121.433406666667","25.0641233333333","6501600","泰山區"
"243003","KEA-2216","2019/12/23 14:13:38","新北市泰山區明志路二段325號","121.425843333333","25.0451383333333","6501600","泰山區"
"243005","646-TV","2019/12/23 14:13:41","新北市泰山區明志路三段209號","121.424191666667","25.03836","6501600","泰山區"
"243007","680-BX","2019/12/23 14:13:38","新北市泰山區明志路一段517號","121.430475","25.0541916666667","6501600","泰山區"
"231030","002-UM","2019/12/23 14:13:23","新北市新店區安興路3巷2號","121.515041666667","24.9675366666667","6500600","新店區"
"231024","0291-UT","2019/12/23 14:13:38","新北市新店區安和路三段2-2號","121.517786666667","24.9800633333333","6500600","新店區"
"231027","0293-UT","2019/12/23 14:13:40","","121.538218333333","24.9590666666667","6500600","新店區"
"231005","046-UY","2019/12/23 14:13:32","新北市新店區中興路三段301號","121.542043333333","24.9854766666667","6500600","新店區"
"231029","106-UY","2019/12/23 14:13:38","新北市新店區安康路二段161號","121.51025","24.9593033333333","6500600","新店區"
"231018","107-UY","2019/12/23 14:13:24","新北市新店區中央五街46號","121.52807","24.9750683333333","6500600","新店區"
"231013","108-UY","2019/12/23 14:13:43","新北市新店區北新路三段65巷14號","121.54075","24.981075","6500600","新店區"
"231036","110-UY","2019/12/23 14:13:42","新北市新店區安祥路109巷29號","121.4764","24.959355","6500600","新店區"
"231014","KEA-2219","2019/12/23 14:13:42","新北市新店區郵政路1巷6號","121.557363333333","24.9520833333333","6500600","新店區"
"231031","256-BX","2019/12/23 14:13:37","新北市新店區太平路44號","121.533088333333","24.9592516666667","6500600","新店區"
"231023","260-TV","2019/12/23 14:13:33","新北市新店區文中路40號","121.539651666667","24.9566183333333","6500600","新店區"
"231003","268-BY","2019/12/23 14:13:27","","121.542851666667","24.9643866666667","6500600","新店區"
"231035","278-BY","2019/12/23 14:13:41","新北市新店區安和路二段115號","121.51862","24.9704333333333","6500600","新店區"
"231006","355-BY","2019/12/23 14:13:32","新北市新店區北宜路二段207號","121.553118333333","24.95334","6500600","新店區"
"231038","3712-VJ","2019/12/23 14:13:37","新北市新店區溪洲路65號","121.533456666667","24.9610316666667","6500600","新店區"
"231025","4715-K9","2019/12/23 14:13:27","新北市新店區自立街3號","121.538756666667","24.9782383333333","6500600","新店區"
"231019","515-UM","2019/12/23 14:13:24","新北市新店區屈尺路83-2號","121.54493","24.9220833333333","6500600","新店區"
"231034","616-UM","2019/12/23 14:13:35","新北市新店區車子路11號","121.503098333333","24.95209","6500600","新店區"
"231001","617-UM","2019/12/23 14:13:24","新北市新店區中華路50號","121.539705","24.9684516666667","6500600","新店區"
"231002","619-UM","2019/12/23 14:13:35","新北市新店區中正路487號","121.533941666667","24.9821016666667","6500600","新店區"
"231011","KED-0819","2019/12/23 14:13:34","新北市新店區五峰路149號","121.54496","24.9656683333333","6500600","新店區"
"231028","897-TW","2019/12/23 14:13:23","新北市新店區安業街4號","121.51569","24.9789266666667","6500600","新店區"
"231004","899-TW","2019/12/23 14:13:31","新北市新店區北新路二段96號","121.543008333333","24.97311","6500600","新店區"
"231037","AKT-0513","2019/12/23 14:13:37","新北市新店區安康路三段73號","121.492171666667","24.95208","6500600","新店區"
"235030","003-UY","2019/12/23 14:13:21","新北市中和區廣福路112號","121.502186666667","25.0011216666667","6500300","中和區"
"235028","005-UY","2019/12/23 14:13:42","新北市中和區南山路73號","121.502226666667","24.998055","6500300","中和區"
"235027","006-UY","2019/12/23 14:13:27","新北市中和區連城路249巷28弄2號","121.494696666667","24.99517","6500300","中和區"
"235036","KEE-1103","2019/12/23 14:13:23","新北市中和區中山路二段268號","121.4971","25.0025333333333","6500300","中和區"
"235020","096-UM","2019/12/23 14:13:36","新北市中和區員山路509號","121.479833333333","25.0064216666667","6500300","中和區"
"235003","097-UM","2019/12/23 14:13:31","新北市中和區秀峰街119巷8弄14號","121.519073333333","24.98993","6500300","中和區"
"235029","098-UM","2019/12/23 14:13:39","新北市中和區中山路二段2巷7弄12號","121.503816666667","25.0062333333333","6500300","中和區"
"235004","150-BY","2019/12/23 14:13:21","新北市中和區宜安路60號","121.511705","24.9969683333333","6500300","中和區"
"235022","151-BY","2019/12/23 14:13:37","新北市中和區和城路一段271巷1號","121.485423333333","24.9916316666667","6500300","中和區"
"235019","183-VK","2019/12/23 14:13:34","新北市中和區中山路三段181巷26號","121.473073333333","25.0051166666667","6500300","中和區"
"235002","185-VK","2019/12/23 14:13:30","新北市中和區大仁街10巷16弄1號","121.518588333333","24.9925366666667","6500300","中和區"
"235031","255-BX","2019/12/23 14:13:22","新北市中和區連城路318號","121.483443333333","24.9960816666667","6500300","中和區"
"235008","293-VK","2019/12/23 14:13:22","新北市中和區中興街263巷2號","121.500315","24.9889933333333","6500300","中和區"
"235035","301-VK","2019/12/23 14:13:31","新北市中和區立德街66號","121.487898333333","25.0077066666667","6500300","中和區"
"235007","352-BY","2019/12/23 14:13:22","新北市中和區景平路296號","121.512911666667","24.9928783333333","6500300","中和區"
"235006","KEA-2878","2019/12/23 14:13:37","新北市永和區中正路226號","121.516055","24.9977616666667","6500300","中和區"
"247015","KEA-2869","2019/12/23 14:13:38","","121.468225","25.0836533333333","6501400","蘆洲區"
"247009","KED-0682","2019/12/23 14:13:37","新北市蘆洲區信義路172號","121.479243333333","25.0838916666667","6501400","蘆洲區"
"235014","4979-A6","2019/12/23 14:13:28","新北市中和區復興路280巷18弄28號","121.502126666667","24.9922616666667","6500300","中和區"
"235033","4980-A6","2019/12/23 14:13:36","新北市中和區中山路二段187號","121.500296666667","25.0027733333333","6500300","中和區"
"235032","551-UM","2019/12/23 14:13:42","新北市中和區景平路493巷12弄4號","121.498998333333","24.9972516666667","6500300","中和區"
"235034","558-UM","2019/12/23 14:13:21","新北市中和區中和路12號","121.499675","25.002175","6500300","中和區"
"235009","565-BX","2019/12/23 14:13:27","新北市中和區景新街423巷33弄18號","121.513601666667","24.9904316666667","6500300","中和區"
"235024","KED-0823","2019/12/23 14:13:31","新北市中和區員山路314巷7弄6號","121.482073333333","25.0031733333333","6500300","中和區"
"235018","640-BX","2019/12/23 14:13:29","新北市中和區國光街112巷22弄5號","121.469881666667","25.0023616666667","6500300","中和區"
"235011","732-UM","2019/12/23 14:13:31","新北市中和區和平街38巷23號","121.50939","24.9911016666667","6500300","中和區"
"235010","733-UM","2019/12/23 14:13:39","新北市中和區工專路111號","121.50758","24.9822916666667","6500300","中和區"
"235026","800-TS","2019/12/23 14:13:36","新北市中和區中山路二段362-6號","121.492261666667","25.0028433333333","6500300","中和區"
"235021","801-TS","2019/12/23 14:13:33","新北市中和區中山路三段37巷37號","121.479685","25.0048633333333","6500300","中和區"
"235005","802-TS","2019/12/23 14:13:34","新北市中和區中安街192號","121.511435","24.9992883333333","6500300","中和區"
"235016","805-TS","2019/12/23 14:13:38","新北市中和區興南路二段142巷19弄5號","121.503035","24.983455","6500300","中和區"
"235012","896-TW","2019/12/23 14:13:22","新北市中和區華新街109巷32號","121.508585","24.98009","6500300","中和區"
"235017","900-TW","2019/12/23 14:13:41","新北市中和區華安街30巷6-1號","121.466968333333","24.99759","6500300","中和區"
"235015","157-BY","2019/12/23 14:13:43","新北市中和區興南路一段73巷3號","121.510293333333","24.989045","6500300","中和區"
"235001","AAC-213","2019/12/23 14:13:35","新北市中和區自立路15巷1號","121.52242","24.9960483333333","6500300","中和區"
"235023","AAC-215","2019/12/23 14:13:24","新北市中和區錦和路193號","121.490713333333","24.9906766666667","6500300","中和區"
"220002","015-TV","2019/12/23 14:13:43","新北市板橋區重慶路76巷14號","121.461025","25.0062583333333","6500100","板橋區"
"220013","072-UY","2019/12/23 14:13:31","新北市板橋區民族路151巷51號","121.469131666667","25.0083166666667","6500100","板橋區"
"220034","073-UY","2019/12/23 14:13:33","新北市板橋區中正路216巷44號","121.45725","25.0188483333333","6500100","板橋區"
"220105","075-UY","2019/12/23 14:13:28","新北市板橋區江寧路三段129號","121.4736","25.0332983333333","6500100","板橋區"
"220017","AAD-861","2019/12/23 14:13:40","新北市板橋區貴興路55號","121.457421666667","25.0031333333333","6500100","板橋區"
"247005","893-R6","2019/12/23 14:13:34","新北市蘆洲區九芎街15巷12號","121.467916666667","25.0778066666667","6501400","蘆洲區"
"247011","337-TH","2019/12/23 14:13:24","新北市蘆洲區信義路304號","121.477476666667","25.087735","6501400","蘆洲區"
"247003","336-TH","2019/12/23 14:13:40","新北市蘆洲區長安街183號","121.46057","25.0817216666667","6501400","蘆洲區"
"247023","057-VK","2019/12/23 14:13:36","","121.45949","25.0883016666667","6501400","蘆洲區"
"247013","056-VK","2019/12/23 14:13:35","新北市蘆洲區三民路105號","121.472766666667","25.0858983333333","6501400","蘆洲區"
"247017","053-VK","2019/12/23 14:13:36","新北市蘆洲區復興路141號","121.477808333333","25.0890033333333","6501400","蘆洲區"
"247007","002-UY","2019/12/23 14:13:37","新北市蘆洲區中山一路289號","121.471833333333","25.079395","6501400","蘆洲區"
"247001","001-UY","2019/12/23 14:13:33","新北市蘆洲區永平街32號","121.45868","25.09109","6501400","蘆洲區"
"235013","251-BX","2019/12/23 14:13:36","新北市中和區景新街228-6號","121.508146666667","24.9941666666667","6500300","中和區"
"253003","6232-TK","2019/12/23 14:13:38","","121.576436666667","25.258145","6502200","石門區"
"253004","6251-TK","2019/12/23 14:13:37","新北市石門區小坑45號","121.597188333333","25.261375","6502200","石門區"
"253002","637-UY","2019/12/23 14:13:28","新北市石門區七股28-1號","121.551878333333","25.26503","6502200","石門區"
"253001","KEC-0718","2019/12/23 14:13:27","新北市石門區八甲27-2號","121.52686","25.2760583333333","6502200","石門區"
"207002","749-BX","2019/12/23 14:13:29","新北市萬里區溪底里瑞泉路7號","121.602965","25.1394383333333","6502800","萬里區"
"252005","073-UM","2019/12/23 14:13:29","新北市三芝區橫山里橫山50-2號","121.533343333333","25.256665","6502100","三芝區"
"207001","662-BX","2019/12/23 14:13:32","新北市萬里區磺潭里清水18號","121.637818333333","25.197715","6502800","萬里區"
"236040","KED-0685","2019/12/23 14:13:41","新北市土城區裕生路84巷1號","121.447273333333","24.9852283333333","6501300","土城區"
"236074","166-UM","2019/12/23 14:13:38","新北市土城區永安街38號","121.433341666667","24.9645216666667","6501300","土城區"
"236029","253-BX","2019/12/23 14:13:28","新北市土城區中央路二段125號","121.442015","24.9772916666667","6501300","土城區"
"236024","269-VK","2019/12/23 14:13:33","新北市土城區承天路67號","121.439375","24.9637366666667","6501300","土城區"
"236012","270-VK","2019/12/23 14:13:27","新北市土城區青雲路39巷7號","121.460321666667","24.98755","6501300","土城區"
"236032","271-VK","2019/12/23 14:13:24","新北市土城區青雲路453號","121.458611666667","24.9746316666667","6501300","土城區"
"236064","KEA-2877","2019/12/23 14:13:22","新北市土城區明德路一段197號","121.463805","24.97891","6501300","土城區"
"236016","401-BY","2019/12/23 14:13:33","新北市土城區明德路一段93巷6號","121.466093333333","24.9832166666667","6501300","土城區"
"236057","912-UM","2019/12/23 14:13:36","新北市土城區中央路四段183號","121.414921666667","24.9567416666667","6501300","土城區"
"236045","913-UM","2019/12/23 14:13:32","新北市土城區明德路一段365-1號","121.45352","24.979055","6501300","土城區"
"236060","915-UM","2019/12/23 14:13:29","新北市土城區金城路二段28-6號","121.45051","24.9781933333333","6501300","土城區"
"236054","AAC-216","2019/12/23 14:13:41","新北市土城區中華路二段98號","121.438105","24.9744533333333","6501300","土城區"
"220027","145-BY","2019/12/23 14:13:31","新北市板橋區民權路202巷4弄1號","121.459671666667","25.0142983333333","6500100","板橋區"
"220028","200-UY","2019/12/23 14:13:32","新北市板橋區大觀路二段1巷32號","121.449565","25.0037516666667","6500100","板橋區"
"220030","610-BX","2019/12/23 14:13:35","新北市板橋區溪崑二街25號","121.428616666667","24.9912833333333","6500100","板橋區"
"220050","245-BX","2019/12/23 14:13:29","新北市板橋區莊敬路25巷2號","121.47387","25.0278216666667","6500100","板橋區"
"220004","276-BY","2019/12/23 14:13:36","新北市板橋區信義路148號","121.458695","24.9917416666667","6500100","板橋區"
"220020","277-BY","2019/12/23 14:13:24","新北市板橋區金門街280號","121.42908","24.9863666666667","6500100","板橋區"
"220019","283-VK","2019/12/23 14:13:41","新北市板橋區和平路233號","121.46526","24.99839","6500100","板橋區"
"220043","285-UM","2019/12/23 14:13:28","新北市板橋區光武街110巷20弄1號","121.467066666667","25.0296233333333","6500100","板橋區"
"220001","285-VK","2019/12/23 14:13:31","新北市板橋區永豐街146號","121.478038333333","25.02125","6500100","板橋區"
"220031","286-VK","2019/12/23 14:13:30","新北市板橋區大觀路一段38巷180號","121.441553333333","25.004625","6500100","板橋區"
"220029","287-VK","2019/12/23 14:13:33","新北市板橋區南雅西路一段186號","121.452966666667","25.0081966666667","6500100","板橋區"
"220039","288-VK","2019/12/23 14:13:35","新北市板橋區長江路一段106巷18弄7號","121.45999","25.0285033333333","6500100","板橋區"
"220009","293-UM","2019/12/23 14:13:27","新北市板橋區中山路二段326-1號","121.481046666667","25.01949","6500100","板橋區"
"220041","295-UM","2019/12/23 14:13:39","新北市板橋區松江街20號","121.469205","25.02644","6500100","板橋區"
"220032","296-UM","2019/12/23 14:13:31","新北市板橋區溪崑二街22巷9號","121.428136666667","24.9914133333333","6500100","板橋區"
"220023","303-R5","2019/12/23 14:13:31","新北市板橋區中正路35號","121.456291666667","25.0130916666667","6500100","板橋區"
"220010","305-R5","2019/12/23 14:13:41","新北市板橋區三民路二段居仁巷2弄23號","121.47995","25.0129816666667","6500100","板橋區"
"220047","317-R6","2019/12/23 14:13:27","新北市板橋區四維路103巷4號","121.465046666667","25.0243","6500100","板橋區"
"220038","487-VK","2019/12/23 14:13:23","新北市板橋區漢生西路31號","121.463141666667","25.0183433333333","6500100","板橋區"
"220037","491-VK","2019/12/23 14:13:29","新北市板橋區文化路二段182巷5弄8號","121.472023333333","25.0273716666667","6500100","板橋區"
"220104","560-BX","2019/12/23 14:13:40","新北市板橋區中正路415號","121.454178333333","25.02268","6500100","板橋區"
"220052","561-BX","2019/12/23 14:13:25","新北市板橋區文化路一段270巷2號","121.467371666667","25.0205716666667","6500100","板橋區"
"220011","609-BX","2019/12/23 14:13:31","新北市板橋區三民路二段202-16號","121.479006666667","25.0135416666667","6500100","板橋區"
"220040","637-BX","2019/12/23 14:13:36","新北市板橋區縣民大道三段187巷11號","121.479121666667","25.025095","6500100","板橋區"
"220005","686-BX","2019/12/23 14:13:41","新北市板橋區五權街11號","121.464016666667","24.9945783333333","6500100","板橋區"
"220025","687-BX","2019/12/23 14:13:25","新北市板橋區龍興街65巷2號","121.443643333333","25.00152","6500100","板橋區"
"220042","689-BX","2019/12/23 14:13:35","新北市板橋區雨農路27巷2號","121.461301666667","25.0241716666667","6500100","板橋區"
"220051","KEA-2699","2019/12/23 14:13:22","","121.476413333333","25.030255","6500100","板橋區"
"220003","827-TW","2019/12/23 14:13:40","新北市板橋區新民街6巷18號","121.465101666667","25.01019","6500100","板橋區"
"220014","829-TW","2019/12/23 14:13:38","新北市板橋區中山路二段90巷43弄2號","121.476453333333","25.0148966666667","6500100","板橋區"
"220016","830-TW","2019/12/23 14:13:40","新北市板橋區三民路一段1巷49號","121.480798333333","25.0248283333333","6500100","板橋區"
"220022","895-R6","2019/12/23 14:13:32","新北市板橋區文昌街1號","121.455963333333","25.0101133333333","6500100","板橋區"
"220021","985-R7","2019/12/23 14:13:33","新北市板橋區中正路189號","121.456438333333","25.0169233333333","6500100","板橋區"
"220046","AAC-210","2019/12/23 14:13:37","新北市板橋區幸福路32巷3弄12號","121.460731666667","25.02075","6500100","板橋區"
"220012","AAC-253","2019/12/23 14:13:24","新北市板橋區縣民大道二段82號","121.465653333333","25.0146883333333","6500100","板橋區"
"235025","KEA-2875","2019/12/23 14:13:16","新北市中和區民利街71號","121.478668333333","24.99826","6500300","中和區"
