"lineid","car","time","location","longitude","latitude","cityid","cityname"
"234078","298-R6","2019/12/23 14:29:27","新北市永和區永貞路19號","121.52094","25.0071366666667","6500400","永和區"
"234062","337-UY","2019/12/23 14:29:34","新北市永和區中正路419號","121.517116666667","25.0049966666667","6500400","永和區"
"234084","338-UY","2019/12/23 14:29:37","新北市永和區永和路二段190號","121.515446666667","25.0135316666667","6500400","永和區"
"234068","552-UM","2019/12/23 14:29:23","新北市永和區永亨路7號","121.519413333333","25.0056966666667","6500400","永和區"
"234028","746-BX","2019/12/23 14:29:30","新北市永和區民權路55號","121.519951666667","24.9969166666667","6500400","永和區"
"234052","KEA-2590","2019/12/23 14:29:29","新北市永和區環河東路一段80號","121.519635","25.0165666666667","6500400","永和區"
"234005","KED-0605","2019/12/23 14:29:26","新北市永和區中正路595號","121.516586666667","25.0093733333333","6500400","永和區"
"234012","KEA-2591","2019/12/23 14:29:28","新北市永和區保生路55-1號","121.504823333333","25.0116783333333","6500400","永和區"
"234060","AAD-866","2019/12/23 14:29:21","新北市永和區秀朗路一段175號","121.516978333333","25.0036566666667","6500400","永和區"
"234040","862-TW","2019/12/23 14:29:25","新北市永和區安樂路336號","121.514388333333","25.005905","6500400","永和區"
"234048","863-TW","2019/12/23 14:29:34","新北市永和區保安路134號","121.508615","25.0154516666667","6500400","永和區"
"234025","9371-KE","2019/12/23 14:29:34","新北市中和區安平路222號","121.514056666667","25.00005","6500400","永和區"
"248013","025-BX","2019/12/23 14:29:41","新北市五股區民義路一段165號","121.432766666667","25.0877","6501500","五股區"
"248015","026-BX","2019/12/23 14:29:29","新北市五股區成泰路四段22巷43號","121.456113333333","25.10917","6501500","五股區"
"248007","KED-0815","2019/12/23 14:29:39","新北市五股區中興路二段57-6號","121.460438333333","25.075415","6501500","五股區"
"248019","KED-0813","2019/12/23 14:02:38","新北市五股區凌雲路三段57號","121.42527","25.1250016666667","6501500","五股區"
"248011","247-BX","2019/12/23 14:29:34","新北市五股區蓬萊路6巷1號","121.435515","25.0796183333333","6501500","五股區"
"248009","272-BY","2019/12/23 14:29:39","新北市五股區水碓一路23號","121.430555","25.071295","6501500","五股區"
"248003","677-BX","2019/12/23 14:29:33","新北市五股區成泰路二段78號","121.437436666667","25.0822966666667","6501500","五股區"
"248001","678-BX","2019/12/23 14:29:40","新北市五股區成泰路三段436號","121.450883333333","25.0995166666667","6501500","五股區"
"234072","AAC-211","2019/12/23 14:29:40","新北市永和區環河東路一段128號","121.52078","25.0153783333333","6500400","永和區"
"234001","AAC-295","2019/12/23 14:29:26","新北市永和區永和路一段168號","121.514425","25.00861","6500400","永和區"
"244001","248-BX","2019/12/23 14:29:22","新北市林口區太平里11鄰38號","121.36009","25.131865","6501700","林口區"
"243004","AAD-798","2019/12/23 14:29:30","新北市泰山區明志路一段513號","121.43074","25.0540016666667","6501600","泰山區"
"243002","297-R6","2019/12/23 14:12:04","新北市泰山區明志路一段488號","121.430545","25.0545283333333","6501600","泰山區"
"243006","KEA-2801","2019/12/23 14:29:28","新北市泰山區中港西路420號","121.433926666667","25.05384","6501600","泰山區"
"243008","421-VK","2019/12/23 14:29:31","新北市泰山區新北大道七段18號","121.420478333333","25.0322766666667","6501600","泰山區"
"243001","KEA-2215","2019/12/23 14:29:27","新北市泰山區半山雅4號","121.431676666667","25.0673733333333","6501600","泰山區"
"243003","KEA-2216","2019/12/23 14:29:38","新北市泰山區貴子路67巷20號","121.431098333333","25.0409183333333","6501600","泰山區"
"243005","646-TV","2019/12/23 14:29:21","新北市泰山區貴子路7號","121.425408333333","25.0423133333333","6501600","泰山區"
"243007","680-BX","2019/12/23 14:29:38","新北市泰山區民權街15號","121.42831","25.050865","6501600","泰山區"
"231030","002-UM","2019/12/23 14:29:23","新北市新店區安民街67-1號","121.516481666667","24.9667916666667","6500600","新店區"
"231027","0293-UT","2019/12/23 14:29:40","新北市新店區中正路75巷71號","121.54313","24.9690916666667","6500600","新店區"
"231005","046-UY","2019/12/23 14:29:32","新北市新店區中興路三段173號","121.544185","24.9806583333333","6500600","新店區"
"231029","106-UY","2019/12/23 14:29:37","新北市新店區安康路二段382號","121.500485","24.95705","6500600","新店區"
"231018","107-UY","2019/12/23 14:29:24","新北市新店區中央五街15號","121.529651666667","24.9743266666667","6500600","新店區"
"231013","108-UY","2019/12/23 14:29:42","新北市新店區民權路108-4號","121.53583","24.9832416666667","6500600","新店區"
"231036","110-UY","2019/12/23 14:29:22","新北市新店區安祥路109巷151弄5號","121.478335","24.9587033333333","6500600","新店區"
"231014","KEA-2219","2019/12/23 14:29:42","新北市新店區北宜路三段144號","121.58506","24.9501116666667","6500600","新店區"
"231031","256-BX","2019/12/23 14:29:37","新北市新店區安康路一段11號","121.533571666667","24.9603783333333","6500600","新店區"
"231023","260-TV","2019/12/23 14:29:33","新北市新店區光明街135號","121.539498333333","24.961955","6500600","新店區"
"231003","268-BY","2019/12/23 14:29:27","","121.544976666667","24.9679466666667","6500600","新店區"
"231035","278-BY","2019/12/23 14:29:41","新北市新店區安光路10-1號","121.513835","24.964155","6500600","新店區"
"231006","355-BY","2019/12/23 14:29:32","新北市新店區北宜路二段599號","121.568978333333","24.9559083333333","6500600","新店區"
"231038","3712-VJ","2019/12/23 14:29:37","新北市新店區溪洲路187-2號","121.529293333333","24.96463","6500600","新店區"
"231025","4715-K9","2019/12/23 14:29:27","新北市新店區薏仁坑路6-3號","121.49976","24.9585966666667","6500600","新店區"
"231019","515-UM","2019/12/23 14:29:24","新北市新店區新烏路三段69號","121.55551","24.9039383333333","6500600","新店區"
"231034","616-UM","2019/12/23 14:29:35","新北市新店區車子路11號","121.503105","24.95208","6500600","新店區"
"231001","617-UM","2019/12/23 14:29:24","新北市新店區中正路75巷71號","121.54315","24.968815","6500600","新店區"
"231002","619-UM","2019/12/23 14:29:35","新北市新店區中央路75號","121.532378333333","24.9766866666667","6500600","新店區"
"231011","KED-0819","2019/12/23 14:29:14","新北市新店區中興路二段100巷1號","121.547651666667","24.9715383333333","6500600","新店區"
"231028","897-TW","2019/12/23 14:29:23","新北市新店區安和路二段73-1號","121.518296666667","24.9686783333333","6500600","新店區"
"231004","899-TW","2019/12/23 14:29:31","新北市新店區中正路282-2號","121.538228333333","24.9740166666667","6500600","新店區"
"231037","AKT-0513","2019/12/23 14:29:37","新北市新店區車子路12號","121.504733333333","24.9542583333333","6500600","新店區"
"235030","003-UY","2019/12/23 14:29:41","新北市中和區中和路136號","121.503368333333","24.999395","6500300","中和區"
"235028","005-UY","2019/12/23 14:29:22","新北市中和區南山路129-1號","121.502141666667","24.996925","6500300","中和區"
"235027","006-UY","2019/12/23 14:29:27","新北市中和區連城路203巷3號","121.494905","24.9976166666667","6500300","中和區"
"235036","KEE-1103","2019/12/23 14:29:23","新北市中和區莊敬路33巷20號","121.500253333333","25.0054566666667","6500300","中和區"
"235020","096-UM","2019/12/23 14:29:36","新北市中和區員山路514巷2號","121.47935","25.0096266666667","6500300","中和區"
"235003","097-UM","2019/12/23 14:29:31","新北市中和區景德街1號","121.519236666667","24.9912916666667","6500300","中和區"
"235029","098-UM","2019/12/23 14:29:39","新北市中和區莊敬路31巷17號","121.499893333333","25.0052283333333","6500300","中和區"
"235004","150-BY","2019/12/23 14:29:21","","121.512788333333","24.9940866666667","6500300","中和區"
"235022","151-BY","2019/12/23 14:29:17","新北市中和區員山路124巷13號","121.481973333333","24.99606","6500300","中和區"
"235019","183-VK","2019/12/23 14:29:34","新北市中和區德光路15巷17號","121.47138","25.0035916666667","6500300","中和區"
"235002","185-VK","2019/12/23 14:29:30","","121.521823333333","24.9941233333333","6500300","中和區"
"235031","255-BX","2019/12/23 14:29:22","新北市中和區新生街254號","121.483726666667","24.9974916666667","6500300","中和區"
"235008","293-VK","2019/12/23 14:29:22","新北市中和區捷運路102號","121.505695","24.99144","6500300","中和區"
"235035","301-VK","2019/12/23 14:29:31","","121.484213333333","24.9961516666667","6500300","中和區"
"235007","352-BY","2019/12/23 14:29:42","新北市中和區景平路426號","121.507438333333","24.9933","6500300","中和區"
"235006","KEA-2878","2019/12/23 14:29:37","新北市中和區保健路29巷2號","121.508966666667","24.9981466666667","6500300","中和區"
"247015","KEA-2869","2019/12/23 14:29:38","新北市蘆洲區中正路185巷68弄13號","121.466485","25.0849816666667","6501400","蘆洲區"
"247009","KED-0682","2019/12/23 14:29:37","新北市蘆洲區鷺江街16-3號","121.478621666667","25.082435","6501400","蘆洲區"
"235033","4980-A6","2019/12/23 14:29:36","新北市中和區連城路134巷18號","121.495223333333","25.0001333333333","6500300","中和區"
"235032","551-UM","2019/12/23 14:29:22","新北市中和區永和路6號","121.500048333333","25.002865","6500300","中和區"
"235009","565-BX","2019/12/23 14:29:32","新北市中和區景新街329號","121.511838333333","24.9913416666667","6500300","中和區"
"235024","KED-0823","2019/12/23 14:29:31","","121.48054","25.0045416666667","6500300","中和區"
"235018","640-BX","2019/12/23 14:29:29","新北市中和區莒光路140號","121.472546666667","25.0012133333333","6500300","中和區"
"235011","732-UM","2019/12/23 14:29:30","新北市中和區景平路259巷42號","121.506578333333","24.992845","6500300","中和區"
"235010","733-UM","2019/12/23 14:29:39","新北市中和區忠孝街37巷52號","121.511125","24.9849216666667","6500300","中和區"
"235026","800-TS","2019/12/23 14:29:36","新北市中和區建三路9號","121.486288333333","25.00323","6500300","中和區"
"235021","801-TS","2019/12/23 14:29:34","新北市中和區員山路247號","121.481233333333","24.9985866666667","6500300","中和區"
"235005","802-TS","2019/12/23 14:29:34","新北市中和區景安路53號","121.50736","24.9981733333333","6500300","中和區"
"235016","805-TS","2019/12/23 14:29:38","新北市中和區華新街143巷71弄35號","121.507841666667","24.97924","6500300","中和區"
"235012","896-TW","2019/12/23 14:29:36","新北市中和區忠孝街72號","121.512023333333","24.9841166666667","6500300","中和區"
"235017","900-TW","2019/12/23 14:29:41","新北市中和區民德路197號","121.468876666667","24.998385","6500300","中和區"
"235015","157-BY","2019/12/23 14:29:23","新北市中和區板南路132號","121.502435","24.9925433333333","6500300","中和區"
"235001","AAC-213","2019/12/23 14:29:35","新北市中和區秀朗路三段95號","121.526461666667","24.9951233333333","6500300","中和區"
"235023","AAC-215","2019/12/23 14:29:24","新北市中和區圓通路276-7號","121.492036666667","24.9908166666667","6500300","中和區"
"220002","015-TV","2019/12/23 14:29:43","新北市板橋區光明街86號","121.461795","25.0028066666667","6500100","板橋區"
"220013","072-UY","2019/12/23 14:29:31","新北市板橋區國泰街75巷29-1號","121.467918333333","25.0054533333333","6500100","板橋區"
"220034","073-UY","2019/12/23 14:29:33","新北市板橋區中正路250巷60號","121.457845","25.0196783333333","6500100","板橋區"
"220105","075-UY","2019/12/23 14:29:29","新北市板橋區文化路二段548巷21-1號","121.476563333333","25.0338316666667","6500100","板橋區"
"220017","AAD-861","2019/12/23 14:29:40","新北市板橋區貴興路106巷3號","121.455311666667","25.0025783333333","6500100","板橋區"
"247005","893-R6","2019/12/23 14:29:34","新北市蘆洲區中華街101號","121.4614","25.0797216666667","6501400","蘆洲區"
"247019","546-UM","2019/12/23 14:29:34","新北市蘆洲區水湳街281號","121.4695","25.0929416666667","6501400","蘆洲區"
"247011","337-TH","2019/12/23 14:29:24","新北市蘆洲區中興街163號","121.482016666667","25.0897066666667","6501400","蘆洲區"
"247003","336-TH","2019/12/23 14:29:33","新北市蘆洲區長安街194巷12-1號","121.459235","25.0840916666667","6501400","蘆洲區"
"247023","057-VK","2019/12/23 14:29:36","新北市蘆洲區中正路261號","121.467435","25.087275","6501400","蘆洲區"
"247013","056-VK","2019/12/23 14:29:38","新北市蘆洲區中山二路225號","121.470246666667","25.0801466666667","6501400","蘆洲區"
"247017","053-VK","2019/12/23 14:29:36","新北市蘆洲區民族路278-1號","121.478465","25.0892783333333","6501400","蘆洲區"
"247021","007-UY","2019/12/23 14:29:23","新北市蘆洲區三民路128巷34號","121.471055","25.0883933333333","6501400","蘆洲區"
"247007","002-UY","2019/12/23 14:29:37","新北市蘆洲區信義路83號","121.476896666667","25.079665","6501400","蘆洲區"
"247001","001-UY","2019/12/23 14:29:33","新北市蘆洲區永樂街38巷33弄25號","121.457073333333","25.0897316666667","6501400","蘆洲區"
"235013","251-BX","2019/12/23 14:29:36","新北市中和區景新街273巷8號","121.509873333333","24.9938433333333","6500300","中和區"
"253003","6232-TK","2019/12/23 14:29:38","新北市石門區尖子鹿11-1號","121.575513333333","25.2803516666667","6502200","石門區"
"253004","6251-TK","2019/12/23 14:29:37","新北市石門區內阿里磅6號","121.589576666667","25.2527366666667","6502200","石門區"
"253002","637-UY","2019/12/23 14:29:28","新北市石門區楓林31號","121.545046666667","25.2840516666667","6502200","石門區"
"253001","KEC-0718","2019/12/23 14:29:27","新北市石門區崁子腳65號","121.53205","25.286055","6502200","石門區"
"207002","749-BX","2019/12/23 14:29:41","新北市萬里區溪底里福德坑路10-1號","121.623901666667","25.156215","6502800","萬里區"
"252005","073-UM","2019/12/23 14:29:29","新北市三芝區橫山里橫山1號","121.532356666667","25.2604716666667","6502100","三芝區"
"207001","662-BX","2019/12/23 14:29:32","新北市萬里區磺潭里清水18-3號","121.63905","25.1989133333333","6502800","萬里區"
"236040","KED-0685","2019/12/23 14:29:21","新北市土城區學成路91巷10號","121.450683333333","24.98808","6501300","土城區"
"236074","166-UM","2019/12/23 14:29:38","新北市土城區中央路四段45-1號","121.422326666667","24.96183","6501300","土城區"
"236029","253-BX","2019/12/23 14:29:28","新北市土城區水源街30號","121.440891666667","24.975575","6501300","土城區"
"236024","269-VK","2019/12/23 14:29:33","新北市土城區承天路67號","121.43954","24.9635316666667","6501300","土城區"
"236012","270-VK","2019/12/23 14:29:27","新北市土城區青雲路39巷7號","121.460338333333","24.9875633333333","6501300","土城區"
"236032","271-VK","2019/12/23 14:29:24","新北市土城區明德路一段315號","121.459421666667","24.9771316666667","6501300","土城區"
"236064","KEA-2877","2019/12/23 14:29:42","新北市土城區永豐路360-2號","121.474966666667","24.9743633333333","6501300","土城區"
"236016","401-BY","2019/12/23 14:29:33","新北市土城區永豐路202巷14號","121.466253333333","24.9834083333333","6501300","土城區"
"236057","912-UM","2019/12/23 14:29:36","新北市土城區中央路四段139-1號","121.415735","24.9573016666667","6501300","土城區"
"236045","913-UM","2019/12/23 14:29:35","新北市土城區青雲路364號","121.458708333333","24.973895","6501300","土城區"
"236060","915-UM","2019/12/23 14:29:40","新北市土城區延壽路111巷7號","121.468858333333","24.9936333333333","6501300","土城區"
"236054","AAC-216","2019/12/23 14:29:41","新北市土城區中華路一段247號","121.440965","24.9817266666667","6501300","土城區"
"220027","145-BY","2019/12/23 14:29:29","新北市板橋區公館街27號","121.461083333333","25.0152966666667","6500100","板橋區"
"220028","200-UY","2019/12/23 14:29:43","新北市板橋區大觀路二段37巷180號","121.4495","25.0021366666667","6500100","板橋區"
"220030","610-BX","2019/12/23 14:29:35","新北市板橋區金門街369巷99號","121.42807","24.9815166666667","6500100","板橋區"
"220050","245-BX","2019/12/23 14:29:29","新北市板橋區民生路二段164號","121.471706666667","25.02036","6500100","板橋區"
"220004","276-BY","2019/12/23 14:29:27","新北市板橋區和平路4號","121.45807","24.9943016666667","6500100","板橋區"
"220020","277-BY","2019/12/23 14:29:24","新北市板橋區金門街283號","121.431208333333","24.987985","6500100","板橋區"
"220019","283-VK","2019/12/23 14:29:36","新北市板橋區忠孝路48巷9弄12號","121.461536666667","25.00013","6500100","板橋區"
"220043","285-UM","2019/12/23 14:29:38","新北市板橋區銘傳街100號","121.469786666667","25.0317133333333","6500100","板橋區"
"220001","285-VK","2019/12/23 14:29:31","新北市板橋區永豐街205號","121.476561666667","25.0210166666667","6500100","板橋區"
"220031","286-VK","2019/12/23 14:29:30","新北市板橋區龍興街73巷53號","121.441716666667","25.003025","6500100","板橋區"
"220029","287-VK","2019/12/23 14:29:33","新北市板橋區大觀路一段29巷131弄33號","121.450983333333","25.004005","6500100","板橋區"
"220039","288-VK","2019/12/23 14:29:15","新北市板橋區長江路一段48巷19弄2號","121.459526666667","25.0278916666667","6500100","板橋區"
"220009","293-UM","2019/12/23 14:29:27","新北市板橋區中山路一段265巷13號","121.468688333333","25.0147","6500100","板橋區"
"220041","295-UM","2019/12/23 14:29:39","新北市板橋區四維路137巷5號","121.464445","25.0249616666667","6500100","板橋區"
"220032","296-UM","2019/12/23 14:29:31","新北市板橋區篤行路三段67號","121.427598333333","24.985735","6500100","板橋區"
"220023","303-R5","2019/12/23 14:29:31","新北市板橋區南雅西路一段116號","121.452458333333","25.0064333333333","6500100","板橋區"
"220010","305-R5","2019/12/23 14:29:41","新北市板橋區三民路二段153巷2弄12-5號","121.479535","25.0143716666667","6500100","板橋區"
"220047","317-R6","2019/12/23 14:29:32","新北市板橋區四維路112巷54號","121.465141666667","25.026455","6500100","板橋區"
"220038","487-VK","2019/12/23 14:29:23","新北市板橋區英士路18號","121.46195","25.0252383333333","6500100","板橋區"
"220037","491-VK","2019/12/23 14:29:31","新北市板橋區雙十路二段37-1號","121.476855","25.025905","6500100","板橋區"
"220104","560-BX","2019/12/23 14:29:40","新北市板橋區中正路433巷1號","121.454135","25.023195","6500100","板橋區"
"220052","561-BX","2019/12/23 14:29:40","新北市板橋區陽明街29巷15號","121.464658333333","25.0220066666667","6500100","板橋區"
"220011","609-BX","2019/12/23 14:29:31","","121.479056666667","25.0141233333333","6500100","板橋區"
"220040","637-BX","2019/12/23 14:29:36","新北市板橋區文聖街123號","121.477991666667","25.02883","6500100","板橋區"
"220005","686-BX","2019/12/23 14:29:20","新北市板橋區國慶路158巷5-4號","121.462036666667","24.995755","6500100","板橋區"
"220025","687-BX","2019/12/23 14:29:26","新北市板橋區大觀路二段125號","121.446","25.001295","6500100","板橋區"
"220042","689-BX","2019/12/23 14:29:38","新北市板橋區新海路395號","121.458715","25.0264933333333","6500100","板橋區"
"220051","KEA-2699","2019/12/23 14:29:22","新北市板橋區雙十路二段130巷2弄76號","121.475618333333","25.0291433333333","6500100","板橋區"
"220003","827-TW","2019/12/23 14:29:30","","121.462718333333","24.9996733333333","6500100","板橋區"
"220014","829-TW","2019/12/23 14:29:38","新北市板橋區漢生東路337號","121.472028333333","25.0074983333333","6500100","板橋區"
"220016","830-TW","2019/12/23 14:29:40","新北市板橋區萬安街96號","121.483833333333","25.0240983333333","6500100","板橋區"
"220022","895-R6","2019/12/23 14:29:32","新北市板橋區北門街23-1號","121.456673333333","25.0111583333333","6500100","板橋區"
"220021","985-R7","2019/12/23 14:29:33","新北市板橋區中正路372巷6號","121.454821666667","25.0241833333333","6500100","板橋區"
"220046","AAC-210","2019/12/23 14:29:37","新北市板橋區文化路一段285巷2弄29號","121.463998333333","25.0196033333333","6500100","板橋區"
"220012","AAC-253","2019/12/23 14:29:23","新北市板橋區重慶路17號","121.460863333333","25.0079816666667","6500100","板橋區"
"235025","KEA-2875","2019/12/23 14:29:16","新北市中和區員山路174巷11號","121.482151666667","24.9999366666667","6500300","中和區"
