"lineid","car","time","location","longitude","latitude","cityid","cityname"
"231030","002-UM","2019/12/23 15:59:23","新北市新店區永平街89號","121.516391666667","24.9855583333333","6500600","新店區"
"231018","107-UY","2019/12/23 15:59:42","新北市新店區中正路678號","121.534071666667","24.9898483333333","6500600","新店區"
"231014","KEA-2219","2019/12/23 15:59:22","新北市新店區中正路282-1號","121.538313333333","24.9739566666667","6500600","新店區"
"231031","256-BX","2019/12/23 15:59:36","新北市新店區雙城路164號","121.496855","24.941535","6500600","新店區"
"231003","268-BY","2019/12/23 15:59:27","新北市新店區中興路二段187號","121.547026666667","24.9734816666667","6500600","新店區"
"231035","278-BY","2019/12/23 15:59:41","新北市新店區安民街65巷15-2號","121.515456666667","24.9667116666667","6500600","新店區"
"231034","616-UM","2019/12/23 15:59:35","新北市新店區富貴街20巷17號","121.493156666667","24.94751","6500600","新店區"
"231046","719-UM","2019/12/23 15:59:10","新北市新店區安康路一段319號","121.52208","24.963625","6500600","新店區"
"231026","720-UM","2019/12/23 15:59:41","新北市新店區民生路23號","121.532683333333","24.9863216666667","6500600","新店區"
"231037","AKT-0513","2019/12/23 15:59:37","新北市新店區薏仁坑路自強巷6號","121.497018333333","24.958725","6500600","新店區"
"241011","013-R5","2019/12/23 15:59:31","新北市三重區雙園街1巷8號","121.497158333333","25.06843","6500200","三重區"
"241028","022-UY","2019/12/23 15:59:27","新北市三重區正義南路111號","121.498275","25.05855","6500200","三重區"
"241008","059-VK","2019/12/23 15:59:37","新北市三重區重新路四段121號","121.484846666667","25.0519733333333","6500200","三重區"
"241015","062-VK","2019/12/23 15:59:34","新北市三重區重新路四段121號","121.485065","25.0520466666667","6500200","三重區"
"241017","063-VK","2019/12/23 15:59:30","新北市三重區大仁街48巷18號","121.491046666667","25.0643866666667","6500200","三重區"
"241007","066-VK","2019/12/23 15:59:32","新北市三重區三和路四段95號","121.48802","25.07599","6500200","三重區"
"241024","742-BX","2019/12/23 15:59:32","新北市三重區力行路一段38巷15號","121.485778333333","25.0675333333333","6500200","三重區"
"241006","262-UM","2019/12/23 15:59:27","新北市三重區重新路四段121號","121.484633333333","25.0518983333333","6500200","三重區"
"241016","266-UM","2019/12/23 15:59:26","新北市三重區重新路四段121號","121.485236666667","25.0520866666667","6500200","三重區"
"241018","268-UM","2019/12/23 15:59:39","新北市三重區中正北路71巷30號","121.491161666667","25.0635383333333","6500200","三重區"
"241013","270-UM","2019/12/23 15:59:31","新北市三重區安慶街40號","121.496671666667","25.0693233333333","6500200","三重區"
"241020","478-VK","2019/12/23 15:59:27","新北市三重區忠孝路二段105號","121.483896666667","25.06975","6500200","三重區"
"241026","480-VK","2019/12/23 15:59:23","新北市三重區捷運路2號","121.486168333333","25.0563116666667","6500200","三重區"
"241014","543-UM","2019/12/23 15:59:36","新北市三重區重新路四段121號","121.485115","25.0520633333333","6500200","三重區"
"241023","545-UM","2019/12/23 15:59:39","新北市三重區中正北路135號","121.482921666667","25.0671933333333","6500200","三重區"
"241005","AAD-863","2019/12/23 15:59:37","新北市三重區國道路一段39巷7號","121.483803333333","25.072965","6500200","三重區"
"241012","743-BX","2019/12/23 15:59:28","新北市三重區正義北路119號","121.497028333333","25.0660183333333","6500200","三重區"
"241022","KED-0820","2019/12/23 15:59:39","新北市三重區中正北路168號","121.484278333333","25.0664033333333","6500200","三重區"
"241025","KED-0670","2019/12/23 15:59:34","新北市三重區三民街166號","121.48231","25.0654733333333","6500200","三重區"
"241029","942-UM","2019/12/23 15:59:35","新北市三重區同安東街76號","121.498563333333","25.0573766666667","6500200","三重區"
"241033","AAC-255","2019/12/23 15:59:23","新北市三重區重新路五段440號","121.474853333333","25.047295","6500200","三重區"
"235031","255-BX","2019/12/23 15:59:22","新北市中和區中正路831號","121.484728333333","25.0021683333333","6500300","中和區"
"235026","800-TS","2019/12/23 15:59:36","新北市中和區建康路272號","121.492918333333","25.0002566666667","6500300","中和區"
"224007","285-BY","2019/12/23 15:59:29","新北市瑞芳區粗坑口路5號","121.761576666667","25.0979816666667","6501200","瑞芳區"
"227002","642-TC","2019/12/23 15:59:34","新北市雙溪區上林里內平林19-1號","121.834456666667","25.031995","6502500","雙溪區"
"227001","400-TW","2019/12/23 15:59:35","新北市雙溪區三港里雙澳路83號","121.88421","25.0536533333333","6502500","雙溪區"
"252002","KED-0821","2019/12/23 15:59:23","新北市三芝區埔坪里埔頭坑41號","121.50464","25.2645966666667","6502100","三芝區"
"236057","912-UM","2019/12/23 15:59:36","新北市土城區中央路二段241號","121.440081666667","24.9717433333333","6501300","土城區"
"236054","AAC-216","2019/12/23 15:59:41","新北市土城區中華路二段62號","121.438863333333","24.9765583333333","6501300","土城區"
"238002","755-BX","2019/12/23 15:59:36","新北市樹林區文化街112巷14號","121.417238333333","24.9904516666667","6500700","樹林區"
"238010","601-UM","2019/12/23 15:59:32","新北市樹林區三福街132號","121.405751666667","25.01602","6500700","樹林區"
"238006","599-UM","2019/12/23 15:59:44","新北市樹林區國凱街136巷10號","121.423455","24.980015","6500700","樹林區"
"238011","5061-A6","2019/12/23 15:59:36","新北市樹林區山佳街15號","121.39416","24.9728416666667","6500700","樹林區"
"238005","KEA-2217","2019/12/23 15:59:33","新北市樹林區博愛街158號","121.42606","24.9910366666667","6500700","樹林區"
"238009","KEA-2213","2019/12/23 15:59:27","新北市樹林區太平路150巷23弄19號","121.417271666667","24.9767283333333","6500700","樹林區"
"238012","303-VK","2019/12/23 15:59:26","新北市樹林區保安二街94號","121.422948333333","24.995585","6500700","樹林區"
"238004","283-BY","2019/12/23 15:59:41","新北市樹林區大安路347號","121.41647","24.9906783333333","6500700","樹林區"
"238001","282-BY","2019/12/23 15:59:24","新北市樹林區保安二街64巷1弄2號","121.424268333333","24.995545","6500700","樹林區"
"238007","268-VK","2019/12/23 15:59:36","新北市樹林區三俊街141號","121.418426666667","25.01554","6500700","樹林區"
"238013","172-UY","2019/12/23 15:59:31","新北市樹林區育德街45號","121.391655","24.97022","6500700","樹林區"
"238003","169-UY","2019/12/23 15:59:37","新北市樹林區復興路373巷13號","121.417461666667","24.9862616666667","6500700","樹林區"
