"lineid","car","time","location","longitude","latitude","cityid","cityname"
"249005","172-UM","2019/12/23 17:29:27","新北市八里區荖阡坑路28-1號","121.404208333333","25.130635","6502300","八里區"
"249001","173-UM","2019/12/23 17:29:39","新北市八里區中華路一段3號","121.422973333333","25.1584766666667","6502300","八里區"
"249004","303-UY","2019/12/23 17:29:23","新北市八里區民治街173號","121.413468333333","25.1565866666667","6502300","八里區"
"249002","305-UY","2019/12/23 17:29:30","新北市八里區龍米路二段101號","121.44748","25.1425133333333","6502300","八里區"
"249003","593-UM","2019/12/23 17:29:30","新北市八里區中山路二段398號","121.400568333333","25.14778","6502300","八里區"
"232011","375-UM","2019/12/23 17:29:26","新北市坪林區北宜路八段551號","121.71805","24.910615","6502000","坪林區"
"244007","080-UY","2019/12/23 17:29:30","新北市林口區中湖50-3號","121.383388333333","25.0920116666667","6501700","林口區"
"244019","402-UM","2019/12/23 17:29:25","新北市林口區文化一路一段83巷14弄3號","121.372291666667","25.07189","6501700","林口區"
"244013","KEA-2802","2019/12/23 17:29:29","新北市林口區中山路202-6號","121.38806","25.0790966666667","6501700","林口區"
"244023","483-VK","2019/12/23 17:29:25","新北市林口區東明一街1巷29號","121.393923333333","25.07176","6501700","林口區"
"244017","485-VK","2019/12/23 17:29:41","新北市林口區文化一路一段133號","121.374025","25.0718","6501700","林口區"
"244009","657-BX","2019/12/23 17:29:28","新北市林口區中北三街139號","121.383453333333","25.0833116666667","6501700","林口區"
"244011","701-TV","2019/12/23 17:29:30","新北市林口區佳林路253號","121.382918333333","25.0761066666667","6501700","林口區"
"244025","837-TS","2019/12/23 17:29:36","新北市林口區文化二路一段289-5號","121.367525","25.0718416666667","6501700","林口區"
"244021","838-TS","2019/12/23 17:29:38","新北市林口區粉寮路一段77-2號","121.397143333333","25.0795516666667","6501700","林口區"
"222002","659-BX","2019/12/23 17:29:38","新北市深坑區深南路88巷1號","121.621165","25.0112616666667","6501800","深坑區"
"231046","719-UM","2019/12/23 17:29:31","新北市新店區直潭路92號","121.530936666667","24.9375616666667","6500600","新店區"
"241015","062-VK","2019/12/23 17:29:34","新北市三重區長元街79-1號","121.503418333333","25.066755","6500200","三重區"
"241007","066-VK","2019/12/23 17:29:32","新北市三重區三和路四段145巷184號","121.488738333333","25.0797016666667","6500200","三重區"
"241003","091-VK","2019/12/23 17:29:26","新北市三重區富福街7號","121.49008","25.0831916666667","6500200","三重區"
"241024","742-BX","2019/12/23 17:29:32","新北市三重區中正北路191巷12號","121.47764","25.0701033333333","6500200","三重區"
"241016","266-UM","2019/12/23 17:29:26","新北市三重區信義西街118號","121.495768333333","25.06425","6500200","三重區"
"241018","268-UM","2019/12/23 17:29:30","新北市三重區新北大道一段3-1號","121.490056666667","25.0613916666667","6500200","三重區"
"241024","KEA-2210","2019/12/23 17:29:32","新北市三重區國道路一段58巷20號","121.481188333333","25.07212","6500200","三重區"
"241030","KED-0822","2019/12/23 17:29:26","新北市三重區新興路3號","121.492828333333","25.05303","6500200","三重區"
"241020","478-VK","2019/12/23 17:29:26","新北市三重區新北大道一段206巷13號","121.482468333333","25.062455","6500200","三重區"
"241014","543-UM","2019/12/23 17:29:36","新北市三重區安和路17號","121.501318333333","25.0685283333333","6500200","三重區"
"241023","545-UM","2019/12/23 17:29:39","新北市三重區忠孝路三段50巷64號","121.482593333333","25.0647183333333","6500200","三重區"
"241019","KEA-2593","2019/12/23 17:29:25","新北市三重區六張街207號","121.488638333333","25.0686616666667","6500200","三重區"
"241025","KED-0670","2019/12/23 17:29:34","新北市三重區中正北路253號","121.47534","25.070735","6500200","三重區"
"241033","AAC-255","2019/12/23 17:29:44","新北市三重區興德路129號","121.470306666667","25.0530966666667","6500200","三重區"
"247016","KEA-2869","2019/12/23 17:29:36","新北市蘆洲區光華路22巷8號","121.469301666667","25.0838216666667","6501400","蘆洲區"
"247010","KED-0682","2019/12/23 17:29:29","新北市蘆洲區信義路179號","121.479761666667","25.0824316666667","6501400","蘆洲區"
"207004","KEE-1107","2019/12/23 17:29:30","新北市萬里區萬里里成功新村44號","121.68764","25.1746666666667","6502800","萬里區"
"247012","337-TH","2019/12/23 17:29:30","新北市蘆洲區三民路73號","121.475076666667","25.0839","6501400","蘆洲區"
"247004","336-TH","2019/12/23 17:29:33","新北市蘆洲區長安街158號","121.45952","25.0827733333333","6501400","蘆洲區"
"247024","057-VK","2019/12/23 17:29:26","新北市蘆洲區長興路296-8號","121.460576666667","25.0902983333333","6501400","蘆洲區"
"247014","056-VK","2019/12/23 17:29:30","新北市蘆洲區三民路33號","121.475473333333","25.082985","6501400","蘆洲區"
"247018","053-VK","2019/12/23 17:29:43","新北市蘆洲區民義街22巷24號","121.471803333333","25.0878783333333","6501400","蘆洲區"
"247022","007-UY","2019/12/23 17:29:23","新北市蘆洲區三民路293-2號","121.465918333333","25.09066","6501400","蘆洲區"
"247008","002-UY","2019/12/23 17:29:32","新北市蘆洲區信義路34巷38號","121.474955","25.0783933333333","6501400","蘆洲區"
"247002","001-UY","2019/12/23 17:29:36","新北市蘆洲區永樂街38巷40號","121.458546666667","25.0901216666667","6501400","蘆洲區"
"228003","097-TW","2019/12/23 17:29:37","新北市貢寮區仁理村研海街62-2號","121.925486666667","25.0456933333333","6502600","貢寮區"
"228001","212-TW","2019/12/23 17:29:28","新北市貢寮區仁理村仁愛路39號","121.9251","25.0532966666667","6502600","貢寮區"
"228002","663-BX","2019/12/23 17:29:36","新北市貢寮區福隆里興隆街100巷7號","121.936465","25.0181666666667","6502600","貢寮區"
"224010","AGQ-8101","2019/12/23 17:29:22","新北市瑞芳區逢甲路41號","121.808391666667","25.1088966666667","6501200","瑞芳區"
"224006","676-BX","2019/12/23 17:29:34","新北市瑞芳區傑魚坑路44-1號","121.793751666667","25.107475","6501200","瑞芳區"
"224009","275-VK","2019/12/23 17:29:23","新北市瑞芳區汽車路9-13號","121.84585","25.1110383333333","6501200","瑞芳區"
"224008","272-VK","2019/12/23 17:29:41","新北市瑞芳區侯硐路320號","121.831426666667","25.0887466666667","6501200","瑞芳區"
"224005","271-BY","2019/12/23 17:29:27","新北市瑞芳區洞頂路297號","121.859655","25.1235983333333","6501200","瑞芳區"
"227002","642-TC","2019/12/23 17:27:24","新北市雙溪區共和里東榮街52號","121.86628","25.0337066666667","6502500","雙溪區"
"227001","400-TW","2019/12/23 17:29:35","新北市雙溪區三貂里政光路3-1號","121.850776666667","25.06338","6502500","雙溪區"
"251009","008-UM","2019/12/23 17:29:30","新北市淡水區新生街30巷1號","121.438926666667","25.1731583333333","6501000","淡水區"
"251004","009-UM","2019/12/23 17:05:09","新北市淡水區中正東路二段88巷15號","121.459075","25.1505083333333","6501000","淡水區"
"251005","010-UM","2019/12/23 17:29:38","新北市淡水區鄧公路33巷2號","121.451325","25.171005","6501000","淡水區"
"251002","012-UM","2019/12/23 17:29:38","新北市淡水區中正路一段68號","121.425218333333","25.1769966666667","6501000","淡水區"
"251015","KEA-2871","2019/12/23 17:29:23","新北市淡水區三空泉21-5號","121.468828333333","25.1672683333333","6501000","淡水區"
"251016","180-VK","2019/12/23 17:29:27","新北市淡水區埤島39-15號","121.453011666667","25.19541","6501000","淡水區"
"251008","181-VK","2019/12/23 17:29:38","新北市淡水區大同路108號","121.462223333333","25.1399866666667","6501000","淡水區"
"251013","182-VK","2019/12/23 17:29:25","新北市淡水區大竹圍5號","121.46659","25.1952116666667","6501000","淡水區"
"251010","413-VK","2019/12/23 17:29:31","新北市淡水區中正路二段215號","121.42622","25.1891733333333","6501000","淡水區"
"251012","441-VK","2019/12/23 17:29:31","新北市淡水區北新路100號","121.447526666667","25.178445","6501000","淡水區"
"251007","442-VK","2019/12/23 17:29:33","新北市淡水區民生路47-4號","121.46206","25.13799","6501000","淡水區"
"251006","561-UM","2019/12/23 17:29:30","新北市淡水區大仁街17號","121.442385","25.1750833333333","6501000","淡水區"
"251014","577-R6","2019/12/23 17:29:25","新北市淡水區公埔子10號","121.47353","25.2270666666667","6501000","淡水區"
"251011","650-BX","2019/12/23 17:29:35","新北市淡水區坪頂路267號","121.471075","25.1621866666667","6501000","淡水區"
"251003","673-BX","2019/12/23 17:29:41","新北市淡水區中山路158號","121.440785","25.1728466666667","6501000","淡水區"
"252001","292-VK","2019/12/23 17:29:28","新北市三芝區淡金路一段3號","121.498111666667","25.2596466666667","6502100","三芝區"
"252002","KED-0821","2019/12/23 17:29:37","新北市三芝區忠孝街1-14號","121.505475","25.2539833333333","6502100","三芝區"
"242042","AAC-296","2019/12/23 17:29:21","新北市新莊區新樹路113巷33號","121.439511666667","25.0263983333333","6500500","新莊區"
"242060","986-R7","2019/12/23 17:29:36","新北市新莊區瓊林路59-38號","121.441123333333","25.0234416666667","6500500","新莊區"
"242004","751-BX","2019/12/23 17:29:29","新北市新莊區中港路282號","121.45305","25.04414","6500500","新莊區"
"242029","615-BX","2019/12/23 17:29:28","新北市新莊區復興路二段191號","121.459225","25.0444916666667","6500500","新莊區"
"242027","613-BX","2019/12/23 17:29:30","新北市新莊區思源路41號","121.460113333333","25.03989","6500500","新莊區"
"242058","612-BX","2019/12/23 17:29:25","新北市新莊區中正路471號","121.441976666667","25.0340416666667","6500500","新莊區"
"242048","566-BX","2019/12/23 17:29:30","新北市新莊區四維路210號","121.42132","25.020105","6500500","新莊區"
"242053","497-BY","2019/12/23 17:29:22","新北市新莊區瓊林南路307號","121.433975","25.0061716666667","6500500","新莊區"
"242019","442-UM","2019/12/23 17:29:22","新北市新莊區中正路149號","121.456241666667","25.0368733333333","6500500","新莊區"
"242002","441-UM","2019/12/23 17:29:21","新北市新莊區瓊林路13-5號","121.448541666667","25.0306266666667","6500500","新莊區"
"242007","440-UM","2019/12/23 17:29:28","新北市新莊區中華路二段20-2號","121.453205","25.0444966666667","6500500","新莊區"
"242044","415-TV","2019/12/23 17:29:32","新北市新莊區富國路101-1號","121.4214","25.025515","6500500","新莊區"
"242013","413-TV","2019/12/23 17:29:39","新北市新莊區中誠街18號","121.451903333333","25.0482533333333","6500500","新莊區"
"242050","400-BY","2019/12/23 17:29:31","新北市新莊區瓊林南路75-8號","121.435028333333","25.0141533333333","6500500","新莊區"
"242025","362-BY","2019/12/23 17:29:35","新北市新莊區中港路281號","121.453265","25.0437983333333","6500500","新莊區"
"242023","353-BY","2019/12/23 17:29:32","新北市新莊區中華路一段110號","121.452448333333","25.040255","6500500","新莊區"
"242015","132-UY","2019/12/23 17:29:39","新北市新莊區新泰路161號","121.447781666667","25.0370366666667","6500500","新莊區"
"242039","135-UY","2019/12/23 17:29:39","新北市新莊區民安路282號","121.427793333333","25.0215666666667","6500500","新莊區"
"242017","173-VK","2019/12/23 17:29:36","新北市新莊區中港路351號","121.452043333333","25.045825","6500500","新莊區"
"242031","175-VK","2019/12/23 17:29:36","新北市新莊區新泰路413巷5號","121.443213333333","25.0443966666667","6500500","新莊區"
"242056","176-VK","2019/12/23 17:29:40","新北市新莊區新泰路51號","121.449478333333","25.0338666666667","6500500","新莊區"
"242021","KED-0687","2019/12/23 17:29:33","新北市新莊區中正路134號","121.452685","25.0362183333333","6500500","新莊區"
"242046","347-TH","2019/12/23 17:29:31","新北市新莊區新樹路57號","121.440065","25.0318466666667","6500500","新莊區"
"242036","348-TH","2019/12/23 17:29:38","新北市新莊區民安路429巷1號","121.433883333333","25.0230616666667","6500500","新莊區"
"242009","349-TH","2019/12/23 17:29:28","新北市新莊區中原路189-1號","121.45233","25.0545416666667","6500500","新莊區"
"242034","350-TH","2019/12/23 17:29:26","新北市新莊區新莊路469號","121.449196666667","25.0334116666667","6500500","新莊區"
"238015","755-BX","2019/12/23 17:29:41","新北市樹林區復興路1號","121.422971666667","24.9950416666667","6500700","樹林區"
"238023","601-UM","2019/12/23 17:29:30","新北市樹林區三福街114號","121.406441666667","25.0163183333333","6500700","樹林區"
"238019","599-UM","2019/12/23 17:29:44","新北市樹林區八德街120號","121.421218333333","24.9795433333333","6500700","樹林區"
"238024","5061-A6","2019/12/23 17:29:27","新北市樹林區中華路6-3號","121.424673333333","24.9839833333333","6500700","樹林區"
"238018","KEA-2217","2019/12/23 17:29:29","新北市樹林區鎮前街165號","121.421948333333","24.9871633333333","6500700","樹林區"
"238022","KEA-2213","2019/12/23 17:29:43","新北市樹林區和平街3號","121.421606666667","24.9812833333333","6500700","樹林區"
"238021","KEA-2539","2019/12/23 17:29:38","新北市樹林區佳園路二段59-9號","121.392311666667","24.9617583333333","6500700","樹林區"
"238025","303-VK","2019/12/23 17:29:26","新北市樹林區保安街二段42號","121.415436666667","25.0021433333333","6500700","樹林區"
"238017","283-BY","2019/12/23 17:29:41","新北市樹林區中正路248巷16號","121.418305","25.0078683333333","6500700","樹林區"
"238014","282-BY","2019/12/23 17:29:23","新北市樹林區保安街一段294巷41號","121.420241666667","24.9987733333333","6500700","樹林區"
"238020","268-VK","2019/12/23 17:29:36","新北市樹林區千歲街186號","121.42933","25.0012733333333","6500700","樹林區"
"238026","172-UY","2019/12/23 17:29:31","新北市樹林區中山路二段249巷2號","121.401971666667","24.9758333333333","6500700","樹林區"
"238016","169-UY","2019/12/23 17:29:37","新北市樹林區長壽街1號","121.424151666667","24.9930983333333","6500700","樹林區"
"239007","AAC-297","2019/12/23 17:29:33","新北市鶯歌區忠孝街7號","121.355088333333","24.9564516666667","6500800","鶯歌區"
"239006","891-R6","2019/12/23 17:29:37","新北市鶯歌區鳳鳴路105號","121.334385","24.966315","6500800","鶯歌區"
"239008","527-UM","2019/12/23 17:29:29","新北市鶯歌區西湖街289巷5-14號","121.3395","24.9699683333333","6500800","鶯歌區"
"239001","417-VK","2019/12/23 17:29:38","新北市鶯歌區國中街6號","121.341096666667","24.944825","6500800","鶯歌區"
"239003","360-BY","2019/12/23 17:29:32","新北市鶯歌區德昌街152號","121.33167","24.96057","6500800","鶯歌區"
"239002","359-BY","2019/12/23 17:29:38","新北市鶯歌區南雅路439號","121.346945","24.9540583333333","6500800","鶯歌區"
"239005","292-BY","2019/12/23 17:29:31","新北市鶯歌區鶯桃路518號","121.331648333333","24.9666133333333","6500800","鶯歌區"
"239004","193-VK","2019/12/23 17:29:32","新北市鶯歌區文化路322號","121.352601666667","24.9465533333333","6500800","鶯歌區"
"207003","KEE-1020","2019/12/23 17:29:23","新北市萬里區龜吼里美崙路96號","121.684443333333","25.1852883333333","6502800","萬里區"
"242011","280-VK","2019/12/23 17:29:40","新北市新莊區中港路394號","121.452275","25.0496033333333","6500500","新莊區"
