"lineid","car","time","location","longitude","latitude","cityid","cityname"
"234081","298-R6","2019/12/23 20:29:31","新北市永和區國中路132巷2號","121.523673333333","25.0070683333333","6500400","永和區"
"234038","336-UY","2019/12/23 20:29:35","新北市永和區民樂街31巷6弄14號","121.528868333333","25.0015366666667","6500400","永和區"
"234064","337-UY","2019/12/23 20:29:36","新北市永和區中正路419號","121.517118333333","25.004995","6500400","永和區"
"234086","338-UY","2019/12/23 20:29:41","新北市永和區永和路二段332號","121.516335","25.01656","6500400","永和區"
"234070","552-UM","2019/12/23 20:29:31","新北市永和區永亨路2號","121.519155","25.0054583333333","6500400","永和區"
"234017","745-BX","2019/12/23 20:29:33","新北市永和區仁愛路84號","121.51274","25.013185","6500400","永和區"
"234030","746-BX","2019/12/23 20:29:28","新北市新店區安民街65巷11號","121.515428333333","24.96654","6500400","永和區"
"234054","KEA-2590","2019/12/23 20:29:40","新北市永和區環河東路一段80號","121.519568333333","25.0164116666667","6500400","永和區"
"234061","AAD-866","2019/12/23 20:29:34","新北市永和區安樂路194巷17弄12號","121.516306666667","25.0014216666667","6500400","永和區"
"234042","862-TW","2019/12/23 20:29:25","新北市永和區安樂路242-18號","121.514788333333","25.00314","6500400","永和區"
"234050","863-TW","2019/12/23 20:29:26","新北市永和區新生路42號","121.507973333333","25.015495","6500400","永和區"
"249005","172-UM","2019/12/23 20:29:27","新北市八里區中山路三段299號","121.379576666667","25.1382683333333","6502300","八里區"
"249001","173-UM","2019/12/23 20:29:24","新北市八里區中山路三段106號","121.391303333333","25.1424133333333","6502300","八里區"
"249004","303-UY","2019/12/23 20:29:32","新北市八里區中山路一段129巷45號","121.413925","25.158525","6502300","八里區"
"249002","305-UY","2019/12/23 20:29:30","新北市八里區龍米路二段125巷23號","121.445878333333","25.1455716666667","6502300","八里區"
"249003","593-UM","2019/12/23 20:29:36","新北市八里區商港六路31號","121.396676666667","25.1487933333333","6502300","八里區"
"248008","KED-0815","2019/12/23 20:29:21","新北市五股區芳洲九路48號","121.447836666667","25.0885066666667","6501500","五股區"
"248002","678-BX","2019/12/23 20:29:26","新北市五股區成泰路三段43-7號","121.442526666667","25.08903","6501500","五股區"
"234023","9380-KE","2019/12/23 20:29:35","新北市永和區博愛街32巷13號","121.518933333333","25.0153016666667","6500400","永和區"
"234074","AAC-211","2019/12/23 20:29:25","新北市永和區豫溪街191巷7弄22號","121.52327","25.0110933333333","6500400","永和區"
"234067","AAC-212","2019/12/23 20:29:27","新北市永和區保平路292巷2號","121.507903333333","25.0047383333333","6500400","永和區"
"234003","AAC-295","2019/12/23 20:29:29","新北市永和區福和路292號","121.517296666667","25.00751","6500400","永和區"
"243012","AAD-798","2019/12/23 20:29:35","新北市泰山區憲訓路36號","121.42894","25.0645633333333","6501600","泰山區"
"243010","297-R6","2019/12/23 20:17:06","新北市泰山區明志路二段254巷10號","121.426311666667","25.047825","6501600","泰山區"
"243014","KEA-2801","2019/12/23 20:29:27","新北市泰山區泰林路二段513號","121.424158333333","25.06374","6501600","泰山區"
"243016","421-VK","2019/12/23 20:29:35","新北市泰山區文程路19號","121.428155","25.049365","6501600","泰山區"
"243009","KEA-2215","2019/12/23 20:29:38","新北市泰山區忠孝街43號","121.428995","25.0654233333333","6501600","泰山區"
"243011","KEA-2216","2019/12/23 20:29:40","新北市泰山區明志路三段83號","121.425145","25.0416766666667","6501600","泰山區"
"243013","646-TV","2019/12/23 20:29:34","新北市泰山區貴子路9巷10弄9號","121.42587","25.0426466666667","6501600","泰山區"
"243015","680-BX","2019/12/23 20:29:28","新北市泰山區仁德路105號","121.433141666667","25.0562783333333","6501600","泰山區"
"222003","KEE-1106","2019/12/23 20:29:34","新北市深坑區深坑街27號","121.615961666667","25.0022883333333","6501800","深坑區"
"222002","659-BX","2019/12/23 20:29:38","新北市深坑區萬福路16巷36-1號","121.610668333333","25.0080566666667","6501800","深坑區"
"231061","002-UM","2019/12/23 20:29:27","新北市新店區安民街133巷26號","121.515416666667","24.9695716666667","6500600","新店區"
"231055","0291-UT","2019/12/23 20:29:26","新北市新店區安康路一段202號","121.524295","24.963455","6500600","新店區"
"231058","0293-UT","2019/12/23 20:29:25","新北市新店區中央路13號","121.533375","24.9784033333333","6500600","新店區"
"231044","046-UY","2019/12/23 20:29:36","新北市新店區建國路134號","121.539038333333","24.9789633333333","6500600","新店區"
"231060","106-UY","2019/12/23 20:29:34","新北市新店區錦秀路11巷94弄2號","121.480198333333","24.942505","6500600","新店區"
"231051","107-UY","2019/12/23 20:29:41","新北市新店區中央六街127號","121.524706666667","24.977825","6500600","新店區"
"231049","108-UY","2019/12/23 20:29:26","新北市新店區永業路81巷60號","121.529293333333","24.94804","6500600","新店區"
"231065","110-UY","2019/12/23 20:29:25","新北市新店區安祥路102巷30弄31號","121.485161666667","24.9634466666667","6500600","新店區"
"231050","KEA-2219","2019/12/23 20:29:31","新北市新店區建興街9巷11號","121.539856666667","24.9762966666667","6500600","新店區"
"231062","256-BX","2019/12/23 20:29:25","新北市新店區安泰路7巷16號","121.485735","24.9508833333333","6500600","新店區"
"231054","260-TV","2019/12/23 20:29:40","新北市新店區檳榔路109號","121.544426666667","24.9616866666667","6500600","新店區"
"231042","268-BY","2019/12/23 20:29:28","新北市新店區寶橋路230號","121.551456666667","24.97883","6500600","新店區"
"231064","278-BY","2019/12/23 20:29:28","新北市新店區永安街74巷23號","121.519051666667","24.98572","6500600","新店區"
"231045","355-BY","2019/12/23 20:29:39","新北市新店區新坡一街40號","121.549321666667","24.9624616666667","6500600","新店區"
"231056","4715-K9","2019/12/23 20:28:17","新北市新店區中央路63號","121.532456666667","24.9770416666667","6500600","新店區"
"231067","4772-VM","2019/12/23 20:29:40","新北市新店區安華路28-1號","121.519788333333","24.96076","6500600","新店區"
"231068","512-UM","2019/12/23 20:29:36","新北市新店區民權路9號","121.542541666667","24.982715","6500600","新店區"
"231052","515-UM","2019/12/23 20:29:30","新北市新店區松林路36號","121.546223333333","24.9102683333333","6500600","新店區"
"231063","616-UM","2019/12/23 20:29:29","新北市新店區安康路二段382號","121.500181666667","24.95691","6500600","新店區"
"231040","617-UM","2019/12/23 20:29:35","新北市新店區三民路119號","121.534861666667","24.9723066666667","6500600","新店區"
"231041","619-UM","2019/12/23 20:29:35","新北市新店區中正路506號","121.534041666667","24.982765","6500600","新店區"
"231047","KED-0819","2019/12/23 20:29:25","新北市新店區寶慶街58巷6號","121.542053333333","24.9870383333333","6500600","新店區"
"231057","720-UM","2019/12/23 20:29:30","新北市新店區花園十路二段4號","121.556018333333","24.9331316666667","6500600","新店區"
"231059","897-TW","2019/12/23 20:29:28","新北市新店區安德街169號","121.508536666667","24.95917","6500600","新店區"
"231043","899-TW","2019/12/23 20:29:24","新北市新店區建國路86號","121.540545","24.97691","6500600","新店區"
"231066","AKT-0513","2019/12/23 20:29:35","新北市新店區安興路102號","121.515185","24.97689","6500600","新店區"
"241011","013-R5","2019/12/23 20:29:23","新北市三重區龍門路43號","121.496111666667","25.072285","6500200","三重區"
"241028","022-UY","2019/12/23 20:29:34","新北市三重區光興街93號","121.497313333333","25.0600083333333","6500200","三重區"
"241008","059-VK","2019/12/23 20:29:39","新北市三重區下竹圍街36號","121.480958333333","25.0750166666667","6500200","三重區"
"241031","061-VK","2019/12/23 20:29:26","新北市三重區三寧街18號","121.489366666667","25.0597716666667","6500200","三重區"
"241015","062-VK","2019/12/23 20:29:43","新北市三重區文化北路41-1號","121.498925","25.0652533333333","6500200","三重區"
"241017","063-VK","2019/12/23 20:29:29","新北市三重區自強路一段185號","121.492201666667","25.0679783333333","6500200","三重區"
"241007","066-VK","2019/12/23 20:29:32","新北市三重區福隆路2號","121.489425","25.077465","6500200","三重區"
"241002","090-VK","2019/12/23 20:29:35","新北市三重區仁義街211巷7號","121.497183333333","25.081995","6500200","三重區"
"241003","091-VK","2019/12/23 20:29:25","新北市三重區富華街109號","121.492311666667","25.0843183333333","6500200","三重區"
"241024","742-BX","2019/12/23 20:29:41","新北市三重區忠孝路三段15巷16弄4號","121.481071666667","25.06732","6500200","三重區"
"241006","262-UM","2019/12/23 20:29:27","新北市三重區車路頭街139巷14號","121.484308333333","25.0761916666667","6500200","三重區"
"241023","316-R6","2019/12/23 20:29:29","新北市三重區自由街17巷2號","121.479801666667","25.0666566666667","6500200","三重區"
"241016","266-UM","2019/12/23 20:29:26","新北市三重區正義北路190巷11號","121.495931666667","25.0669133333333","6500200","三重區"
"241009","267-UM","2019/12/23 20:29:25","新北市三重區永福街77號","121.480123333333","25.07774","6500200","三重區"
"241018","268-UM","2019/12/23 20:29:30","新北市三重區正義北路216巷8號","121.495835","25.0674383333333","6500200","三重區"
"241032","269-UM","2019/12/23 20:29:30","新北市三重區重陽路一段60巷18號","121.485916666667","25.0581316666667","6500200","三重區"
"241013","270-UM","2019/12/23 20:29:25","新北市三重區溪尾街5巷27號","121.492748333333","25.074645","6500200","三重區"
"241030","KED-0822","2019/12/23 20:29:25","新北市三重區集美街75巷45號","121.48765","25.0524966666667","6500200","三重區"
"241035","462-BY","2019/12/23 20:29:35","新北市三重區正義北路132號","121.496803333333","25.0657483333333","6500200","三重區"
"241004","475-VK","2019/12/23 20:29:33","新北市三重區溪尾街209號","121.48842","25.0809133333333","6500200","三重區"
"241020","478-VK","2019/12/23 20:29:26","新北市三重區三和路三段142號","121.493453333333","25.072575","6500200","三重區"
"241026","480-VK","2019/12/23 20:29:22","新北市三重區福德南路24巷13號","121.50337","25.0630883333333","6500200","三重區"
"241014","543-UM","2019/12/23 20:29:35","新北市三重區龍濱路72號","121.502243333333","25.0693816666667","6500200","三重區"
"241001","547-UM","2019/12/23 20:29:33","新北市三重區自強路三段103號","121.487863333333","25.0756366666667","6500200","三重區"
"241019","KEA-2593","2019/12/23 20:29:25","新北市三重區大智街137-2號","121.490966666667","25.0707766666667","6500200","三重區"
"241005","AAD-863","2019/12/23 20:29:37","新北市三重區五華街141巷58號","121.49338","25.086615","6500200","三重區"
"241012","743-BX","2019/12/23 20:29:37","新北市三重區龍濱路285號","121.501083333333","25.0734133333333","6500200","三重區"
"241022","KED-0820","2019/12/23 20:29:39","新北市三重區重陽路二段19巷12號","121.488075","25.0624433333333","6500200","三重區"
"241025","KED-0670","2019/12/23 20:29:23","新北市三重區頂崁街210巷23弄1號","121.47588","25.0681216666667","6500200","三重區"
"241029","942-UM","2019/12/23 20:29:30","新北市三重區集美街112巷9號","121.489346666667","25.05406","6500200","三重區"
"241033","AAC-255","2019/12/23 20:29:27","新北市三重區五谷王北街80巷27號","121.475426666667","25.05319","6500200","三重區"
"235066","003-UY","2019/12/23 20:29:32","新北市中和區保平路326巷26號","121.506308333333","25.0048516666667","6500300","中和區"
"235072","KEE-1103","2019/12/23 20:29:30","新北市三重區光復路二段178-1號","121.47191","25.0622933333333","6500300","中和區"
"247016","KEA-2869","2019/12/23 20:29:41","新北市蘆洲區光華路148號","121.46594","25.0822833333333","6501400","蘆洲區"
"247010","KED-0682","2019/12/23 20:29:30","新北市蘆洲區信義路222巷39號","121.48019","25.085545","6501400","蘆洲區"
"235050","4979-A6","2019/12/23 20:29:41","新北市中和區景新街160巷19號","121.504965","24.9965433333333","6500300","中和區"
"235069","4980-A6","2019/12/23 20:29:42","新北市中和區中正路432巷6號","121.491175","24.9949433333333","6500300","中和區"
"235059","AAC-215","2019/12/23 20:29:40","新北市中和區員山路36巷9號","121.483273333333","24.9909583333333","6500300","中和區"
"207004","KEE-1107","2019/12/23 20:29:30","新北市萬里區北基里忠四街17號","121.684483333333","25.175945","6502800","萬里區"
"247006","893-R6","2019/12/23 20:29:26","新北市蘆洲區九芎街88號","121.46587","25.0798666666667","6501400","蘆洲區"
"247020","546-UM","2019/12/23 20:29:38","新北市蘆洲區仁愛街132號","121.469118333333","25.0945316666667","6501400","蘆洲區"
"247012","337-TH","2019/12/23 20:29:32","新北市蘆洲區復興路294號","121.481005","25.0898366666667","6501400","蘆洲區"
"247004","336-TH","2019/12/23 20:29:40","新北市蘆洲區永康街63巷1弄2號","121.456446666667","25.0847183333333","6501400","蘆洲區"
"247024","057-VK","2019/12/23 20:29:32","新北市蘆洲區長興路50巷18-1號","121.465023333333","25.084565","6501400","蘆洲區"
"247014","056-VK","2019/12/23 20:29:42","新北市蘆洲區中山二路147號","121.471546666667","25.0814333333333","6501400","蘆洲區"
"247018","053-VK","2019/12/23 20:29:36","新北市蘆洲區民族路315號","121.47456","25.09148","6501400","蘆洲區"
"247022","007-UY","2019/12/23 20:29:37","新北市蘆洲區中正路325號","121.46607","25.0889","6501400","蘆洲區"
"247008","002-UY","2019/12/23 20:29:31","新北市蘆洲區永安北路二段76巷1-1號","121.483676666667","25.08474","6501400","蘆洲區"
"247002","001-UY","2019/12/23 20:29:37","新北市蘆洲區長安街361巷18號","121.456303333333","25.0876366666667","6501400","蘆洲區"
"222001","KEA-2212","2019/12/23 20:29:27","新北市深坑區北深路三段278號","121.597848333333","25.0051583333333","6501800","深坑區"
"251002","012-UM","2019/12/23 20:29:38","新北市淡水區中正路55號","121.441731666667","25.16949","6501000","淡水區"
"251015","KEA-2871","2019/12/23 20:29:42","新北市淡水區埤島3-20號","121.446963333333","25.1916116666667","6501000","淡水區"
"251016","180-VK","2019/12/23 20:29:27","新北市淡水區新埔子11-7號","121.447455","25.2284933333333","6501000","淡水區"
"251013","182-VK","2019/12/23 20:29:24","新北市淡水區後坑子6號","121.463371666667","25.2067366666667","6501000","淡水區"
"251010","413-VK","2019/12/23 20:29:39","新北市淡水區沙崙路197號","121.424925","25.1842716666667","6501000","淡水區"
"251012","441-VK","2019/12/23 20:29:30","新北市淡水區頂田寮路25號","121.454971666667","25.2164866666667","6501000","淡水區"
"251001","559-UM","2019/12/23 20:29:39","新北市淡水區新市一路三段8號","121.445035","25.1828933333333","6501000","淡水區"
"251006","561-UM","2019/12/23 20:29:30","新北市淡水區北新路一段606號","121.47282","25.1849766666667","6501000","淡水區"
"251014","577-R6","2019/12/23 20:29:25","新北市淡水區石頭厝17-1號","121.467423333333","25.2371933333333","6501000","淡水區"
"251003","673-BX","2019/12/23 20:29:41","新北市淡水區新生街33號","121.439888333333","25.17484","6501000","淡水區"
"251008","178-VK","2019/12/23 20:29:40","新北市淡水區淡海路208巷26號","121.421523333333","25.1856766666667","6501000","淡水區"
"252001","292-VK","2019/12/23 20:29:28","新北市三芝區中山路一段14號","121.500813333333","25.258115","6502100","三芝區"
"252002","KED-0821","2019/12/23 20:29:36","新北市三芝區淡金路二段47-2號","121.50373","25.2606066666667","6502100","三芝區"
"236059","912-UM","2019/12/23 20:29:42","新北市樹林區環河路600號","121.404673333333","24.9690716666667","6501300","土城區"
"242042","AAC-296","2019/12/23 20:29:36","新北市新莊區壽山路41號","121.415088333333","25.0308666666667","6500500","新莊區"
"242060","986-R7","2019/12/23 20:29:36","新北市新莊區新樹路305號","121.433488333333","25.0195233333333","6500500","新莊區"
"242004","751-BX","2019/12/23 20:29:28","新北市新莊區頭前路14號","121.468206666667","25.05252","6500500","新莊區"
"242029","615-BX","2019/12/23 20:29:28","新北市新莊區中華路二段192號","121.45322","25.0516916666667","6500500","新莊區"
"242027","613-BX","2019/12/23 20:29:33","新北市新莊區幸福路556號","121.454746666667","25.049385","6500500","新莊區"
"242058","612-BX","2019/12/23 20:29:31","新北市新莊區四維路205-3號","121.421745","25.0202483333333","6500500","新莊區"
"242048","566-BX","2019/12/23 20:29:37","新北市新莊區龍安路212號","121.419945","25.0199933333333","6500500","新莊區"
"242053","497-BY","2019/12/23 20:29:42","新北市新莊區民安西路237號","121.426121666667","25.0139733333333","6500500","新莊區"
"242019","442-UM","2019/12/23 20:29:28","新北市新莊區復興路二段196巷1號","121.45935","25.04408","6500500","新莊區"
"242007","440-UM","2019/12/23 20:29:36","新北市新莊區福壽街124巷34弄1號","121.459353333333","25.0512216666667","6500500","新莊區"
"242044","415-TV","2019/12/23 20:29:42","新北市新莊區中正路新建巷28弄20號","121.413565","25.0214816666667","6500500","新莊區"
"242013","413-TV","2019/12/23 20:29:31","新北市新莊區中平路270巷7弄27號","121.446018333333","25.0510283333333","6500500","新莊區"
"242050","400-BY","2019/12/23 20:29:39","新北市新莊區民安西路212巷5弄15號","121.425","25.0142266666667","6500500","新莊區"
"242025","362-BY","2019/12/23 20:29:35","新北市新莊區五工二路62巷24號","121.46131","25.0662333333333","6500500","新莊區"
"242023","353-BY","2019/12/23 20:29:42","新北市新莊區化成路850號","121.464798333333","25.0605433333333","6500500","新莊區"
"242015","132-UY","2019/12/23 20:29:38","新北市新莊區中和街31巷24號","121.447055","25.044315","6500500","新莊區"
"242039","135-UY","2019/12/23 20:29:25","新北市新莊區民安路294號","121.428076666667","25.0217433333333","6500500","新莊區"
"242017","173-VK","2019/12/23 20:29:35","新北市新莊區中港二街141號","121.448153333333","25.0455483333333","6500500","新莊區"
"242031","175-VK","2019/12/23 20:29:36","新北市泰山區新生路181-5號","121.436008333333","25.03921","6500500","新莊區"
"242056","176-VK","2019/12/23 20:29:37","新北市新莊區新莊路715號","121.44371","25.0327516666667","6500500","新莊區"
"242021","KED-0687","2019/12/23 20:29:43","新北市新莊區和興街5號","121.447623333333","25.039115","6500500","新莊區"
"242002","346-TH","2019/12/23 20:29:39","新北市新莊區中正路76號","121.458663333333","25.03794","6500500","新莊區"
"242046","347-TH","2019/12/23 20:29:30","新北市新莊區裕民街83號","121.418528333333","25.0237683333333","6500500","新莊區"
"242036","348-TH","2019/12/23 20:29:23","新北市新莊區建安街40巷22號","121.42752","25.025255","6500500","新莊區"
"242009","349-TH","2019/12/23 20:29:28","新北市新莊區昌盛街81巷4弄2號","121.455591666667","25.05047","6500500","新莊區"
"242034","350-TH","2019/12/23 20:29:40","新北市新莊區新泰路207號","121.446801666667","25.03846","6500500","新莊區"
"239005","292-BY","2019/12/23 20:29:30","新北市鶯歌區東湖路4-5號","121.350928333333","24.9729283333333","6500800","鶯歌區"
"221008","489-VK","2019/12/23 20:29:23","新北市汐止區康寧街81號","121.619626666667","25.06641","6501100","汐止區"
"221036","130-UY","2019/12/23 20:29:43","新北市汐止區仁愛路151巷26號","121.663346666667","25.0653366666667","6501100","汐止區"
"221015","131-UY","2019/12/23 20:29:27","新北市汐止區建成路142巷19弄11號","121.661955","25.0738233333333","6501100","汐止區"
"221010","269-BY","2019/12/23 20:29:27","新北市汐止區八連路二段163號","121.634011666667","25.0953483333333","6501100","汐止區"
"221012","278-VK","2019/12/23 20:29:35","新北市汐止區汐平路二段53號","121.699083333333","25.0608566666667","6501100","汐止區"
"221023","279-VK","2019/12/23 20:29:24","新北市汐止區明峰街125號","121.630716666667","25.0710066666667","6501100","汐止區"
"221032","280-BY","2019/12/23 20:29:27","新北市汐止區民權街二段47號","121.61949","25.0491766666667","6501100","汐止區"
"221027","281-BY","2019/12/23 20:29:37","新北市汐止區中正路214號","121.65836","25.06893","6501100","汐止區"
"221029","298-VK","2019/12/23 20:29:38","新北市汐止區樟樹一路129巷32號","121.64055","25.0651066666667","6501100","汐止區"
"221021","299-VK","2019/12/23 20:29:39","新北市汐止區水源路一段291巷1號","121.654315","25.05835","6501100","汐止區"
"221031","567-BX","2019/12/23 20:29:25","新北市汐止區中興路150巷13號","121.632986666667","25.0650316666667","6501100","汐止區"
"221035","622-UM","2019/12/23 20:29:26","新北市汐止區長江街79巷19號","121.65772","25.0730266666667","6501100","汐止區"
"221025","623-UM","2019/12/23 20:29:39","新北市汐止區水源路二段86號","121.656493333333","25.0562133333333","6501100","汐止區"
"221038","646-BX","2019/12/23 20:29:25","新北市汐止區水源路一段72號","121.656823333333","25.06521","6501100","汐止區"
"221033","647-BX","2019/12/23 20:29:40","新北市汐止區林森街73巷5號","121.623546666667","25.0409383333333","6501100","汐止區"
"221002","707-TV","2019/12/23 20:29:39","新北市汐止區福德二路49號","121.634316666667","25.06725","6501100","汐止區"
"221018","753-BX","2019/12/23 20:28:54","新北市汐止區茄苳路225巷11弄28號","121.67075","25.06998","6501100","汐止區"
"220079","145-BY","2019/12/23 20:29:39","新北市板橋區大仁街95號","121.45317","25.0158283333333","6500100","板橋區"
"220083","286-VK","2019/12/23 20:29:32","新北市板橋區僑中二街102巷10號","121.44565","25.008335","6500100","板橋區"
"220081","287-VK","2019/12/23 20:29:37","新北市板橋區僑中一街80巷5弄3號","121.447588333333","25.0125133333333","6500100","板橋區"
"242011","280-VK","2019/12/23 20:29:40","新北市新莊區幸福路678巷3弄1號","121.450373333333","25.049575","6500500","新莊區"
"235068","KEA-2876","2019/12/23 20:29:33","新北市中和區勝利路35巷1弄24號","121.499925","25.0076783333333","6500300","中和區"
