"lineid","car","time","location","longitude","latitude","cityid","cityname"
"241011","013-R5","2019/12/23 22:13:43","新北市三重區龍濱路100號","121.502206666667","25.07014","6500200","三重區"
"251004","009-UM","2019/12/23 22:13:23","新北市淡水區民族路33巷16-19號","121.46234","25.1358866666667","6501000","淡水區"
"251010","413-VK","2019/12/23 22:13:31","新北市淡水區沙崙路200號","121.424663333333","25.183895","6501000","淡水區"
"251007","442-VK","2019/12/23 22:13:33","新北市淡水區北新路186-3號","121.449535","25.1787333333333","6501000","淡水區"
"251011","650-BX","2019/12/23 22:13:23","新北市淡水區水碓街7號","121.443171666667","25.177175","6501000","淡水區"
"251008","178-VK","2019/12/23 22:13:39","新北市淡水區學府路104號","121.449866666667","25.171805","6501000","淡水區"
