"lineid","car","time","location","longitude","latitude","cityid","cityname"
"232013","705-BZ","2019/12/24 07:13:28","新北市坪林區灣潭5-1號","121.675281666667","24.93201","6502000","坪林區"
"232002","758-BX","2019/12/24 07:13:43","新北市坪林區大粗坑31號","121.711966666667","24.9665516666667","6502000","坪林區"
"244002","248-BX","2019/12/24 07:13:41","新北市林口區頂福里71-28號","121.357305","25.0779366666667","6501700","林口區"
"222005","289-BY","2019/12/24 07:13:40","新北市深坑區深坑街75號","121.61469","25.0012633333333","6501800","深坑區"
"223002","KEA-2673","2019/12/24 07:13:36","新北市石碇區碇格路二段31號","121.63905","24.9572316666667","6501900","石碇區"
"223003","205-TH","2019/12/24 07:13:33","新北市石碇區烏塗窟14-1號","121.65626","24.9755883333333","6501900","石碇區"
"223008","406-TH","2019/12/24 07:13:36","新北市石碇區靜安路一段288號","121.688261666667","25.0069033333333","6501900","石碇區"
"223001","592-UM","2019/12/24 07:13:28","新北市石碇區烏塗窟14-1號","121.65614","24.9755133333333","6501900","石碇區"
"223004","660-BX","2019/12/24 07:13:34","新北市石碇區靜安路一段61號","121.647973333333","25.0103316666667","6501900","石碇區"
"223007","661-BX","2019/12/24 07:13:26","新北市石碇區番子坑24-7號","121.678486666667","25.0030716666667","6501900","石碇區"
"227004","282-VK","2019/12/24 07:13:42","新北市雙溪區新基里自強路5號","121.866343333333","25.0390983333333","6502500","雙溪區"
"252004","249-BX","2019/12/24 07:13:28","新北市三芝區福德里埔尾27號","121.50277","25.24001","6502100","三芝區"
"252007","AAC-283","2019/12/24 07:13:34","新北市三芝區錫板里小坑子1號","121.49175","25.2484866666667","6502100","三芝區"
