"lineid","car","time","location","longitude","latitude","cityid","cityname"
"244005","248-BX","2019/09/21 08:19:38","新北市林口區嘉寶里31號","121.316835","25.1196083333333","6501700","林口區"
"222007","289-BY","2019/09/21 08:01:55","新北市深坑區昇高坑路43號","121.62936","24.9964083333333","6501800","深坑區"
"231007","189-VK","2019/09/21 08:19:33","新北市新店區新潭路一段160巷17號","121.529646666667","24.93217","6500600","新店區"
"231008","192-VK","2019/09/21 08:19:13","新北市新店區新烏路二段176號","121.548176666667","24.91807","6500600","新店區"
"226005","5620-A6","2019/09/21 08:19:36","新北市平溪區南山里乾坑2-5號","121.79148","25.04606","6502400","平溪區"
"226007","7418-A5","2019/09/21 08:19:27","新北市平溪區東勢里芊蓁林6-1號","121.751886666667","25.019785","6502400","平溪區"
"226003","AGD-0702","2019/09/21 08:19:26","新北市平溪區十分里十分街66巷17號","121.774935","25.0426716666667","6502400","平溪區"
"223003","205-TH","2019/09/21 08:19:35","新北市石碇區北宜路六段塗潭巷27號","121.649566666667","24.9338216666667","6501900","石碇區"
"223008","406-TH","2019/09/21 08:19:26","新北市石碇區石碇子埔31號","121.672308333333","25.0068033333333","6501900","石碇區"
"223001","592-UM","2019/09/21 08:19:44","新北市石碇區北宜路六段塗潭巷21號","121.650878333333","24.9338816666667","6501900","石碇區"
"223004","660-BX","2019/09/21 08:19:39","新北市石碇區外按11-5號","121.651585","24.9991183333333","6501900","石碇區"
"223007","661-BX","2019/09/21 08:19:39","新北市石碇區靜安路一段196號","121.672258333333","25.0066833333333","6501900","石碇區"
"223005","677-TV","2019/09/21 08:19:26","新北市石碇區外按11-5號","121.65157","24.9990816666667","6501900","石碇區"
"227004","282-VK","2019/09/21 08:19:22","新北市雙溪區牡丹里聖南14號","121.858131666667","25.05192","6502500","雙溪區"
"252004","292-VK","2019/09/21 08:16:48","新北市三芝區興華里車埕60號","121.498628333333","25.196965","6502100","三芝區"
"252007","AAC-283","2019/09/21 08:19:34","新北市淡水區淡金路五段172號","121.457353333333","25.2402533333333","6502100","三芝區"
"237014","760-BX","2019/09/21 08:19:39","新北市三峽區有木147-1號","121.445125","24.84755","6500900","三峽區"
