"lineid","car","time","location","longitude","latitude","cityid","cityname"
"234044","148-BY","2019/09/21 14:09:43","新北市永和區成功路一段121號","121.526851666667","25.0019166666667","6500400","永和區"
"234078","298-R6","2019/09/21 14:09:35","新北市永和區國中路96號","121.524365","25.006285","6500400","永和區"
"234036","336-UY","2019/09/21 14:09:31","新北市永和區成功路一段47巷8號","121.527575","25.00398","6500400","永和區"
"234062","337-UY","2019/09/21 14:09:35","新北市永和區永利路152號","121.52246","25.0026616666667","6500400","永和區"
"234068","552-UM","2019/09/21 14:09:38","新北市永和區永貞路10巷9號","121.520015","25.0072183333333","6500400","永和區"
"234001","553-UM","2019/09/21 14:09:39","新北市永和區中正路670號","121.516941666667","25.0091566666667","6500400","永和區"
"234015","745-BX","2019/09/21 14:09:42","新北市永和區仁愛路70號","121.513078333333","25.0132383333333","6500400","永和區"
"234028","746-BX","2019/09/21 14:09:38","新北市永和區民權路84號","121.519838333333","24.997","6500400","永和區"
"234052","KEA-2590","2019/09/21 14:09:37","新北市永和區博愛街29號","121.518228333333","25.0158083333333","6500400","永和區"
"234005","KED-0605","2019/09/21 14:09:34","新北市永和區中和路307號","121.506523333333","24.9997083333333","6500400","永和區"
"234012","KEA-2591","2019/09/21 14:09:39","新北市永和區仁愛路295號","121.505168333333","25.00925","6500400","永和區"
"234060","AAD-866","2019/09/21 14:09:39","新北市永和區得和路11號","121.515213333333","25.0005366666667","6500400","永和區"
"234084","748-BX","2019/09/21 14:09:32","新北市永和區中正路602巷11號","121.517578333333","25.007105","6500400","永和區"
"234040","862-TW","2019/09/21 14:09:40","新北市永和區雙和街3號","121.509775","25.0016883333333","6500400","永和區"
"234048","863-TW","2019/09/21 14:09:38","新北市永和區環河西路二段91號","121.506576666667","25.0149066666667","6500400","永和區"
"234025","9381-KE","2019/09/21 14:09:36","新北市永和區安樂路274號","121.514618333333","25.0041933333333","6500400","永和區"
"234010","9373-KE","2019/09/21 14:09:35","新北市永和區保生路55號","121.504546666667","25.0108616666667","6500400","永和區"
"249002","305-UY","2019/09/21 14:09:34","新北市八里區挖子尾街12號","121.415456666667","25.1644283333333","6502300","八里區"
"234022","9380-KE","2019/09/21 14:09:37","新北市永和區博愛街32巷10-1號","121.518646666667","25.0153983333333","6500400","永和區"
"234076","969-R7","2019/09/21 14:09:31","新北市永和區民族街67巷18號","121.519498333333","24.99712","6500400","永和區"
"234072","AAC-211","2019/09/21 14:09:42","新北市永和區竹林路201巷21號","121.521706666667","25.009295","6500400","永和區"
"234066","AAC-212","2019/09/21 14:09:24","新北市永和區保平路236巷1弄1號","121.509068333333","25.0057733333333","6500400","永和區"
"231030","002-UM","2019/09/21 14:09:39","新北市新店區安興路7-1號","121.515003333333","24.968585","6500600","新店區"
"231024","0291-UT","2019/09/21 14:09:40","新北市新店區力行路12號","121.539388333333","24.964635","6500600","新店區"
"231005","046-UY","2019/09/21 14:09:30","新北市新店區中興路三段255號","121.54254","24.9843283333333","6500600","新店區"
"231029","106-UY","2019/09/21 14:09:29","新北市新店區安康路二段161號","121.5102","24.9592916666667","6500600","新店區"
"231018","107-UY","2019/09/21 14:09:35","新北市新店區中央五街13號","121.529663333333","24.9742983333333","6500600","新店區"
"231013","108-UY","2019/09/21 14:09:32","新北市新店區北新路三段65巷34弄21號","121.540008333333","24.981685","6500600","新店區"
"231036","110-UY","2019/09/21 14:09:38","新北市新店區安祥路109巷1弄81號","121.478595","24.96045","6500600","新店區"
"231033","256-BX","2019/09/21 14:09:36","新北市新店區碧潭路44號","121.534336666667","24.9566033333333","6500600","新店區"
"231023","260-TV","2019/09/21 14:09:22","新北市新店區文中路45號","121.539636666667","24.9566283333333","6500600","新店區"
"231003","268-BY","2019/09/21 14:09:31","新北市新店區中興路一段91號","121.540963333333","24.9619383333333","6500600","新店區"
"231035","278-BY","2019/09/21 14:09:37","新北市新店區安和路二段115號","121.518668333333","24.9704233333333","6500600","新店區"
"231017","AAD-862","2019/09/21 14:09:35","新北市新店區北宜路二段445號","121.56128","24.954215","6500600","新店區"
"231006","355-BY","2019/09/21 14:09:25","新北市新店區北宜路二段207號","121.553121666667","24.9532766666667","6500600","新店區"
"231038","3712-VJ","2019/09/21 14:09:43","新北市新店區溪洲路121號","121.531228333333","24.96283","6500600","新店區"
"231027","3713-VJ","2019/09/21 14:09:28","新北市新店區中興路一段24-2號","121.538593333333","24.958125","6500600","新店區"
"231025","4715-K9","2019/09/21 14:09:24","新北市新店區自立街41號","121.537211666667","24.9797316666667","6500600","新店區"
"231020","513-UM","2019/09/21 14:09:42","新北市新店區屈尺路133號","121.544823333333","24.9235783333333","6500600","新店區"
"231002","619-UM","2019/09/21 14:09:34","新北市新店區中正路500號","121.533976666667","24.982295","6500600","新店區"
"231034","641-BX","2019/09/21 14:09:41","新北市新店區車子路11號","121.502918333333","24.9517483333333","6500600","新店區"
"231012","KED-0819","2019/09/21 14:09:24","新北市新店區五峰路149號","121.544945","24.9656616666667","6500600","新店區"
"231026","720-UM","2019/09/21 14:09:28","新北市新店區環河路22號","121.536856666667","24.9618666666667","6500600","新店區"
"231028","897-TW","2019/09/21 14:09:31","新北市新店區安和路三段141號","121.51689","24.985415","6500600","新店區"
"231001","898-TW","2019/09/21 14:09:29","新北市新店區三民路41號","121.537215","24.9708616666667","6500600","新店區"
"231004","899-TW","2019/09/21 14:09:44","新北市新店區北新路二段158號","121.542966666667","24.9755816666667","6500600","新店區"
"231037","AKT-0513","2019/09/21 14:09:39","新北市新店區安康路三段165巷2弄10號","121.489171666667","24.9513516666667","6500600","新店區"
"235030","003-UY","2019/09/21 14:09:26","新北市中和區廣福路38號","121.5044","25.00224","6500300","中和區"
"235020","096-UM","2019/09/21 14:09:32","新北市中和區員山路523號","121.479731666667","25.00682","6500300","中和區"
"235003","097-UM","2019/09/21 14:09:34","新北市中和區秀峰街78號","121.520186666667","24.9907066666667","6500300","中和區"
"235029","098-UM","2019/09/21 14:09:39","新北市中和區中山路二段2巷3弄1號","121.504873333333","25.00613","6500300","中和區"
"235004","150-BY","2019/09/21 14:09:39","新北市中和區安平路101號","121.51139","24.9971716666667","6500300","中和區"
"235022","151-BY","2019/09/21 14:09:36","新北市中和區連城路469巷79弄2號","121.483486666667","24.9937583333333","6500300","中和區"
"235002","185-VK","2019/09/21 14:09:42","新北市中和區大仁街10巷27弄6號","121.519221666667","24.9927933333333","6500300","中和區"
"235013","186-VK","2019/09/21 14:09:39","新北市中和區景新街205-16號","121.507396666667","24.994995","6500300","中和區"
"235031","255-BX","2019/09/21 14:09:28","新北市中和區連城路280號","121.484343333333","24.9962766666667","6500300","中和區"
"235008","293-VK","2019/09/21 14:09:42","新北市中和區中興街235巷1號","121.500705","24.9896433333333","6500300","中和區"
"235036","301-VK","2019/09/21 14:09:42","新北市中和區景平路729號","121.496418333333","25.0041766666667","6500300","中和區"
"235007","352-BY","2019/09/21 14:09:29","新北市中和區景平路140號","121.518598333333","24.9920366666667","6500300","中和區"
"235006","KEA-2878","2019/09/21 14:09:22","新北市中和區立人街8-4號","121.519581666667","24.994295","6500300","中和區"
"247015","KEA-2869","2019/09/21 14:09:43","新北市蘆洲區光華路46巷48號","121.467561666667","25.0846133333333","6501400","蘆洲區"
"247009","KED-0682","2019/09/21 14:09:41","新北市蘆洲區信義路212號","121.478991666667","25.0849766666667","6501400","蘆洲區"
"235014","4979-A6","2019/09/21 14:09:23","新北市中和區復興路249巷11弄3號","121.503478333333","24.989675","6500300","中和區"
"235033","4980-A6","2019/09/21 14:09:34","新北市中和區中山路二段181巷7號","121.501176666667","25.00192","6500300","中和區"
"235034","558-UM","2019/09/21 14:09:38","新北市中和區中和路6號","121.499596666667","25.0022766666667","6500300","中和區"
"235009","565-BX","2019/09/21 14:09:39","新北市中和區景新街447-1號","121.51317","24.98858","6500300","中和區"
"235024","KED-0823","2019/09/21 14:09:36","新北市中和區新生街112-3號","121.48329","25.002535","6500300","中和區"
"235018","640-BX","2019/09/21 14:09:28","新北市中和區國光街109巷4-1號","121.4699","25.000405","6500300","中和區"
"235011","732-UM","2019/09/21 14:09:30","新北市中和區興南路一段56巷30號","121.510201666667","24.9913866666667","6500300","中和區"
"235010","733-UM","2019/09/21 14:09:26","新北市中和區華新街125號","121.506956666667","24.981945","6500300","中和區"
"235074","783-BX","2019/09/21 14:09:32","新北市中和區中正路998號","121.482393333333","25.009035","6500300","中和區"
"235021","801-TS","2019/09/21 14:09:43","新北市中和區員山路423巷4號","121.480515","25.0032416666667","6500300","中和區"
"235005","802-TS","2019/09/21 14:09:27","新北市中和區宜安路118巷16號","121.510691666667","24.998595","6500300","中和區"
"235016","805-TS","2019/09/21 14:09:30","新北市中和區興南路二段142巷31弄61號","121.501806666667","24.9835083333333","6500300","中和區"
"235012","896-TW","2019/09/21 14:09:38","新北市中和區華新街109巷32號","121.508773333333","24.9801166666667","6500300","中和區"
"235017","900-TW","2019/09/21 14:09:26","新北市中和區華安街30巷1號","121.466951666667","24.9978083333333","6500300","中和區"
"235028","911-UM","2019/09/21 14:09:43","新北市中和區連城路36號","121.498471666667","25.00202","6500300","中和區"
"235015","157-BY","2019/09/21 14:09:29","新北市中和區興南路一段75號","121.510226666667","24.9890833333333","6500300","中和區"
"235023","AAC-215","2019/09/21 14:09:29","新北市中和區圓通路296巷31弄1號","121.488596666667","24.9904933333333","6500300","中和區"
"220013","072-UY","2019/09/21 14:09:39","新北市板橋區民族路219巷8-1號","121.469598333333","25.007795","6500100","板橋區"
"220034","073-UY","2019/09/21 14:09:42","新北市板橋區中正路236巷34號","121.457006666667","25.019185","6500100","板橋區"
"220105","075-UY","2019/09/21 14:09:40","新北市板橋區雙十路三段15號","121.471065","25.03108","6500100","板橋區"
"220017","AAD-861","2019/09/21 14:09:38","新北市板橋區華興街52號","121.458188333333","25.00481","6500100","板橋區"
"220016","120-SR","2019/09/21 14:09:35","新北市板橋區翠華街6巷29號","121.481403333333","25.0244716666667","6500100","板橋區"
"247005","893-R6","2019/09/21 14:09:39","新北市蘆洲區和平路111巷19號","121.467235","25.0787966666667","6501400","蘆洲區"
"247019","546-UM","2019/09/21 14:09:29","新北市蘆洲區民族路422巷15弄23號","121.473041666667","25.0930233333333","6501400","蘆洲區"
"247003","500-BY","2019/09/21 14:09:32","新北市蘆洲區長安街140號","121.460136666667","25.082055","6501400","蘆洲區"
"247007","341-TH","2019/09/21 14:09:25","新北市蘆洲區中山一路234號","121.472786666667","25.0802316666667","6501400","蘆洲區"
"247023","057-VK","2019/09/21 14:09:39","新北市蘆洲區光榮路118-2號","121.464931666667","25.089185","6501400","蘆洲區"
"247013","056-VK","2019/09/21 14:09:25","新北市蘆洲區三民路155號","121.471386666667","25.0866966666667","6501400","蘆洲區"
"247017","053-VK","2019/09/21 14:09:37","新北市蘆洲區復興路111-5號","121.476686666667","25.0884416666667","6501400","蘆洲區"
"247021","007-UY","2019/09/21 14:09:38","新北市蘆洲區三民路165號","121.471235","25.0870933333333","6501400","蘆洲區"
"247001","001-UY","2019/09/21 14:09:42","新北市蘆洲區永平街56號","121.45768","25.091435","6501400","蘆洲區"
"235027","251-BX","2019/09/21 14:09:22","新北市中和區連城路249巷5號","121.49371","24.9967366666667","6500300","中和區"
"228005","097-TW","2019/09/21 14:09:33","新北市雙溪區三港里雙澳路100號","121.889298333333","25.0558766666667","6502600","貢寮區"
"228004","212-TW","2019/09/21 14:09:30","新北市貢寮區雙玉里下雙溪街6-2號","121.91453","25.0158683333333","6502600","貢寮區"
"253003","6232-TK","2019/09/21 14:09:24","新北市石門區尖子鹿29號","121.582668333333","25.262815","6502200","石門區"
"253004","6251-TK","2019/09/21 14:09:18","新北市石門區茂林社區226號","121.591086666667","25.2701433333333","6502200","石門區"
"253002","637-UY","2019/09/21 14:09:37","新北市石門區豬槽潭8號","121.553578333333","25.2618733333333","6502200","石門區"
"253001","KEC-0718","2019/09/21 14:09:29","新北市石門區八甲70-3號","121.531146666667","25.26963","6502200","石門區"
"207002","749-BX","2019/09/21 14:09:36","新北市萬里區溪底里瑞泉路7號","121.603673333333","25.1391783333333","6502800","萬里區"
"252005","073-UM","2019/09/21 14:09:39","新北市三芝區圓山里二坪頂78號","121.541946666667","25.246025","6502100","三芝區"
"207001","662-BX","2019/09/21 14:09:30","新北市萬里區磺潭里清水18號","121.63784","25.19761","6502800","萬里區"
"236040","KED-0685","2019/09/21 14:09:39","新北市土城區裕生路65-1號","121.447631666667","24.9858416666667","6501300","土城區"
"236029","253-BX","2019/09/21 14:09:40","新北市土城區城林路6巷80號","121.438523333333","24.9797333333333","6501300","土城區"
"236024","269-VK","2019/09/21 14:09:41","新北市土城區承天路18號","121.439488333333","24.9633583333333","6501300","土城區"
"236013","270-VK","2019/09/21 14:09:37","新北市土城區青雲路33號","121.460465","24.988305","6501300","土城區"
"236032","271-VK","2019/09/21 14:09:21","新北市土城區青雲路449-1號","121.458658333333","24.9748333333333","6501300","土城區"
"247011","KED-0683","2019/09/21 14:09:36","新北市蘆洲區信義路268號","121.478088333333","25.0868833333333","6501400","蘆洲區"
"236068","KEA-2877","2019/09/21 14:09:32","新北市土城區明德路一段128巷9號","121.463258333333","24.978955","6501300","土城區"
"236017","401-BY","2019/09/21 14:09:28","新北市土城區員福街38號","121.440715","24.9789983333333","6501300","土城區"
"236074","752-BX","2019/09/21 14:09:37","新北市土城區永安街85號","121.431013333333","24.9638283333333","6501300","土城區"
"236057","912-UM","2019/09/21 14:09:31","新北市土城區中央路四段218號","121.41568","24.9572766666667","6501300","土城區"
"236045","913-UM","2019/09/21 14:09:37","新北市土城區明德路一段365-1號","121.453546666667","24.97907","6501300","土城區"
"236060","915-UM","2019/09/21 14:09:26","新北市土城區中央路二段280號","121.440753333333","24.9742066666667","6501300","土城區"
"236054","AAC-216","2019/09/21 14:09:26","新北市土城區中華路二段92號","121.4382","24.9747816666667","6501300","土城區"
"220027","145-BY","2019/09/21 14:09:36","新北市板橋區中正路48號","121.456555","25.0141583333333","6500100","板橋區"
"220028","200-UY","2019/09/21 14:09:23","新北市板橋區大觀路二段37巷340號","121.450311666667","25.00231","6500100","板橋區"
"220030","610-BX","2019/09/21 14:09:24","新北市板橋區溪北路18號","121.426713333333","24.990395","6500100","板橋區"
"220040","267-BY","2019/09/21 14:09:33","新北市板橋區縣民大道三段205巷16弄17號","121.480135","25.0255016666667","6500100","板橋區"
"220004","276-BY","2019/09/21 14:09:44","新北市板橋區信義路110巷3號","121.458171666667","24.99204","6500100","板橋區"
"220020","277-BY","2019/09/21 14:09:36","新北市板橋區金門街369巷48號","121.428481666667","24.9826116666667","6500100","板橋區"
"220050","280-UM","2019/09/21 14:09:39","新北市板橋區雙十路二段76巷2號","121.475135","25.027905","6500100","板橋區"
"220019","283-VK","2019/09/21 14:09:37","新北市板橋區重慶路245巷50弄32號","121.465331666667","25.0005933333333","6500100","板橋區"
"220043","285-UM","2019/09/21 14:09:32","新北市板橋區吳鳳路19巷16號","121.466868333333","25.030685","6500100","板橋區"
"220001","285-VK","2019/09/21 14:09:37","新北市板橋區懷仁街23號","121.476398333333","25.0196916666667","6500100","板橋區"
"220031","286-VK","2019/09/21 14:09:27","新北市板橋區大觀路二段174巷179弄19號","121.441291666667","25.003995","6500100","板橋區"
"220029","287-VK","2019/09/21 14:09:23","新北市板橋區南雅西路二段203號","121.451701666667","25.0134383333333","6500100","板橋區"
"220009","293-UM","2019/09/21 14:09:39","新北市板橋區中山路二段320號","121.480983333333","25.0195116666667","6500100","板橋區"
"220032","296-UM","2019/09/21 14:09:27","新北市板橋區溪崑一街30巷21號","121.429236666667","24.9914483333333","6500100","板橋區"
"220023","303-R5","2019/09/21 14:09:28","新北市板橋區大智街25巷2號","121.455083333333","25.0147933333333","6500100","板橋區"
"220010","305-R5","2019/09/21 14:09:37","新北市板橋區三民路二段居仁巷2弄23號","121.479956666667","25.01296","6500100","板橋區"
"220041","307-R5","2019/09/21 14:09:31","新北市板橋區松江街70號","121.468648333333","25.02774","6500100","板橋區"
"220047","317-R6","2019/09/21 14:09:32","新北市板橋區民有街37號","121.465838333333","25.0256333333333","6500100","板橋區"
"220038","487-VK","2019/09/21 14:09:31","新北市板橋區文化路一段239號","121.46411","25.017785","6500100","板橋區"
"220037","491-VK","2019/09/21 14:09:32","新北市板橋區文化路二段182巷3弄60號","121.472786666667","25.0287883333333","6500100","板橋區"
"220104","560-BX","2019/09/21 14:09:26","新北市板橋區中正路379巷34號","121.453193333333","25.022055","6500100","板橋區"
"220052","561-BX","2019/09/21 14:09:26","新北市板橋區文化路一段270巷3弄2號","121.46752","25.0208283333333","6500100","板橋區"
"220011","609-BX","2019/09/21 14:09:43","新北市板橋區三民路二段169號","121.479226666667","25.0144816666667","6500100","板橋區"
"220005","686-BX","2019/09/21 14:09:34","新北市板橋區國慶路188號","121.46311","24.996355","6500100","板橋區"
"220025","687-BX","2019/09/21 14:09:37","新北市板橋區龍興街97巷1號","121.44418","25.0025883333333","6500100","板橋區"
"220042","689-BX","2019/09/21 14:09:37","新北市板橋區漢生西路77-1號","121.462843333333","25.0189883333333","6500100","板橋區"
"220002","741-BX","2019/09/21 14:09:36","新北市板橋區重慶路67號","121.46185","25.0069783333333","6500100","板橋區"
"220051","KEA-2699","2019/09/21 14:09:34","新北市板橋區田單街44號","121.48265","25.02772","6500100","板橋區"
"220003","827-TW","2019/09/21 14:09:24","新北市板橋區新民街11號","121.463776666667","25.0098633333333","6500100","板橋區"
"220014","829-TW","2019/09/21 14:09:36","新北市板橋區民享街116巷2弄6號","121.477725","25.01572","6500100","板橋區"
"220039","831-TW","2019/09/21 14:09:32","新北市板橋區長江路一段106巷14號","121.460063333333","25.0288466666667","6500100","板橋區"
"220022","895-R6","2019/09/21 14:09:25","新北市板橋區林園街10號","121.453918333333","25.0096016666667","6500100","板橋區"
"220021","985-R7","2019/09/21 14:09:27","新北市板橋區民權路243號","121.457193333333","25.0157583333333","6500100","板橋區"
"220046","AAC-210","2019/09/21 14:08:36","新北市板橋區幸福路60巷1號","121.46098","25.0202466666667","6500100","板橋區"
"220012","AAC-253","2019/09/21 14:09:29","新北市板橋區板新路238號","121.468006666667","25.0160583333333","6500100","板橋區"
"235032","KEA-2873","2019/09/21 14:09:18","新北市中和區景平路493-5號","121.499975","24.997955","6500300","中和區"
"235025","KEA-2875","2019/09/21 14:09:39","新北市中和區民利街85巷4號","121.47833","24.9979633333333","6500300","中和區"
"235073","KEA-2876","2019/09/21 14:09:23","新北市中和區中山路二段530號","121.485833333333","25.0048583333333","6500300","中和區"
