"lineid","car","time","location","longitude","latitude","cityid","cityname"
"234025","9381-KE","2019/09/21 14:59:45","新北市永和區水源街21巷14弄1號","121.511563333333","25.0037883333333","6500400","永和區"
"249002","305-UY","2019/09/21 14:59:34","新北市八里區挖子尾街12號","121.415468333333","25.1644233333333","6502300","八里區"
"231030","002-UM","2019/09/21 14:59:39","新北市新店區安民街382號","121.516305","24.9765733333333","6500600","新店區"
"231024","0291-UT","2019/09/21 14:59:40","新北市新店區力行路12號","121.539405","24.964645","6500600","新店區"
"231005","046-UY","2019/09/21 14:59:30","新北市新店區北新路三段250號","121.540236666667","24.9868966666667","6500600","新店區"
"231029","106-UY","2019/09/21 14:59:29","新北市新店區錦秀路11巷66號","121.480591666667","24.9433916666667","6500600","新店區"
"231018","107-UY","2019/09/21 14:59:35","新北市新店區中央路192號","121.53083","24.974695","6500600","新店區"
"231013","108-UY","2019/09/21 14:59:32","新北市新店區安康路一段20號","121.530995","24.961015","6500600","新店區"
"231036","110-UY","2019/09/21 14:59:38","新北市新店區安祥路102巷46弄19號","121.485313333333","24.963895","6500600","新店區"
"231039","187-VK","2019/09/21 14:59:41","新北市新店區中興路三段220巷1號","121.54356","24.9827083333333","6500600","新店區"
"231033","256-BX","2019/09/21 14:59:36","新北市新店區安泰路18-1號","121.48558","24.948705","6500600","新店區"
"231023","260-TV","2019/09/21 14:59:42","新北市新店區檳榔路105號","121.544645","24.9617","6500600","新店區"
"231003","268-BY","2019/09/21 14:59:31","新北市新店區五峰路57-1號","121.54731","24.9710316666667","6500600","新店區"
"231035","278-BY","2019/09/21 14:59:37","新北市新店區安業街1-1號","121.516683333333","24.9788083333333","6500600","新店區"
"231017","AAD-862","2019/09/21 14:59:35","新北市新店區北宜路三段132號","121.583368333333","24.9501083333333","6500600","新店區"
"231006","355-BY","2019/09/21 14:59:25","新北市新店區中興路一段112-1號","121.540786666667","24.9615266666667","6500600","新店區"
"231038","3712-VJ","2019/09/21 14:59:34","新北市新店區安華路28-1號","121.519771666667","24.9609533333333","6500600","新店區"
"231025","4715-K9","2019/09/21 14:59:24","新北市新店區建國路210-1號","121.537788333333","24.980975","6500600","新店區"
"231020","513-UM","2019/09/21 14:59:22","新北市新店區桂山路35號","121.55991","24.9048733333333","6500600","新店區"
"231002","619-UM","2019/09/21 14:59:34","新北市新店區中正路516號","121.533748333333","24.9836133333333","6500600","新店區"
"231034","641-BX","2019/09/21 14:59:41","新北市新店區玫瑰路4-1號","121.493695","24.9514216666667","6500600","新店區"
"231012","KED-0819","2019/09/21 14:59:44","新北市新店區寶橋路97號","121.54693","24.976645","6500600","新店區"
"231026","720-UM","2019/09/21 14:59:35","新北市新店區中正路162號","121.541348333333","24.9718666666667","6500600","新店區"
"231028","897-TW","2019/09/21 14:59:31","新北市新店區安德街173號","121.50876","24.958925","6500600","新店區"
"231001","898-TW","2019/09/21 14:59:28","新北市新店區中正路261號","121.538778333333","24.9735883333333","6500600","新店區"
"231004","899-TW","2019/09/21 14:59:24","新北市新店區民族路26號","121.540753333333","24.9787983333333","6500600","新店區"
"241006","262-UM","2019/09/21 14:59:33","新北市三重區重新路四段121號","121.484523333333","25.0525216666667","6500200","三重區"
"241020","478-VK","2019/09/21 14:59:41","新北市三重區重新路四段121號","121.484783333333","25.0524766666667","6500200","三重區"
"235030","003-UY","2019/09/21 14:59:26","新北市中和區光華街28號","121.504668333333","25.0041516666667","6500300","中和區"
"235020","096-UM","2019/09/21 14:59:35","新北市中和區中山路三段168號","121.472936666667","25.0063666666667","6500300","中和區"
"235003","097-UM","2019/09/21 14:59:34","新北市中和區宜安路52巷22號","121.512543333333","24.9973933333333","6500300","中和區"
"235029","098-UM","2019/09/21 14:59:39","新北市中和區永和路128巷20號","121.497313333333","25.0068033333333","6500300","中和區"
"235004","150-BY","2019/09/21 14:59:19","新北市中和區保健路19巷2弄1號","121.508425","24.99844","6500300","中和區"
"235013","186-VK","2019/09/21 14:59:39","新北市中和區景新街487號","121.513591666667","24.9873266666667","6500300","中和區"
"235036","301-VK","2019/09/21 14:59:42","新北市中和區中山路二段3巷22弄5號","121.506281666667","25.0052033333333","6500300","中和區"
"235007","352-BY","2019/09/21 14:59:29","新北市中和區華新街230號","121.506088333333","24.9816516666667","6500300","中和區"
"235014","4979-A6","2019/09/21 14:59:43","新北市中和區景平路239-1號","121.509808333333","24.99256","6500300","中和區"
"235034","558-UM","2019/09/21 14:59:38","新北市中和區圓通路173號","121.497636666667","24.9951916666667","6500300","中和區"
"235010","733-UM","2019/09/21 14:59:26","新北市中和區忠孝街31巷46號","121.509846666667","24.9852","6500300","中和區"
"235012","896-TW","2019/09/21 14:59:38","新北市中和區忠孝街3巷2弄2號","121.509046666667","24.9832933333333","6500300","中和區"
"235015","157-BY","2019/09/21 14:59:29","新北市中和區復興路32號","121.505101666667","24.9900166666667","6500300","中和區"
"235023","AAC-215","2019/09/21 14:59:29","新北市中和區圓通路365號","121.491421666667","24.9896366666667","6500300","中和區"
"220013","072-UY","2019/09/21 14:59:39","新北市板橋區海山路27號","121.467648333333","25.00902","6500100","板橋區"
"220034","073-UY","2019/09/21 14:59:42","新北市板橋區西門街18-2號","121.454558333333","25.0112866666667","6500100","板橋區"
"220105","075-UY","2019/09/21 14:59:40","新北市板橋區民治街126巷5號","121.477768333333","25.03127","6500100","板橋區"
"220016","120-SR","2019/09/21 14:59:42","新北市板橋區光復街230號","121.484786666667","25.021275","6500100","板橋區"
"228004","212-TW","2019/09/21 14:59:30","新北市貢寮區雙玉里田寮洋街25-4號","121.930648333333","25.0177416666667","6502600","貢寮區"
"253004","6251-TK","2019/09/21 14:59:37","新北市石門區茂林社區257號","121.59335","25.269955","6502200","石門區"
"253002","637-UY","2019/09/21 14:59:37","新北市石門區楓林37-2號","121.540056666667","25.2877933333333","6502200","石門區"
"253001","KEC-0718","2019/09/21 14:59:29","新北市石門區崁子腳30-1號","121.53618","25.2876066666667","6502200","石門區"
"207002","749-BX","2019/09/21 14:59:36","新北市萬里區崁腳里崁腳路73號","121.64758","25.1596183333333","6502800","萬里區"
"252005","073-UM","2019/09/21 14:59:39","新北市三芝區埔坪里埔頭坑92號","121.508675","25.2509883333333","6502100","三芝區"
"207001","662-BX","2019/09/21 14:59:30","新北市萬里區雙興里太和路30-1號","121.654625","25.1784383333333","6502800","萬里區"
"236040","KED-0685","2019/09/21 14:59:39","新北市土城區學府路一段169號","121.452731666667","24.985495","6501300","土城區"
"236029","253-BX","2019/09/21 14:59:40","新北市土城區慶利街15號","121.43932","24.973755","6501300","土城區"
"236024","269-VK","2019/09/21 14:59:41","新北市土城區中正路43號","121.44397","24.97546","6501300","土城區"
"236013","270-VK","2019/09/21 14:59:37","新北市土城區立德路13巷20號","121.46172","24.9886533333333","6501300","土城區"
"236032","271-VK","2019/09/21 14:59:41","新北市土城區清水路158號","121.459486666667","24.9814816666667","6501300","土城區"
"236068","KEA-2877","2019/09/21 14:59:32","新北市土城區明德路二段207號","121.44663","24.9837066666667","6501300","土城區"
"236017","401-BY","2019/09/21 14:59:28","新北市土城區延吉街215號","121.468466666667","24.9852916666667","6501300","土城區"
"236074","752-BX","2019/09/21 14:59:04","新北市土城區大暖坑11-2號","121.418796666667","24.9536266666667","6501300","土城區"
"236057","912-UM","2019/09/21 14:59:42","新北市土城區金城路二段248號","121.456921666667","24.9833416666667","6501300","土城區"
"236045","913-UM","2019/09/21 14:59:37","新北市土城區明德路一段365-1號","121.453631666667","24.9791166666667","6501300","土城區"
"236060","915-UM","2019/09/21 14:59:26","新北市土城區延壽路8號","121.471463333333","24.9904083333333","6501300","土城區"
"236054","AAC-216","2019/09/21 14:59:34","新北市土城區學成路48號","121.452261666667","24.9876066666667","6501300","土城區"
"220027","145-BY","2019/09/21 14:59:36","新北市板橋區建國街25號","121.458035","25.0171416666667","6500100","板橋區"
"220028","200-UY","2019/09/21 14:59:43","新北市板橋區大觀路二段163巷13號","121.446191666667","25.000255","6500100","板橋區"
"220030","610-BX","2019/09/21 14:59:24","新北市板橋區存德街3號","121.429873333333","24.9920516666667","6500100","板橋區"
"220040","267-BY","2019/09/21 14:59:33","新北市板橋區懷德街202號","121.479776666667","25.0291233333333","6500100","板橋區"
"220004","276-BY","2019/09/21 14:59:39","新北市板橋區四川路二段99巷5弄2號","121.452835","24.99429","6500100","板橋區"
"220020","277-BY","2019/09/21 14:59:36","新北市板橋區篤行路二段65號","121.431701666667","24.9922316666667","6500100","板橋區"
"220050","280-UM","2019/09/21 14:59:39","新北市板橋區萬板路328號","121.478301666667","25.0254183333333","6500100","板橋區"
"220019","283-VK","2019/09/21 14:59:36","新北市板橋區五權街30巷9號","121.464413333333","24.993255","6500100","板橋區"
"220043","285-UM","2019/09/21 14:59:32","新北市板橋區文化路一段156號","121.465565","25.0191766666667","6500100","板橋區"
"220001","285-VK","2019/09/21 14:59:40","新北市板橋區永豐街93號","121.473736666667","25.019095","6500100","板橋區"
"220031","286-VK","2019/09/21 14:59:27","新北市板橋區僑中二街50號","121.446768333333","25.0105216666667","6500100","板橋區"
"220029","287-VK","2019/09/21 14:59:23","新北市板橋區大觀路一段28巷113號","121.44976","25.0125066666667","6500100","板橋區"
"220009","293-UM","2019/09/21 14:59:39","新北市板橋區中山路一段3-5號","121.459838333333","25.0079766666667","6500100","板橋區"
"220023","303-R5","2019/09/21 14:59:28","新北市板橋區中正路210號","121.456035","25.01813","6500100","板橋區"
"220010","305-R5","2019/09/21 14:59:37","新北市板橋區光復街16號","121.481411666667","25.0190216666667","6500100","板橋區"
"220041","307-R5","2019/09/21 14:59:26","新北市板橋區新海路45號","121.462323333333","25.0210516666667","6500100","板橋區"
"220047","317-R6","2019/09/21 14:59:32","新北市板橋區新海路385巷20號","121.458035","25.0256016666667","6500100","板橋區"
"220038","487-VK","2019/09/21 14:59:24","新北市板橋區四維路253號","121.463495","25.0278816666667","6500100","板橋區"
"220037","491-VK","2019/09/21 14:59:32","新北市板橋區民治街42巷2號","121.478983333333","25.033835","6500100","板橋區"
"220104","560-BX","2019/09/21 14:59:38","新北市板橋區金華街37號","121.456408333333","25.020435","6500100","板橋區"
"220052","561-BX","2019/09/21 14:59:26","新北市板橋區漢生東路31號","121.465398333333","25.0170116666667","6500100","板橋區"
"220011","609-BX","2019/09/21 14:59:23","新北市板橋區三民路一段3巷1號","121.478823333333","25.023565","6500100","板橋區"
"220005","686-BX","2019/09/21 14:59:34","新北市板橋區四川路二段245巷71號","121.452708333333","24.9919966666667","6500100","板橋區"
"220025","687-BX","2019/09/21 14:59:40","新北市板橋區僑中一街88號","121.447178333333","25.011745","6500100","板橋區"
"220042","689-BX","2019/09/21 14:59:43","新北市板橋區長江路二段282-1號","121.470496666667","25.0329366666667","6500100","板橋區"
"220002","741-BX","2019/09/21 14:59:36","新北市板橋區忠孝路201巷74號","121.464726666667","25.0043183333333","6500100","板橋區"
"220051","KEA-2699","2019/09/21 14:59:35","新北市板橋區莒光路40巷9號","121.470351666667","25.0236283333333","6500100","板橋區"
"220003","827-TW","2019/09/21 14:59:24","新北市板橋區仁愛路76巷10號","121.460616666667","24.9990766666667","6500100","板橋區"
"220014","829-TW","2019/09/21 14:59:36","新北市板橋區漢生東路189號","121.469965","25.0117016666667","6500100","板橋區"
"220022","895-R6","2019/09/21 14:59:25","新北市板橋區民權路71號","121.461421666667","25.0115766666667","6500100","板橋區"
"220021","985-R7","2019/09/21 14:59:43","新北市板橋區南雅西路二段11號","121.452935","25.0094133333333","6500100","板橋區"
"220046","AAC-210","2019/09/21 14:59:39","新北市板橋區光正街45巷6弄1號","121.461611666667","25.0169683333333","6500100","板橋區"
"220012","AAC-253","2019/09/21 14:59:29","新北市板橋區館前東路154號","121.464676666667","25.0080516666667","6500100","板橋區"
"235073","KEA-2876","2019/09/21 14:59:23","新北市中和區建康路156號","121.490293333333","24.9997483333333","6500300","中和區"
