"lineid","car","time","location","longitude","latitude","cityid","cityname"
"249005","172-UM","2019/09/21 16:39:41","新北市八里區忠孝路167號","121.423646666667","25.1607066666667","6502300","八里區"
"249002","305-UY","2019/09/21 16:39:34","新北市八里區大堀湖5-3號","121.425408333333","25.1523133333333","6502300","八里區"
"231046","719-UM","2019/09/21 16:39:36","新北市新店區灣潭路3-2號","121.538296666667","24.9508366666667","6500600","新店區"
"241011","013-R5","2019/09/21 16:39:35","新北市三重區仁愛街49號","121.49655","25.0716716666667","6500200","三重區"
"241028","022-UY","2019/09/21 16:39:33","新北市三重區重新路三段86號","121.493148333333","25.060565","6500200","三重區"
"241008","059-VK","2019/09/21 16:39:27","新北市三重區永安北路一段27巷13號","121.477008333333","25.0755183333333","6500200","三重區"
"241005","060-VK","2019/09/21 16:39:26","新北市三重區碧華街148巷43號","121.48487","25.08296","6500200","三重區"
"241015","062-VK","2019/09/21 16:39:31","新北市三重區文化北路41號","121.498933333333","25.0652066666667","6500200","三重區"
"241017","063-VK","2019/09/21 16:39:40","新北市三重區中正北路25巷2號","121.493243333333","25.062735","6500200","三重區"
"241024","065-VK","2019/09/21 16:39:26","新北市三重區中正北路315巷6弄70號","121.476726666667","25.0723683333333","6500200","三重區"
"241007","066-VK","2019/09/21 16:39:21","新北市三重區三和路四段167巷102號","121.485853333333","25.0796416666667","6500200","三重區"
"241002","090-VK","2019/09/21 16:39:19","新北市三重區仁義街241巷4號","121.496488333333","25.082725","6500200","三重區"
"241003","091-VK","2019/09/21 16:39:35","新北市三重區五華街71巷85號","121.494216666667","25.0838266666667","6500200","三重區"
"241031","742-BX","2019/09/21 16:39:41","新北市三重區重新路四段43號","121.488008333333","25.0574866666667","6500200","三重區"
"241006","262-UM","2019/09/21 16:39:33","新北市三重區力行路二段91巷1弄14號","121.48317","25.0758633333333","6500200","三重區"
"241016","266-UM","2019/09/21 16:39:33","新北市三重區三和路三段101巷172號","121.499545","25.074065","6500200","三重區"
"241009","267-UM","2019/09/21 16:39:38","新北市三重區三和路四段203巷86號","121.484088333333","25.08003","6500200","三重區"
"241018","268-UM","2019/09/21 16:39:38","新北市三重區六張街85-1號","121.493026666667","25.0702483333333","6500200","三重區"
"241032","269-UM","2019/09/21 16:39:32","新北市三重區新北大道一段115號","121.483621666667","25.0613066666667","6500200","三重區"
"241013","270-UM","2019/09/21 16:39:41","新北市三重區三和路三段101巷90號","121.497068333333","25.0732216666667","6500200","三重區"
"241025","271-UM","2019/09/21 16:39:22","新北市三重區中正北路331巷12號","121.473608333333","25.0720716666667","6500200","三重區"
"241030","KED-0822","2019/09/21 16:39:35","新北市三重區環河南路253號","121.491278333333","25.0505483333333","6500200","三重區"
"241016","462-BY","2019/09/21 16:39:26","新北市三重區大智街24號","121.494738333333","25.0647816666667","6500200","三重區"
"241020","478-VK","2019/09/21 16:39:21","新北市三重區忠孝路二段35號","121.485826666667","25.071605","6500200","三重區"
"241026","480-VK","2019/09/21 16:39:22","新北市三重區和平街38號","121.501993333333","25.0627266666667","6500200","三重區"
"241014","543-UM","2019/09/21 16:39:29","新北市三重區龍濱路26號","121.50287","25.068015","6500200","三重區"
"241023","545-UM","2019/09/21 16:39:35","新北市三重區忠孝路三段50巷82號","121.48296","25.0644916666667","6500200","三重區"
"241001","547-UM","2019/09/21 16:39:38","新北市三重區仁政街74號","121.492775","25.0774066666667","6500200","三重區"
"241019","KEA-2593","2019/09/21 16:39:35","新北市三重區力行路一段71號","121.487131666667","25.0676166666667","6500200","三重區"
"241022","KED-0820","2019/09/21 16:39:29","新北市三重區三民街64號","121.485728333333","25.0623116666667","6500200","三重區"
"241004","887-TS","2019/09/21 16:39:26","新北市三重區五福街16號","121.49285","25.08149","6500200","三重區"
"241029","942-UM","2019/09/21 16:39:36","新北市三重區集美街112巷13號","121.489458333333","25.0541716666667","6500200","三重區"
"241033","AAC-255","2019/09/21 16:39:39","新北市三重區光復路二段131號","121.472163333333","25.0588783333333","6500200","三重區"
"235054","640-BX","2019/09/21 16:17:02","新北市中和區員山路36巷16-2號","121.48528","24.991505","6500300","中和區"
"247022","337-TH","2019/09/21 16:39:28","新北市蘆洲區環堤大道365號","121.457256666667","25.097395","6501400","蘆洲區"
"247014","056-VK","2019/09/21 16:36:29","新北市五股區成泰路三段544-1號","121.454495","25.1015583333333","6501400","蘆洲區"
"247002","001-UY","2019/09/21 16:39:30","新北市五股區凌雲路一段25號","121.452283333333","25.0999283333333","6501400","蘆洲區"
"224007","285-BY","2019/09/21 16:39:39","新北市瑞芳區月眉路19號","121.760588333333","25.1072816666667","6501200","瑞芳區"
"224009","275-VK","2019/09/21 16:39:33","新北市瑞芳區民權街3-1號","121.809276666667","25.10835","6501200","瑞芳區"
"224005","271-BY","2019/09/21 16:39:28","新北市瑞芳區洞頂路160號","121.860638333333","25.118545","6501200","瑞芳區"
"227001","642-TC","2019/09/21 16:39:29","新北市雙溪區牡丹里聖南1-1號","121.861191666667","25.0501866666667","6502500","雙溪區"
"227002","400-TW","2019/09/21 16:39:35","新北市雙溪區長源里內柑腳20號","121.801518333333","25.0144833333333","6502500","雙溪區"
"251015","KEA-2871","2019/09/21 16:39:37","新北市淡水區大義街3號","121.44375","25.1779016666667","6501000","淡水區"
"251016","179-VK","2019/09/21 16:39:28","新北市淡水區新民街320號","121.435211666667","25.183145","6501000","淡水區"
"251013","180-VK","2019/09/21 16:38:51","新北市淡水區楓樹湖12-7號","121.498538333333","25.1879883333333","6501000","淡水區"
"251008","181-VK","2019/09/21 16:39:28","新北市淡水區樹梅坑6-8號","121.472215","25.1463133333333","6501000","淡水區"
"251014","577-R6","2019/09/21 16:39:30","新北市淡水區興仁路2號","121.450666666667","25.2148483333333","6501000","淡水區"
"251011","650-BX","2019/09/21 16:39:25","新北市淡水區中正路二段31號","121.419375","25.1817416666667","6501000","淡水區"
"252002","178-VK","2019/09/21 16:39:26","新北市三芝區晴光街2號","121.510588333333","25.2577116666667","6502100","三芝區"
"247012","KED-0683","2019/09/21 16:39:42","新北市五股區中興路三段5號","121.449446666667","25.0801783333333","6501400","蘆洲區"
"252001","KED-0821","2019/09/21 16:39:37","新北市三芝區埔坪里埔頭坑61號","121.50705","25.2643483333333","6502100","三芝區"
"242021","KED-0687","2019/09/21 16:39:40","新北市新莊區三和路12-21號","121.442273333333","25.0381316666667","6500500","新莊區"
"239007","AAC-297","2019/09/21 16:39:26","新北市鶯歌區二甲路13-16號","121.34514","24.9352116666667","6500800","鶯歌區"
"242011","280-VK","2019/09/21 16:39:22","新北市新莊區三和路12-21號","121.44198","25.0382583333333","6500500","新莊區"
