"lineid","car","time","location","longitude","latitude","cityid","cityname"
"234026","9381-KE","2019/09/21 17:59:34","新北市永和區水源街2巷24號","121.512145","25.005815","6500400","永和區"
"234011","9373-KE","2019/09/21 17:55:08","新北市永和區福和路1號","121.525713333333","25.0091716666667","6500400","永和區"
"249005","172-UM","2019/09/21 17:59:41","新北市八里區荖阡坑路18號","121.398396666667","25.1384483333333","6502300","八里區"
"249001","173-UM","2019/09/21 17:59:40","新北市八里區龍米路二段36號","121.448498333333","25.14018","6502300","八里區"
"249004","303-UY","2019/09/21 17:59:40","新北市八里區中山路一段12號","121.423188333333","25.158995","6502300","八里區"
"249002","305-UY","2019/09/21 17:59:34","新北市八里區龍形五街15號","121.450053333333","25.13348","6502300","八里區"
"249003","593-UM","2019/09/21 17:59:33","新北市八里區中華路二段165巷19弄26號","121.410386666667","25.1517383333333","6502300","八里區"
"232011","076-UY","2019/09/21 17:59:27","新北市坪林區北宜路八段219號","121.708821666667","24.934915","6502000","坪林區"
"244023","069-UM","2019/09/21 17:59:38","新北市林口區育林街30號","121.385805","25.073715","6501700","林口區"
"244007","080-UY","2019/09/21 17:59:26","新北市林口區林口路140號","121.388218333333","25.0820483333333","6501700","林口區"
"244013","KEA-2802","2019/09/21 17:59:25","新北市林口區中山路146-1號","121.39134","25.0787266666667","6501700","林口區"
"244017","485-VK","2019/09/21 17:59:23","新北市林口區忠孝路372號","121.36923","25.071435","6501700","林口區"
"244009","656-BX","2019/09/21 17:59:26","新北市林口區竹林路606巷22號","121.385486666667","25.0829233333333","6501700","林口區"
"244011","701-TV","2019/09/21 17:59:29","新北市林口區中正路93號","121.39442","25.0773","6501700","林口區"
"244025","837-TS","2019/09/21 17:59:38","新北市林口區文化三路一段39巷116弄1號","121.35934","25.0678316666667","6501700","林口區"
"244021","838-TS","2019/09/21 17:59:31","新北市林口區新寮27-6號","121.396388333333","25.0664883333333","6501700","林口區"
"222003","436-BY","2019/09/21 17:59:34","新北市深坑區炮子崙24-1號","121.60633","24.988635","6501800","深坑區"
"222002","659-BX","2019/09/21 17:59:37","新北市深坑區深坑街35號","121.61595","25.0018416666667","6501800","深坑區"
"241024","065-VK","2019/09/21 17:59:26","新北市三重區中正北路193巷35弄67號","121.478621666667","25.071365","6500200","三重區"
"241033","AAC-255","2019/09/21 17:59:39","新北市三重區光復路一段68巷52號","121.470078333333","25.0491616666667","6500200","三重區"
"235065","098-UM","2019/09/21 17:59:38","新北市中和區橋和路77號","121.48931","25.0051633333333","6500300","中和區"
"235058","151-BY","2019/09/21 17:59:42","新北市中和區圓通路367巷20弄1號","121.492175","24.98812","6500300","中和區"
"235038","185-VK","2019/09/21 17:59:33","新北市中和區中正路271號","121.4959","24.9937533333333","6500300","中和區"
"235042","KEA-2878","2019/09/21 17:59:25","新北市中和區和城路一段271巷1號","121.485575","24.9916616666667","6500300","中和區"
"247016","KEA-2869","2019/09/21 17:59:42","新北市蘆洲區光華路110巷38號","121.465885","25.0840133333333","6501400","蘆洲區"
"247010","KED-0682","2019/09/21 17:59:30","新北市蘆洲區信義路172號","121.479275","25.08395","6501400","蘆洲區"
"235070","558-UM","2019/09/21 17:59:31","新北市中和區中正路277-6號","121.49519","24.9938366666667","6500300","中和區"
"235045","565-BX","2019/09/21 17:59:27","新北市中和區員山路36巷13號","121.48407","24.99097","6500300","中和區"
"235054","640-BX","2019/09/21 17:59:30","新北市中和區連城路607號","121.47836","24.9930883333333","6500300","中和區"
"235057","801-TS","2019/09/21 17:59:37","新北市中和區民享街97巷17號","121.475408333333","24.99969","6500300","中和區"
"235052","805-TS","2019/09/21 17:59:42","新北市中和區員山路36巷16-3號","121.484785","24.99117","6500300","中和區"
"235036","911-UM","2019/09/21 17:59:32","新北市中和區員山路36巷16-8號","121.485543333333","24.992375","6500300","中和區"
"247006","893-R6","2019/09/21 17:59:33","新北市蘆洲區九芎街156號","121.464305","25.0781283333333","6501400","蘆洲區"
"247004","500-BY","2019/09/21 17:59:28","新北市蘆洲區永康街61號","121.456441666667","25.0852433333333","6501400","蘆洲區"
"247008","341-TH","2019/09/21 17:59:29","新北市蘆洲區成功路29號","121.473088333333","25.079565","6501400","蘆洲區"
"247022","337-TH","2019/09/21 17:59:28","新北市蘆洲區中正路516巷21號","121.462983333333","25.0981683333333","6501400","蘆洲區"
"247014","056-VK","2019/09/21 17:59:29","新北市蘆洲區忠孝路45號","121.471383333333","25.086185","6501400","蘆洲區"
"247018","053-VK","2019/09/21 17:59:28","新北市蘆洲區復興路305號","121.482088333333","25.090485","6501400","蘆洲區"
"247002","001-UY","2019/09/21 17:59:30","新北市蘆洲區永平街32巷57弄13號","121.45946","25.0929033333333","6501400","蘆洲區"
"226004","312-R5","2019/09/21 17:59:27","新北市平溪區石底里公園街18-3號","121.733291666667","25.0259283333333","6502400","平溪區"
"235063","251-BX","2019/09/21 17:59:41","新北市中和區員山路36巷16-3號","121.485128333333","24.9913833333333","6500300","中和區"
"228003","097-TW","2019/09/21 17:59:41","新北市貢寮區真理里美艷山街6-2號","121.9288","25.0607533333333","6502600","貢寮區"
"228001","212-TW","2019/09/21 17:59:40","新北市貢寮區真理里新港街26巷47號","121.927656666667","25.0531533333333","6502600","貢寮區"
"228002","663-BX","2019/09/21 17:59:38","新北市貢寮區福隆里桂安街17號","121.964113333333","25.0212283333333","6502600","貢寮區"
"224006","676-BX","2019/09/21 17:59:38","新北市瑞芳區傑魚坑路319號","121.786025","25.1040216666667","6501200","瑞芳區"
"224002","639-TC","2019/09/21 17:59:25","新北市瑞芳區三爪子坑路127號","121.810271666667","25.1068566666667","6501200","瑞芳區"
"224009","275-VK","2019/09/21 17:59:33","新北市瑞芳區金光路243號","121.851186666667","25.107925","6501200","瑞芳區"
"224008","273-VK","2019/09/21 17:59:43","新北市瑞芳區明燈路一段45巷100號","121.821036666667","25.1041316666667","6501200","瑞芳區"
"224005","271-BY","2019/09/21 17:59:27","新北市瑞芳區深澳路145號","121.82028","25.1332833333333","6501200","瑞芳區"
"253005","032-BX","2019/09/21 17:59:35","新北市石門區中山路62-13號","121.567448333333","25.28974","6502200","石門區"
"253006","295-VK","2019/09/21 17:59:42","新北市石門區大丘田45-2號","121.549796666667","25.2748533333333","6502200","石門區"
"222001","KEA-2212","2019/09/21 17:59:33","新北市深坑區北深路三段12號","121.609773333333","25.0009833333333","6501800","深坑區"
"208002","KEA-2872","2019/09/21 17:59:30","新北市金山區三界壇路54號","121.622553333333","25.22934","6502700","金山區"
"208003","665-BX","2019/09/21 17:59:39","新北市金山區磺港里磺港路69號","121.646713333333","25.2276683333333","6502700","金山區"
"251009","008-UM","2019/09/21 17:59:40","新北市淡水區中山路134號","121.441563333333","25.1711416666667","6501000","淡水區"
"251004","009-UM","2019/09/21 17:59:33","新北市淡水區民權路76號","121.459256666667","25.133865","6501000","淡水區"
"251002","012-UM","2019/09/21 17:59:30","新北市淡水區中山路18-1號","121.444535","25.1691316666667","6501000","淡水區"
"251015","KEA-2871","2019/09/21 17:59:37","新北市淡水區興福寮32號","121.490423333333","25.16305","6501000","淡水區"
"251016","179-VK","2019/09/21 17:59:29","新北市淡水區埤島35-1號","121.44918","25.1973116666667","6501000","淡水區"
"251013","180-VK","2019/09/21 17:59:31","新北市淡水區泉洲厝31號","121.479515","25.1910233333333","6501000","淡水區"
"251008","181-VK","2019/09/21 17:59:28","新北市淡水區八勢一街67號","121.461838333333","25.1552916666667","6501000","淡水區"
"251010","413-VK","2019/09/21 17:59:38","新北市淡水區淡海路46號","121.423073333333","25.1800033333333","6501000","淡水區"
"251012","441-VK","2019/09/21 17:59:36","新北市淡水區北新路三段38巷7號","121.484511666667","25.1869983333333","6501000","淡水區"
"251005","443-VK","2019/09/21 17:59:39","新北市淡水區英專路135號","121.446486666667","25.172705","6501000","淡水區"
"251001","559-UM","2019/09/21 17:59:25","新北市淡水區民權路94巷1號","121.46315","25.1248766666667","6501000","淡水區"
"251006","561-UM","2019/09/21 17:59:40","新北市淡水區新生街19號","121.43895","25.17354","6501000","淡水區"
"251014","577-R6","2019/09/21 17:59:30","新北市淡水區公埔子16-6號","121.480901666667","25.22435","6501000","淡水區"
"251011","650-BX","2019/09/21 17:59:25","新北市淡水區吳(仔)厝25號","121.479466666667","25.1490383333333","6501000","淡水區"
"251003","766-UM","2019/09/21 17:59:43","新北市淡水區大忠街45號","121.444701666667","25.1763533333333","6501000","淡水區"
"207003","550-UM","2019/09/21 17:59:31","新北市萬里區野柳里東澳路66號","121.692816666667","25.2009816666667","6502800","萬里區"
"207004","291-VK","2019/09/21 17:59:38","新北市萬里區萬里里瑪鋉路5號","121.686136666667","25.1749583333333","6502800","萬里區"
"252002","178-VK","2019/09/21 17:59:26","新北市三芝區中山路二段45號","121.503025","25.25498","6502100","三芝區"
"208001","170-UY","2019/09/21 17:59:40","新北市金山區磺港里磺港路160號","121.644776666667","25.2257166666667","6502700","金山區"
"237004","KEA-2597","2019/09/21 17:59:34","新北市三峽區大埔路134巷1號","121.367128333333","24.9045416666667","6500900","三峽區"
"237007","153-BY","2019/09/21 17:59:35","新北市三峽區中園街108-3號","121.366781666667","24.9231333333333","6500900","三峽區"
"237009","210-TH","2019/09/21 17:59:32","新北市三峽區中山路106巷16號","121.366101666667","24.9362433333333","6500900","三峽區"
"237013","252-BX","2019/09/21 17:59:30","新北市三峽區介壽路一段53號","121.375631666667","24.932945","6500900","三峽區"
"237012","275-BY","2019/09/21 17:59:35","新北市三峽區民生街27巷1號","121.37606","24.9361916666667","6500900","三峽區"
"237008","302-VK","2019/09/21 17:59:23","新北市三峽區白雞33-18號","121.3708","24.9121133333333","6500900","三峽區"
"237014","433-BY","2019/09/21 17:59:26","新北市三峽區和平街36巷7弄8號","121.370878333333","24.9374283333333","6500900","三峽區"
"237006","5529-G3","2019/09/21 17:59:29","新北市三峽區介壽路二段138巷1弄90-2號","121.39757","24.93214","6500900","三峽區"
"237011","KEA-2596","2019/09/21 17:59:26","新北市三峽區中正路一段34號","121.375696666667","24.9307216666667","6500900","三峽區"
"237015","649-BX","2019/09/21 17:59:34","新北市三峽區紫微路74號","121.411531666667","24.9156016666667","6500900","三峽區"
"237010","706-TV","2019/09/21 17:59:39","新北市三峽區中山路41號","121.368111666667","24.9345066666667","6500900","三峽區"
"237005","AKY-6261","2019/09/21 17:59:31","新北市三峽區復興路235號","121.368483333333","24.9388616666667","6500900","三峽區"
"236042","KED-0685","2019/09/21 17:59:23","新北市土城區城林路6巷80號","121.43851","24.9797083333333","6501300","土城區"
"236030","253-BX","2019/09/21 17:59:28","新北市土城區城林路6巷80號","121.438555","24.9796033333333","6501300","土城區"
"236026","269-VK","2019/09/21 17:59:33","新北市土城區承天路1號","121.435798333333","24.96649","6501300","土城區"
"236014","270-VK","2019/09/21 17:59:35","新北市土城區城林路6巷80號","121.438443333333","24.9795566666667","6501300","土城區"
"236038","271-VK","2019/09/21 17:59:38","新北市土城區員福街38號","121.440908333333","24.97888","6501300","土城區"
"247012","KED-0683","2019/09/21 17:59:22","新北市蘆洲區信義路302巷21號","121.47811","25.0884783333333","6501400","蘆洲區"
"236070","KEA-2877","2019/09/21 17:59:30","新北市土城區青雲路482-2號","121.4693","24.9644383333333","6501300","土城區"
"252001","KED-0821","2019/09/21 17:59:37","新北市三芝區中興街二段2號","121.498335","25.2567066666667","6502100","三芝區"
"236021","401-BY","2019/09/21 17:59:39","新北市土城區城林路6巷80號","121.4387","24.979705","6501300","土城區"
"236079","752-BX","2019/09/21 17:59:33","新北市土城區永寧路32巷10弄6號","121.428985","24.9608516666667","6501300","土城區"
"236059","912-UM","2019/09/21 17:59:28","新北市土城區中央路三段282號","121.426681666667","24.9635783333333","6501300","土城區"
"236049","913-UM","2019/09/21 17:59:34","新北市土城區城林路6巷80號","121.438421666667","24.97975","6501300","土城區"
"236063","915-UM","2019/09/21 17:59:26","新北市土城區城林路6巷80號","121.438681666667","24.979675","6501300","土城區"
"236055","AAC-216","2019/09/21 17:59:40","新北市土城區城林路6巷80號","121.438431666667","24.9796233333333","6501300","土城區"
"242042","AAC-296","2019/09/21 17:59:28","新北市新莊區丹鳳街40號","121.421606666667","25.0296083333333","6500500","新莊區"
"242061","986-R7","2019/09/21 17:59:42","新北市新莊區新樹路210號","121.433908333333","25.0203466666667","6500500","新莊區"
"242004","751-BX","2019/09/21 17:59:41","新北市新莊區思源路177巷34號","121.459293333333","25.0462733333333","6500500","新莊區"
"242029","615-BX","2019/09/21 17:59:33","新北市新莊區中平路88號","121.444808333333","25.04513","6500500","新莊區"
"242027","613-BX","2019/09/21 17:59:32","新北市新莊區思源路455號","121.459671666667","25.0534466666667","6500500","新莊區"
"242058","612-BX","2019/09/21 17:59:37","新北市新莊區新北大道七段387號","121.412636666667","25.0261866666667","6500500","新莊區"
"242048","566-BX","2019/09/21 17:59:31","新北市新莊區萬安街60巷15號","121.420498333333","25.0232183333333","6500500","新莊區"
"242053","497-BY","2019/09/21 17:59:26","新北市新莊區民安西路327巷4弄19號","121.428751666667","25.0112066666667","6500500","新莊區"
"242051","442-UM","2019/09/21 17:59:44","新北市新莊區西盛街204巷1號","121.428043333333","25.0180933333333","6500500","新莊區"
"242002","441-UM","2019/09/21 17:59:33","新北市新莊區大觀街46號","121.45385","25.035555","6500500","新莊區"
"242007","440-UM","2019/09/21 17:59:41","新北市新莊區自信街75巷12號","121.455871666667","25.04875","6500500","新莊區"
"242044","415-TV","2019/09/21 17:59:30","新北市新莊區中正路700-28號","121.418166666667","25.0273033333333","6500500","新莊區"
"242013","413-TV","2019/09/21 17:59:27","新北市新莊區中和街92號","121.447605","25.046835","6500500","新莊區"
"242025","362-BY","2019/09/21 17:59:29","新北市新莊區五工路60號","121.458201666667","25.06334","6500500","新莊區"
"242023","353-BY","2019/09/21 17:59:39","新北市新莊區福壽街47號","121.458255","25.0488133333333","6500500","新莊區"
"242015","132-UY","2019/09/21 17:59:30","新北市新莊區新泰路502巷41弄12號","121.443775","25.04671","6500500","新莊區"
"242039","135-UY","2019/09/21 17:59:30","新北市新莊區民安路93號","121.424361666667","25.02552","6500500","新莊區"
"242056","172-VK","2019/09/21 17:59:31","新北市新莊區豐年街124巷6弄1號","121.445926666667","25.029895","6500500","新莊區"
"242017","173-VK","2019/09/21 17:59:28","新北市新莊區永樂街82號","121.45065","25.0450816666667","6500500","新莊區"
"242031","175-VK","2019/09/21 17:59:41","新北市新莊區新泰路318號","121.445121666667","25.0415366666667","6500500","新莊區"
"242021","KED-0687","2019/09/21 17:59:40","新北市新莊區永寧街6鄰28巷1號","121.452851666667","25.0388733333333","6500500","新莊區"
"242046","346-TH","2019/09/21 17:59:36","新北市新莊區福營路184號","121.431335","25.0308016666667","6500500","新莊區"
"242036","348-TH","2019/09/21 17:59:36","新北市新莊區建福路44號","121.42652","25.02794","6500500","新莊區"
"242009","349-TH","2019/09/21 17:59:36","新北市新莊區昌平街59巷3號","121.454316666667","25.0531133333333","6500500","新莊區"
"242034","350-TH","2019/09/21 17:59:38","新北市新莊區中正路421巷24號","121.4446","25.033465","6500500","新莊區"
"242019","351-TH","2019/09/21 17:59:28","新北市新莊區明中街47巷2號","121.457356666667","25.0392633333333","6500500","新莊區"
"238015","755-BX","2019/09/21 17:59:38","新北市樹林區啟智街80巷18號","121.418758333333","24.9925666666667","6500700","樹林區"
"238023","601-UM","2019/09/21 17:59:30","新北市樹林區龍興街59巷6號","121.403635","25.01519","6500700","樹林區"
"238019","599-UM","2019/09/21 17:59:32","新北市樹林區太元街66號","121.418593333333","24.979055","6500700","樹林區"
"238018","KEA-2217","2019/09/21 17:59:38","新北市樹林區中正路7-1號","121.43027","24.99759","6500700","樹林區"
"238022","KEA-2213","2019/09/21 17:59:24","新北市樹林區太順街51巷1號","121.417681666667","24.9790766666667","6500700","樹林區"
"238021","KEA-2539","2019/09/21 17:59:38","新北市樹林區柑園街一段295號","121.392991666667","24.9562733333333","6500700","樹林區"
"238025","303-VK","2019/09/21 17:59:30","新北市樹林區三俊街20號","121.411351666667","25.0153633333333","6500700","樹林區"
"238017","283-BY","2019/09/21 17:59:26","新北市樹林區中正路651號","121.412521666667","25.0127133333333","6500700","樹林區"
"238014","282-BY","2019/09/21 17:59:40","新北市樹林區千歲街61巷40弄9號","121.425931666667","24.99897","6500700","樹林區"
"238020","268-VK","2019/09/21 17:59:36","新北市樹林區三俊街199巷35-2號","121.42077","25.0180383333333","6500700","樹林區"
"238026","172-UY","2019/09/21 17:59:33","新北市樹林區中洲街30巷6弄8號","121.397256666667","24.97127","6500700","樹林區"
"238016","169-UY","2019/09/21 17:59:29","新北市樹林區啟智街173巷10號","121.416076666667","24.9872233333333","6500700","樹林區"
"239007","AAC-297","2019/09/21 17:59:26","新北市鶯歌區永利街38號","121.339288333333","24.95433","6500800","鶯歌區"
"239006","891-R6","2019/09/21 17:59:30","新北市鶯歌區鶯桃路413巷78弄8號","121.329713333333","24.9633233333333","6500800","鶯歌區"
"239008","527-UM","2019/09/21 17:59:40","新北市鶯歌區香賓街5巷2號","121.336446666667","24.9787","6500800","鶯歌區"
"239005","526-UM","2019/09/21 17:59:36","新北市鶯歌區鶯桃路668巷73號","121.329935","24.971805","6500800","鶯歌區"
"239001","417-VK","2019/09/21 17:59:34","新北市鶯歌區中正三路315-2號","121.32867","24.935745","6500800","鶯歌區"
"239003","360-BY","2019/09/21 17:59:34","新北市鶯歌區永吉街15號","121.336105","24.9578683333333","6500800","鶯歌區"
"239002","359-BY","2019/09/21 17:59:24","新北市鶯歌區光明街130號","121.345248333333","24.9559116666667","6500800","鶯歌區"
"239004","193-VK","2019/09/21 17:59:38","新北市鶯歌區尖山路88號","121.348595","24.9494633333333","6500800","鶯歌區"
"221008","489-VK","2019/09/21 17:59:29","新北市汐止區康寧街753巷2弄6號","121.63918","25.0738083333333","6501100","汐止區"
"221036","130-UY","2019/09/21 17:59:43","新北市汐止區橋東街18號","121.666416666667","25.0757383333333","6501100","汐止區"
"244019","KED-0667","2019/09/21 17:59:31","新北市林口區麗園路28號","121.374486666667","25.0697233333333","6501700","林口區"
"221010","269-BY","2019/09/21 17:59:29","新北市汐止區汐萬路二段122巷38弄42號","121.648085","25.0869616666667","6501100","汐止區"
"221023","279-VK","2019/09/21 17:59:39","新北市汐止區明峰街117號","121.631166666667","25.0709766666667","6501100","汐止區"
"221032","280-BY","2019/09/21 17:59:38","新北市汐止區大同路一段30號","121.622","25.0549283333333","6501100","汐止區"
"221029","298-VK","2019/09/21 17:59:40","新北市汐止區樟樹二路326號","121.641478333333","25.0701383333333","6501100","汐止區"
"221031","353-TW","2019/09/21 17:59:25","新北市汐止區中興路96巷1-3號","121.635326666667","25.06252","6501100","汐止區"
"221035","622-UM","2019/09/21 17:59:44","新北市汐止區汐萬路一段211巷13號","121.651598333333","25.0718816666667","6501100","汐止區"
"221025","623-UM","2019/09/21 17:59:25","新北市汐止區仁愛路17號","121.659253333333","25.06394","6501100","汐止區"
"221033","647-BX","2019/09/21 17:59:39","新北市汐止區合順街31號","121.620418333333","25.043165","6501100","汐止區"
"221002","707-TV","2019/09/21 17:59:42","新北市汐止區中興路60號","121.635585","25.0615083333333","6501100","汐止區"
"242011","280-VK","2019/09/21 17:59:42","新北市新莊區中原路90號","121.451158333333","25.05442","6500500","新莊區"
"235068","KEA-2873","2019/09/21 17:59:33","新北市中和區員山路36巷16-3號","121.485161666667","24.9911333333333","6500300","中和區"
"235061","KEA-2875","2019/09/21 17:59:37","新北市中和區連城路569巷9弄22號","121.479846666667","24.9935066666667","6500300","中和區"
"235062","KEA-2876","2019/09/21 17:59:13","新北市中和區民樂路76號","121.484341666667","25.0012133333333","6500300","中和區"
