"lineid","car","time","location","longitude","latitude","cityid","cityname"
"234026","9381-KE","2019/09/21 18:09:34","新北市永和區自由街26號","121.51434","25.0064133333333","6500400","永和區"
"234011","9373-KE","2019/09/21 17:55:08","新北市永和區福和路1號","121.525713333333","25.0091716666667","6500400","永和區"
"249005","172-UM","2019/09/21 18:09:41","新北市八里區荖阡坑路15號","121.401551666667","25.14005","6502300","八里區"
"249001","173-UM","2019/09/21 18:09:40","新北市八里區龍米路二段3號","121.448826666667","25.1392383333333","6502300","八里區"
"249004","303-UY","2019/09/21 18:09:40","新北市八里區龍米路二段156號","121.435413333333","25.1575633333333","6502300","八里區"
"249002","305-UY","2019/09/21 18:09:34","新北市八里區龍米路一段356巷46號","121.452118333333","25.1303266666667","6502300","八里區"
"232011","076-UY","2019/09/21 18:09:27","新北市坪林區國中路4號","121.713188333333","24.9377783333333","6502000","坪林區"
"244023","069-UM","2019/09/21 18:09:39","新北市林口區隆林街236號","121.383775","25.0743533333333","6501700","林口區"
"244007","080-UY","2019/09/21 18:09:26","新北市林口區竹林路77-7號","121.388543333333","25.07959","6501700","林口區"
"244013","KEA-2802","2019/09/21 18:09:25","新北市林口區佳林路101巷15號","121.386953333333","25.0800266666667","6501700","林口區"
"244017","485-VK","2019/09/21 18:09:43","新北市林口區忠孝路502號","121.37065","25.0700083333333","6501700","林口區"
"244009","656-BX","2019/09/21 18:09:26","新北市林口區民生路166號","121.379806666667","25.0877416666667","6501700","林口區"
"244011","701-TV","2019/09/21 18:09:29","新北市林口區中正路74巷5弄4號","121.394525","25.07801","6501700","林口區"
"244025","837-TS","2019/09/21 18:09:38","新北市林口區文化北路一段261號","121.35867","25.0714383333333","6501700","林口區"
"244021","838-TS","2019/09/21 18:09:31","新北市林口區自強九街22號","121.400568333333","25.0757483333333","6501700","林口區"
"222003","436-BY","2019/09/21 18:09:40","新北市深坑區文山路三段16-1號","121.612588333333","24.99804","6501800","深坑區"
"222002","659-BX","2019/09/21 18:09:36","新北市深坑區文化街52號","121.618985","25.0016833333333","6501800","深坑區"
"231061","002-UM","2019/09/21 18:09:45","新北市新店區安華路28-1號","121.519855","24.96086","6500600","新店區"
"231024","0291-UT","2019/09/21 18:09:31","新北市新店區安華路28-1號","121.51963","24.9606716666667","6500600","新店區"
"231044","046-UY","2019/09/21 18:09:27","新北市新店區安華路28-1號","121.519396666667","24.9607383333333","6500600","新店區"
"231054","260-TV","2019/09/21 18:09:33","新北市新店區安一路一段1-1號","121.519328333333","24.9611783333333","6500600","新店區"
"231064","278-BY","2019/09/21 18:09:40","新北市新店區安一路一段1-1號","121.519841666667","24.96109","6500600","新店區"
"231058","3713-VJ","2019/09/21 18:09:40","新北市新店區安華路28-1號","121.51922","24.96062","6500600","新店區"
"231056","4715-K9","2019/09/21 18:09:35","新北市新店區安華路1-1號","121.519475","24.960355","6500600","新店區"
"231052","513-UM","2019/09/21 18:09:35","新北市新店區安一路一段1-1號","121.519666666667","24.96131","6500600","新店區"
"231041","619-UM","2019/09/21 18:09:39","新北市新店區安華路28-1號","121.519433333333","24.9607966666667","6500600","新店區"
"231063","641-BX","2019/09/21 18:09:38","新北市新店區安華路28-1號","121.519598333333","24.960535","6500600","新店區"
"231057","720-UM","2019/09/21 18:09:36","新北市新店區安一路一段1-1號","121.519291666667","24.9612566666667","6500600","新店區"
"231059","897-TW","2019/09/21 18:09:34","新北市新店區安華路28-1號","121.519625","24.96053","6500600","新店區"
"231043","899-TW","2019/09/21 18:09:37","新北市新店區安華路28-1號","121.519311666667","24.9607916666667","6500600","新店區"
"241033","AAC-255","2019/09/21 18:09:39","新北市三重區中興北街42巷17號","121.46887","25.0493866666667","6500200","三重區"
"235056","096-UM","2019/09/21 18:09:34","新北市中和區連城路308號","121.48367","24.996335","6500300","中和區"
"235039","097-UM","2019/09/21 18:09:25","新北市中和區錦和路350-1號","121.490061666667","24.9935433333333","6500300","中和區"
"235065","098-UM","2019/09/21 18:09:38","新北市中和區莊敬路49巷18號","121.50162","25.0061666666667","6500300","中和區"
"235040","150-BY","2019/09/21 18:09:32","新北市中和區和城路一段271巷1號","121.48542","24.99167","6500300","中和區"
"235058","151-BY","2019/09/21 18:09:42","新北市中和區圓通路367巷66號","121.493278333333","24.9832583333333","6500300","中和區"
"235038","185-VK","2019/09/21 18:09:33","新北市中和區大智街2號","121.519923333333","24.9918633333333","6500300","中和區"
"235072","301-VK","2019/09/21 18:09:41","新北市中和區中正路466號","121.490056666667","24.99414","6500300","中和區"
"235043","352-BY","2019/09/21 18:09:36","新北市中和區中正路161巷2號","121.498355","24.9937183333333","6500300","中和區"
"235042","KEA-2878","2019/09/21 18:09:25","新北市中和區中正路21號","121.502768333333","24.993385","6500300","中和區"
"235050","4979-A6","2019/09/21 18:09:27","新北市中和區中正路395號","121.489948333333","24.99356","6500300","中和區"
"235070","558-UM","2019/09/21 18:09:31","新北市中和區圓通路135號","121.49902","24.995845","6500300","中和區"
"235045","565-BX","2019/09/21 18:09:27","新北市中和區中正路209號","121.497106666667","24.9934483333333","6500300","中和區"
"235060","KED-0823","2019/09/21 18:09:23","新北市中和區連城路378號","121.480921666667","24.9950533333333","6500300","中和區"
"235054","640-BX","2019/09/21 18:09:30","新北市中和區莒光路185號","121.472605","24.9990166666667","6500300","中和區"
"235047","732-UM","2019/09/21 18:09:40","新北市中和區中興街111號","121.499863333333","24.9921966666667","6500300","中和區"
"235046","733-UM","2019/09/21 18:09:36","新北市中和區員山路36巷13號","121.484141666667","24.9908016666667","6500300","中和區"
"235057","801-TS","2019/09/21 18:09:37","新北市中和區民享街97巷12號","121.475248333333","24.9995966666667","6500300","中和區"
"235052","805-TS","2019/09/21 18:09:42","新北市中和區中正路273號","121.495723333333","24.9936866666667","6500300","中和區"
"235064","911-UM","2019/09/21 18:09:32","新北市中和區中正路78號","121.500426666667","24.9937116666667","6500300","中和區"
"235051","157-BY","2019/09/21 18:09:30","新北市中和區中正路169號","121.498143333333","24.993505","6500300","中和區"
"226004","312-R5","2019/09/21 18:09:28","新北市平溪區菁桐里菁桐街165號","121.722985","25.023595","6502400","平溪區"
"235063","251-BX","2019/09/21 18:09:41","新北市中和區中正路637巷60弄61號","121.485426666667","24.9931183333333","6500300","中和區"
"228003","097-TW","2019/09/21 18:09:21","新北市貢寮區真理里美艷山街6-2號","121.928796666667","25.060745","6502600","貢寮區"
"228001","212-TW","2019/09/21 18:09:33","新北市貢寮區真理里新港街26巷55弄2-1號","121.927396666667","25.0528716666667","6502600","貢寮區"
"228002","663-BX","2019/09/21 18:09:38","新北市貢寮區福連里福連街15號","121.987983333333","25.0134066666667","6502600","貢寮區"
"224006","676-BX","2019/09/21 18:09:38","新北市瑞芳區中山路157號","121.802171666667","25.106495","6501200","瑞芳區"
"224002","639-TC","2019/09/21 18:09:25","新北市瑞芳區三爪子坑路48號","121.810636666667","25.1057933333333","6501200","瑞芳區"
"224007","285-BY","2019/09/21 18:09:39","新北市瑞芳區四腳亭坑路8號","121.777793333333","25.1096816666667","6501200","瑞芳區"
"224009","275-VK","2019/09/21 18:09:33","新北市瑞芳區金光路117號","121.853226666667","25.1060783333333","6501200","瑞芳區"
"224008","273-VK","2019/09/21 18:09:23","新北市瑞芳區員山子路23號","121.821296666667","25.103055","6501200","瑞芳區"
"224005","271-BY","2019/09/21 18:09:27","新北市瑞芳區建基路二段62號","121.814978333333","25.1287833333333","6501200","瑞芳區"
"227001","642-TC","2019/09/21 18:09:33","新北市雙溪區三貂里定福路1-2號","121.850828333333","25.063485","6502500","雙溪區"
"227002","400-TW","2019/09/21 18:09:39","新北市雙溪區共和里東榮街52號","121.866343333333","25.033775","6502500","雙溪區"
"253005","032-BX","2019/09/21 18:09:35","新北市石門區福安街19號","121.568643333333","25.292585","6502200","石門區"
"253006","295-VK","2019/09/21 18:09:42","新北市石門區老梅路52巷21號","121.546296666667","25.2885316666667","6502200","石門區"
"222001","KEA-2212","2019/09/21 18:09:34","新北市深坑區北深路二段188號","121.61397","25.0023216666667","6501800","深坑區"
"208002","KEA-2872","2019/09/21 18:09:30","新北市金山區三界壇路13號","121.61917","25.23387","6502700","金山區"
"208003","665-BX","2019/09/21 18:09:39","新北市金山區民生路2號","121.649755","25.2247583333333","6502700","金山區"
"251009","008-UM","2019/09/21 18:09:40","新北市淡水區大仁街6巷25號","121.443045","25.1752116666667","6501000","淡水區"
"251004","009-UM","2019/09/21 18:09:33","新北市淡水區民權路187巷80號","121.461401666667","25.1346283333333","6501000","淡水區"
"251002","012-UM","2019/09/21 18:09:34","新北市淡水區中正東路一段3巷2號","121.450471666667","25.16466","6501000","淡水區"
"251015","KEA-2871","2019/09/21 18:09:37","新北市淡水區興福寮88巷1號","121.485325","25.164975","6501000","淡水區"
"251016","179-VK","2019/09/21 18:09:29","新北市淡水區下圭柔山15號","121.453063333333","25.20217","6501000","淡水區"
"251013","180-VK","2019/09/21 18:09:31","新北市淡水區竹圍子12號","121.476376666667","25.1938016666667","6501000","淡水區"
"251008","181-VK","2019/09/21 18:09:27","新北市淡水區中正東路二段5巷1號","121.458586666667","25.1591133333333","6501000","淡水區"
"251010","413-VK","2019/09/21 18:09:38","新北市淡水區中正路二段50巷10號","121.419836666667","25.18332","6501000","淡水區"
"251012","441-VK","2019/09/21 18:09:40","新北市淡水區北新路三段112號","121.486558333333","25.1881883333333","6501000","淡水區"
"251005","443-VK","2019/09/21 18:09:39","新北市淡水區水源街一段141號","121.447268333333","25.1718983333333","6501000","淡水區"
"251001","559-UM","2019/09/21 18:09:26","新北市淡水區自立路6-3號","121.462676666667","25.1294566666667","6501000","淡水區"
"251006","561-UM","2019/09/21 18:09:40","新北市淡水區真理街3巷21-1號","121.437706666667","25.17633","6501000","淡水區"
"251014","577-R6","2019/09/21 18:09:30","新北市淡水區南平15號","121.488498333333","25.2190233333333","6501000","淡水區"
"251011","650-BX","2019/09/21 18:09:25","新北市淡水區三空泉5號","121.476413333333","25.1613016666667","6501000","淡水區"
"251003","766-UM","2019/09/21 18:09:23","新北市淡水區大忠街113巷6號","121.446815","25.1776216666667","6501000","淡水區"
"207003","550-UM","2019/09/21 18:09:31","新北市萬里區野柳里港東路167-1號","121.6904","25.2051516666667","6502800","萬里區"
"207004","291-VK","2019/09/21 18:09:38","新北市萬里區中幅里中福路84號","121.676045","25.1706916666667","6502800","萬里區"
"252002","178-VK","2019/09/21 18:09:26","新北市三芝區中山路二段39號","121.502903333333","25.2551416666667","6502100","三芝區"
"252003","292-VK","2019/09/21 18:09:32","新北市三芝區埔坪里埔頭坑107號","121.504621666667","25.261735","6502100","三芝區"
"208001","170-UY","2019/09/21 18:09:40","新北市金山區磺港里磺港路106號","121.646671666667","25.2270433333333","6502700","金山區"
"237004","KEA-2597","2019/09/21 18:09:34","新北市三峽區大埔路349號","121.371076666667","24.8965983333333","6500900","三峽區"
"237007","153-BY","2019/09/21 18:09:35","新北市三峽區中正路二段370巷16號","121.36503","24.91052","6500900","三峽區"
"237009","210-TH","2019/09/21 18:09:31","新北市三峽區大仁路48號","121.365448333333","24.9375083333333","6500900","三峽區"
"237013","252-BX","2019/09/21 18:09:30","新北市三峽區長泰街38號","121.378463333333","24.9321816666667","6500900","三峽區"
"237012","275-BY","2019/09/21 18:09:35","新北市三峽區民生街1巷1-14號","121.377746666667","24.9360533333333","6500900","三峽區"
"237008","302-VK","2019/09/21 18:09:23","新北市三峽區白雞58-19號","121.385533333333","24.9099166666667","6500900","三峽區"
"237014","433-BY","2019/09/21 18:09:25","新北市三峽區國光街63巷8號","121.37389","24.9379783333333","6500900","三峽區"
"237006","5529-G3","2019/09/21 18:09:28","新北市三峽區溪東路34巷13號","121.400463333333","24.934635","6500900","三峽區"
"237011","KEA-2596","2019/09/21 18:09:26","新北市三峽區大同路2-1號","121.378428333333","24.930065","6500900","三峽區"
"237015","649-BX","2019/09/21 18:09:34","新北市三峽區紫新路47號","121.422143333333","24.9218016666667","6500900","三峽區"
"237010","706-TV","2019/09/21 18:09:38","新北市三峽區中園街20號","121.368293333333","24.927035","6500900","三峽區"
"237005","AKY-6261","2019/09/21 18:09:31","新北市三峽區忠孝街6號","121.370731666667","24.93457","6500900","三峽區"
"236042","KED-0685","2019/09/21 18:09:43","新北市土城區城林路6巷80號","121.438496666667","24.979735","6501300","土城區"
"236030","253-BX","2019/09/21 18:09:28","新北市土城區城林路6巷80號","121.438538333333","24.9795383333333","6501300","土城區"
"236026","269-VK","2019/09/21 18:09:33","新北市土城區承天路67號","121.43955","24.96353","6501300","土城區"
"236014","270-VK","2019/09/21 18:09:35","新北市土城區學府路一段167號","121.452845","24.9857083333333","6501300","土城區"
"236038","271-VK","2019/09/21 18:09:38","新北市土城區青雲路453號","121.458915","24.9746183333333","6501300","土城區"
"236070","KEA-2877","2019/09/21 18:09:30","新北市土城區石門路44號","121.457588333333","24.963915","6501300","土城區"
"252001","KED-0821","2019/09/21 18:09:37","新北市三芝區中興街二段2號","121.498341666667","25.2566866666667","6502100","三芝區"
"236021","401-BY","2019/09/21 18:09:39","新北市土城區中華路二段2號","121.439275","24.9796566666667","6501300","土城區"
"236079","752-BX","2019/09/21 18:09:13","新北市土城區永寧路32巷2號","121.429191666667","24.9606683333333","6501300","土城區"
"236059","912-UM","2019/09/21 18:09:28","新北市土城區中央路四段145號","121.415595","24.9571716666667","6501300","土城區"
"236049","913-UM","2019/09/21 18:09:34","新北市土城區明德路一段369-6號","121.45332","24.9792766666667","6501300","土城區"
"236063","915-UM","2019/09/21 18:09:26","新北市土城區金城路二段26號","121.450106666667","24.97791","6501300","土城區"
"236055","AAC-216","2019/09/21 18:09:40","新北市土城區中華路二段92號","121.438228333333","24.97473","6501300","土城區"
"242042","AAC-296","2019/09/21 18:09:28","新北市新莊區中正路694巷41號","121.417908333333","25.0287183333333","6500500","新莊區"
"242061","986-R7","2019/09/21 18:09:43","新北市新莊區新樹路69-31號","121.438431666667","25.0292833333333","6500500","新莊區"
"242004","751-BX","2019/09/21 18:09:21","新北市新莊區自由街36號","121.455813333333","25.0464466666667","6500500","新莊區"
"242029","615-BX","2019/09/21 18:09:33","新北市新莊區中平路202-1號","121.444733333333","25.04885","6500500","新莊區"
"242027","613-BX","2019/09/21 18:09:32","新北市新莊區幸福路83-1號","121.456536666667","25.0492483333333","6500500","新莊區"
"242058","612-BX","2019/09/21 18:09:31","新北市新莊區新北大道七段162-1號","121.415783333333","25.0314383333333","6500500","新莊區"
"242048","566-BX","2019/09/21 18:09:31","新北市新莊區萬安街73號","121.421266666667","25.0238666666667","6500500","新莊區"
"242053","497-BY","2019/09/21 18:09:26","新北市新莊區民安西路329號","121.427695","25.0110033333333","6500500","新莊區"
"242051","442-UM","2019/09/21 18:09:44","新北市新莊區民本街25巷18號","121.429113333333","25.01944","6500500","新莊區"
"242002","441-UM","2019/09/21 18:09:33","新北市新莊區新莊路2號","121.459391666667","25.0379116666667","6500500","新莊區"
"242007","440-UM","2019/09/21 18:09:39","新北市新莊區中華路二段94號","121.4535","25.0471883333333","6500500","新莊區"
"242044","415-TV","2019/09/21 18:09:30","新北市新莊區雙鳳路107號","121.414046666667","25.028045","6500500","新莊區"
"242013","413-TV","2019/09/21 18:09:27","新北市新莊區幸福路817巷7號","121.445533333333","25.0486683333333","6500500","新莊區"
"242025","362-BY","2019/09/21 18:09:29","新北市新莊區五工一路96號","121.460495","25.067815","6500500","新莊區"
"242015","132-UY","2019/09/21 18:09:30","新北市新莊區中平路132巷7號","121.44583","25.0468133333333","6500500","新莊區"
"242039","135-UY","2019/09/21 18:09:30","新北市新莊區民安西路88巷12弄2號","121.425933333333","25.0200766666667","6500500","新莊區"
"242056","172-VK","2019/09/21 18:09:36","新北市新莊區豐年街豐1巷1號","121.446738333333","25.0311416666667","6500500","新莊區"
"242017","173-VK","2019/09/21 18:09:40","新北市新莊區永樂街66號","121.45099","25.045035","6500500","新莊區"
"242031","175-VK","2019/09/21 18:09:41","新北市新莊區新泰路277巷67號","121.443133333333","25.0400316666667","6500500","新莊區"
"242021","KED-0687","2019/09/21 18:09:40","新北市新莊區建興街32號","121.450045","25.0371683333333","6500500","新莊區"
"242046","346-TH","2019/09/21 18:09:36","新北市新莊區福營路230號","121.426855","25.0291266666667","6500500","新莊區"
"242036","348-TH","2019/09/21 18:09:36","新北市新莊區後港一路65巷9弄7號","121.4258","25.0268683333333","6500500","新莊區"
"242009","349-TH","2019/09/21 18:09:37","新北市新莊區中華路二段250號","121.452575","25.0528966666667","6500500","新莊區"
"242034","350-TH","2019/09/21 18:09:38","新北市新莊區福海街24巷11號","121.446038333333","25.0342433333333","6500500","新莊區"
"242019","351-TH","2019/09/21 18:09:28","新北市新莊區民樂街23號","121.457628333333","25.04072","6500500","新莊區"
"238015","755-BX","2019/09/21 18:09:38","新北市樹林區大安路325號","121.417326666667","24.99164","6500700","樹林區"
"238023","601-UM","2019/09/21 18:09:30","新北市樹林區龍興街31巷16號","121.40364","25.01595","6500700","樹林區"
"238019","599-UM","2019/09/21 18:09:32","新北市樹林區太平路247巷26-1號","121.420378333333","24.9751216666667","6500700","樹林區"
"238018","KEA-2217","2019/09/21 18:09:38","新北市樹林區保順街77號","121.429286666667","24.9945533333333","6500700","樹林區"
"238022","KEA-2213","2019/09/21 18:09:44","新北市樹林區太平路174巷24號","121.417628333333","24.9766616666667","6500700","樹林區"
"238021","KEA-2539","2019/09/21 18:09:38","新北市樹林區柑園街二段149巷1號","121.382341666667","24.9538633333333","6500700","樹林區"
"238025","303-VK","2019/09/21 18:09:42","新北市樹林區保安街二段195-2號","121.413985","25.003705","6500700","樹林區"
"238017","283-BY","2019/09/21 18:09:26","新北市樹林區中正路837號","121.409111666667","25.0175316666667","6500700","樹林區"
"238014","282-BY","2019/09/21 18:09:40","新北市樹林區潭興街103號","121.424818333333","24.9985233333333","6500700","樹林區"
"238020","268-VK","2019/09/21 18:09:36","新北市樹林區俊興街277號","121.4186","25.0181183333333","6500700","樹林區"
"238026","172-UY","2019/09/21 18:09:33","新北市樹林區佳園路一段22號","121.39276","24.97152","6500700","樹林區"
"238016","169-UY","2019/09/21 18:09:29","新北市樹林區育英街135巷1弄1號","121.419695","24.9890716666667","6500700","樹林區"
"239007","AAC-297","2019/09/21 18:09:33","新北市鶯歌區永樂街28號","121.34209","24.9535616666667","6500800","鶯歌區"
"239006","891-R6","2019/09/21 18:09:30","新北市鶯歌區鶯桃路457號","121.332066666667","24.9656516666667","6500800","鶯歌區"
"239008","527-UM","2019/09/21 18:09:40","新北市鶯歌區朝陽街47巷1號","121.337306666667","24.9775733333333","6500800","鶯歌區"
"239005","526-UM","2019/09/21 18:09:36","新北市鶯歌區鶯桃路668巷73號","121.329951666667","24.97182","6500800","鶯歌區"
"239001","417-VK","2019/09/21 18:09:34","新北市鶯歌區中正三路447-1號","121.322715","24.934525","6500800","鶯歌區"
"239003","360-BY","2019/09/21 18:09:34","新北市鶯歌區福安街32巷20號","121.33505","24.9637266666667","6500800","鶯歌區"
"239002","359-BY","2019/09/21 18:09:24","新北市鶯歌區光明街40號","121.348325","24.9558983333333","6500800","鶯歌區"
"239004","193-VK","2019/09/21 18:09:38","新北市鶯歌區尖山路68號","121.348905","24.949465","6500800","鶯歌區"
"221008","489-VK","2019/09/21 18:09:29","新北市汐止區明峰街183號","121.628441666667","25.0698","6501100","汐止區"
"221036","130-UY","2019/09/21 18:09:23","新北市汐止區大同路三段116號","121.672063333333","25.076725","6501100","汐止區"
"221015","131-UY","2019/09/21 18:09:24","新北市汐止區長江街281號","121.664668333333","25.080665","6501100","汐止區"
"244019","KED-0667","2019/09/21 18:09:31","新北市林口區忠孝路580巷16號","121.375123333333","25.0669416666667","6501700","林口區"
"221010","269-BY","2019/09/21 18:09:29","新北市汐止區汐萬路二段245巷42號","121.644458333333","25.08756","6501100","汐止區"
"221012","278-VK","2019/09/21 18:09:35","新北市汐止區長興街二段50巷27號","121.674611666667","25.0811733333333","6501100","汐止區"
"221023","279-VK","2019/09/21 18:09:39","新北市汐止區民族五街69號","121.628203333333","25.0703633333333","6501100","汐止區"
"221032","280-BY","2019/09/21 18:09:38","新北市汐止區橫科路73巷22-2號","121.619316666667","25.051515","6501100","汐止區"
"221029","298-VK","2019/09/21 18:09:40","新北市汐止區樟樹二路134號","121.640038333333","25.0656833333333","6501100","汐止區"
"221021","299-VK","2019/09/21 18:09:40","新北市汐止區龍安路2巷20號","121.65604","25.06495","6501100","汐止區"
"221031","353-TW","2019/09/21 18:09:25","新北市汐止區中興路216號","121.630965","25.0663133333333","6501100","汐止區"
"221035","622-UM","2019/09/21 18:09:44","新北市汐止區汐萬路一段115巷36號","121.653508333333","25.07034","6501100","汐止區"
"221025","623-UM","2019/09/21 18:09:25","新北市汐止區秀峰路139號","121.660335","25.0623516666667","6501100","汐止區"
"221038","646-BX","2019/09/21 18:09:27","新北市汐止區南興路83巷7號","121.653253333333","25.0591183333333","6501100","汐止區"
"221033","647-BX","2019/09/21 18:09:39","新北市汐止區林森街21號","121.621733333333","25.0405583333333","6501100","汐止區"
"221002","707-TV","2019/09/21 18:09:42","新北市汐止區福德一路215號","121.634656666667","25.065265","6501100","汐止區"
"221018","753-BX","2019/09/21 18:09:36","新北市汐止區招商街19巷25號","121.667483333333","25.0682116666667","6501100","汐止區"
"242011","280-VK","2019/09/21 18:09:31","新北市新莊區中港路中慶巷39號","121.449125","25.0537","6500500","新莊區"
"235068","KEA-2873","2019/09/21 18:09:33","新北市中和區員山路36巷16-3號","121.485161666667","24.9911333333333","6500300","中和區"
"235061","KEA-2875","2019/09/21 18:09:36","新北市中和區國光街215巷57號","121.467548333333","24.9999333333333","6500300","中和區"
"235062","KEA-2876","2019/09/21 18:09:13","新北市中和區景平路999巷1號","121.495403333333","25.00595","6500300","中和區"
