"lineid","car","time","location","longitude","latitude","cityid","cityname"
"234046","148-BY","2019/09/21 18:49:34","新北市永和區秀朗路二段128號","121.524836666667","25.001355","6500400","永和區"
"234081","298-R6","2019/09/21 18:49:40","新北市永和區永利路108號","121.521165","25.00344","6500400","永和區"
"234038","336-UY","2019/09/21 18:49:28","新北市永和區福和路7巷11弄16號","121.525813333333","25.0079083333333","6500400","永和區"
"234064","337-UY","2019/09/21 18:49:29","新北市永和區福和路1號","121.526125","25.009625","6500400","永和區"
"234003","553-UM","2019/09/21 18:49:25","新北市永和區永和路二段8號","121.514511666667","25.010215","6500400","永和區"
"234017","745-BX","2019/09/21 18:49:28","新北市永和區永和路二段299號","121.516041666667","25.0161766666667","6500400","永和區"
"234030","746-BX","2019/09/21 18:49:35","新北市永和區得和路356號","121.523968333333","24.999445","6500400","永和區"
"234054","KEA-2590","2019/09/21 18:49:08","新北市永和區環河東路二段92號","121.52448","25.0106416666667","6500400","永和區"
"234007","KED-0605","2019/09/21 18:49:32","新北市永和區文化路146號","121.51264","25.0153283333333","6500400","永和區"
"234013","KEA-2591","2019/09/21 18:49:34","新北市永和區保福路二段133巷36弄2號","121.508933333333","25.0136216666667","6500400","永和區"
"234061","AAD-866","2019/09/21 18:49:42","新北市永和區福和路311號","121.516183333333","25.0070883333333","6500400","永和區"
"234086","748-BX","2019/09/21 18:49:33","新北市永和區中正路39-1號","121.514336666667","24.9959683333333","6500400","永和區"
"234042","862-TW","2019/09/21 18:49:25","新北市永和區永貞路306號","121.51187","25.0048316666667","6500400","永和區"
"234011","9373-KE","2019/09/21 18:49:34","新北市永和區文化路126巷4號","121.513138333333","25.015585","6500400","永和區"
"249005","172-UM","2019/09/21 18:49:43","新北市八里區長道坑15號","121.394936666667","25.118625","6502300","八里區"
"249001","173-UM","2019/09/21 18:49:40","新北市八里區龍米路二段91-1號","121.447645","25.1422216666667","6502300","八里區"
"249002","305-UY","2019/09/21 18:49:34","新北市八里區頂寮二街138號","121.449313333333","25.1294533333333","6502300","八里區"
"234023","9380-KE","2019/09/21 18:49:43","新北市永和區竹林路119巷45號","121.52191","25.0118316666667","6500400","永和區"
"234077","969-R7","2019/09/21 18:49:38","新北市永和區中正路42巷6弄1號","121.513313333333","24.994175","6500400","永和區"
"234067","AAC-212","2019/09/21 18:49:43","新北市永和區中和路625號","121.513038333333","25.0049183333333","6500400","永和區"
"232011","076-UY","2019/09/21 18:49:27","新北市坪林區坪碇路71號","121.711483333333","24.9376716666667","6502000","坪林區"
"244023","069-UM","2019/09/21 18:49:38","新北市林口區文化二路二段88巷11號","121.379488333333","25.08084","6501700","林口區"
"244007","080-UY","2019/09/21 18:49:26","新北市林口區太平里16號","121.377435","25.1149166666667","6501700","林口區"
"244013","KEA-2802","2019/09/21 18:49:24","新北市林口區麗園一街11巷9號","121.378265","25.0705433333333","6501700","林口區"
"244017","485-VK","2019/09/21 18:49:23","新北市林口區文化二路一段20巷50-1號","121.365143333333","25.0663","6501700","林口區"
"244009","656-BX","2019/09/21 18:49:05","新北市林口區竹林路430巷1弄11號","121.388461666667","25.0855966666667","6501700","林口區"
"244011","701-TV","2019/09/21 18:49:29","新北市林口區粉寮路一段43號","121.396483333333","25.0774533333333","6501700","林口區"
"244025","837-TS","2019/09/21 18:49:38","新北市林口區南勢一街6號","121.360441666667","25.0744066666667","6501700","林口區"
"243010","297-R6","2019/09/21 18:49:22","新北市泰山區辭修路48號","121.42836","25.0572283333333","6501600","泰山區"
"243014","KEA-2801","2019/09/21 18:49:40","新北市泰山區犁頭窠3-1號","121.422188333333","25.060555","6501600","泰山區"
"243015","680-BX","2019/09/21 18:49:34","新北市泰山區美寧街50號","121.430578333333","25.064415","6501600","泰山區"
"222003","436-BY","2019/09/21 18:49:34","新北市深坑區北深路一段361號","121.622308333333","25.0049216666667","6501800","深坑區"
"222002","659-BX","2019/09/21 18:49:36","新北市深坑區文山路一段69號","121.627013333333","25.0018933333333","6501800","深坑區"
"231061","002-UM","2019/09/21 18:49:25","新北市新店區安華路28-1號","121.519685","24.96066","6500600","新店區"
"231044","046-UY","2019/09/21 18:49:27","新北市新店區北新路一段88巷1號","121.541658333333","24.9679833333333","6500600","新店區"
"231060","106-UY","2019/09/21 18:49:33","新北市新店區安華路28-1號","121.519565","24.9608983333333","6500600","新店區"
"231051","107-UY","2019/09/21 18:49:25","新北市新店區中央路81號","121.532205","24.9766833333333","6500600","新店區"
"231049","108-UY","2019/09/21 18:49:27","新北市新店區中央路210號","121.530101666667","24.9736716666667","6500600","新店區"
"231065","110-UY","2019/09/21 18:49:34","新北市新店區安康路三段206號","121.488803333333","24.9518033333333","6500600","新店區"
"231062","256-BX","2019/09/21 18:49:22","新北市新店區安一路一段1-1號","121.519651666667","24.961185","6500600","新店區"
"231054","260-TV","2019/09/21 18:49:33","新北市新店區安一路一段1-1號","121.519276666667","24.96116","6500600","新店區"
"231042","268-BY","2019/09/21 18:49:39","新北市新店區北新路一段126巷27號","121.543176666667","24.969655","6500600","新店區"
"231064","278-BY","2019/09/21 18:49:39","新北市新店區安華路28-1號","121.519743333333","24.961045","6500600","新店區"
"231050","AAD-862","2019/09/21 18:49:32","新北市新店區北宜路一段192巷4-1號","121.541831666667","24.952805","6500600","新店區"
"231045","355-BY","2019/09/21 18:49:35","新北市新店區安華路28-1號","121.51919","24.9609516666667","6500600","新店區"
"231058","3713-VJ","2019/09/21 18:49:40","新北市新店區北宜路一段105巷4弄7號","121.54014","24.9554766666667","6500600","新店區"
"231055","4716-K9","2019/09/21 18:49:33","新北市新店區中正路128巷9弄2號","121.542433333333","24.972","6500600","新店區"
"231056","4715-K9","2019/09/21 18:49:35","新北市新店區大同街8巷2號","121.539775","24.980115","6500600","新店區"
"231067","4772-VM","2019/09/21 18:49:37","新北市新店區安華路3號","121.518938333333","24.9605866666667","6500600","新店區"
"231052","513-UM","2019/09/21 18:49:42","新北市新店區新烏路一段87巷63號","121.54627","24.941185","6500600","新店區"
"231041","619-UM","2019/09/21 18:49:39","新北市新店區安華路28-1號","121.519575","24.9608683333333","6500600","新店區"
"231063","641-BX","2019/09/21 18:49:38","新北市新店區安華路1-1號","121.519556666667","24.9603783333333","6500600","新店區"
"231048","KED-0819","2019/09/21 18:49:26","新北市新店區北新路一段91號","121.538738333333","24.961765","6500600","新店區"
"231046","719-UM","2019/09/21 18:48:59","新北市新店區直潭路71號","121.532413333333","24.94221","6500600","新店區"
"231057","720-UM","2019/09/21 18:49:36","新北市新店區新烏路一段205-2號","121.547576666667","24.932635","6500600","新店區"
"231059","897-TW","2019/09/21 18:49:34","新北市新店區安華路28-1號","121.519686666667","24.96066","6500600","新店區"
"231040","898-TW","2019/09/21 18:49:37","新北市新店區安康路一段229號","121.525495","24.96314","6500600","新店區"
"231043","899-TW","2019/09/21 18:49:37","新北市新店區安一路一段1-1號","121.519708333333","24.9618733333333","6500600","新店區"
"231066","AKT-0513","2019/09/21 18:49:37","新北市新店區安華路28-1號","121.519533333333","24.9605566666667","6500600","新店區"
"235066","003-UY","2019/09/21 18:49:25","新北市中和區水源路16號","121.504098333333","25.003495","6500300","中和區"
"235056","096-UM","2019/09/21 18:49:44","新北市中和區員山路466巷17弄29號","121.480471666667","25.0073716666667","6500300","中和區"
"235039","097-UM","2019/09/21 18:49:25","新北市中和區安樂路217巷40弄1號","121.513295","24.9979433333333","6500300","中和區"
"235065","098-UM","2019/09/21 18:49:38","新北市中和區中山路二段2巷23號","121.50322","25.0070083333333","6500300","中和區"
"235040","150-BY","2019/09/21 18:49:32","新北市中和區保健路72號","121.511313333333","24.996385","6500300","中和區"
"235058","151-BY","2019/09/21 18:49:42","新北市中和區連城路532巷3-3號","121.475368333333","24.9918966666667","6500300","中和區"
"235038","185-VK","2019/09/21 18:49:33","新北市中和區大勇街50號","121.517565","24.9941033333333","6500300","中和區"
"235049","186-VK","2019/09/21 18:49:22","新北市中和區景安路177巷29號","121.506725","24.994545","6500300","中和區"
"235067","255-BX","2019/09/21 18:49:39","新北市中和區民樂路81號","121.48476","25.0015616666667","6500300","中和區"
"235044","293-VK","2019/09/21 18:49:40","新北市中和區復興路348號","121.500041666667","24.9904483333333","6500300","中和區"
"235072","301-VK","2019/09/21 18:49:41","新北市中和區中山路二段178巷1號","121.500633333333","25.0028466666667","6500300","中和區"
"235043","352-BY","2019/09/21 18:49:36","新北市中和區秀朗路三段72號","121.526231666667","24.9944416666667","6500300","中和區"
"235042","KEA-2878","2019/09/21 18:49:25","新北市中和區秀朗路三段70巷31號","121.525518333333","24.9944066666667","6500300","中和區"
"235050","4979-A6","2019/09/21 18:49:27","新北市中和區忠孝街62巷9弄8號","121.513181666667","24.9839666666667","6500300","中和區"
"235069","4980-A6","2019/09/21 18:49:33","新北市中和區南山路52巷5號","121.501681666667","24.99733","6500300","中和區"
"235070","558-UM","2019/09/21 18:49:31","新北市中和區安和路215號","121.50598","24.99906","6500300","中和區"
"235045","565-BX","2019/09/21 18:49:27","新北市中和區南山路160號","121.504456666667","24.9918066666667","6500300","中和區"
"235060","KED-0823","2019/09/21 18:49:23","新北市中和區中山路三段148號","121.47366","25.00636","6500300","中和區"
"235054","640-BX","2019/09/21 18:49:41","新北市中和區中山路三段145號","121.473811666667","25.00611","6500300","中和區"
"235047","732-UM","2019/09/21 18:49:39","新北市中和區興南路二段34巷28弄1號","121.504968333333","24.9865033333333","6500300","中和區"
"235046","733-UM","2019/09/21 18:49:36","新北市中和區興南路一段106號","121.509736666667","24.9889116666667","6500300","中和區"
"235057","801-TS","2019/09/21 18:49:37","新北市中和區民利街71號","121.478635","24.99829","6500300","中和區"
"235041","802-TS","2019/09/21 18:49:34","新北市中和區宜安路92巷11號","121.511108333333","24.9978433333333","6500300","中和區"
"235052","805-TS","2019/09/21 18:49:21","新北市中和區興南路二段399巷98弄48號","121.49856","24.97677","6500300","中和區"
"235048","896-TW","2019/09/21 18:49:30","新北市中和區華新街52號","121.507941666667","24.9840183333333","6500300","中和區"
"235053","900-TW","2019/09/21 18:49:29","新北市中和區民德路302號","121.467385","24.99531","6500300","中和區"
"235064","911-UM","2019/09/21 18:49:32","新北市中和區泰和街46巷2號","121.49863","25.000095","6500300","中和區"
"235051","157-BY","2019/09/21 18:49:30","新北市中和區忠孝街106巷25號","121.513101666667","24.984365","6500300","中和區"
"235059","AAC-215","2019/09/21 18:49:42","新北市中和區圓通路393巷32號","121.490313333333","24.988415","6500300","中和區"
"220065","072-UY","2019/09/21 18:49:26","新北市板橋區館前東路112號","121.463441666667","25.00776","6500100","板橋區"
"220086","073-UY","2019/09/21 18:49:21","新北市板橋區南雅西路二段145巷5號","121.451743333333","25.011435","6500100","板橋區"
"220106","075-UY","2019/09/21 18:49:26","新北市板橋區莒光路58號","121.470896666667","25.0242866666667","6500100","板橋區"
"220069","AAD-861","2019/09/21 18:49:25","新北市板橋區大華街20號","121.458918333333","25.006115","6500100","板橋區"
"220068","120-SR","2019/09/21 18:49:25","新北市板橋區大同街35巷21號","121.476921666667","25.0276866666667","6500100","板橋區"
"226004","312-R5","2019/09/21 18:49:36","新北市平溪區平溪里平溪街46號","121.738048333333","25.0269016666667","6502400","平溪區"
"235063","251-BX","2019/09/21 18:49:41","新北市中和區連城路319巷12號","121.489188333333","24.9950566666667","6500300","中和區"
"228003","097-TW","2019/09/21 18:49:21","新北市貢寮區和美里龍洞街46號","121.91379","25.11233","6502600","貢寮區"
"228001","212-TW","2019/09/21 18:49:33","新北市貢寮區仁理村保健街73號","121.923725","25.0516816666667","6502600","貢寮區"
"228002","663-BX","2019/09/21 18:49:38","新北市貢寮區福隆里東興街6-11號","121.950746666667","25.02109","6502600","貢寮區"
"224006","676-BX","2019/09/21 18:49:38","新北市瑞芳區中正路38號","121.807143333333","25.107275","6501200","瑞芳區"
"224002","639-TC","2019/09/21 18:49:25","新北市瑞芳區傑魚坑路311-1號","121.794531666667","25.107465","6501200","瑞芳區"
"224007","285-BY","2019/09/21 18:49:39","新北市瑞芳區大埔路東泰新村10號","121.761446666667","25.10128","6501200","瑞芳區"
"224009","275-VK","2019/09/21 18:49:33","新北市瑞芳區祈堂路8號","121.858811666667","25.11428","6501200","瑞芳區"
"224008","273-VK","2019/09/21 18:49:23","新北市瑞芳區逢甲路338號","121.80295","25.1118033333333","6501200","瑞芳區"
"224005","271-BY","2019/09/21 18:49:27","新北市瑞芳區海濱路77-10號","121.831108333333","25.1233683333333","6501200","瑞芳區"
"227001","642-TC","2019/09/21 18:49:33","新北市雙溪區牡丹里下坑11號","121.85102","25.05621","6502500","雙溪區"
"227002","400-TW","2019/09/21 18:49:39","新北市雙溪區共和里中山路52號","121.86704","25.0319483333333","6502500","雙溪區"
"253005","032-BX","2019/09/21 18:49:35","新北市石門區石門街2巷30號","121.565878333333","25.29038","6502200","石門區"
"253006","295-VK","2019/09/21 18:49:42","新北市石門區下員坑15號","121.511675","25.28491","6502200","石門區"
"222001","KEA-2212","2019/09/21 18:49:33","新北市深坑區北深路一段32-3號","121.638411666667","25.010525","6501800","深坑區"
"208002","KEA-2872","2019/09/21 18:49:30","新北市金山區信義路72號","121.635096666667","25.2195633333333","6502700","金山區"
"208003","665-BX","2019/09/21 18:49:39","新北市金山區中山路273號","121.636353333333","25.2229633333333","6502700","金山區"
"251009","008-UM","2019/09/21 18:49:40","新北市淡水區中山北路一段104號","121.442631666667","25.1766666666667","6501000","淡水區"
"251002","012-UM","2019/09/21 18:49:30","新北市淡水區學府路71號","121.448306666667","25.1698033333333","6501000","淡水區"
"251015","KEA-2871","2019/09/21 18:49:37","新北市淡水區糞箕湖70號","121.485533333333","25.17183","6501000","淡水區"
"251016","179-VK","2019/09/21 18:49:28","新北市淡水區下圭柔山72號","121.445998333333","25.2047383333333","6501000","淡水區"
"251013","180-VK","2019/09/21 18:49:31","新北市淡水區安子內5號","121.484076666667","25.2151466666667","6501000","淡水區"
"251010","413-VK","2019/09/21 18:49:38","新北市淡水區沙崙路9號","121.42104","25.181215","6501000","淡水區"
"251012","441-VK","2019/09/21 18:49:36","新北市淡水區北新路2號","121.444293333333","25.1777533333333","6501000","淡水區"
"251001","559-UM","2019/09/21 18:49:25","新北市淡水區自強路108-17號","121.46176","25.130675","6501000","淡水區"
"251014","577-R6","2019/09/21 18:49:30","新北市淡水區崙頂3號","121.490953333333","25.2239266666667","6501000","淡水區"
"251011","650-BX","2019/09/21 18:49:25","新北市淡水區平遠街8號","121.448148333333","25.1679316666667","6501000","淡水區"
"251003","766-UM","2019/09/21 18:49:43","新北市淡水區中山北路一段212巷38號","121.446116666667","25.1790383333333","6501000","淡水區"
"207003","550-UM","2019/09/21 18:49:31","新北市萬里區野柳里港西路48號","121.679973333333","25.202215","6502800","萬里區"
"207004","291-VK","2019/09/21 18:49:38","新北市萬里區萬里里獅頭路23號","121.693211666667","25.1782883333333","6502800","萬里區"
"252002","178-VK","2019/09/21 18:49:43","新北市三芝區中正路一段112號","121.504845","25.2563616666667","6502100","三芝區"
"252003","292-VK","2019/09/21 18:49:32","新北市三芝區後厝里大片頭107號","121.458495","25.2429433333333","6502100","三芝區"
"208001","170-UY","2019/09/21 18:49:40","新北市金山區文化三路66巷1號","121.634225","25.2256333333333","6502700","金山區"
"237004","KEA-2597","2019/09/21 18:49:34","新北市三峽區有木3號","121.420563333333","24.8663983333333","6500900","三峽區"
"237007","153-BY","2019/09/21 18:49:35","新北市三峽區柑樹路2巷3號","121.362388333333","24.9058066666667","6500900","三峽區"
"237013","252-BX","2019/09/21 18:49:29","新北市三峽區光明路69巷25號","121.376578333333","24.9291266666667","6500900","三峽區"
"237012","275-BY","2019/09/21 18:49:35","新北市三峽區三樹路340號","121.38395","24.9433216666667","6500900","三峽區"
"237008","302-VK","2019/09/21 18:49:23","新北市三峽區白雞28-1號","121.370446666667","24.91216","6500900","三峽區"
"237014","433-BY","2019/09/21 18:49:25","新北市三峽區隆恩街158巷42號","121.36559","24.9449883333333","6500900","三峽區"
"237006","5529-G3","2019/09/21 18:49:28","新北市三峽區溪東路211巷13號","121.40522","24.9337566666667","6500900","三峽區"
"237011","KEA-2596","2019/09/21 18:49:26","新北市三峽區溪東路137號","121.40262","24.9342983333333","6500900","三峽區"
"237015","649-BX","2019/09/21 18:49:34","新北市三峽區建安71-1號","121.447775","24.9266733333333","6500900","三峽區"
"237010","706-TV","2019/09/21 18:49:39","新北市三峽區復興路465號","121.361878333333","24.9384866666667","6500900","三峽區"
"237005","AKY-6261","2019/09/21 18:49:31","新北市三峽區中山路321-2號","121.3608","24.9379466666667","6500900","三峽區"
"236042","KED-0685","2019/09/21 18:49:43","新北市土城區裕民路114巷27號","121.450308333333","24.9856666666667","6501300","土城區"
"236030","253-BX","2019/09/21 18:49:28","新北市土城區忠義路26巷10號","121.43983","24.96992","6501300","土城區"
"236026","269-VK","2019/09/21 18:49:33","新北市土城區興城路48號","121.441333333333","24.9726283333333","6501300","土城區"
"236014","270-VK","2019/09/21 18:49:34","新北市土城區金城路二段354巷18號","121.460908333333","24.98417","6501300","土城區"
"236038","271-VK","2019/09/21 18:49:38","新北市土城區明德路一段221巷5號","121.463673333333","24.9780766666667","6501300","土城區"
"236070","KEA-2877","2019/09/21 18:49:30","新北市土城區延和路21巷45號","121.463493333333","24.9893716666667","6501300","土城區"
"252001","KED-0821","2019/09/21 18:49:37","新北市三芝區中正路三段9號","121.502855","25.253985","6502100","三芝區"
"236021","401-BY","2019/09/21 18:49:39","新北市土城區延吉街253巷17號","121.46801","24.9841566666667","6501300","土城區"
"236079","752-BX","2019/09/21 18:49:13","新北市土城區中央路四段165巷25號","121.416233333333","24.9559016666667","6501300","土城區"
"236059","912-UM","2019/09/21 18:49:28","新北市土城區金城路二段12號","121.449156666667","24.977225","6501300","土城區"
"236049","913-UM","2019/09/21 18:49:33","新北市土城區青雲路44號","121.459823333333","24.98819","6501300","土城區"
"236063","915-UM","2019/09/21 18:49:26","新北市土城區延壽路55巷7弄2號","121.469533333333","24.9916716666667","6501300","土城區"
"236055","AAC-216","2019/09/21 18:49:40","新北市土城區裕民路184號","121.452893333333","24.9851433333333","6501300","土城區"
"242002","441-UM","2019/09/21 18:49:33","新北市樹林區八德街854號","121.39197","24.9686016666667","6500500","新莊區"
"242009","349-TH","2019/09/21 18:49:36","新北市新莊區環河路658-8號","121.436331666667","25.0072983333333","6500500","新莊區"
"238015","755-BX","2019/09/21 18:37:12","新北市樹林區備內街121號","121.40593","24.98945","6500700","樹林區"
"238023","601-UM","2019/09/21 18:49:29","新北市樹林區工興街14巷2號","121.398858333333","25.0135783333333","6500700","樹林區"
"238019","599-UM","2019/09/21 18:49:32","新北市樹林區中山路三段210-2號","121.38146","24.96555","6500700","樹林區"
"238024","5061-A6","2019/09/21 18:49:33","新北市樹林區太順街58號","121.418023333333","24.9793433333333","6500700","樹林區"
"238022","KEA-2213","2019/09/21 18:49:24","新北市樹林區中華路391號","121.411478333333","24.98049","6500700","樹林區"
"238021","KEA-2539","2019/09/21 18:49:38","新北市樹林區西圳街二段59號","121.387321666667","24.9600783333333","6500700","樹林區"
"238017","283-BY","2019/09/21 18:49:26","新北市樹林區光興街50號","121.409826666667","25.0027516666667","6500700","樹林區"
"238014","282-BY","2019/09/21 18:49:40","新北市樹林區大安路111巷25號","121.423166666667","24.99759","6500700","樹林區"
"238020","268-VK","2019/09/21 18:49:35","新北市樹林區俊英街223巷2號","121.42371","25.0133333333333","6500700","樹林區"
"238026","172-UY","2019/09/21 18:49:33","新北市樹林區中山路三段198號","121.387253333333","24.968965","6500700","樹林區"
"239007","AAC-297","2019/09/21 18:49:26","新北市鶯歌區建國路102號","121.353698333333","24.9543283333333","6500800","鶯歌區"
"239006","891-R6","2019/09/21 18:49:30","新北市鶯歌區鶯桃路296巷48-1號","121.33589","24.9612916666667","6500800","鶯歌區"
"239008","527-UM","2019/09/21 18:49:40","新北市鶯歌區朝陽街2號","121.336248333333","24.976575","6500800","鶯歌區"
"239005","526-UM","2019/09/21 18:49:36","新北市鶯歌區鳳吉三街9號","121.32655","24.9736266666667","6500800","鶯歌區"
"239001","417-VK","2019/09/21 18:49:34","新北市鶯歌區國中街178號","121.338138333333","24.939185","6500800","鶯歌區"
"239003","360-BY","2019/09/21 18:49:34","新北市鶯歌區永和街94號","121.334088333333","24.96871","6500800","鶯歌區"
"239002","359-BY","2019/09/21 18:49:24","新北市鶯歌區中山路300號","121.342915","24.957165","6500800","鶯歌區"
"239004","193-VK","2019/09/21 18:49:38","新北市鶯歌區中正三路156巷2-2號","121.33358","24.9398016666667","6500800","鶯歌區"
"221036","130-UY","2019/09/21 18:49:23","新北市汐止區大同路二段627號","121.664411666667","25.0710366666667","6501100","汐止區"
"221015","131-UY","2019/09/21 18:49:44","新北市汐止區鄉友街1號","121.667915","25.0806416666667","6501100","汐止區"
"244019","KED-0667","2019/09/21 18:49:31","新北市林口區麗園二街1巷9-1號","121.378756666667","25.070175","6501700","林口區"
"221023","279-VK","2019/09/21 18:49:39","新北市汐止區康寧街901號","121.650998333333","25.0752333333333","6501100","汐止區"
"221032","280-BY","2019/09/21 18:49:38","新北市汐止區橫科路121巷52弄3號","121.622578333333","25.0508816666667","6501100","汐止區"
"221029","298-VK","2019/09/21 18:49:40","新北市汐止區工建路66號","121.640406666667","25.062995","6501100","汐止區"
"221021","299-VK","2019/09/21 18:49:20","新北市汐止區新興路48號","121.657138333333","25.0631066666667","6501100","汐止區"
"221031","353-TW","2019/09/21 18:49:25","新北市汐止區福德一路274號","121.632113333333","25.0639566666667","6501100","汐止區"
"221035","622-UM","2019/09/21 18:49:44","新北市汐止區大同路二段91號","121.64937","25.0629466666667","6501100","汐止區"
"221025","623-UM","2019/09/21 18:49:25","新北市汐止區仁愛路113巷26號","121.661771666667","25.0643066666667","6501100","汐止區"
"221002","707-TV","2019/09/21 18:49:22","新北市汐止區大同路一段149號","121.632075","25.056125","6501100","汐止區"
"221018","753-BX","2019/09/21 18:49:36","新北市汐止區茄苳路258號","121.671768333333","25.0682883333333","6501100","汐止區"
"220079","145-BY","2019/09/21 18:49:42","新北市板橋區南雅西路二段192巷1弄19號","121.452281666667","25.014945","6500100","板橋區"
"220080","200-UY","2019/09/21 18:49:34","新北市板橋區大觀路二段265巷72弄21號","121.441645","24.996975","6500100","板橋區"
"220082","610-BX","2019/09/21 18:49:32","新北市板橋區篤行路三段玉平巷45號","121.428581666667","24.9868433333333","6500100","板橋區"
"220091","267-BY","2019/09/21 18:49:35","新北市板橋區雙十路二段47巷37號","121.474953333333","25.025365","6500100","板橋區"
"220056","276-BY","2019/09/21 18:49:38","新北市板橋區忠孝路2號","121.459316666667","25.0017133333333","6500100","板橋區"
"220072","277-BY","2019/09/21 18:49:38","新北市板橋區金門街25巷16號","121.434133333333","24.9943416666667","6500100","板橋區"
"220101","280-UM","2019/09/21 18:49:31","新北市板橋區莊敬路93號","121.472588333333","25.02632","6500100","板橋區"
"220071","283-VK","2019/09/21 18:49:24","新北市板橋區四川路一段30號","121.45951","25.0061466666667","6500100","板橋區"
"220094","285-UM","2019/09/21 18:49:34","新北市板橋區文化路二段76號","121.469495","25.0250433333333","6500100","板橋區"
"220053","285-VK","2019/09/21 18:49:37","新北市板橋區成功路48號","121.474993333333","25.0178466666667","6500100","板橋區"
"220083","286-VK","2019/09/21 18:49:31","新北市板橋區僑中三街40號","121.445206666667","25.0049333333333","6500100","板橋區"
"220081","287-VK","2019/09/21 18:49:31","新北市板橋區光華街13巷1號","121.453928333333","25.0114966666667","6500100","板橋區"
"220061","293-UM","2019/09/21 18:49:38","新北市板橋區富山街109巷128號","121.474438333333","25.0206683333333","6500100","板橋區"
"220084","296-UM","2019/09/21 18:49:38","新北市板橋區大觀路二段150巷30號","121.441628333333","24.9998533333333","6500100","板橋區"
"220075","303-R5","2019/09/21 18:49:25","新北市板橋區大觀路一段28巷96號","121.450483333333","25.0109716666667","6500100","板橋區"
"220062","305-R5","2019/09/21 18:49:32","新北市板橋區中山路二段25號","121.472445","25.0152833333333","6500100","板橋區"
"220092","307-R5","2019/09/21 18:49:31","新北市板橋區文化路一段136巷8弄10號","121.46562","25.0181533333333","6500100","板橋區"
"220098","317-R6","2019/09/21 18:49:35","新北市板橋區民生路二段234巷77號","121.47018","25.0225933333333","6500100","板橋區"
"220089","487-VK","2019/09/21 18:49:38","新北市板橋區文化路二段464號","121.475013333333","25.0326733333333","6500100","板橋區"
"220088","491-VK","2019/09/21 18:49:28","新北市板橋區文化路二段10號","121.468695","25.024175","6500100","板橋區"
"220035","560-BX","2019/09/21 18:49:42","新北市板橋區中正路275巷77號","121.452283333333","25.01811","6500100","板橋區"
"220103","561-BX","2019/09/21 18:49:24","新北市板橋區文化路一段188巷9弄86-3號","121.468975","25.0186983333333","6500100","板橋區"
"220063","609-BX","2019/09/21 18:49:29","新北市板橋區民生路一段80號","121.473596666667","25.015535","6500100","板橋區"
"220057","686-BX","2019/09/21 18:49:42","新北市板橋區成都街69號","121.4622","25.0049216666667","6500100","板橋區"
"220077","687-BX","2019/09/21 18:49:40","新北市板橋區大觀路二段174巷165弄2號","121.441925","25.0034783333333","6500100","板橋區"
"220093","689-BX","2019/09/21 18:49:33","新北市板橋區民生路三段42號","121.46726","25.02494","6500100","板橋區"
"220054","741-BX","2019/09/21 18:49:36","新北市板橋區館前東路21號","121.460276666667","25.0072533333333","6500100","板橋區"
"220102","KEA-2699","2019/09/21 18:49:37","新北市板橋區萬板路476號","121.479888333333","25.026015","6500100","板橋區"
"220055","827-TW","2019/09/21 18:49:37","新北市板橋區重慶路183號","121.462833333333","25.0022833333333","6500100","板橋區"
"220067","829-TW","2019/09/21 18:49:42","新北市板橋區三民路二段正隆巷26號","121.477388333333","25.0133366666667","6500100","板橋區"
"220090","831-TW","2019/09/21 18:49:40","新北市板橋區四維路221號","121.463203333333","25.0270383333333","6500100","板橋區"
"220074","895-R6","2019/09/21 18:49:43","新北市板橋區南門街59號","121.45712","25.0082733333333","6500100","板橋區"
"220073","985-R7","2019/09/21 18:49:32","新北市板橋區館前西路152號","121.455368333333","25.0084066666667","6500100","板橋區"
"220064","AAC-253","2019/09/21 18:49:24","新北市板橋區中山路一段279號","121.46983","25.01392","6500100","板橋區"
"235068","KEA-2873","2019/09/21 18:49:36","新北市中和區圓通路265巷27號","121.49588","24.992615","6500300","中和區"
"235061","KEA-2875","2019/09/21 18:49:36","新北市中和區民享街28號","121.473925","25.0036016666667","6500300","中和區"
"235062","KEA-2876","2019/09/21 18:49:13","新北市中和區中山路二段380-1號","121.491075","25.003515","6500300","中和區"
