"lineid","car","time","location","longitude","latitude","cityid","cityname"
"234046","148-BY","2019/09/21 18:59:34","新北市永和區得和路373巷16弄1號","121.52518","25.0003183333333","6500400","永和區"
"234081","298-R6","2019/09/21 18:59:40","新北市永和區永亨路83號","121.521951666667","25.0057433333333","6500400","永和區"
"234038","336-UY","2019/09/21 18:59:28","新北市永和區成功路二段207號","121.526571666667","24.9959466666667","6500400","永和區"
"234064","337-UY","2019/09/21 18:59:29","新北市永和區秀朗路一段172號","121.518696666667","25.0033483333333","6500400","永和區"
"234070","552-UM","2019/09/21 18:59:35","新北市永和區竹林路96巷2號","121.519251666667","25.0121066666667","6500400","永和區"
"234003","553-UM","2019/09/21 18:59:24","新北市永和區和平街38號","121.513011666667","25.0099716666667","6500400","永和區"
"234017","745-BX","2019/09/21 18:59:28","新北市永和區永和路二段299號","121.516046666667","25.0160983333333","6500400","永和區"
"234030","746-BX","2019/09/21 18:59:35","新北市永和區四維街67號","121.52574","24.9979766666667","6500400","永和區"
"234054","KEA-2590","2019/09/21 18:59:41","新北市永和區竹林路66巷4號","121.518208333333","25.0133616666667","6500400","永和區"
"234007","KED-0605","2019/09/21 18:59:32","新北市永和區中山路一段64號","121.512763333333","25.0107983333333","6500400","永和區"
"234013","KEA-2591","2019/09/21 18:59:27","新北市永和區中山路一段58號","121.512956666667","25.0108616666667","6500400","永和區"
"234061","AAD-866","2019/09/21 18:59:42","新北市永和區福和路309巷1號","121.516296666667","25.0070633333333","6500400","永和區"
"234086","748-BX","2019/09/21 18:59:30","新北市永和區永利路20號","121.518055","25.0057783333333","6500400","永和區"
"234042","862-TW","2019/09/21 18:59:25","新北市永和區永貞路306號","121.511868333333","25.0048583333333","6500400","永和區"
"234050","863-TW","2019/09/21 18:59:33","新北市永和區保安路2號","121.510828333333","25.0174066666667","6500400","永和區"
"234026","9381-KE","2019/09/21 18:59:34","新北市永和區安樂路451號","121.514315","25.004975","6500400","永和區"
"234011","9373-KE","2019/09/21 18:59:31","新北市永和區仁愛路141巷3弄26號","121.5123","25.0125066666667","6500400","永和區"
"249005","172-UM","2019/09/21 18:59:41","新北市八里區長道坑3-1號","121.393871666667","25.1242216666667","6502300","八里區"
"249001","173-UM","2019/09/21 18:59:40","新北市八里區龍米路二段228-1號","121.432726666667","25.1583983333333","6502300","八里區"
"249002","305-UY","2019/09/21 18:59:34","新北市八里區龍形一街33巷6-2號","121.449315","25.1294666666667","6502300","八里區"
"234023","9380-KE","2019/09/21 18:59:23","新北市永和區竹林路75巷25弄4號","121.5204","25.0142633333333","6500400","永和區"
"234077","969-R7","2019/09/21 18:59:38","新北市永和區得和路104巷14號","121.517826666667","24.9996033333333","6500400","永和區"
"234067","AAC-212","2019/09/21 18:59:39","新北市永和區自由街62號","121.513705","25.0057883333333","6500400","永和區"
"232011","076-UY","2019/09/21 18:59:41","新北市坪林區水聳淒坑25號","121.71149","24.934205","6502000","坪林區"
"244023","069-UM","2019/09/21 18:59:38","新北市林口區文化三路二段211巷85號","121.375","25.0840916666667","6501700","林口區"
"244013","KEA-2802","2019/09/21 18:59:25","新北市林口區麗園一街2巷2號","121.376266666667","25.0717283333333","6501700","林口區"
"244017","485-VK","2019/09/21 18:59:23","新北市林口區文化二路一段120巷5號","121.367883333333","25.07001","6501700","林口區"
"244009","656-BX","2019/09/21 18:59:26","新北市林口區林口路51號","121.389988333333","25.0794766666667","6501700","林口區"
"244011","701-TV","2019/09/21 18:59:29","新北市林口區中正路321號","121.388653333333","25.0776783333333","6501700","林口區"
"244025","837-TS","2019/09/21 18:59:38","新北市林口區南勢街192巷13號","121.361408333333","25.07506","6501700","林口區"
"243010","297-R6","2019/09/21 18:59:42","新北市泰山區辭修路24號","121.429048333333","25.0581783333333","6501600","泰山區"
"243014","KEA-2801","2019/09/21 18:59:40","新北市泰山區泰林路二段593號","121.421745","25.06352","6501600","泰山區"
"243009","KEA-2215","2019/09/21 18:59:41","新北市泰山區泰林路二段362號","121.42872","25.0636316666667","6501600","泰山區"
"243011","KEA-2216","2019/09/21 18:59:29","新北市泰山區明志路230號","121.427206666667","25.048215","6501600","泰山區"
"243015","680-BX","2019/09/21 18:59:34","新北市泰山區美寧街48號","121.430445","25.0644016666667","6501600","泰山區"
"222003","436-BY","2019/09/21 18:59:34","新北市深坑區深南路88巷1號","121.62143","25.0108183333333","6501800","深坑區"
"222002","659-BX","2019/09/21 18:59:36","新北市深坑區文山路一段31巷2號","121.629881666667","25.0033566666667","6501800","深坑區"
"231061","002-UM","2019/09/21 18:59:45","新北市新店區安華路28-1號","121.519698333333","24.96061","6500600","新店區"
"231044","046-UY","2019/09/21 18:59:27","新北市新店區寶中路72號","121.547845","24.980615","6500600","新店區"
"231060","106-UY","2019/09/21 18:59:33","新北市新店區安華路30巷1號","121.519241666667","24.9595083333333","6500600","新店區"
"231051","107-UY","2019/09/21 18:59:25","新北市新店區百忍街12號","121.534693333333","24.97563","6500600","新店區"
"231049","108-UY","2019/09/21 18:59:43","新北市新店區二十張路137號","121.535623333333","24.9791816666667","6500600","新店區"
"231065","110-UY","2019/09/21 18:59:34","新北市新店區安祥路147巷82號","121.47561","24.95548","6500600","新店區"
"231062","256-BX","2019/09/21 18:59:42","新北市新店區安豐路60號","121.498385","24.9539316666667","6500600","新店區"
"231054","260-TV","2019/09/21 18:59:33","新北市新店區新店路21號","121.540231666667","24.952805","6500600","新店區"
"231042","268-BY","2019/09/21 18:59:39","新北市新店區中興路一段280號","121.54552","24.968485","6500600","新店區"
"231064","278-BY","2019/09/21 18:59:40","新北市新店區安康路一段355號","121.519798333333","24.9628433333333","6500600","新店區"
"231050","AAD-862","2019/09/21 18:59:32","新北市新店區新烏路一段9-1號","121.54732","24.9514216666667","6500600","新店區"
"231045","355-BY","2019/09/21 18:59:35","新北市新店區安康路一段107-2號","121.528705","24.9616666666667","6500600","新店區"
"231058","3713-VJ","2019/09/21 18:59:40","新北市新店區中興路一段267號","121.544825","24.9675683333333","6500600","新店區"
"231055","4716-K9","2019/09/21 18:59:33","新北市新店區中央路185號","121.536861666667","24.9690216666667","6500600","新店區"
"231056","4715-K9","2019/09/21 18:59:35","新北市新店區民權路109號","121.536273333333","24.9820483333333","6500600","新店區"
"231067","4772-VM","2019/09/21 18:59:37","新北市新店區安康路一段76巷18-1號","121.528675","24.9628","6500600","新店區"
"231052","513-UM","2019/09/21 18:59:35","新北市新店區櫻花街55巷12號","121.549013333333","24.924505","6500600","新店區"
"231041","619-UM","2019/09/21 18:59:39","新北市新店區秀山路14號","121.532735","24.96033","6500600","新店區"
"231063","641-BX","2019/09/21 18:59:38","新北市新店區安忠路57巷26弄74號","121.512343333333","24.957015","6500600","新店區"
"231048","KED-0819","2019/09/21 18:59:26","新北市新店區德正街23巷12-1號","121.544648333333","24.9722383333333","6500600","新店區"
"231046","719-UM","2019/09/21 18:59:39","新北市新店區直潭二街23號","121.535523333333","24.942075","6500600","新店區"
"231057","720-UM","2019/09/21 18:59:36","新北市新店區百齡一路12號","121.553078333333","24.9324483333333","6500600","新店區"
"231059","897-TW","2019/09/21 18:59:34","新北市新店區安華路28-1號","121.519546666667","24.9608583333333","6500600","新店區"
"231040","898-TW","2019/09/21 18:59:37","新北市新店區中央路57號","121.532776666667","24.9773566666667","6500600","新店區"
"231043","899-TW","2019/09/21 18:59:38","新北市新店區北新路二段1號","121.542666666667","24.9711033333333","6500600","新店區"
"231066","AKT-0513","2019/09/21 18:59:37","新北市新店區安豐路37號","121.500575","24.9563333333333","6500600","新店區"
"241029","942-UM","2019/09/21 18:59:41","新北市三重區重安街14號","121.490223333333","25.05823","6500200","三重區"
"235066","003-UY","2019/09/21 18:59:25","新北市中和區中山路二段131巷2弄1號","121.502721666667","25.0027","6500300","中和區"
"235056","096-UM","2019/09/21 18:59:34","新北市板橋區三民路二段204-4號","121.478945","25.0124633333333","6500300","中和區"
"235039","097-UM","2019/09/21 18:59:25","新北市中和區自強路35號","121.52092","24.9925933333333","6500300","中和區"
"235065","098-UM","2019/09/21 18:59:38","新北市中和區勝利路35巷1弄35號","121.500366666667","25.0080283333333","6500300","中和區"
"235040","150-BY","2019/09/21 18:59:32","新北市中和區宜安路10號","121.51344","24.9955516666667","6500300","中和區"
"235058","151-BY","2019/09/21 18:59:42","新北市中和區員山路36巷16-2號","121.485425","24.9914233333333","6500300","中和區"
"235038","185-VK","2019/09/21 18:59:33","新北市中和區立人街24-5號","121.518873333333","24.99414","6500300","中和區"
"235049","186-VK","2019/09/21 18:59:22","新北市中和區明仁街20號","121.506371666667","24.9953816666667","6500300","中和區"
"235067","255-BX","2019/09/21 18:59:39","新北市中和區新生街166巷9號","121.483096666667","25.0001566666667","6500300","中和區"
"235044","293-VK","2019/09/21 18:59:40","新北市中和區中興街202巷8號","121.498848333333","24.9904266666667","6500300","中和區"
"235072","301-VK","2019/09/21 18:59:41","新北市中和區福美路304號","121.496961666667","25.0048933333333","6500300","中和區"
"235043","352-BY","2019/09/21 18:59:36","新北市中和區景平路2號","121.524595","24.990595","6500300","中和區"
"235042","KEA-2878","2019/09/21 18:59:25","新北市中和區秀朗路三段22巷12號","121.525828333333","24.996245","6500300","中和區"
"235050","4979-A6","2019/09/21 18:59:27","新北市中和區忠孝街56號","121.511488333333","24.9836283333333","6500300","中和區"
"235069","4980-A6","2019/09/21 18:59:33","新北市中和區圓通路6號","121.501813333333","24.9981116666667","6500300","中和區"
"235070","558-UM","2019/09/21 18:59:31","新北市中和區中和路219號","121.504318333333","24.9997983333333","6500300","中和區"
"235045","565-BX","2019/09/21 18:59:27","新北市中和區景新街467巷22號","121.51422","24.9883066666667","6500300","中和區"
"235060","KED-0823","2019/09/21 18:59:32","新北市中和區民治街154號","121.475431666667","25.0015783333333","6500300","中和區"
"235054","640-BX","2019/09/21 18:59:30","新北市中和區民德路158號","121.468585","24.999985","6500300","中和區"
"235047","732-UM","2019/09/21 18:59:39","新北市中和區興南路二段74巷12號","121.505246666667","24.9850133333333","6500300","中和區"
"235046","733-UM","2019/09/21 18:59:38","新北市中和區興南路二段33號","121.507731666667","24.9858","6500300","中和區"
"235057","801-TS","2019/09/21 18:59:37","新北市中和區民利街80號","121.478161666667","24.9981416666667","6500300","中和區"
"235041","802-TS","2019/09/21 18:59:34","新北市中和區景安路21號","121.507788333333","24.998865","6500300","中和區"
"235052","805-TS","2019/09/21 18:59:42","新北市中和區興南路二段162號","121.503755","24.9827566666667","6500300","中和區"
"235048","896-TW","2019/09/21 18:59:30","新北市中和區華新街143巷45弄16號","121.507411666667","24.9809583333333","6500300","中和區"
"235053","900-TW","2019/09/21 18:59:29","新北市板橋區和平路174巷1弄8號","121.464388333333","24.9952083333333","6500300","中和區"
"235064","911-UM","2019/09/21 18:59:32","新北市中和區泰和街38巷29號","121.498551666667","25.0010683333333","6500300","中和區"
"235051","157-BY","2019/09/21 18:59:30","新北市中和區忠孝街17號","121.510163333333","24.9829016666667","6500300","中和區"
"235059","AAC-215","2019/09/21 18:59:42","新北市中和區圓通路369巷33-1號","121.491115","24.98795","6500300","中和區"
"220065","072-UY","2019/09/21 18:59:26","新北市板橋區漢生東路324號","121.471823333333","25.0079633333333","6500100","板橋區"
"220086","073-UY","2019/09/21 18:59:41","新北市板橋區大智街28號","121.455438333333","25.015005","6500100","板橋區"
"220106","075-UY","2019/09/21 18:59:33","新北市板橋區雙十路三段10巷11號","121.472186666667","25.03087","6500100","板橋區"
"220069","AAD-861","2019/09/21 18:59:37","新北市板橋區東興街18號","121.458313333333","25.0053383333333","6500100","板橋區"
"220068","120-SR","2019/09/21 18:59:25","新北市板橋區中山路二段465巷92-1號","121.481138333333","25.0225216666667","6500100","板橋區"
"226004","312-R5","2019/09/21 18:59:27","新北市平溪區靜安路二段462巷17號","121.741163333333","25.024935","6502400","平溪區"
"235063","251-BX","2019/09/21 18:59:41","新北市中和區中正路530號","121.487816666667","24.994405","6500300","中和區"
"228003","097-TW","2019/09/21 18:59:45","新北市貢寮區和美里龍洞街56-3號","121.91241","25.1141883333333","6502600","貢寮區"
"228001","212-TW","2019/09/21 18:59:33","新北市貢寮區仁理村保健街73號","121.923713333333","25.0516616666667","6502600","貢寮區"
"228002","663-BX","2019/09/21 18:59:38","新北市貢寮區福隆里東興街106巷25弄1號","121.946416666667","25.0183116666667","6502600","貢寮區"
"224006","676-BX","2019/09/21 18:59:38","新北市瑞芳區三爪子坑路118-3號","121.806505","25.1053283333333","6501200","瑞芳區"
"224002","639-TC","2019/09/21 18:59:25","新北市瑞芳區靜安路四段10號","121.795068333333","25.0859316666667","6501200","瑞芳區"
"224007","285-BY","2019/09/21 18:59:39","新北市瑞芳區中央路48巷174號","121.759058333333","25.103335","6501200","瑞芳區"
"224009","275-VK","2019/09/21 18:59:33","新北市瑞芳區長仁路35-1號","121.866041666667","25.1179183333333","6501200","瑞芳區"
"224008","273-VK","2019/09/21 18:59:42","新北市瑞芳區逢甲路424號","121.798681666667","25.1167116666667","6501200","瑞芳區"
"224005","271-BY","2019/09/21 18:59:27","新北市瑞芳區明燈路二段66號","121.809318333333","25.1075433333333","6501200","瑞芳區"
"227001","642-TC","2019/09/21 18:59:32","新北市雙溪區牡丹里中正路60號","121.866108333333","25.0423883333333","6502500","雙溪區"
"227002","400-TW","2019/09/21 18:59:39","新北市雙溪區平林里康福家園1號","121.858338333333","25.0374733333333","6502500","雙溪區"
"253005","032-BX","2019/09/21 18:59:35","新北市石門區中央路37-5號","121.569245","25.2962633333333","6502200","石門區"
"253006","295-VK","2019/09/21 18:59:42","新北市石門區八甲4-3號","121.52095","25.2830383333333","6502200","石門區"
"222001","KEA-2212","2019/09/21 18:59:33","新北市深坑區北深路一段300號","121.624411666667","25.00584","6501800","深坑區"
"208002","KEA-2872","2019/09/21 18:59:30","新北市金山區仁愛路67巷4號","121.634541666667","25.220905","6502700","金山區"
"208003","665-BX","2019/09/21 18:59:42","新北市金山區中正路149號","121.631771666667","25.22136","6502700","金山區"
"251009","008-UM","2019/09/21 18:59:40","新北市淡水區重建街118號","121.440233333333","25.1730266666667","6501000","淡水區"
"251002","012-UM","2019/09/21 18:59:30","新北市淡水區中正東路55-4號","121.446848333333","25.16793","6501000","淡水區"
"251015","KEA-2871","2019/09/21 18:59:37","新北市淡水區糞箕湖92號","121.48581","25.1726216666667","6501000","淡水區"
"251016","179-VK","2019/09/21 18:59:28","新北市淡水區淡金路三段327號","121.448635","25.2061816666667","6501000","淡水區"
"251013","180-VK","2019/09/21 18:59:31","新北市淡水區安子內3號","121.489123333333","25.2146833333333","6501000","淡水區"
"251010","413-VK","2019/09/21 18:59:38","新北市淡水區中正路一段156巷12號","121.42178","25.1807966666667","6501000","淡水區"
"251012","441-VK","2019/09/21 18:59:36","新北市淡水區新春街126巷15弄17號","121.4407","25.18092","6501000","淡水區"
"251007","442-VK","2019/09/21 18:59:38","新北市淡水區民生路113巷1弄36號","121.463216666667","25.1386916666667","6501000","淡水區"
"251001","559-UM","2019/09/21 18:59:25","新北市淡水區自強路58號","121.463201666667","25.1275416666667","6501000","淡水區"
"251014","577-R6","2019/09/21 18:59:31","新北市淡水區小中寮23-2號","121.489581666667","25.2297433333333","6501000","淡水區"
"251011","650-BX","2019/09/21 18:59:25","新北市淡水區鄧公路30巷2弄32號","121.453863333333","25.1690366666667","6501000","淡水區"
"251003","766-UM","2019/09/21 18:59:23","新北市淡水區中山北路一段149巷24號","121.442986666667","25.1780133333333","6501000","淡水區"
"207003","550-UM","2019/09/21 18:59:31","新北市萬里區大鵬里頂社2-1號","121.66039","25.2072533333333","6502800","萬里區"
"207004","291-VK","2019/09/21 18:59:38","新北市萬里區萬里里獅頭路23號","121.693211666667","25.1782866666667","6502800","萬里區"
"252002","178-VK","2019/09/21 18:59:23","新北市三芝區中正路一段40號","121.503313333333","25.258285","6502100","三芝區"
"252003","292-VK","2019/09/21 18:59:32","新北市三芝區後厝里北勢子42-11號","121.47158","25.2520883333333","6502100","三芝區"
"208001","170-UY","2019/09/21 18:59:40","新北市金山區金包里街2號","121.640666666667","25.220485","6502700","金山區"
"237004","KEA-2597","2019/09/21 18:59:42","新北市三峽區有木194號","121.447935","24.84475","6500900","三峽區"
"237007","153-BY","2019/09/21 18:59:35","新北市三峽區大埔路55號","121.366175","24.9088633333333","6500900","三峽區"
"237013","252-BX","2019/09/21 18:59:29","新北市三峽區光明路69巷25號","121.37658","24.9291633333333","6500900","三峽區"
"237012","275-BY","2019/09/21 18:59:35","新北市三峽區三樹路222巷72-1號","121.383233333333","24.9422316666667","6500900","三峽區"
"237008","302-VK","2019/09/21 18:59:23","新北市三峽區中正路一段191巷4號","121.372853333333","24.9276416666667","6500900","三峽區"
"237014","433-BY","2019/09/21 18:59:25","新北市三峽區隆恩街232號","121.357798333333","24.941185","6500900","三峽區"
"237006","5529-G3","2019/09/21 18:59:28","新北市三峽區溪東路233巷45弄4號","121.409633333333","24.9333266666667","6500900","三峽區"
"237011","KEA-2596","2019/09/21 18:59:26","新北市三峽區介壽路三段231-2號","121.404751666667","24.9459033333333","6500900","三峽區"
"237015","649-BX","2019/09/21 18:59:34","新北市三峽區建安77-1號","121.451276666667","24.92344","6500900","三峽區"
"237010","706-TV","2019/09/21 18:59:38","新北市三峽區復興路257號","121.366836666667","24.9389383333333","6500900","三峽區"
"237005","AKY-6261","2019/09/21 18:59:31","新北市三峽區中山路459巷135號","121.349063333333","24.9333383333333","6500900","三峽區"
"236042","KED-0685","2019/09/21 18:59:40","新北市土城區學府路一段209巷9號","121.452173333333","24.9841733333333","6501300","土城區"
"236030","253-BX","2019/09/21 18:59:28","新北市土城區慶利街11號","121.439525","24.9736683333333","6501300","土城區"
"236026","269-VK","2019/09/21 18:59:35","新北市土城區光明街17號","121.442081666667","24.974475","6501300","土城區"
"236014","270-VK","2019/09/21 18:59:44","新北市土城區永豐路29巷1號","121.462973333333","24.9882416666667","6501300","土城區"
"236038","271-VK","2019/09/21 18:59:38","新北市土城區明德路一段196巷13號","121.461301666667","24.9783683333333","6501300","土城區"
"236070","KEA-2877","2019/09/21 18:59:30","新北市土城區清水路99巷13號","121.456753333333","24.9823483333333","6501300","土城區"
"252001","KED-0821","2019/09/21 18:59:37","新北市三芝區中興街二段242號","121.501725","25.25305","6502100","三芝區"
"236021","401-BY","2019/09/21 18:59:39","新北市土城區明峰街48號","121.467701666667","24.9864066666667","6501300","土城區"
"236079","752-BX","2019/09/21 18:59:33","新北市土城區中央路四段228號","121.415466666667","24.9571616666667","6501300","土城區"
"236059","912-UM","2019/09/21 18:59:37","新北市土城區金城路二段248號","121.456965","24.9832633333333","6501300","土城區"
"236049","913-UM","2019/09/21 18:59:33","新北市土城區青雲路145號","121.458706666667","24.9841366666667","6501300","土城區"
"236063","915-UM","2019/09/21 18:59:26","新北市土城區金城路三段207巷8弄23號","121.47051","24.9907883333333","6501300","土城區"
"236055","AAC-216","2019/09/21 18:59:40","新北市土城區學成路147號","121.44872","24.9895533333333","6501300","土城區"
"242009","349-TH","2019/09/21 18:59:16","新北市樹林區環河路600號","121.404553333333","24.96934","6500500","新莊區"
"238015","755-BX","2019/09/21 18:37:12","新北市樹林區備內街121號","121.40593","24.98945","6500700","樹林區"
"238023","601-UM","2019/09/21 18:59:30","新北市樹林區大慶街78號","121.396115","25.0139633333333","6500700","樹林區"
"238019","599-UM","2019/09/21 18:59:32","新北市樹林區中華路190-16號","121.411878333333","24.9806016666667","6500700","樹林區"
"238022","KEA-2213","2019/09/21 18:59:31","新北市樹林區東興街43號","121.410613333333","24.9776666666667","6500700","樹林區"
"238021","KEA-2539","2019/09/21 18:59:38","新北市樹林區柑園街二段320號","121.373238333333","24.9516883333333","6500700","樹林區"
"238025","303-VK","2019/09/21 18:59:30","新北市樹林區中山路三段22號","121.395606666667","24.97296","6500700","樹林區"
"238017","283-BY","2019/09/21 18:59:26","新北市樹林區光興街50號","121.409808333333","25.002735","6500700","樹林區"
"238014","282-BY","2019/09/21 18:59:40","新北市樹林區潭興街143巷6號","121.42561","24.99992","6500700","樹林區"
"238020","268-VK","2019/09/21 18:59:36","新北市樹林區俊英街280號","121.423808333333","25.0131716666667","6500700","樹林區"
"238026","172-UY","2019/09/21 18:59:33","新北市樹林區中和街14巷1號","121.391046666667","24.9733516666667","6500700","樹林區"
"238016","169-UY","2019/09/21 18:59:29","新北市樹林區復興路274號","121.418091666667","24.988435","6500700","樹林區"
"239007","AAC-297","2019/09/21 18:59:26","新北市鶯歌區中正一路478號","121.366498333333","24.9568233333333","6500800","鶯歌區"
"239006","891-R6","2019/09/21 18:59:30","新北市鶯歌區鶯桃路296巷48-1號","121.335898333333","24.9612566666667","6500800","鶯歌區"
"239008","527-UM","2019/09/21 18:59:39","新北市鶯歌區晨曦街37號","121.338145","24.977085","6500800","鶯歌區"
"239005","526-UM","2019/09/21 18:59:36","新北市鶯歌區鳳吉一街134號","121.327993333333","24.9750566666667","6500800","鶯歌區"
"239001","417-VK","2019/09/21 18:59:34","新北市鶯歌區中正三路169號","121.336625","24.9394833333333","6500800","鶯歌區"
"239003","360-BY","2019/09/21 18:59:34","新北市鶯歌區永和街61號","121.332778333333","24.9676333333333","6500800","鶯歌區"
"239002","359-BY","2019/09/21 18:59:24","新北市鶯歌區中山路291號","121.344546666667","24.9569233333333","6500800","鶯歌區"
"239004","193-VK","2019/09/21 18:59:38","新北市鶯歌區中正三路247巷62號","121.33357","24.9367733333333","6500800","鶯歌區"
"221008","489-VK","2019/09/21 18:59:36","新北市汐止區康寧街582號","121.635068333333","25.0699483333333","6501100","汐止區"
"221036","130-UY","2019/09/21 18:59:23","新北市汐止區忠孝東路348號","121.665393333333","25.06948","6501100","汐止區"
"221015","131-UY","2019/09/21 18:59:35","新北市汐止區鄉長路一段295號","121.669261666667","25.0795366666667","6501100","汐止區"
"244019","KED-0667","2019/09/21 18:59:31","新北市林口區文化二路一段577號","121.375728333333","25.0783933333333","6501700","林口區"
"221023","279-VK","2019/09/21 18:59:38","新北市汐止區康寧街901號","121.650981666667","25.07521","6501100","汐止區"
"221032","280-BY","2019/09/21 18:59:38","新北市汐止區橫科路407巷30弄21號","121.627123333333","25.048115","6501100","汐止區"
"221029","298-VK","2019/09/21 18:59:40","新北市汐止區樟樹一路234號","121.64229","25.0667833333333","6501100","汐止區"
"221031","353-TW","2019/09/21 18:59:25","新北市汐止區福德一路300巷33號","121.630441666667","25.0642933333333","6501100","汐止區"
"221035","622-UM","2019/09/21 18:59:24","新北市汐止區水源路一段2號","121.656898333333","25.0671333333333","6501100","汐止區"
"221002","707-TV","2019/09/21 18:59:42","台北市南港區南港路一段2號","121.620461666667","25.0548583333333","6501100","汐止區"
"220079","145-BY","2019/09/21 18:59:36","新北市板橋區大智街71巷2號","121.453458333333","25.0153666666667","6500100","板橋區"
"220080","200-UY","2019/09/21 18:59:39","新北市板橋區大觀路二段文和巷81號","121.444228333333","24.9983","6500100","板橋區"
"220082","610-BX","2019/09/21 18:59:30","新北市板橋區篤行路二段136號","121.429835","24.9884983333333","6500100","板橋區"
"220091","267-BY","2019/09/21 18:59:35","新北市板橋區大同街8巷53號","121.477743333333","25.0264633333333","6500100","板橋區"
"220056","276-BY","2019/09/21 18:59:38","新北市板橋區信義路147號","121.458208333333","24.9928083333333","6500100","板橋區"
"220072","277-BY","2019/09/21 18:59:38","新北市板橋區大觀路三段36巷6號","121.43389","24.995975","6500100","板橋區"
"220101","280-UM","2019/09/21 18:59:31","新北市板橋區民生路二段188號","121.470113333333","25.0207083333333","6500100","板橋區"
"220071","283-VK","2019/09/21 18:59:44","新北市板橋區忠孝路196巷26號","121.46546","25.00159","6500100","板橋區"
"220094","285-UM","2019/09/21 18:59:34","新北市板橋區光武街169號","121.465286666667","25.0300133333333","6500100","板橋區"
"220053","285-VK","2019/09/21 18:59:38","新北市板橋區太和街6巷1號","121.473686666667","25.0201333333333","6500100","板橋區"
"220083","286-VK","2019/09/21 18:59:31","新北市板橋區大觀路一段38巷156弄9號","121.442455","25.0050466666667","6500100","板橋區"
"220081","287-VK","2019/09/21 18:59:35","新北市板橋區光華街19巷7號","121.45344","25.0120233333333","6500100","板橋區"
"220061","293-UM","2019/09/21 18:59:38","新北市板橋區中山路2段267-1號","121.477531666667","25.0180283333333","6500100","板橋區"
"220084","296-UM","2019/09/21 18:59:38","新北市板橋區龍興街63巷2號","121.443078333333","25.0013633333333","6500100","板橋區"
"220075","303-R5","2019/09/21 18:59:25","新北市板橋區館前西路213巷22號","121.45415","25.0079716666667","6500100","板橋區"
"220062","305-R5","2019/09/21 18:59:32","新北市板橋區民享街115號","121.477923333333","25.01634","6500100","板橋區"
"220092","307-R5","2019/09/21 18:59:35","新北市板橋區文化路二段225巷60弄44號","121.469171666667","25.029455","6500100","板橋區"
"220098","317-R6","2019/09/21 18:59:34","新北市板橋區民生路二段226巷31弄2號","121.471243333333","25.02219","6500100","板橋區"
"220089","487-VK","2019/09/21 18:59:38","新北市板橋區文化路二段145號","121.47012","25.0269933333333","6500100","板橋區"
"220088","491-VK","2019/09/21 18:59:34","新北市板橋區文化路二段182巷7弄9號","121.472248333333","25.0273733333333","6500100","板橋區"
"220035","560-BX","2019/09/21 18:59:27","新北市板橋區中正路277號","121.455536666667","25.018985","6500100","板橋區"
"220103","561-BX","2019/09/21 18:59:24","新北市板橋區介壽街61號","121.469216666667","25.0195866666667","6500100","板橋區"
"220063","609-BX","2019/09/21 18:59:29","新北市板橋區三民路二段79號","121.479371666667","25.0167766666667","6500100","板橋區"
"220057","686-BX","2019/09/21 18:59:42","新北市板橋區重慶路293-1號","121.46334","24.9991166666667","6500100","板橋區"
"220077","687-BX","2019/09/21 18:59:40","新北市板橋區龍興街56號","121.44333","25.00128","6500100","板橋區"
"220093","689-BX","2019/09/21 18:59:33","新北市板橋區民生路三段257號","121.464573333333","25.0293916666667","6500100","板橋區"
"220054","741-BX","2019/09/21 18:59:37","新北市板橋區重慶路127巷18號","121.463615","25.0048866666667","6500100","板橋區"
"220102","KEA-2699","2019/09/21 18:59:36","新北市板橋區田單街2巷28號","121.48216","25.0279783333333","6500100","板橋區"
"220055","827-TW","2019/09/21 18:59:25","新北市板橋區中山路一段128號","121.463308333333","25.0108416666667","6500100","板橋區"
"220067","829-TW","2019/09/21 18:59:27","新北市板橋區民享街116巷7號","121.478321666667","25.0156316666667","6500100","板橋區"
"220090","831-TW","2019/09/21 18:59:40","新北市板橋區裕民街33號","121.461751666667","25.0287783333333","6500100","板橋區"
"220074","895-R6","2019/09/21 18:59:40","新北市板橋區府中路120號","121.455386666667","25.0094583333333","6500100","板橋區"
"220073","985-R7","2019/09/21 18:59:32","新北市板橋區中正路149號","121.456513333333","25.0158766666667","6500100","板橋區"
"220097","AAC-210","2019/09/21 18:59:35","新北市板橋區幸福路70巷30號","121.46021","25.020955","6500100","板橋區"
"220064","AAC-253","2019/09/21 18:59:25","新北市板橋區中山路一段283巷2弄25號","121.470606666667","25.0153716666667","6500100","板橋區"
"235068","KEA-2873","2019/09/21 18:59:33","新北市中和區圓通路162巷1號","121.497186666667","24.9953133333333","6500300","中和區"
"235061","KEA-2875","2019/09/21 18:59:36","新北市中和區中山路三段53號","121.476771666667","25.0057233333333","6500300","中和區"
"235062","KEA-2876","2019/09/21 18:59:43","新北市中和區中正路866-5號","121.484571666667","25.0060966666667","6500300","中和區"
