"lineid","car","time","location","longitude","latitude","cityid","cityname"
"234046","148-BY","2019/09/21 19:49:41","新北市永和區永利路141號","121.524196666667","25.003365","6500400","永和區"
"234081","298-R6","2019/09/21 19:49:21","新北市永和區林森路49號","121.52459","25.0043166666667","6500400","永和區"
"234038","336-UY","2019/09/21 19:49:43","新北市永和區民樂街57巷19號","121.528366666667","24.9986683333333","6500400","永和區"
"234064","337-UY","2019/09/21 19:49:29","新北市永和區中正路368巷18號","121.518478333333","25.0007666666667","6500400","永和區"
"234070","552-UM","2019/09/21 19:49:35","新北市永和區竹林路88號","121.519426666667","25.012585","6500400","永和區"
"234003","553-UM","2019/09/21 19:49:24","新北市永和區福和路316-1號","121.516028333333","25.0073016666667","6500400","永和區"
"234017","745-BX","2019/09/21 19:49:28","新北市永和區永和路二段299號","121.516093333333","25.016165","6500400","永和區"
"234030","746-BX","2019/09/21 19:49:38","新北市永和區民生路22巷7號","121.522048333333","24.9972533333333","6500400","永和區"
"234054","KEA-2590","2019/09/21 19:49:28","新北市永和區竹林路75巷25弄5號","121.520106666667","25.01438","6500400","永和區"
"234007","KED-0605","2019/09/21 19:49:32","新北市永和區保生路22巷19弄6號","121.507195","25.00833","6500400","永和區"
"234013","KEA-2591","2019/09/21 19:49:29","新北市永和區仁愛路186巷2號","121.510035","25.0126466666667","6500400","永和區"
"234061","AAD-866","2019/09/21 19:49:42","新北市永和區中正路106號","121.51441","24.9958933333333","6500400","永和區"
"234086","748-BX","2019/09/21 19:49:30","新北市永和區永利路12號","121.517671666667","25.0059283333333","6500400","永和區"
"234042","862-TW","2019/09/21 19:49:25","新北市永和區中和路305巷18弄1號","121.507615","25.00169","6500400","永和區"
"234050","863-TW","2019/09/21 19:49:33","新北市永和區保安路144號","121.508591666667","25.0148883333333","6500400","永和區"
"234026","9381-KE","2019/09/21 19:49:34","新北市永和區雙和街25巷5號","121.50895","25.001925","6500400","永和區"
"234011","9373-KE","2019/09/21 19:49:31","新北市永和區仁愛路352巷112弄17號","121.501145","25.008635","6500400","永和區"
"249005","172-UM","2019/09/21 19:49:41","新北市八里區中華路三段186號","121.390713333333","25.1273716666667","6502300","八里區"
"249004","303-UY","2019/09/21 19:49:37","新北市八里區仁愛路31號","121.413896666667","25.1610333333333","6502300","八里區"
"249002","305-UY","2019/09/21 19:49:34","新北市八里區頂寮五街17號","121.451521666667","25.12599","6502300","八里區"
"249003","593-UM","2019/09/21 19:49:40","新北市八里區華峰三街37號","121.398625","25.1454933333333","6502300","八里區"
"234023","9380-KE","2019/09/21 19:49:43","新北市永和區仁愛路295號","121.504873333333","25.0092233333333","6500400","永和區"
"234077","969-R7","2019/09/21 19:49:38","新北市永和區中正路264號","121.516891666667","24.99877","6500400","永和區"
"234074","AAC-211","2019/09/21 19:49:35","新北市永和區竹林路211號","121.520636666667","25.0088466666667","6500400","永和區"
"234067","AAC-212","2019/09/21 19:49:43","新北市永和區永平路179號","121.510338333333","25.0091883333333","6500400","永和區"
"243012","AAD-798","2019/09/21 19:49:33","新北市泰山區仁愛路100巷27號","121.433493333333","25.0550483333333","6501600","泰山區"
"243016","421-VK","2019/09/21 19:48:40","新北市泰山區貴鳳街1號","121.421431666667","25.03165","6501600","泰山區"
"243009","KEA-2215","2019/09/21 19:49:41","新北市泰山區美寧街60號","121.430931666667","25.0646283333333","6501600","泰山區"
"243011","KEA-2216","2019/09/21 19:49:29","新北市泰山區明志路三段196巷21弄24號","121.422575","25.0385383333333","6501600","泰山區"
"222003","436-BY","2019/09/21 19:49:34","新北市深坑區深南路51-1號","121.62118","25.0097783333333","6501800","深坑區"
"222002","659-BX","2019/09/21 19:49:36","新北市深坑區北深路一段300號","121.624703333333","25.00602","6501800","深坑區"
"231061","002-UM","2019/09/21 19:49:25","新北市新店區安民街158號","121.516761666667","24.9702766666667","6500600","新店區"
"231044","046-UY","2019/09/21 19:49:27","新北市新店區復興路76號","121.537583333333","24.9868783333333","6500600","新店區"
"231060","106-UY","2019/09/21 19:49:33","新北市新店區安康路二段159巷2號","121.510325","24.9592983333333","6500600","新店區"
"231051","107-UY","2019/09/21 19:49:25","新北市新店區中央三街7號","121.529516666667","24.97347","6500600","新店區"
"231049","108-UY","2019/09/21 19:49:27","新北市新店區民權路127巷13號","121.535681666667","24.981785","6500600","新店區"
"231065","110-UY","2019/09/21 19:49:33","新北市新店區安祥路109巷151弄16號","121.477758333333","24.95879","6500600","新店區"
"231068","187-VK","2019/09/21 19:49:38","新北市新店區安一路一段1-1號","121.519556666667","24.9613216666667","6500600","新店區"
"231062","256-BX","2019/09/21 19:49:42","新北市新店區永業路35號","121.532653333333","24.9553833333333","6500600","新店區"
"231054","260-TV","2019/09/21 19:49:41","新北市新店區光明街1號","121.538256666667","24.9589716666667","6500600","新店區"
"231042","268-BY","2019/09/21 19:49:39","新北市新店區中興路一段268-2號","121.545165","24.9678766666667","6500600","新店區"
"231064","278-BY","2019/09/21 19:49:39","新北市新店區光華街5巷6號","121.517761666667","24.9687366666667","6500600","新店區"
"231050","AAD-862","2019/09/21 19:49:32","新北市新店區北宜路二段579巷1號","121.565753333333","24.9536433333333","6500600","新店區"
"231045","355-BY","2019/09/21 19:49:35","新北市新店區北宜路二段322號","121.561966666667","24.953955","6500600","新店區"
"231056","4715-K9","2019/09/21 19:49:35","新北市新店區民權路42巷35號","121.539168333333","24.98367","6500600","新店區"
"231067","4772-VM","2019/09/21 19:49:36","新北市新店區精忠路10-1號","121.532573333333","24.9591466666667","6500600","新店區"
"231052","513-UM","2019/09/21 19:49:35","新北市新店區新烏路三段338號","121.546618333333","24.89592","6500600","新店區"
"231063","641-BX","2019/09/21 19:49:38","新北市新店區車子路11號","121.503065","24.9521183333333","6500600","新店區"
"231048","KED-0819","2019/09/21 19:49:26","新北市新店區五峰路61巷7號","121.548841666667","24.9695833333333","6500600","新店區"
"231046","719-UM","2019/09/21 19:47:39","新北市新店區福園街10巷1號","121.53272","24.9728266666667","6500600","新店區"
"231057","720-UM","2019/09/21 19:49:36","新北市新店區梅崗三路1號","121.557671666667","24.9311733333333","6500600","新店區"
"231059","897-TW","2019/09/21 19:49:34","新北市新店區安和路二段197號","121.517971666667","24.9751033333333","6500600","新店區"
"231040","898-TW","2019/09/21 19:49:37","新北市新店區北新路一段96巷23號","121.543026666667","24.9688833333333","6500600","新店區"
"231043","899-TW","2019/09/21 19:49:37","新北市新店區中正路263-2號","121.538475","24.9738233333333","6500600","新店區"
"231066","AKT-0513","2019/09/21 19:49:37","新北市新店區安康路三段165巷2弄8號","121.48929","24.951335","6500600","新店區"
"241011","013-R5","2019/09/21 19:49:35","新北市三重區介壽路39巷6號","121.499068333333","25.07015","6500200","三重區"
"241028","022-UY","2019/09/21 19:49:26","新北市三重區中正南路115號","121.494096666667","25.0575583333333","6500200","三重區"
"241008","059-VK","2019/09/21 19:49:33","新北市三重區永福街96號","121.478846666667","25.0758716666667","6500200","三重區"
"241005","060-VK","2019/09/21 19:49:26","新北市三重區溪尾街356號","121.488663333333","25.0854066666667","6500200","三重區"
"241015","062-VK","2019/09/21 19:49:29","新北市三重區三和路一段2號","121.50385","25.0643266666667","6500200","三重區"
"241017","063-VK","2019/09/21 19:49:40","新北市三重區重陽路三段5巷8弄29號","121.489636666667","25.0666183333333","6500200","三重區"
"241024","065-VK","2019/09/21 19:49:27","新北市三重區中正北路193巷35弄6號","121.476171666667","25.07092","6500200","三重區"
"241007","066-VK","2019/09/21 19:49:41","新北市三重區慈愛街8號","121.484493333333","25.0784316666667","6500200","三重區"
"241003","091-VK","2019/09/21 19:49:35","新北市三重區五華街93巷95號","121.494081666667","25.0851133333333","6500200","三重區"
"241031","742-BX","2019/09/21 19:49:34","新北市三重區重新路四段99-6號","121.485071666667","25.0546433333333","6500200","三重區"
"241006","262-UM","2019/09/21 19:49:33","新北市三重區永福街263號","121.481516666667","25.07428","6500200","三重區"
"241016","266-UM","2019/09/21 19:49:13","新北市三重區仁興街41號","121.499116666667","25.0758583333333","6500200","三重區"
"241009","267-UM","2019/09/21 19:49:38","新北市三重區三和路四段396巷2號","121.48118","25.0791083333333","6500200","三重區"
"241018","268-UM","2019/09/21 19:49:37","新北市三重區雙園街57巷3號","121.494866666667","25.0676133333333","6500200","三重區"
"241032","269-UM","2019/09/21 19:49:34","新北市三重區重陽路一段60巷30弄4號","121.485273333333","25.05778","6500200","三重區"
"241013","270-UM","2019/09/21 19:49:36","新北市三重區仁愛街82巷15號","121.494388333333","25.07342","6500200","三重區"
"241025","271-UM","2019/09/21 19:49:31","新北市三重區頂崁街210巷16號","121.476495","25.0676983333333","6500200","三重區"
"241035","KEA-2210","2019/09/21 19:49:23","新北市三重區文化北路10-7號","121.499223333333","25.0634616666667","6500200","三重區"
"241030","KED-0822","2019/09/21 19:49:35","新北市三重區環河南路254巷29號","121.489818333333","25.0512783333333","6500200","三重區"
"241016","462-BY","2019/09/21 19:49:26","新北市三重區正義北路48巷22號","121.496665","25.06365","6500200","三重區"
"241020","478-VK","2019/09/21 19:48:49","新北市三重區三和路四段12號","121.491506666667","25.073845","6500200","三重區"
"241026","480-VK","2019/09/21 19:49:27","新北市三重區中央南路37號","121.5013","25.0619566666667","6500200","三重區"
"241014","543-UM","2019/09/21 19:49:28","新北市三重區長安街92號","121.501911666667","25.0676033333333","6500200","三重區"
"241023","545-UM","2019/09/21 19:49:35","新北市三重區頂崁街172號","121.477621666667","25.06594","6500200","三重區"
"241001","547-UM","2019/09/21 19:49:30","新北市三重區仁愛街283巷6號","121.493293333333","25.0793383333333","6500200","三重區"
"241019","KEA-2593","2019/09/21 19:49:28","新北市三重區自強路二段74巷23-1號","121.487855","25.069825","6500200","三重區"
"241029","942-UM","2019/09/21 19:49:41","新北市三重區光明路13巷15號","121.490623333333","25.0585066666667","6500200","三重區"
"241033","AAC-255","2019/09/21 19:49:34","新北市三重區中興南街29-1號","121.470515","25.0439433333333","6500200","三重區"
"235066","003-UY","2019/09/21 19:49:25","新北市中和區南工路36號","121.505731666667","25.0011283333333","6500300","中和區"
"235056","096-UM","2019/09/21 19:49:34","新北市中和區中山路三段118-1號","121.47522","25.0074933333333","6500300","中和區"
"235039","097-UM","2019/09/21 19:49:25","新北市中和區大勇街27巷23號","121.516435","24.9938133333333","6500300","中和區"
"235065","098-UM","2019/09/21 19:49:38","新北市中和區福美路257號","121.498615","25.0050916666667","6500300","中和區"
"235040","150-BY","2019/09/21 19:49:32","新北市中和區景安路79巷29號","121.507141666667","24.99651","6500300","中和區"
"235058","151-BY","2019/09/21 19:49:42","新北市中和區員山路150巷2弄20號","121.481675","24.9976483333333","6500300","中和區"
"235038","185-VK","2019/09/21 19:49:32","新北市中和區自立路6號","121.522398333333","24.9965383333333","6500300","中和區"
"235049","186-VK","2019/09/21 19:49:42","新北市中和區景平路401號","121.502385","24.9946983333333","6500300","中和區"
"235067","255-BX","2019/09/21 19:49:39","新北市中和區新生街188號","121.483723333333","24.9996383333333","6500300","中和區"
"235044","293-VK","2019/09/21 19:49:40","新北市中和區板南路123-1號","121.502111666667","24.9926166666667","6500300","中和區"
"235072","301-VK","2019/09/21 19:49:21","新北市中和區錦和路95號","121.490186666667","24.9957066666667","6500300","中和區"
"235043","352-BY","2019/09/21 19:49:36","新北市中和區興南路二段159巷7號","121.505266666667","24.9831433333333","6500300","中和區"
"235042","KEA-2878","2019/09/21 19:49:45","新北市中和區安樂路77號","121.512776666667","24.9942633333333","6500300","中和區"
"235050","4979-A6","2019/09/21 19:49:27","新北市中和區景平路241巷84弄54號","121.50612","24.992345","6500300","中和區"
"235070","558-UM","2019/09/21 19:49:31","新北市中和區圓通路169號","121.497603333333","24.9953933333333","6500300","中和區"
"235047","732-UM","2019/09/21 19:49:39","新北市中和區和平街82號","121.507606666667","24.9911366666667","6500300","中和區"
"235046","733-UM","2019/09/21 19:49:36","新北市中和區興南路一段61號","121.510321666667","24.989765","6500300","中和區"
"235041","802-TS","2019/09/21 19:49:34","新北市中和區中和路350巷12號","121.510948333333","25.00021","6500300","中和區"
"235052","805-TS","2019/09/21 19:49:42","新北市中和區華新街32號","121.507806666667","24.984465","6500300","中和區"
"235048","896-TW","2019/09/21 19:49:30","新北市中和區景新街388號","121.51245","24.98992","6500300","中和區"
"235053","900-TW","2019/09/21 19:49:29","新北市中和區民德路216號","121.46811","24.9980316666667","6500300","中和區"
"235051","157-BY","2019/09/21 19:49:35","新北市中和區中興街170號","121.499833333333","24.991295","6500300","中和區"
"235059","AAC-215","2019/09/21 19:49:42","新北市中和區圓通路305巷17號","121.494453333333","24.98922","6500300","中和區"
"220065","072-UY","2019/09/21 19:49:27","新北市板橋區國泰街39巷7弄2號","121.468691666667","25.0056433333333","6500100","板橋區"
"220086","073-UY","2019/09/21 19:49:34","新北市板橋區國光路75號","121.45965","25.0181116666667","6500100","板橋區"
"220106","075-UY","2019/09/21 19:49:25","新北市板橋區民治街96巷24號","121.478531666667","25.032235","6500100","板橋區"
"220069","AAD-861","2019/09/21 19:49:44","新北市板橋區大明街13號","121.458951666667","25.00248","6500100","板橋區"
"220068","120-SR","2019/09/21 19:49:25","新北市板橋區光復街149號","121.485716666667","25.0200883333333","6500100","板橋區"
"247004","336-TH","2019/09/21 19:49:21","新北市蘆洲區中原路85號","121.458041666667","25.08178","6501400","蘆洲區"
"247014","056-VK","2019/09/21 19:49:34","新北市蘆洲區中央路87號","121.47288","25.084255","6501400","蘆洲區"
"247002","001-UY","2019/09/21 19:49:37","新北市蘆洲區永樂街38巷40號","121.458468333333","25.0900133333333","6501400","蘆洲區"
"226004","312-R5","2019/09/21 19:49:27","新北市平溪區十分里十分街312號","121.774745","25.04371","6502400","平溪區"
"228003","097-TW","2019/09/21 19:49:41","新北市貢寮區真理里美艷山街3-1號","121.925686666667","25.0595983333333","6502600","貢寮區"
"228001","212-TW","2019/09/21 19:49:33","新北市貢寮區真理里新港街117號","121.927063333333","25.05632","6502600","貢寮區"
"224010","AGQ-8101","2019/09/21 19:49:43","新北市瑞芳區輕便路59號","121.844885","25.110105","6501200","瑞芳區"
"224002","639-TC","2019/09/21 19:49:25","新北市瑞芳區民享新村3號","121.817411666667","25.1054766666667","6501200","瑞芳區"
"227001","642-TC","2019/09/21 19:49:33","新北市雙溪區新基里中華路97號","121.865858333333","25.0387433333333","6502500","雙溪區"
"227002","400-TW","2019/09/21 19:49:39","新北市雙溪區雙溪里內挖路36號","121.86321","25.036745","6502500","雙溪區"
"222001","KEA-2212","2019/09/21 19:49:33","新北市深坑區北深路三段118巷6號","121.60675","25.001785","6501800","深坑區"
"208002","KEA-2872","2019/09/21 19:49:30","新北市金山區環金路89號","121.636835","25.2172633333333","6502700","金山區"
"208003","665-BX","2019/09/21 19:49:39","新北市金山區海興路112-1號","121.631245","25.2388283333333","6502700","金山區"
"251009","008-UM","2019/09/21 19:49:40","新北市淡水區中正路38-1號","121.443706666667","25.1692933333333","6501000","淡水區"
"251004","009-UM","2019/09/21 19:49:33","新北市淡水區民權路185巷22號","121.460438333333","25.1337216666667","6501000","淡水區"
"251002","012-UM","2019/09/21 19:49:30","新北市淡水區下圭柔山90-8號","121.431241666667","25.210335","6501000","淡水區"
"251015","KEA-2871","2019/09/21 19:49:37","新北市淡水區山子頂24-1號","121.491383333333","25.1871883333333","6501000","淡水區"
"251016","179-VK","2019/09/21 19:49:28","新北市淡水區三塊厝5-2號","121.457585","25.210085","6501000","淡水區"
"251013","180-VK","2019/09/21 19:49:31","新北市淡水區頂田寮路168號","121.45953","25.215745","6501000","淡水區"
"251008","181-VK","2019/09/21 19:49:27","新北市淡水區中正路一段24巷2-4號","121.426833333333","25.1770683333333","6501000","淡水區"
"251012","441-VK","2019/09/21 19:49:36","新北市淡水區淡金路三段64號","121.44823","25.1998233333333","6501000","淡水區"
"251007","442-VK","2019/09/21 19:49:37","新北市淡水區竿蓁二街103巷1號","121.456478333333","25.1647616666667","6501000","淡水區"
"251005","443-VK","2019/09/21 19:49:39","新北市淡水區中正東路1號","121.44715","25.1672883333333","6501000","淡水區"
"251001","559-UM","2019/09/21 19:49:25","新北市淡水區淡金路162號","121.45877","25.165575","6501000","淡水區"
"251006","561-UM","2019/09/21 19:49:40","新北市淡水區水碓街15號","121.443428333333","25.1769733333333","6501000","淡水區"
"251014","577-R6","2019/09/21 19:49:30","新北市淡水區石頭厝17-1號","121.467348333333","25.23724","6501000","淡水區"
"251011","650-BX","2019/09/21 19:49:43","新北市淡水區紅樹林路151號","121.460643333333","25.1580566666667","6501000","淡水區"
"207003","550-UM","2019/09/21 19:49:30","新北市萬里區大鵬里下社9-4號","121.647018333333","25.217255","6502800","萬里區"
"207004","291-VK","2019/09/21 19:49:39","新北市萬里區萬里里瑪鋉路201號","121.690485","25.1792416666667","6502800","萬里區"
"252002","178-VK","2019/09/21 19:49:23","新北市三芝區三民街22號","121.504593333333","25.2586183333333","6502100","三芝區"
"208001","170-UY","2019/09/21 19:49:40","新北市金山區重和里茅埔頭22號","121.600563333333","25.2125783333333","6502700","金山區"
"237004","KEA-2597","2019/09/21 19:49:34","新北市三峽區添福295號","121.377373333333","24.8860216666667","6500900","三峽區"
"237007","153-BY","2019/09/21 19:49:35","新北市三峽區二鬮路110巷54號","121.357861666667","24.91012","6500900","三峽區"
"237009","210-TH","2019/09/21 19:49:31","新北市三峽區清水街426號","121.368706666667","24.92614","6500900","三峽區"
"237013","252-BX","2019/09/21 19:49:29","新北市三峽區溪北街7號","121.396173333333","24.936385","6500900","三峽區"
"237012","275-BY","2019/09/21 19:49:35","新北市三峽區中華路24號","121.37397","24.9324533333333","6500900","三峽區"
"237008","302-VK","2019/09/21 19:49:24","新北市三峽區中華路41號","121.372838333333","24.9308933333333","6500900","三峽區"
"237014","433-BY","2019/09/21 19:49:25","新北市三峽區添福14-39號","121.371903333333","24.90033","6500900","三峽區"
"237006","5529-G3","2019/09/21 19:49:28","新北市三峽區中正路一段336巷15弄2號","121.369956666667","24.9249666666667","6500900","三峽區"
"237015","649-BX","2019/09/21 19:49:35","新北市三峽區溪東路5號","121.399345","24.93523","6500900","三峽區"
"237005","AKY-6261","2019/09/21 19:49:31","新北市三峽區長泰街20號","121.378836666667","24.9316833333333","6500900","三峽區"
"236042","KED-0685","2019/09/21 19:49:43","新北市土城區金城路二段227號","121.455493333333","24.9823916666667","6501300","土城區"
"236030","253-BX","2019/09/21 19:49:28","新北市土城區中央路一段290號","121.443303333333","24.9824316666667","6501300","土城區"
"236026","269-VK","2019/09/21 19:49:36","新北市土城區中央路二段61巷32號","121.443568333333","24.97871","6501300","土城區"
"236070","KEA-2877","2019/09/21 19:49:29","新北市土城區水源街33號","121.440901666667","24.97548","6501300","土城區"
"252001","KED-0821","2019/09/21 19:49:37","新北市三芝區公正街66號","121.499831666667","25.2574866666667","6502100","三芝區"
"236021","401-BY","2019/09/21 19:49:39","新北市土城區延吉街86號","121.470795","24.9864166666667","6501300","土城區"
"236079","752-BX","2019/09/21 19:48:53","新北市土城區溪頭路73號","121.411473333333","24.9543366666667","6501300","土城區"
"236059","912-UM","2019/09/21 19:49:39","新北市土城區中央路一段148號","121.446086666667","24.987405","6501300","土城區"
"236049","913-UM","2019/09/21 19:49:33","新北市土城區青雲路240號","121.459006666667","24.9803583333333","6501300","土城區"
"236063","915-UM","2019/09/21 19:49:26","新北市土城區延和路105巷7弄1號","121.467188333333","24.9913683333333","6501300","土城區"
"236055","AAC-216","2019/09/21 19:49:40","新北市土城區金城路三段193-1號","121.47","24.9890583333333","6501300","土城區"
"242048","566-BX","2019/09/21 19:49:31","新北市新莊區建安街76巷5弄15號","121.425558333333","25.02503","6500500","新莊區"
"242013","413-TV","2019/09/21 19:49:27","新北市新莊區中誠街97號","121.449976666667","25.047755","6500500","新莊區"
"242025","362-BY","2019/09/21 19:49:29","新北市新莊區五工路98號","121.45683","25.064635","6500500","新莊區"
"242023","353-BY","2019/09/21 19:49:28","新北市新莊區化成路182號","121.465573333333","25.0458033333333","6500500","新莊區"
"242039","135-UY","2019/09/21 19:49:43","新北市新莊區民安路299巷55弄2號","121.429418333333","25.0239133333333","6500500","新莊區"
"242056","172-VK","2019/09/21 19:49:31","新北市新莊區新泰路87號","121.448745","25.0345033333333","6500500","新莊區"
"242017","173-VK","2019/09/21 19:49:28","新北市新莊區公園路128號","121.451901666667","25.03997","6500500","新莊區"
"242031","175-VK","2019/09/21 19:49:41","新北市新莊區仁愛街73號","121.443886666667","25.0377733333333","6500500","新莊區"
"242021","KED-0687","2019/09/21 19:49:32","新北市新莊區新泰路141號","121.448036666667","25.0364966666667","6500500","新莊區"
"242036","348-TH","2019/09/21 19:49:34","新北市新莊區建安街85號","121.427203333333","25.02462","6500500","新莊區"
"242009","349-TH","2019/09/21 19:49:36","新北市新莊區昌盛街27號","121.453753333333","25.05005","6500500","新莊區"
"242034","350-TH","2019/09/21 19:49:37","新北市新莊區仁愛街54巷1號","121.444938333333","25.0372033333333","6500500","新莊區"
"238015","755-BX","2019/09/21 19:49:26","新北市樹林區樹德街20號","121.422693333333","24.9916083333333","6500700","樹林區"
"238023","601-UM","2019/09/21 19:49:44","新北市樹林區中正路279號","121.420628333333","25.0054083333333","6500700","樹林區"
"238019","599-UM","2019/09/21 19:49:32","新北市樹林區鎮前街357號","121.416221666667","24.9840966666667","6500700","樹林區"
"238024","5061-A6","2019/09/21 19:49:33","新北市樹林區育德街19巷20號","121.392451666667","24.9698616666667","6500700","樹林區"
"238022","KEA-2213","2019/09/21 19:49:44","新北市樹林區國凱街32-2號","121.419718333333","24.9786166666667","6500700","樹林區"
"238021","KEA-2539","2019/09/21 19:49:38","新北市樹林區田尾街192巷12-2號","121.400701666667","24.9488033333333","6500700","樹林區"
"238025","303-VK","2019/09/21 19:49:30","新北市樹林區中山路一段336號","121.419618333333","24.9861783333333","6500700","樹林區"
"238017","283-BY","2019/09/21 19:49:26","新北市樹林區保安街二段24-1號","121.415353333333","25.00197","6500700","樹林區"
"238014","282-BY","2019/09/21 19:49:40","新北市樹林區千歲街44號","121.425801666667","24.9969633333333","6500700","樹林區"
"239007","AAC-297","2019/09/21 19:49:26","新北市鶯歌區大湖路余厝巷11號","121.341965","24.9615016666667","6500800","鶯歌區"
"239006","891-R6","2019/09/21 19:49:30","新北市鶯歌區永昌街113號","121.339713333333","24.9504533333333","6500800","鶯歌區"
"239001","417-VK","2019/09/21 19:49:34","新北市鶯歌區鶯桃路28號","121.34187","24.95234","6500800","鶯歌區"
"239002","359-BY","2019/09/21 19:49:24","新北市鶯歌區大湖路273號","121.345376666667","24.97319","6500800","鶯歌區"
"239004","193-VK","2019/09/21 19:49:38","新北市鶯歌區二甲路50-6號","121.337236666667","24.9345933333333","6500800","鶯歌區"
"221008","489-VK","2019/09/21 19:49:28","新北市汐止區康寧街61巷22弄3號","121.619521666667","25.0670616666667","6501100","汐止區"
"221010","269-BY","2019/09/21 19:49:31","新北市汐止區汐萬路二段40號","121.649541666667","25.0815166666667","6501100","汐止區"
"221012","278-VK","2019/09/21 19:49:35","新北市汐止區大同路三段344號","121.680013333333","25.0710566666667","6501100","汐止區"
"221023","279-VK","2019/09/21 19:49:38","新北市汐止區中興路201號","121.629158333333","25.068425","6501100","汐止區"
"221029","298-VK","2019/09/21 19:49:40","新北市汐止區康寧街901號","121.651423333333","25.075005","6501100","汐止區"
"221021","299-VK","2019/09/21 19:49:40","新北市汐止區水源路一段143號","121.65606","25.062125","6501100","汐止區"
"221031","353-TW","2019/09/21 19:49:25","新北市汐止區翠峰街21巷3弄6號","121.643458333333","25.0756833333333","6501100","汐止區"
"221025","623-UM","2019/09/21 19:49:25","新北市汐止區秀峰路81巷15弄4-1號","121.660786666667","25.0646266666667","6501100","汐止區"
"221038","646-BX","2019/09/21 19:49:26","新北市汐止區忠孝東路423號","121.665728333333","25.071645","6501100","汐止區"
"220079","145-BY","2019/09/21 19:49:35","新北市板橋區民權路302巷2號","121.457261666667","25.0164483333333","6500100","板橋區"
"220080","200-UY","2019/09/21 19:49:26","新北市板橋區大觀路二段37巷49號","121.449096666667","25.0026133333333","6500100","板橋區"
"220082","610-BX","2019/09/21 19:49:30","新北市板橋區溪崑一街24號","121.430208333333","24.9911533333333","6500100","板橋區"
"220091","267-BY","2019/09/21 19:49:35","新北市板橋區民治街81巷15號","121.480338333333","25.0323016666667","6500100","板橋區"
"220056","276-BY","2019/09/21 19:49:37","新北市板橋區四川路二段47巷3弄2號","121.454245","24.9945583333333","6500100","板橋區"
"220072","277-BY","2019/09/21 19:49:38","新北市板橋區金門街151巷40弄15號","121.433448333333","24.9895683333333","6500100","板橋區"
"220101","280-UM","2019/09/21 19:49:38","新北市板橋區縣民大道三段35號","121.473878333333","25.0207333333333","6500100","板橋區"
"220071","283-VK","2019/09/21 19:49:44","新北市中和區和平路200巷21號","121.464715","24.9949533333333","6500100","板橋區"
"220094","285-UM","2019/09/21 19:49:34","新北市板橋區雨農路17巷1號","121.462011666667","25.0246466666667","6500100","板橋區"
"220053","285-VK","2019/09/21 19:49:38","新北市板橋區永豐街24號","121.474695","25.0171133333333","6500100","板橋區"
"220083","286-VK","2019/09/21 19:49:31","新北市板橋區僑中二街106巷2號","121.445905","25.0077","6500100","板橋區"
"220081","287-VK","2019/09/21 19:49:43","新北市板橋區大觀路一段29巷131弄33-16號","121.450251666667","25.004175","6500100","板橋區"
"220061","293-UM","2019/09/21 19:49:38","新北市板橋區觀光街79巷2號","121.469381666667","25.016885","6500100","板橋區"
"220084","296-UM","2019/09/21 19:49:38","新北市板橋區溪崑二街118巷1號","121.425701666667","24.9884733333333","6500100","板橋區"
"220075","303-R5","2019/09/21 19:49:25","新北市板橋區大勇街71號","121.45311","25.0167233333333","6500100","板橋區"
"220062","305-R5","2019/09/21 19:49:32","新北市板橋區中山路二段416巷38弄27號","121.481816666667","25.0194416666667","6500100","板橋區"
"220092","307-R5","2019/09/21 19:49:31","新北市板橋區幸福路32巷4弄4號","121.461086666667","25.0213516666667","6500100","板橋區"
"220098","317-R6","2019/09/21 19:49:40","新北市板橋區四維路269巷34號","121.46176","25.0277083333333","6500100","板橋區"
"220089","487-VK","2019/09/21 19:49:38","新北市板橋區四維路174-2號","121.46464","25.0264783333333","6500100","板橋區"
"220088","491-VK","2019/09/21 19:49:28","新北市板橋區懷德街181巷3號","121.479413333333","25.03009","6500100","板橋區"
"220035","560-BX","2019/09/21 19:49:21","新北市板橋區新生街89巷14號","121.457711666667","25.0223916666667","6500100","板橋區"
"220103","561-BX","2019/09/21 19:49:24","新北市板橋區雨農路24號","121.46164","25.024505","6500100","板橋區"
"220063","609-BX","2019/09/21 19:49:42","新北市板橋區三民路一段3巷2號","121.47894","25.023385","6500100","板橋區"
"220057","686-BX","2019/09/21 19:49:42","新北市板橋區德興街35號","121.45353","24.9938216666667","6500100","板橋區"
"220077","687-BX","2019/09/21 19:49:40","新北市板橋區僑中二街116巷1號","121.445693333333","25.0061866666667","6500100","板橋區"
"220093","689-BX","2019/09/21 19:49:33","新北市板橋區長江路三段145號","121.47594","25.0347883333333","6500100","板橋區"
"220054","741-BX","2019/09/21 19:49:36","新北市板橋區忠孝路237號","121.46615","25.0028516666667","6500100","板橋區"
"220102","KEA-2699","2019/09/21 19:49:37","新北市板橋區文聖街40巷5號","121.476","25.0310416666667","6500100","板橋區"
"220055","827-TW","2019/09/21 19:49:25","新北市板橋區國慶路149巷29弄5-1號","121.46067","24.997655","6500100","板橋區"
"220067","829-TW","2019/09/21 19:49:27","新北市板橋區長安街331巷19弄11號","121.473521666667","25.0122066666667","6500100","板橋區"
"220090","831-TW","2019/09/21 19:49:40","新北市板橋區漢生西路159號","121.462936666667","25.0235183333333","6500100","板橋區"
"220074","895-R6","2019/09/21 19:49:37","新北市板橋區府中路69號","121.457825","25.0093416666667","6500100","板橋區"
"220073","985-R7","2019/09/21 19:49:32","新北市板橋區國光路47號","121.457946666667","25.0179833333333","6500100","板橋區"
"220097","AAC-210","2019/09/21 19:45:35","新北市板橋區光正街45巷24號","121.461683333333","25.0163766666667","6500100","板橋區"
"220064","AAC-253","2019/09/21 19:49:37","新北市板橋區實踐路40號","121.463676666667","25.006745","6500100","板橋區"
"235068","KEA-2873","2019/09/21 19:49:33","新北市中和區福美路266號","121.498136666667","25.0051216666667","6500300","中和區"
"235026","KEA-2876","2019/09/21 19:43:42","新北市中和區員山路36巷16-3號","121.485011666667","24.991505","6500300","中和區"
