"lineid","car","time","location","longitude","latitude","cityid","cityname"
"234046","148-BY","2019/09/21 20:09:33","新北市永和區得和路408號","121.525803333333","24.9991133333333","6500400","永和區"
"234081","298-R6","2019/09/21 20:09:40","新北市永和區國中路34號","121.524655","25.0055633333333","6500400","永和區"
"234038","336-UY","2019/09/21 20:09:28","新北市永和區成功路一段74號","121.526673333333","25.0034716666667","6500400","永和區"
"234064","337-UY","2019/09/21 20:09:29","新北市永和區秀朗路二段43號","121.521618333333","25.00253","6500400","永和區"
"234070","552-UM","2019/09/21 20:09:35","新北市永和區福和路183巷1號","121.520071666667","25.0072766666667","6500400","永和區"
"234003","553-UM","2019/09/21 20:09:24","新北市永和區中正路618-1號","121.516995","25.00773","6500400","永和區"
"234017","745-BX","2019/09/21 20:09:41","新北市永和區文化路72號","121.514233333333","25.0151333333333","6500400","永和區"
"234030","746-BX","2019/09/21 20:09:34","新北市中和區立人街14巷40弄28號","121.519405","24.995985","6500400","永和區"
"234054","KEA-2590","2019/09/21 20:09:28","新北市永和區博愛街18巷1號","121.517631666667","25.01575","6500400","永和區"
"234007","KED-0605","2019/09/21 20:09:32","新北市永和區環河西路二段229巷5號","121.501551666667","25.0099183333333","6500400","永和區"
"234013","KEA-2591","2019/09/21 20:09:27","新北市永和區保生路55號","121.504661666667","25.009905","6500400","永和區"
"234061","AAD-866","2019/09/21 20:09:22","新北市永和區中正路151巷14號","121.51557","24.998815","6500400","永和區"
"234086","748-BX","2019/09/21 20:09:34","新北市永和區福和路233號","121.51854","25.0074283333333","6500400","永和區"
"234042","862-TW","2019/09/21 20:09:25","新北市永和區雙和街14號","121.509556666667","25.002045","6500400","永和區"
"234050","863-TW","2019/09/21 20:09:37","新北市永和區環河西路二段151號","121.505593333333","25.0139833333333","6500400","永和區"
"249005","172-UM","2019/09/21 20:09:41","新北市八里區下罟子58-8號","121.387675","25.1379083333333","6502300","八里區"
"249001","173-UM","2019/09/21 20:09:26","新北市八里區中華路二段320號","121.403403333333","25.1480783333333","6502300","八里區"
"249004","303-UY","2019/09/21 20:09:37","新北市八里區中山路一段189巷3號","121.411845","25.1582116666667","6502300","八里區"
"249002","305-UY","2019/09/21 20:09:34","新北市五股區成泰路四段19號","121.453476666667","25.1070416666667","6502300","八里區"
"249003","593-UM","2019/09/21 20:09:40","新北市八里區中山路二段540巷9弄6號","121.396793333333","25.1470783333333","6502300","八里區"
"234023","9380-KE","2019/09/21 20:09:43","新北市永和區中正路654巷38號","121.517933333333","25.0085666666667","6500400","永和區"
"234077","969-R7","2019/09/21 20:09:38","新北市永和區智光街107巷15號","121.515908333333","24.9959016666667","6500400","永和區"
"234074","AAC-211","2019/09/21 20:09:35","新北市永和區豫溪街148號","121.521756666667","25.010385","6500400","永和區"
"234067","AAC-212","2019/09/21 20:09:43","新北市永和區永貞路358號","121.510185","25.0065716666667","6500400","永和區"
"243012","AAD-798","2019/09/21 20:09:33","新北市泰山區楓江路20號","121.434041666667","25.0623916666667","6501600","泰山區"
"243010","297-R6","2019/09/21 20:09:42","新北市泰山區明志路二段136巷21弄6號","121.426","25.0518666666667","6501600","泰山區"
"243016","421-VK","2019/09/21 20:09:40","新北市泰山區明志路三段409號","121.421243333333","25.03403","6501600","泰山區"
"243009","KEA-2215","2019/09/21 20:09:41","新北市泰山區泰林路二段114號","121.434696666667","25.0592883333333","6501600","泰山區"
"243011","KEA-2216","2019/09/21 20:09:29","新北市新莊區丹鳳街36號","121.421583333333","25.0295883333333","6501600","泰山區"
"243015","680-BX","2019/09/21 20:09:37","新北市泰山區明志路二段62號","121.429048333333","25.05277","6501600","泰山區"
"222003","436-BY","2019/09/21 20:09:34","新北市深坑區埔新街65號","121.620186666667","25.0023716666667","6501800","深坑區"
"222002","659-BX","2019/09/21 20:09:36","新北市深坑區北深路三段105號","121.605561666667","25.0018583333333","6501800","深坑區"
"231061","002-UM","2019/09/21 20:09:25","新北市新店區安民街379巷16號","121.515551666667","24.9767533333333","6500600","新店區"
"231044","046-UY","2019/09/21 20:09:27","新北市新店區寶元路一段15巷20號","121.542011666667","24.9869216666667","6500600","新店區"
"231060","106-UY","2019/09/21 20:09:33","新北市新店區安康路三段352號","121.486275","24.9518233333333","6500600","新店區"
"231051","107-UY","2019/09/21 20:09:25","新北市新店區中央路113號","121.530903333333","24.97461","6500600","新店區"
"231049","108-UY","2019/09/21 20:09:27","新北市新店區北新路二段139巷9-1號","121.542176666667","24.975515","6500600","新店區"
"231065","110-UY","2019/09/21 20:09:33","新北市新店區安祥路106巷169號","121.473768333333","24.9594366666667","6500600","新店區"
"231068","187-VK","2019/09/21 20:09:38","新北市新店區中興路三段200號","121.543893333333","24.9819316666667","6500600","新店區"
"231062","256-BX","2019/09/21 20:09:22","新北市新店區安康路一段110巷2號","121.52722","24.96253","6500600","新店區"
"231054","260-TV","2019/09/21 20:09:33","新北市新店區檳榔路46號","121.541705","24.9636633333333","6500600","新店區"
"231042","268-BY","2019/09/21 20:09:41","新北市新店區中興路二段65號","121.546716666667","24.9707433333333","6500600","新店區"
"231064","278-BY","2019/09/21 20:09:39","新北市新店區安德街20號","121.512418333333","24.9630016666667","6500600","新店區"
"231050","AAD-862","2019/09/21 20:09:32","新北市新店區北新路一段90號","121.541823333333","24.968425","6500600","新店區"
"231045","355-BY","2019/09/21 20:09:35","新北市新店區北宜路二段15號","121.547825","24.9518583333333","6500600","新店區"
"231055","4716-K9","2019/09/21 20:09:33","新北市新店區力行路14巷16弄2號","121.539176666667","24.96548","6500600","新店區"
"231056","4715-K9","2019/09/21 20:09:35","新北市新店區中正路330號","121.537038333333","24.975085","6500600","新店區"
"231067","4772-VM","2019/09/21 20:09:36","新北市新店區溪洲路6巷49號","121.534001666667","24.9622566666667","6500600","新店區"
"231052","513-UM","2019/09/21 20:09:35","新北市新店區新烏路三段寶島巷6號","121.55173","24.89898","6500600","新店區"
"231063","641-BX","2019/09/21 20:09:38","新北市新店區黎明路55巷1號","121.502373333333","24.9482333333333","6500600","新店區"
"231048","KED-0819","2019/09/21 20:09:26","新北市新店區寶橋路160號","121.548951666667","24.9771866666667","6500600","新店區"
"231057","720-UM","2019/09/21 20:09:36","新北市新店區百齡一路12號","121.553058333333","24.9324716666667","6500600","新店區"
"231059","897-TW","2019/09/21 20:09:34","新北市新店區安成街25號","121.510148333333","24.9609166666667","6500600","新店區"
"231040","898-TW","2019/09/21 20:09:37","新北市新店區中正路30號","121.545115","24.96975","6500600","新店區"
"231043","899-TW","2019/09/21 20:09:37","新北市新店區民族路201號","121.537085","24.976175","6500600","新店區"
"241011","013-R5","2019/09/21 20:09:35","新北市三重區仁愛街38號","121.496451666667","25.07196","6500200","三重區"
"241028","022-UY","2019/09/21 20:09:26","新北市三重區仁化街137號","121.494696666667","25.0574966666667","6500200","三重區"
"241008","059-VK","2019/09/21 20:09:33","新北市三重區永福街197巷9號","121.479146666667","25.07444","6500200","三重區"
"241005","060-VK","2019/09/21 20:09:26","新北市三重區碧華街291號","121.490383333333","25.08383","6500200","三重區"
"241015","062-VK","2019/09/21 20:09:29","新北市三重區福德北路24號","121.502181666667","25.0648483333333","6500200","三重區"
"241017","063-VK","2019/09/21 20:09:40","新北市三重區大智街49號","121.492853333333","25.0675","6500200","三重區"
"241024","065-VK","2019/09/21 20:09:38","新北市三重區後竹圍街295號","121.478843333333","25.0697216666667","6500200","三重區"
"241007","066-VK","2019/09/21 20:09:41","新北市三重區三和路四段111-2號","121.485798333333","25.0772633333333","6500200","三重區"
"241002","090-VK","2019/09/21 20:09:38","新北市三重區仁義街210號","121.496328333333","25.0822783333333","6500200","三重區"
"241003","091-VK","2019/09/21 20:09:34","新北市三重區仁愛街454號","121.490115","25.082115","6500200","三重區"
"241031","742-BX","2019/09/21 20:09:34","新北市三重區過圳街9-1號","121.488738333333","25.0600833333333","6500200","三重區"
"241006","262-UM","2019/09/21 20:09:33","新北市三重區力行路二段91巷21弄1號","121.48348","25.0759533333333","6500200","三重區"
"241016","266-UM","2019/09/21 20:09:33","新北市三重區仁愛街125巷105號","121.498908333333","25.07634","6500200","三重區"
"241009","267-UM","2019/09/21 20:09:38","新北市三重區三和路四段382巷100號","121.478741666667","25.0779366666667","6500200","三重區"
"241018","268-UM","2019/09/21 20:09:37","新北市三重區雙園街57巷23-3號","121.494671666667","25.0681983333333","6500200","三重區"
"241032","269-UM","2019/09/21 20:09:34","新北市三重區捷運路61號","121.483455","25.055655","6500200","三重區"
"241013","270-UM","2019/09/21 20:09:36","新北市三重區三和路三段151巷42號","121.493443333333","25.0742316666667","6500200","三重區"
"241025","271-UM","2019/09/21 20:09:31","新北市三重區中正北路169號","121.478306666667","25.0693383333333","6500200","三重區"
"241035","KEA-2210","2019/09/21 20:09:43","新北市三重區文化北路25號","121.499563333333","25.063705","6500200","三重區"
"241030","KED-0822","2019/09/21 20:09:35","新北市三重區成功路145巷33號","121.487701666667","25.0532416666667","6500200","三重區"
"241016","462-BY","2019/09/21 20:09:26","新北市三重區大同北路54巷1號","121.49421","25.0635883333333","6500200","三重區"
"241020","478-VK","2019/09/21 20:09:39","新北市三重區後竹圍街2巷2號","121.491895","25.0734366666667","6500200","三重區"
"241026","480-VK","2019/09/21 20:09:27","新北市三重區中央南路134號","121.50196","25.0596533333333","6500200","三重區"
"241014","543-UM","2019/09/21 20:09:28","新北市三重區長樂街82號","121.50112","25.0694366666667","6500200","三重區"
"241023","545-UM","2019/09/21 20:09:35","新北市三重區頂崁街233號","121.476981666667","25.068465","6500200","三重區"
"241001","547-UM","2019/09/21 20:09:30","新北市三重區自強路四段5號","121.488681666667","25.0761","6500200","三重區"
"241019","KEA-2593","2019/09/21 20:09:28","新北市三重區自強路二段33巷28號","121.490206666667","25.0697816666667","6500200","三重區"
"241022","KED-0820","2019/09/21 20:09:29","新北市三重區重陽路二段17號","121.486966666667","25.0625533333333","6500200","三重區"
"241004","887-TS","2019/09/21 20:09:29","新北市三重區自強路四段107號","121.491588333333","25.0798983333333","6500200","三重區"
"241029","942-UM","2019/09/21 20:09:41","新北市三重區光明路32巷26號","121.491911666667","25.058745","6500200","三重區"
"241033","AAC-255","2019/09/21 20:09:34","新北市三重區光復路一段61巷21號","121.473203333333","25.0489833333333","6500200","三重區"
"235066","003-UY","2019/09/21 20:09:25","新北市中和區水源路127巷2弄2號","121.508071666667","25.0040683333333","6500300","中和區"
"235039","097-UM","2019/09/21 20:09:31","新北市中和區大勇街48號","121.517461666667","24.9940216666667","6500300","中和區"
"235065","098-UM","2019/09/21 20:09:38","新北市中和區永和路69號","121.496551666667","25.0056433333333","6500300","中和區"
"235040","150-BY","2019/09/21 20:09:32","新北市中和區保健路44巷1號","121.50948","24.9971083333333","6500300","中和區"
"247016","KEA-2869","2019/09/21 20:09:34","新北市蘆洲區光華路134號","121.46629","25.0823533333333","6501400","蘆洲區"
"247010","KED-0682","2019/09/21 20:09:19","新北市蘆洲區中山一路74巷55號","121.47994","25.0816866666667","6501400","蘆洲區"
"235050","4979-A6","2019/09/21 20:09:27","新北市中和區安樂路66號","121.512193333333","24.99322","6500300","中和區"
"235069","4980-A6","2019/09/21 20:09:34","新北市中和區景新街132巷8-4號","121.504643333333","24.9982183333333","6500300","中和區"
"235051","157-BY","2019/09/21 20:09:30","新北市中和區復興路280巷18弄6號","121.502233333333","24.9916133333333","6500300","中和區"
"235059","AAC-215","2019/09/21 20:09:42","新北市中和區圓通路335巷3弄11號","121.492941666667","24.9902666666667","6500300","中和區"
"220065","072-UY","2019/09/21 20:09:26","新北市板橋區民族路87號","121.46611","25.00854","6500100","板橋區"
"247006","893-R6","2019/09/21 20:09:25","新北市蘆洲區九芎街2-3號","121.468753333333","25.0786466666667","6501400","蘆洲區"
"247020","546-UM","2019/09/21 20:09:32","新北市蘆洲區民權路106巷5弄22號","121.474331666667","25.0892566666667","6501400","蘆洲區"
"247022","337-TH","2019/09/21 20:09:26","新北市蘆洲區三民路205號","121.470335","25.087875","6501400","蘆洲區"
"247004","336-TH","2019/09/21 20:09:42","新北市蘆洲區長安街285巷10號","121.457681666667","25.0841883333333","6501400","蘆洲區"
"247024","057-VK","2019/09/21 20:09:43","新北市蘆洲區光復路77巷6號","121.464193333333","25.0857316666667","6501400","蘆洲區"
"247014","056-VK","2019/09/21 20:09:34","新北市蘆洲區中山二路261號","121.469803333333","25.0796916666667","6501400","蘆洲區"
"247018","053-VK","2019/09/21 20:09:29","新北市蘆洲區民族路314巷23號","121.477996666667","25.0907283333333","6501400","蘆洲區"
"247002","001-UY","2019/09/21 20:09:36","新北市蘆洲區永康街2巷8號","121.45947","25.0862166666667","6501400","蘆洲區"
"226004","312-R5","2019/09/21 20:09:27","新北市平溪區靜安路二段402號","121.73889","25.0243883333333","6502400","平溪區"
"224002","639-TC","2019/09/21 20:09:25","新北市瑞芳區蛇子形路3-5號","121.824215","25.103375","6501200","瑞芳區"
"222001","KEA-2212","2019/09/21 20:09:33","新北市深坑區北深路三段208號","121.601275","25.0038283333333","6501800","深坑區"
"251009","008-UM","2019/09/21 20:09:40","新北市淡水區英專路2巷27號","121.446486666667","25.1693216666667","6501000","淡水區"
"251004","009-UM","2019/09/21 20:09:33","新北市淡水區民族路29巷62號","121.461968333333","25.1368183333333","6501000","淡水區"
"251002","012-UM","2019/09/21 20:09:30","新北市淡水區中正路334號","121.43579","25.1731033333333","6501000","淡水區"
"251015","KEA-2871","2019/09/21 20:09:37","新北市淡水區北新路三段40號","121.484365","25.1873566666667","6501000","淡水區"
"251016","179-VK","2019/09/21 20:09:28","新北市淡水區番子田25-7號","121.45602","25.2308283333333","6501000","淡水區"
"251013","180-VK","2019/09/21 20:09:40","新北市淡水區奎柔山路576號","121.46839","25.2050916666667","6501000","淡水區"
"251008","181-VK","2019/09/21 20:09:27","新北市淡水區淡海路72巷33弄2號","121.424463333333","25.1826983333333","6501000","淡水區"
"251010","413-VK","2019/09/21 20:09:38","新北市淡水區崁頂五路301號","121.423891666667","25.1971283333333","6501000","淡水區"
"251012","441-VK","2019/09/21 20:09:36","新北市淡水區淡金路三段224號","121.44892","25.204935","6501000","淡水區"
"251001","559-UM","2019/09/21 20:09:25","新北市淡水區淡金路二段15號","121.446325","25.18919","6501000","淡水區"
"251006","561-UM","2019/09/21 20:09:40","新北市淡水區北新路141巷5號","121.449085","25.1793466666667","6501000","淡水區"
"251014","577-R6","2019/09/21 20:09:30","新北市淡水區石頭厝2-1號","121.458098333333","25.2357","6501000","淡水區"
"251011","650-BX","2019/09/21 20:09:43","新北市淡水區崁頂57-7號","121.442755","25.19732","6501000","淡水區"
"207003","550-UM","2019/09/21 20:09:31","新北市萬里區大鵬里萬里加投180號","121.642976666667","25.2157716666667","6502800","萬里區"
"207004","291-VK","2019/09/21 20:09:38","新北市萬里區北基里孝七街29號","121.682476666667","25.1766566666667","6502800","萬里區"
"252002","178-VK","2019/09/21 20:09:23","新北市三芝區中正路一段72號","121.50395","25.2576816666667","6502100","三芝區"
"237012","275-BY","2019/09/21 20:09:35","新北市三峽區中華路74-5號","121.371501666667","24.929185","6500900","三峽區"
"237006","5529-G3","2019/09/21 20:09:28","新北市三峽區嘉添227-22號","121.37023","24.91141","6500900","三峽區"
"237015","649-BX","2019/09/21 20:09:33","新北市三峽區介壽路二段153-1號","121.393426666667","24.93583","6500900","三峽區"
"237005","AKY-6261","2019/09/21 20:09:31","新北市三峽區三樹路98巷74弄16號","121.384785","24.93851","6500900","三峽區"
"236042","KED-0685","2019/09/21 20:09:43","新北市土城區學享街36號","121.451823333333","24.9869783333333","6501300","土城區"
"236030","253-BX","2019/09/21 20:09:28","新北市土城區中央路一段118巷1弄19號","121.445625","24.987565","6501300","土城區"
"236026","269-VK","2019/09/21 20:09:33","新北市土城區中央路一段289號","121.444506666667","24.9842816666667","6501300","土城區"
"236014","270-VK","2019/09/21 20:09:34","新北市土城區德興街135號","121.455088333333","24.9916633333333","6501300","土城區"
"236038","271-VK","2019/09/21 20:09:33","新北市土城區明德路一段20巷2弄1號","121.46458","24.9848616666667","6501300","土城區"
"247012","KED-0683","2019/09/21 20:09:40","新北市蘆洲區民族路250巷7號","121.47951","25.0888866666667","6501400","蘆洲區"
"236070","KEA-2877","2019/09/21 20:09:29","新北市土城區中央路三段147巷2弄15號","121.431891666667","24.964755","6501300","土城區"
"252001","KED-0821","2019/09/21 20:09:37","新北市三芝區公正街11號","121.499695","25.257775","6502100","三芝區"
"236021","401-BY","2019/09/21 20:09:39","新北市土城區延吉街17號","121.472271666667","24.988725","6501300","土城區"
"236079","752-BX","2019/09/21 19:59:53","新北市土城區福安街55巷8號","121.418761666667","24.9641216666667","6501300","土城區"
"236059","912-UM","2019/09/21 20:09:39","新北市土城區中央路二段193號","121.442323333333","24.9752383333333","6501300","土城區"
"236049","913-UM","2019/09/21 20:09:34","新北市土城區清水路249號","121.462693333333","24.9840633333333","6501300","土城區"
"236063","915-UM","2019/09/21 20:09:26","新北市土城區立德路135巷5弄10號","121.464703333333","24.987495","6501300","土城區"
"242042","AAC-296","2019/09/21 20:09:39","新北市新莊區青山路一段200-1號","121.398175","25.031535","6500500","新莊區"
"242061","986-R7","2019/09/21 20:09:37","新北市新莊區瓊林路瓊英巷8弄8號","121.443213333333","25.0279783333333","6500500","新莊區"
"242029","615-BX","2019/09/21 20:09:33","新北市新莊區中平路378號","121.444721666667","25.053455","6500500","新莊區"
"242027","613-BX","2019/09/21 20:09:22","新北市新莊區立信一街58號","121.443065","25.0497033333333","6500500","新莊區"
"242058","612-BX","2019/09/21 20:09:37","新北市新莊區八德街162號","121.42353","25.019715","6500500","新莊區"
"242048","566-BX","2019/09/21 20:09:31","新北市新莊區後港二路31號","121.422293333333","25.023125","6500500","新莊區"
"242053","497-BY","2019/09/21 20:09:33","新北市新莊區西盛街384號","121.427955","25.0130133333333","6500500","新莊區"
"242051","442-UM","2019/09/21 20:09:31","新北市新莊區民安西路172巷2弄2號","121.425811666667","25.0160066666667","6500500","新莊區"
"242002","441-UM","2019/09/21 20:09:42","新北市新莊區中正路33號","121.463765","25.0408716666667","6500500","新莊區"
"242007","440-UM","2019/09/21 20:09:29","新北市新莊區福壽街184巷19號","121.45924","25.0532616666667","6500500","新莊區"
"242044","415-TV","2019/09/21 20:09:38","新北市新莊區中正路929巷37號","121.411535","25.019625","6500500","新莊區"
"242013","413-TV","2019/09/21 20:09:39","新北市新莊區幸福路678巷5號","121.450591666667","25.04972","6500500","新莊區"
"242025","362-BY","2019/09/21 20:09:29","新北市新莊區五工三路78巷15號","121.459443333333","25.06565","6500500","新莊區"
"242023","353-BY","2019/09/21 20:09:28","新北市新莊區化成路652號","121.46604","25.05568","6500500","新莊區"
"242015","132-UY","2019/09/21 20:09:30","新北市新莊區中平路26巷34號","121.446288333333","25.0432733333333","6500500","新莊區"
"242039","135-UY","2019/09/21 20:09:43","新北市新莊區民安西路109號","121.426778333333","25.0183383333333","6500500","新莊區"
"242056","172-VK","2019/09/21 20:09:31","新北市新莊區豐年街28巷1弄11號","121.44605","25.0318966666667","6500500","新莊區"
"242017","173-VK","2019/09/21 20:09:32","新北市新莊區中安街5巷1號","121.452835","25.04558","6500500","新莊區"
"242031","175-VK","2019/09/21 20:09:41","新北市新莊區忠孝街29巷31號","121.443575","25.03676","6500500","新莊區"
"242021","KED-0687","2019/09/21 20:09:32","新北市新莊區中興街43號","121.449226666667","25.0369216666667","6500500","新莊區"
"242046","346-TH","2019/09/21 20:09:31","新北市新莊區裕民街85巷9號","121.419118333333","25.0235","6500500","新莊區"
"242036","348-TH","2019/09/21 20:09:34","新北市新莊區後港一路130巷11號","121.429678333333","25.026715","6500500","新莊區"
"242009","349-TH","2019/09/21 20:09:36","新北市新莊區昌隆街30號","121.454115","25.050745","6500500","新莊區"
"242034","350-TH","2019/09/21 20:09:37","新北市新莊區中正路318巷16號","121.44655","25.0359783333333","6500500","新莊區"
"242019","351-TH","2019/09/21 20:09:28","新北市新莊區民樂街63號","121.45775","25.0418383333333","6500500","新莊區"
"239007","AAC-297","2019/09/21 20:09:26","新北市鶯歌區大湖路326巷27號","121.346313333333","24.970175","6500800","鶯歌區"
"239006","891-R6","2019/09/21 20:09:30","新北市鶯歌區文化路145巷2號","121.356536666667","24.9541366666667","6500800","鶯歌區"
"221008","489-VK","2019/09/21 20:09:28","台北市內湖區康樂街138號","121.619343333333","25.072365","6501100","汐止區"
"221036","130-UY","2019/09/21 20:09:43","新北市汐止區新台五路二段37號","121.663086666667","25.0664316666667","6501100","汐止區"
"221015","131-UY","2019/09/21 20:09:24","新北市汐止區建成路15號","121.664503333333","25.0725733333333","6501100","汐止區"
"221010","269-BY","2019/09/21 20:09:29","新北市汐止區連峰街187號","121.645715","25.08066","6501100","汐止區"
"221012","278-VK","2019/09/21 20:09:35","新北市汐止區大同路三段457號","121.679046666667","25.0712683333333","6501100","汐止區"
"221023","279-VK","2019/09/21 20:09:39","新北市汐止區明峰街200-1號","121.627725","25.0694216666667","6501100","汐止區"
"221032","280-BY","2019/09/21 20:09:38","新北市汐止區力行街59巷9弄2號","121.617301666667","25.0496666666667","6501100","汐止區"
"221027","281-BY","2019/09/21 20:09:32","新北市汐止區民生街1-1號","121.66016","25.0687533333333","6501100","汐止區"
"221029","298-VK","2019/09/21 20:09:40","新北市汐止區樟樹一路119巷10弄1號","121.641231666667","25.0645","6501100","汐止區"
"221021","299-VK","2019/09/21 20:09:40","新北市汐止區水源路一段238巷1號","121.654195","25.0604133333333","6501100","汐止區"
"221031","353-TW","2019/09/21 20:09:25","新北市汐止區福德一路262號","121.633046666667","25.0643333333333","6501100","汐止區"
"221035","622-UM","2019/09/21 20:09:43","新北市汐止區長江街39巷21號","121.655303333333","25.0721","6501100","汐止區"
"221025","623-UM","2019/09/21 20:09:25","新北市汐止區秀峰路68號","121.659811666667","25.0644916666667","6501100","汐止區"
"221038","646-BX","2019/09/21 20:09:26","新北市汐止區大同路三段41號","121.666783333333","25.0764533333333","6501100","汐止區"
"221033","647-BX","2019/09/21 20:09:39","新北市汐止區東勢街201巷104號","121.633533333333","25.0429316666667","6501100","汐止區"
"221018","753-BX","2019/09/21 20:09:35","新北市汐止區茄苳路317號","121.673641666667","25.0665366666667","6501100","汐止區"
"220079","145-BY","2019/09/21 20:09:35","新北市板橋區復興街55號","121.458743333333","25.017575","6500100","板橋區"
"220080","200-UY","2019/09/21 20:09:43","新北市板橋區大觀路二段179巷6號","121.445213333333","24.99995","6500100","板橋區"
"220082","610-BX","2019/09/21 20:09:30","新北市板橋區篤行路二段122-3號","121.431175","24.99077","6500100","板橋區"
"220072","277-BY","2019/09/21 20:09:38","新北市板橋區金門街111-3號","121.433103333333","24.99206","6500100","板橋區"
"220101","280-UM","2019/09/21 20:09:31","新北市板橋區莊敬路79號","121.473005","25.0266766666667","6500100","板橋區"
"220083","286-VK","2019/09/21 20:09:31","新北市板橋區僑中二街90巷37號","121.444408333333","25.0094083333333","6500100","板橋區"
"220081","287-VK","2019/09/21 20:09:26","新北市板橋區僑中一街80巷1弄1號","121.447561666667","25.0118533333333","6500100","板橋區"
"220061","293-UM","2019/09/21 20:09:38","新北市板橋區四川路一段286巷4號","121.458453333333","25.00096","6500100","板橋區"
"220084","296-UM","2019/09/21 20:09:38","新北市板橋區溪崑二街112巷10號","121.426063333333","24.9889133333333","6500100","板橋區"
"220075","303-R5","2019/09/21 20:09:25","新北市板橋區金華街10巷124號","121.459525","25.0205483333333","6500100","板橋區"
"220062","305-R5","2019/09/21 20:09:32","新北市板橋區萬安街85巷1弄11號","121.484428333333","25.0249616666667","6500100","板橋區"
"242011","280-VK","2019/09/21 20:09:42","新北市新莊區中信街67巷7號","121.448735","25.0506766666667","6500500","新莊區"
"220035","560-BX","2019/09/21 20:09:42","新北市板橋區新生街29巷4弄1號","121.456608333333","25.02184","6500100","板橋區"
"220077","687-BX","2019/09/21 20:09:40","新北市板橋區僑中一街124巷7號","121.445923333333","25.012535","6500100","板橋區"
"220093","689-BX","2019/09/21 20:09:33","新北市三重區光復路二段87巷63號","121.47548","25.0587683333333","6500100","板橋區"
"220054","741-BX","2019/09/21 20:09:35","新北市板橋區忠孝路201巷93號","121.46459","25.00478","6500100","板橋區"
"220102","KEA-2699","2019/09/21 20:09:36","新北市板橋區莒光路79巷2號","121.471865","25.0243316666667","6500100","板橋區"
"220055","827-TW","2019/09/21 20:09:25","新北市板橋區仁愛路76巷10號","121.460601666667","24.999045","6500100","板橋區"
"220074","895-R6","2019/09/21 20:09:23","新北市板橋區縣民大道一段287號","121.4608","25.0101583333333","6500100","板橋區"
"220073","985-R7","2019/09/21 20:09:32","新北市板橋區南雅西路二段25號","121.45291","25.0095","6500100","板橋區"
"220064","AAC-253","2019/09/21 20:09:44","新北市板橋區長安街331巷106-4號","121.471728333333","25.0125883333333","6500100","板橋區"
"235068","KEA-2873","2019/09/21 20:09:33","新北市中和區勝利路35巷22號","121.499113333333","25.0069666666667","6500300","中和區"
"235026","KEA-2876","2019/09/21 19:43:42","新北市中和區員山路36巷16-3號","121.485011666667","24.991505","6500300","中和區"
