"lineid","car","time","location","longitude","latitude","cityid","cityname"
"234081","298-R6","2019/09/21 20:49:40","新北市永和區國中路12號","121.524371666667","25.0050066666667","6500400","永和區"
"249004","303-UY","2019/09/21 20:49:37","新北市八里區中山路一段278號","121.414","25.159745","6502300","八里區"
"234074","AAC-211","2019/09/21 20:49:36","新北市永和區環河東路二段30號","121.522591666667","25.0126466666667","6500400","永和區"
"222003","436-BY","2019/09/21 20:49:34","新北市深坑區阿柔洋40號","121.610298333333","24.9984716666667","6501800","深坑區"
"222002","659-BX","2019/09/21 20:49:36","新北市深坑區北深路三段93巷47號","121.604375","25.0004616666667","6501800","深坑區"
"231061","002-UM","2019/09/21 20:49:45","新北市新店區新和街93巷4號","121.520928333333","24.9866133333333","6500600","新店區"
"231044","046-UY","2019/09/21 20:49:27","新北市新店區民生路149巷22號","121.529345","24.9799283333333","6500600","新店區"
"231060","106-UY","2019/09/21 20:49:33","新北市新店區安康路三段742號","121.473748333333","24.942005","6500600","新店區"
"231051","107-UY","2019/09/21 20:49:25","新北市新店區溪園路47號","121.529641666667","24.9875816666667","6500600","新店區"
"231049","108-UY","2019/09/21 20:49:27","新北市新店區華潭街6號","121.529955","24.9515433333333","6500600","新店區"
"231065","110-UY","2019/09/21 20:49:33","新北市新店區安祥路69巷15號","121.481958333333","24.9613883333333","6500600","新店區"
"231068","187-VK","2019/09/21 20:49:38","新北市新店區中興路三段228巷28號","121.544721666667","24.9834883333333","6500600","新店區"
"231062","256-BX","2019/09/21 20:49:42","新北市新店區和成街19巷29號","121.487973333333","24.9460433333333","6500600","新店區"
"231054","260-TV","2019/09/21 20:49:33","新北市新店區五峰路26號","121.543648333333","24.9689583333333","6500600","新店區"
"231042","268-BY","2019/09/21 20:49:41","新北市新店區寶興路49-1號","121.54942","24.9729933333333","6500600","新店區"
"231064","278-BY","2019/09/21 20:49:39","新北市新店區安和路二段169巷7號","121.518346666667","24.9741683333333","6500600","新店區"
"231050","AAD-862","2019/09/21 20:49:32","新北市新店區三民路20巷20號","121.53797","24.971115","6500600","新店區"
"231058","3713-VJ","2019/09/21 20:49:39","新北市新店區平等街47號","121.536321666667","24.9730516666667","6500600","新店區"
"231067","4772-VM","2019/09/21 20:49:36","新北市新店區安德街148巷11弄1號","121.507793333333","24.959975","6500600","新店區"
"231052","513-UM","2019/09/21 20:49:35","新北市新店區新烏路二段50巷3號","121.548285","24.9282966666667","6500600","新店區"
"231063","641-BX","2019/09/21 20:49:38","新北市新店區如意街15號","121.494745","24.948155","6500600","新店區"
"231048","KED-0819","2019/09/21 20:49:41","新北市新店區文化路73巷1號","121.544841666667","24.9824983333333","6500600","新店區"
"231057","720-UM","2019/09/21 20:49:36","新北市新店區新烏路一段123-1號","121.544821666667","24.93763","6500600","新店區"
"231059","897-TW","2019/09/21 20:49:34","新北市新店區僑愛五路21號","121.499258333333","24.94408","6500600","新店區"
"231040","898-TW","2019/09/21 20:49:37","新北市新店區中正路268號","121.539015","24.97358","6500600","新店區"
"231043","899-TW","2019/09/21 20:49:37","新北市新店區建國路64號","121.540621666667","24.975895","6500600","新店區"
"231066","AKT-0513","2019/09/21 20:49:37","新北市新店區吉安街34號","121.515963333333","24.9660633333333","6500600","新店區"
"241011","013-R5","2019/09/21 20:49:35","新北市三重區龍濱路205巷6號","121.502346666667","25.0717983333333","6500200","三重區"
"241028","022-UY","2019/09/21 20:49:26","新北市三重區重新路三段82號","121.493051666667","25.061095","6500200","三重區"
"241008","059-VK","2019/09/21 20:49:33","新北市三重區永福街72巷9號","121.479335","25.0767633333333","6500200","三重區"
"241005","060-VK","2019/09/21 20:49:26","新北市三重區三信路182號","121.488063333333","25.0861883333333","6500200","三重區"
"241015","062-VK","2019/09/21 20:49:29","新北市三重區自強路一段12號","121.498871666667","25.0680833333333","6500200","三重區"
"241017","063-VK","2019/09/21 20:49:40","新北市三重區民生街14號","121.492078333333","25.0674766666667","6500200","三重區"
"241024","065-VK","2019/09/21 20:49:27","新北市三重區國道路一段58巷20號","121.481121666667","25.07206","6500200","三重區"
"241007","066-VK","2019/09/21 20:49:41","新北市三重區慈愛街10號","121.484531666667","25.0783933333333","6500200","三重區"
"241002","090-VK","2019/09/21 20:49:38","新北市三重區仁義街167巷38弄2號","121.498751666667","25.0826533333333","6500200","三重區"
"241003","091-VK","2019/09/21 20:49:34","新北市三重區集賢路87-1號","121.493788333333","25.0869516666667","6500200","三重區"
"241031","742-BX","2019/09/21 20:49:34","新北市三重區重陽路一段113巷5號","121.487656666667","25.0597833333333","6500200","三重區"
"241006","262-UM","2019/09/21 20:49:33","新北市三重區車路頭街150號","121.483826666667","25.076205","6500200","三重區"
"241016","266-UM","2019/09/21 20:49:33","新北市三重區龍門路274巷45號","121.501208333333","25.0754783333333","6500200","三重區"
"241009","267-UM","2019/09/21 20:49:38","新北市三重區三和路四段199號","121.482141666667","25.079355","6500200","三重區"
"241018","268-UM","2019/09/21 20:49:41","新北市三重區自強路一段155-1號","121.493746666667","25.0672133333333","6500200","三重區"
"241032","269-UM","2019/09/21 20:49:34","新北市三重區重陽路一段120巷48號","121.485026666667","25.0601783333333","6500200","三重區"
"241013","270-UM","2019/09/21 20:49:36","新北市三重區仁賢街12-1號","121.49569","25.074835","6500200","三重區"
"241025","271-UM","2019/09/21 20:49:31","新北市三重區貴陽街14號","121.484225","25.06186","6500200","三重區"
"241035","KEA-2210","2019/09/21 20:49:43","新北市三重區文化北路222號","121.497705","25.068915","6500200","三重區"
"241030","KED-0822","2019/09/21 20:49:35","新北市三重區昌隆街26號","121.492048333333","25.05226","6500200","三重區"
"241016","462-BY","2019/09/21 20:49:26","新北市三重區長壽西街143-1號","121.49452","25.066585","6500200","三重區"
"241020","478-VK","2019/09/21 20:49:39","新北市三重區忠孝路一段165號","121.487803333333","25.0718166666667","6500200","三重區"
"241026","480-VK","2019/09/21 20:49:27","新北市三重區重新路二段36巷33號","121.499968333333","25.06229","6500200","三重區"
"241014","543-UM","2019/09/21 20:49:30","新北市三重區安和路101號","121.500798333333","25.0698883333333","6500200","三重區"
"241023","545-UM","2019/09/21 20:49:35","新北市三重區忠孝路三段84巷1號","121.48033","25.0646733333333","6500200","三重區"
"241001","547-UM","2019/09/21 20:49:30","新北市三重區三和路四段124號","121.48923","25.07518","6500200","三重區"
"241019","KEA-2593","2019/09/21 20:49:40","新北市三重區大智街139號","121.490773333333","25.070945","6500200","三重區"
"241022","KED-0820","2019/09/21 20:49:29","新北市三重區中正北路20巷12號","121.487948333333","25.0624783333333","6500200","三重區"
"241004","887-TS","2019/09/21 20:49:29","新北市三重區慈愛街159號","121.489845","25.080295","6500200","三重區"
"241029","942-UM","2019/09/21 20:49:41","新北市三重區重安街14號","121.490288333333","25.05817","6500200","三重區"
"241033","AAC-255","2019/09/21 20:49:34","新北市三重區興德路133號","121.470041666667","25.0526716666667","6500200","三重區"
"247016","KEA-2869","2019/09/21 20:49:34","新北市蘆洲區得勝街183號","121.470896666667","25.0826983333333","6501400","蘆洲區"
"247010","KED-0682","2019/09/21 20:49:39","新北市蘆洲區鷺江街91號","121.476876666667","25.0837266666667","6501400","蘆洲區"
"235069","4980-A6","2019/09/21 20:49:33","新北市中和區新生街122號","121.483495","25.0013266666667","6500300","中和區"
"247006","893-R6","2019/09/21 20:49:25","新北市蘆洲區永安南路二段16巷5號","121.467726666667","25.077155","6501400","蘆洲區"
"247020","546-UM","2019/09/21 20:49:32","新北市蘆洲區仁愛街66號","121.471508333333","25.0938433333333","6501400","蘆洲區"
"247008","341-TH","2019/09/21 20:49:29","新北市蘆洲區集賢路269巷17號","121.482098333333","25.0834233333333","6501400","蘆洲區"
"247022","337-TH","2019/09/21 20:49:26","新北市蘆洲區中正路261號","121.467438333333","25.0872316666667","6501400","蘆洲區"
"247004","336-TH","2019/09/21 20:49:41","新北市蘆洲區長安街100號","121.461766666667","25.080925","6501400","蘆洲區"
"247024","057-VK","2019/09/21 20:49:23","新北市蘆洲區長樂路140號","121.462091666667","25.0901966666667","6501400","蘆洲區"
"247014","056-VK","2019/09/21 20:49:34","新北市蘆洲區三民路95號","121.473988333333","25.0848733333333","6501400","蘆洲區"
"247002","001-UY","2019/09/21 20:49:36","新北市蘆洲區長安街240號","121.457643333333","25.0859166666667","6501400","蘆洲區"
"222001","KEA-2212","2019/09/21 20:49:33","新北市深坑區北深路三段128號","121.606011666667","25.0017333333333","6501800","深坑區"
"251002","012-UM","2019/09/21 20:49:30","新北市淡水區鼻頭街18-5號","121.446756666667","25.1666733333333","6501000","淡水區"
"251015","KEA-2871","2019/09/21 20:49:37","新北市淡水區興仁路2號","121.450683333333","25.2148216666667","6501000","淡水區"
"251016","179-VK","2019/09/21 20:49:28","新北市淡水區淡金路四段476號","121.451821666667","25.2238766666667","6501000","淡水區"
"251013","180-VK","2019/09/21 20:49:31","新北市淡水區行忠路112號","121.452235","25.1989133333333","6501000","淡水區"
"251010","413-VK","2019/09/21 20:49:38","新北市淡水區沙崙路126號","121.42344","25.182975","6501000","淡水區"
"251012","441-VK","2019/09/21 20:49:36","新北市淡水區淡金路四段526-4號","121.451988333333","25.2263716666667","6501000","淡水區"
"251007","442-VK","2019/09/21 20:49:37","新北市淡水區鄧公路29巷14號","121.452243333333","25.1702066666667","6501000","淡水區"
"251001","559-UM","2019/09/21 20:49:25","新北市淡水區淡金路73號","121.455971666667","25.161685","6501000","淡水區"
"251014","577-R6","2019/09/21 20:49:30","新北市淡水區公埔子32-8號","121.461656666667","25.2323683333333","6501000","淡水區"
"251011","650-BX","2019/09/21 20:49:29","新北市淡水區新市一路一段281巷210號","121.434678333333","25.1876516666667","6501000","淡水區"
"251003","766-UM","2019/09/21 20:49:43","新北市淡水區中山北路一段247巷92號","121.442291666667","25.1793733333333","6501000","淡水區"
"247012","KED-0683","2019/09/21 20:49:39","新北市三重區集賢路186號","121.484178333333","25.0881733333333","6501400","蘆洲區"
"242042","AAC-296","2019/09/21 20:49:44","新北市新莊區天祥街47巷27號","121.416216666667","25.027985","6500500","新莊區"
"242061","986-R7","2019/09/21 20:49:37","新北市新莊區新樹路443號","121.432615","25.0135766666667","6500500","新莊區"
"242029","615-BX","2019/09/21 20:49:33","新北市新莊區中華路二段26-1號","121.453545","25.04513","6500500","新莊區"
"242027","613-BX","2019/09/21 20:49:43","新北市新莊區中正路119號","121.460478333333","25.0382933333333","6500500","新莊區"
"242058","612-BX","2019/09/21 20:49:37","新北市新莊區後港一路118號","121.428881666667","25.0271133333333","6500500","新莊區"
"242048","566-BX","2019/09/21 20:49:31","新北市新莊區中正路606號","121.426643333333","25.0301333333333","6500500","新莊區"
"242051","442-UM","2019/09/21 20:49:31","新北市新莊區民安西路58號","121.42737","25.0204116666667","6500500","新莊區"
"242002","441-UM","2019/09/21 20:49:33","新北市新莊區中港路五守新村23巷2號","121.454985","25.0384666666667","6500500","新莊區"
"242007","440-UM","2019/09/21 20:49:29","新北市新莊區思源路213號","121.459845","25.0460616666667","6500500","新莊區"
"242013","413-TV","2019/09/21 20:49:07","新北市新莊區中榮街75-2號","121.445718333333","25.0527833333333","6500500","新莊區"
"242025","362-BY","2019/09/21 20:49:29","新北市三重區光復路二段129巷2號","121.474903333333","25.0593466666667","6500500","新莊區"
"242023","353-BY","2019/09/21 20:49:28","新北市新莊區復興路三段8號","121.4605","25.0445083333333","6500500","新莊區"
"242015","132-UY","2019/09/21 20:49:30","新北市新莊區頭前路167號","121.46065","25.052455","6500500","新莊區"
"242031","175-VK","2019/09/21 20:49:41","新北市新莊區中正路508巷5弄19號","121.43509","25.0337366666667","6500500","新莊區"
"242046","346-TH","2019/09/21 20:49:31","新北市新莊區裕民街65號","121.418655","25.0243116666667","6500500","新莊區"
"242036","348-TH","2019/09/21 20:49:34","新北市新莊區建國一路69號","121.43465","25.0296916666667","6500500","新莊區"
"242009","349-TH","2019/09/21 20:49:36","新北市新莊區幸福路515號","121.455635","25.0493216666667","6500500","新莊區"
"242034","350-TH","2019/09/21 20:49:37","新北市新莊區中正路232號","121.448333333333","25.0354633333333","6500500","新莊區"
"221036","130-UY","2019/09/21 20:49:43","新北市汐止區南昌街45號","121.66326","25.0686116666667","6501100","汐止區"
"221010","269-BY","2019/09/21 20:49:29","新北市汐止區八連路一段530巷6號","121.639163333333","25.092555","6501100","汐止區"
"221012","278-VK","2019/09/21 20:49:35","新北市汐止區保新街27號","121.684403333333","25.073015","6501100","汐止區"
"221023","279-VK","2019/09/21 20:49:38","新北市汐止區民族二街7-1號","121.635065","25.07171","6501100","汐止區"
"221029","298-VK","2019/09/21 20:49:40","新北市汐止區工建路31號","121.639371666667","25.0635283333333","6501100","汐止區"
"221021","299-VK","2019/09/21 20:49:39","新北市汐止區莊敬街126號","121.655066666667","25.0611116666667","6501100","汐止區"
"221035","622-UM","2019/09/21 20:49:23","新北市汐止區長江街101-5號","121.658681666667","25.07312","6501100","汐止區"
"221038","646-BX","2019/09/21 20:49:25","新北市汐止區汐萬路一段256巷3號","121.652551666667","25.0745683333333","6501100","汐止區"
"221033","647-BX","2019/09/21 20:49:39","新北市汐止區合順街18巷8弄5號","121.620336666667","25.0419266666667","6501100","汐止區"
"242011","280-VK","2019/09/21 20:49:42","新北市泰山區新五路一段137號","121.439343333333","25.0637","6500500","新莊區"
