"lineid","car","time","location","longitude","latitude","cityid","cityname"
"231063","641-BX","2019/09/21 21:29:38","新北市新店區如意街67號","121.49402","24.94719","6500600","新店區"
"241005","060-VK","2019/09/21 21:29:26","新北市三重區仁愛街687號","121.483395","25.0809916666667","6500200","三重區"
"241017","063-VK","2019/09/21 21:29:40","新北市三重區中正北路25巷11號","121.49278","25.0623916666667","6500200","三重區"
"241024","065-VK","2019/09/21 21:29:27","新北市三重區中正北路115巷6號","121.483971666667","25.0675716666667","6500200","三重區"
"241007","066-VK","2019/09/21 21:29:21","新北市三重區信義西街138號","121.495635","25.064335","6500200","三重區"
"241003","091-VK","2019/09/21 21:29:34","新北市三重區仁義街220巷2號","121.495325","25.08403","6500200","三重區"
"241032","269-UM","2019/09/21 21:29:34","新北市八里區荖阡坑路7-2號","121.398555","25.1417133333333","6500200","三重區"
"241016","462-BY","2019/09/21 21:29:26","新北市三重區信義西街51號","121.495198333333","25.0638283333333","6500200","三重區"
"235018","640-BX","2019/09/21 21:04:44","新北市中和區員山路36巷16-2號","121.485233333333","24.9915566666667","6500300","中和區"
"251009","008-UM","2019/09/21 21:29:40","新北市淡水區民族路33巷2-8號","121.464001666667","25.13701","6501000","淡水區"
"251004","009-UM","2019/09/21 21:29:41","新北市淡水區民族路2號","121.46031","25.1369466666667","6501000","淡水區"
"251002","012-UM","2019/09/21 21:29:29","新北市淡水區學府路172巷21號","121.448255","25.1748883333333","6501000","淡水區"
"251016","179-VK","2019/09/21 21:29:28","新北市淡水區前洲子11號","121.44112","25.2193216666667","6501000","淡水區"
"251013","180-VK","2019/09/21 21:29:31","新北市淡水區埤島59號","121.459401666667","25.1953466666667","6501000","淡水區"
"251008","181-VK","2019/09/21 21:29:27","新北市淡水區水源街二段160-3號","121.45524","25.1753766666667","6501000","淡水區"
"251010","413-VK","2019/09/21 21:29:38","新北市淡水區中正路二段32巷32號","121.420906666667","25.1829","6501000","淡水區"
"251012","441-VK","2019/09/21 21:29:36","新北市淡水區淡金路五段35巷46號","121.45249","25.2347316666667","6501000","淡水區"
"251005","443-VK","2019/09/21 21:29:39","新北市淡水區水源街一段54號","121.444545","25.1721933333333","6501000","淡水區"
"251001","559-UM","2019/09/21 21:29:25","新北市淡水區濱海路三段148巷50弄76號","121.431398333333","25.1905933333333","6501000","淡水區"
"251006","561-UM","2019/09/21 21:29:33","新北市淡水區公明街75號","121.443951666667","25.1684233333333","6501000","淡水區"
"251014","577-R6","2019/09/21 21:29:30","新北市淡水區六塊厝2-1號","121.45016","25.2404233333333","6501000","淡水區"
"251011","650-BX","2019/09/21 21:29:23","新北市淡水區新民街164號","121.43707","25.17832","6501000","淡水區"
"251003","766-UM","2019/09/21 21:29:43","新北市淡水區新春街65巷9號","121.437895","25.1823633333333","6501000","淡水區"
"242002","441-UM","2019/09/21 21:29:32","新北市八里區中山路三段387號","121.371468333333","25.1372666666667","6500500","新莊區"
