"lineid","car","time","location","longitude","latitude","cityid","cityname"
"244002","248-BX","2019/07/30 08:19:21","新北市林口區下福里87-12號","121.28736","25.113235","6501700","林口區"
"222004","289-BY","2019/07/30 08:16:38","新北市深坑區昇高坑路66號","121.629353333333","24.991985","6501800","深坑區"
"231007","189-VK","2019/07/30 08:19:25","新北市新店區新潭路一段161-1號","121.529153333333","24.9342116666667","6500600","新店區"
"231009","192-VK","2019/07/30 08:19:32","新北市新店區新烏路二段386號","121.551348333333","24.9094516666667","6500600","新店區"
"226002","8452-VL","2019/07/30 08:19:27","新北市平溪區望古里灰3-1號","121.755688333333","25.0290983333333","6502400","平溪區"
"226006","AGD-0702","2019/07/30 08:19:18","新北市平溪區新寮里新寮路1號","121.792993333333","25.0592983333333","6502400","平溪區"
"223003","205-TH","2019/07/30 08:19:18","新北市石碇區北宜路五段80號","121.646335","24.9517116666667","6501900","石碇區"
"223008","406-TH","2019/07/30 08:19:34","新北市石碇區靜安路一段184號","121.669753333333","25.00535","6501900","石碇區"
"223001","592-UM","2019/07/30 08:19:24","新北市石碇區北宜路五段80號","121.646408333333","24.9516616666667","6501900","石碇區"
"223004","660-BX","2019/07/30 08:19:18","新北市石碇區外按11-5號","121.651226666667","24.99919","6501900","石碇區"
"223007","661-BX","2019/07/30 08:19:21","新北市石碇區靜安路一段184號","121.66942","25.0053166666667","6501900","石碇區"
"223005","677-TV","2019/07/30 08:19:20","新北市石碇區外按11-5號","121.651363333333","24.9992733333333","6501900","石碇區"
"227004","282-VK","2019/07/30 08:19:34","新北市雙溪區牡丹里中正路1-1號","121.863598333333","25.043885","6502500","雙溪區"
"252004","249-BX","2019/07/30 08:19:19","新北市三芝區興華里車埕59號","121.498713333333","25.19693","6502100","三芝區"
"252007","AAC-283","2019/07/30 08:19:25","新北市三芝區後厝里大片頭71-1號","121.462568333333","25.2437066666667","6502100","三芝區"
"237014","760-BX","2019/07/30 08:19:32","新北市三峽區九份路6-7號","121.452155","24.897205","6500900","三峽區"
"226005","ANY-2373","2019/07/30 08:19:19","新北市平溪區南山里六分1號","121.791745","25.0465833333333","6502400","平溪區"
