"lineid","car","time","location","longitude","latitude","cityid","cityname"
"222004","289-BY","2019/07/30 09:09:18","新北市深坑區王軍寮7號","121.615705","24.984915","6501800","深坑區"
"231007","189-VK","2019/07/30 09:09:25","新北市新店區新潭路三段109號","121.50659","24.9099216666667","6500600","新店區"
"231009","192-VK","2019/07/30 09:09:32","新北市新店區平廣路一段30-1號","121.534656666667","24.90299","6500600","新店區"
"226006","AGD-0702","2019/07/30 09:09:18","新北市平溪區靜安路二段295號","121.732651666667","25.02441","6502400","平溪區"
"223003","205-TH","2019/07/30 09:09:18","新北市石碇區北宜路六段十三股巷3號","121.649775","24.944165","6501900","石碇區"
"223008","406-TH","2019/07/30 08:57:18","新北市石碇區光明路16號","121.68336","25.03301","6501900","石碇區"
"223001","592-UM","2019/07/30 09:09:24","新北市石碇區北宜路六段十三股巷1號","121.649213333333","24.9474133333333","6501900","石碇區"
"223004","660-BX","2019/07/30 09:09:18","新北市石碇區磨石坑36-6號","121.692183333333","24.966635","6501900","石碇區"
"223007","661-BX","2019/07/30 09:09:21","新北市石碇區光明路1號","121.675595","25.0287066666667","6501900","石碇區"
"223005","677-TV","2019/07/30 09:09:19","新北市石碇區磨石坑36號","121.692101666667","24.9667016666667","6501900","石碇區"
"227004","282-VK","2019/07/30 09:09:34","新北市雙溪區上林里大瀨1號","121.830045","25.025185","6502500","雙溪區"
"227006","030-BX","2019/07/30 08:59:27","新北市雙溪區泰平里料角坑32號","121.797425","24.9736133333333","6502500","雙溪區"
"252004","249-BX","2019/07/30 09:09:19","新北市淡水區大埤頭1-3號","121.49248","25.1949733333333","6502100","三芝區"
"252007","AAC-283","2019/07/30 09:09:25","新北市三芝區後厝里北勢子3-5號","121.479748333333","25.252925","6502100","三芝區"
"237014","760-BX","2019/07/30 09:09:12","新北市三峽區三層坪路15巷6號","121.437718333333","24.90881","6500900","三峽區"
