"lineid","car","time","location","longitude","latitude","cityid","cityname"
"222004","289-BY","2019/07/30 09:39:18","新北市深坑區阿柔洋63號","121.607656666667","24.997365","6501800","深坑區"
"231009","192-VK","2019/07/30 09:39:32","新北市新店區平廣路一段50號","121.533921666667","24.9008316666667","6500600","新店區"
"223001","592-UM","2019/07/30 09:39:24","新北市石碇區北宜路四段15號","121.614638333333","24.9606416666667","6501900","石碇區"
"223004","660-BX","2019/07/30 09:39:18","新北市石碇區碇坪路一段252號","121.675316666667","24.9781933333333","6501900","石碇區"
"227004","282-VK","2019/07/30 09:39:34","新北市雙溪區長源里赤皮崙1號","121.799455","25.0163833333333","6502500","雙溪區"
"227006","030-BX","2019/07/30 09:39:27","新北市坪林區中心崙2-1號","121.785126666667","24.953525","6502500","雙溪區"
"252004","249-BX","2019/07/30 09:39:19","新北市三芝區圓山里石曹子坑68號","121.523685","25.2172516666667","6502100","三芝區"
"252007","AAC-283","2019/07/30 09:39:25","新北市三芝區新庄里新庄子103號","121.515818333333","25.26981","6502100","三芝區"
"237014","760-BX","2019/07/30 09:39:32","新北市三峽區成福路75號","121.418655","24.92932","6500900","三峽區"
