"lineid","car","time","location","longitude","latitude","cityid","cityname"
"234044","148-BY","2019/07/30 13:59:46","新北市永和區成功路一段26號","121.52698","25.004795","6500400","永和區"
"234078","298-R6","2019/07/30 13:59:43","新北市永和區永利路77號","121.521351666667","25.0038033333333","6500400","永和區"
"234036","336-UY","2019/07/30 13:59:43","新北市永和區成功路二段80號","121.526665","24.9988566666667","6500400","永和區"
"234062","337-UY","2019/07/30 13:59:54","新北市永和區中正路368巷1弄49號","121.519341666667","25.0012283333333","6500400","永和區"
"234084","338-UY","2019/07/30 13:59:48","新北市永和區福和路72號","121.523141666667","25.0080533333333","6500400","永和區"
"234068","552-UM","2019/07/30 13:59:52","新北市永和區國光路39-2號","121.519083333333","25.0080916666667","6500400","永和區"
"234015","745-BX","2019/07/30 13:59:51","新北市永和區文化路50號","121.514596666667","25.0151316666667","6500400","永和區"
"234028","746-BX","2019/07/30 13:59:56","新北市永和區民生路47巷21號","121.524163333333","24.997625","6500400","永和區"
"234052","KEA-2590","2019/07/30 13:59:51","新北市永和區環河東路一段122號","121.520596666667","25.015405","6500400","永和區"
"234005","KED-0605","2019/07/30 13:59:54","新北市中和區中和路260-1號","121.508181666667","24.9996233333333","6500400","永和區"
"234012","KEA-2591","2019/07/30 13:59:44","新北市永和區保生路55號","121.504771666667","25.01056","6500400","永和區"
"234060","AAD-866","2019/07/30 13:59:43","新北市永和區中正路151巷14號","121.515648333333","24.99881","6500400","永和區"
"234040","862-TW","2019/07/30 13:59:52","新北市永和區雙和街17巷22號","121.508946666667","25.0014066666667","6500400","永和區"
"234048","863-TW","2019/07/30 13:59:48","新北市永和區新生路210巷2號","121.505573333333","25.013165","6500400","永和區"
"234025","9371-KE","2019/07/30 13:59:45","新北市永和區自由街47號","121.5141","25.0059183333333","6500400","永和區"
"234010","9373-KE","2019/07/30 13:59:44","新北市永和區仁愛路352巷112弄12號","121.501206666667","25.0085533333333","6500400","永和區"
"248017","KED-0813","2019/07/30 13:59:53","新北市五股區民義路一段220巷5-8號","121.428413333333","25.09323","6501500","五股區"
"234022","9380-KE","2019/07/30 13:59:46","新北市永和區永和路二段239號","121.515698333333","25.0146516666667","6500400","永和區"
"234076","969-R7","2019/07/30 13:59:38","新北市永和區民權路58巷2弄2號","121.519695","24.99833","6500400","永和區"
"234072","AAC-211","2019/07/30 13:59:37","新北市永和區豫溪街136巷1號","121.521315","25.0103783333333","6500400","永和區"
"234066","AAC-212","2019/07/30 13:59:48","新北市永和區永貞路356號","121.510341666667","25.006535","6500400","永和區"
"234001","AAC-295","2019/07/30 13:59:51","新北市永和區福和路310號","121.516301666667","25.0073583333333","6500400","永和區"
"244002","248-BX","2019/07/30 13:59:42","新北市林口區南勢里33-3號","121.35224","25.0703083333333","6501700","林口區"
"231030","002-UM","2019/07/30 13:59:41","新北市新店區安康路一段266巷4號","121.520073333333","24.9640566666667","6500600","新店區"
"231024","0291-UT","2019/07/30 13:59:52","新北市新店區北新路一段271巷35號","121.539456666667","24.9669516666667","6500600","新店區"
"231027","0293-UT","2019/07/30 13:59:47","新北市新店區中興路一段24-3號","121.538788333333","24.9581516666667","6500600","新店區"
"231005","046-UY","2019/07/30 13:59:41","新北市新店區中興路三段198號","121.543958333333","24.98176","6500600","新店區"
"231029","106-UY","2019/07/30 13:59:45","新北市新店區安康路二段3-1號","121.516046666667","24.9636816666667","6500600","新店區"
"231018","107-UY","2019/07/30 13:59:51","新北市新店區中央路107號","121.530958333333","24.97476","6500600","新店區"
"231013","108-UY","2019/07/30 13:59:40","新北市新店區明德路107號","121.541458333333","24.9792866666667","6500600","新店區"
"231036","KEA-2219","2019/07/30 13:59:39","新北市新店區安祥路109巷3弄33號","121.478808333333","24.9609383333333","6500600","新店區"
"231032","256-BX","2019/07/30 13:59:45","新北市新店區莒光路44巷21弄11-6號","121.518403333333","24.952285","6500600","新店區"
"231023","260-TV","2019/07/30 13:59:46","新北市新店區文中路40號","121.53969","24.956525","6500600","新店區"
"231003","268-BY","2019/07/30 13:59:39","新北市新店區中興路一段34號","121.538655","24.95864","6500600","新店區"
"231035","278-BY","2019/07/30 13:59:36","新北市新店區安和路一段52巷2號","121.517628333333","24.9662216666667","6500600","新店區"
"231006","355-BY","2019/07/30 13:59:52","新北市新店區北宜路二段145號","121.551421666667","24.953105","6500600","新店區"
"231038","3712-VJ","2019/07/30 13:59:37","新北市新店區安華路30巷1號","121.519678333333","24.9592883333333","6500600","新店區"
"231025","4715-K9","2019/07/30 13:59:52","新北市新店區中正路302巷2號","121.537676666667","24.9747783333333","6500600","新店區"
"231015","512-UM","2019/07/30 13:59:41","新北市新店區北宜路二段295號","121.556158333333","24.954135","6500600","新店區"
"231020","513-UM","2019/07/30 13:59:40","新北市新店區自強路36號","121.546095","24.9263116666667","6500600","新店區"
"231002","619-UM","2019/07/30 13:59:50","新北市新店區中正路630號","121.53393","24.9890733333333","6500600","新店區"
"231034","641-BX","2019/07/30 13:59:55","新北市新店區達觀路41號","121.502818333333","24.9387483333333","6500600","新店區"
"231012","KED-0819","2019/07/30 13:59:50","新北市新店區中興路二段61號","121.546613333333","24.9705883333333","6500600","新店區"
"231010","719-UM","2019/07/30 13:59:10","新北市新店區安康路一段351-1號","121.519666666667","24.963575","6500600","新店區"
"231026","720-UM","2019/07/30 13:59:53","新北市新店區三民路159巷19弄46號","121.53218","24.9732533333333","6500600","新店區"
"231028","897-TW","2019/07/30 13:59:51","新北市新店區安和路三段37號","121.517776666667","24.981775","6500600","新店區"
"231001","898-TW","2019/07/30 13:59:53","新北市新店區三民路45號","121.537118333333","24.9709516666667","6500600","新店區"
"231004","899-TW","2019/07/30 13:59:43","新北市新店區北新路二段128號","121.543095","24.9748316666667","6500600","新店區"
"231037","AKT-0513","2019/07/30 13:59:50","新北市新店區安康路三段355巷29號","121.484986666667","24.9499216666667","6500600","新店區"
"235030","003-UY","2019/07/30 13:59:50","新北市中和區水源路6巷6號","121.503475","25.0033716666667","6500300","中和區"
"235028","005-UY","2019/07/30 13:59:36","新北市中和區中和路38號","121.499888333333","25.0014116666667","6500300","中和區"
"235027","006-UY","2019/07/30 13:59:40","新北市中和區連城路268-6號","121.48641","24.9963266666667","6500300","中和區"
"235020","096-UM","2019/07/30 13:59:40","新北市板橋區三民路二段228號","121.478756666667","25.0112733333333","6500300","中和區"
"235003","097-UM","2019/07/30 13:59:53","新北市中和區秀朗路三段179號","121.524393333333","24.9909183333333","6500300","中和區"
"235029","098-UM","2019/07/30 13:59:54","新北市中和區中山路二段136巷70號","121.50057","25.0046933333333","6500300","中和區"
"235004","150-BY","2019/07/30 13:59:49","新北市中和區保健路46巷20弄1號","121.508826666667","24.9960566666667","6500300","中和區"
"235022","151-BY","2019/07/30 13:59:35","新北市中和區連城路573-1號","121.478911666667","24.9943033333333","6500300","中和區"
"235019","183-VK","2019/07/30 13:59:44","新北市中和區德光路109號","121.468223333333","25.003225","6500300","中和區"
"235002","185-VK","2019/07/30 13:59:38","新北市中和區立人街20號","121.519025","24.9941716666667","6500300","中和區"
"235013","186-VK","2019/07/30 13:59:53","新北市中和區景新街175號","121.506783333333","24.99554","6500300","中和區"
"235031","255-BX","2019/07/30 13:59:37","新北市中和區新生街191號","121.48375","25.0002833333333","6500300","中和區"
"235008","293-VK","2019/07/30 13:59:41","新北市中和區中興街202巷35號","121.498925","24.98979","6500300","中和區"
"235036","301-VK","2019/07/30 13:59:39","新北市中和區中山路二段146-3號","121.501673333333","25.0029533333333","6500300","中和區"
"235007","352-BY","2019/07/30 13:59:52","新北市中和區成功路90號","121.525903333333","24.9912433333333","6500300","中和區"
"235006","KEA-2878","2019/07/30 13:59:38","新北市中和區秀朗路三段130號","121.524556666667","24.9921616666667","6500300","中和區"
"247013","KEA-2869","2019/07/30 13:59:52","新北市蘆洲區中正路193號","121.46837","25.0856083333333","6501400","蘆洲區"
"247007","KED-0682","2019/07/30 13:59:44","新北市蘆洲區重陽一街17號","121.481086666667","25.0816283333333","6501400","蘆洲區"
"235014","4979-A6","2019/07/30 13:59:55","新北市中和區華新街50巷3號","121.507761666667","24.983935","6500300","中和區"
"235033","4980-A6","2019/07/30 13:59:39","新北市中和區圓通路109巷1弄1號","121.499643333333","24.9965116666667","6500300","中和區"
"235034","558-UM","2019/07/30 13:59:46","新北市中和區中和路207號","121.503798333333","24.9998416666667","6500300","中和區"
"235009","565-BX","2019/07/30 13:59:37","新北市中和區景新街467巷35弄11號","121.514205","24.9888916666667","6500300","中和區"
"235018","640-BX","2019/07/30 13:59:36","新北市中和區國光街107巷2弄2-1號","121.470075","25.0000466666667","6500300","中和區"
"235011","732-UM","2019/07/30 13:59:44","新北市中和區興南路二段54巷9弄1號","121.506096666667","24.985455","6500300","中和區"
"235010","733-UM","2019/07/30 13:59:49","新北市中和區興南路二段31巷3號","121.507921666667","24.9855916666667","6500300","中和區"
"235035","783-BX","2019/07/30 13:59:51","新北市中和區立德街98巷55號","121.487678333333","25.0090183333333","6500300","中和區"
"235026","800-TS","2019/07/30 13:59:50","新北市中和區中山路二段366巷13-1號","121.491775","25.0043716666667","6500300","中和區"
"235021","801-TS","2019/07/30 13:59:47","新北市中和區民利街54號","121.479208333333","24.998725","6500300","中和區"
"235016","805-TS","2019/07/30 13:59:41","新北市中和區興南路二段261巷7-1號","121.503193333333","24.97986","6500300","中和區"
"235012","896-TW","2019/07/30 13:59:39","新北市中和區華新街57號","121.507938333333","24.9843083333333","6500300","中和區"
"235017","900-TW","2019/07/30 13:59:51","新北市板橋區重慶路376號","121.464273333333","24.9968633333333","6500300","中和區"
"235015","157-BY","2019/07/30 13:59:43","新北市中和區忠孝街19巷46號","121.509568333333","24.9850683333333","6500300","中和區"
"235001","AAC-213","2019/07/30 13:59:46","新北市中和區秀朗路三段60巷1號","121.526125","24.9951066666667","6500300","中和區"
"235023","AAC-215","2019/07/30 13:59:43","新北市中和區圓通路369巷10號","121.490561666667","24.9881366666667","6500300","中和區"
"220016","015-TV","2019/07/30 13:59:53","新北市板橋區中山路二段443巷70號","121.481103333333","25.0220433333333","6500100","板橋區"
"220013","072-UY","2019/07/30 13:59:42","新北市板橋區漢生東路315號","121.471933333333","25.0080866666667","6500100","板橋區"
"220034","073-UY","2019/07/30 13:59:50","新北市板橋區大智街34號","121.455221666667","25.0150166666667","6500100","板橋區"
"220017","AAD-861","2019/07/30 13:59:48","新北市板橋區四川路一段153號","121.459921666667","25.0041316666667","6500100","板橋區"
"247017","546-UM","2019/07/30 13:59:44","新北市蘆洲區民族路327巷77號","121.475405","25.0895966666667","6501400","蘆洲區"
"247012","402-BY","2019/07/30 13:59:48","新北市八里區下罟子8-10號","121.382738333333","25.14437","6501400","蘆洲區"
"247003","341-TH","2019/07/30 13:59:42","新北市蘆洲區長安街100號","121.461855","25.0809083333333","6501400","蘆洲區"
"247023","337-TH","2019/07/30 13:59:38","新北市蘆洲區光榮路100號","121.46411","25.089225","6501400","蘆洲區"
"247001","336-TH","2019/07/30 13:59:46","新北市蘆洲區永平街32巷62弄1號","121.460095","25.093045","6501400","蘆洲區"
"247021","057-VK","2019/07/30 13:59:52","新北市蘆洲區中正路178號","121.467186666667","25.0878833333333","6501400","蘆洲區"
"247011","056-VK","2019/07/30 13:59:48","新北市蘆洲區中興街60號","121.481926666667","25.0876583333333","6501400","蘆洲區"
"247015","053-VK","2019/07/30 13:59:52","新北市蘆洲區光華路40號","121.468956666667","25.0831533333333","6501400","蘆洲區"
"247019","007-UY","2019/07/30 13:59:30","新北市蘆洲區民族路422巷11號","121.473965","25.0923333333333","6501400","蘆洲區"
"247005","002-UY","2019/07/30 13:59:51","新北市蘆洲區永安南路二段44-1號","121.46644","25.0774583333333","6501400","蘆洲區"
"235005","251-BX","2019/07/30 13:59:48","新北市中和區中安街42號","121.513041666667","25.0027516666667","6500300","中和區"
"228004","212-TW","2019/07/30 13:59:49","新北市貢寮區龍崗里嵩陽街40號","121.905413333333","25.014995","6502600","貢寮區"
"228005","828-UM","2019/07/30 13:50:37","新北市貢寮區美豐里土地公嶺23號","121.888633333333","25.06101","6502600","貢寮區"
"207002","749-BX","2019/07/30 13:58:57","新北市萬里區溪底里烏塗炭3-1號","121.635948333333","25.151365","6502800","萬里區"
"207001","662-BX","2019/07/30 13:59:39","新北市萬里區磺潭里清水13號","121.63525","25.2020316666667","6502800","萬里區"
"252005","AAC-283","2019/07/30 13:59:44","新北市三芝區橫山里橫山49號","121.53468","25.2573166666667","6502100","三芝區"
"236040","KED-0685","2019/07/30 13:59:49","新北市土城區城林路6巷80號","121.438418333333","24.9798483333333","6501300","土城區"
"220038","KED-0812","2019/07/30 13:59:51","新北市板橋區文化路二段347號","121.472753333333","25.030575","6500100","板橋區"
"236074","166-UM","2019/07/30 13:59:49","新北市土城區永寧路32巷10弄21號","121.428991666667","24.9610533333333","6501300","土城區"
"236024","269-VK","2019/07/30 13:59:38","新北市土城區中央路三段46號","121.437321666667","24.9676766666667","6501300","土城區"
"236013","270-VK","2019/07/30 13:59:50","新北市土城區學府路一段166-1號","121.454145","24.9866033333333","6501300","土城區"
"236032","271-VK","2019/07/30 13:59:47","新北市土城區城林路6巷80號","121.438586666667","24.97984","6501300","土城區"
"247009","KED-0683","2019/07/30 13:59:35","新北市蘆洲區集賢路224巷11號","121.482051666667","25.0867583333333","6501400","蘆洲區"
"236065","KEA-2877","2019/07/30 13:59:30","新北市土城區和平路42號","121.444986666667","24.97071","6501300","土城區"
"236017","401-BY","2019/07/30 13:59:47","新北市土城區城林路6巷80號","121.438551666667","24.9797666666667","6501300","土城區"
"236029","752-BX","2019/07/30 13:59:44","新北市土城區城林路6巷80號","121.438596666667","24.9797283333333","6501300","土城區"
"236057","912-UM","2019/07/30 13:59:44","新北市土城區中央路三段260號","121.427218333333","24.9639766666667","6501300","土城區"
"236045","913-UM","2019/07/30 13:59:52","新北市土城區城林路6巷80號","121.438633333333","24.9797583333333","6501300","土城區"
"236060","915-UM","2019/07/30 13:59:45","新北市土城區中華路二段87-1號","121.439245","24.9777216666667","6501300","土城區"
"236054","AAC-216","2019/07/30 13:59:51","新北市土城區城林路6巷80號","121.438475","24.9797616666667","6501300","土城區"
"220027","145-BY","2019/07/30 13:59:54","新北市板橋區大仁街63號","121.454228333333","25.0162216666667","6500100","板橋區"
"220028","200-UY","2019/07/30 13:59:48","新北市板橋區樂群路42-6號","121.44489","24.9974716666667","6500100","板橋區"
"220030","610-BX","2019/07/30 13:59:36","新北市板橋區篤行路三段8號","121.429241666667","24.9878183333333","6500100","板橋區"
"220032","256-TC","2019/07/30 13:59:42","新北市板橋區篤行路一段12-1號","121.431343333333","24.99578","6500100","板橋區"
"220004","276-BY","2019/07/30 13:59:48","新北市板橋區信義路161號","121.458405","24.9927216666667","6500100","板橋區"
"220020","277-BY","2019/07/30 13:59:45","新北市樹林區樹新路120巷13號","121.430531666667","24.9970616666667","6500100","板橋區"
"220050","280-UM","2019/07/30 13:59:45","新北市板橋區莊敬路220巷3號","121.47258","25.021225","6500100","板橋區"
"220019","283-VK","2019/07/30 13:59:49","新北市板橋區重慶路245巷54號","121.465178333333","25.0008733333333","6500100","板橋區"
"220043","285-UM","2019/07/30 13:59:50","新北市板橋區光武街140號","121.465463333333","25.03011","6500100","板橋區"
"220001","285-VK","2019/07/30 13:59:41","新北市板橋區永豐街123號","121.474508333333","25.0196983333333","6500100","板橋區"
"220031","286-VK","2019/07/30 13:59:43","新北市板橋區大觀路一段38巷156弄34號","121.442515","25.0052483333333","6500100","板橋區"
"220029","287-VK","2019/07/30 13:59:53","新北市板橋區光華街19巷8號","121.45363","25.0121","6500100","板橋區"
"220039","288-VK","2019/07/30 13:59:44","新北市板橋區四維路327號","121.46261","25.029255","6500100","板橋區"
"220009","293-UM","2019/07/30 13:59:37","新北市板橋區中山路二段275號","121.477898333333","25.01786","6500100","板橋區"
"220105","299-UM","2019/07/30 13:59:49","新北市板橋區文化路二段263巷17號","121.470891666667","25.0294133333333","6500100","板橋區"
"220023","303-R5","2019/07/30 13:59:48","新北市板橋區南興路34號","121.454676666667","25.00763","6500100","板橋區"
"220010","305-R5","2019/07/30 13:59:38","新北市中和區員山路611巷5弄5號","121.47819","25.011235","6500100","板橋區"
"220041","307-R5","2019/07/30 13:59:41","新北市板橋區文化路二段225巷60弄64號","121.469148333333","25.029905","6500100","板橋區"
"220047","317-R6","2019/07/30 13:59:52","新北市板橋區莊敬路148-2號","121.470548333333","25.0225566666667","6500100","板橋區"
"220003","461-BY","2019/07/30 13:59:48","新北市板橋區中山路一段168-2號","121.467321666667","25.0118866666667","6500100","板橋區"
"220037","491-VK","2019/07/30 13:59:38","新北市板橋區莊敬路38號","121.472856666667","25.02714","6500100","板橋區"
"220104","560-BX","2019/07/30 13:59:53","新北市板橋區中正路341巷37號","121.454013333333","25.0196966666667","6500100","板橋區"
"220052","561-BX","2019/07/30 13:59:40","新北市板橋區介壽街41號","121.468688333333","25.019815","6500100","板橋區"
"220011","609-BX","2019/07/30 13:59:34","新北市板橋區三民路二段33號","121.479463333333","25.0176533333333","6500100","板橋區"
"220040","637-BX","2019/07/30 13:59:50","新北市板橋區大同街29號","121.477678333333","25.0271783333333","6500100","板橋區"
"220005","686-BX","2019/07/30 13:59:50","新北市板橋區重慶路321號","121.463916666667","24.9985633333333","6500100","板橋區"
"220025","687-BX","2019/07/30 13:59:46","新北市板橋區大觀路二段174巷137號","121.441131666667","25.0020366666667","6500100","板橋區"
"220002","741-BX","2019/07/30 13:59:47","新北市板橋區重慶路127巷19號","121.46362","25.00506","6500100","板橋區"
"220051","KEA-2699","2019/07/30 13:59:51","新北市板橋區萬板路810號","121.482686666667","25.02731","6500100","板橋區"
"220014","829-TW","2019/07/30 13:59:51","新北市板橋區三民路二段正隆巷17號","121.477511666667","25.0131183333333","6500100","板橋區"
"220022","895-R6","2019/07/30 13:59:52","新北市板橋區西門街59號","121.454416666667","25.0091716666667","6500100","板橋區"
"220021","985-R7","2019/07/30 13:59:43","新北市板橋區西門街2號","121.45585","25.0115316666667","6500100","板橋區"
"220046","AAC-210","2019/07/30 13:59:57","新北市板橋區新海路135巷2號","121.45993","25.022965","6500100","板橋區"
"220012","AAC-253","2019/07/30 13:59:57","新北市板橋區板新路55號","121.473911666667","25.0132283333333","6500100","板橋區"
"235032","KEA-2873","2019/07/30 13:59:42","新北市中和區圓通路158巷15號","121.497388333333","24.9961883333333","6500300","中和區"
"235025","KEA-2875","2019/07/30 13:59:27","新北市中和區員山路150-14號","121.481395","24.9977116666667","6500300","中和區"
