"lineid","car","time","location","longitude","latitude","cityid","cityname"
"234036","336-UY","2019/07/30 15:09:41","新北市八里區中山路三段112號","121.387596666667","25.1464466666667","6500400","永和區"
"248017","KED-0813","2019/07/30 15:09:53","新北市五股區登林路97-2號","121.415801666667","25.07545","6501500","五股區"
"244002","248-BX","2019/07/30 15:09:42","新北市林口區中山路685號","121.377396666667","25.0840166666667","6501700","林口區"
"231030","002-UM","2019/07/30 15:09:41","新北市新店區安民街341-1號","121.516871666667","24.97493","6500600","新店區"
"231024","0291-UT","2019/07/30 15:09:46","新北市新店區中華路42巷38號","121.541311666667","24.9692583333333","6500600","新店區"
"231005","046-UY","2019/07/30 15:09:41","新北市新店區北新路三段67號","121.54171","24.9811116666667","6500600","新店區"
"231029","106-UY","2019/07/30 15:09:45","新北市新店區錦秀路25號","121.479346666667","24.9442666666667","6500600","新店區"
"231018","107-UY","2019/07/30 15:09:51","新北市新店區中央七街95號","121.526405","24.9772666666667","6500600","新店區"
"231013","108-UY","2019/07/30 15:09:40","新北市新店區永業路96-1號","121.529966666667","24.951285","6500600","新店區"
"231039","187-VK","2019/07/30 15:09:35","新北市新店區寶安街18號","121.542088333333","24.9819216666667","6500600","新店區"
"231036","KEA-2219","2019/07/30 15:08:59","","121.480866666667","24.963295","6500600","新店區"
"231032","256-BX","2019/07/30 15:09:45","新北市新店區安泰路60巷55弄95號","121.484651666667","24.9459016666667","6500600","新店區"
"231023","260-TV","2019/07/30 15:09:46","新北市新店區檳榔路105號","121.54463","24.961655","6500600","新店區"
"231003","268-BY","2019/07/30 15:09:39","新北市新店區寶橋路221號","121.549345","24.9775883333333","6500600","新店區"
"231035","278-BY","2019/07/30 15:09:56","新北市新店區安和路三段112號","121.517133333333","24.985365","6500600","新店區"
"231006","355-BY","2019/07/30 15:09:52","新北市新店區新坡一街60號","121.54972","24.96298","6500600","新店區"
"231038","3712-VJ","2019/07/30 15:09:37","新北市新店區安華路28-1號","121.519651666667","24.9609966666667","6500600","新店區"
"231025","4715-K9","2019/07/30 15:09:52","新北市新店區中央路87號","121.532153333333","24.976435","6500600","新店區"
"231015","512-UM","2019/07/30 15:09:41","新北市新店區銀河路21號","121.573188333333","24.9571133333333","6500600","新店區"
"231020","513-UM","2019/07/30 15:09:51","新北市新店區新烏路二段9-2號","121.544253333333","24.9294383333333","6500600","新店區"
"231002","619-UM","2019/07/30 15:09:50","新北市新店區中正路523號","121.533561666667","24.985125","6500600","新店區"
"231034","641-BX","2019/07/30 15:09:55","新北市新店區玫瑰路4-1號","121.493688333333","24.9513783333333","6500600","新店區"
"231012","KED-0819","2019/07/30 15:09:46","新北市新店區寶元路一段65號","121.542213333333","24.9858366666667","6500600","新店區"
"231026","720-UM","2019/07/30 15:09:42","新北市新店區建興街9巷1號","121.53985","24.97636","6500600","新店區"
"231028","897-TW","2019/07/30 15:09:51","新北市新店區安豐路49號","121.499985","24.9549133333333","6500600","新店區"
"231001","898-TW","2019/07/30 15:09:53","新北市新店區中正路251號","121.539003333333","24.9734366666667","6500600","新店區"
"231004","899-TW","2019/07/30 15:09:43","新北市新店區建國路10-1號","121.540045","24.9736166666667","6500600","新店區"
"231037","AKT-0513","2019/07/30 15:09:50","新北市新店區安興路56號","121.516525","24.974985","6500600","新店區"
"241018","268-UM","2019/07/30 15:09:51","新北市三重區重新路四段121號","121.485196666667","25.052015","6500200","三重區"
"235030","003-UY","2019/07/30 15:09:50","新北市中和區南工路102號","121.50733","25.00333","6500300","中和區"
"235020","096-UM","2019/07/30 15:09:39","新北市中和區民享街95-5號","121.47503","24.9999216666667","6500300","中和區"
"235004","150-BY","2019/07/30 15:09:48","新北市中和區景安路25號","121.507688333333","24.9988233333333","6500300","中和區"
"235036","301-VK","2019/07/30 15:09:39","新北市中和區板南路399巷2號","121.493433333333","24.999115","6500300","中和區"
"235014","4979-A6","2019/07/30 15:09:55","新北市中和區景新街313號","121.511146666667","24.9923033333333","6500300","中和區"
"235033","4980-A6","2019/07/30 15:09:41","新北市中和區景新街64巷10號","121.504005","24.9986016666667","6500300","中和區"
"235034","558-UM","2019/07/30 15:09:46","新北市中和區中正路448號","121.49089","24.99425","6500300","中和區"
"235035","783-BX","2019/07/30 15:09:51","新北市中和區中板路47巷8號","121.482086666667","25.0111416666667","6500300","中和區"
"235012","896-TW","2019/07/30 15:09:39","新北市中和區興南路一段130號","121.5094","24.9883316666667","6500300","中和區"
"235023","AAC-215","2019/07/30 15:09:23","新北市中和區圓通路367巷13弄1號","121.492568333333","24.9882266666667","6500300","中和區"
"220013","072-UY","2019/07/30 15:09:41","新北市板橋區中山路一段154巷21號","121.465333333333","25.01057","6500100","板橋區"
"220017","AAD-861","2019/07/30 15:09:48","新北市五股區新五路二段2巷2-1號","121.43826","25.065395","6500100","板橋區"
"228004","212-TW","2019/07/30 15:09:49","新北市貢寮區雙玉里田寮洋街6-4號","121.924478333333","25.02389","6502600","貢寮區"
"207002","749-BX","2019/07/30 15:09:37","新北市萬里區崁腳里內中福路88號","121.655591666667","25.1657683333333","6502800","萬里區"
"207001","662-BX","2019/07/30 15:09:59","新北市萬里區雙興里麗水路8號","121.649873333333","25.1868766666667","6502800","萬里區"
"236040","KED-0685","2019/07/30 15:09:49","新北市土城區裕民路233巷5號","121.454885","24.983505","6501300","土城區"
"220038","KED-0812","2019/07/30 15:09:50","新北市板橋區四維路253號","121.463456666667","25.0278383333333","6500100","板橋區"
"236074","166-UM","2019/07/30 15:09:49","新北市土城區中州路24巷24號","121.415103333333","24.957825","6501300","土城區"
"236024","269-VK","2019/07/30 15:09:41","新北市土城區中央路二段149巷13號","121.442533333333","24.9767283333333","6501300","土城區"
"236013","270-VK","2019/07/30 15:09:50","新北市土城區學府路一段23巷21-1號","121.457928333333","24.987115","6501300","土城區"
"236065","KEA-2877","2019/07/30 15:09:50","新北市土城區學成路126號","121.449268333333","24.9896266666667","6501300","土城區"
"236017","401-BY","2019/07/30 15:09:47","新北市土城區明峰街83號","121.468956666667","24.9874016666667","6501300","土城區"
"236029","752-BX","2019/07/30 15:09:52","新北市土城區福祥街61號","121.44094","24.9803","6501300","土城區"
"236057","912-UM","2019/07/30 15:09:43","新北市土城區金城路一段72號","121.443716666667","24.97255","6501300","土城區"
"236045","913-UM","2019/07/30 15:09:52","新北市土城區清水路272號","121.4619","24.9834","6501300","土城區"
"236060","915-UM","2019/07/30 15:09:44","新北市中和區莒光路217-3號","121.467506666667","24.9934583333333","6501300","土城區"
"236054","AAC-216","2019/07/30 15:09:51","新北市土城區學府路一段276號","121.450226666667","24.9833583333333","6501300","土城區"
"221012","278-VK","2019/07/30 15:09:48","新北市汐止區長江街213號","121.661326666667","25.077625","6501100","汐止區"
"220027","145-BY","2019/07/30 15:09:54","新北市板橋區公館街27號","121.460998333333","25.0153083333333","6500100","板橋區"
"220028","200-UY","2019/07/30 15:09:43","新北市板橋區大觀路二段181號","121.44501","25.0000016666667","6500100","板橋區"
"220030","610-BX","2019/07/30 15:09:36","新北市板橋區金門街182-3號","121.432663333333","24.990945","6500100","板橋區"
"220050","280-UM","2019/07/30 15:09:52","新北市板橋區莊敬路47號","121.473136666667","25.0269033333333","6500100","板橋區"
"220031","286-VK","2019/07/30 15:09:41","新北市板橋區僑中二街92巷2號","121.446213333333","25.0089366666667","6500100","板橋區"
"220029","287-VK","2019/07/30 15:09:49","新北市板橋區僑中一街124巷18弄43號","121.447838333333","25.0136033333333","6500100","板橋區"
"220023","303-R5","2019/07/30 15:09:48","新北市板橋區金華街10巷48弄83號","121.459918333333","25.020425","6500100","板橋區"
"220010","305-R5","2019/07/30 15:09:58","新北市板橋區民治街57巷32-1號","121.481545","25.0359333333333","6500100","板橋區"
"220003","461-BY","2019/07/30 15:09:48","新北市板橋區國慶路213巷13號","121.462876666667","24.9971083333333","6500100","板橋區"
"220025","687-BX","2019/07/30 15:09:53","新北市板橋區僑中一街124巷29號","121.446458333333","25.01507","6500100","板橋區"
"220002","741-BX","2019/07/30 15:09:56","新北市板橋區忠孝路忠義巷9弄50號","121.465255","25.0047033333333","6500100","板橋區"
"220051","KEA-2699","2019/07/30 15:09:44","新北市板橋區莒光路79巷6號","121.472038333333","25.0243866666667","6500100","板橋區"
"220022","895-R6","2019/07/30 15:09:52","新北市板橋區府中路13號","121.459711666667","25.0094983333333","6500100","板橋區"
"220012","AAC-253","2019/07/30 15:09:37","新北市板橋區漢生東路195-1號","121.470115","25.0112083333333","6500100","板橋區"
