"lineid","car","time","location","longitude","latitude","cityid","cityname"
"234026","9371-KE","2019/07/30 18:09:37","新北市永和區自由街33號","121.514318333333","25.00635","6500400","永和區"
"249005","172-UM","2019/07/30 18:09:38","新北市八里區荖阡坑路15-40號","121.401753333333","25.1397616666667","6502300","八里區"
"249001","173-UM","2019/07/30 18:09:50","新北市八里區龍米路二段27號","121.448585","25.13975","6502300","八里區"
"249004","303-UY","2019/07/30 18:09:33","新北市八里區龍米路二段200巷3號","121.433716666667","25.1587933333333","6502300","八里區"
"249003","593-UM","2019/07/30 18:09:34","新北市八里區松子腳4-3號","121.402968333333","25.1442516666667","6502300","八里區"
"249002","759-BX","2019/07/30 18:09:40","新北市八里區龍米路一段356巷46號","121.452105","25.130315","6502300","八里區"
"248006","077-UY","2019/07/30 18:09:31","新北市五股區中興路二段65號","121.461318333333","25.0768416666667","6501500","五股區"
"248008","KED-0815","2019/07/30 18:09:44","新北市五股區更洲路18號","121.458226666667","25.0789116666667","6501500","五股區"
"248020","KED-0813","2019/07/30 18:09:34","新北市蘆洲區永樂街110號","121.45312","25.0901166666667","6501500","五股區"
"248014","261-SL","2019/07/30 18:09:51","新北市五股區成泰路一段231-13號","121.43548","25.0777816666667","6501500","五股區"
"248004","677-BX","2019/07/30 18:09:45","新北市五股區中興路四段23號","121.4389","25.08263","6501500","五股區"
"232011","375-UM","2019/07/30 18:09:40","新北市坪林區國中路4號","121.713441666667","24.9387966666667","6502000","坪林區"
"244007","080-UY","2019/07/30 18:09:45","新北市林口區竹林路462號","121.388008333333","25.0848816666667","6501700","林口區"
"244013","KEA-2802","2019/07/30 18:09:51","新北市林口區中山路188-2號","121.389246666667","25.0790466666667","6501700","林口區"
"244023","483-VK","2019/07/30 18:09:42","新北市林口區東湖路93巷102號","121.385448333333","25.0703633333333","6501700","林口區"
"244017","485-VK","2019/07/30 18:09:49","新北市林口區八德路30號","121.36784","25.0668183333333","6501700","林口區"
"244009","656-BX","2019/07/30 18:09:36","新北市林口區福林路33號","121.379415","25.0885733333333","6501700","林口區"
"244011","701-TV","2019/07/30 18:09:46","新北市林口區中正路74巷5弄1號","121.394613333333","25.07792","6501700","林口區"
"244025","837-TS","2019/07/30 18:09:44","新北市林口區文化北路一段297號","121.360018333333","25.0729733333333","6501700","林口區"
"244021","838-TS","2019/07/30 18:09:40","新北市林口區自強五街17號","121.39909","25.0762566666667","6501700","林口區"
"222003","436-BY","2019/07/30 18:09:49","新北市深坑區阿柔洋47號","121.61226","24.9974116666667","6501800","深坑區"
"222002","659-BX","2019/07/30 18:09:43","新北市深坑區文化街52號","121.618956666667","25.0015816666667","6501800","深坑區"
"231065","KEA-2219","2019/07/30 18:09:44","新北市新店區安一路一段1-1號","121.520188333333","24.9612583333333","6500600","新店區"
"221031","KEA-2785","2019/07/30 18:09:37","新北市汐止區中興路216號","121.631046666667","25.0662916666667","6501100","汐止區"
"231050","AAD-862","2019/07/30 18:09:54","新北市新店區安一路一段1-1號","121.51975","24.961095","6500600","新店區"
"231045","355-BY","2019/07/30 18:09:34","新北市新店區安華路3號","121.518796666667","24.9605966666667","6500600","新店區"
"231055","4716-K9","2019/07/30 18:09:41","新北市新店區安華路1-1號","121.519796666667","24.9604416666667","6500600","新店區"
"231056","4715-K9","2019/07/30 18:09:47","新北市新店區安華路1-1號","121.519276666667","24.96046","6500600","新店區"
"231053","513-UM","2019/07/30 18:09:46","新北市新店區安一路一段1-1號","121.519736666667","24.961255","6500600","新店區"
"241033","AAC-255","2019/07/30 18:09:43","新北市三重區中興北街62號","121.468991666667","25.0517566666667","6500200","三重區"
"235064","005-UY","2019/07/30 18:09:36","新北市中和區圓通路141巷48弄15號","121.49829","24.993765","6500300","中和區"
"235063","006-UY","2019/07/30 18:09:27","新北市中和區中正路637巷52弄1號","121.485501666667","24.9933816666667","6500300","中和區"
"235056","096-UM","2019/07/30 18:09:38","新北市中和區連城路469巷79弄14號","121.48378","24.9936216666667","6500300","中和區"
"235039","097-UM","2019/07/30 18:09:34","新北市中和區錦和路350-1號","121.490005","24.993525","6500300","中和區"
"235040","150-BY","2019/07/30 18:09:41","新北市中和區中正路262-1號","121.495416666667","24.994035","6500300","中和區"
"235058","151-BY","2019/07/30 18:09:48","新北市中和區圓通路367巷62-8號","121.492958333333","24.983075","6500300","中和區"
"235055","183-VK","2019/07/30 18:09:46","新北市中和區中正路637巷60弄61號","121.485456666667","24.9925066666667","6500300","中和區"
"235038","185-VK","2019/07/30 18:09:43","新北市中和區景平路276-1號","121.513901666667","24.9925066666667","6500300","中和區"
"235067","255-BX","2019/07/30 18:09:39","新北市中和區和城路一段271巷1號","121.485446666667","24.9918583333333","6500300","中和區"
"235072","301-VK","2019/07/30 18:09:47","新北市中和區中正路585號","121.48591","24.9945183333333","6500300","中和區"
"235043","352-BY","2019/07/30 18:09:49","新北市中和區中正路277號","121.495241666667","24.9938666666667","6500300","中和區"
"235050","4979-A6","2019/07/30 18:09:46","新北市中和區中正路395號","121.489678333333","24.9935616666667","6500300","中和區"
"235070","558-UM","2019/07/30 18:09:53","新北市中和區圓通路208號","121.49613","24.9940183333333","6500300","中和區"
"235045","565-BX","2019/07/30 18:09:52","新北市中和區中正路271-1號","121.49574","24.99365","6500300","中和區"
"235060","KED-0823","2019/07/30 18:09:46","新北市中和區連城路469巷79弄26號","121.484095","24.9937866666667","6500300","中和區"
"235054","640-BX","2019/07/30 18:09:45","新北市中和區連城路518巷1號","121.476636666667","24.9919183333333","6500300","中和區"
"235047","732-UM","2019/07/30 18:09:41","新北市中和區員山路36巷13號","121.48411","24.9908366666667","6500300","中和區"
"235062","800-TS","2019/07/30 18:09:42","新北市中和區橋和路172號","121.49455","25.00638","6500300","中和區"
"235057","801-TS","2019/07/30 18:09:51","新北市中和區民享街97巷11號","121.475305","24.99956","6500300","中和區"
"235052","805-TS","2019/07/30 18:09:53","新北市中和區錦和路350-1號","121.490216666667","24.99359","6500300","中和區"
"235053","900-TW","2019/07/30 18:09:40","新北市中和區員山路36巷16-2號","121.48535","24.9914583333333","6500300","中和區"
"235051","157-BY","2019/07/30 18:09:42","新北市中和區中正路273號","121.495621666667","24.9937766666667","6500300","中和區"
"235037","AAC-213","2019/07/30 18:09:35","新北市中和區景德街67號","121.51684","24.9914216666667","6500300","中和區"
"247002","336-TH","2019/07/30 18:09:43","新北市蘆洲區永平街32巷69弄4號","121.458826666667","25.0938133333333","6501400","蘆洲區"
"226004","312-R5","2019/07/30 18:09:53","新北市平溪區白石里白石腳5號","121.72145","25.0215083333333","6502400","平溪區"
"228001","212-TW","2019/07/30 18:09:39","新北市貢寮區真理里新港街26巷55弄2-1號","121.927388333333","25.0528933333333","6502600","貢寮區"
"228002","663-BX","2019/07/30 18:09:41","新北市貢寮區福連里福興街39-3號","121.992831666667","25.012165","6502600","貢寮區"
"228003","828-UM","2019/07/30 18:09:42","新北市貢寮區真理里美艷山街6-2號","121.928781666667","25.0607416666667","6502600","貢寮區"
"224006","676-BX","2019/07/30 18:09:39","新北市瑞芳區中山路70號","121.802771666667","25.1064466666667","6501200","瑞芳區"
"224007","285-BY","2019/07/30 18:09:48","新北市瑞芳區四腳亭坑路8號","121.777753333333","25.1096683333333","6501200","瑞芳區"
"224009","275-VK","2019/07/30 18:09:46","新北市瑞芳區金光路213號","121.852526666667","25.107595","6501200","瑞芳區"
"224008","273-VK","2019/07/30 18:09:38","新北市瑞芳區員山子路23號","121.82141","25.1030866666667","6501200","瑞芳區"
"224005","271-BY","2019/07/30 18:09:51","新北市瑞芳區深澳路1號","121.816478333333","25.1285516666667","6501200","瑞芳區"
"227001","642-TC","2019/07/30 18:09:45","新北市雙溪區三貂里定福路1-2號","121.850753333333","25.0634366666667","6502500","雙溪區"
"227002","400-TW","2019/07/30 18:09:33","新北市雙溪區共和里東榮街42號","121.866073333333","25.0337483333333","6502500","雙溪區"
"253006","032-BX","2019/07/30 18:09:34","新北市石門區老梅路52巷25弄2-1號","121.546576666667","25.2875733333333","6502200","石門區"
"253005","295-VK","2019/07/30 18:09:42","新北市石門區福安街53號","121.568365","25.291725","6502200","石門區"
"222001","KEA-2212","2019/07/30 18:09:37","新北市深坑區深坑街70號","121.61445","25.001625","6501800","深坑區"
"208002","KEA-2872","2019/07/30 18:09:35","新北市金山區三界壇路111巷16號","121.618775","25.231555","6502700","金山區"
"208003","665-BX","2019/07/30 18:09:47","新北市金山區磺港里磺港路25號","121.649595","25.2295416666667","6502700","金山區"
"251009","008-UM","2019/07/30 18:09:45","新北市淡水區大仁街6巷1號","121.442541666667","25.17459","6501000","淡水區"
"251004","009-UM","2019/07/30 18:09:49","新北市淡水區民族路110巷36弄2號","121.461511666667","25.135255","6501000","淡水區"
"251001","011-UM","2019/07/30 18:09:31","新北市淡水區自立路8-2號","121.462761666667","25.1296316666667","6501000","淡水區"
"251002","012-UM","2019/07/30 18:09:46","新北市淡水區中正東路一段3巷2號","121.450526666667","25.164645","6501000","淡水區"
"251015","KEA-2871","2019/07/30 18:09:37","新北市淡水區興福寮88巷1號","121.485191666667","25.1648366666667","6501000","淡水區"
"251016","179-VK","2019/07/30 18:09:51","新北市淡水區淡金路三段46巷32號","121.449271666667","25.1997783333333","6501000","淡水區"
"251008","181-VK","2019/07/30 18:09:49","新北市淡水區坪頂路70巷41號","121.460695","25.16038","6501000","淡水區"
"251013","182-VK","2019/07/30 18:09:36","新北市淡水區演戲埔腳1-2號","121.476141666667","25.19407","6501000","淡水區"
"251010","413-VK","2019/07/30 18:09:50","新北市淡水區淡海路166號","121.420775","25.1833266666667","6501000","淡水區"
"251012","441-VK","2019/07/30 18:09:51","新北市淡水區北新路三段116號","121.486666666667","25.1882433333333","6501000","淡水區"
"251005","443-VK","2019/07/30 18:09:41","新北市淡水區水源街一段141號","121.447195","25.1718766666667","6501000","淡水區"
"251006","561-UM","2019/07/30 18:09:52","新北市淡水區新民街74號","121.438616666667","25.1764133333333","6501000","淡水區"
"251014","577-R6","2019/07/30 18:09:34","新北市淡水區南平14-2號","121.485821666667","25.2208366666667","6501000","淡水區"
"251011","650-BX","2019/07/30 18:09:41","新北市淡水區三空泉5號","121.477001666667","25.1614566666667","6501000","淡水區"
"251003","766-UM","2019/07/30 18:09:38","新北市淡水區大忠街113巷6號","121.446805","25.1776466666667","6501000","淡水區"
"207003","550-UM","2019/07/30 18:09:50","新北市萬里區港東路野柳風景區攤販153號","121.690543333333","25.2053416666667","6502800","萬里區"
"207004","225-TW","2019/07/30 18:09:38","新北市萬里區中幅里中福路89號","121.676356666667","25.1710366666667","6502800","萬里區"
"252002","178-VK","2019/07/30 18:09:35","新北市三芝區中山路二段43號","121.502971666667","25.2550483333333","6502100","三芝區"
"252003","249-BX","2019/07/30 18:09:48","新北市三芝區埔頭里埔頭37號","121.49843","25.260345","6502100","三芝區"
"208001","170-UY","2019/07/30 18:09:42","新北市金山區磺港里磺港路73號","121.647555","25.2271583333333","6502700","金山區"
"237004","KEA-2597","2019/07/30 18:09:53","新北市三峽區大埔路417號","121.373326666667","24.89247","6500900","三峽區"
"237007","153-BY","2019/07/30 18:09:33","新北市三峽區中正路二段370巷83號","121.364325","24.9115633333333","6500900","三峽區"
"237009","210-TH","2019/07/30 18:09:36","新北市三峽區大仁路51號","121.365415","24.9374866666667","6500900","三峽區"
"237013","252-BX","2019/07/30 18:09:32","新北市三峽區長泰街5巷21號","121.377698333333","24.9313366666667","6500900","三峽區"
"237012","275-BY","2019/07/30 18:09:49","新北市三峽區民生街1巷5-64號","121.378815","24.93492","6500900","三峽區"
"237008","302-VK","2019/07/30 18:09:43","新北市三峽區白雞58-13號","121.384726666667","24.9104633333333","6500900","三峽區"
"237014","433-BY","2019/07/30 18:09:44","新北市三峽區國光街83號","121.373693333333","24.9383283333333","6500900","三峽區"
"237006","5529-G3","2019/07/30 18:09:38","新北市三峽區介壽路三段1號","121.395186666667","24.936125","6500900","三峽區"
"237011","KEA-2596","2019/07/30 18:09:46","新北市三峽區介壽路一段286號","121.380068333333","24.9301983333333","6500900","三峽區"
"237015","649-BX","2019/07/30 18:09:50","新北市三峽區紫新路47號","121.422158333333","24.9218033333333","6500900","三峽區"
"237010","706-TV","2019/07/30 18:09:35","新北市三峽區民權街200號","121.367696666667","24.9292416666667","6500900","三峽區"
"237005","AKY-6261","2019/07/30 18:09:40","新北市三峽區民生街191號","121.371915","24.934865","6500900","三峽區"
"236042","KED-0685","2019/07/30 18:09:46","新北市土城區城林路6巷80號","121.438415","24.97978","6501300","土城區"
"233002","762-BX","2019/07/30 18:09:44","新北市烏來區新烏路五段16號","121.54232","24.8802316666667","6502900","烏來區"
"236079","166-UM","2019/07/30 18:09:52","新北市土城區永安街31號","121.433261666667","24.96421","6501300","土城區"
"236026","269-VK","2019/07/30 18:09:36","新北市土城區承天路18號","121.43946","24.96336","6501300","土城區"
"236014","270-VK","2019/07/30 18:09:37","新北市土城區學府路一段26號","121.458338333333","24.9885416666667","6501300","土城區"
"236038","271-VK","2019/07/30 18:09:46","新北市土城區明德路一段280-1號","121.457301666667","24.9774816666667","6501300","土城區"
"236070","KEA-2877","2019/07/30 18:09:45","新北市土城區石門路28號","121.457871666667","24.96494","6501300","土城區"
"252001","KED-0821","2019/07/30 18:09:48","新北市三芝區中興街二段2號","121.498308333333","25.256615","6502100","三芝區"
"236021","401-BY","2019/07/30 18:09:46","新北市土城區城林路6巷80號","121.438465","24.9796233333333","6501300","土城區"
"236030","752-BX","2019/07/30 18:09:35","新北市土城區城林路6巷80號","121.438413333333","24.9796966666667","6501300","土城區"
"236059","912-UM","2019/07/30 18:09:48","新北市土城區中央路四段234號","121.415396666667","24.9571366666667","6501300","土城區"
"236049","913-UM","2019/07/30 18:09:48","新北市土城區明德路一段365-1號","121.45353","24.979055","6501300","土城區"
"236063","915-UM","2019/07/30 18:09:44","新北市土城區金城路二段217號","121.45472","24.9817316666667","6501300","土城區"
"236055","AAC-216","2019/07/30 18:09:52","新北市土城區中華路二段92號","121.438206666667","24.974755","6501300","土城區"
"242039","AAC-296","2019/07/30 18:05:50","新北市新莊區民安西路38巷26-1號","121.426636666667","25.0206083333333","6500500","新莊區"
"242061","986-R7","2019/07/30 18:09:50","新北市新莊區新樹路427號","121.432711666667","25.0139916666667","6500500","新莊區"
"242002","751-BX","2019/07/30 18:09:48","新北市新莊區新莊路84號","121.456886666667","25.0364433333333","6500500","新莊區"
"242029","615-BX","2019/07/30 18:09:44","新北市新莊區幸福路860號","121.443745","25.04906","6500500","新莊區"
"242058","612-BX","2019/07/30 18:09:42","新北市新莊區中山路三段97號","121.416428333333","25.0316833333333","6500500","新莊區"
"242051","497-BY","2019/07/30 18:09:50","新北市新莊區民本街11巷15號","121.428421666667","25.0203733333333","6500500","新莊區"
"242046","442-UM","2019/07/30 18:09:37","新北市新莊區福營路300號","121.422521666667","25.0274416666667","6500500","新莊區"
"242056","441-UM","2019/07/30 18:09:49","新北市新莊區豐年街豐1巷37號","121.447783333333","25.0313483333333","6500500","新莊區"
"242005","440-UM","2019/07/30 18:09:48","新北市新莊區自強街8號","121.454881666667","25.0456466666667","6500500","新莊區"
"242042","415-TV","2019/07/30 18:09:43","新北市新莊區天祥街42號","121.416896666667","25.0287716666667","6500500","新莊區"
"242011","413-TV","2019/07/30 18:09:40","新北市新莊區中榮街28號","121.450075","25.05286","6500500","新莊區"
"242048","400-BY","2019/07/30 18:09:48","新北市新莊區萬安街6號","121.421656666667","25.0250433333333","6500500","新莊區"
"242025","362-BY","2019/07/30 18:09:45","新北市新莊區五權一路5-9號","121.458176666667","25.0663816666667","6500500","新莊區"
"242013","132-UY","2019/07/30 18:09:50","新北市泰山區信華六街21號","121.441953333333","25.0447116666667","6500500","新莊區"
"242037","135-UY","2019/07/30 18:09:43","新北市新莊區建福路48巷6號","121.426228333333","25.0275466666667","6500500","新莊區"
"242054","172-VK","2019/07/30 18:09:33","新北市新莊區民安西路325號","121.427663333333","25.0111483333333","6500500","新莊區"
"242015","173-VK","2019/07/30 18:09:45","新北市新莊區中平路132巷5號","121.445535","25.0467566666667","6500500","新莊區"
"242021","175-VK","2019/07/30 18:09:51","新北市新莊區新興街45巷1號","121.450603333333","25.03901","6500500","新莊區"
"242019","KED-0687","2019/07/30 18:09:39","新北市新莊區長青街37巷22弄2號","121.456116666667","25.0413466666667","6500500","新莊區"
"242034","348-TH","2019/07/30 18:09:38","新北市新莊區新豐街65號","121.446331666667","25.0336","6500500","新莊區"
"242007","349-TH","2019/07/30 18:09:43","新北市新莊區中華路二段88號","121.453681666667","25.0470466666667","6500500","新莊區"
"242032","350-TH","2019/07/30 18:09:40","新北市新莊區新泰路277巷12號","121.445075","25.040445","6500500","新莊區"
"242017","351-TH","2019/07/30 18:09:42","新北市新莊區復興路一段193號","121.451891666667","25.0435666666667","6500500","新莊區"
"238015","755-BX","2019/07/30 18:09:45","新北市樹林區啟智街86巷5號","121.418491666667","24.99068","6500700","樹林區"
"238023","601-UM","2019/07/30 18:09:48","新北市樹林區三福街47巷18號","121.407695","25.01537","6500700","樹林區"
"238019","599-UM","2019/07/30 18:09:41","新北市樹林區中華路51號","121.423485","24.983355","6500700","樹林區"
"238018","KEA-2217","2019/07/30 18:09:54","新北市樹林區保順街85號","121.429096666667","24.9944766666667","6500700","樹林區"
"238021","KEA-2539","2019/07/30 18:09:42","新北市樹林區柑園街二段46號","121.387186666667","24.9554133333333","6500700","樹林區"
"238025","303-VK","2019/07/30 18:09:47","新北市樹林區保安街二段136號","121.41334","25.0042216666667","6500700","樹林區"
"238017","283-BY","2019/07/30 18:09:36","新北市樹林區中正路845號","121.409046666667","25.017705","6500700","樹林區"
"238014","282-BY","2019/07/30 18:09:35","新北市樹林區潭興街91巷16號","121.424196666667","24.998975","6500700","樹林區"
"238020","268-VK","2019/07/30 18:09:53","新北市樹林區俊興街286號","121.418656666667","25.017005","6500700","樹林區"
"238026","172-UY","2019/07/30 18:09:46","新北市樹林區中山路三段127號","121.39651","24.97329","6500700","樹林區"
"238016","169-UY","2019/07/30 18:09:49","新北市樹林區中山路一段215號","121.420923333333","24.9871516666667","6500700","樹林區"
"239007","AAC-297","2019/07/30 18:09:51","新北市鶯歌區育英街98號","121.347333333333","24.951905","6500800","鶯歌區"
"239006","891-R6","2019/07/30 18:09:37","新北市鶯歌區鶯桃路451-1號","121.332195","24.9656283333333","6500800","鶯歌區"
"239008","527-UM","2019/07/30 18:09:48","新北市鶯歌區朝陽街24巷3號","121.33682","24.977175","6500800","鶯歌區"
"239005","526-UM","2019/07/30 18:09:54","新北市鶯歌區鶯桃路668巷73號","121.329803333333","24.97174","6500800","鶯歌區"
"239001","417-VK","2019/07/30 18:09:36","新北市鶯歌區尖山路384號","121.34204","24.943615","6500800","鶯歌區"
"239003","360-BY","2019/07/30 18:09:38","新北市鶯歌區福安街7巷1-1號","121.33463","24.9645233333333","6500800","鶯歌區"
"239002","359-BY","2019/07/30 18:09:49","新北市鶯歌區光明街76號","121.346873333333","24.9559333333333","6500800","鶯歌區"
"221008","489-VK","2019/07/30 18:09:50","新北市汐止區明峰街281號","121.626666666667","25.0683166666667","6501100","汐止區"
"221036","130-UY","2019/07/30 18:09:38","新北市汐止區大同路三段116號","121.672048333333","25.0767633333333","6501100","汐止區"
"221015","131-UY","2019/07/30 18:09:41","新北市汐止區長江街309-1號","121.666218333333","25.0815316666667","6501100","汐止區"
"244019","KED-0667","2019/07/30 18:09:52","新北市林口區忠孝路568巷18號","121.374598333333","25.0673283333333","6501700","林口區"
"221010","269-BY","2019/07/30 18:09:46","新北市汐止區汐萬路二段265號","121.646216666667","25.0887766666667","6501100","汐止區"
"221012","278-VK","2019/07/30 18:09:42","新北市汐止區長興街二段50巷30弄2號","121.674713333333","25.0810383333333","6501100","汐止區"
"221023","279-VK","2019/07/30 18:09:21","新北市汐止區民族五街68號","121.628126666667","25.0705216666667","6501100","汐止區"
"221032","280-BY","2019/07/30 18:09:47","新北市汐止區橫科路73巷22-2號","121.61938","25.05153","6501100","汐止區"
"221033","297-VK","2019/07/30 18:09:40","新北市汐止區宜興街30巷20號","121.62228","25.0410066666667","6501100","汐止區"
"221029","298-VK","2019/07/30 18:09:49","新北市汐止區樟樹一路119巷10弄20號","121.640418333333","25.06483","6501100","汐止區"
"221021","299-VK","2019/07/30 18:09:49","新北市汐止區新興路14號","121.656415","25.06476","6501100","汐止區"
"221035","622-UM","2019/07/30 18:09:53","新北市汐止區汐萬路一段115巷44號","121.653223333333","25.0702983333333","6501100","汐止區"
"221025","623-UM","2019/07/30 18:09:50","新北市汐止區勤進路1號","121.660553333333","25.0619766666667","6501100","汐止區"
"221038","646-BX","2019/07/30 18:09:35","新北市汐止區南興路83巷1號","121.653011666667","25.0591116666667","6501100","汐止區"
"221002","707-TV","2019/07/30 18:09:38","新北市汐止區福德一路188號","121.635413333333","25.06579","6501100","汐止區"
"221018","753-BX","2019/07/30 18:09:35","新北市汐止區招商街19巷25號","121.667431666667","25.0681616666667","6501100","汐止區"
"233001","KEA-2870","2019/07/30 18:09:50","新北市烏來區新烏路五段66號","121.547495","24.8730283333333","6502900","烏來區"
"224002","257-TC","2019/07/30 18:09:47","新北市瑞芳區三爪子坑路165-1號","121.810888333333","25.1057966666667","6501200","瑞芳區"
"242044","281-VK","2019/07/30 18:09:32","新北市新莊區雙鳳路130號","121.413353333333","25.0280666666667","6500500","新莊區"
"242009","280-VK","2019/07/30 18:09:39","新北市新莊區昌平街71巷16號","121.45366","25.053735","6500500","新莊區"
"235068","KEA-2873","2019/07/30 18:09:45","新北市中和區員山路36巷16-2號","121.48526","24.9911883333333","6500300","中和區"
"235061","KEA-2875","2019/07/30 18:09:29","新北市中和區華安街99號","121.468171666667","24.9963783333333","6500300","中和區"
