"lineid","car","time","location","longitude","latitude","cityid","cityname"
"234046","148-BY","2019/07/30 19:49:36","新北市永和區永利路155號","121.524711666667","25.0034516666667","6500400","永和區"
"234081","298-R6","2019/07/30 19:49:53","新北市永和區永亨路128號","121.524583333333","25.00391","6500400","永和區"
"234038","336-UY","2019/07/30 19:49:39","新北市永和區民樂街39巷18弄42號","121.52843","24.9990416666667","6500400","永和區"
"234064","337-UY","2019/07/30 19:49:57","新北市永和區中正路404號","121.517581666667","25.0019133333333","6500400","永和區"
"234086","338-UY","2019/07/30 19:49:44","新北市永和區永利路11號","121.517678333333","25.0060133333333","6500400","永和區"
"234070","552-UM","2019/07/30 19:49:36","新北市永和區竹林路88號","121.519475","25.0125433333333","6500400","永和區"
"234017","745-BX","2019/07/30 19:49:43","新北市永和區永和路二段299號","121.516081666667","25.0161833333333","6500400","永和區"
"234030","746-BX","2019/07/30 19:49:49","新北市永和區民生路67巷48號","121.52518","24.99748","6500400","永和區"
"234054","KEA-2590","2019/07/30 19:49:51","新北市永和區竹林路75巷17號","121.519806666667","25.0138533333333","6500400","永和區"
"234007","KED-0605","2019/07/30 19:49:51","新北市中和區南工路20號","121.505555","25.0005533333333","6500400","永和區"
"234013","KEA-2591","2019/07/30 19:49:46","新北市永和區仁愛路219號","121.509373333333","25.01223","6500400","永和區"
"234061","AAD-866","2019/07/30 19:49:45","新北市永和區中正路106號","121.514416666667","24.995885","6500400","永和區"
"234042","862-TW","2019/07/30 19:49:49","新北市永和區中和路389巷41號","121.508178333333","25.0016566666667","6500400","永和區"
"234050","863-TW","2019/07/30 19:49:45","新北市永和區保安路77號","121.508628333333","25.014845","6500400","永和區"
"234026","9371-KE","2019/07/30 19:49:45","新北市永和區雙和街43號","121.508961666667","25.0029316666667","6500400","永和區"
"234011","9373-KE","2019/07/30 19:49:48","新北市永和區仁愛路310號","121.502946666667","25.0075383333333","6500400","永和區"
"249005","172-UM","2019/07/30 19:49:57","新北市八里區長坑口38-8號","121.389821666667","25.1277533333333","6502300","八里區"
"249001","173-UM","2019/07/30 19:49:50","新北市八里區中華路二段256號","121.405238333333","25.1497016666667","6502300","八里區"
"249004","303-UY","2019/07/30 19:49:35","新北市八里區仁愛路21號","121.413258333333","25.1608666666667","6502300","八里區"
"249003","593-UM","2019/07/30 19:49:51","新北市八里區華峰三街35號","121.398465","25.145315","6502300","八里區"
"249002","759-BX","2019/07/30 19:49:40","新北市八里區頂寮三街20號","121.451465","25.1256283333333","6502300","八里區"
"248016","026-BX","2019/07/30 19:49:40","新北市五股區成泰路四段22巷16-12號","121.454746666667","25.1075433333333","6501500","五股區"
"248008","KED-0815","2019/07/30 19:49:44","新北市五股區四維路116-2號","121.467981666667","25.0746016666667","6501500","五股區"
"248020","KED-0813","2019/07/30 19:49:54","新北市五股區中直路65-2號","121.4179","25.118555","6501500","五股區"
"248012","247-BX","2019/07/30 19:49:38","新北市五股區蓬萊路4號","121.435561666667","25.0794233333333","6501500","五股區"
"248014","261-SL","2019/07/30 19:49:34","新北市五股區五福路22巷5號","121.434573333333","25.0890283333333","6501500","五股區"
"248004","677-BX","2019/07/30 19:49:45","新北市五股區成泰路一段126號","121.435301666667","25.0742333333333","6501500","五股區"
"248002","678-BX","2019/07/30 19:49:45","新北市五股區成泰路3段651-1號","121.452915","25.1053666666667","6501500","五股區"
"248010","682-TV","2019/07/30 19:49:46","新北市五股區登林路貿商巷3弄15號","121.429713333333","25.069895","6501500","五股區"
"234023","9380-KE","2019/07/30 19:49:51","新北市永和區中山路一段9號","121.513963333333","25.0103883333333","6500400","永和區"
"234077","969-R7","2019/07/30 19:49:46","新北市永和區智光街53號","121.517195","24.9979266666667","6500400","永和區"
"234074","AAC-211","2019/07/30 19:49:46","新北市永和區竹林路179巷26號","121.521695","25.0100616666667","6500400","永和區"
"234067","AAC-212","2019/07/30 19:49:56","新北市永和區中山路一段210號","121.508621666667","25.0085183333333","6500400","永和區"
"234003","AAC-295","2019/07/30 19:49:54","新北市永和區福和路318號","121.515798333333","25.0072683333333","6500400","永和區"
"244023","483-VK","2019/07/30 19:49:42","新北市林口區文化北路二段8號","121.36943","25.0812816666667","6501700","林口區"
"243012","AAD-798","2019/07/30 19:49:39","新北市泰山區全興路87號","121.433306666667","25.0575466666667","6501600","泰山區"
"243016","421-VK","2019/07/30 19:49:44","新北市泰山區明志路三段519號","121.421278333333","25.0319433333333","6501600","泰山區"
"243009","KEA-2215","2019/07/30 19:49:45","新北市泰山區美寧街64號","121.431001666667","25.06468","6501600","泰山區"
"243011","KEA-2216","2019/07/30 19:49:39","新北市泰山區明志路三段196巷21弄24號","121.422573333333","25.038545","6501600","泰山區"
"243015","680-BX","2019/07/30 19:49:54","新北市泰山區明志路二段254巷16弄25號","121.426401666667","25.0488083333333","6501600","泰山區"
"222003","436-BY","2019/07/30 19:49:49","新北市深坑區深南路51-1號","121.621193333333","25.009825","6501800","深坑區"
"222002","659-BX","2019/07/30 19:49:43","新北市深坑區北深路一段300號","121.623541666667","25.0054266666667","6501800","深坑區"
"231061","002-UM","2019/07/30 19:49:52","新北市新店區安民街113號","121.516295","24.9683816666667","6500600","新店區"
"231058","0293-UT","2019/07/30 19:49:52","新北市新店區中華路62號","121.539403333333","24.9689033333333","6500600","新店區"
"231044","046-UY","2019/07/30 19:49:53","新北市新店區復興路51-8號","121.536815","24.9871216666667","6500600","新店區"
"231060","106-UY","2019/07/30 19:49:48","新北市新店區安康路二段159巷6號","121.510208333333","24.9592433333333","6500600","新店區"
"231051","107-UY","2019/07/30 19:49:54","新北市新店區中央二街64號","121.526533333333","24.9745866666667","6500600","新店區"
"231049","108-UY","2019/07/30 19:49:49","新北市新店區民權路98號","121.536496666667","24.9830516666667","6500600","新店區"
"231068","187-VK","2019/07/30 19:49:54","新北市新店區安一路一段1-1號","121.51975","24.9612383333333","6500600","新店區"
"231065","KEA-2219","2019/07/30 19:49:47","新北市新店區安祥路109巷112號","121.477048333333","24.9586033333333","6500600","新店區"
"221031","KEA-2785","2019/07/30 19:49:37","新北市汐止區伯爵街1巷16號","121.641265","25.0751166666667","6501100","汐止區"
"231062","256-BX","2019/07/30 19:49:41","新北市新店區永業路78號","121.531465","24.9519683333333","6500600","新店區"
"231054","260-TV","2019/07/30 19:49:50","新北市新店區光明街11號","121.538338333333","24.9592783333333","6500600","新店區"
"231042","268-BY","2019/07/30 19:49:53","新北市新店區中興路一段267-4號","121.54497","24.9679466666667","6500600","新店區"
"231064","278-BY","2019/07/30 19:49:46","新北市新店區光華街5巷1號","121.517826666667","24.9687416666667","6500600","新店區"
"231050","AAD-862","2019/07/30 19:49:34","新北市新店區北宜路二段431-5號","121.560926666667","24.9542833333333","6500600","新店區"
"231045","355-BY","2019/07/30 19:49:34","新北市新店區北宜路二段431-1號","121.56084","24.9542966666667","6500600","新店區"
"231055","4716-K9","2019/07/30 19:49:41","新北市新店區中華路83巷67號","121.538375","24.967375","6500600","新店區"
"231056","4715-K9","2019/07/30 19:49:47","新北市新店區民權路42巷59弄3號","121.538338333333","24.9836233333333","6500600","新店區"
"231067","4772-VM","2019/07/30 19:49:47","新北市新店區秀山路14號","121.53252","24.9602183333333","6500600","新店區"
"231053","513-UM","2019/07/30 19:49:46","新北市新店區新烏路三段92號","121.553258333333","24.9036666666667","6500600","新店區"
"231041","619-UM","2019/07/30 19:49:44","新北市新店區中央路129號","121.530513333333","24.9739016666667","6500600","新店區"
"231063","641-BX","2019/07/30 19:49:38","新北市新店區車子路11號","121.503048333333","24.95204","6500600","新店區"
"231048","KED-0819","2019/07/30 19:49:47","新北市新店區寶興路61巷1號","121.550756666667","24.972015","6500600","新店區"
"231046","719-UM","2019/07/30 19:47:10","新北市新店區福園街17巷2號","121.532768333333","24.9728216666667","6500600","新店區"
"231057","720-UM","2019/07/30 19:49:45","新北市新店區梅崗三路1號","121.558135","24.9311866666667","6500600","新店區"
"231059","897-TW","2019/07/30 19:49:52","新北市新店區安和路二段195號","121.518048333333","24.9750566666667","6500600","新店區"
"231040","898-TW","2019/07/30 19:49:49","新北市新店區中正路75巷71號","121.543125","24.9687883333333","6500600","新店區"
"231043","899-TW","2019/07/30 19:49:41","新北市新店區中正路245號","121.539101666667","24.9733433333333","6500600","新店區"
"231066","AKT-0513","2019/07/30 19:49:42","新北市新店區安康路三段165巷2弄4號","121.489435","24.9513433333333","6500600","新店區"
"241011","013-R5","2019/07/30 19:49:41","新北市三重區三和路二段173巷47號","121.499323333333","25.0702483333333","6500200","三重區"
"241028","022-UY","2019/07/30 19:49:56","新北市三重區中正南路117號","121.494066666667","25.0572583333333","6500200","三重區"
"241008","059-VK","2019/07/30 19:49:55","新北市三重區永福街96號","121.478865","25.0759066666667","6500200","三重區"
"241031","061-VK","2019/07/30 19:49:53","新北市三重區重新路四段206-3號","121.486318333333","25.0544333333333","6500200","三重區"
"241017","063-VK","2019/07/30 19:49:48","新北市三重區重陽路三段5巷8弄16號","121.489525","25.0665383333333","6500200","三重區"
"241003","091-VK","2019/07/30 19:49:45","新北市三重區五華街93巷89號","121.493903333333","25.084915","6500200","三重區"
"241015","742-BX","2019/07/30 19:49:37","新北市三重區福德南路56號","121.503713333333","25.0617883333333","6500200","三重區"
"241016","266-UM","2019/07/30 19:49:37","新北市三重區正義北路48巷52號","121.496073333333","25.06349","6500200","三重區"
"241009","267-UM","2019/07/30 19:49:49","新北市三重區三和路四段396巷26號","121.480156666667","25.0788666666667","6500200","三重區"
"241018","268-UM","2019/07/30 19:49:42","新北市三重區雙園街57巷32號","121.494505","25.0684","6500200","三重區"
"241032","269-UM","2019/07/30 19:49:54","新北市三重區重陽路一段44巷3號","121.486228333333","25.05786","6500200","三重區"
"241013","270-UM","2019/07/30 19:49:50","新北市三重區仁愛街112巷16號","121.494731666667","25.073895","6500200","三重區"
"241025","271-UM","2019/07/30 19:49:52","新北市三重區頂崁街210巷16號","121.476423333333","25.0676766666667","6500200","三重區"
"241007","398-BY","2019/07/30 19:49:45","新北市三重區三和路四段145巷9號","121.484586666667","25.0783483333333","6500200","三重區"
"241030","KED-0822","2019/07/30 19:49:40","新北市三重區環河南路254巷22號","121.490198333333","25.05096","6500200","三重區"
"241020","478-VK","2019/07/30 19:49:15","新北市三重區後竹圍街1號","121.491506666667","25.0736766666667","6500200","三重區"
"241026","480-VK","2019/07/30 19:49:56","新北市三重區文化南路46號","121.500401666667","25.0599933333333","6500200","三重區"
"241014","543-UM","2019/07/30 19:49:46","新北市三重區長元街98巷18弄28號","121.501841666667","25.0674016666667","6500200","三重區"
"241023","545-UM","2019/07/30 19:49:49","新北市三重區頂崁街172號","121.4776","25.0659366666667","6500200","三重區"
"241001","547-UM","2019/07/30 19:49:46","新北市三重區仁愛街327巷23號","121.492915","25.07986","6500200","三重區"
"241019","KEA-2593","2019/07/30 19:49:45","新北市三重區自強路二段47巷33號","121.490081666667","25.0700266666667","6500200","三重區"
"241006","AAD-863","2019/07/30 19:49:40","新北市三重區力行路二段78號","121.481685","25.0736016666667","6500200","三重區"
"241024","887-TS","2019/07/30 19:49:55","新北市三重區大勇街82巷33號","121.479611666667","25.072375","6500200","三重區"
"241012","941-UM","2019/07/30 19:49:54","新北市三重區仁興街41號","121.499213333333","25.0758","6500200","三重區"
"241029","942-UM","2019/07/30 19:49:57","新北市三重區重新路三段204號","121.490118333333","25.0582283333333","6500200","三重區"
"241033","AAC-255","2019/07/30 19:49:49","新北市三重區中興南街62號","121.470556666667","25.044055","6500200","三重區"
"235066","003-UY","2019/07/30 19:49:50","新北市中和區南工路22巷1號","121.50564","25.0007533333333","6500300","中和區"
"235056","096-UM","2019/07/30 19:49:38","新北市板橋區漢生東路339號","121.472143333333","25.0072833333333","6500300","中和區"
"235039","097-UM","2019/07/30 19:49:54","新北市中和區大勇街27巷31號","121.516086666667","24.9937733333333","6500300","中和區"
"235065","098-UM","2019/07/30 19:49:34","新北市中和區福美路267號","121.498316666667","25.0051066666667","6500300","中和區"
"235040","150-BY","2019/07/30 19:49:41","新北市中和區安和路39號","121.509683333333","24.9949016666667","6500300","中和區"
"235058","151-BY","2019/07/30 19:49:54","新北市中和區員山路148巷7號","121.481688333333","24.99712","6500300","中和區"
"235055","183-VK","2019/07/30 19:49:46","新北市中和區德光路23號","121.470816666667","25.0042866666667","6500300","中和區"
"235038","185-VK","2019/07/30 19:49:43","新北市中和區自立路15巷1號","121.522368333333","24.9961466666667","6500300","中和區"
"235049","186-VK","2019/07/30 19:49:46","新北市中和區景平路540號","121.502563333333","24.9946016666667","6500300","中和區"
"235044","293-VK","2019/07/30 19:49:51","新北市中和區南山路146巷9號","121.503421666667","24.9923666666667","6500300","中和區"
"235072","301-VK","2019/07/30 19:49:47","新北市中和區中山路二段312巷33弄27號","121.494263333333","25.0041516666667","6500300","中和區"
"235043","352-BY","2019/07/30 19:49:49","新北市中和區興南路二段159巷18號","121.50522","24.9830266666667","6500300","中和區"
"235042","KEA-2878","2019/07/30 19:49:49","新北市中和區宜安路60號","121.511645","24.9969316666667","6500300","中和區"
"247014","KEA-2869","2019/07/30 19:49:46","新北市蘆洲區中央路117號","121.47215","25.0839133333333","6501400","蘆洲區"
"247008","KED-0682","2019/07/30 19:49:50","新北市蘆洲區信義路131號","121.478895","25.0802933333333","6501400","蘆洲區"
"235050","4979-A6","2019/07/30 19:49:46","新北市中和區景平路241巷84弄54號","121.506081666667","24.9923816666667","6500300","中和區"
"235070","558-UM","2019/07/30 19:49:53","新北市中和區景平路477號","121.500176666667","24.9971183333333","6500300","中和區"
"235060","KED-0823","2019/07/30 19:49:46","新北市中和區新生街34號","121.483236666667","25.00374","6500300","中和區"
"235047","732-UM","2019/07/30 19:49:53","新北市中和區景平路381號","121.503818333333","24.99338","6500300","中和區"
"235046","733-UM","2019/07/30 19:49:52","新北市中和區仁愛街34號","121.51094","24.9884266666667","6500300","中和區"
"235052","805-TS","2019/07/30 19:49:53","新北市中和區華新街30巷3號","121.50737","24.9843083333333","6500300","中和區"
"235048","896-TW","2019/07/30 19:49:42","新北市中和區興南路一段91號","121.509706666667","24.9886866666667","6500300","中和區"
"235053","900-TW","2019/07/30 19:49:40","新北市中和區民德路216號","121.468243333333","24.9980633333333","6500300","中和區"
"235051","157-BY","2019/07/30 19:49:42","新北市中和區中興街180巷52弄1號","121.49859","24.988365","6500300","中和區"
"235037","AAC-213","2019/07/30 19:49:55","新北市中和區自立路127號","121.521836666667","24.9941233333333","6500300","中和區"
"235059","AAC-215","2019/07/30 19:49:54","新北市中和區圓通路335巷45號","121.49431","24.9892266666667","6500300","中和區"
"220068","015-TV","2019/07/30 19:49:52","新北市板橋區光復街13號","121.484978333333","25.0196783333333","6500100","板橋區"
"220065","072-UY","2019/07/30 19:49:47","新北市板橋區國泰街39巷1號","121.468468333333","25.00653","6500100","板橋區"
"220086","073-UY","2019/07/30 19:49:36","新北市板橋區中正路216巷136號","121.460033333333","25.0193516666667","6500100","板橋區"
"220069","AAD-861","2019/07/30 19:49:41","新北市板橋區大明街13號","121.458936666667","25.002535","6500100","板橋區"
"220106","120-SR","2019/07/30 19:49:45","新北市板橋區民治街52巷24號","121.478711666667","25.03275","6500100","板橋區"
"247004","341-TH","2019/07/30 19:49:37","新北市蘆洲區中原路81號","121.458133333333","25.0816833333333","6501400","蘆洲區"
"247002","336-TH","2019/07/30 19:49:39","新北市蘆洲區永平街27號","121.458701666667","25.090715","6501400","蘆洲區"
"226004","312-R5","2019/07/30 19:49:53","新北市平溪區十分里十分街311號","121.775221666667","25.0436533333333","6502400","平溪區"
"235041","251-BX","2019/07/30 19:49:39","新北市中和區中安街58號","121.51257","25.0021483333333","6500300","中和區"
"228001","212-TW","2019/07/30 19:49:55","新北市貢寮區真理里新港街84號","121.927373333333","25.0563966666667","6502600","貢寮區"
"228003","828-UM","2019/07/30 19:49:53","新北市貢寮區真理里延平街72-5號","121.925091666667","25.0584266666667","6502600","貢寮區"
"224010","AGQ-8101","2019/07/30 19:49:53","新北市瑞芳區輕便路280-1號","121.84402","25.1092066666667","6501200","瑞芳區"
"227001","642-TC","2019/07/30 19:49:45","新北市雙溪區新基里中華路45號","121.865775","25.0376266666667","6502500","雙溪區"
"227002","400-TW","2019/07/30 19:49:53","新北市雙溪區雙溪里內挖路47號","121.863228333333","25.0367316666667","6502500","雙溪區"
"222001","KEA-2212","2019/07/30 19:49:37","新北市深坑區北深路三段71號","121.606703333333","25.0013233333333","6501800","深坑區"
"208002","KEA-2872","2019/07/30 19:49:55","新北市金山區中正路147號","121.63187","25.221005","6502700","金山區"
"208003","665-BX","2019/07/30 19:49:47","新北市金山區海興路176號","121.632933333333","25.2400633333333","6502700","金山區"
"251009","008-UM","2019/07/30 19:49:44","新北市淡水區中山路159-1號","121.440783333333","25.1730783333333","6501000","淡水區"
"251004","009-UM","2019/07/30 19:49:49","新北市淡水區民權路177巷55號","121.460528333333","25.1338066666667","6501000","淡水區"
"251001","011-UM","2019/07/30 19:49:51","新北市淡水區坪頂路27號","121.456368333333","25.1626883333333","6501000","淡水區"
"251002","012-UM","2019/07/30 19:49:46","新北市淡水區下圭柔山90-8號","121.431328333333","25.2102783333333","6501000","淡水區"
"251015","KEA-2871","2019/07/30 19:49:36","新北市淡水區山子頂24-1號","121.49139","25.1871733333333","6501000","淡水區"
"251016","179-VK","2019/07/30 19:49:51","新北市淡水區三塊厝3-2號","121.455255","25.2093916666667","6501000","淡水區"
"251008","181-VK","2019/07/30 19:49:49","新北市淡水區中正路一段24巷11號","121.426728333333","25.1770783333333","6501000","淡水區"
"251013","182-VK","2019/07/30 19:49:56","新北市淡水區頂田寮路109號","121.457718333333","25.2160083333333","6501000","淡水區"
"251012","441-VK","2019/07/30 19:49:51","新北市淡水區埤島28號","121.447513333333","25.1982983333333","6501000","淡水區"
"251007","442-VK","2019/07/30 19:49:42","新北市淡水區竿蓁一街102巷1號","121.45374","25.1661616666667","6501000","淡水區"
"251005","443-VK","2019/07/30 19:49:40","新北市淡水區中正東路6號","121.447116666667","25.1672166666667","6501000","淡水區"
"251006","561-UM","2019/07/30 19:49:52","新北市淡水區水碓街15號","121.443481666667","25.17696","6501000","淡水區"
"251014","577-R6","2019/07/30 19:49:54","新北市淡水區石頭厝14-30號","121.46524","25.236785","6501000","淡水區"
"251011","650-BX","2019/07/30 19:49:45","新北市淡水區紅樹林路183號","121.460636666667","25.156915","6501000","淡水區"
"207003","550-UM","2019/07/30 19:49:50","新北市萬里區大鵬里萬里加投287-2號","121.646273333333","25.2173683333333","6502800","萬里區"
"207004","225-TW","2019/07/30 19:49:37","新北市萬里區萬里里瑪鋉路122號","121.690588333333","25.179065","6502800","萬里區"
"252002","178-VK","2019/07/30 19:49:35","新北市三芝區三民街35號","121.504703333333","25.258575","6502100","三芝區"
"208001","170-UY","2019/07/30 19:49:42","新北市金山區重和里林口32號","121.596268333333","25.2095133333333","6502700","金山區"
"237004","KEA-2597","2019/07/30 19:49:53","新北市三峽區添福295號","121.377331666667","24.88604","6500900","三峽區"
"237007","153-BY","2019/07/30 19:49:53","新北市三峽區二鬮路17-2號","121.363075","24.9123116666667","6500900","三峽區"
"237009","210-TH","2019/07/30 19:49:56","新北市三峽區清水街428號","121.368728333333","24.925975","6500900","三峽區"
"237013","252-BX","2019/07/30 19:49:51","新北市三峽區溪北街38號","121.396855","24.9360833333333","6500900","三峽區"
"237012","275-BY","2019/07/30 19:49:49","新北市三峽區安溪路309巷25號","121.373666666667","24.932635","6500900","三峽區"
"237008","302-VK","2019/07/30 19:49:43","新北市三峽區大同路217號","121.370323333333","24.927105","6500900","三峽區"
"237014","433-BY","2019/07/30 19:49:44","新北市三峽區添福14-32號","121.372168333333","24.9003166666667","6500900","三峽區"
"237006","5529-G3","2019/07/30 19:49:38","新北市三峽區中正路一段336巷15弄2號","121.370136666667","24.92497","6500900","三峽區"
"237015","649-BX","2019/07/30 19:49:50","新北市三峽區溪東路187號","121.403998333333","24.9336683333333","6500900","三峽區"
"237005","AKY-6261","2019/07/30 19:49:54","新北市三峽區長泰街18巷1號","121.379096666667","24.9317066666667","6500900","三峽區"
"236042","KED-0685","2019/07/30 19:49:45","新北市土城區裕民路233巷1號","121.454846666667","24.9835866666667","6501300","土城區"
"236079","166-UM","2019/07/30 19:49:52","新北市土城區福安街108號","121.417193333333","24.9638883333333","6501300","土城區"
"236026","269-VK","2019/07/30 19:49:46","新北市土城區中央路二段61巷40號","121.443803333333","24.978535","6501300","土城區"
"236038","271-VK","2019/07/30 19:49:35","新北市土城區國際路158巷2號","121.468485","24.97648","6501300","土城區"
"236070","KEA-2877","2019/07/30 19:49:45","新北市土城區中央路二段346巷23號","121.439308333333","24.9723416666667","6501300","土城區"
"252001","KED-0821","2019/07/30 19:49:47","新北市三芝區公正街66號","121.499881666667","25.2574383333333","6502100","三芝區"
"236021","401-BY","2019/07/30 19:49:46","新北市土城區延吉街137巷6號","121.47091","24.9857883333333","6501300","土城區"
"236030","752-BX","2019/07/30 19:49:34","新北市土城區中央路一段286號","121.44369","24.9824283333333","6501300","土城區"
"236059","912-UM","2019/07/30 19:49:38","新北市土城區中央路一段125號","121.44683","24.98835","6501300","土城區"
"236049","913-UM","2019/07/30 19:49:50","新北市土城區青雲路210號","121.45903","24.981775","6501300","土城區"
"236063","915-UM","2019/07/30 19:49:44","新北市土城區延和路146巷8號","121.46794","24.9897666666667","6501300","土城區"
"236055","AAC-216","2019/07/30 19:49:52","新北市土城區延和路246-1號","121.469683333333","24.989865","6501300","土城區"
"242039","AAC-296","2019/07/30 19:49:48","新北市新莊區民安路299巷38號","121.429651666667","25.0234266666667","6500500","新莊區"
"242061","986-R7","2019/07/30 19:49:56","新北市新莊區中正路473-1號","121.44193","25.0331033333333","6500500","新莊區"
"242002","751-BX","2019/07/30 19:49:48","新北市新莊區武前街29號","121.450298333333","25.0324266666667","6500500","新莊區"
"242005","440-UM","2019/07/30 19:49:53","新北市新莊區化成路63巷24弄13號","121.462735","25.0459983333333","6500500","新莊區"
"242048","400-BY","2019/07/30 19:49:47","新北市新莊區建安街92巷21號","121.425668333333","25.0245666666667","6500500","新莊區"
"242025","362-BY","2019/07/30 19:49:45","新北市新莊區五權一路12巷21弄5號","121.45782","25.06457","6500500","新莊區"
"242023","353-BY","2019/07/30 19:49:53","新北市新莊區化成路69號","121.465575","25.0461416666667","6500500","新莊區"
"242013","132-UY","2019/07/30 19:49:42","新北市新莊區中泰街56號","121.450356666667","25.0468666666667","6500500","新莊區"
"242037","135-UY","2019/07/30 19:49:42","新北市新莊區民安路207巷30弄26號","121.428163333333","25.0240383333333","6500500","新莊區"
"242015","173-VK","2019/07/30 19:49:44","新北市新莊區中平路107號","121.444685","25.04635","6500500","新莊區"
"242034","348-TH","2019/07/30 19:49:44","新北市新莊區仁愛街54巷1號","121.444936666667","25.0372516666667","6500500","新莊區"
"242032","350-TH","2019/07/30 19:49:52","新北市新莊區忠孝街99號","121.44386","25.037125","6500500","新莊區"
"238015","755-BX","2019/07/30 19:49:35","新北市樹林區中山路二段153號","121.406348333333","24.9789383333333","6500700","樹林區"
"238023","601-UM","2019/07/30 19:49:48","新北市樹林區大安路107號","121.422608333333","24.9980383333333","6500700","樹林區"
"238024","5061-A6","2019/07/30 19:49:45","新北市樹林區山佳街41號","121.393225","24.9727116666667","6500700","樹林區"
"238022","KEA-2213","2019/07/30 19:49:43","新北市樹林區國凱街72巷3號","121.421045","24.978875","6500700","樹林區"
"238021","KEA-2539","2019/07/30 19:49:45","新北市樹林區佳園路三段101巷10-6號","121.38878","24.951395","6500700","樹林區"
"238025","303-VK","2019/07/30 19:49:47","新北市樹林區中山路一段135-4號","121.422496666667","24.9897316666667","6500700","樹林區"
"238017","283-BY","2019/07/30 19:49:56","新北市樹林區保安街二段167巷7號","121.414831666667","25.0028116666667","6500700","樹林區"
"238014","282-BY","2019/07/30 19:49:55","新北市樹林區千歲街46巷11號","121.426701666667","24.9966633333333","6500700","樹林區"
"239006","891-R6","2019/07/30 19:49:37","新北市鶯歌區尖山埔路281號","121.343751666667","24.949735","6500800","鶯歌區"
"239002","359-BY","2019/07/30 19:49:49","新北市鶯歌區大湖路230號","121.344001666667","24.9678516666667","6500800","鶯歌區"
"221010","269-BY","2019/07/30 19:49:46","新北市汐止區汐萬路一段411號","121.649091666667","25.079455","6501100","汐止區"
"221012","278-VK","2019/07/30 19:49:41","新北市汐止區大同路三段495號","121.68004","25.0710816666667","6501100","汐止區"
"221023","279-VK","2019/07/30 19:49:43","新北市汐止區明峰街201號","121.628126666667","25.0695633333333","6501100","汐止區"
"221033","297-VK","2019/07/30 19:48:00","新北市汐止區東勢街5號","121.628845","25.0401433333333","6501100","汐止區"
"221029","298-VK","2019/07/30 19:49:48","新北市汐止區康寧街901號","121.651566666667","25.07488","6501100","汐止區"
"221021","299-VK","2019/07/30 19:49:49","新北市汐止區莊敬街70號","121.656335","25.0614233333333","6501100","汐止區"
"221025","623-UM","2019/07/30 19:49:42","新北市汐止區秀峰路81巷14號","121.660756666667","25.0643183333333","6501100","汐止區"
"221038","646-BX","2019/07/30 19:49:46","新北市汐止區忠孝東路415號","121.665866666667","25.0713533333333","6501100","汐止區"
"220079","145-BY","2019/07/30 19:49:55","新北市板橋區民權路202巷17號","121.460601666667","25.01667","6500100","板橋區"
"220080","200-UY","2019/07/30 19:49:51","新北市板橋區大觀路二段37巷224號","121.449778333333","25.00075","6500100","板橋區"
"220082","610-BX","2019/07/30 19:49:47","新北市板橋區篤行路一段37號","121.432045","24.9939416666667","6500100","板橋區"
"220084","256-TC","2019/07/30 19:49:49","新北市板橋區溪崑二街124巷6號","121.42589","24.9883783333333","6500100","板橋區"
"224002","257-TC","2019/07/30 19:49:47","新北市瑞芳區三爪子坑路13巷211號","121.815895","25.1060083333333","6501200","瑞芳區"
"220056","276-BY","2019/07/30 19:49:49","新北市板橋區四川路一段338號","121.45684","24.9967216666667","6500100","板橋區"
"220072","277-BY","2019/07/30 19:49:56","新北市板橋區金門街149號","121.432775","24.990675","6500100","板橋區"
"220101","280-UM","2019/07/30 19:49:53","新北市板橋區莒光路196巷28號","121.473043333333","25.0226466666667","6500100","板橋區"
"220071","283-VK","2019/07/30 19:49:41","新北市板橋區信義路71號","121.45723","24.99521","6500100","板橋區"
"220094","285-UM","2019/07/30 19:49:44","新北市板橋區雨農路17巷1號","121.46216","25.024595","6500100","板橋區"
"220053","285-VK","2019/07/30 19:49:36","新北市板橋區永豐街13號","121.474713333333","25.0168233333333","6500100","板橋區"
"220083","286-VK","2019/07/30 19:49:56","新北市板橋區龍興街63巷5號","121.442735","25.0013783333333","6500100","板橋區"
"220081","287-VK","2019/07/30 19:49:47","新北市板橋區大觀路一段35巷7弄12號","121.450326666667","25.0070166666667","6500100","板橋區"
"220090","288-VK","2019/07/30 19:49:51","新北市板橋區新海路72巷46弄7號","121.462286666667","25.023355","6500100","板橋區"
"220061","293-UM","2019/07/30 19:49:45","新北市板橋區觀光街19號","121.47145","25.01618","6500100","板橋區"
"220075","303-R5","2019/07/30 19:49:52","新北市板橋區大勇街54-1號","121.452768333333","25.0166","6500100","板橋區"
"220062","305-R5","2019/07/30 19:49:47","新北市板橋區三民路二段29巷16號","121.482095","25.017995","6500100","板橋區"
"220092","307-R5","2019/07/30 19:49:54","新北市板橋區幸福路32巷55號","121.460413333333","25.0220316666667","6500100","板橋區"
"220098","317-R6","2019/07/30 19:49:44","新北市板橋區裕民街113號","121.459638333333","25.0275716666667","6500100","板橋區"
"220055","461-BY","2019/07/30 19:49:40","新北市板橋區國慶路149巷29弄15號","121.460246666667","24.99755","6500100","板橋區"
"220089","487-VK","2019/07/30 19:49:37","新北市板橋區互助街1巷2號","121.463215","25.0276766666667","6500100","板橋區"
"220088","491-VK","2019/07/30 19:49:53","新北市板橋區懷德街174巷2-1號","121.479315","25.02995","6500100","板橋區"
"220035","560-BX","2019/07/30 19:49:54","新北市板橋區金華街85巷19號","121.458316666667","25.0214483333333","6500100","板橋區"
"220103","561-BX","2019/07/30 19:49:46","新北市板橋區陽明街239號","121.463046666667","25.0245466666667","6500100","板橋區"
"220063","609-BX","2019/07/30 19:49:52","新北市板橋區三民路一段5巷1號","121.479066666667","25.023375","6500100","板橋區"
"220091","637-BX","2019/07/30 19:49:56","新北市板橋區民治街83號","121.479746666667","25.0322166666667","6500100","板橋區"
"220057","686-BX","2019/07/30 19:49:44","新北市板橋區德興街35號","121.453511666667","24.9937983333333","6500100","板橋區"
"220077","687-BX","2019/07/30 19:49:47","新北市板橋區僑中三街39號","121.4452","25.0048733333333","6500100","板橋區"
"220054","741-BX","2019/07/30 19:49:51","新北市板橋區忠孝路239巷18號","121.466793333333","25.0033","6500100","板橋區"
"220102","KEA-2699","2019/07/30 19:49:41","新北市板橋區文聖街40號","121.476348333333","25.03121","6500100","板橋區"
"220067","829-TW","2019/07/30 19:49:40","新北市板橋區長安街138巷1弄91號","121.474811666667","25.0114783333333","6500100","板橋區"
"220074","895-R6","2019/07/30 19:49:49","新北市板橋區館前西路132號","121.456376666667","25.0079","6500100","板橋區"
"220073","985-R7","2019/07/30 19:49:40","新北市板橋區國光路51號","121.458078333333","25.017905","6500100","板橋區"
"220097","AAC-210","2019/07/30 19:49:54","新北市板橋區光正街18巷2號","121.462778333333","25.01717","6500100","板橋區"
"220064","AAC-253","2019/07/30 19:49:55","新北市板橋區民族路89-3號","121.466435","25.0082583333333","6500100","板橋區"
"235068","KEA-2873","2019/07/30 19:49:45","新北市中和區景平路736巷5弄11號","121.497698333333","25.00364","6500300","中和區"
