"lineid","car","time","location","longitude","latitude","cityid","cityname"
"234046","148-BY","2019/07/30 19:59:57","新北市永和區成功路一段89號","121.526851666667","25.002975","6500400","永和區"
"234081","298-R6","2019/07/30 19:59:56","新北市永和區林森路65號","121.52403","25.0040766666667","6500400","永和區"
"234038","336-UY","2019/07/30 19:59:55","新北市永和區成功路二段152-2號","121.526553333333","24.9966416666667","6500400","永和區"
"234064","337-UY","2019/07/30 19:59:57","新北市永和區中正路368巷1弄45號","121.51922","25.001125","6500400","永和區"
"234086","338-UY","2019/07/30 19:59:53","新北市永和區福和路214號","121.519463333333","25.0076366666667","6500400","永和區"
"234070","552-UM","2019/07/30 19:59:36","新北市永和區國光路14號","121.519195","25.0083683333333","6500400","永和區"
"234017","745-BX","2019/07/30 19:59:48","新北市永和區文化路59號","121.514143333333","25.0148966666667","6500400","永和區"
"234030","746-BX","2019/07/30 19:59:49","新北市永和區民生路22巷21號","121.52144","24.9970133333333","6500400","永和區"
"234054","KEA-2590","2019/07/30 19:59:51","新北市永和區環河東路一段122號","121.520656666667","25.0154916666667","6500400","永和區"
"234007","KED-0605","2019/07/30 19:59:51","新北市永和區保生路22巷10號","121.507301666667","25.0081333333333","6500400","永和區"
"234013","KEA-2591","2019/07/30 19:59:46","新北市永和區保順路8號","121.503863333333","25.0109966666667","6500400","永和區"
"234061","AAD-866","2019/07/30 19:59:45","新北市永和區得和路47號","121.516638333333","25.000185","6500400","永和區"
"234042","862-TW","2019/07/30 19:59:49","新北市永和區中和路335巷18弄14號","121.507878333333","25.000375","6500400","永和區"
"234050","863-TW","2019/07/30 19:59:45","新北市永和區保安路264號","121.50586","25.01229","6500400","永和區"
"234026","9371-KE","2019/07/30 19:59:56","新北市永和區水源街21巷14弄4號","121.511343333333","25.0037966666667","6500400","永和區"
"234011","9373-KE","2019/07/30 19:59:48","新北市永和區仁愛路352巷112弄12號","121.501136666667","25.0085583333333","6500400","永和區"
"249005","172-UM","2019/07/30 19:59:37","新北市八里區楓林路2-9號","121.385998333333","25.132315","6502300","八里區"
"249001","173-UM","2019/07/30 19:59:48","新北市八里區中華路二段310號","121.403755","25.1485","6502300","八里區"
"249004","303-UY","2019/07/30 19:59:55","新北市八里區文昌五街126號","121.412506666667","25.1547633333333","6502300","八里區"
"249003","593-UM","2019/07/30 19:59:50","新北市八里區訊塘路8號","121.398145","25.144735","6502300","八里區"
"249002","759-BX","2019/07/30 19:59:40","新北市八里區頂寮二街21號","121.450526666667","25.1247066666667","6502300","八里區"
"248016","026-BX","2019/07/30 19:59:40","新北市五股區成泰路三段577巷80弄7號","121.449476666667","25.1042683333333","6501500","五股區"
"248008","KED-0815","2019/07/30 19:59:44","新北市五股區四維路155巷36弄16號","121.46694","25.0752183333333","6501500","五股區"
"248020","KED-0813","2019/07/30 19:59:54","新北市五股區凌雲路三段21號","121.430671666667","25.1094533333333","6501500","五股區"
"248012","247-BX","2019/07/30 19:59:38","新北市五股區民義路一段109號","121.434031666667","25.0863966666667","6501500","五股區"
"248014","261-SL","2019/07/30 19:59:54","新北市五股區成泰路二段252號","121.440796666667","25.08742","6501500","五股區"
"248004","677-BX","2019/07/30 19:59:45","新北市五股區成泰路一段8巷2-3號","121.434861666667","25.06682","6501500","五股區"
"248002","678-BX","2019/07/30 19:59:45","新北市五股區成泰路三段476號","121.451838333333","25.10137","6501500","五股區"
"248010","682-TV","2019/07/30 19:59:46","新北市五股區水碓五路1號","121.427636666667","25.0705366666667","6501500","五股區"
"234023","9380-KE","2019/07/30 19:59:51","新北市永和區中正路702巷20弄1號","121.516523333333","25.0105383333333","6500400","永和區"
"234077","969-R7","2019/07/30 19:59:46","新北市永和區智光街94號","121.516055","24.9969533333333","6500400","永和區"
"234074","AAC-211","2019/07/30 19:59:46","新北市永和區豫溪街162巷2號","121.52371","25.0095566666667","6500400","永和區"
"234067","AAC-212","2019/07/30 19:59:36","新北市永和區中山路一段287號","121.50681","25.0069983333333","6500400","永和區"
"234003","AAC-295","2019/07/30 19:59:56","新北市永和區豫溪街50號","121.515855","25.00995","6500400","永和區"
"243010","297-R6","2019/07/30 19:59:43","新北市泰山區明志路二段51號","121.429325","25.0528183333333","6501600","泰山區"
"243014","KEA-2801","2019/07/30 19:59:40","新北市泰山區泰林路二段33-1號","121.435825","25.056805","6501600","泰山區"
"243016","421-VK","2019/07/30 19:59:44","新北市泰山區貴陽街3號","121.420956666667","25.0336166666667","6501600","泰山區"
"243009","KEA-2215","2019/07/30 19:59:49","新北市泰山區楓江路16巷27號","121.434118333333","25.061365","6501600","泰山區"
"243011","KEA-2216","2019/07/30 19:59:39","新北市泰山區工專路63號","121.422226666667","25.0404316666667","6501600","泰山區"
"222003","436-BY","2019/07/30 19:59:49","新北市深坑區埔新街14號","121.620781666667","25.00391","6501800","深坑區"
"222002","659-BX","2019/07/30 19:59:43","新北市深坑區北深路二段55巷12弄21號","121.618533333333","25.0031583333333","6501800","深坑區"
"231061","002-UM","2019/07/30 19:59:52","新北市新店區安民街263號","121.517451666667","24.9727633333333","6500600","新店區"
"231044","046-UY","2019/07/30 19:59:50","新北市新店區復興路27號","121.539106666667","24.98668","6500600","新店區"
"231060","106-UY","2019/07/30 19:59:48","新北市新店區安康路二段416號","121.496503333333","24.95514","6500600","新店區"
"231051","107-UY","2019/07/30 19:59:54","新北市新店區中央五街30號","121.528785","24.97457","6500600","新店區"
"231049","108-UY","2019/07/30 19:59:49","新北市新店區建國路219號","121.537548333333","24.98121","6500600","新店區"
"231068","187-VK","2019/07/30 19:59:54","新北市新店區安康路一段266巷4號","121.520146666667","24.9648133333333","6500600","新店區"
"231065","KEA-2219","2019/07/30 19:59:44","新北市新店區安祥路106巷10號","121.478763333333","24.9626166666667","6500600","新店區"
"221031","KEA-2785","2019/07/30 19:59:57","新北市汐止區福德一路176巷9弄7號","121.634591666667","25.0666066666667","6501100","汐止區"
"231062","256-BX","2019/07/30 19:59:41","新北市新店區華潭街31號","121.530045","24.9546516666667","6500600","新店區"
"231054","260-TV","2019/07/30 19:59:50","新北市新店區光明街171號","121.53973","24.9626516666667","6500600","新店區"
"231042","268-BY","2019/07/30 19:59:53","新北市新店區中興路一段286號","121.545855","24.9690183333333","6500600","新店區"
"231064","278-BY","2019/07/30 19:59:46","新北市新店區安民街3巷25號","121.514096666667","24.9640883333333","6500600","新店區"
"231050","AAD-862","2019/07/30 19:59:54","新北市新店區北宜路二段449號","121.561405","24.9541216666667","6500600","新店區"
"231045","355-BY","2019/07/30 19:59:54","新北市新店區北宜路二段326號","121.562101666667","24.95391","6500600","新店區"
"231055","4716-K9","2019/07/30 19:59:41","新北市新店區新生街5巷17號","121.539658333333","24.965615","6500600","新店區"
"231056","4715-K9","2019/07/30 19:59:47","新北市新店區北新路二段187-1號","121.542571666667","24.977735","6500600","新店區"
"231067","4772-VM","2019/07/30 19:59:46","新北市新店區秀山路11巷22號","121.531508333333","24.958715","6500600","新店區"
"231053","513-UM","2019/07/30 19:59:46","新北市新店區新烏路三段寶島巷2弄3號","121.55198","24.8985616666667","6500600","新店區"
"231041","619-UM","2019/07/30 19:59:44","新北市新店區中央路9號","121.533438333333","24.9785116666667","6500600","新店區"
"231063","641-BX","2019/07/30 19:59:38","新北市新店區車子路11號","121.503035","24.952","6500600","新店區"
"231048","KED-0819","2019/07/30 19:59:47","新北市新店區寶宏路38號","121.549351666667","24.9754783333333","6500600","新店區"
"231057","720-UM","2019/07/30 19:59:45","新北市新店區花園二路一段11號","121.555501666667","24.9324916666667","6500600","新店區"
"231059","897-TW","2019/07/30 19:59:52","新北市新店區吉安街2號","121.517335","24.9656866666667","6500600","新店區"
"231040","898-TW","2019/07/30 19:59:50","新北市新店區中正路75巷71號","121.543123333333","24.9688216666667","6500600","新店區"
"231043","899-TW","2019/07/30 19:59:38","新北市新店區中正路263-3號","121.538386666667","24.9737683333333","6500600","新店區"
"231066","AKT-0513","2019/07/30 19:59:42","新北市新店區安康路二段341巷5號","121.49694","24.954835","6500600","新店區"
"241011","013-R5","2019/07/30 19:59:41","新北市三重區文化北路246號","121.497611666667","25.06992","6500200","三重區"
"241028","022-UY","2019/07/30 19:59:36","新北市三重區中正南路96號","121.494303333333","25.0588266666667","6500200","三重區"
"241008","059-VK","2019/07/30 19:59:35","新北市三重區永福街179巷28號","121.478051666667","25.0748083333333","6500200","三重區"
"241031","061-VK","2019/07/30 19:59:53","新北市三重區重新路四段144巷2號","121.486993333333","25.0559383333333","6500200","三重區"
"241017","063-VK","2019/07/30 19:59:48","新北市三重區自強路一段314號","121.491208333333","25.0684616666667","6500200","三重區"
"241002","090-VK","2019/07/30 19:59:50","新北市三重區仁愛街221號","121.494525","25.077555","6500200","三重區"
"241003","091-VK","2019/07/30 19:59:45","新北市三重區仁愛街445巷65號","121.491548333333","25.0833633333333","6500200","三重區"
"241015","742-BX","2019/07/30 19:59:57","新北市三重區仁慈街32號","121.502341666667","25.0632933333333","6500200","三重區"
"241005","262-UM","2019/07/30 19:59:53","新北市三重區溪尾街325巷3弄1號","121.488188333333","25.0842566666667","6500200","三重區"
"241016","266-UM","2019/07/30 19:58:37","新北市三重區正義北路28巷31號","121.49642","25.06311","6500200","三重區"
"241009","267-UM","2019/07/30 19:59:49","新北市三重區三和路四段205號","121.482083333333","25.0793316666667","6500200","三重區"
"241018","268-UM","2019/07/30 19:59:42","新北市三重區正義北路244巷49號","121.494413333333","25.0677983333333","6500200","三重區"
"241032","269-UM","2019/07/30 19:59:54","新北市三重區朝陽街4巷4號","121.483555","25.0560866666667","6500200","三重區"
"241013","270-UM","2019/07/30 19:59:50","新北市三重區三和路三段125巷42號","121.494188333333","25.0738083333333","6500200","三重區"
"241025","271-UM","2019/07/30 19:59:52","新北市三重區頂崁街210巷16號","121.476341666667","25.0676883333333","6500200","三重區"
"241007","398-BY","2019/07/30 19:59:45","新北市三重區溪尾街146號","121.489071666667","25.079835","6500200","三重區"
"241030","KED-0822","2019/07/30 19:59:40","新北市三重區成功路171號","121.486093333333","25.0524283333333","6500200","三重區"
"241004","475-VK","2019/07/30 19:59:36","新北市三重區五華街74號","121.49337","25.0820166666667","6500200","三重區"
"241020","478-VK","2019/07/30 19:59:35","新北市三重區忠孝路一段101號","121.489513333333","25.0721683333333","6500200","三重區"
"241026","480-VK","2019/07/30 19:59:56","新北市三重區中央南路3號","121.501198333333","25.0629766666667","6500200","三重區"
"241014","543-UM","2019/07/30 19:59:46","新北市三重區三和路二段160號","121.499286666667","25.0685416666667","6500200","三重區"
"241023","545-UM","2019/07/30 19:59:49","新北市三重區頂崁街172號","121.477606666667","25.0659766666667","6500200","三重區"
"241001","547-UM","2019/07/30 19:59:46","新北市三重區仁愛街269巷17號","121.493561666667","25.0790416666667","6500200","三重區"
"241019","KEA-2593","2019/07/30 19:59:45","新北市三重區自強路二段24號","121.489516666667","25.0692016666667","6500200","三重區"
"241006","AAD-863","2019/07/30 19:59:40","新北市三重區力行路二段138-1號","121.482436666667","25.0757266666667","6500200","三重區"
"241024","887-TS","2019/07/30 19:59:35","新北市三重區力行路一段180號","121.481923333333","25.0715233333333","6500200","三重區"
"241012","941-UM","2019/07/30 19:59:54","新北市三重區仁興街55號","121.499075","25.0760533333333","6500200","三重區"
"241029","942-UM","2019/07/30 19:59:37","新北市三重區重安街1號","121.489975","25.0583016666667","6500200","三重區"
"241033","AAC-255","2019/07/30 19:59:49","新北市三重區中興北街111-1號","121.469938333333","25.0487066666667","6500200","三重區"
"235066","003-UY","2019/07/30 19:59:50","新北市中和區中山路二段46號","121.504276666667","25.0049066666667","6500300","中和區"
"235039","097-UM","2019/07/30 19:59:54","新北市中和區大勇街25巷39弄13號","121.514698333333","24.9939766666667","6500300","中和區"
"235065","098-UM","2019/07/30 19:59:54","新北市中和區永和路90巷3號","121.497345","25.0059183333333","6500300","中和區"
"235040","150-BY","2019/07/30 19:59:53","新北市中和區保健路10巷1弄1號","121.508003333333","24.9979383333333","6500300","中和區"
"235055","183-VK","2019/07/30 19:59:46","新北市中和區中山路三段82號","121.477918333333","25.005635","6500300","中和區"
"235044","293-VK","2019/07/30 19:59:51","新北市中和區復興路255號","121.503175","24.99031","6500300","中和區"
"247014","KEA-2869","2019/07/30 19:59:46","新北市蘆洲區得勝街145號","121.471763333333","25.0830183333333","6501400","蘆洲區"
"247008","KED-0682","2019/07/30 19:59:41","新北市蘆洲區信義路93號","121.477753333333","25.0799383333333","6501400","蘆洲區"
"235050","4979-A6","2019/07/30 19:59:46","新北市中和區景平路241巷64弄1號","121.50767","24.9923983333333","6500300","中和區"
"235070","558-UM","2019/07/30 19:59:53","新北市中和區圓通路221號","121.496615","24.99432","6500300","中和區"
"235047","732-UM","2019/07/30 19:59:41","新北市中和區和平街7-2號","121.509206666667","24.99019","6500300","中和區"
"235046","733-UM","2019/07/30 19:59:54","新北市中和區興南路一段93巷58弄7號","121.510495","24.98587","6500300","中和區"
"235052","805-TS","2019/07/30 19:59:53","新北市中和區華新街30巷12-3號","121.50711","24.98428","6500300","中和區"
"235048","896-TW","2019/07/30 19:59:42","新北市中和區景新街448號","121.513405","24.9877966666667","6500300","中和區"
"235051","157-BY","2019/07/30 19:59:42","新北市中和區景安路247巷7號","121.504396666667","24.9906466666667","6500300","中和區"
"235037","AAC-213","2019/07/30 19:59:35","新北市中和區自強路50號","121.520143333333","24.9948683333333","6500300","中和區"
"235059","AAC-215","2019/07/30 19:59:54","新北市中和區圓通路367巷5號","121.492206666667","24.9880983333333","6500300","中和區"
"220068","015-TV","2019/07/30 19:59:52","新北市板橋區光復街234-1號","121.484665","25.0215233333333","6500100","板橋區"
"220065","072-UY","2019/07/30 19:59:38","新北市板橋區民族路229號","121.46978","25.0071733333333","6500100","板橋區"
"220086","073-UY","2019/07/30 19:59:56","新北市板橋區西門街18-5號","121.454488333333","25.01117","6500100","板橋區"
"220069","AAD-861","2019/07/30 19:59:41","新北市板橋區大華街182巷14號","121.458823333333","25.003045","6500100","板橋區"
"220106","120-SR","2019/07/30 19:59:45","新北市板橋區懷德街66巷17號","121.47708","25.0319816666667","6500100","板橋區"
"247018","546-UM","2019/07/30 19:59:48","新北市蘆洲區民族路290巷11號","121.478481666667","25.0898166666667","6501400","蘆洲區"
"247004","341-TH","2019/07/30 19:59:37","新北市蘆洲區長安街301號","121.458021666667","25.0849033333333","6501400","蘆洲區"
"247024","337-TH","2019/07/30 19:59:49","新北市蘆洲區光明路88巷1號","121.462978333333","25.087625","6501400","蘆洲區"
"247002","336-TH","2019/07/30 19:59:39","新北市蘆洲區永樂街31巷9號","121.458165","25.08716","6501400","蘆洲區"
"247022","057-VK","2019/07/30 19:59:46","新北市蘆洲區中正路176號","121.467235","25.0877916666667","6501400","蘆洲區"
"247012","056-VK","2019/07/30 19:59:49","新北市蘆洲區民族路147號","121.479596666667","25.0878366666667","6501400","蘆洲區"
"247016","053-VK","2019/07/30 19:59:53","新北市蘆洲區光華路13號","121.469773333333","25.083355","6501400","蘆洲區"
"247020","007-UY","2019/07/30 19:59:45","新北市蘆洲區民義街66號","121.472945","25.0897066666667","6501400","蘆洲區"
"247006","002-UY","2019/07/30 19:59:53","新北市蘆洲區九芎街141號","121.465441666667","25.0793866666667","6501400","蘆洲區"
"226004","312-R5","2019/07/30 19:59:53","新北市平溪區靜安路三段355號","121.779876666667","25.044965","6502400","平溪區"
"228003","828-UM","2019/07/30 19:59:41","新北市貢寮區仁理村仁和路186號","121.92336","25.052405","6502600","貢寮區"
"227001","642-TC","2019/07/30 19:59:44","新北市雙溪區新基里新基南街25號","121.866226666667","25.038155","6502500","雙溪區"
"227002","400-TW","2019/07/30 19:59:53","新北市雙溪區雙溪里太平路77號","121.865291666667","25.0360416666667","6502500","雙溪區"
"222001","KEA-2212","2019/07/30 19:59:37","新北市深坑區北深路三段157號","121.602135","25.0031083333333","6501800","深坑區"
"208002","KEA-2872","2019/07/30 19:59:55","新北市金山區中正路141巷10號","121.632363333333","25.22054","6502700","金山區"
"208003","665-BX","2019/07/30 19:59:47","新北市金山區永興里濆水路5號","121.628273333333","25.26652","6502700","金山區"
"251009","008-UM","2019/07/30 19:59:45","新北市淡水區英專路21巷12-3號","121.444973333333","25.1697416666667","6501000","淡水區"
"251004","009-UM","2019/07/30 19:59:49","新北市淡水區民權路177巷11號","121.460751666667","25.1351833333333","6501000","淡水區"
"251001","011-UM","2019/07/30 19:59:51","新北市淡水區北新路一段69-5號","121.452783333333","25.180935","6501000","淡水區"
"251002","012-UM","2019/07/30 19:59:46","新北市淡水區新市一路一段6號","121.429023333333","25.1873666666667","6501000","淡水區"
"251015","KEA-2871","2019/07/30 19:59:40","新北市淡水區大埤頭1-2號","121.492768333333","25.1946516666667","6501000","淡水區"
"251016","179-VK","2019/07/30 19:59:51","新北市淡水區淡金路五段14-8號","121.452763333333","25.2320733333333","6501000","淡水區"
"251008","181-VK","2019/07/30 19:59:49","新北市淡水區淡海路72巷17號","121.4239","25.1810966666667","6501000","淡水區"
"251013","182-VK","2019/07/30 19:59:36","新北市淡水區下圭柔山63-7號","121.451906666667","25.20614","6501000","淡水區"
"251012","441-VK","2019/07/30 19:59:53","新北市淡水區下圭柔山93-4號","121.436261666667","25.2091566666667","6501000","淡水區"
"251005","443-VK","2019/07/30 19:59:40","新北市淡水區學府路136巷14號","121.451093333333","25.1728216666667","6501000","淡水區"
"251006","561-UM","2019/07/30 19:59:52","新北市淡水區水碓街28號","121.444101666667","25.1773116666667","6501000","淡水區"
"251014","577-R6","2019/07/30 19:59:53","新北市淡水區石頭厝2-1號","121.458096666667","25.23572","6501000","淡水區"
"251011","650-BX","2019/07/30 19:59:45","新北市淡水區淡金路二段38號","121.451563333333","25.18166","6501000","淡水區"
"207003","550-UM","2019/07/30 19:59:50","新北市萬里區大鵬里萬里加投51-1號","121.642031666667","25.2117583333333","6502800","萬里區"
"207004","225-TW","2019/07/30 19:59:37","新北市萬里區北基里忠二街35號","121.685668333333","25.1756766666667","6502800","萬里區"
"252002","178-VK","2019/07/30 19:59:55","新北市三芝區三民街39巷5號","121.505363333333","25.2576266666667","6502100","三芝區"
"208001","170-UY","2019/07/30 19:59:51","新北市金山區南勢85號","121.625215","25.2200183333333","6502700","金山區"
"237004","KEA-2597","2019/07/30 19:59:53","新北市三峽區添福6-12號","121.372135","24.9055816666667","6500900","三峽區"
"237009","210-TH","2019/07/30 19:59:56","新北市三峽區民族街35號","121.369655","24.9303466666667","6500900","三峽區"
"237012","275-BY","2019/07/30 19:59:49","新北市三峽區愛國路172-1號","121.374926666667","24.931165","6500900","三峽區"
"237008","302-VK","2019/07/30 19:59:43","新北市三峽區中正路一段174巷4弄4號","121.372395","24.9288333333333","6500900","三峽區"
"237014","433-BY","2019/07/30 19:59:44","新北市三峽區添福13-16號","121.374325","24.9072266666667","6500900","三峽區"
"237006","5529-G3","2019/07/30 19:59:38","新北市三峽區中正路二段168號","121.365988333333","24.9155533333333","6500900","三峽區"
"237015","649-BX","2019/07/30 19:59:50","新北市三峽區介壽路二段167號","121.394821666667","24.936075","6500900","三峽區"
"237005","AKY-6261","2019/07/30 19:59:40","新北市三峽區民生街1巷5-2號","121.378798333333","24.9364183333333","6500900","三峽區"
"236042","KED-0685","2019/07/30 19:59:45","新北市土城區學府路一段147號","121.453548333333","24.9860416666667","6501300","土城區"
"236079","166-UM","2019/07/30 19:59:52","新北市土城區三民路23巷8弄2號","121.419813333333","24.963415","6501300","土城區"
"236026","269-VK","2019/07/30 19:59:36","新北市土城區員林街1號","121.442241666667","24.978285","6501300","土城區"
"236038","271-VK","2019/07/30 19:59:35","新北市土城區國際路31巷14號","121.465868333333","24.9793616666667","6501300","土城區"
"247010","KED-0683","2019/07/30 19:59:47","新北市三重區集賢路182號","121.48379","25.0879816666667","6501400","蘆洲區"
"236070","KEA-2877","2019/07/30 19:59:54","新北市土城區忠義路111-2號","121.444558333333","24.9628283333333","6501300","土城區"
"252001","KED-0821","2019/07/30 19:59:47","新北市三芝區公正街66號","121.499853333333","25.2574916666667","6502100","三芝區"
"236021","401-BY","2019/07/30 19:59:51","新北市土城區延吉街137巷25弄5號","121.471531666667","24.9850183333333","6501300","土城區"
"236030","752-BX","2019/07/30 19:59:34","新北市土城區中央路一段252-1號","121.444275","24.984575","6501300","土城區"
"236059","912-UM","2019/07/30 19:59:38","新北市土城區中央路一段353號","121.443175","24.9812116666667","6501300","土城區"
"236049","913-UM","2019/07/30 19:59:48","新北市土城區金城路三段315號","121.475051666667","24.9911666666667","6501300","土城區"
"236063","915-UM","2019/07/30 19:59:44","新北市土城區延和路62巷15號","121.466221666667","24.9884883333333","6501300","土城區"
"236055","AAC-216","2019/07/30 19:59:52","新北市土城區學府路一段63號","121.457241666667","24.9882883333333","6501300","土城區"
"242039","AAC-296","2019/07/30 19:59:48","新北市新莊區民安路286號","121.427908333333","25.0216383333333","6500500","新莊區"
"242061","986-R7","2019/07/30 19:59:36","新北市新莊區瓊泰路1號","121.444963333333","25.0286216666667","6500500","新莊區"
"242002","751-BX","2019/07/30 19:59:48","新北市新莊區中正路285號","121.448808333333","25.0352466666667","6500500","新莊區"
"242029","615-BX","2019/07/30 19:59:44","新北市新莊區中榮街152巷13號","121.445915","25.0534483333333","6500500","新莊區"
"242058","612-BX","2019/07/30 19:59:37","新北市新莊區八德街97號","121.424356666667","25.021315","6500500","新莊區"
"242051","497-BY","2019/07/30 19:59:47","新北市新莊區西盛街137號","121.42824","25.018615","6500500","新莊區"
"242056","441-UM","2019/07/30 19:59:48","新北市新莊區中正路347巷17號","121.447391666667","25.0345616666667","6500500","新莊區"
"242005","440-UM","2019/07/30 19:59:43","新北市新莊區化成路354號","121.465806666667","25.0492","6500500","新莊區"
"242011","413-TV","2019/07/30 19:59:40","新北市新莊區中港路531巷90號","121.450108333333","25.0518133333333","6500500","新莊區"
"242048","400-BY","2019/07/30 19:59:47","新北市新莊區民安路98巷11號","121.423656666667","25.0253666666667","6500500","新莊區"
"242025","362-BY","2019/07/30 19:59:55","新北市新莊區五工一路87巷12號","121.460718333333","25.0673816666667","6500500","新莊區"
"242023","353-BY","2019/07/30 19:59:53","新北市新莊區化成路384號","121.465888333333","25.0502033333333","6500500","新莊區"
"242013","132-UY","2019/07/30 19:59:51","新北市新莊區中港路417巷9號","121.451608333333","25.0474316666667","6500500","新莊區"
"242037","135-UY","2019/07/30 19:59:40","新北市新莊區建安街27號","121.428946666667","25.0259066666667","6500500","新莊區"
"242054","172-VK","2019/07/30 19:59:52","新北市新莊區西盛街418號","121.427145","25.012165","6500500","新莊區"
"242015","173-VK","2019/07/30 19:59:44","新北市新莊區復興路一段47巷12號","121.446825","25.0426966666667","6500500","新莊區"
"242021","175-VK","2019/07/30 19:59:38","新北市新莊區建中街16巷35號","121.448685","25.0384816666667","6500500","新莊區"
"242019","KED-0687","2019/07/30 19:59:39","新北市新莊區民生街15巷9號","121.455338333333","25.0425516666667","6500500","新莊區"
"242034","348-TH","2019/07/30 19:59:49","新北市新莊區建中街91號","121.446706666667","25.0364933333333","6500500","新莊區"
"242007","349-TH","2019/07/30 19:59:37","新北市新莊區思源路585號","121.459901666667","25.05915","6500500","新莊區"
"242032","350-TH","2019/07/30 19:59:52","新北市新莊區公園一路46號","121.443376666667","25.0357266666667","6500500","新莊區"
"242017","351-TH","2019/07/30 19:59:51","新北市新莊區中安街8號","121.452918333333","25.045325","6500500","新莊區"
"238021","KEA-2539","2019/07/30 19:59:55","新北市樹林區田尾街198-2號","121.399368333333","24.9478616666667","6500700","樹林區"
"238025","303-VK","2019/07/30 19:59:47","新北市樹林區中山路二段168號","121.412448333333","24.982345","6500700","樹林區"
"238017","283-BY","2019/07/30 19:59:56","新北市樹林區保安街二段45巷13弄10號","121.415415","24.99968","6500700","樹林區"
"239006","891-R6","2019/07/30 19:59:37","新北市鶯歌區文化路149號","121.356441666667","24.9543383333333","6500800","鶯歌區"
"221015","131-UY","2019/07/30 19:59:41","新北市汐止區橋東街9號","121.666625","25.0759216666667","6501100","汐止區"
"221010","269-BY","2019/07/30 19:59:46","新北市汐止區八連路一段7號","121.648646666667","25.08032","6501100","汐止區"
"221012","278-VK","2019/07/30 19:59:41","新北市汐止區保長路273巷1號","121.681111666667","25.0740233333333","6501100","汐止區"
"221023","279-VK","2019/07/30 19:59:44","新北市汐止區民族三街47號","121.629605","25.06982","6501100","汐止區"
"221027","281-BY","2019/07/30 19:59:35","新北市汐止區中正路97號","121.66108","25.0694083333333","6501100","汐止區"
"221033","297-VK","2019/07/30 19:59:39","新北市汐止區東勢街190巷3號","121.633876666667","25.04165","6501100","汐止區"
"221029","298-VK","2019/07/30 19:59:48","新北市汐止區樟樹一路137巷26號","121.640946666667","25.0659383333333","6501100","汐止區"
"221021","299-VK","2019/07/30 19:59:49","新北市汐止區水源路一段162號","121.655533333333","25.0621333333333","6501100","汐止區"
"221035","622-UM","2019/07/30 19:59:53","新北市汐止區汐萬路一段160號","121.65257","25.0714933333333","6501100","汐止區"
"221025","623-UM","2019/07/30 19:59:42","新北市汐止區秀峰路109巷26弄8號","121.66103","25.0634383333333","6501100","汐止區"
"221038","646-BX","2019/07/30 19:59:55","新北市汐止區忠孝東路497號","121.666543333333","25.074675","6501100","汐止區"
"220079","145-BY","2019/07/30 19:59:45","新北市板橋區中正路156號","121.456773333333","25.0167716666667","6500100","板橋區"
"220080","200-UY","2019/07/30 19:59:51","新北市板橋區大觀路二段69巷21號","121.447261666667","25.0021466666667","6500100","板橋區"
"220082","610-BX","2019/07/30 19:59:47","新北市板橋區溪崑二街33號","121.428555","24.9910916666667","6500100","板橋區"
"220084","256-TC","2019/07/30 19:59:39","新北市樹林區博愛街194號","121.424875","24.989565","6500100","板橋區"
"224002","257-TC","2019/07/30 19:59:46","新北市瑞芳區三爪子坑路335號","121.818948333333","25.1048683333333","6501200","瑞芳區"
"220056","276-BY","2019/07/30 19:59:45","新北市板橋區四川路二段99巷7號","121.452921666667","24.994225","6500100","板橋區"
"220072","277-BY","2019/07/30 19:59:42","新北市板橋區金門街109巷17號","121.43357","24.9916516666667","6500100","板橋區"
"220101","280-UM","2019/07/30 19:59:33","新北市板橋區莒光路171巷1弄16號","121.47455","25.0245916666667","6500100","板橋區"
"220071","283-VK","2019/07/30 19:59:41","新北市板橋區和平路174巷36弄1號","121.465003333333","24.9942166666667","6500100","板橋區"
"220094","285-UM","2019/07/30 19:59:44","新北市板橋區文化路一段379號","121.46698","25.0215566666667","6500100","板橋區"
"220053","285-VK","2019/07/30 19:59:56","新北市板橋區懷仁街54號","121.476781666667","25.0188366666667","6500100","板橋區"
"220083","286-VK","2019/07/30 19:59:50","新北市板橋區僑中二街10巷35號","121.445495","25.011145","6500100","板橋區"
"220081","287-VK","2019/07/30 19:59:47","新北市板橋區僑中一街80巷6弄1號","121.447691666667","25.0121033333333","6500100","板橋區"
"220090","288-VK","2019/07/30 19:59:48","新北市板橋區新海路72巷5弄25號","121.461528333333","25.0228766666667","6500100","板橋區"
"220061","293-UM","2019/07/30 19:59:53","新北市板橋區縣民大道二段198號","121.469481666667","25.01724","6500100","板橋區"
"220075","303-R5","2019/07/30 19:59:52","新北市板橋區中正路212號","121.455955","25.0181566666667","6500100","板橋區"
"220062","305-R5","2019/07/30 19:59:49","新北市板橋區中山路二段光榮巷30弄11號","121.484536666667","25.020405","6500100","板橋區"
"220092","307-R5","2019/07/30 19:59:54","新北市板橋區文化路一段45巷10號","121.460215","25.01371","6500100","板橋區"
"220098","317-R6","2019/07/30 19:59:44","新北市板橋區新海路385巷20號","121.458186666667","25.0255483333333","6500100","板橋區"
"220055","461-BY","2019/07/30 19:59:40","新北市板橋區國慶路149巷37弄11號","121.460438333333","24.997915","6500100","板橋區"
"220089","487-VK","2019/07/30 19:59:37","新北市板橋區四維路319號","121.462831666667","25.0289666666667","6500100","板橋區"
"220088","491-VK","2019/07/30 19:59:53","新北市板橋區民治街52巷1號","121.479541666667","25.0331633333333","6500100","板橋區"
"220035","560-BX","2019/07/30 19:59:54","新北市板橋區金華街88號","121.458071666667","25.0207183333333","6500100","板橋區"
"220103","561-BX","2019/07/30 19:59:46","新北市板橋區漢生西路56號","121.463038333333","25.01869","6500100","板橋區"
"220063","609-BX","2019/07/30 19:59:56","新北市板橋區中山路二段68號","121.474363333333","25.0159383333333","6500100","板橋區"
"220091","637-BX","2019/07/30 19:59:47","新北市板橋區文聖街89巷34號","121.478541666667","25.0304316666667","6500100","板橋區"
"220077","687-BX","2019/07/30 19:59:47","新北市板橋區僑中一街104號","121.44656","25.011655","6500100","板橋區"
"220054","741-BX","2019/07/30 19:59:31","新北市板橋區實踐路93巷38號","121.465548333333","25.0050233333333","6500100","板橋區"
"220102","KEA-2699","2019/07/30 19:59:41","新北市板橋區莒光路16巷19號","121.469446666667","25.0239716666667","6500100","板橋區"
"220067","829-TW","2019/07/30 19:59:40","新北市板橋區長安街331巷93弄9號","121.472195","25.0124116666667","6500100","板橋區"
"220074","895-R6","2019/07/30 19:59:49","新北市板橋區府中路27號","121.45906","25.0086233333333","6500100","板橋區"
"220073","985-R7","2019/07/30 19:59:46","新北市板橋區南雅西路二段208號","121.451893333333","25.0150183333333","6500100","板橋區"
"220097","AAC-210","2019/07/30 19:59:54","新北市板橋區光正街45巷2弄18號","121.46103","25.0173516666667","6500100","板橋區"
"220064","AAC-253","2019/07/30 19:59:55","新北市板橋區漢生東路193巷23-4號","121.470968333333","25.0121766666667","6500100","板橋區"
"235068","KEA-2873","2019/07/30 19:59:45","新北市中和區福美路298-1號","121.497485","25.005015","6500300","中和區"
