"lineid","car","time","location","longitude","latitude","cityid","cityname"
"234081","298-R6","2019/07/30 20:19:53","新北市永和區國中路104巷2弄1號","121.524421666667","25.0067866666667","6500400","永和區"
"234038","336-UY","2019/07/30 20:19:35","新北市永和區成功路一段93巷11-1號","121.527656666667","25.00273","6500400","永和區"
"234064","337-UY","2019/07/30 20:19:50","新北市永和區得和路124號","121.518741666667","25.0001733333333","6500400","永和區"
"234086","338-UY","2019/07/30 20:19:41","新北市永和區中正路657號","121.514866666667","25.0101216666667","6500400","永和區"
"234070","552-UM","2019/07/30 20:19:40","新北市永和區福和路263巷11號","121.517961666667","25.0067916666667","6500400","永和區"
"234017","745-BX","2019/07/30 20:19:51","新北市永和區仁愛路48號","121.513946666667","25.013475","6500400","永和區"
"234030","746-BX","2019/07/30 20:19:49","新北市永和區民有街75巷10弄33號","121.519335","24.99603","6500400","永和區"
"234054","KEA-2590","2019/07/30 20:19:51","新北市永和區光復街2巷16弄9號","121.517536666667","25.01633","6500400","永和區"
"234013","KEA-2591","2019/07/30 20:19:52","新北市永和區保生路3號","121.506441666667","25.0073316666667","6500400","永和區"
"234061","AAD-866","2019/07/30 20:19:46","新北市永和區安樂路146-1號","121.514191666667","25.000385","6500400","永和區"
"234042","862-TW","2019/07/30 20:19:49","新北市中和區中安街168號","121.510868333333","24.9998433333333","6500400","永和區"
"234050","863-TW","2019/07/30 20:19:50","新北市永和區新生路13號","121.509411666667","25.016815","6500400","永和區"
"249005","172-UM","2019/07/30 20:19:37","新北市八里區下罟子1-16號","121.38981","25.142005","6502300","八里區"
"249001","173-UM","2019/07/30 20:19:48","新北市八里區中華路二段341-10號","121.399065","25.1449633333333","6502300","八里區"
"249004","303-UY","2019/07/30 20:19:55","新北市八里區中山路一段143號","121.413133333333","25.15901","6502300","八里區"
"249003","593-UM","2019/07/30 20:19:44","新北市八里區訊塘路56號","121.397755","25.1457016666667","6502300","八里區"
"249002","759-BX","2019/07/30 20:19:44","新北市八里區龍米路一段100巷17號","121.453808333333","25.1251683333333","6502300","八里區"
"248016","026-BX","2019/07/30 20:19:40","新北市五股區凌雲路一段158巷39弄12號","121.446508333333","25.1041016666667","6501500","五股區"
"248008","KED-0815","2019/07/30 20:19:44","新北市五股區中興路一段1巷12弄21號","121.469366666667","25.070735","6501500","五股區"
"248012","247-BX","2019/07/30 20:19:38","新北市五股區民義路一段112-9號","121.435103333333","25.0853483333333","6501500","五股區"
"248002","678-BX","2019/07/30 20:19:45","新北市五股區成泰路三段173號","121.44529","25.091965","6501500","五股區"
"248010","682-TV","2019/07/30 20:19:46","新北市五股區成泰路一段32巷62號","121.43519","25.0670816666667","6501500","五股區"
"234023","9380-KE","2019/07/30 20:19:51","新北市永和區復興街60號","121.516598333333","25.013315","6500400","永和區"
"234077","969-R7","2019/07/30 20:19:46","新北市永和區民享街2巷2號","121.514658333333","24.99582","6500400","永和區"
"234074","AAC-211","2019/07/30 20:19:46","新北市永和區豫溪街160巷1號","121.523325","25.0095766666667","6500400","永和區"
"234067","AAC-212","2019/07/30 20:19:57","新北市永和區保平路268巷11號","121.50831","25.0054833333333","6500400","永和區"
"234003","AAC-295","2019/07/30 20:19:56","新北市永和區自強街4號","121.514233333333","25.0080333333333","6500400","永和區"
"243012","AAD-798","2019/07/30 20:19:39","新北市泰山區楓江路162號","121.440768333333","25.0656833333333","6501600","泰山區"
"243010","297-R6","2019/07/30 20:19:43","新北市泰山區明志路二段254巷16弄4號","121.426278333333","25.0480983333333","6501600","泰山區"
"243014","KEA-2801","2019/07/30 20:19:40","新北市泰山區明志路一段181號","121.43311","25.0620383333333","6501600","泰山區"
"243016","421-VK","2019/07/30 20:19:44","新北市泰山區明志路三段1號","121.42489","25.04352","6501600","泰山區"
"243009","KEA-2215","2019/07/30 20:19:51","新北市泰山區福泰街22號","121.4332","25.05991","6501600","泰山區"
"243011","KEA-2216","2019/07/30 20:19:43","新北市泰山區壽山路134巷26號","121.41847","25.0312166666667","6501600","泰山區"
"243013","646-TV","2019/07/30 20:19:36","新北市泰山區明志路二段359巷19號","121.425981666667","25.0439083333333","6501600","泰山區"
"243015","680-BX","2019/07/30 20:19:54","新北市泰山區明志路一段260號","121.43219","25.060435","6501600","泰山區"
"222003","436-BY","2019/07/30 20:19:49","新北市深坑區文化街82號","121.617765","25.00187","6501800","深坑區"
"222002","659-BX","2019/07/30 20:19:43","新北市深坑區萬福路75巷46號","121.598313333333","25.0098666666667","6501800","深坑區"
"231061","002-UM","2019/07/30 20:19:52","新北市新店區安興路43號","121.516561666667","24.9715116666667","6500600","新店區"
"231058","0293-UT","2019/07/30 20:19:52","新北市新店區薏仁坑路10-1號","121.499168333333","24.9590516666667","6500600","新店區"
"231044","046-UY","2019/07/30 20:19:50","新北市新店區北新路三段126號","121.541578333333","24.9818083333333","6500600","新店區"
"231060","106-UY","2019/07/30 20:19:48","新北市新店區安康路三段578-1號","121.481086666667","24.9487116666667","6500600","新店區"
"231051","107-UY","2019/07/30 20:19:55","新北市新店區中央六街62-1號","121.52755","24.9760483333333","6500600","新店區"
"231049","108-UY","2019/07/30 20:19:49","新北市新店區北新路二段68號","121.542961666667","24.9723766666667","6500600","新店區"
"231068","187-VK","2019/07/30 20:19:54","新北市新店區寶安街30號","121.542038333333","24.9823816666667","6500600","新店區"
"231065","KEA-2219","2019/07/30 20:19:46","新北市新店區安祥路102巷28號","121.483941666667","24.9640016666667","6500600","新店區"
"221031","KEA-2785","2019/07/30 20:19:37","新北市汐止區原興路73巷1號","121.632055","25.0662","6501100","汐止區"
"231062","256-BX","2019/07/30 20:19:52","新北市新店區安豐路3號","121.501805","24.9573066666667","6500600","新店區"
"231054","260-TV","2019/07/30 20:19:50","新北市新店區檳榔路150號","121.544176666667","24.9614983333333","6500600","新店區"
"231042","268-BY","2019/07/30 20:19:53","新北市新店區中興路二段231-2號","121.547658333333","24.974895","6500600","新店區"
"231064","278-BY","2019/07/30 20:19:46","新北市新店區安業街33號","121.517555","24.9771216666667","6500600","新店區"
"231050","AAD-862","2019/07/30 20:19:54","新北市新店區博愛街21號","121.541351666667","24.9736333333333","6500600","新店區"
"231045","355-BY","2019/07/30 20:19:54","新北市新店區光明街34號","121.538568333333","24.9588783333333","6500600","新店區"
"231055","4716-K9","2019/07/30 20:19:41","新北市新店區北新路一段303號","121.541215","24.967625","6500600","新店區"
"231056","4715-K9","2019/07/30 20:19:47","新北市新店區中正路309號","121.536635","24.9749616666667","6500600","新店區"
"231067","4772-VM","2019/07/30 20:19:46","新北市新店區安康路一段351-1號","121.519635","24.9635983333333","6500600","新店區"
"231053","513-UM","2019/07/30 20:19:45","新北市新店區松林路12號","121.547223333333","24.91074","6500600","新店區"
"231041","619-UM","2019/07/30 20:19:44","新北市新店區民權路42號","121.540466666667","24.98299","6500600","新店區"
"231063","641-BX","2019/07/30 20:19:38","新北市新店區車子路10號","121.504575","24.9552633333333","6500600","新店區"
"231048","KED-0819","2019/07/30 20:19:47","新北市新店區寶橋路97號","121.547033333333","24.97651","6500600","新店區"
"231057","720-UM","2019/07/30 20:19:53","新北市新店區花園五路二段27號","121.554643333333","24.9345833333333","6500600","新店區"
"231059","897-TW","2019/07/30 20:19:52","新北市新店區安德街66號","121.510535","24.9618566666667","6500600","新店區"
"231040","898-TW","2019/07/30 20:19:50","新北市新店區中正路110號","121.543038333333","24.970635","6500600","新店區"
"231043","899-TW","2019/07/30 20:19:38","新北市新店區建國路131號","121.539386666667","24.9781316666667","6500600","新店區"
"231066","AKT-0513","2019/07/30 20:19:42","新北市新店區柴埕路22巷2號","121.513891666667","24.9658066666667","6500600","新店區"
"241011","013-R5","2019/07/30 20:19:41","新北市三重區龍門路195號","121.499635","25.073315","6500200","三重區"
"241028","022-UY","2019/07/30 20:19:36","新北市三重區大同南路83-5號","121.496103333333","25.059275","6500200","三重區"
"241008","059-VK","2019/07/30 20:19:55","新北市三重區永福街227號","121.480406666667","25.0744183333333","6500200","三重區"
"241031","061-VK","2019/07/30 20:19:53","新北市三重區過圳街7巷15號","121.489736666667","25.05927","6500200","三重區"
"241017","063-VK","2019/07/30 20:19:48","新北市三重區自強路一段157號","121.49334","25.0671566666667","6500200","三重區"
"241002","090-VK","2019/07/30 20:19:50","新北市三重區仁義街101巷36號","121.49902","25.0806766666667","6500200","三重區"
"241003","091-VK","2019/07/30 20:19:45","新北市三重區富華街31號","121.490573333333","25.0831116666667","6500200","三重區"
"241015","742-BX","2019/07/30 20:19:37","新北市三重區重新路一段130號","121.500163333333","25.0629616666667","6500200","三重區"
"241005","262-UM","2019/07/30 20:19:53","新北市三重區仁愛街495-1號","121.488275","25.082245","6500200","三重區"
"241016","266-UM","2019/07/30 20:19:37","新北市三重區大同北路97-3號","121.49438","25.06361","6500200","三重區"
"241009","267-UM","2019/07/30 20:19:48","新北市三重區永福街28號","121.482393333333","25.0781433333333","6500200","三重區"
"241018","268-UM","2019/07/30 20:19:41","新北市三重區自強路一段236號","121.493408333333","25.06711","6500200","三重區"
"241032","269-UM","2019/07/30 20:19:53","新北市三重區捷運路19巷8弄16號","121.484378333333","25.0571933333333","6500200","三重區"
"241013","270-UM","2019/07/30 20:19:50","新北市三重區三和路三段167巷19號","121.492681666667","25.0743033333333","6500200","三重區"
"241025","271-UM","2019/07/30 20:19:52","新北市三重區頂崁街210巷27號","121.475801666667","25.0682366666667","6500200","三重區"
"241007","398-BY","2019/07/30 20:19:45","新北市三重區溪尾街108巷57號","121.487556666667","25.07826","6500200","三重區"
"241030","KED-0822","2019/07/30 20:19:40","新北市三重區集美街89巷30號","121.488271666667","25.0525083333333","6500200","三重區"
"241004","475-VK","2019/07/30 20:19:56","新北市三重區慈愛街156號","121.490786666667","25.080845","6500200","三重區"
"241020","478-VK","2019/07/30 20:19:54","新北市三重區忠孝路一段21巷11-1號","121.49181","25.0728166666667","6500200","三重區"
"241026","480-VK","2019/07/30 20:19:36","新北市三重區中央南路85號","121.501461666667","25.0607833333333","6500200","三重區"
"241014","543-UM","2019/07/30 20:19:46","新北市三重區長樂街130號","121.502373333333","25.06974","6500200","三重區"
"241023","545-UM","2019/07/30 20:19:48","新北市三重區忠孝路三段84巷1號","121.48035","25.0647533333333","6500200","三重區"
"241001","547-UM","2019/07/30 20:19:46","新北市三重區溪尾街46-1號","121.490818333333","25.07722","6500200","三重區"
"241019","KEA-2593","2019/07/30 20:19:45","新北市三重區忠孝路一段13號","121.492188333333","25.0717866666667","6500200","三重區"
"241006","AAD-863","2019/07/30 20:19:40","新北市三重區車路頭街139巷12號","121.484246666667","25.0762016666667","6500200","三重區"
"241022","KED-0820","2019/07/30 20:19:50","新北市三重區新北大道一段56號","121.487403333333","25.0614316666667","6500200","三重區"
"241024","887-TS","2019/07/30 20:19:55","新北市三重區忠孝路三段13號","121.481523333333","25.0673116666667","6500200","三重區"
"241012","941-UM","2019/07/30 20:19:54","新北市三重區河邊北街375號","121.501898333333","25.0763183333333","6500200","三重區"
"241029","942-UM","2019/07/30 20:19:58","新北市三重區重安街98號","121.492568333333","25.0559833333333","6500200","三重區"
"241033","AAC-255","2019/07/30 20:19:49","新北市三重區五谷王北街50巷65號","121.4747","25.0514066666667","6500200","三重區"
"235066","003-UY","2019/07/30 20:19:50","新北市中和區保平路326巷3號","121.50711","25.004395","6500300","中和區"
"235039","097-UM","2019/07/30 20:19:54","新北市中和區大勇街27巷24號","121.516283333333","24.9940383333333","6500300","中和區"
"235065","098-UM","2019/07/30 20:19:34","新北市中和區景平路763-2號","121.495981666667","25.0050783333333","6500300","中和區"
"235055","183-VK","2019/07/30 20:19:46","新北市八里區荖阡坑路7-2號","121.39855","25.141705","6500300","中和區"
"247014","KEA-2869","2019/07/30 20:19:46","新北市蘆洲區中山二路128號","121.471873333333","25.0816816666667","6501400","蘆洲區"
"247008","KED-0682","2019/07/30 20:19:41","新北市蘆洲區集賢路300號","121.481586666667","25.085065","6501400","蘆洲區"
"235050","4979-A6","2019/07/30 20:19:46","新北市中和區景平路396-1號","121.509816666667","24.9930616666667","6500300","中和區"
"235069","4980-A6","2019/07/30 20:19:53","新北市中和區圓通路143號","121.49887","24.9956283333333","6500300","中和區"
"235047","732-UM","2019/07/30 20:19:41","新北市中和區景新街555號","121.515293333333","24.9863883333333","6500300","中和區"
"235026","800-TS","2019/07/30 20:19:41","新北市中和區員山路36巷16-3號","121.484968333333","24.99146","6500300","中和區"
"235059","AAC-215","2019/07/30 20:19:54","新北市中和區圓通路419號","121.48853","24.9889833333333","6500300","中和區"
"247018","546-UM","2019/07/30 20:19:48","新北市蘆洲區民族路255巷13號","121.476526666667","25.0901533333333","6501400","蘆洲區"
"247004","341-TH","2019/07/30 20:19:37","新北市蘆洲區長安街297號","121.458085","25.0848183333333","6501400","蘆洲區"
"247024","337-TH","2019/07/30 20:19:49","新北市蘆洲區光榮路120巷8弄37號","121.464721666667","25.087865","6501400","蘆洲區"
"247002","336-TH","2019/07/30 20:19:39","新北市蘆洲區長安街331巷25號","121.45555","25.0864666666667","6501400","蘆洲區"
"247022","057-VK","2019/07/30 20:19:39","新北市蘆洲區三民路251號","121.468451666667","25.0893933333333","6501400","蘆洲區"
"247012","056-VK","2019/07/30 20:19:49","新北市蘆洲區中興街48號","121.481468333333","25.0872816666667","6501400","蘆洲區"
"247006","002-UY","2019/07/30 20:19:53","新北市蘆洲區九芎街153巷4號","121.465161666667","25.0790083333333","6501400","蘆洲區"
"222001","KEA-2212","2019/07/30 20:19:57","新北市深坑區北深路三段243巷12弄3號","121.598981666667","25.003855","6501800","深坑區"
"251009","008-UM","2019/07/30 20:19:45","新北市淡水區中山路46-1號","121.444233333333","25.17023","6501000","淡水區"
"251004","009-UM","2019/07/30 20:19:49","新北市淡水區民生路117巷54弄2號","121.46454","25.14053","6501000","淡水區"
"251001","011-UM","2019/07/30 20:19:51","新北市淡水區淡金路二段15號","121.446391666667","25.18924","6501000","淡水區"
"251002","012-UM","2019/07/30 20:19:46","新北市淡水區中正路177號","121.438618333333","25.171265","6501000","淡水區"
"251015","KEA-2871","2019/07/30 20:19:36","新北市淡水區埤島80-2號","121.44947","25.1894116666667","6501000","淡水區"
"251016","179-VK","2019/07/30 20:19:51","新北市淡水區淡金路四段660號","121.45259","25.2320633333333","6501000","淡水區"
"251008","181-VK","2019/07/30 20:19:49","新北市淡水區淡海路182巷17號","121.421148333333","25.1848583333333","6501000","淡水區"
"251013","182-VK","2019/07/30 20:19:36","新北市淡水區相公山1-3號","121.474138333333","25.2066933333333","6501000","淡水區"
"251010","413-VK","2019/07/30 20:19:50","新北市淡水區新民街一段155號","121.427398333333","25.188925","6501000","淡水區"
"251012","441-VK","2019/07/30 20:19:51","新北市淡水區下圭柔山431-1號","121.449848333333","25.2102183333333","6501000","淡水區"
"251006","561-UM","2019/07/30 20:19:52","新北市淡水區北新路141巷80弄20號","121.447978333333","25.180135","6501000","淡水區"
"251014","577-R6","2019/07/30 20:19:53","新北市淡水區石頭厝2號","121.458365","25.2356233333333","6501000","淡水區"
"251003","766-UM","2019/07/30 20:19:38","新北市淡水區中山北路一段204號","121.444763333333","25.17953","6501000","淡水區"
"207003","550-UM","2019/07/30 20:19:49","新北市萬里區野柳里八斗60號","121.668898333333","25.2030316666667","6502800","萬里區"
"207004","225-TW","2019/07/30 20:19:43","新北市萬里區北基里仁四街2號","121.682028333333","25.17534","6502800","萬里區"
"252002","178-VK","2019/07/30 20:19:35","新北市三芝區中正路一段49號","121.503303333333","25.2581116666667","6502100","三芝區"
"236042","KED-0685","2019/07/30 20:19:46","新北市土城區中華路一段50號","121.446145","24.98904","6501300","土城區"
"236026","269-VK","2019/07/30 20:19:37","新北市土城區中央路一段249巷12號","121.445888333333","24.9855516666667","6501300","土城區"
"236014","270-VK","2019/07/30 20:19:37","新北市土城區廣明街90巷25號","121.455601666667","24.9946066666667","6501300","土城區"
"247010","KED-0683","2019/07/30 20:19:46","新北市蘆洲區信義路194號","121.479111666667","25.0845233333333","6501400","蘆洲區"
"236070","KEA-2877","2019/07/30 20:19:45","新北市土城區福安街31號","121.41939","24.9646583333333","6501300","土城區"
"252001","KED-0821","2019/07/30 20:19:47","新北市三芝區中山路一段35號","121.500668333333","25.257955","6502100","三芝區"
"236030","752-BX","2019/07/30 20:19:55","新北市土城區中央路一段43號","121.448478333333","24.9903733333333","6501300","土城區"
"236059","912-UM","2019/07/30 20:19:38","新北市土城區大安路101-5號","121.433445","24.9687716666667","6501300","土城區"
"242039","AAC-296","2019/07/30 20:19:48","新北市新莊區成功街67號","121.424821666667","25.0201583333333","6500500","新莊區"
"242061","986-R7","2019/07/30 20:19:56","新北市新莊區新樹路178號","121.434418333333","25.0213733333333","6500500","新莊區"
"242002","751-BX","2019/07/30 20:19:48","新北市新莊區化成路26號","121.464771666667","25.042635","6500500","新莊區"
"242029","615-BX","2019/07/30 20:19:44","新北市新莊區中原路193號","121.451953333333","25.0542983333333","6500500","新莊區"
"242058","612-BX","2019/07/30 20:19:37","新北市新莊區龍安路278巷15號","121.422061666667","25.018615","6500500","新莊區"
"242051","497-BY","2019/07/30 20:19:48","新北市新莊區民安西路212巷1弄15號","121.42561","25.0142666666667","6500500","新莊區"
"242046","442-UM","2019/07/30 20:19:37","新北市新莊區中正路新生巷43號","121.417548333333","25.02338","6500500","新莊區"
"242056","441-UM","2019/07/30 20:19:48","新北市新莊區新莊路649巷24號","121.445018333333","25.03216","6500500","新莊區"
"242005","440-UM","2019/07/30 20:19:43","新北市新莊區頭前路2巷8號","121.4685","25.0529433333333","6500500","新莊區"
"242042","415-TV","2019/07/30 20:18:07","新北市新莊區壽山路164號","121.413236666667","25.03119","6500500","新莊區"
"242011","413-TV","2019/07/30 20:19:47","新北市新莊區中信街35號","121.450343333333","25.0507716666667","6500500","新莊區"
"242048","400-BY","2019/07/30 20:19:47","新北市新莊區四維路188巷10號","121.421398333333","25.021105","6500500","新莊區"
"242025","362-BY","2019/07/30 20:19:45","新北市新莊區五工二路70巷6號","121.4606","25.0660733333333","6500500","新莊區"
"242023","353-BY","2019/07/30 20:19:53","新北市新莊區化成路766號","121.465206666667","25.0588433333333","6500500","新莊區"
"242013","132-UY","2019/07/30 20:19:42","新北市新莊區幸福路710巷5弄16號","121.449236666667","25.0497966666667","6500500","新莊區"
"242037","135-UY","2019/07/30 20:19:44","新北市新莊區建安街48巷15號","121.42695","25.0252833333333","6500500","新莊區"
"242054","172-VK","2019/07/30 20:19:52","新北市新莊區民安西路261巷8號","121.426668333333","25.0130633333333","6500500","新莊區"
"242015","173-VK","2019/07/30 20:19:48","新北市新莊區中和街33號","121.448101666667","25.0441166666667","6500500","新莊區"
"242021","175-VK","2019/07/30 20:19:55","新北市新莊區和興街27號","121.447228333333","25.0394616666667","6500500","新莊區"
"242019","KED-0687","2019/07/30 20:19:39","新北市新莊區復興路二段103號","121.4561","25.04431","6500500","新莊區"
"242034","348-TH","2019/07/30 20:19:52","新北市新莊區建中街141號","121.444968333333","25.0364366666667","6500500","新莊區"
"242007","349-TH","2019/07/30 20:19:37","新北市新莊區福壽街136巷38號","121.459255","25.0516216666667","6500500","新莊區"
"242032","350-TH","2019/07/30 20:19:52","新北市新莊區中正路418號","121.441053333333","25.033775","6500500","新莊區"
"242017","351-TH","2019/07/30 20:19:45","新北市新莊區中港一街66號","121.450055","25.0454316666667","6500500","新莊區"
"221036","130-UY","2019/07/30 20:19:38","新北市汐止區仁愛路152巷19號","121.664615","25.06406","6501100","汐止區"
"221015","131-UY","2019/07/30 20:19:41","新北市汐止區建成路160巷16號","121.661966666667","25.0739516666667","6501100","汐止區"
"221010","269-BY","2019/07/30 20:19:46","新北市汐止區八連路一段203號","121.640975","25.081045","6501100","汐止區"
"221012","278-VK","2019/07/30 20:19:41","新北市汐止區汐平路一段36號","121.682253333333","25.0705033333333","6501100","汐止區"
"221023","279-VK","2019/07/30 20:19:43","新北市汐止區明峰街298巷5弄2號","121.625001666667","25.06865","6501100","汐止區"
"221032","280-BY","2019/07/30 20:19:47","新北市汐止區弘道街39號","121.617856666667","25.0485516666667","6501100","汐止區"
"221033","297-VK","2019/07/30 20:19:39","新北市汐止區東勢街215巷1弄13號","121.63394","25.04235","6501100","汐止區"
"221029","298-VK","2019/07/30 20:19:28","新北市汐止區樟樹一路99巷9弄9號","121.640923333333","25.0634266666667","6501100","汐止區"
"221021","299-VK","2019/07/30 20:19:49","新北市汐止區水源路一段291巷1號","121.654301666667","25.0584016666667","6501100","汐止區"
"221035","622-UM","2019/07/30 20:19:53","新北市汐止區長江街57巷16號","121.656011666667","25.0721366666667","6501100","汐止區"
"221025","623-UM","2019/07/30 20:19:42","新北市汐止區水源路二段32號","121.654793333333","25.0572783333333","6501100","汐止區"
"221038","646-BX","2019/07/30 20:19:55","新北市汐止區忠孝東路470號","121.666155","25.07327","6501100","汐止區"
"221002","707-TV","2019/07/30 20:19:38","新北市汐止區福德一路86巷5號","121.637781666667","25.068535","6501100","汐止區"
"221018","753-BX","2019/07/30 20:19:55","新北市汐止區茄苳路274號","121.672135","25.06794","6501100","汐止區"
"220079","145-BY","2019/07/30 20:19:45","新北市板橋區大仁街105號","121.4528","25.0157583333333","6500100","板橋區"
"220080","200-UY","2019/07/30 20:19:51","新北市板橋區大觀路二段64巷5號","121.445188333333","25.0004883333333","6500100","板橋區"
"220083","286-VK","2019/07/30 20:19:43","新北市板橋區僑中二街90巷17號","121.445476666667","25.00923","6500100","板橋區"
"220081","287-VK","2019/07/30 20:19:47","新北市板橋區僑中一街80巷5弄7號","121.447413333333","25.0124883333333","6500100","板橋區"
"220061","293-UM","2019/07/30 20:19:50","新北市板橋區四川路一段326號","121.457645","25.000475","6500100","板橋區"
"242044","281-VK","2019/07/30 20:19:32","新北市新莊區中正路895-13號","121.412923333333","25.02109","6500500","新莊區"
"220055","461-BY","2019/07/30 20:19:40","新北市板橋區仁愛路62巷15弄3-1號","121.460165","24.9985183333333","6500100","板橋區"
"242009","280-VK","2019/07/30 20:19:38","新北市新莊區昌平街1號","121.454873333333","25.0514433333333","6500500","新莊區"
"220054","741-BX","2019/07/30 20:19:51","新北市板橋區忠孝路忠義巷9弄9號","121.465113333333","25.00488","6500100","板橋區"
"220074","895-R6","2019/07/30 20:19:49","新北市板橋區館前西路121號","121.456788333333","25.007515","6500100","板橋區"
