"lineid","car","time","location","longitude","latitude","cityid","cityname"
"234081","298-R6","2019/07/30 20:39:33","新北市永和區永貞路72號","121.520538333333","25.0051433333333","6500400","永和區"
"234064","337-UY","2019/07/30 20:39:37","台北市文山區汀州路四段88號","121.534018333333","25.00818","6500400","永和區"
"234030","746-BX","2019/07/30 20:39:29","新北市新店區安德街148巷31號","121.506875","24.9611083333333","6500400","永和區"
"234061","AAD-866","2019/07/30 20:39:45","新北市永和區秀朗路一段114號","121.516948333333","25.00366","6500400","永和區"
"234042","862-TW","2019/07/30 20:39:29","新北市永和區自由街10號","121.51474","25.00687","6500400","永和區"
"249001","173-UM","2019/07/30 20:39:28","新北市八里區中山路三段382號","121.368633333333","25.1361483333333","6502300","八里區"
"249004","303-UY","2019/07/30 20:39:38","新北市八里區中山路一段161號","121.41255","25.1587116666667","6502300","八里區"
"234023","9380-KE","2019/07/30 20:39:45","新北市永和區竹林路25巷6號","121.517623333333","25.014865","6500400","永和區"
"234074","AAC-211","2019/07/30 20:39:26","新北市永和區竹林路121號","121.520128333333","25.0114283333333","6500400","永和區"
"222003","436-BY","2019/07/30 20:39:29","新北市深坑區阿柔洋25-1號","121.612993333333","24.9990966666667","6501800","深坑區"
"222002","659-BX","2019/07/30 20:39:43","新北市深坑區萬福路41號","121.599275","25.0068266666667","6501800","深坑區"
"231061","002-UM","2019/07/30 20:39:32","新北市新店區新和街46號","121.519361666667","24.9849516666667","6500600","新店區"
"231058","0293-UT","2019/07/30 20:39:32","新北市新店區自由街37號","121.534671666667","24.9739933333333","6500600","新店區"
"231044","046-UY","2019/07/30 20:39:30","新北市新店區民權路90巷36號","121.536983333333","24.9847883333333","6500600","新店區"
"231060","106-UY","2019/07/30 20:39:28","新北市新店區錦秀路33號","121.479298333333","24.9438983333333","6500600","新店區"
"231051","107-UY","2019/07/30 20:39:34","新北市新店區中央八街75號","121.527736666667","24.97688","6500600","新店區"
"231049","108-UY","2019/07/30 20:39:28","新北市新店區永業路81巷5弄1號","121.530255","24.9490683333333","6500600","新店區"
"231068","187-VK","2019/07/30 20:39:33","新北市新店區寶慶街38號","121.542955","24.9867966666667","6500600","新店區"
"231065","KEA-2219","2019/07/30 20:39:44","新北市新店區安祥路102巷87號","121.487071666667","24.9635233333333","6500600","新店區"
"221031","KEA-2785","2019/07/30 20:39:37","新北市汐止區福德一路237號","121.634258333333","25.0647433333333","6501100","汐止區"
"231062","256-BX","2019/07/30 20:39:32","新北市新店區安泰路19巷1號","121.485386666667","24.949665","6500600","新店區"
"231054","260-TV","2019/07/30 20:39:30","新北市新店區行政街47號","121.542958333333","24.9654733333333","6500600","新店區"
"231042","268-BY","2019/07/30 20:39:33","新北市新店區寶高路120巷1號","121.554613333333","24.9760433333333","6500600","新店區"
"231064","278-BY","2019/07/30 20:39:46","新北市新店區安和路三段111巷6弄4號","121.516735","24.98488","6500600","新店區"
"231050","AAD-862","2019/07/30 20:39:34","新北市新店區中正路265巷1號","121.538071666667","24.9737316666667","6500600","新店區"
"231045","355-BY","2019/07/30 20:39:34","新北市新店區長春路557-1號","121.554796666667","24.9615316666667","6500600","新店區"
"231055","4716-K9","2019/07/30 20:39:41","新北市新店區薏仁坑路6號","121.500246666667","24.9579083333333","6500600","新店區"
"231056","4715-K9","2019/07/30 20:39:27","新北市新店區溪園路403號","121.523853333333","24.978195","6500600","新店區"
"231067","4772-VM","2019/07/30 20:39:46","新北市新店區安華路28-1號","121.51976","24.96094","6500600","新店區"
"231053","513-UM","2019/07/30 20:39:26","新北市新店區松林路51號","121.544461666667","24.9113883333333","6500600","新店區"
"231041","619-UM","2019/07/30 20:39:44","新北市新店區中正路539-5號","121.533513333333","24.9865633333333","6500600","新店區"
"231063","641-BX","2019/07/30 20:39:38","新北市新店區玫瑰路4-2號","121.494001666667","24.9510566666667","6500600","新店區"
"231048","KED-0819","2019/07/30 20:39:28","新北市新店區寶慶街2號","121.54427","24.9870333333333","6500600","新店區"
"231057","720-UM","2019/07/30 20:39:25","新北市新店區花園二路一段9-6號","121.55627","24.9327666666667","6500600","新店區"
"231059","897-TW","2019/07/30 20:39:32","新北市新店區安豐路46號","121.500183333333","24.9550266666667","6500600","新店區"
"231040","898-TW","2019/07/30 20:39:30","新北市新店區中正路263巷16號","121.53805","24.9729583333333","6500600","新店區"
"231043","899-TW","2019/07/30 20:39:38","新北市新店區中正路244號","121.539776666667","24.97336","6500600","新店區"
"231066","AKT-0513","2019/07/30 20:39:42","新北市新店區安興路90號","121.514796666667","24.9762116666667","6500600","新店區"
"241011","013-R5","2019/07/30 20:39:41","新北市三重區龍濱路172號","121.501351666667","25.0728283333333","6500200","三重區"
"241028","022-UY","2019/07/30 20:39:36","新北市三重區大同南路50巷57號","121.497336666667","25.06002","6500200","三重區"
"241008","059-VK","2019/07/30 20:39:35","新北市三重區下竹圍街83巷1號","121.481373333333","25.0750266666667","6500200","三重區"
"241031","061-VK","2019/07/30 20:39:33","新北市三重區重陽路一段113巷1弄48號","121.48833","25.058695","6500200","三重區"
"241017","063-VK","2019/07/30 20:39:28","新北市三重區安慶街272號","121.490635","25.067625","6500200","三重區"
"241002","090-VK","2019/07/30 20:39:30","新北市三重區仁義街167巷20號","121.497761666667","25.0819316666667","6500200","三重區"
"241003","091-VK","2019/07/30 20:39:45","新北市三重區集賢路87-1號","121.493628333333","25.0868783333333","6500200","三重區"
"241015","742-BX","2019/07/30 20:39:37","新北市三重區雙園街16號","121.497226666667","25.0681266666667","6500200","三重區"
"241005","262-UM","2019/07/30 20:39:33","新北市三重區碧華街407號","121.493276666667","25.0859066666667","6500200","三重區"
"241016","266-UM","2019/07/30 20:39:37","新北市三重區長壽西街109號","121.494483333333","25.0668883333333","6500200","三重區"
"241009","267-UM","2019/07/30 20:39:29","新北市三重區碧華街61號","121.484875","25.0813883333333","6500200","三重區"
"241018","268-UM","2019/07/30 20:39:41","新北市三重區重陽路四段30號","121.491223333333","25.0695416666667","6500200","三重區"
"241032","269-UM","2019/07/30 20:39:34","新北市三重區三光街18號","121.484883333333","25.060365","6500200","三重區"
"241013","270-UM","2019/07/30 20:39:30","新北市三重區自強路四段34號","121.488783333333","25.076975","6500200","三重區"
"241025","271-UM","2019/07/30 20:39:32","新北市三重區大有街1-32號","121.476613333333","25.0653816666667","6500200","三重區"
"241007","398-BY","2019/07/30 20:39:45","新北市三重區三和路四段101巷18號","121.488703333333","25.07712","6500200","三重區"
"241030","KED-0822","2019/07/30 20:39:39","新北市三重區成功路73巷20號","121.489411666667","25.05205","6500200","三重區"
"241004","475-VK","2019/07/30 20:39:36","新北市三重區仁愛街423-1號","121.4905","25.08153","6500200","三重區"
"241020","478-VK","2019/07/30 20:39:34","新北市三重區忠孝路一段101號","121.489525","25.072225","6500200","三重區"
"241026","480-VK","2019/07/30 20:39:36","新北市三重區文化南路7號","121.499938333333","25.0623333333333","6500200","三重區"
"241014","543-UM","2019/07/30 20:39:26","新北市三重區萬壽街1號","121.499196666667","25.0693166666667","6500200","三重區"
"241023","545-UM","2019/07/30 20:39:28","新北市三重區自由街59號","121.478353333333","25.0664866666667","6500200","三重區"
"241001","547-UM","2019/07/30 20:39:26","新北市三重區自強路3段110巷37-1號","121.485745","25.07462","6500200","三重區"
"241019","KEA-2593","2019/07/30 20:39:33","新北市三重區大智街139-1號","121.490861666667","25.07099","6500200","三重區"
"241006","AAD-863","2019/07/30 20:39:40","新北市三重區車路頭街139巷12號","121.484246666667","25.0762666666667","6500200","三重區"
"241022","KED-0820","2019/07/30 20:39:30","新北市三重區新北大道一段7號","121.489648333333","25.06128","6500200","三重區"
"241024","887-TS","2019/07/30 20:39:35","新北市三重區忠孝路三段52號","121.480765","25.06585","6500200","三重區"
"241012","941-UM","2019/07/30 20:39:34","新北市三重區秀江街26號","121.502486666667","25.0730166666667","6500200","三重區"
"241029","942-UM","2019/07/30 20:39:36","新北市三重區集美街126巷25號","121.490018333333","25.0537183333333","6500200","三重區"
"241033","AAC-255","2019/07/30 20:39:29","新北市三重區光復路二段1號","121.472246666667","25.0534733333333","6500200","三重區"
"235055","183-VK","2019/07/30 20:39:26","新北市八里區中山路三段110號","121.390671666667","25.141975","6500300","中和區"
"247014","KEA-2869","2019/07/30 20:39:28","新北市蘆洲區中山一路209號","121.47417","25.0809316666667","6501400","蘆洲區"
"247008","KED-0682","2019/07/30 20:39:43","新北市蘆洲區重陽街29號","121.481335","25.083115","6501400","蘆洲區"
"235069","4980-A6","2019/07/30 20:39:34","新北市中和區中正路636號","121.485573333333","24.99632","6500300","中和區"
"235047","732-UM","2019/07/30 20:39:41","新北市新店區安豐路22巷18-1號","121.501813333333","24.9542916666667","6500300","中和區"
"235026","800-TS","2019/07/30 20:20:47","新北市中和區員山路36巷16-3號","121.484995","24.991495","6500300","中和區"
"235059","AAC-215","2019/07/30 20:39:34","新北市中和區員山路72號","121.480885","24.993745","6500300","中和區"
"247004","341-TH","2019/07/30 20:39:37","新北市蘆洲區長安街222號","121.458273333333","25.0848516666667","6501400","蘆洲區"
"247024","337-TH","2019/07/30 20:39:29","新北市蘆洲區長樂路65號","121.462821666667","25.0865316666667","6501400","蘆洲區"
"247002","336-TH","2019/07/30 20:39:39","新北市蘆洲區長安街375巷32號","121.456038333333","25.087935","6501400","蘆洲區"
"247022","057-VK","2019/07/30 20:39:39","新北市蘆洲區中正路245號","121.467846666667","25.0867766666667","6501400","蘆洲區"
"247012","056-VK","2019/07/30 20:39:34","新北市蘆洲區集賢路224巷46弄60-1號","121.480798333333","25.087955","6501400","蘆洲區"
"247016","053-VK","2019/07/30 20:39:33","新北市蘆洲區和平路43號","121.470741666667","25.07905","6501400","蘆洲區"
"247020","007-UY","2019/07/30 20:39:45","新北市蘆洲區民族路331號","121.473795","25.09167","6501400","蘆洲區"
"247006","002-UY","2019/07/30 20:39:33","新北市蘆洲區和平路165號","121.466618333333","25.0808366666667","6501400","蘆洲區"
"222001","KEA-2212","2019/07/30 20:39:37","新北市深坑區北深路三段189巷6弄12號","121.600591666667","25.0036283333333","6501800","深坑區"
"251001","011-UM","2019/07/30 20:39:31","新北市淡水區水源街二段177巷32弄20號","121.455008333333","25.178255","6501000","淡水區"
"251002","012-UM","2019/07/30 20:39:46","新北市淡水區中正路32號","121.443826666667","25.1692283333333","6501000","淡水區"
"251015","KEA-2871","2019/07/30 20:36:03","新北市淡水區淡金路三段446號","121.450728333333","25.2143066666667","6501000","淡水區"
"251016","179-VK","2019/07/30 20:39:35","新北市淡水區後洲子7號","121.448945","25.2238766666667","6501000","淡水區"
"251013","182-VK","2019/07/30 20:39:36","新北市淡水區下圭柔山28巷6號","121.45731","25.2041166666667","6501000","淡水區"
"251010","413-VK","2019/07/30 20:39:30","新北市淡水區沙崙路181巷1號","121.424011666667","25.1844233333333","6501000","淡水區"
"251012","441-VK","2019/07/30 20:39:31","新北市淡水區興仁路108號","121.451695","25.218115","6501000","淡水區"
"251007","442-VK","2019/07/30 20:39:42","新北市淡水區忠愛街3-1號","121.457865","25.17166","6501000","淡水區"
"251006","561-UM","2019/07/30 20:39:40","新北市淡水區商工路196巷9號","121.451396666667","25.1864566666667","6501000","淡水區"
"251014","577-R6","2019/07/30 20:39:34","新北市淡水區公埔子38號","121.464418333333","25.2327916666667","6501000","淡水區"
"251003","766-UM","2019/07/30 20:39:38","新北市淡水區新民街120巷21號","121.438298333333","25.1782016666667","6501000","淡水區"
"252002","178-VK","2019/07/30 20:39:35","新北市三芝區淡金路二段89-1號","121.504055","25.2608933333333","6502100","三芝區"
"247010","KED-0683","2019/07/30 20:39:46","新北市蘆洲區重陽街70號","121.481783333333","25.0841916666667","6501400","蘆洲區"
"252001","KED-0821","2019/07/30 20:39:27","新北市三芝區長安街49號","121.501311666667","25.25642","6502100","三芝區"
"242039","AAC-296","2019/07/30 20:39:28","新北市新莊區新樹路168號","121.434706666667","25.022415","6500500","新莊區"
"242061","986-R7","2019/07/30 20:39:36","新北市新莊區新樹路260號","121.432465","25.0150516666667","6500500","新莊區"
"242002","751-BX","2019/07/30 20:39:45","新北市新莊區明中街27號","121.458273333333","25.0386816666667","6500500","新莊區"
"242029","615-BX","2019/07/30 20:39:44","新北市新莊區中華路二段39號","121.453408333333","25.04649","6500500","新莊區"
"242058","612-BX","2019/07/30 20:39:37","新北市新莊區四維路148號","121.423056666667","25.023275","6500500","新莊區"
"242051","497-BY","2019/07/30 20:39:34","新北市新莊區民安西路143號","121.426306666667","25.01682","6500500","新莊區"
"242046","442-UM","2019/07/30 20:39:40","新北市新莊區裕民街20號","121.418958333333","25.0255866666667","6500500","新莊區"
"242056","441-UM","2019/07/30 20:39:28","新北市新莊區瓊泰路2巷8號","121.445085","25.0291383333333","6500500","新莊區"
"242005","440-UM","2019/07/30 20:39:43","新北市新莊區化成路389巷52號","121.463543333333","25.0582583333333","6500500","新莊區"
"242042","415-TV","2019/07/30 20:39:38","新北市新莊區中正路694巷3弄11號","121.417948333333","25.0279816666667","6500500","新莊區"
"242011","413-TV","2019/07/30 20:39:20","新北市新莊區中信街99巷8號","121.447241666667","25.05346","6500500","新莊區"
"242048","400-BY","2019/07/30 20:39:28","新北市新莊區中正路696號","121.418898333333","25.0279466666667","6500500","新莊區"
"242025","362-BY","2019/07/30 20:39:25","新北市新莊區化成路579巷1號","121.464355","25.0660366666667","6500500","新莊區"
"242023","353-BY","2019/07/30 20:39:33","新北市新莊區化成路213-1號","121.466033333333","25.05171","6500500","新莊區"
"242013","132-UY","2019/07/30 20:39:42","新北市新莊區中和街191巷5-1號","121.447851666667","25.0509266666667","6500500","新莊區"
"242037","135-UY","2019/07/30 20:39:40","新北市新莊區建安街16巷2號","121.428423333333","25.026535","6500500","新莊區"
"242054","172-VK","2019/07/30 20:39:33","新北市新莊區民安西路229巷7弄4號","121.426601666667","25.0145333333333","6500500","新莊區"
"242015","173-VK","2019/07/30 20:39:44","新北市新莊區中和街34號","121.448166666667","25.04392","6500500","新莊區"
"242021","175-VK","2019/07/30 20:39:38","新北市新莊區中正路174號","121.450543333333","25.0357333333333","6500500","新莊區"
"242019","KED-0687","2019/07/30 20:39:39","新北市新莊區銘德街138號","121.454636666667","25.04299","6500500","新莊區"
"242034","348-TH","2019/07/30 20:39:38","新北市新莊區中正路334巷11號","121.445673333333","25.0353333333333","6500500","新莊區"
"242007","349-TH","2019/07/30 20:39:37","新北市新莊區福壽街46巷15號","121.459","25.048645","6500500","新莊區"
"242032","350-TH","2019/07/30 20:39:32","新北市新莊區中正路508巷5弄2號","121.434998333333","25.033935","6500500","新莊區"
"242017","351-TH","2019/07/30 20:39:45","新北市新莊區中港三街147號","121.447931666667","25.045955","6500500","新莊區"
"221036","130-UY","2019/07/30 20:39:38","新北市汐止區新昌路7號","121.662098333333","25.06726","6501100","汐止區"
"221015","131-UY","2019/07/30 20:39:41","新北市汐止區建成路37巷1號","121.663676666667","25.0727966666667","6501100","汐止區"
"221010","269-BY","2019/07/30 20:39:26","新北市汐止區八連路二段616號","121.624951666667","25.1097883333333","6501100","汐止區"
"221012","278-VK","2019/07/30 20:39:41","新北市汐止區保新街143號","121.688135","25.070085","6501100","汐止區"
"221023","279-VK","2019/07/30 20:39:43","新北市汐止區湖東街8號","121.633676666667","25.0720966666667","6501100","汐止區"
"221032","280-BY","2019/07/30 20:39:47","新北市汐止區民權街二段28號","121.619435","25.0499533333333","6501100","汐止區"
"221033","297-VK","2019/07/30 20:39:39","新北市汐止區合順街18巷8弄5號","121.620356666667","25.041925","6501100","汐止區"
"221029","298-VK","2019/07/30 20:39:28","新北市汐止區大同路一段503號","121.644976666667","25.0624766666667","6501100","汐止區"
"221021","299-VK","2019/07/30 20:39:29","新北市汐止區水源路一段282巷5號","121.65376","25.0580933333333","6501100","汐止區"
"221035","622-UM","2019/07/30 20:39:33","新北市汐止區長江街101-5號","121.658868333333","25.0731766666667","6501100","汐止區"
"221025","623-UM","2019/07/30 20:39:42","新北市汐止區水源路二段185號","121.657806666667","25.0534566666667","6501100","汐止區"
"221002","707-TV","2019/07/30 20:39:38","新北市汐止區福德二路165號","121.63099","25.06506","6501100","汐止區"
"221018","753-BX","2019/07/30 20:39:35","新北市汐止區中華街15號","121.66673","25.07102","6501100","汐止區"
"220083","286-VK","2019/07/30 20:39:36","新北市板橋區僑中二街104巷35號","121.444668333333","25.008065","6500100","板橋區"
"242044","281-VK","2019/07/30 20:39:32","新北市新莊區龍安路20號","121.414446666667","25.022425","6500500","新莊區"
"242009","280-VK","2019/07/30 20:39:38","新北市新莊區福壽街99巷4弄1號","121.457406666667","25.0505133333333","6500500","新莊區"
