"lineid","car","time","location","longitude","latitude","cityid","cityname"
"251004","009-UM","2019/07/30 21:49:29","新北市淡水區民權路233號","121.460086666667","25.1283283333333","6501000","淡水區"
"251001","011-UM","2019/07/30 21:49:31","新北市淡水區新市二路三段152號","121.4353","25.19416","6501000","淡水區"
"251002","012-UM","2019/07/30 21:49:46","新北市淡水區大忠街126號","121.447135","25.1770083333333","6501000","淡水區"
"251008","181-VK","2019/07/30 21:49:29","新北市淡水區學府路104號","121.449861666667","25.1717983333333","6501000","淡水區"
"251010","413-VK","2019/07/30 21:49:30","新北市淡水區中正路二段211號","121.42615","25.1889933333333","6501000","淡水區"
"251012","441-VK","2019/07/30 21:49:30","新北市淡水區淡金路三段333號","121.448885","25.2063333333333","6501000","淡水區"
"251007","442-VK","2019/07/30 21:49:42","新北市淡水區水源街二段177巷51號","121.452076666667","25.1771983333333","6501000","淡水區"
"251005","443-VK","2019/07/30 21:49:40","新北市淡水區鄧公路30巷18號","121.453241666667","25.169805","6501000","淡水區"
"251006","561-UM","2019/07/30 21:42:15","新北市淡水區中正路11巷3號","121.437818333333","25.1708","6501000","淡水區"
"251011","650-BX","2019/07/30 21:49:44","新北市淡水區新民街322巷9號","121.43627","25.18285","6501000","淡水區"
"251003","766-UM","2019/07/30 21:49:38","新北市淡水區新春街90號","121.438866666667","25.1822833333333","6501000","淡水區"
