"lineid","car","time","location","longitude","latitude","cityid","cityname"
"251004","009-UM","2019/07/30 22:09:29","新北市淡水區民族路33號","121.462306666667","25.1358366666667","6501000","淡水區"
"251008","181-VK","2019/07/30 22:09:29","新北市淡水區學府路104號","121.449883333333","25.1717733333333","6501000","淡水區"
"251010","413-VK","2019/07/30 22:09:30","新北市淡水區沙崙路200號","121.424651666667","25.1838783333333","6501000","淡水區"
"251007","442-VK","2019/07/30 22:09:42","新北市淡水區北新路180號","121.449491666667","25.1786733333333","6501000","淡水區"
"251005","443-VK","2019/07/30 22:09:40","新北市淡水區鄧公路19號","121.451455","25.1699683333333","6501000","淡水區"
"251011","650-BX","2019/07/30 22:09:44","新北市淡水區水碓街7號","121.443183333333","25.17713","6501000","淡水區"
