"lineid","car","time","location","longitude","latitude","cityid","cityname"
"234044","148-BY","2019/12/30 13:59:22","新北市永和區成功路一段77號","121.526921666667","25.0032566666667","6500400","永和區"
"234078","298-R6","2019/12/30 13:59:33","新北市永和區永利路77號","121.521368333333","25.0037033333333","6500400","永和區"
"234036","336-UY","2019/12/30 13:59:37","新北市永和區成功路二段185號","121.52666","24.9965733333333","6500400","永和區"
"234062","337-UY","2019/12/30 13:59:35","新北市永和區中正路412巷20弄32號","121.519126666667","25.0012316666667","6500400","永和區"
"234084","338-UY","2019/12/30 13:59:32","新北市永和區福和路256號","121.518456666667","25.0075583333333","6500400","永和區"
"234068","552-UM","2019/12/30 13:59:35","新北市永和區國光路39-1號","121.519053333333","25.0081666666667","6500400","永和區"
"234015","745-BX","2019/12/30 13:59:40","新北市永和區文化路116號","121.513266666667","25.0152866666667","6500400","永和區"
"234028","746-BX","2019/12/30 13:59:30","新北市永和區民權路49巷7號","121.520473333333","24.9972966666667","6500400","永和區"
"234052","KEA-2590","2019/12/30 13:59:33","新北市永和區竹林路39巷38號","121.519881666667","25.0151666666667","6500400","永和區"
"234005","KED-0605","2019/12/30 13:59:30","新北市中和區中和路382號","121.51077","25.0021783333333","6500400","永和區"
"234012","KEA-2591","2019/12/30 13:59:37","新北市永和區永平路296號","121.507433333333","25.012235","6500400","永和區"
"234060","AAD-866","2019/12/30 13:59:37","新北市永和區中正路283巷29弄2號","121.516333333333","24.9998183333333","6500400","永和區"
"234040","862-TW","2019/12/30 13:59:32","新北市永和區中和路335巷18弄3號","121.507591666667","25.0003366666667","6500400","永和區"
"234048","863-TW","2019/12/30 13:59:25","新北市永和區保安路214號","121.507475","25.0136883333333","6500400","永和區"
"234025","9371-KE","2019/12/30 13:59:27","新北市永和區自由街58號","121.51379","25.0059366666667","6500400","永和區"
"234010","9373-KE","2019/12/30 13:59:38","新北市永和區仁愛路352巷124號","121.500231666667","25.0085316666667","6500400","永和區"
"248015","026-BX","2019/12/30 13:59:24","新北市五股區成泰路三段577巷19號","121.451531666667","25.1027866666667","6501500","五股區"
"248007","KED-0815","2019/12/30 13:59:28","新北市五股區中興路一段118巷2號","121.465951666667","25.0736816666667","6501500","五股區"
"248019","KED-0813","2019/12/30 13:59:30","新北市五股區凌雲路三段85-3號","121.422693333333","25.1236066666667","6501500","五股區"
"248011","247-BX","2019/12/30 13:59:39","新北市五股區成泰路二段195巷1號","121.440356666667","25.0874383333333","6501500","五股區"
"248009","272-BY","2019/12/30 13:59:36","新北市五股區水碓一路23號","121.430568333333","25.0713566666667","6501500","五股區"
"248003","677-BX","2019/12/30 13:59:36","新北市五股區民義路一段293號","121.424998333333","25.0934316666667","6501500","五股區"
"248001","678-BX","2019/12/30 13:59:35","新北市五股區凌雲路一段156巷1號","121.44895","25.1026216666667","6501500","五股區"
"234022","9380-KE","2019/12/30 13:59:25","新北市永和區復興街30號","121.51612","25.0129966666667","6500400","永和區"
"234076","969-R7","2019/12/30 13:59:34","新北市永和區民族街43巷11號","121.518936666667","24.9984416666667","6500400","永和區"
"234072","AAC-211","2019/12/30 13:59:39","新北市永和區豫溪街151號","121.521041666667","25.0104216666667","6500400","永和區"
"234066","AAC-212","2019/12/30 13:59:33","新北市永和區永貞路313號","121.510098333333","25.0065966666667","6500400","永和區"
"234001","AAC-295","2019/12/30 13:59:29","新北市永和區福和路332號","121.515393333333","25.0072766666667","6500400","永和區"
"244001","248-BX","2019/12/30 13:59:25","新北市林口區太平里11鄰38號","121.360078333333","25.1318516666667","6501700","林口區"
"243004","AAD-798","2019/12/30 13:59:32","新北市泰山區泰林路二段73巷29號","121.434403333333","25.057885","6501600","泰山區"
"243002","297-R6","2019/12/30 13:59:41","新北市泰山區辭修路24號","121.428988333333","25.0581266666667","6501600","泰山區"
"243006","KEA-2801","2019/12/30 13:59:30","新北市泰山區黎明路13號","121.421013333333","25.0631983333333","6501600","泰山區"
"243008","421-VK","2019/12/30 13:59:34","新北市泰山區明志路二段135號","121.427648333333","25.0507916666667","6501600","泰山區"
"243001","KEA-2215","2019/12/30 13:59:39","新北市泰山區泰林路二段280巷1號","121.431501666667","25.0624616666667","6501600","泰山區"
"243003","KEA-2216","2019/12/30 13:59:33","新北市泰山區明志路二段232巷2號","121.426945","25.0482383333333","6501600","泰山區"
"243005","646-TV","2019/12/30 13:59:38","新北市泰山區明志路三段249號","121.423425","25.037475","6501600","泰山區"
"243007","680-BX","2019/12/30 13:59:43","新北市泰山區美寧街50號","121.430558333333","25.0644116666667","6501600","泰山區"
"231030","002-UM","2019/12/30 13:59:38","新北市新店區安康路一段258號","121.52061","24.9639666666667","6500600","新店區"
"231024","0291-UT","2019/12/30 13:59:37","新北市新店區新生街18巷1號","121.539896666667","24.9663916666667","6500600","新店區"
"231027","0293-UT","2019/12/30 13:59:28","新北市新店區北宜路一段3號","121.538495","24.958555","6500600","新店區"
"231005","046-UY","2019/12/30 13:59:33","新北市新店區中興路三段214號","121.543646666667","24.98242","6500600","新店區"
"231029","106-UY","2019/12/30 13:59:32","新北市新店區安康路二段36號","121.51564","24.9637433333333","6500600","新店區"
"231018","107-UY","2019/12/30 13:59:32","新北市新店區百忍街90號","121.532666666667","24.97721","6500600","新店區"
"231013","108-UY","2019/12/30 13:59:33","新北市新店區北新路三段19號","121.541841666667","24.9795583333333","6500600","新店區"
"231036","110-UY","2019/12/30 13:59:33","新北市新店區安祥路110巷30弄5號","121.473891666667","24.9568116666667","6500600","新店區"
"231019","189-VK","2019/12/30 13:59:44","新北市新店區新烏路二段38號","121.544676666667","24.9284366666667","6500600","新店區"
"231014","KEA-2219","2019/12/30 13:59:35","新北市新店區北宜路二段82巷3號","121.553643333333","24.9530766666667","6500600","新店區"
"231031","256-BX","2019/12/30 13:59:40","新北市新店區莒光路44巷21弄11-6號","121.518571666667","24.952175","6500600","新店區"
"231023","260-TV","2019/12/30 13:59:41","新北市新店區文中路40號","121.539675","24.9565566666667","6500600","新店區"
"231003","268-BY","2019/12/30 13:59:32","新北市新店區光明街28號","121.538461666667","24.95872","6500600","新店區"
"231035","278-BY","2019/12/30 13:59:41","新北市新店區安和路二段88號","121.518645","24.969005","6500600","新店區"
"231006","355-BY","2019/12/30 13:59:28","新北市新店區北宜路二段60號","121.549408333333","24.95147","6500600","新店區"
"231038","3712-VJ","2019/12/30 13:59:41","新北市新店區安華路30巷1號","121.51958","24.9592683333333","6500600","新店區"
"231025","4715-K9","2019/12/30 13:59:37","新北市新店區中正路302巷6號","121.537816666667","24.9749216666667","6500600","新店區"
"231034","616-UM","2019/12/30 13:59:36","新北市新店區達觀路38號","121.502383333333","24.9388816666667","6500600","新店區"
"231001","617-UM","2019/12/30 13:59:38","新北市新店區三民路47號","121.537061666667","24.97093","6500600","新店區"
"231002","619-UM","2019/12/30 13:59:40","新北市新店區中正路696號","121.534026666667","24.9905416666667","6500600","新店區"
"231011","KED-0819","2019/12/30 13:59:37","新北市新店區中興路二段67巷12號","121.546108333333","24.9711416666667","6500600","新店區"
"231010","719-UM","2019/12/30 13:59:29","新北市新店區安康路一段351-1號","121.519678333333","24.9636483333333","6500600","新店區"
"231026","720-UM","2019/12/30 13:59:24","新北市新店區福園街10巷11號","121.532348333333","24.9729933333333","6500600","新店區"
"231028","897-TW","2019/12/30 13:59:26","新北市新店區安和路三段7號","121.518033333333","24.9806083333333","6500600","新店區"
"231004","899-TW","2019/12/30 13:59:25","新北市新店區北新路二段107號","121.542983333333","24.9744633333333","6500600","新店區"
"231037","AKT-0513","2019/12/30 13:59:26","新北市新店區安康路三段456號","121.484343333333","24.9510833333333","6500600","新店區"
"235030","003-UY","2019/12/30 13:59:42","新北市中和區中山路二段131巷5弄4號","121.502946666667","25.0029016666667","6500300","中和區"
"235028","005-UY","2019/12/30 13:59:37","新北市中和區中和路30號","121.499761666667","25.0017316666667","6500300","中和區"
"235027","006-UY","2019/12/30 13:59:32","新北市中和區中正路635號","121.485393333333","24.9954433333333","6500300","中和區"
"235036","KEE-1103","2019/12/30 13:59:36","新北市中和區中山路二段122號","121.502548333333","25.0036","6500300","中和區"
"235020","096-UM","2019/12/30 13:59:29","新北市板橋區三民路二段204-3號","121.478923333333","25.0123816666667","6500300","中和區"
"235003","097-UM","2019/12/30 13:59:38","新北市中和區秀朗路三段179號","121.52435","24.99073","6500300","中和區"
"235029","098-UM","2019/12/30 13:59:30","新北市中和區福祥路158號","121.498601666667","25.00771","6500300","中和區"
"235004","150-BY","2019/12/30 13:59:28","新北市中和區保健路46巷17號","121.509276666667","24.9964016666667","6500300","中和區"
"235022","151-BY","2019/12/30 13:59:32","新北市中和區連城路607號","121.477921666667","24.992895","6500300","中和區"
"235019","183-VK","2019/12/30 13:59:35","新北市中和區德光路111號","121.468208333333","25.0031966666667","6500300","中和區"
"235002","185-VK","2019/12/30 13:59:38","新北市中和區立人街24-4號","121.518931666667","24.994175","6500300","中和區"
"235031","255-BX","2019/12/30 13:59:26","新北市中和區新生街176巷26號","121.482531666667","24.9998833333333","6500300","中和區"
"235008","293-VK","2019/12/30 13:59:39","新北市中和區中興街161巷1弄1號","121.500208333333","24.9908933333333","6500300","中和區"
"235035","301-VK","2019/12/30 13:59:41","新北市中和區立德街98巷48號","121.488018333333","25.009075","6500300","中和區"
"235007","352-BY","2019/12/30 13:59:29","新北市中和區成功路48號","121.526086666667","24.9927433333333","6500300","中和區"
"235006","KEA-2878","2019/12/30 13:59:33","新北市中和區秀朗路三段128巷17弄4號","121.524191666667","24.9936216666667","6500300","中和區"
"247015","KEA-2869","2019/12/30 13:59:40","新北市蘆洲區光華路44號","121.468721666667","25.0832","6501400","蘆洲區"
"235014","4979-A6","2019/12/30 13:59:40","新北市中和區忠孝街1號","121.508918333333","24.983035","6500300","中和區"
"235033","4980-A6","2019/12/30 13:59:34","新北市中和區中和路217巷16號","121.504661666667","25.00042","6500300","中和區"
"235032","551-UM","2019/12/30 13:59:39","新北市中和區景平路545巷1弄13號","121.498766666667","24.9988583333333","6500300","中和區"
"235034","558-UM","2019/12/30 13:59:26","新北市中和區中和路126號","121.503326666667","24.9997366666667","6500300","中和區"
"235009","565-BX","2019/12/30 13:59:29","新北市中和區景新街467巷38弄2號","121.514491666667","24.9885383333333","6500300","中和區"
"235024","KED-0823","2019/12/30 13:59:22","新北市中和區民治街8巷1號","121.474968333333","25.0050166666667","6500300","中和區"
"235018","640-BX","2019/12/30 13:59:26","新北市中和區民享街38-2號","121.473965","25.0029616666667","6500300","中和區"
"235011","732-UM","2019/12/30 13:59:30","新北市中和區興南路二段93號","121.506178333333","24.9847583333333","6500300","中和區"
"235010","733-UM","2019/12/30 13:59:30","新北市中和區興南路二段33號","121.50785","24.98562","6500300","中和區"
"235026","800-TS","2019/12/30 13:59:29","新北市中和區中山路二段340巷62號","121.493055","25.004755","6500300","中和區"
"235021","801-TS","2019/12/30 13:59:30","新北市中和區民利街28-3號","121.47997","24.9990316666667","6500300","中和區"
"235005","802-TS","2019/12/30 13:59:37","新北市中和區永貞路239巷5號","121.512876666667","25.0033616666667","6500300","中和區"
"235016","805-TS","2019/12/30 13:59:30","新北市中和區興南路二段261巷6-11號","121.502855","24.9797383333333","6500300","中和區"
"235012","896-TW","2019/12/30 13:59:43","新北市中和區華新街65號","121.508001666667","24.9840833333333","6500300","中和區"
"235017","900-TW","2019/12/30 13:59:26","新北市板橋區和平路174巷1弄8號","121.464403333333","24.99517","6500300","中和區"
"235015","157-BY","2019/12/30 13:59:30","新北市中和區忠孝街19巷7號","121.509961666667","24.98383","6500300","中和區"
"235001","AAC-213","2019/12/30 13:59:35","新北市中和區秀朗路三段58-2號","121.525955","24.9951466666667","6500300","中和區"
"235023","AAC-215","2019/12/30 13:59:25","新北市中和區圓通路369巷14弄8號","121.490456666667","24.98779","6500300","中和區"
"220002","015-TV","2019/12/30 13:59:30","新北市板橋區實踐路78號","121.463735","25.0053933333333","6500100","板橋區"
"220013","072-UY","2019/12/30 13:59:35","新北市板橋區漢生東路315號","121.471983333333","25.0081816666667","6500100","板橋區"
"220034","073-UY","2019/12/30 13:59:35","新北市板橋區中正路212號","121.45592","25.0182283333333","6500100","板橋區"
"220105","075-UY","2019/12/30 13:59:30","新北市板橋區雙十路三段10巷10號","121.47203","25.0306933333333","6500100","板橋區"
"220017","AAD-861","2019/12/30 13:59:27","新北市板橋區四川路一段102號","121.459683333333","25.004685","6500100","板橋區"
"247005","893-R6","2019/12/30 13:59:40","新北市蘆洲區永安南路二段26號","121.467291666667","25.0771166666667","6501400","蘆洲區"
"247019","546-UM","2019/12/30 13:59:28","新北市蘆洲區民族路422巷35-1號","121.47356","25.0937033333333","6501400","蘆洲區"
"247009","341-TH","2019/12/30 13:59:34","新北市蘆洲區集賢路400號","121.480255","25.0820866666667","6501400","蘆洲區"
"247011","337-TH","2019/12/30 13:59:40","新北市蘆洲區民族路111號","121.479768333333","25.0868433333333","6501400","蘆洲區"
"247003","336-TH","2019/12/30 13:59:31","新北市蘆洲區中華街6巷8號","121.463211666667","25.0818733333333","6501400","蘆洲區"
"247013","056-VK","2019/12/30 13:59:40","新北市蘆洲區保和街69巷2弄1號","121.469528333333","25.0857916666667","6501400","蘆洲區"
"247017","053-VK","2019/12/30 13:59:28","新北市蘆洲區民族路253-1號","121.476605","25.09015","6501400","蘆洲區"
"247021","007-UY","2019/12/30 13:59:40","新北市蘆洲區中正路186號","121.466941666667","25.0880266666667","6501400","蘆洲區"
"247007","002-UY","2019/12/30 13:59:37","新北市蘆洲區重陽一街14號","121.481521666667","25.0815366666667","6501400","蘆洲區"
"247001","001-UY","2019/12/30 13:59:39","新北市蘆洲區三民路603號","121.460691666667","25.0936616666667","6501400","蘆洲區"
"235013","251-BX","2019/12/30 13:59:29","新北市中和區景安路167巷28號","121.506705","24.9948916666667","6500300","中和區"
"253003","6232-TK","2019/12/30 13:59:28","新北市石門區尖子鹿51號","121.581336666667","25.2723316666667","6502200","石門區"
"253004","6251-TK","2019/12/30 13:59:28","新北市石門區草埔尾15-1號","121.601816666667","25.2643833333333","6502200","石門區"
"253002","637-UY","2019/12/30 13:54:36","新北市石門區尖山湖18號","121.558958333333","25.2470633333333","6502200","石門區"
"253001","KEC-0718","2019/12/30 13:59:22","新北市石門區八甲73號","121.52976","25.2631533333333","6502200","石門區"
"207002","749-BX","2019/12/30 13:59:42","新北市萬里區溪底里烏塗炭12號","121.63483","25.15022","6502800","萬里區"
"252005","073-UM","2019/12/30 13:58:54","新北市三芝區圓山里二坪頂67號","121.539655","25.2331433333333","6502100","三芝區"
"207001","662-BX","2019/12/30 13:59:43","新北市萬里區磺潭里公館崙47-1號","121.630116666667","25.2047666666667","6502800","萬里區"
"236040","KED-0685","2019/12/30 13:59:29","新北市土城區城林路6巷80號","121.438446666667","24.9797316666667","6501300","土城區"
"236074","166-UM","2019/12/30 13:59:38","新北市土城區永寧路32巷10弄23號","121.42885","24.9610433333333","6501300","土城區"
"236029","253-BX","2019/12/30 13:59:40","新北市土城區城林路6巷80號","121.43851","24.9798383333333","6501300","土城區"
"236024","269-VK","2019/12/30 13:59:22","新北市土城區中華路二段2號","121.439523333333","24.9795433333333","6501300","土城區"
"236012","270-VK","2019/12/30 13:59:28","新北市土城區城林路6巷80號","121.438486666667","24.9798083333333","6501300","土城區"
"236032","271-VK","2019/12/30 13:59:29","新北市土城區城林路6巷80號","121.438536666667","24.9797816666667","6501300","土城區"
"236064","KEA-2877","2019/12/30 13:59:31","新北市土城區城林路6巷80號","121.438598333333","24.979725","6501300","土城區"
"236016","401-BY","2019/12/30 13:59:34","新北市土城區城林路6巷80號","121.438573333333","24.9797916666667","6501300","土城區"
"236057","912-UM","2019/12/30 13:59:38","新北市土城區中央路三段278號","121.4268","24.9636533333333","6501300","土城區"
"236045","913-UM","2019/12/30 13:59:39","新北市土城區員福街30號","121.441228333333","24.9787383333333","6501300","土城區"
"236060","915-UM","2019/12/30 13:59:27","新北市土城區城林路6巷80號","121.438546666667","24.979775","6501300","土城區"
"236054","AAC-216","2019/12/30 13:59:32","新北市土城區城林路6巷80號","121.438588333333","24.979765","6501300","土城區"
"220027","145-BY","2019/12/30 13:59:35","新北市板橋區中正路183巷23號","121.455115","25.01601","6500100","板橋區"
"220028","200-UY","2019/12/30 13:59:30","新北市板橋區大觀路二段文和巷77-1號","121.444083333333","24.998355","6500100","板橋區"
"220030","610-BX","2019/12/30 13:59:30","新北市板橋區篤行路三段玉平巷76弄7號","121.427528333333","24.98579","6500100","板橋區"
"220050","245-BX","2019/12/30 13:59:29","新北市板橋區民生路二段188號","121.470206666667","25.02079","6500100","板橋區"
"220004","276-BY","2019/12/30 13:59:26","新北市板橋區信義路78號","121.457656666667","24.99335","6500100","板橋區"
"220020","277-BY","2019/12/30 13:59:25","新北市板橋區溪北路111號","121.4301","24.9887066666667","6500100","板橋區"
"220019","283-VK","2019/12/30 13:59:38","新北市板橋區重慶路245巷69號","121.465623333333","25.00105","6500100","板橋區"
"220043","285-UM","2019/12/30 13:59:31","新北市板橋區光武街183號","121.465043333333","25.0305133333333","6500100","板橋區"
"220001","285-VK","2019/12/30 13:59:40","新北市板橋區永豐街115號","121.47437","25.019605","6500100","板橋區"
"220031","286-VK","2019/12/30 13:59:32","新北市板橋區大觀路一段38巷2號","121.443635","25.0043833333333","6500100","板橋區"
"220029","287-VK","2019/12/30 13:59:29","新北市板橋區光華街19巷3號","121.453638333333","25.0120666666667","6500100","板橋區"
"220039","288-VK","2019/12/30 13:59:34","新北市板橋區裕民街21號","121.462186666667","25.0289583333333","6500100","板橋區"
"220009","293-UM","2019/12/30 13:59:33","新北市板橋區中山路二段287號","121.478088333333","25.01794","6500100","板橋區"
"220032","296-UM","2019/12/30 13:59:33","新北市板橋區龍興街2號","121.442706666667","24.9994","6500100","板橋區"
"220023","303-R5","2019/12/30 13:59:24","新北市板橋區館前西路269號","121.453606666667","25.0087266666667","6500100","板橋區"
"220010","305-R5","2019/12/30 13:59:26","新北市板橋區三民路二段245巷4弄8號","121.480926666667","25.011945","6500100","板橋區"
"220041","307-R5","2019/12/30 13:59:32","新北市板橋區文化路二段225巷60弄58號","121.469111666667","25.0297216666667","6500100","板橋區"
"220047","317-R6","2019/12/30 13:59:38","新北市板橋區民生路二段226巷35號","121.47129","25.0222483333333","6500100","板橋區"
"220038","487-VK","2019/12/30 13:59:32","新北市板橋區文化路二段319號","121.47222","25.0301233333333","6500100","板橋區"
"220037","491-VK","2019/12/30 13:59:40","新北市板橋區莒光路165巷22號","121.47411","25.0246166666667","6500100","板橋區"
"220104","560-BX","2019/12/30 13:59:26","新北市板橋區中正路341巷35號","121.454178333333","25.0197333333333","6500100","板橋區"
"220052","561-BX","2019/12/30 13:59:26","新北市板橋區介壽街61號","121.469311666667","25.0195683333333","6500100","板橋區"
"220011","609-BX","2019/12/30 13:59:37","新北市板橋區三民路二段33號","121.479636666667","25.017655","6500100","板橋區"
"220040","637-BX","2019/12/30 13:59:42","新北市板橋區大同街14-4號","121.477463333333","25.0269266666667","6500100","板橋區"
"220005","686-BX","2019/12/30 13:59:35","新北市板橋區重慶路293-1號","121.46333","24.9990783333333","6500100","板橋區"
"220025","687-BX","2019/12/30 13:59:24","新北市板橋區大觀路二段343號","121.44101","24.9984766666667","6500100","板橋區"
"220042","689-BX","2019/12/30 13:59:39","新北市板橋區民生路三段153號","121.46578","25.0266466666667","6500100","板橋區"
"220051","KEA-2699","2019/12/30 13:59:40","新北市板橋區田單街2巷31號","121.482178333333","25.0279716666667","6500100","板橋區"
"220003","827-TW","2019/12/30 13:59:25","新北市板橋區民安街13號","121.466816666667","25.0116633333333","6500100","板橋區"
"220014","829-TW","2019/12/30 13:59:43","新北市板橋區三民路二段正隆巷31號","121.477251666667","25.0134116666667","6500100","板橋區"
"220016","830-TW","2019/12/30 13:59:37","新北市板橋區中山路二段465巷28號","121.481433333333","25.021165","6500100","板橋區"
"220022","895-R6","2019/12/30 13:59:16","新北市板橋區南雅南路一段121號","121.455171666667","25.00477","6500100","板橋區"
"220021","985-R7","2019/12/30 13:59:41","新北市板橋區北門街53號","121.455923333333","25.0115566666667","6500100","板橋區"
"220046","AAC-210","2019/12/30 13:59:24","新北市板橋區新海路135巷2號","121.460011666667","25.0229033333333","6500100","板橋區"
"220012","AAC-253","2019/12/30 13:59:27","新北市板橋區民生路一段33號","121.47608","25.0119583333333","6500100","板橋區"
"235025","KEA-2875","2019/12/30 13:59:23","新北市中和區員山路221號","121.481288333333","24.9979816666667","6500300","中和區"
