"lineid","car","time","location","longitude","latitude","cityid","cityname"
"234044","148-BY","2019/12/30 14:13:34","新北市永和區得和路277號","121.522403333333","24.9997283333333","6500400","永和區"
"234078","298-R6","2019/12/30 14:13:33","新北市永和區國中路86巷1號","121.524583333333","25.0061316666667","6500400","永和區"
"234036","336-UY","2019/12/30 14:13:37","新北市永和區成功路一段93巷23弄15號","121.528468333333","25.003495","6500400","永和區"
"234062","337-UY","2019/12/30 14:13:35","新北市永和區永元路96號","121.522553333333","25.001865","6500400","永和區"
"234084","338-UY","2019/12/30 14:13:33","新北市永和區福和路261號","121.517895","25.0073566666667","6500400","永和區"
"234068","552-UM","2019/12/30 14:13:35","新北市永和區永亨路51號","121.520263333333","25.006355","6500400","永和區"
"234015","745-BX","2019/12/30 14:13:32","新北市永和區仁愛路97號","121.512871666667","25.0131933333333","6500400","永和區"
"234028","746-BX","2019/12/30 14:13:30","新北市永和區民權路84號","121.519925","24.9969333333333","6500400","永和區"
"234052","KEA-2590","2019/12/30 14:13:33","新北市永和區博愛街29號","121.518358333333","25.0158316666667","6500400","永和區"
"234005","KED-0605","2019/12/30 14:13:32","新北市中和區中和路236號","121.506998333333","24.9996666666667","6500400","永和區"
"234012","KEA-2591","2019/12/30 14:13:37","新北市永和區永貞路441號","121.506731666667","25.0100816666667","6500400","永和區"
"234060","AAD-866","2019/12/30 14:13:37","新北市中和區安平路222號","121.514103333333","25.0000283333333","6500400","永和區"
"234040","862-TW","2019/12/30 14:13:33","新北市永和區雙和街18號","121.509285","25.0021216666667","6500400","永和區"
"234048","863-TW","2019/12/30 14:13:25","新北市永和區環河西路二段101號","121.506453333333","25.0147583333333","6500400","永和區"
"234025","9371-KE","2019/12/30 14:13:27","新北市永和區安樂路198巷3號","121.515506666667","25.0019516666667","6500400","永和區"
"248007","KED-0815","2019/12/30 14:13:27","新北市五股區中興路二段37巷26號","121.460368333333","25.075025","6501500","五股區"
"248019","KED-0813","2019/12/30 14:03:10","新北市五股區凌雲路三段57號","121.42529","25.1250116666667","6501500","五股區"
"248011","247-BX","2019/12/30 14:13:39","新北市五股區中興路四段48巷11號","121.438423333333","25.0833616666667","6501500","五股區"
"248009","272-BY","2019/12/30 14:13:36","新北市五股區水碓一路23號","121.43057","25.0713","6501500","五股區"
"248003","677-BX","2019/12/30 14:13:36","新北市五股區五福路77號","121.43249","25.0902383333333","6501500","五股區"
"248001","678-BX","2019/12/30 14:13:36","新北市五股區成泰路三段577巷42號","121.451136666667","25.1030533333333","6501500","五股區"
"234022","9380-KE","2019/12/30 14:13:25","新北市永和區竹林路25巷21號","121.518143333333","25.0150166666667","6500400","永和區"
"234076","969-R7","2019/12/30 14:13:34","新北市永和區民族街81巷16號","121.518856666667","24.996605","6500400","永和區"
"234072","AAC-211","2019/12/30 14:13:39","新北市永和區福和路10巷1號","121.524675","25.0086066666667","6500400","永和區"
"234066","AAC-212","2019/12/30 14:13:33","新北市永和區保平路266號","121.508738333333","25.0050683333333","6500400","永和區"
"234001","AAC-295","2019/12/30 14:13:29","新北市永和區中正路577巷10號","121.516095","25.0089116666667","6500400","永和區"
"244001","248-BX","2019/12/30 14:13:25","新北市林口區太平里11鄰38號","121.360106666667","25.1318583333333","6501700","林口區"
"243004","AAD-798","2019/12/30 14:13:32","新北市泰山區吳厝窠1號","121.427995","25.0585766666667","6501600","泰山區"
"243002","297-R6","2019/12/30 14:13:21","新北市泰山區明志路一段458巷6號","121.430148333333","25.0558133333333","6501600","泰山區"
"243006","KEA-2801","2019/12/30 14:13:30","新北市泰山區泰林路二段330號","121.429893333333","25.0632483333333","6501600","泰山區"
"243008","421-VK","2019/12/30 14:13:34","新北市泰山區明志路三段131號","121.424976666667","25.0405033333333","6501600","泰山區"
"243001","KEA-2215","2019/12/30 14:13:39","新北市泰山區明志路一段68號","121.433498333333","25.0646583333333","6501600","泰山區"
"243003","KEA-2216","2019/12/30 14:13:33","新北市泰山區新民路14巷1號","121.426508333333","25.0447383333333","6501600","泰山區"
"243005","646-TV","2019/12/30 14:13:25","新北市泰山區明志路三段201號","121.424076666667","25.0384466666667","6501600","泰山區"
"243007","680-BX","2019/12/30 14:13:23","新北市泰山區公園路29號","121.428503333333","25.05454","6501600","泰山區"
"231030","002-UM","2019/12/30 14:13:34","新北市新店區安興路3巷2號","121.515078333333","24.9675166666667","6500600","新店區"
"231024","0291-UT","2019/12/30 14:13:37","新北市新店區安和路三段4巷1-3號","121.51832","24.98066","6500600","新店區"
"231027","0293-UT","2019/12/30 14:13:28","新北市新店區中興路一段34號","121.538726666667","24.958575","6500600","新店區"
"231005","046-UY","2019/12/30 14:13:41","新北市新店區中興路三段238號","121.543185","24.9834666666667","6500600","新店區"
"231029","106-UY","2019/12/30 14:13:32","新北市新店區安康路二段163號","121.51012","24.9592633333333","6500600","新店區"
"231018","107-UY","2019/12/30 14:13:32","新北市新店區中央五街75號","121.526905","24.9760983333333","6500600","新店區"
"231013","108-UY","2019/12/30 14:13:33","新北市新店區北新路三段67號","121.541611666667","24.9811283333333","6500600","新店區"
"231036","110-UY","2019/12/30 14:13:33","新北市新店區安祥路109巷1弄59號","121.478196666667","24.960795","6500600","新店區"
"231019","189-VK","2019/12/30 14:13:28","新北市新店區屈尺路87巷2號","121.545343333333","24.9227033333333","6500600","新店區"
"231014","KEA-2219","2019/12/30 14:13:35","新北市新店區郵政路1巷6號","121.557255","24.9521533333333","6500600","新店區"
"231031","256-BX","2019/12/30 14:13:40","新北市新店區太平路44號","121.533086666667","24.9592366666667","6500600","新店區"
"231023","260-TV","2019/12/30 14:13:41","新北市新店區文中路40號","121.539666666667","24.9566016666667","6500600","新店區"
"231003","268-BY","2019/12/30 14:13:32","新北市新店區中興路一段144號","121.542405","24.9637566666667","6500600","新店區"
"231035","278-BY","2019/12/30 14:13:41","新北市新店區安和路二段115號","121.518596666667","24.9704416666667","6500600","新店區"
"231006","355-BY","2019/12/30 14:13:28","新北市新店區北宜路二段269號","121.554673333333","24.953575","6500600","新店區"
"231038","3712-VJ","2019/12/30 14:13:41","","121.533185","24.96021","6500600","新店區"
"231025","4715-K9","2019/12/30 14:13:37","新北市新店區自立街3號","121.538741666667","24.978205","6500600","新店區"
"231034","616-UM","2019/12/30 14:13:36","新北市新店區車子路11號","121.503086666667","24.9520816666667","6500600","新店區"
"231001","617-UM","2019/12/30 14:13:38","新北市新店區中華路40號","121.539956666667","24.96813","6500600","新店區"
"231002","619-UM","2019/12/30 14:13:40","新北市新店區中正路487號","121.533851666667","24.9820966666667","6500600","新店區"
"231011","KED-0819","2019/12/30 14:13:37","新北市新店區五峰路149號","121.54502","24.9656616666667","6500600","新店區"
"231028","897-TW","2019/12/30 14:13:26","新北市新店區安和路三段60-1號","121.518058333333","24.9827133333333","6500600","新店區"
"231004","899-TW","2019/12/30 14:13:28","新北市新店區北新路二段68號","121.543031666667","24.9723183333333","6500600","新店區"
"231037","AKT-0513","2019/12/30 14:13:26","新北市新店區安康路二段341巷34號","121.49676","24.9544066666667","6500600","新店區"
"235030","003-UY","2019/12/30 14:13:22","新北市中和區廣福路57號","121.502713333333","25.0011833333333","6500300","中和區"
"235028","005-UY","2019/12/30 14:13:37","新北市中和區南山路75號","121.502075","24.9980166666667","6500300","中和區"
"235027","006-UY","2019/12/30 14:13:31","新北市中和區連勝街121巷10號","121.495055","24.9947016666667","6500300","中和區"
"235036","KEE-1103","2019/12/30 14:13:36","新北市中和區中山路二段258號","121.49743","25.0024816666667","6500300","中和區"
"235020","096-UM","2019/12/30 14:13:44","","121.479891666667","25.0064666666667","6500300","中和區"
"235003","097-UM","2019/12/30 14:13:38","新北市中和區秀峰街119巷8弄14號","121.519048333333","24.9900966666667","6500300","中和區"
"235029","098-UM","2019/12/30 14:13:27","新北市中和區中山路二段2巷3弄9號","121.504518333333","25.0058183333333","6500300","中和區"
"235004","150-BY","2019/12/30 14:13:28","新北市中和區宜安路78號","121.511173333333","24.9973783333333","6500300","中和區"
"235022","151-BY","2019/12/30 14:13:32","新北市中和區連城路469巷91號","121.483783333333","24.9934016666667","6500300","中和區"
"235019","183-VK","2019/12/30 14:13:35","新北市中和區中山路三段209號","121.471935","25.00641","6500300","中和區"
"235002","185-VK","2019/12/30 14:13:38","新北市中和區大仁街10巷1號","121.517973333333","24.992675","6500300","中和區"
"235031","255-BX","2019/12/30 14:13:26","新北市中和區連城路314號","121.483625","24.9961533333333","6500300","中和區"
"235008","293-VK","2019/12/30 14:13:39","新北市中和區中興街266巷1號","121.498458333333","24.9875933333333","6500300","中和區"
"235035","301-VK","2019/12/30 14:13:39","新北市中和區錦和路8號","121.486121666667","25.0029883333333","6500300","中和區"
"235007","352-BY","2019/12/30 14:13:29","新北市中和區景平路280號","121.513608333333","24.9926433333333","6500300","中和區"
"235006","KEA-2878","2019/12/30 14:13:33","新北市永和區中正路111號","121.515655","24.99751","6500300","中和區"
"247015","KEA-2869","2019/12/30 14:13:40","新北市蘆洲區光華路46巷21弄1號","121.468273333333","25.0836233333333","6501400","蘆洲區"
"235014","4979-A6","2019/12/30 14:13:40","新北市中和區復興路280巷18弄11號","121.501775","24.9923633333333","6500300","中和區"
"235033","4980-A6","2019/12/30 14:13:34","新北市中和區福美路269號","121.498161666667","25.0050983333333","6500300","中和區"
"235032","551-UM","2019/12/30 14:13:39","新北市中和區景平路493巷3-1號","121.49981","24.99757","6500300","中和區"
"235034","558-UM","2019/12/30 14:13:26","新北市中和區中山路二段228-1號","121.498696666667","25.0026566666667","6500300","中和區"
"235009","565-BX","2019/12/30 14:13:29","新北市中和區景新街423巷35弄16號","121.514031666667","24.9900216666667","6500300","中和區"
"235024","KED-0823","2019/12/30 14:13:22","新北市中和區員山路294巷22號","121.482371666667","25.0021433333333","6500300","中和區"
"235018","640-BX","2019/12/30 14:13:26","新北市中和區國光街107巷2弄3號","121.470088333333","24.9998916666667","6500300","中和區"
"235011","732-UM","2019/12/30 14:13:41","新北市中和區和平街56號","121.508586666667","24.9907466666667","6500300","中和區"
"235010","733-UM","2019/12/30 14:13:22","新北市中和區華新街184號","121.507136666667","24.9821283333333","6500300","中和區"
"235026","800-TS","2019/12/30 14:13:29","新北市中和區中山路二段380巷16號","121.490848333333","25.0050433333333","6500300","中和區"
"235021","801-TS","2019/12/30 14:13:37","新北市中和區員山路479號","121.48019","25.0053216666667","6500300","中和區"
"235005","802-TS","2019/12/30 14:13:37","新北市中和區宜安路118巷18號","121.510875","24.9985733333333","6500300","中和區"
"235016","805-TS","2019/12/30 14:13:30","新北市中和區興南路二段142巷31弄31號","121.501961666667","24.983405","6500300","中和區"
"235012","896-TW","2019/12/30 14:13:23","新北市中和區華新街109巷32號","121.508711666667","24.9801766666667","6500300","中和區"
"235017","900-TW","2019/12/30 14:13:26","新北市中和區華安街19巷4號","121.467178333333","24.99793","6500300","中和區"
"235015","157-BY","2019/12/30 14:13:40","新北市中和區和平街2巷4弄12號","121.510255","24.990855","6500300","中和區"
"235001","AAC-213","2019/12/30 14:13:35","新北市中和區自立路15巷15號","121.523028333333","24.99599","6500300","中和區"
"235023","AAC-215","2019/12/30 14:13:25","新北市中和區錦和路197號","121.490833333333","24.990675","6500300","中和區"
"220002","015-TV","2019/12/30 14:13:29","新北市板橋區重慶路76巷11號","121.461463333333","25.0062566666667","6500100","板橋區"
"220013","072-UY","2019/12/30 14:13:35","新北市板橋區民族路219巷57號","121.46875","25.0088683333333","6500100","板橋區"
"220034","073-UY","2019/12/30 14:13:35","新北市板橋區中正路216巷73號","121.457933333333","25.0190366666667","6500100","板橋區"
"220105","075-UY","2019/12/30 14:13:43","新北市板橋區長江路三段24巷3號","121.472503333333","25.0333233333333","6500100","板橋區"
"220017","AAD-861","2019/12/30 14:13:27","新北市板橋區大明街20巷29弄2號","121.458086666667","25.00353","6500100","板橋區"
"247005","893-R6","2019/12/30 14:13:40","新北市蘆洲區九芎街13號","121.468153333333","25.078565","6501400","蘆洲區"
"247009","341-TH","2019/12/30 14:13:34","新北市蘆洲區信義路172號","121.479346666667","25.0839516666667","6501400","蘆洲區"
"247011","337-TH","2019/12/30 14:13:40","新北市蘆洲區復興路63號","121.475956666667","25.0871216666667","6501400","蘆洲區"
"247003","336-TH","2019/12/30 14:13:31","新北市蘆洲區長安街183號","121.4605","25.0816183333333","6501400","蘆洲區"
"247023","057-VK","2019/12/30 14:13:37","新北市蘆洲區長榮路500號","121.459523333333","25.0897166666667","6501400","蘆洲區"
"247013","056-VK","2019/12/30 14:13:40","新北市蘆洲區三民路15號","121.475775","25.082295","6501400","蘆洲區"
"247017","053-VK","2019/12/30 14:13:24","新北市蘆洲區民族路278-1號","121.478386666667","25.0892966666667","6501400","蘆洲區"
"247007","002-UY","2019/12/30 14:13:33","新北市蘆洲區中山一路293-1號","121.471623333333","25.07923","6501400","蘆洲區"
"247001","001-UY","2019/12/30 14:13:39","新北市蘆洲區長榮路500號","121.459445","25.089615","6501400","蘆洲區"
"235013","251-BX","2019/12/30 14:13:29","新北市中和區景新街230號","121.50833","24.9942816666667","6500300","中和區"
"253003","6232-TK","2019/12/30 14:13:28","新北市石門區內石門66號","121.579083333333","25.261475","6502200","石門區"
"253004","6251-TK","2019/12/30 14:13:28","新北市石門區坪林28號","121.595935","25.2647683333333","6502200","石門區"
"253002","637-UY","2019/12/30 14:13:36","新北市石門區七股28-1號","121.55194","25.2650816666667","6502200","石門區"
"253001","KEC-0718","2019/12/30 14:13:42","新北市石門區八甲25號","121.526843333333","25.279335","6502200","石門區"
"207002","749-BX","2019/12/30 14:13:42","新北市萬里區溪底里瑞泉路9號","121.602793333333","25.1431433333333","6502800","萬里區"
"252005","073-UM","2019/12/30 14:13:34","新北市三芝區橫山里橫山49-1號","121.533658333333","25.2574733333333","6502100","三芝區"
"207001","662-BX","2019/12/30 14:13:23","新北市萬里區磺潭里清水18號","121.637958333333","25.1976483333333","6502800","萬里區"
"236040","KED-0685","2019/12/30 14:13:29","新北市土城區裕生路84巷1號","121.447315","24.9852416666667","6501300","土城區"
"236074","166-UM","2019/12/30 14:13:38","新北市土城區永安街85號","121.430901666667","24.9640383333333","6501300","土城區"
"236029","253-BX","2019/12/30 14:13:38","新北市土城區員福街38號","121.440908333333","24.9788833333333","6501300","土城區"
"236024","269-VK","2019/12/30 14:13:22","新北市土城區承天路43巷4號","121.439125","24.9639916666667","6501300","土城區"
"236012","270-VK","2019/12/30 14:13:28","新北市土城區青雲路39巷7號","121.460365","24.9875316666667","6501300","土城區"
"236032","271-VK","2019/12/30 14:13:29","新北市土城區青雲路449-1號","121.458781666667","24.9747166666667","6501300","土城區"
"236064","KEA-2877","2019/12/30 14:13:31","新北市土城區明德路一段128巷5號","121.463301666667","24.9790583333333","6501300","土城區"
"236016","401-BY","2019/12/30 14:13:34","新北市土城區明德路一段365-1號","121.453348333333","24.979295","6501300","土城區"
"236057","912-UM","2019/12/30 14:13:38","新北市土城區中央路四段199號","121.414681666667","24.9565366666667","6501300","土城區"
"236045","913-UM","2019/12/30 14:13:39","新北市土城區明德路一段365-1號","121.453538333333","24.9790433333333","6501300","土城區"
"236060","915-UM","2019/12/30 14:13:27","新北市土城區青雲路145號","121.458811666667","24.984305","6501300","土城區"
"236054","AAC-216","2019/12/30 14:13:32","新北市土城區中華路二段92號","121.438246666667","24.9747683333333","6501300","土城區"
"220027","145-BY","2019/12/30 14:13:35","新北市板橋區民權路202巷2弄1號","121.45951","25.0141233333333","6500100","板橋區"
"220028","200-UY","2019/12/30 14:13:30","新北市板橋區大觀路二段5號","121.447138333333","25.0038766666667","6500100","板橋區"
"220030","610-BX","2019/12/30 14:13:30","新北市板橋區溪崑二街29號","121.428591666667","24.9912083333333","6500100","板橋區"
"220050","245-BX","2019/12/30 14:13:29","新北市板橋區縣民大道三段127巷1號","121.477288333333","25.0230816666667","6500100","板橋區"
"220004","276-BY","2019/12/30 14:13:26","新北市板橋區信義路150巷16號","121.45822","24.9917916666667","6500100","板橋區"
"220020","277-BY","2019/12/30 14:13:25","新北市板橋區金門街372巷36號","121.427528333333","24.9848983333333","6500100","板橋區"
"220019","283-VK","2019/12/30 14:13:38","新北市中和區華順街60號","121.465313333333","24.9984666666667","6500100","板橋區"
"220043","285-UM","2019/12/30 14:13:31","新北市板橋區吳鳳路17巷26弄2號","121.467405","25.0296833333333","6500100","板橋區"
"220001","285-VK","2019/12/30 14:13:40","新北市板橋區富山街53巷11號","121.477706666667","25.021405","6500100","板橋區"
"220031","286-VK","2019/12/30 14:13:34","新北市板橋區大觀路二段174巷186弄5號","121.442696666667","25.0036183333333","6500100","板橋區"
"220029","287-VK","2019/12/30 14:13:29","新北市板橋區南雅西路二段2-1號","121.453105","25.0089616666667","6500100","板橋區"
"220039","288-VK","2019/12/30 14:13:40","新北市板橋區長江路一段106巷11號","121.460015","25.02907","6500100","板橋區"
"220009","293-UM","2019/12/30 14:13:33","新北市板橋區成功路6巷47號","121.476605","25.0175766666667","6500100","板橋區"
"220032","296-UM","2019/12/30 14:13:33","新北市板橋區溪崑二街22巷24號","121.428355","24.991905","6500100","板橋區"
"220023","303-R5","2019/12/30 14:13:24","新北市板橋區南雅南路一段1巷7號","121.457018333333","25.0068366666667","6500100","板橋區"
"220010","305-R5","2019/12/30 14:13:33","新北市板橋區三民路二段居仁巷1弄49號","121.480816666667","25.0137116666667","6500100","板橋區"
"220041","307-R5","2019/12/30 14:13:32","新北市板橋區光武街2巷45-1號","121.46835","25.02603","6500100","板橋區"
"220047","317-R6","2019/12/30 14:13:38","新北市板橋區四維路112巷33號","121.46529","25.02584","6500100","板橋區"
"220038","487-VK","2019/12/30 14:13:32","新北市板橋區國光路196號","121.461606666667","25.0183966666667","6500100","板橋區"
"220037","491-VK","2019/12/30 14:13:40","新北市板橋區文化路二段182巷3弄24號","121.472048333333","25.0279516666667","6500100","板橋區"
"220104","560-BX","2019/12/30 14:13:26","新北市板橋區中正路413巷2弄2號","121.45394","25.0227033333333","6500100","板橋區"
"220052","561-BX","2019/12/30 14:13:26","新北市板橋區文化路一段266號","121.467296666667","25.020545","6500100","板橋區"
"220011","609-BX","2019/12/30 14:13:37","新北市板橋區三民路二段202-16號","121.478943333333","25.01356","6500100","板橋區"
"220040","637-BX","2019/12/30 14:13:42","新北市板橋區縣民大道三段187巷18號","121.479123333333","25.0252633333333","6500100","板橋區"
"220005","686-BX","2019/12/30 14:13:35","新北市板橋區和平路143巷16號","121.463168333333","24.9961233333333","6500100","板橋區"
"220025","687-BX","2019/12/30 14:13:24","新北市板橋區龍興街65巷2號","121.443613333333","25.001545","6500100","板橋區"
"220042","689-BX","2019/12/30 14:13:39","新北市板橋區新海路115號","121.461115","25.0227883333333","6500100","板橋區"
"220051","KEA-2699","2019/12/30 14:13:40","新北市板橋區文聖街70號","121.4772","25.0303366666667","6500100","板橋區"
"220003","827-TW","2019/12/30 14:13:42","新北市板橋區新民街7巷18號","121.463778333333","25.0105183333333","6500100","板橋區"
"220014","829-TW","2019/12/30 14:13:41","新北市板橋區中山路二段90巷43弄2號","121.476496666667","25.0149116666667","6500100","板橋區"
"220016","830-TW","2019/12/30 14:13:31","新北市板橋區萬安街132號","121.48331","25.0259816666667","6500100","板橋區"
"220022","895-R6","2019/12/30 14:13:37","","121.455895","25.010365","6500100","板橋區"
"220021","985-R7","2019/12/30 14:13:41","新北市板橋區中正路191號","121.456415","25.0169983333333","6500100","板橋區"
"220046","AAC-210","2019/12/30 14:13:42","新北市板橋區幸福路60巷41號","121.46047","25.0211483333333","6500100","板橋區"
"220012","AAC-253","2019/12/30 14:13:27","新北市板橋區縣民大道二段1號","121.462153333333","25.011595","6500100","板橋區"
"235025","KEA-2875","2019/12/30 14:13:23","新北市中和區民利街9巷2弄16號","121.480096666667","24.9987383333333","6500300","中和區"
