"lineid","car","time","location","longitude","latitude","cityid","cityname"
"234007","KED-0605","2019/12/30 18:13:29","新北市永和區環河西路二段5號","121.509775","25.01733","6500400","永和區"
"234026","9371-KE","2019/12/30 18:13:37","新北市永和區豫溪街28巷19號","121.51505","25.0089766666667","6500400","永和區"
"249005","172-UM","2019/12/30 18:13:27","新北市八里區荖阡坑路15號","121.401551666667","25.14002","6502300","八里區"
"249001","173-UM","2019/12/30 18:13:40","新北市八里區龍米路一段245號","121.451071666667","25.13332","6502300","八里區"
"249004","303-UY","2019/12/30 18:13:42","新北市八里區龍米路二段200巷13號","121.433101666667","25.1593116666667","6502300","八里區"
"249002","305-UY","2019/12/30 18:13:40","新北市八里區龍米路一段386巷5號","121.451815","25.1319616666667","6502300","八里區"
"249003","593-UM","2019/12/30 18:13:28","新北市八里區中山路三段387號","121.37128","25.137505","6502300","八里區"
"248014","025-BX","2019/12/30 18:13:21","新北市五股區成泰路一段189巷29號","121.433541666667","25.0763533333333","6501500","五股區"
"248016","026-BX","2019/12/30 18:13:40","新北市五股區新五路三段9號","121.44438","25.089705","6501500","五股區"
"248006","077-UY","2019/12/30 18:13:27","新北市五股區中興路一段181號","121.46436","25.0738483333333","6501500","五股區"
"248008","KED-0815","2019/12/30 18:13:26","新北市五股區更洲路32巷8弄14號","121.45923","25.079615","6501500","五股區"
"248018","KED-0813","2019/12/30 18:13:33","新北市五股區成泰路三段83號","121.444263333333","25.089895","6501500","五股區"
"248010","272-BY","2019/12/30 18:13:43","新北市五股區成泰路一段216號","121.436498333333","25.07917","6501500","五股區"
"248004","677-BX","2019/12/30 18:13:43","新北市五股區中興路四段23號","121.438908333333","25.0826683333333","6501500","五股區"
"248002","678-BX","2019/12/30 18:13:41","新北市五股區新五路二段258號","121.440986666667","25.0821683333333","6501500","五股區"
"232011","375-UM","2019/12/30 18:13:31","新北市坪林區國中路4號","121.713451666667","24.9388233333333","6502000","坪林區"
"244007","080-UY","2019/12/30 18:13:36","新北市林口區林口路222號","121.387003333333","25.0835116666667","6501700","林口區"
"244019","402-UM","2019/12/30 18:13:29","新北市林口區忠孝路580巷15號","121.375176666667","25.0673066666667","6501700","林口區"
"244013","KEA-2802","2019/12/30 18:13:37","新北市林口區中山路299號","121.38392","25.07978","6501700","林口區"
"244023","483-VK","2019/12/30 18:13:39","新北市林口區東湖路153巷135號","121.382225","25.073575","6501700","林口區"
"244017","485-VK","2019/12/30 18:13:39","新北市林口區公園路42號","121.367311666667","25.0681133333333","6501700","林口區"
"244009","656-BX","2019/12/30 18:13:33","新北市林口區福林路33號","121.379318333333","25.0886016666667","6501700","林口區"
"244011","701-TV","2019/12/30 18:13:31","新北市林口區仁愛路一段292號","121.392723333333","25.07646","6501700","林口區"
"244025","837-TS","2019/12/30 18:13:34","新北市林口區南勢二街154號","121.359065","25.0735616666667","6501700","林口區"
"244021","838-TS","2019/12/30 18:13:34","新北市林口區自強一街46號","121.39926","25.077505","6501700","林口區"
"208001","267-VK","2019/12/30 18:13:29","新北市金山區磺港里磺港路90號","121.647428333333","25.2263183333333","6502700","金山區"
"243013","646-TV","2019/12/30 18:13:34","新北市泰山區南林路99巷1-1號","121.415443333333","25.05113","6501600","泰山區"
"222003","KEE-1106","2019/12/30 18:13:34","新北市深坑區文山路一段79號","121.625615","25.0014216666667","6501800","深坑區"
"222002","659-BX","2019/12/30 18:13:34","新北市深坑區文化街13號","121.620395","25.0012766666667","6501800","深坑區"
"231061","002-UM","2019/12/30 18:13:29","新北市新店區安華路28-1號","121.519858333333","24.960795","6500600","新店區"
"231055","0291-UT","2019/12/30 18:13:30","新北市新店區安華路28-1號","121.519623333333","24.9606616666667","6500600","新店區"
"231058","0293-UT","2019/12/30 18:13:25","新北市新店區安華路1-1號","121.519613333333","24.9603683333333","6500600","新店區"
"231051","107-UY","2019/12/30 18:13:29","新北市新店區安一路一段1-1號","121.519651666667","24.96109","6500600","新店區"
"231052","189-VK","2019/12/30 18:13:33","新北市新店區安華路28-1號","121.52011","24.96076","6500600","新店區"
"221031","KEA-2785","2019/12/30 18:13:40","新北市汐止區中興路181巷16弄12號","121.629576666667","25.0667233333333","6501100","汐止區"
"231062","256-BX","2019/12/30 18:13:23","新北市新店區安一路一段1-1號","121.51952","24.9611866666667","6500600","新店區"
"231054","260-TV","2019/12/30 18:13:38","新北市新店區安一路一段1-1號","121.519203333333","24.9613166666667","6500600","新店區"
"231064","278-BY","2019/12/30 18:13:24","新北市新店區安華路28-1號","121.519836666667","24.961045","6500600","新店區"
"231050","AAD-862","2019/12/30 18:13:30","新北市新店區安華路28-1號","121.519971666667","24.9609916666667","6500600","新店區"
"231056","4715-K9","2019/12/30 18:13:34","新北市新店區安康路一段35號","121.531713333333","24.9607483333333","6500600","新店區"
"231063","616-UM","2019/12/30 18:13:29","新北市新店區安華路1-1號","121.519418333333","24.9604266666667","6500600","新店區"
"231040","617-UM","2019/12/30 18:13:35","新北市新店區安華路28-1號","121.519503333333","24.9607216666667","6500600","新店區"
"231047","KED-0819","2019/12/30 18:13:26","新北市新店區安一路一段1-1號","121.519843333333","24.9611","6500600","新店區"
"231046","719-UM","2019/12/30 18:13:30","新北市新店區直潭七街60號","121.532288333333","24.939815","6500600","新店區"
"231057","720-UM","2019/12/30 18:05:39","新北市新店區安一路一段1-1號","121.519235","24.9614066666667","6500600","新店區"
"231043","899-TW","2019/12/30 18:13:31","新北市新店區安華路28-1號","121.519318333333","24.9608816666667","6500600","新店區"
"231066","AKT-0513","2019/12/30 18:13:39","新北市新店區安華路28-1號","121.5196","24.9606416666667","6500600","新店區"
"241033","AAC-255","2019/12/30 18:13:36","新北市三重區中興北街133-1號","121.469288333333","25.0506266666667","6500200","三重區"
"235064","005-UY","2019/12/30 18:13:29","新北市中和區中正路160號","121.498518333333","24.9938266666667","6500300","中和區"
"235063","006-UY","2019/12/30 18:13:33","新北市中和區中正路577號","121.486326666667","24.994485","6500300","中和區"
"235072","KEE-1103","2019/12/30 18:13:40","新北市中和區連城路263-2號","121.491496666667","24.9964","6500300","中和區"
"235056","096-UM","2019/12/30 18:13:23","新北市中和區中正路803號","121.484863333333","25.0010633333333","6500300","中和區"
"235039","097-UM","2019/12/30 18:13:31","新北市中和區中正路267號","121.495928333333","24.993595","6500300","中和區"
"235065","098-UM","2019/12/30 18:13:42","新北市中和區莊敬路49巷27號","121.501603333333","25.006195","6500300","中和區"
"235040","150-BY","2019/12/30 18:13:30","新北市中和區安平路59號","121.509566666667","24.9951883333333","6500300","中和區"
"235058","151-BY","2019/12/30 18:13:41","新北市中和區圓通路369巷35號","121.489215","24.9865733333333","6500300","中和區"
"235055","183-VK","2019/12/30 18:13:38","新北市中和區新生街245號","121.483835","24.9988083333333","6500300","中和區"
"235038","185-VK","2019/12/30 18:13:40","新北市中和區大智街57號","121.521298333333","24.9921083333333","6500300","中和區"
"235043","352-BY","2019/12/30 18:13:23","新北市中和區景平路381號","121.503961666667","24.99342","6500300","中和區"
"235042","KEA-2878","2019/12/30 18:13:25","新北市中和區景平路166號","121.516998333333","24.9920633333333","6500300","中和區"
"235050","4979-A6","2019/12/30 18:13:40","新北市中和區錦和路350-1號","121.49102","24.9936116666667","6500300","中和區"
"235069","4980-A6","2019/12/30 18:13:27","新北市中和區連城路169號","121.49543","24.998265","6500300","中和區"
"235070","558-UM","2019/12/30 18:13:39","新北市中和區圓通路128號","121.498526666667","24.9957783333333","6500300","中和區"
"235045","565-BX","2019/12/30 18:13:38","新北市中和區景安路200巷10號","121.503223333333","24.9918683333333","6500300","中和區"
"235060","KED-0823","2019/12/30 18:13:38","新北市中和區員山路395號","121.481188333333","25.0030333333333","6500300","中和區"
"235054","640-BX","2019/12/30 18:13:24","新北市中和區民享街86巷26號","121.473358333333","25.00064","6500300","中和區"
"235047","732-UM","2019/12/30 18:13:30","新北市中和區連城路247號","121.493588333333","24.9972","6500300","中和區"
"235046","733-UM","2019/12/30 18:13:33","新北市中和區員山路36巷13號","121.484163333333","24.99083","6500300","中和區"
"235062","800-TS","2019/12/30 18:13:40","新北市中和區橋和路60號","121.48948","25.00515","6500300","中和區"
"235057","801-TS","2019/12/30 18:13:32","新北市中和區民享街97巷19號","121.475355","24.999575","6500300","中和區"
"235041","802-TS","2019/12/30 18:13:28","新北市中和區和城路一段271巷1號","121.485445","24.9916783333333","6500300","中和區"
"235052","805-TS","2019/12/30 18:13:30","新北市中和區中正路1號","121.503258333333","24.993345","6500300","中和區"
"235048","896-TW","2019/12/30 18:13:35","新北市中和區員山路36巷16-2號","121.485256666667","24.99165","6500300","中和區"
"235053","900-TW","2019/12/30 18:13:25","新北市中和區員山路36巷16-2號","121.485286666667","24.99147","6500300","中和區"
"235051","157-BY","2019/12/30 18:13:36","新北市中和區信義街71號","121.511686666667","24.98786","6500300","中和區"
"235037","AAC-213","2019/12/30 18:13:40","新北市中和區景平路151巷41號","121.514688333333","24.9905866666667","6500300","中和區"
"235059","AAC-215","2019/12/30 18:13:24","新北市中和區員山路36巷16-3號","121.485068333333","24.9913683333333","6500300","中和區"
"207004","KEE-1107","2019/12/30 18:13:31","新北市萬里區中幅里中福路136號","121.674506666667","25.1663033333333","6502800","萬里區"
"226004","312-R5","2019/12/30 18:13:23","新北市平溪區薯榔里薯榔寮29號","121.713488333333","25.01936","6502400","平溪區"
"235049","251-BX","2019/12/30 18:13:34","新北市中和區員山路36巷13號","121.48425","24.99082","6500300","中和區"
"228003","097-TW","2019/12/30 18:13:20","新北市貢寮區真理里美艷山街22-2號","121.927056666667","25.0647866666667","6502600","貢寮區"
"228001","212-TW","2019/12/30 18:13:21","新北市貢寮區真理里新港街26巷55弄2-1號","121.927383333333","25.05285","6502600","貢寮區"
"228002","663-BX","2019/12/30 18:13:39","新北市貢寮區福連里馬崗街6-1號","122.001628333333","25.0137866666667","6502600","貢寮區"
"224006","676-BX","2019/12/30 18:13:34","新北市瑞芳區東和路31-8號","121.805528333333","25.1058433333333","6501200","瑞芳區"
"224007","285-BY","2019/12/30 18:13:37","新北市瑞芳區頂埔巷51-3號","121.767368333333","25.1048933333333","6501200","瑞芳區"
"224009","275-VK","2019/12/30 18:13:34","新北市瑞芳區崙頂路3號","121.846541666667","25.1068533333333","6501200","瑞芳區"
"224008","273-VK","2019/12/30 18:13:40","新北市瑞芳區三爪子坑路125號","121.81033","25.1070383333333","6501200","瑞芳區"
"224005","271-BY","2019/12/30 18:13:39","新北市瑞芳區建基路一段74號","121.816296666667","25.12833","6501200","瑞芳區"
"227002","642-TC","2019/12/30 18:13:26","新北市雙溪區雙溪里太平路13號","121.864238333333","25.0352166666667","6502500","雙溪區"
"227001","400-TW","2019/12/30 18:13:27","新北市雙溪區三貂里政光路2-5號","121.852338333333","25.0623566666667","6502500","雙溪區"
"253005","032-BX","2019/12/30 18:13:35","新北市石門區中央路37-2號","121.568536666667","25.2947433333333","6502200","石門區"
"253006","295-VK","2019/12/30 18:13:43","新北市石門區老梅路52巷21號","121.546403333333","25.2885916666667","6502200","石門區"
"222001","KEA-2212","2019/12/30 18:13:25","新北市深坑區北深路二段109號","121.617148333333","25.00329","6501800","深坑區"
"208002","KEA-2872","2019/12/30 18:13:37","新北市金山區清泉里清水路60巷6號","121.632643333333","25.2349166666667","6502700","金山區"
"208003","665-BX","2019/12/30 18:13:44","新北市金山區民生路2號","121.650115","25.2255166666667","6502700","金山區"
"251009","008-UM","2019/12/30 18:13:27","新北市淡水區大忠街34巷9號","121.443718333333","25.1754966666667","6501000","淡水區"
"251004","009-UM","2019/12/30 18:13:32","新北市淡水區民族路110巷10號","121.462121666667","25.135485","6501000","淡水區"
"251005","010-UM","2019/12/30 18:13:33","新北市淡水區水源街一段120號","121.447191666667","25.1716816666667","6501000","淡水區"
"251016","180-VK","2019/12/30 18:13:24","新北市淡水區淡金路三段70巷1號","121.448288333333","25.2001333333333","6501000","淡水區"
"251008","181-VK","2019/12/30 18:13:32","新北市淡水區中正東路二段17-4號","121.458576666667","25.1575383333333","6501000","淡水區"
"251013","182-VK","2019/12/30 18:13:33","新北市淡水區破瓦厝子1-12號","121.4759","25.1987466666667","6501000","淡水區"
"251010","413-VK","2019/12/30 18:13:36","新北市淡水區中正路二段96號","121.418158333333","25.1850866666667","6501000","淡水區"
"251012","441-VK","2019/12/30 18:13:28","新北市淡水區泉洲厝13-1號","121.488541666667","25.1901683333333","6501000","淡水區"
"251001","559-UM","2019/12/30 18:13:38","新北市淡水區自立路10號","121.46307","25.1297516666667","6501000","淡水區"
"251006","561-UM","2019/12/30 18:13:38","新北市淡水區新民街79號","121.438278333333","25.176775","6501000","淡水區"
"251014","577-R6","2019/12/30 18:13:29","新北市淡水區北勢子8-3號","121.484485","25.2239616666667","6501000","淡水區"
"251011","650-BX","2019/12/30 18:13:39","新北市淡水區坪頂路698號","121.481361666667","25.159175","6501000","淡水區"
"251002","672-BX","2019/12/30 18:13:44","新北市淡水區中正東路一段91號","121.453021666667","25.1614166666667","6501000","淡水區"
"251003","673-BX","2019/12/30 18:13:35","新北市淡水區北新路182巷41弄2號","121.448273333333","25.1774283333333","6501000","淡水區"
"251015","178-VK","2019/12/30 18:13:25","新北市淡水區興福寮88巷1號","121.485395","25.1649783333333","6501000","淡水區"
"252003","249-BX","2019/12/30 18:13:25","新北市三芝區埔頭里埔頭37號","121.498505","25.260335","6502100","三芝區"
"252001","292-VK","2019/12/30 18:13:24","新北市三芝區中興街二段2號","121.498388333333","25.2566833333333","6502100","三芝區"
"237004","KEA-2597","2019/12/30 18:13:34","新北市三峽區大埔路367-1號","121.371541666667","24.8952416666667","6500900","三峽區"
"237007","153-BY","2019/12/30 18:13:27","新北市三峽區中正路二段370巷77號","121.36428","24.9114966666667","6500900","三峽區"
"237009","210-TH","2019/12/30 18:13:25","新北市三峽區大仁路50巷13號","121.365278333333","24.938095","6500900","三峽區"
"237012","275-BY","2019/12/30 18:13:41","新北市三峽區民生街1巷5-84號","121.378258333333","24.934535","6500900","三峽區"
"237008","302-VK","2019/12/30 18:13:32","新北市三峽區白雞68-33號","121.392486666667","24.90904","6500900","三峽區"
"237006","5530-G3","2019/12/30 18:13:36","新北市三峽區溪東路178巷13弄12號","121.40619","24.932155","6500900","三峽區"
"237014","433-BY","2019/12/30 18:13:24","新北市三峽區復興路110巷6號","121.37299","24.9385","6500900","三峽區"
"237011","KEA-2596","2019/12/30 18:13:26","新北市三峽區大同路16號","121.378001666667","24.9295733333333","6500900","三峽區"
"237015","649-BX","2019/12/30 18:13:23","新北市三峽區紫新路23巷2號","121.422853333333","24.9211616666667","6500900","三峽區"
"237010","706-TV","2019/12/30 18:13:29","新北市三峽區民族街148巷3號","121.36916","24.9283716666667","6500900","三峽區"
"237005","AKY-6261","2019/12/30 18:13:39","新北市三峽區忠孝街31號","121.37106","24.9341066666667","6500900","三峽區"
"236042","KED-0685","2019/12/30 18:13:33","新北市土城區裕生路84巷2號","121.447395","24.9853716666667","6501300","土城區"
"233002","762-BX","2019/12/30 18:13:24","新北市烏來區新烏路五段12號","121.54202","24.881495","6502900","烏來區"
"236078","166-UM","2019/12/30 18:13:26","新北市土城區永安街84號","121.431545","24.96378","6501300","土城區"
"236026","269-VK","2019/12/30 18:13:40","新北市土城區承天路45號","121.438766666667","24.9640516666667","6501300","土城區"
"236014","270-VK","2019/12/30 18:13:41","新北市土城區青雲路39巷7號","121.460315","24.987405","6501300","土城區"
"236039","271-VK","2019/12/30 18:13:23","新北市土城區青雲路453號","121.458826666667","24.9746616666667","6501300","土城區"
"236069","KEA-2877","2019/12/30 18:13:29","新北市土城區明德路一段245號","121.46255","24.9781583333333","6501300","土城區"
"252002","KED-0821","2019/12/30 18:13:31","新北市三芝區中山路二段39號","121.502945","25.2551066666667","6502100","三芝區"
"236020","401-BY","2019/12/30 18:13:24","新北市土城區中正路63號","121.444433333333","24.97554","6501300","土城區"
"236030","752-BX","2019/12/30 18:13:34","新北市土城區中央路二段258號","121.441608333333","24.9745516666667","6501300","土城區"
"236059","912-UM","2019/12/30 18:13:26","新北市土城區中央路四段340號","121.413471666667","24.9553983333333","6501300","土城區"
"236048","913-UM","2019/12/30 18:13:32","新北市土城區明德路一段365-1號","121.45354","24.9790333333333","6501300","土城區"
"236063","915-UM","2019/12/30 18:13:26","新北市土城區金城路二段236號","121.456695","24.9830116666667","6501300","土城區"
"236055","AAC-216","2019/12/30 18:13:41","新北市土城區中華路二段92號","121.43822","24.9747283333333","6501300","土城區"
"242042","AAC-296","2019/12/30 18:13:30","新北市新莊區天祥街114號","121.414721666667","25.0297433333333","6500500","新莊區"
"242060","986-R7","2019/12/30 18:13:30","新北市新莊區新樹路262號","121.43275","25.014685","6500500","新莊區"
"242004","751-BX","2019/12/30 18:13:29","新北市新莊區自由街34號","121.455781666667","25.04655","6500500","新莊區"
"242025","705-TV","2019/12/30 18:13:30","新北市新莊區新北大道二段370號","121.462151666667","25.0610533333333","6500500","新莊區"
"242029","615-BX","2019/12/30 18:13:29","新北市新莊區幸福路858號","121.443873333333","25.04906","6500500","新莊區"
"242027","613-BX","2019/12/30 18:13:26","新北市新莊區幸福路69號","121.457118333333","25.04935","6500500","新莊區"
"242058","612-BX","2019/12/30 18:13:34","新北市新莊區壽山路160巷21號","121.417385","25.03193","6500500","新莊區"
"242048","566-BX","2019/12/30 18:13:36","新北市新莊區富國路154號","121.423263333333","25.02501","6500500","新莊區"
"242053","497-BY","2019/12/30 18:13:42","新北市新莊區民安西路406號","121.428865","25.0101033333333","6500500","新莊區"
"242002","441-UM","2019/12/30 18:13:26","新北市新莊區新莊路80號","121.45716","25.0365266666667","6500500","新莊區"
"242007","440-UM","2019/12/30 18:13:37","新北市新莊區自強街23巷1號","121.454453333333","25.04638","6500500","新莊區"
"242044","415-TV","2019/12/30 18:13:23","新北市新莊區雙鳳路119號","121.413433333333","25.02797","6500500","新莊區"
"242013","413-TV","2019/12/30 18:13:27","新北市新莊區中環路一段30號","121.442211666667","25.0272283333333","6500500","新莊區"
"242050","400-BY","2019/12/30 18:13:34","新北市新莊區民本街29巷22號","121.429075","25.0187916666667","6500500","新莊區"
"242015","132-UY","2019/12/30 18:13:44","新北市新莊區中平路132巷9號","121.446008333333","25.04675","6500500","新莊區"
"242039","135-UY","2019/12/30 18:13:27","新北市新莊區民安西路38巷2號","121.42717","25.020985","6500500","新莊區"
"242031","175-VK","2019/12/30 18:13:30","新北市新莊區新泰路274號","121.445885","25.0403383333333","6500500","新莊區"
"242056","176-VK","2019/12/30 18:13:39","新北市新莊區豐年街豐2巷27號","121.447571666667","25.0308816666667","6500500","新莊區"
"242021","KED-0687","2019/12/30 18:13:33","新北市新莊區建興街54號","121.449976666667","25.03853","6500500","新莊區"
"242019","346-TH","2019/12/30 18:13:31","新北市新莊區長青街37巷22弄1號","121.456191666667","25.0412683333333","6500500","新莊區"
"242036","348-TH","2019/12/30 18:13:33","新北市新莊區建福路48巷13號","121.425653333333","25.0273266666667","6500500","新莊區"
"242009","349-TH","2019/12/30 18:13:36","新北市新莊區昌平街41巷9號","121.454258333333","25.052255","6500500","新莊區"
"242034","350-TH","2019/12/30 18:13:28","新北市新莊區景德路221號","121.449051666667","25.0336466666667","6500500","新莊區"
"238015","755-BX","2019/12/30 18:13:29","新北市樹林區文化街79巷1號","121.416798333333","24.9891033333333","6500700","樹林區"
"238023","601-UM","2019/12/30 18:13:37","新北市樹林區中正路793號","121.409553333333","25.01609","6500700","樹林區"
"238020","571-TV","2019/12/30 18:13:39","新北市樹林區三龍街94巷36號","121.414366666667","25.01715","6500700","樹林區"
"238018","KEA-2217","2019/12/30 18:13:39","新北市樹林區博愛街115號","121.426475","24.990685","6500700","樹林區"
"238025","303-VK","2019/12/30 18:13:25","新北市樹林區保安街二段2-9號","121.416515","24.9999433333333","6500700","樹林區"
"238017","283-BY","2019/12/30 18:13:34","新北市樹林區中正路825號","121.409415","25.0172383333333","6500700","樹林區"
"238014","282-BY","2019/12/30 18:13:32","新北市樹林區潭興街103號","121.424833333333","24.99852","6500700","樹林區"
"238026","172-UY","2019/12/30 18:13:30","新北市樹林區佳園路一段80巷3-1號","121.392836666667","24.969475","6500700","樹林區"
"238016","169-UY","2019/12/30 18:13:40","新北市樹林區中山路二段34-2號","121.41699","24.9854333333333","6500700","樹林區"
"239007","AAC-297","2019/12/30 18:13:41","新北市鶯歌區鶯桃路35-4號","121.342946666667","24.9507216666667","6500800","鶯歌區"
"239006","891-R6","2019/12/30 18:13:24","新北市鶯歌區鶯桃路409號","121.332711666667","24.9641233333333","6500800","鶯歌區"
"239008","527-UM","2019/12/30 18:13:32","新北市鶯歌區朝陽街61巷1號","121.338428333333","24.9784066666667","6500800","鶯歌區"
"239005","526-UM","2019/12/30 18:13:35","新北市鶯歌區鶯桃路668巷73號","121.329925","24.97179","6500800","鶯歌區"
"239001","417-VK","2019/12/30 18:13:35","新北市鶯歌區中正三路176-1號","121.333443333333","24.9384216666667","6500800","鶯歌區"
"239003","360-BY","2019/12/30 18:13:39","新北市鶯歌區永吉街61號","121.33529","24.956765","6500800","鶯歌區"
"239002","359-BY","2019/12/30 18:13:31","新北市鶯歌區光明街98號","121.346213333333","24.9558416666667","6500800","鶯歌區"
"239004","193-VK","2019/12/30 18:13:32","新北市鶯歌區三鶯路5號","121.356771666667","24.940705","6500800","鶯歌區"
"221008","489-VK","2019/12/30 18:13:24","新北市汐止區康寧街315號","121.62702","25.0679416666667","6501100","汐止區"
"221036","130-UY","2019/12/30 18:13:40","新北市汐止區大同路三段116號","121.672046666667","25.0767583333333","6501100","汐止區"
"221015","131-UY","2019/12/30 18:13:31","新北市汐止區長江街329號","121.666718333333","25.0817383333333","6501100","汐止區"
"221010","269-BY","2019/12/30 18:13:26","新北市汐止區汐萬路二段275巷3弄1號","121.645283333333","25.0887433333333","6501100","汐止區"
"221012","278-VK","2019/12/30 18:13:33","新北市汐止區保一街35巷4號","121.674861666667","25.08038","6501100","汐止區"
"221023","279-VK","2019/12/30 18:13:34","新北市汐止區明峰街190號","121.628068333333","25.069885","6501100","汐止區"
"221032","280-BY","2019/12/30 18:13:35","新北市汐止區橫科路20號","121.618135","25.0511233333333","6501100","汐止區"
"221027","281-BY","2019/12/30 18:13:29","新北市汐止區和平街6巷1弄2號","121.663406666667","25.071195","6501100","汐止區"
"221029","298-VK","2019/12/30 18:13:36","新北市汐止區樟樹二路322號","121.641348333333","25.070045","6501100","汐止區"
"221021","299-VK","2019/12/30 18:13:24","新北市汐止區復興路24號","121.656066666667","25.0638316666667","6501100","汐止區"
"207003","KEE-1020","2019/12/30 18:13:35","新北市萬里區野柳里港東路167-1號","121.690188333333","25.2052333333333","6502800","萬里區"
"221035","622-UM","2019/12/30 18:13:29","新北市汐止區汐萬路一段115巷50號","121.652971666667","25.0702933333333","6501100","汐止區"
"221025","623-UM","2019/12/30 18:13:35","新北市汐止區秀峰路145號","121.660438333333","25.06218","6501100","汐止區"
"221038","646-BX","2019/12/30 18:13:33","新北市汐止區環山路3-2號","121.657925","25.0600816666667","6501100","汐止區"
"221033","647-BX","2019/12/30 18:13:28","新北市汐止區宜興街40巷22弄2號","121.622546666667","25.0411133333333","6501100","汐止區"
"221002","707-TV","2019/12/30 18:13:38","新北市汐止區福德一路213巷35號","121.635738333333","25.0648233333333","6501100","汐止區"
"221018","753-BX","2019/12/30 18:13:40","新北市汐止區忠孝東路347號","121.665485","25.0702966666667","6501100","汐止區"
"233001","KEA-2870","2019/12/30 18:13:37","新北市烏來區新烏路五段78號","121.547591666667","24.8724083333333","6502900","烏來區"
"224002","257-TC","2019/12/30 18:13:43","新北市瑞芳區三爪子坑路149巷22-18號","121.811561666667","25.1061266666667","6501200","瑞芳區"
"242046","281-VK","2019/12/30 18:13:31","新北市新莊區福營路227巷12號","121.430153333333","25.0292033333333","6500500","新莊區"
"242011","280-VK","2019/12/30 18:13:40","新北市新莊區中港路中慶巷27弄2號","121.449905","25.0537466666667","6500500","新莊區"
"220064","AAC-253","2019/12/30 18:13:40","新北市板橋區華東街1-10號","121.448376666667","24.9949316666667","6500100","板橋區"
"235061","KEA-2875","2019/12/30 18:13:38","新北市中和區民德路187號","121.468356666667","24.99929","6500300","中和區"
