"lineid","car","time","location","longitude","latitude","cityid","cityname"
"234046","148-BY","2019/12/30 18:29:36","新北市永和區福和路1號","121.52634","25.0099583333333","6500400","永和區"
"234081","298-R6","2019/12/30 18:29:33","新北市永和區環河東路二段92號","121.52437","25.0106433333333","6500400","永和區"
"234086","338-UY","2019/12/30 18:29:41","新北市永和區豫溪街217巷27號","121.524626666667","25.0103216666667","6500400","永和區"
"234007","KED-0605","2019/12/30 18:29:29","新北市永和區環河西路二段185號","121.502315","25.01118","6500400","永和區"
"234013","KEA-2591","2019/12/30 18:29:36","新北市永和區保安路2號","121.510813333333","25.017405","6500400","永和區"
"234026","9371-KE","2019/12/30 18:29:37","新北市永和區永貞路417巷11號","121.506713333333","25.0091466666667","6500400","永和區"
"234011","9373-KE","2019/12/30 18:29:24","新北市永和區保安路73號","121.508786666667","25.0150433333333","6500400","永和區"
"249005","172-UM","2019/12/30 18:29:27","新北市八里區中華路三段145巷9號","121.392393333333","25.1330383333333","6502300","八里區"
"249001","173-UM","2019/12/30 18:29:34","新北市八里區龍米路一段136號","121.453","25.125505","6502300","八里區"
"249004","303-UY","2019/12/30 18:29:22","新北市八里區忠孝路71-1號","121.426698333333","25.1603216666667","6502300","八里區"
"249002","305-UY","2019/12/30 18:29:40","新北市八里區龍形三街15巷2號","121.449628333333","25.131545","6502300","八里區"
"249003","593-UM","2019/12/30 18:29:28","新北市八里區廈竹圍20號","121.397621666667","25.1540133333333","6502300","八里區"
"248014","025-BX","2019/12/30 18:29:42","新北市五股區自強路93號","121.432411666667","25.071455","6501500","五股區"
"248016","026-BX","2019/12/30 18:29:40","新北市五股區凌雲路一段83巷10弄17號","121.4499","25.1012616666667","6501500","五股區"
"248008","KED-0815","2019/12/30 18:29:26","新北市五股區中興路二段78-5號","121.46136","25.07859","6501500","五股區"
"248018","KED-0813","2019/12/30 18:29:33","新北市五股區御史路291號","121.418926666667","25.107325","6501500","五股區"
"248012","247-BX","2019/12/30 18:29:37","新北市五股區御成路28號","121.441738333333","25.091785","6501500","五股區"
"248010","272-BY","2019/12/30 18:29:23","新北市五股區水碓路3-1號","121.433758333333","25.0722","6501500","五股區"
"248004","677-BX","2019/12/30 18:29:43","新北市五股區工商路140-2號","121.434096666667","25.08699","6501500","五股區"
"248002","678-BX","2019/12/30 18:29:29","新北市五股區西雲路116-1號","121.444506666667","25.0934333333333","6501500","五股區"
"234077","969-R7","2019/12/30 18:29:31","新北市永和區福和路1號","121.525783333333","25.0095583333333","6500400","永和區"
"232011","375-UM","2019/12/30 18:29:30","新北市坪林區坪雙路一段41號","121.711695","24.9424483333333","6502000","坪林區"
"244007","080-UY","2019/12/30 18:29:36","新北市林口區後湖29-2號","121.387296666667","25.0994983333333","6501700","林口區"
"244019","402-UM","2019/12/30 18:29:29","新北市林口區忠孝路625號","121.379636666667","25.0691366666667","6501700","林口區"
"244013","KEA-2802","2019/12/30 18:29:37","新北市林口區文化一路一段135巷12號","121.373356666667","25.07228","6501700","林口區"
"244023","483-VK","2019/12/30 18:29:39","新北市林口區仁愛路二段60號","121.384441666667","25.0757416666667","6501700","林口區"
"244017","485-VK","2019/12/30 18:29:39","新北市林口區文化二路一段106號","121.367228333333","25.070385","6501700","林口區"
"244009","656-BX","2019/12/30 18:29:33","新北市林口區文化二路二段369號","121.380771666667","25.0869533333333","6501700","林口區"
"244011","701-TV","2019/12/30 18:29:31","新北市林口區興林路17巷10號","121.390553333333","25.0769833333333","6501700","林口區"
"244025","837-TS","2019/12/30 18:29:34","新北市林口區南勢六街71-1號","121.355428333333","25.0720233333333","6501700","林口區"
"244021","838-TS","2019/12/30 18:29:34","新北市林口區自強二街20號","121.397915","25.0780533333333","6501700","林口區"
"208001","267-VK","2019/12/30 18:29:29","新北市金山區文化一路10號","121.636801666667","25.22458","6502700","金山區"
"222003","KEE-1106","2019/12/30 18:29:34","新北市深坑區烏月路141號","121.631008333333","25.0053916666667","6501800","深坑區"
"222002","659-BX","2019/12/30 18:29:34","新北市深坑區雲鄉路141號","121.622268333333","24.9982216666667","6501800","深坑區"
"231061","002-UM","2019/12/30 18:29:29","新北市新店區安華路28-1號","121.519803333333","24.960855","6500600","新店區"
"231055","0291-UT","2019/12/30 18:29:30","新北市新店區中正路154巷12號","121.54202","24.9722233333333","6500600","新店區"
"231058","0293-UT","2019/12/30 18:29:25","新北市新店區環河路19巷13號","121.537583333333","24.9604016666667","6500600","新店區"
"231060","106-UY","2019/12/30 18:29:39","新北市新店區安華路28-1號","121.519685","24.9607616666667","6500600","新店區"
"231051","107-UY","2019/12/30 18:29:29","新北市新店區安一路一段1-1號","121.519511666667","24.9612516666667","6500600","新店區"
"231065","110-UY","2019/12/30 18:29:28","新北市新店區安一路一段1-1號","121.519345","24.961275","6500600","新店區"
"231052","189-VK","2019/12/30 18:29:33","新北市新店區北宜路一段123-1號","121.54044","24.95348","6500600","新店區"
"221031","KEA-2785","2019/12/30 18:29:40","新北市汐止區新台五路一段35號","121.636486666667","25.0557266666667","6501100","汐止區"
"231062","256-BX","2019/12/30 18:29:23","新北市新店區安一路一段1-1號","121.519666666667","24.9611066666667","6500600","新店區"
"231054","260-TV","2019/12/30 18:29:39","新北市新店區安一路一段1-1號","121.519333333333","24.9611466666667","6500600","新店區"
"231042","268-BY","2019/12/30 18:29:30","新北市新店區安一路一段1-1號","121.519775","24.9613616666667","6500600","新店區"
"231064","278-BY","2019/12/30 18:29:24","新北市新店區安華路28-1號","121.51981","24.96104","6500600","新店區"
"231050","AAD-862","2019/12/30 18:29:30","新北市新店區安一路一段1-1號","121.519908333333","24.9611816666667","6500600","新店區"
"231056","4715-K9","2019/12/30 18:29:34","新北市新店區二十張路139號","121.535566666667","24.97908","6500600","新店區"
"231063","616-UM","2019/12/30 18:29:29","新北市新店區安華路1-1號","121.51946","24.9604366666667","6500600","新店區"
"231040","617-UM","2019/12/30 18:29:35","新北市新店區安華路28-1號","121.519283333333","24.9607733333333","6500600","新店區"
"231041","619-UM","2019/12/30 18:29:26","新北市新店區安華路28-1號","121.51977","24.9609233333333","6500600","新店區"
"231047","KED-0819","2019/12/30 18:29:26","新北市新店區安一路一段1-1號","121.519913333333","24.961135","6500600","新店區"
"231046","719-UM","2019/12/30 18:29:30","新北市新店區直潭七街60號","121.532273333333","24.93976","6500600","新店區"
"231057","720-UM","2019/12/30 18:05:39","新北市新店區安一路一段1-1號","121.519235","24.9614066666667","6500600","新店區"
"231043","899-TW","2019/12/30 18:29:31","新北市新店區安華路28-1號","121.519328333333","24.9609566666667","6500600","新店區"
"231066","AKT-0513","2019/12/30 18:29:39","新北市新店區安華路28-1號","121.519768333333","24.9605433333333","6500600","新店區"
"241035","KEA-2210","2019/12/30 18:29:41","新北市三重區重新路四段121號","121.484761666667","25.0520866666667","6500200","三重區"
"235064","005-UY","2019/12/30 18:29:29","新北市中和區連城路136號","121.495776666667","24.99899","6500300","中和區"
"235063","006-UY","2019/12/30 18:29:33","新北市中和區連城路403號","121.486158333333","24.9961183333333","6500300","中和區"
"235072","KEE-1103","2019/12/30 18:29:40","新北市中和區連城路12號","121.498975","25.00225","6500300","中和區"
"235056","096-UM","2019/12/30 18:29:23","新北市中和區員山路611巷1號","121.47785","25.0112816666667","6500300","中和區"
"235039","097-UM","2019/12/30 18:29:31","新北市中和區安平路196號","121.513386666667","24.9993783333333","6500300","中和區"
"235065","098-UM","2019/12/30 18:29:23","新北市中和區中山路二段64巷12號","121.503546666667","25.0054016666667","6500300","中和區"
"235040","150-BY","2019/12/30 18:29:29","新北市中和區安平路59號","121.509575","24.9952116666667","6500300","中和區"
"235058","151-BY","2019/12/30 18:29:36","新北市中和區圓通路437-3號","121.48552","24.9869316666667","6500300","中和區"
"235055","183-VK","2019/12/30 18:29:39","新北市中和區民生街72號","121.468571666667","25.0048516666667","6500300","中和區"
"235038","185-VK","2019/12/30 18:29:40","新北市中和區自強路50號","121.520118333333","24.99489","6500300","中和區"
"235067","255-BX","2019/12/30 18:29:33","新北市中和區新生街21-3號","121.483241666667","25.00405","6500300","中和區"
"235043","352-BY","2019/12/30 18:29:43","新北市中和區景平路253號","121.5088","24.9927833333333","6500300","中和區"
"235042","KEA-2878","2019/12/30 18:29:25","新北市中和區秀朗路三段142號","121.524386666667","24.9913183333333","6500300","中和區"
"235050","4979-A6","2019/12/30 18:29:40","新北市中和區景新街329號","121.511778333333","24.9913583333333","6500300","中和區"
"235069","4980-A6","2019/12/30 18:29:27","新北市中和區連城路129號","121.496171666667","24.9990316666667","6500300","中和區"
"235070","558-UM","2019/12/30 18:29:39","新北市中和區景平路586號","121.50121","24.9959583333333","6500300","中和區"
"235045","565-BX","2019/12/30 18:29:38","新北市中和區復興路10號","121.505978333333","24.989745","6500300","中和區"
"235060","KED-0823","2019/12/30 18:29:38","新北市中和區中山路三段37號","121.478198333333","25.0055733333333","6500300","中和區"
"235054","640-BX","2019/12/30 18:29:24","新北市中和區民享街86巷15號","121.47372","25.0007166666667","6500300","中和區"
"235047","732-UM","2019/12/30 18:29:30","新北市中和區南山路244號","121.507533333333","24.9892583333333","6500300","中和區"
"235046","733-UM","2019/12/30 18:29:33","新北市中和區捷運路52-6號","121.507618333333","24.990505","6500300","中和區"
"235062","800-TS","2019/12/30 18:29:40","新北市中和區景平路752號","121.496545","25.0045266666667","6500300","中和區"
"235057","801-TS","2019/12/30 18:29:32","新北市中和區民安街1號","121.480913333333","25.0009983333333","6500300","中和區"
"235041","802-TS","2019/12/30 18:29:28","新北市中和區景安路66號","121.505878333333","24.9967216666667","6500300","中和區"
"235052","805-TS","2019/12/30 18:29:30","新北市中和區興南路二段116號","121.504751666667","24.9839133333333","6500300","中和區"
"235048","896-TW","2019/12/30 18:29:35","新北市中和區中正路79號","121.500785","24.9933616666667","6500300","中和區"
"235053","900-TW","2019/12/30 18:29:25","新北市土城區延壽路55巷1號","121.46975","24.99217","6500300","中和區"
"235051","157-BY","2019/12/30 18:29:36","新北市中和區興南路二段128巷7弄1-2號","121.503475","24.9842416666667","6500300","中和區"
"235037","AAC-213","2019/12/30 18:29:24","新北市中和區景新街383巷60號","121.51467","24.990495","6500300","中和區"
"235059","AAC-215","2019/12/30 18:29:44","新北市中和區員山路36巷16-3號","121.484998333333","24.99125","6500300","中和區"
"207004","KEE-1107","2019/12/30 18:29:31","新北市萬里區中幅里中福路48號","121.682576666667","25.173615","6502800","萬里區"
"220065","072-UY","2019/12/30 18:29:27","新北市板橋區南雅南路二段82號","121.453701666667","25.0016683333333","6500100","板橋區"
"220086","073-UY","2019/12/30 18:29:31","新北市板橋區華東街1-10號","121.448241666667","24.9950366666667","6500100","板橋區"
"220069","AAD-861","2019/12/30 18:29:34","新北市板橋區華東街1-10號","121.448371666667","24.995075","6500100","板橋區"
"226004","312-R5","2019/12/30 18:29:04","新北市平溪區靜安路二段273號","121.728225","25.022765","6502400","平溪區"
"235049","251-BX","2019/12/30 18:29:34","新北市中和區景安路120巷3號","121.505165","24.9947766666667","6500300","中和區"
"228003","097-TW","2019/12/30 18:29:41","新北市貢寮區和美里和美街37號","121.912335","25.0869933333333","6502600","貢寮區"
"228001","212-TW","2019/12/30 18:29:41","新北市貢寮區仁理村仁義街6號","121.92372","25.0520716666667","6502600","貢寮區"
"228002","663-BX","2019/12/30 18:29:39","新北市貢寮區福連里福連街1號","121.988321666667","25.0169783333333","6502600","貢寮區"
"224010","AGQ-8101","2019/12/30 18:29:33","新北市瑞芳區崙頂路44號","121.845568333333","25.1065266666667","6501200","瑞芳區"
"224006","676-BX","2019/12/30 18:29:40","新北市瑞芳區明燈路二段65號","121.810733333333","25.1081316666667","6501200","瑞芳區"
"224007","285-BY","2019/12/30 18:29:37","新北市瑞芳區大埔路國宅新村60號","121.764831666667","25.1002966666667","6501200","瑞芳區"
"224009","275-VK","2019/12/30 18:29:34","新北市瑞芳區新山路84號","121.851455","25.10917","6501200","瑞芳區"
"224008","273-VK","2019/12/30 18:29:40","新北市瑞芳區岳王路1巷48號","121.80599","25.1105216666667","6501200","瑞芳區"
"224005","271-BY","2019/12/30 18:29:39","新北市瑞芳區台電新村121號","121.811251666667","25.127535","6501200","瑞芳區"
"227002","642-TC","2019/12/30 18:29:26","新北市雙溪區魚行里坤溪22號","121.870373333333","25.029245","6502500","雙溪區"
"227001","400-TW","2019/12/30 18:29:27","新北市雙溪區牡丹里牡丹137-1號","121.851206666667","25.0589716666667","6502500","雙溪區"
"253005","032-BX","2019/12/30 18:29:35","新北市石門區老崩山10-6號","121.552648333333","25.290985","6502200","石門區"
"253006","295-VK","2019/12/30 18:29:23","新北市石門區公地16號","121.545716666667","25.29024","6502200","石門區"
"222001","KEA-2212","2019/12/30 18:29:25","新北市深坑區北深路一段185號","121.631671666667","25.0103116666667","6501800","深坑區"
"208002","KEA-2872","2019/12/30 18:29:37","新北市金山區民生路45號","121.642193333333","25.22108","6502700","金山區"
"208003","665-BX","2019/12/30 18:29:24","新北市金山區中山路190巷2號","121.637921666667","25.221415","6502700","金山區"
"251004","009-UM","2019/12/30 18:29:32","新北市淡水區民族路31巷2號","121.46243","25.136225","6501000","淡水區"
"251016","180-VK","2019/12/30 18:29:24","新北市淡水區下圭柔山114號","121.445808333333","25.21115","6501000","淡水區"
"251008","181-VK","2019/12/30 18:29:32","新北市淡水區淡金路8-1號","121.457153333333","25.1598033333333","6501000","淡水區"
"251013","182-VK","2019/12/30 18:29:32","新北市淡水區椿子林19-5號","121.481118333333","25.2029766666667","6501000","淡水區"
"251010","413-VK","2019/12/30 18:29:36","新北市淡水區沙崙路181巷1號","121.424096666667","25.1842416666667","6501000","淡水區"
"251012","441-VK","2019/12/30 18:29:28","新北市淡水區北新路一段268號","121.462436666667","25.18224","6501000","淡水區"
"251001","559-UM","2019/12/30 18:29:38","新北市淡水區自強路313號","121.462851666667","25.132085","6501000","淡水區"
"251006","561-UM","2019/12/30 18:29:37","新北市淡水區新民街21號","121.439351666667","25.1753333333333","6501000","淡水區"
"251014","577-R6","2019/12/30 18:29:29","新北市淡水區南平28號","121.492663333333","25.2157166666667","6501000","淡水區"
"251011","650-BX","2019/12/30 18:29:44","新北市淡水區坪頂路55號","121.45842","25.1627016666667","6501000","淡水區"
"251002","672-BX","2019/12/30 18:29:23","新北市淡水區竿蓁二街61-2號","121.454916666667","25.1633066666667","6501000","淡水區"
"251003","673-BX","2019/12/30 18:29:35","新北市淡水區北新路169巷14號","121.44975","25.1802033333333","6501000","淡水區"
"251015","178-VK","2019/12/30 18:29:25","新北市淡水區興福寮88巷216號","121.486025","25.1665816666667","6501000","淡水區"
"252003","249-BX","2019/12/30 18:29:25","新北市三芝區後厝里北勢子41-2號","121.47194","25.2526066666667","6502100","三芝區"
"252001","292-VK","2019/12/30 18:29:24","新北市三芝區中興街二段2號","121.498376666667","25.2566383333333","6502100","三芝區"
"237004","KEA-2597","2019/12/30 18:29:34","新北市三峽區五寮81-4號","121.359586666667","24.8583666666667","6500900","三峽區"
"237007","153-BY","2019/12/30 18:29:27","新北市三峽區中正路三段72號","121.35649","24.9039466666667","6500900","三峽區"
"237009","210-TH","2019/12/30 18:26:44","新北市三峽區民族街145號","121.36906","24.928175","6500900","三峽區"
"237013","252-BX","2019/12/30 18:29:24","新北市三峽區安溪路309巷11號","121.37352","24.93326","6500900","三峽區"
"237012","275-BY","2019/12/30 18:29:41","新北市三峽區三樹路128-1號","121.378483333333","24.9396016666667","6500900","三峽區"
"237008","302-VK","2019/12/30 18:29:31","新北市三峽區白雞90號","121.402665","24.9083683333333","6500900","三峽區"
"237006","5530-G3","2019/12/30 18:29:36","新北市三峽區溪東路218巷32號","121.407231666667","24.9300816666667","6500900","三峽區"
"237014","433-BY","2019/12/30 18:29:44","新北市三峽區文化路41號","121.372423333333","24.9361033333333","6500900","三峽區"
"237011","KEA-2596","2019/12/30 18:29:26","新北市三峽區溪東路218巷24弄2號","121.406856666667","24.9304333333333","6500900","三峽區"
"237015","649-BX","2019/12/30 18:29:43","新北市三峽區竹崙路109號","121.433428333333","24.913715","6500900","三峽區"
"237010","706-TV","2019/12/30 18:29:28","新北市三峽區中山路240號","121.362418333333","24.93741","6500900","三峽區"
"237005","AKY-6261","2019/12/30 18:29:39","新北市三峽區民族街5巷26號","121.369756666667","24.9320616666667","6500900","三峽區"
"236042","KED-0685","2019/12/30 18:29:33","新北市土城區裕民路67巷4弄2號","121.449785","24.9879316666667","6501300","土城區"
"236078","166-UM","2019/12/30 18:29:26","新北市土城區中央路四段45-1號","121.422355","24.9618233333333","6501300","土城區"
"236026","269-VK","2019/12/30 18:29:40","新北市土城區南天母路137-2號","121.447711666667","24.9540166666667","6501300","土城區"
"236014","270-VK","2019/12/30 18:29:41","新北市土城區青雲路39巷7號","121.460328333333","24.9874033333333","6501300","土城區"
"236039","271-VK","2019/12/30 18:29:44","新北市土城區明德路一段301號","121.459853333333","24.9772133333333","6501300","土城區"
"236069","KEA-2877","2019/12/30 18:29:29","新北市土城區永豐路255巷21弄2-1號","121.475106666667","24.973695","6501300","土城區"
"252002","KED-0821","2019/12/30 18:29:31","新北市三芝區中山路二段39號","121.502938333333","25.2551133333333","6502100","三芝區"
"236020","401-BY","2019/12/30 18:29:24","新北市土城區永豐路202巷7-1號","121.466266666667","24.9832216666667","6501300","土城區"
"236030","752-BX","2019/12/30 18:29:33","新北市土城區順風路6號","121.43998","24.9763816666667","6501300","土城區"
"236059","912-UM","2019/12/30 18:29:26","新北市土城區中央路四段129號","121.416161666667","24.9575083333333","6501300","土城區"
"236048","913-UM","2019/12/30 18:29:34","新北市土城區青雲路364號","121.458716666667","24.9739116666667","6501300","土城區"
"236063","915-UM","2019/12/30 18:29:26","新北市土城區延壽路77巷6弄7號","121.468413333333","24.9928733333333","6501300","土城區"
"236055","AAC-216","2019/12/30 18:29:41","新北市土城區福祥街101巷1號","121.440971666667","24.9817283333333","6501300","土城區"
"242042","AAC-296","2019/12/30 18:29:29","新北市新莊區天祥街71巷14號","121.415571666667","25.028615","6500500","新莊區"
"242060","986-R7","2019/12/30 18:29:19","新北市新莊區新樹路209號","121.435686666667","25.0235433333333","6500500","新莊區"
"242004","751-BX","2019/12/30 18:29:29","新北市泰山區磚雅厝3號","121.4421","25.0416433333333","6500500","新莊區"
"242025","705-TV","2019/12/30 18:29:30","新北市新莊區五工一路96號","121.460573333333","25.06789","6500500","新莊區"
"242058","612-BX","2019/12/30 18:29:34","新北市新莊區新北大道七段319號","121.41215","25.0281816666667","6500500","新莊區"
"242053","497-BY","2019/12/30 18:29:22","新北市新莊區樹新路120巷40號","121.430045","24.9960333333333","6500500","新莊區"
"242002","441-UM","2019/12/30 18:29:26","新北市新莊區瓊林路13-8號","121.448258333333","25.0301283333333","6500500","新莊區"
"242044","415-TV","2019/12/30 18:29:24","新北市新莊區天泉二街11號","121.414936666667","25.02494","6500500","新莊區"
"242050","400-BY","2019/12/30 18:29:34","新北市新莊區民安西路54號","121.427366666667","25.02051","6500500","新莊區"
"242056","176-VK","2019/12/30 18:29:23","新北市新莊區瓊泰路77巷16號","121.44266","25.0289833333333","6500500","新莊區"
"242021","KED-0687","2019/12/30 18:29:33","新北市新莊區中正路243號","121.45032","25.0355633333333","6500500","新莊區"
"242009","349-TH","2019/12/30 18:29:36","新北市新莊區中華路二段9號","121.453655","25.0454633333333","6500500","新莊區"
"238023","601-UM","2019/12/30 18:29:37","新北市樹林區三福街114號","121.406346666667","25.016185","6500700","樹林區"
"238019","599-UM","2019/12/30 18:29:22","新北市樹林區國凱街140巷13號","121.424138333333","24.9801216666667","6500700","樹林區"
"238020","571-TV","2019/12/30 18:29:39","新北市樹林區中正路642巷19號","121.411523333333","25.0175666666667","6500700","樹林區"
"238024","5061-A6","2019/12/30 18:29:35","新北市樹林區育英街2巷24號","121.423261666667","24.989765","6500700","樹林區"
"238018","KEA-2217","2019/12/30 18:29:39","新北市樹林區樹新路89號","121.427881666667","24.9953516666667","6500700","樹林區"
"238017","283-BY","2019/12/30 18:29:34","新北市樹林區保安街二段337巷19號","121.411136666667","25.008205","6500700","樹林區"
"238026","172-UY","2019/12/30 18:29:30","新北市樹林區八德街828-16號","121.392556666667","24.9691833333333","6500700","樹林區"
"238016","169-UY","2019/12/30 18:29:40","新北市樹林區中山路一段412號","121.417386666667","24.9851616666667","6500700","樹林區"
"239007","AAC-297","2019/12/30 18:29:21","新北市鶯歌區尖山埔路75號","121.34781","24.95094","6500800","鶯歌區"
"239006","891-R6","2019/12/30 18:29:44","新北市鶯歌區德昌街17號","121.333476666667","24.960055","6500800","鶯歌區"
"239008","527-UM","2019/12/30 18:29:32","新北市鶯歌區朝陽街4號","121.336265","24.976595","6500800","鶯歌區"
"239005","526-UM","2019/12/30 18:29:35","新北市鶯歌區鶯桃路668巷73號","121.329911666667","24.971775","6500800","鶯歌區"
"239001","417-VK","2019/12/30 18:29:35","新北市鶯歌區中正三路5巷16號","121.339925","24.9423416666667","6500800","鶯歌區"
"239003","360-BY","2019/12/30 18:29:27","新北市鶯歌區福安街28號","121.334568333333","24.964005","6500800","鶯歌區"
"239002","359-BY","2019/12/30 18:29:31","新北市鶯歌區中山路329巷20號","121.344358333333","24.9565416666667","6500800","鶯歌區"
"239004","193-VK","2019/12/30 18:29:32","新北市鶯歌區文化路324巷1-35號","121.35403","24.944005","6500800","鶯歌區"
"221036","130-UY","2019/12/30 18:29:40","新北市汐止區大同路三段143號","121.669336666667","25.07772","6501100","汐止區"
"221015","131-UY","2019/12/30 18:29:31","新北市汐止區鄉長路二段40巷1號","121.66724","25.0837233333333","6501100","汐止區"
"221010","269-BY","2019/12/30 18:29:26","新北市汐止區汐萬路35號","121.644411666667","25.0911966666667","6501100","汐止區"
"221012","278-VK","2019/12/30 18:29:41","新北市汐止區保長路35巷15弄5號","121.673125","25.080245","6501100","汐止區"
"221023","279-VK","2019/12/30 18:29:34","新北市汐止區康寧街474巷7-2號","121.632238333333","25.0678933333333","6501100","汐止區"
"221032","280-BY","2019/12/30 18:29:35","新北市汐止區橫科路73巷1號","121.619261666667","25.050575","6501100","汐止區"
"221027","281-BY","2019/12/30 18:29:29","新北市汐止區和平街63號","121.661675","25.070675","6501100","汐止區"
"221029","298-VK","2019/12/30 18:29:36","新北市汐止區樟樹二路351-1號","121.643461666667","25.0738416666667","6501100","汐止區"
"221021","299-VK","2019/12/30 18:29:44","新北市汐止區大同路二段184巷6號","121.653066666667","25.06369","6501100","汐止區"
"207003","KEE-1020","2019/12/30 18:29:35","新北市萬里區野柳里港東路6號","121.686446666667","25.20307","6502800","萬里區"
"221035","622-UM","2019/12/30 18:29:29","新北市汐止區大同路二段187巷11號","121.652126666667","25.0648233333333","6501100","汐止區"
"221025","623-UM","2019/12/30 18:29:35","新北市汐止區秀峰路143號","121.660433333333","25.0622966666667","6501100","汐止區"
"221038","646-BX","2019/12/30 18:29:33","新北市汐止區忠孝東路295號","121.664123333333","25.06894","6501100","汐止區"
"221033","647-BX","2019/12/30 18:29:28","新北市汐止區宜興街57號","121.622881666667","25.04266","6501100","汐止區"
"221002","707-TV","2019/12/30 18:29:37","新北市汐止區福德一路181號","121.63581","25.065925","6501100","汐止區"
"221018","753-BX","2019/12/30 18:29:40","新北市汐止區茄苳路120巷2號","121.667785","25.070005","6501100","汐止區"
"233001","KEA-2870","2019/12/30 18:29:37","新北市新店區新烏路三段88-1號","121.553411666667","24.9037083333333","6502900","烏來區"
"220080","200-UY","2019/12/30 18:29:29","新北市板橋區華東街1-9號","121.448106666667","24.994875","6500100","板橋區"
"220082","610-BX","2019/12/30 18:29:25","新北市板橋區華東街1-9號","121.448213333333","24.9949183333333","6500100","板橋區"
"224002","257-TC","2019/12/30 18:29:35","新北市瑞芳區正貿新村9號","121.812896666667","25.10593","6501200","瑞芳區"
"220056","276-BY","2019/12/30 18:29:39","新北市板橋區四川路二段130巷23號","121.44947","24.99419","6500100","板橋區"
"220072","277-BY","2019/12/30 18:29:33","新北市板橋區華東街1-10號","121.448255","24.9950933333333","6500100","板橋區"
"220071","283-VK","2019/12/30 18:29:44","新北市板橋區華東街1-9號","121.448111666667","24.9948683333333","6500100","板橋區"
"220083","286-VK","2019/12/30 18:29:40","新北市板橋區華東街1-10號","121.448366666667","24.9950733333333","6500100","板橋區"
"220081","287-VK","2019/12/30 18:29:36","新北市板橋區華東街1-10號","121.448241666667","24.995","6500100","板橋區"
"220084","296-UM","2019/12/30 18:29:25","新北市板橋區華東街1-9號","121.448196666667","24.9948883333333","6500100","板橋區"
"242046","281-VK","2019/12/30 18:29:31","新北市新莊區福營路334號","121.421706666667","25.0267183333333","6500500","新莊區"
"242011","280-VK","2019/12/30 18:29:25","新北市新莊區中榮街17號","121.450761666667","25.0528233333333","6500500","新莊區"
"220063","609-BX","2019/12/30 18:29:42","新北市板橋區民生路二段161巷1號","121.469831666667","25.0200633333333","6500100","板橋區"
"220057","686-BX","2019/12/30 18:29:31","新北市板橋區四川路二段130巷25弄6號","121.449126666667","24.994455","6500100","板橋區"
"220077","687-BX","2019/12/30 18:29:38","新北市板橋區華東街1-10號","121.448283333333","24.994945","6500100","板橋區"
"220055","827-TW","2019/12/30 18:29:41","新北市板橋區四川路二段140巷2號","121.449845","24.9930466666667","6500100","板橋區"
"220074","895-R6","2019/12/30 18:29:29","新北市板橋區華東街1-9號","121.448191666667","24.9950133333333","6500100","板橋區"
"220073","985-R7","2019/12/30 18:29:28","新北市板橋區四川路二段140巷12號","121.449523333333","24.993205","6500100","板橋區"
"220097","AAC-210","2019/12/30 18:29:25","新北市板橋區民生路二段161巷9號","121.470271666667","25.0196333333333","6500100","板橋區"
"220064","AAC-253","2019/12/30 18:29:40","新北市板橋區南雅南路二段4巷16號","121.453676666667","25.0036716666667","6500100","板橋區"
"235061","KEA-2875","2019/12/30 18:29:38","新北市中和區民享街95號","121.474791666667","25.000365","6500300","中和區"
"235068","KEA-2876","2019/12/30 18:29:29","新北市中和區中正路271-5號","121.495751666667","24.9932083333333","6500300","中和區"
