"lineid","car","time","location","longitude","latitude","cityid","cityname"
"234046","148-BY","2019/12/30 18:59:36","新北市永和區秀朗路二段176巷25號","121.525938333333","25.0003266666667","6500400","永和區"
"234081","298-R6","2019/12/30 18:59:33","新北市永和區國中路208號","121.522065","25.0058233333333","6500400","永和區"
"234038","336-UY","2019/12/30 18:59:38","新北市中和區秀朗路三段38號","121.526511666667","24.9960016666667","6500400","永和區"
"234064","337-UY","2019/12/30 18:59:41","新北市永和區秀朗路一段138號","121.517903333333","25.00337","6500400","永和區"
"234086","338-UY","2019/12/30 18:59:21","新北市永和區中正路332號","121.517551666667","24.9998916666667","6500400","永和區"
"234070","552-UM","2019/12/30 18:59:32","新北市永和區中興街84巷8號","121.518473333333","25.0116683333333","6500400","永和區"
"234017","745-BX","2019/12/30 18:59:23","新北市永和區永和路二段310號","121.51616","25.0160466666667","6500400","永和區"
"234030","746-BX","2019/12/30 18:59:29","新北市永和區秀朗路二段275號","121.526183333333","24.9985316666667","6500400","永和區"
"234007","KED-0605","2019/12/30 18:59:29","新北市永和區中山路一段30號","121.51365","25.010515","6500400","永和區"
"234013","KEA-2591","2019/12/30 18:59:36","新北市永和區信義路17巷9弄1號","121.513825","25.011605","6500400","永和區"
"234061","AAD-866","2019/12/30 18:59:39","新北市永和區福和路309巷1號","121.516431666667","25.0070366666667","6500400","永和區"
"234042","862-TW","2019/12/30 18:59:27","新北市永和區永貞路306號","121.511863333333","25.00486","6500400","永和區"
"234050","863-TW","2019/12/30 18:59:22","新北市永和區文化路147號","121.510746666667","25.016195","6500400","永和區"
"234026","9371-KE","2019/12/30 18:59:37","新北市永和區安樂路459號","121.514338333333","25.00506","6500400","永和區"
"234011","9373-KE","2019/12/30 18:59:44","新北市永和區仁愛路141巷3弄9號","121.512003333333","25.0125133333333","6500400","永和區"
"249005","172-UM","2019/12/30 18:59:27","新北市八里區長道坑2號","121.393788333333","25.1243483333333","6502300","八里區"
"249001","173-UM","2019/12/30 18:59:34","新北市八里區龍米路二段228-1號","121.432731666667","25.158435","6502300","八里區"
"249003","593-UM","2019/12/30 18:35:09","新北市八里區博物館路10-1號","121.415076666667","25.163945","6502300","八里區"
"248016","026-BX","2019/12/30 18:59:40","新北市五股區成泰路三段577巷19號","121.451556666667","25.1027883333333","6501500","五股區"
"248006","077-UY","2019/12/30 18:59:27","新北市五股區四維路173號","121.467933333333","25.075045","6501500","五股區"
"248008","KED-0815","2019/12/30 18:59:26","新北市五股區中興路一段128巷30號","121.465771666667","25.0751233333333","6501500","五股區"
"248018","KED-0813","2019/12/30 18:59:33","新北市五股區民義路二段22巷6-2號","121.420746666667","25.09719","6501500","五股區"
"248010","272-BY","2019/12/30 18:59:43","新北市五股區水碓七路16號","121.428491666667","25.0714266666667","6501500","五股區"
"248004","677-BX","2019/12/30 18:59:23","新北市五股區民義路二段42-3號","121.415826666667","25.0998716666667","6501500","五股區"
"248002","678-BX","2019/12/30 18:59:41","新北市五股區凌雲路一段138號","121.44949","25.1022033333333","6501500","五股區"
"234023","9380-KE","2019/12/30 18:59:23","新北市永和區竹林路75巷45號","121.520926666667","25.0142983333333","6500400","永和區"
"234077","969-R7","2019/12/30 18:59:31","新北市永和區智光街22號","121.517951666667","24.99922","6500400","永和區"
"234074","AAC-211","2019/12/30 18:59:30","新北市永和區福和路1號","121.526641666667","25.0098716666667","6500400","永和區"
"234067","AAC-212","2019/12/30 18:59:37","新北市永和區自由街60號","121.513571666667","25.0059383333333","6500400","永和區"
"234003","AAC-295","2019/12/30 18:59:43","新北市永和區和平街44號","121.512883333333","25.0099733333333","6500400","永和區"
"232011","375-UM","2019/12/30 18:59:30","新北市坪林區水聳淒坑19-1號","121.712786666667","24.935095","6502000","坪林區"
"244019","402-UM","2019/12/30 18:59:29","新北市林口區文化一路一段166號","121.376811666667","25.0737683333333","6501700","林口區"
"244013","KEA-2802","2019/12/30 18:59:37","新北市林口區文化一路一段126號","121.375626666667","25.0724116666667","6501700","林口區"
"244023","483-VK","2019/12/30 18:59:39","新北市林口區民權路189號","121.375038333333","25.08489","6501700","林口區"
"244017","485-VK","2019/12/30 18:59:39","新北市林口區公園路127號","121.369193333333","25.07015","6501700","林口區"
"244009","656-BX","2019/12/30 18:59:43","新北市林口區林口路61號","121.389931666667","25.079565","6501700","林口區"
"244011","701-TV","2019/12/30 18:59:31","新北市林口區中正路315號","121.388808333333","25.077625","6501700","林口區"
"244025","837-TS","2019/12/30 18:59:34","新北市林口區南勢一街16號","121.360766666667","25.0753266666667","6501700","林口區"
"208001","267-VK","2019/12/30 18:59:40","新北市金山區金包里街2號","121.640725","25.2205583333333","6502700","金山區"
"243012","AAD-798","2019/12/30 18:59:34","新北市泰山區福興三街13號","121.43445","25.0577866666667","6501600","泰山區"
"243010","297-R6","2019/12/30 18:59:28","新北市泰山區辭修路24號","121.429036666667","25.0581433333333","6501600","泰山區"
"243014","KEA-2801","2019/12/30 18:59:23","新北市泰山區黎明路23號","121.420905","25.062435","6501600","泰山區"
"243016","421-VK","2019/12/30 18:59:37","新北市泰山區明志路二段135號","121.427633333333","25.0508233333333","6501600","泰山區"
"243009","KEA-2215","2019/12/30 18:59:32","新北市泰山區泰林路二段362號","121.428673333333","25.0635983333333","6501600","泰山區"
"243011","KEA-2216","2019/12/30 18:59:32","新北市泰山區明志路230號","121.427056666667","25.048215","6501600","泰山區"
"243013","646-TV","2019/12/30 18:59:31","新北市泰山區明志路三段206巷9號","121.422846666667","25.03803","6501600","泰山區"
"243015","680-BX","2019/12/30 18:59:25","新北市泰山區美寧街48號","121.430518333333","25.0643566666667","6501600","泰山區"
"222003","KEE-1106","2019/12/30 18:59:34","新北市深坑區深南路88巷1號","121.621416666667","25.0108266666667","6501800","深坑區"
"222002","659-BX","2019/12/30 18:59:34","新北市深坑區文山路一段31巷2號","121.629891666667","25.0033716666667","6501800","深坑區"
"231061","002-UM","2019/12/30 18:59:29","新北市新店區安華路30巷12-1號","121.517778333333","24.958045","6500600","新店區"
"231055","0291-UT","2019/12/30 18:59:30","新北市新店區新生街13巷13號","121.539465","24.9659216666667","6500600","新店區"
"231058","0293-UT","2019/12/30 18:59:25","新北市新店區中興路一段203號","121.543651666667","24.9654783333333","6500600","新店區"
"231044","046-UY","2019/12/30 18:59:27","新北市新店區寶中路72號","121.547836666667","24.980635","6500600","新店區"
"231060","106-UY","2019/12/30 18:59:39","新北市新店區安忠路57巷11弄14號","121.515298333333","24.957935","6500600","新店區"
"231051","107-UY","2019/12/30 18:59:29","新北市新店區中央路13號","121.533351666667","24.9784216666667","6500600","新店區"
"231049","108-UY","2019/12/30 18:59:37","新北市新店區二十張路143-1號","121.535136666667","24.9788066666667","6500600","新店區"
"231065","110-UY","2019/12/30 18:59:28","新北市新店區安祥路147巷44號","121.476315","24.9570716666667","6500600","新店區"
"231052","189-VK","2019/12/30 18:59:33","新北市新店區屈尺路12號","121.5489","24.9226083333333","6500600","新店區"
"221031","KEA-2785","2019/12/30 18:59:41","新北市汐止區福德一路300巷24號","121.63059","25.0642533333333","6501100","汐止區"
"231062","256-BX","2019/12/30 18:59:43","新北市新店區安忠路205巷8號","121.5101","24.955395","6500600","新店區"
"231054","260-TV","2019/12/30 18:59:39","新北市新店區光明街9號","121.538183333333","24.9594183333333","6500600","新店區"
"231042","268-BY","2019/12/30 18:59:30","新北市新店區中興路二段29號","121.546095","24.969565","6500600","新店區"
"231064","278-BY","2019/12/30 18:59:24","新北市新店區安康路一段266巷4號","121.519813333333","24.9640116666667","6500600","新店區"
"231050","AAD-862","2019/12/30 18:59:34","新北市新店區新烏路一段5號","121.54736","24.951765","6500600","新店區"
"231045","355-BY","2019/12/30 18:59:29","新北市新店區安康路一段105號","121.529035","24.96152","6500600","新店區"
"231056","4715-K9","2019/12/30 18:59:34","新北市新店區建國路220號","121.537855","24.9812183333333","6500600","新店區"
"231067","4772-VM","2019/12/30 18:59:30","新北市新店區安康路一段76巷8號","121.528666666667","24.9626433333333","6500600","新店區"
"231063","616-UM","2019/12/30 18:59:29","新北市新店區安華路1-1號","121.519386666667","24.9604066666667","6500600","新店區"
"231040","617-UM","2019/12/30 18:59:35","新北市新店區中央路81號","121.532371666667","24.9766333333333","6500600","新店區"
"231041","619-UM","2019/12/30 18:59:26","新北市新店區安康路一段3-1號","121.535635","24.9610166666667","6500600","新店區"
"231047","KED-0819","2019/12/30 18:59:26","新北市新店區德正街23巷2號","121.544145","24.9718883333333","6500600","新店區"
"231046","719-UM","2019/12/30 18:59:30","新北市新店區直潭一街28號","121.535953333333","24.9420866666667","6500600","新店區"
"231057","720-UM","2019/12/30 18:59:38","新北市新店區百齡一路12號","121.553091666667","24.9324533333333","6500600","新店區"
"231059","897-TW","2019/12/30 18:59:25","新北市新店區安華路28-1號","121.519643333333","24.9607816666667","6500600","新店區"
"231043","899-TW","2019/12/30 18:59:31","新北市新店區北新路一段140號","121.542406666667","24.970465","6500600","新店區"
"231066","AKT-0513","2019/12/30 18:59:39","新北市新店區安豐路22巷4號","121.501456666667","24.956075","6500600","新店區"
"241035","KEA-2210","2019/12/30 18:59:21","新北市三重區信義西街118號","121.495823333333","25.064265","6500200","三重區"
"235066","003-UY","2019/12/30 18:59:22","新北市中和區中山路二段131巷5弄12號","121.503243333333","25.0031033333333","6500300","中和區"
"235064","005-UY","2019/12/30 18:59:29","新北市中和區泰和街38巷27號","121.498616666667","25.0010783333333","6500300","中和區"
"235063","006-UY","2019/12/30 18:59:33","新北市中和區中正路598巷4弄8號","121.486235","24.9950833333333","6500300","中和區"
"235072","KEE-1103","2019/12/30 18:59:40","新北市中和區福美路306號","121.49694","25.0048533333333","6500300","中和區"
"235056","096-UM","2019/12/30 18:59:43","新北市板橋區三民路二段204-4號","121.478966666667","25.012415","6500300","中和區"
"235039","097-UM","2019/12/30 18:59:31","新北市中和區大智街34巷4號","121.521358333333","24.9916966666667","6500300","中和區"
"235065","098-UM","2019/12/30 18:59:23","新北市中和區勝利路35巷1弄35號","121.500253333333","25.0080416666667","6500300","中和區"
"235040","150-BY","2019/12/30 18:59:29","新北市中和區安樂路101-3號","121.513246666667","24.9951966666667","6500300","中和區"
"235058","151-BY","2019/12/30 18:59:43","新北市中和區連城路372-3號","121.48153","24.99525","6500300","中和區"
"235055","183-VK","2019/12/30 18:59:39","新北市中和區莒光路2號","121.471628333333","25.0046166666667","6500300","中和區"
"235038","185-VK","2019/12/30 18:59:40","新北市中和區立人街24-4號","121.51899","24.99415","6500300","中和區"
"235067","255-BX","2019/12/30 18:59:33","新北市中和區新生街166巷13號","121.482956666667","25.0001783333333","6500300","中和區"
"235044","293-VK","2019/12/30 18:59:39","新北市中和區中興街161巷5弄2號","121.500888333333","24.9909183333333","6500300","中和區"
"235043","352-BY","2019/12/30 18:59:23","新北市中和區景平路2號","121.524623333333","24.9906216666667","6500300","中和區"
"235042","KEA-2878","2019/12/30 18:59:30","新北市永和區成功路二段199-1號","121.526546666667","24.9961716666667","6500300","中和區"
"235050","4979-A6","2019/12/30 18:59:40","新北市中和區忠孝街39-1號","121.511531666667","24.9836883333333","6500300","中和區"
"235069","4980-A6","2019/12/30 18:59:27","新北市中和區圓通路109巷1號","121.499796666667","24.996445","6500300","中和區"
"235070","558-UM","2019/12/30 18:59:39","新北市中和區中和路2號","121.499428333333","25.0023816666667","6500300","中和區"
"235045","565-BX","2019/12/30 18:59:38","新北市中和區景新街467巷20弄13號","121.514671666667","24.987395","6500300","中和區"
"235060","KED-0823","2019/12/30 18:59:38","新北市中和區民有街58號","121.475965","25.0045116666667","6500300","中和區"
"235054","640-BX","2019/12/30 18:59:24","新北市中和區國光街127號","121.469243333333","25.0010266666667","6500300","中和區"
"235047","732-UM","2019/12/30 18:59:30","新北市中和區興南路二段92號","121.505285","24.984445","6500300","中和區"
"235046","733-UM","2019/12/30 18:59:13","新北市中和區興南路二段9號","121.507976666667","24.9861866666667","6500300","中和區"
"235062","800-TS","2019/12/30 18:59:40","新北市中和區中山路二段362號","121.492505","25.0032366666667","6500300","中和區"
"235057","801-TS","2019/12/30 18:59:32","新北市中和區民利街87號","121.478201666667","24.9980816666667","6500300","中和區"
"235041","802-TS","2019/12/30 18:59:28","新北市中和區保健路2巷22號","121.507206666667","24.9977666666667","6500300","中和區"
"235052","805-TS","2019/12/30 18:59:30","新北市中和區興南路二段114巷2號","121.50435","24.984215","6500300","中和區"
"235048","896-TW","2019/12/30 18:59:35","新北市中和區工專路147號","121.508415","24.9787783333333","6500300","中和區"
"235053","900-TW","2019/12/30 18:59:25","新北市中和區和平路200巷19號","121.464653333333","24.9949916666667","6500300","中和區"
"235051","157-BY","2019/12/30 18:59:36","新北市中和區忠孝街31巷25-8號","121.509888333333","24.9841066666667","6500300","中和區"
"235037","AAC-213","2019/12/30 18:59:24","新北市中和區秀朗路三段60巷46號","121.52487","24.99494","6500300","中和區"
"235059","AAC-215","2019/12/30 18:59:24","新北市中和區圓通路369巷14弄8號","121.490416666667","24.9878316666667","6500300","中和區"
"207004","KEE-1107","2019/12/30 18:59:31","新北市萬里區萬里里獅頭路23號","121.69334","25.1782216666667","6502800","萬里區"
"220054","015-TV","2019/12/30 18:59:37","新北市板橋區重慶路127巷15-2號","121.463365","25.00492","6500100","板橋區"
"220065","072-UY","2019/12/30 18:59:34","新北市板橋區民族路247巷9弄44號","121.470956666667","25.0085416666667","6500100","板橋區"
"220086","073-UY","2019/12/30 18:59:31","新北市板橋區中正路146號","121.456955","25.016165","6500100","板橋區"
"220106","075-UY","2019/12/30 18:59:25","新北市板橋區文化路二段315號","121.472081666667","25.029765","6500100","板橋區"
"220069","AAD-861","2019/12/30 18:59:36","新北市板橋區四川路一段152號","121.459985","25.0034383333333","6500100","板橋區"
"226004","312-R5","2019/12/30 18:58:23","新北市平溪區靜安路二段382號","121.738285","25.0245933333333","6502400","平溪區"
"235049","251-BX","2019/12/30 18:59:34","新北市中和區景安路169號","121.505298333333","24.9945266666667","6500300","中和區"
"228003","097-TW","2019/12/30 18:59:41","新北市貢寮區和美里龍洞街56-2號","121.912273333333","25.1139666666667","6502600","貢寮區"
"228001","212-TW","2019/12/30 18:59:41","新北市貢寮區仁理村研海街12-1號","121.923753333333","25.0516366666667","6502600","貢寮區"
"228002","663-BX","2019/12/30 18:59:39","新北市貢寮區福隆里東興街106巷23弄1號","121.946323333333","25.0182733333333","6502600","貢寮區"
"224006","676-BX","2019/12/30 18:59:34","新北市瑞芳區三爪子坑路192號","121.806458333333","25.1052683333333","6501200","瑞芳區"
"224007","285-BY","2019/12/30 18:59:37","新北市瑞芳區中央路48巷162號","121.75938","25.1035033333333","6501200","瑞芳區"
"224009","275-VK","2019/12/30 18:59:34","新北市瑞芳區祈堂路239號","121.856395","25.1090733333333","6501200","瑞芳區"
"224008","273-VK","2019/12/30 18:59:40","新北市瑞芳區逢甲路340-9號","121.798566666667","25.1169016666667","6501200","瑞芳區"
"224005","271-BY","2019/12/30 18:59:39","新北市瑞芳區海濱路157號","121.829183333333","25.1218983333333","6501200","瑞芳區"
"227002","642-TC","2019/12/30 18:59:26","新北市雙溪區平林里外平林10-2號","121.859041666667","25.0380666666667","6502500","雙溪區"
"227001","400-TW","2019/12/30 18:59:27","新北市雙溪區牡丹里中正路58巷34號","121.866171666667","25.0420833333333","6502500","雙溪區"
"253005","032-BX","2019/12/30 18:59:35","新北市石門區尖子鹿76號","121.572466666667","25.2969633333333","6502200","石門區"
"253006","295-VK","2019/12/30 18:59:43","新北市石門區下員坑30-7號","121.519586666667","25.2818866666667","6502200","石門區"
"222001","KEA-2212","2019/12/30 18:59:25","新北市深坑區北深路一段300號","121.624163333333","25.00586","6501800","深坑區"
"208002","KEA-2872","2019/12/30 18:59:37","新北市金山區仁愛路67巷2號","121.634615","25.22084","6502700","金山區"
"208003","665-BX","2019/12/30 18:59:23","新北市金山區中正路53號","121.634548333333","25.22198","6502700","金山區"
"251009","008-UM","2019/12/30 18:59:27","新北市淡水區重建街87號","121.439723333333","25.1724883333333","6501000","淡水區"
"251016","180-VK","2019/12/30 18:59:30","新北市淡水區淡金路三段325號","121.448966666667","25.2060766666667","6501000","淡水區"
"251013","182-VK","2019/12/30 18:59:32","新北市淡水區安子內3號","121.487568333333","25.2156183333333","6501000","淡水區"
"251010","413-VK","2019/12/30 18:59:36","新北市淡水區中正路一段156巷8號","121.421636666667","25.1807216666667","6501000","淡水區"
"251012","441-VK","2019/12/30 18:59:28","新北市淡水區新興街109號","121.440648333333","25.1808616666667","6501000","淡水區"
"251007","442-VK","2019/12/30 18:59:31","新北市淡水區民生路113巷1弄29號","121.463373333333","25.138645","6501000","淡水區"
"251001","559-UM","2019/12/30 18:59:38","新北市淡水區自強路58號","121.463243333333","25.127515","6501000","淡水區"
"251014","577-R6","2019/12/30 18:59:29","新北市淡水區小中寮23-2號","121.489481666667","25.2298266666667","6501000","淡水區"
"251011","650-BX","2019/12/30 18:59:40","新北市淡水區鄧公路34號","121.457805","25.1688533333333","6501000","淡水區"
"251002","672-BX","2019/12/30 18:59:23","新北市淡水區中正東路55-4號","121.446778333333","25.1678466666667","6501000","淡水區"
"251003","673-BX","2019/12/30 18:59:35","新北市淡水區中山北路一段149巷24號","121.442925","25.17796","6501000","淡水區"
"251015","178-VK","2019/12/30 18:59:25","新北市淡水區糞箕湖60號","121.485188333333","25.17228","6501000","淡水區"
"252003","249-BX","2019/12/30 18:59:25","新北市三芝區後厝里北勢子42-3號","121.47225","25.2526083333333","6502100","三芝區"
"252001","292-VK","2019/12/30 18:59:24","新北市三芝區中興街二段242號","121.501681666667","25.2531083333333","6502100","三芝區"
"237004","KEA-2597","2019/12/30 18:59:34","新北市三峽區有木196號","121.443608333333","24.8502033333333","6500900","三峽區"
"237007","153-BY","2019/12/30 18:59:27","新北市三峽區大埔路23號","121.365998333333","24.909595","6500900","三峽區"
"237013","252-BX","2019/12/30 18:59:24","新北市三峽區長泰街16號","121.378835","24.931025","6500900","三峽區"
"237012","275-BY","2019/12/30 18:59:41","新北市三峽區三樹路267號","121.379131666667","24.9428883333333","6500900","三峽區"
"237008","302-VK","2019/12/30 18:59:31","新北市三峽區大同路127號","121.374036666667","24.9267683333333","6500900","三峽區"
"237006","5530-G3","2019/12/30 18:59:36","新北市三峽區溪東路211巷18弄5號","121.406471666667","24.9341383333333","6500900","三峽區"
"237014","433-BY","2019/12/30 18:59:24","新北市三峽區復興路480巷7-2號","121.35792","24.9398066666667","6500900","三峽區"
"237011","KEA-2596","2019/12/30 18:59:26","新北市三峽區橫溪路16號","121.39618","24.935885","6500900","三峽區"
"237015","649-BX","2019/12/30 18:59:43","新北市三峽區建安89-3號","121.45526","24.92088","6500900","三峽區"
"237010","706-TV","2019/12/30 18:59:28","新北市三峽區復興路345號","121.364126666667","24.938625","6500900","三峽區"
"237005","AKY-6261","2019/12/30 18:59:38","新北市三峽區中山路459巷135號","121.349113333333","24.9333833333333","6500900","三峽區"
"236042","KED-0685","2019/12/30 18:59:34","新北市土城區學府路一段229巷5號","121.451443333333","24.98389","6501300","土城區"
"236078","166-UM","2019/12/30 18:59:26","新北市土城區中央路四段289號","121.41139","24.9524433333333","6501300","土城區"
"236026","269-VK","2019/12/30 18:59:40","新北市土城區光明街18號","121.442058333333","24.9742233333333","6501300","土城區"
"236014","270-VK","2019/12/30 18:59:21","新北市土城區永豐路29巷8號","121.463498333333","24.98828","6501300","土城區"
"236039","271-VK","2019/12/30 18:59:23","新北市土城區仁愛路8號","121.460051666667","24.9810433333333","6501300","土城區"
"236069","KEA-2877","2019/12/30 18:59:33","新北市土城區清水路105號","121.456986666667","24.982225","6501300","土城區"
"252002","KED-0821","2019/12/30 18:59:31","新北市三芝區中正路一段23號","121.502975","25.2586016666667","6502100","三芝區"
"236020","401-BY","2019/12/30 18:59:24","新北市土城區德峰街41巷6號","121.467863333333","24.98617","6501300","土城區"
"236030","752-BX","2019/12/30 18:59:37","新北市土城區慶利街14巷1號","121.439785","24.97374","6501300","土城區"
"236059","912-UM","2019/12/30 18:59:26","新北市土城區金城路二段260號","121.457665","24.98364","6501300","土城區"
"236048","913-UM","2019/12/30 18:59:32","新北市土城區青雲路287號","121.459065","24.9799566666667","6501300","土城區"
"236063","915-UM","2019/12/30 18:59:35","新北市土城區延和路41巷15號","121.465916666667","24.98978","6501300","土城區"
"236055","AAC-216","2019/12/30 18:59:41","新北市土城區學成路146號","121.448645","24.9895716666667","6501300","土城區"
"242060","986-R7","2019/12/30 18:59:25","新北市新莊區民安路188巷6號","121.425073333333","25.0234833333333","6500500","新莊區"
"238023","601-UM","2019/12/30 18:59:37","新北市樹林區大慶街124號","121.396058333333","25.0135116666667","6500700","樹林區"
"238020","571-TV","2019/12/30 18:59:39","新北市樹林區俊英街238號","121.42472","25.0104083333333","6500700","樹林區"
"238022","KEA-2213","2019/12/30 18:59:31","新北市樹林區東興街57巷6號","121.41153","24.977025","6500700","樹林區"
"238021","KEA-2539","2019/12/30 18:59:41","新北市樹林區柑園街二段278號","121.374295","24.9520883333333","6500700","樹林區"
"238025","303-VK","2019/12/30 18:59:39","新北市樹林區中山路三段34號","121.395118333333","24.972725","6500700","樹林區"
"238014","282-BY","2019/12/30 18:59:25","新北市樹林區潭興街94號","121.425586666667","24.9994916666667","6500700","樹林區"
"238026","172-UY","2019/12/30 18:59:30","新北市樹林區德和街28號","121.390983333333","24.976225","6500700","樹林區"
"238016","169-UY","2019/12/30 18:59:40","新北市樹林區文化街23號","121.419291666667","24.9876583333333","6500700","樹林區"
"239008","527-UM","2019/12/30 18:59:32","新北市鶯歌區朝陽街4號","121.336268333333","24.9765866666667","6500800","鶯歌區"
"239005","526-UM","2019/12/30 18:59:35","新北市鶯歌區鳳吉二街152號","121.328746666667","24.975075","6500800","鶯歌區"
"239001","417-VK","2019/12/30 18:59:35","新北市鶯歌區中正三路193巷43號","121.336545","24.9384066666667","6500800","鶯歌區"
"239003","360-BY","2019/12/30 18:59:26","新北市鶯歌區福安街13巷1號","121.335593333333","24.965275","6500800","鶯歌區"
"221008","489-VK","2019/12/30 18:59:24","新北市汐止區康寧街582號","121.635093333333","25.0699616666667","6501100","汐止區"
"221036","130-UY","2019/12/30 18:59:40","新北市汐止區忠孝東路337號","121.66513","25.0700016666667","6501100","汐止區"
"221015","131-UY","2019/12/30 18:59:31","新北市汐止區吉祥街1巷2號","121.667896666667","25.0798583333333","6501100","汐止區"
"221032","280-BY","2019/12/30 18:59:34","新北市汐止區橫科路121巷51弄7號","121.622326666667","25.0508383333333","6501100","汐止區"
"221029","298-VK","2019/12/30 18:59:36","新北市汐止區樟樹一路254號","121.642543333333","25.067195","6501100","汐止區"
"207003","KEE-1020","2019/12/30 18:59:35","新北市萬里區大鵬里頂社2-1號","121.660358333333","25.2072016666667","6502800","萬里區"
"221035","622-UM","2019/12/30 18:59:29","新北市汐止區禮門街1號","121.656701666667","25.06726","6501100","汐止區"
"221002","707-TV","2019/12/30 18:59:37","新北市汐止區大同路一段2號","121.620696666667","25.0549083333333","6501100","汐止區"
"220079","145-BY","2019/12/30 18:59:32","新北市板橋區大仁街95號","121.453141666667","25.01579","6500100","板橋區"
"233001","KEA-2870","2019/12/30 18:59:37","新北市新店區柴埕路47號","121.514155","24.9652083333333","6502900","烏來區"
"220080","200-UY","2019/12/30 18:59:29","新北市板橋區大觀路二段力行1巷95號","121.444825","24.9980533333333","6500100","板橋區"
"220082","610-BX","2019/12/30 18:59:25","新北市板橋區滿平街141號","121.429065","24.98801","6500100","板橋區"
"220101","245-BX","2019/12/30 18:59:36","新北市板橋區萬板路13號","121.470531666667","25.0209416666667","6500100","板橋區"
"224002","257-TC","2019/12/30 18:59:24","新北市瑞芳區八分寮路10號","121.79645","25.0895516666667","6501200","瑞芳區"
"220056","276-BY","2019/12/30 18:59:39","新北市板橋區信義路112號","121.458318333333","24.9926233333333","6500100","板橋區"
"220072","277-BY","2019/12/30 18:59:33","新北市板橋區篤行路一段29號","121.432061666667","24.994655","6500100","板橋區"
"220071","283-VK","2019/12/30 18:59:24","新北市板橋區忠孝路196巷43號","121.465548333333","25.0016616666667","6500100","板橋區"
"220094","285-UM","2019/12/30 18:59:38","新北市板橋區光武街154號","121.465131666667","25.030515","6500100","板橋區"
"220053","285-VK","2019/12/30 18:59:22","新北市板橋區太和街5巷20號","121.473091666667","25.0197066666667","6500100","板橋區"
"220083","286-VK","2019/12/30 18:59:40","新北市板橋區大觀路一段38巷156弄71號","121.442691666667","25.0068566666667","6500100","板橋區"
"220081","287-VK","2019/12/30 18:59:36","新北市板橋區南雅西路二段100號","121.452413333333","25.0117183333333","6500100","板橋區"
"220090","288-VK","2019/12/30 18:59:42","新北市板橋區四維路296號","121.462733333333","25.02934","6500100","板橋區"
"220061","293-UM","2019/12/30 18:59:31","新北市板橋區懷仁街85巷8號","121.477783333333","25.0187016666667","6500100","板橋區"
"220084","296-UM","2019/12/30 18:59:25","新北市板橋區龍興街63巷2號","121.442996666667","25.0013166666667","6500100","板橋區"
"220075","303-R5","2019/12/30 18:59:27","新北市板橋區茶館街40號","121.456083333333","25.010575","6500100","板橋區"
"220062","305-R5","2019/12/30 18:59:26","新北市板橋區民享街68號","121.476561666667","25.0152266666667","6500100","板橋區"
"220092","307-R5","2019/12/30 18:59:39","新北市板橋區文化路二段225巷60弄48號","121.469128333333","25.029515","6500100","板橋區"
"220098","317-R6","2019/12/30 18:59:27","新北市板橋區民生路二段226巷21號","121.470938333333","25.022","6500100","板橋區"
"220089","487-VK","2019/12/30 18:59:41","新北市板橋區文化路二段331號","121.4725","25.0302083333333","6500100","板橋區"
"220088","491-VK","2019/12/30 18:59:23","新北市板橋區莒光路165巷46號","121.474453333333","25.02527","6500100","板橋區"
"220035","560-BX","2019/12/30 18:59:30","新北市板橋區中正路277號","121.455606666667","25.0189716666667","6500100","板橋區"
"220103","561-BX","2019/12/30 18:59:27","新北市板橋區介壽街44-1號","121.468751666667","25.0197283333333","6500100","板橋區"
"220063","609-BX","2019/12/30 18:59:42","新北市板橋區三民路二段37號","121.479521666667","25.017275","6500100","板橋區"
"220091","637-BX","2019/12/30 18:59:36","新北市板橋區大同街14-4號","121.477438333333","25.0269516666667","6500100","板橋區"
"220057","686-BX","2019/12/30 18:59:32","新北市板橋區重慶路308巷12號","121.463396666667","24.9977416666667","6500100","板橋區"
"220077","687-BX","2019/12/30 18:59:38","新北市板橋區龍興街56號","121.443383333333","25.0012383333333","6500100","板橋區"
"220093","689-BX","2019/12/30 18:59:25","新北市板橋區民生路三段179號","121.465583333333","25.0273166666667","6500100","板橋區"
"220102","KEA-2699","2019/12/30 18:59:36","新北市板橋區萬板路810號","121.482696666667","25.02723","6500100","板橋區"
"220055","827-TW","2019/12/30 18:59:41","新北市板橋區實踐路29號","121.463676666667","25.0071733333333","6500100","板橋區"
"220067","829-TW","2019/12/30 18:59:38","新北市板橋區民享街116巷2弄5號","121.477678333333","25.0155616666667","6500100","板橋區"
"220068","830-TW","2019/12/30 18:59:34","新北市板橋區中山路二段465巷66號","121.481151666667","25.0219533333333","6500100","板橋區"
"220074","895-R6","2019/12/30 18:59:36","新北市板橋區林園街61號","121.45364","25.0103816666667","6500100","板橋區"
"220073","985-R7","2019/12/30 18:59:28","新北市板橋區民權路258-1號","121.458066666667","25.0150316666667","6500100","板橋區"
"220097","AAC-210","2019/12/30 18:59:25","新北市板橋區新海路135巷39號","121.459418333333","25.0225333333333","6500100","板橋區"
"220064","AAC-253","2019/12/30 18:59:40","新北市板橋區板新路11號","121.475095","25.0125","6500100","板橋區"
"235061","KEA-2875","2019/12/30 18:59:37","新北市中和區民有街73號","121.476521666667","25.0030983333333","6500300","中和區"
"235068","KEA-2876","2019/12/30 18:59:29","新北市中和區圓通路218號","121.495188333333","24.9932133333333","6500300","中和區"
