"lineid","car","time","location","longitude","latitude","cityid","cityname"
"234046","148-BY","2019/12/30 19:13:36","新北市永和區永元路18巷17號","121.523373333333","25.0002333333333","6500400","永和區"
"234081","298-R6","2019/12/30 19:13:33","新北市永和區福和路57巷14弄10號","121.522253333333","25.0073283333333","6500400","永和區"
"234038","336-UY","2019/12/30 19:13:38","新北市永和區民樂街69巷16號","121.528096666667","24.9977166666667","6500400","永和區"
"234064","337-UY","2019/12/30 19:13:41","新北市永和區秀朗路二段66巷1號","121.52262","25.0015483333333","6500400","永和區"
"234086","338-UY","2019/12/30 19:13:44","新北市永和區永貞路122號","121.518648333333","25.0045733333333","6500400","永和區"
"234070","552-UM","2019/12/30 19:13:34","新北市永和區豫溪街129號","121.519431666667","25.0101716666667","6500400","永和區"
"234017","745-BX","2019/12/30 19:13:43","新北市永和區文化路90巷38號","121.513345","25.0164933333333","6500400","永和區"
"234030","746-BX","2019/12/30 19:13:29","新北市永和區厚德街82號","121.523848333333","24.9989066666667","6500400","永和區"
"234054","KEA-2590","2019/12/30 19:13:44","新北市永和區中興街80號","121.517926666667","25.0119683333333","6500400","永和區"
"234007","KED-0605","2019/12/30 19:13:29","新北市中和區中山路二段57號","121.504353333333","25.0046983333333","6500400","永和區"
"234013","KEA-2591","2019/12/30 19:13:36","新北市永和區保福路二段62-1號","121.510796666667","25.0125033333333","6500400","永和區"
"234061","AAD-866","2019/12/30 19:13:39","新北市永和區秀朗路一段81巷1號","121.515186666667","25.006505","6500400","永和區"
"234042","862-TW","2019/12/30 19:13:27","新北市永和區水源街43巷2號","121.509845","25.0041616666667","6500400","永和區"
"234050","863-TW","2019/12/30 19:13:42","新北市永和區保福路二段96號","121.510338333333","25.0135733333333","6500400","永和區"
"234026","9371-KE","2019/12/30 19:13:37","新北市永和區安樂路198巷4弄2號","121.515555","25.0019833333333","6500400","永和區"
"234011","9373-KE","2019/12/30 19:13:24","新北市永和區保福路二段9巷4號","121.510288333333","25.0109166666667","6500400","永和區"
"249005","172-UM","2019/12/30 19:13:07","新北市八里區中華路三段101號","121.393106666667","25.1388333333333","6502300","八里區"
"249001","173-UM","2019/12/30 19:13:34","新北市八里區大崁腳48-53號","121.42483","25.1592716666667","6502300","八里區"
"249003","593-UM","2019/12/30 19:13:27","新北市八里區商港五路91號","121.397736666667","25.150295","6502300","八里區"
"248008","KED-0815","2019/12/30 19:13:26","新北市五股區中興路二段63巷17號","121.46023","25.0753883333333","6501500","五股區"
"248018","KED-0813","2019/12/30 19:13:33","新北市五股區民義路一段255-29號","121.427653333333","25.09114","6501500","五股區"
"248010","272-BY","2019/12/30 19:13:43","新北市五股區水碓一路23號","121.430615","25.07126","6501500","五股區"
"248004","677-BX","2019/12/30 19:13:43","新北市五股區五福路56號","121.433416666667","25.08967","6501500","五股區"
"234023","9380-KE","2019/12/30 19:13:24","新北市永和區中興街10巷29號","121.516403333333","25.01107","6500400","永和區"
"234077","969-R7","2019/12/30 19:13:31","新北市永和區民權路12號","121.520213333333","24.99941","6500400","永和區"
"234074","AAC-211","2019/12/30 19:13:29","新北市永和區竹林路133-3號","121.5202","25.0107933333333","6500400","永和區"
"234067","AAC-212","2019/12/30 19:13:37","新北市永和區保平路18巷13號","121.512048333333","25.0079866666667","6500400","永和區"
"234003","AAC-295","2019/12/30 19:13:43","新北市永和區永平路146號","121.511451666667","25.00852","6500400","永和區"
"244023","483-VK","2019/12/30 19:13:39","新北市林口區文林六街30號","121.371546666667","25.08104","6501700","林口區"
"244011","701-TV","2019/12/30 19:13:31","新北市林口區中正路264巷11號","121.388868333333","25.0781666666667","6501700","林口區"
"244025","837-TS","2019/12/30 19:13:34","新北市林口區民族路82巷20號","121.366503333333","25.0749983333333","6501700","林口區"
"208001","267-VK","2019/12/30 19:13:28","新北市金山區慈護街35號","121.639516666667","25.21979","6502700","金山區"
"243012","AAD-798","2019/12/30 19:13:33","新北市泰山區辭修路7號","121.428775","25.057965","6501600","泰山區"
"243010","297-R6","2019/12/30 19:13:28","新北市泰山區明志路一段458巷6號","121.430051666667","25.0558416666667","6501600","泰山區"
"243014","KEA-2801","2019/12/30 19:13:23","新北市泰山區泰林路二段265號","121.43091","25.0626266666667","6501600","泰山區"
"243016","421-VK","2019/12/30 19:13:37","新北市泰山區明志路三段123巷1弄7號","121.425081666667","25.04101","6501600","泰山區"
"243009","KEA-2215","2019/12/30 19:13:38","新北市泰山區楓樹街15巷5號","121.434758333333","25.0630383333333","6501600","泰山區"
"243011","KEA-2216","2019/12/30 19:13:32","新北市泰山區明志路二段364號","121.425573333333","25.0449816666667","6501600","泰山區"
"243013","646-TV","2019/12/30 19:13:31","新北市泰山區台麗街13巷1號","121.424505","25.0382733333333","6501600","泰山區"
"243015","680-BX","2019/12/30 19:13:25","新北市泰山區明志路一段453號","121.430773333333","25.0561916666667","6501600","泰山區"
"222003","KEE-1106","2019/12/30 19:13:34","新北市深坑區深南路204號","121.626643333333","25.0160133333333","6501800","深坑區"
"222002","659-BX","2019/12/30 19:13:34","新北市深坑區紅葉街61號","121.632248333333","25.0137783333333","6501800","深坑區"
"231061","002-UM","2019/12/30 19:13:29","新北市新店區安康路一段163號","121.5274","24.9623433333333","6500600","新店區"
"231055","0291-UT","2019/12/30 19:13:30","新北市新店區安興路69-1號","121.51578","24.9750716666667","6500600","新店區"
"231058","0293-UT","2019/12/30 19:13:25","新北市新店區光明街63號","121.538818333333","24.960385","6500600","新店區"
"231044","046-UY","2019/12/30 19:13:27","新北市新店區中興路三段202號","121.54382","24.98195","6500600","新店區"
"231060","106-UY","2019/12/30 19:13:39","新北市新店區安康路二段167號","121.509945","24.95929","6500600","新店區"
"231051","107-UY","2019/12/30 19:13:29","新北市新店區中正路400巷16號","121.535153333333","24.97803","6500600","新店區"
"231049","108-UY","2019/12/30 19:13:37","新北市新店區北新路三段70號","121.542071666667","24.9804983333333","6500600","新店區"
"231065","110-UY","2019/12/30 19:13:29","新北市新店區安祥路110巷2號","121.474863333333","24.9570333333333","6500600","新店區"
"231052","189-VK","2019/12/30 19:13:33","新北市新店區屈尺路93號","121.545571666667","24.923125","6500600","新店區"
"221031","KEA-2785","2019/12/30 19:13:40","新北市汐止區中興路181巷1號","121.63022","25.0667383333333","6501100","汐止區"
"231062","256-BX","2019/12/30 19:13:23","新北市新店區安平路53號","121.519731666667","24.968395","6500600","新店區"
"231054","260-TV","2019/12/30 19:13:39","新北市新店區文中路12號","121.53772","24.9569866666667","6500600","新店區"
"231042","268-BY","2019/12/30 19:13:30","新北市新店區中興路一段110號","121.541098333333","24.9620516666667","6500600","新店區"
"231064","278-BY","2019/12/30 19:13:25","新北市新店區安忠路63巷2號","121.511553333333","24.95803","6500600","新店區"
"231050","AAD-862","2019/12/30 19:13:31","新北市新店區竹林路30巷21號","121.552003333333","24.9501333333333","6500600","新店區"
"231045","355-BY","2019/12/30 19:13:29","新北市新店區北宜路一段142號","121.54002","24.9542416666667","6500600","新店區"
"231056","4715-K9","2019/12/30 19:13:34","新北市新店區溪園路283號","121.52601","24.9805083333333","6500600","新店區"
"231067","4772-VM","2019/12/30 19:13:29","新北市新店區安康路一段247巷7號","121.52504","24.9627716666667","6500600","新店區"
"231063","616-UM","2019/12/30 19:13:29","新北市新店區達觀路8巷3號","121.50476","24.94379","6500600","新店區"
"231040","617-UM","2019/12/30 19:13:35","新北市新店區三民路155號","121.53372","24.973515","6500600","新店區"
"231041","619-UM","2019/12/30 19:13:40","新北市新店區溪園路383號","121.523348333333","24.9795233333333","6500600","新店區"
"231047","KED-0819","2019/12/30 19:13:26","新北市新店區德正街27巷29弄35號","121.545188333333","24.9719116666667","6500600","新店區"
"231046","719-UM","2019/12/30 19:13:30","新北市新店區華城路12-1號","121.529166666667","24.9578333333333","6500600","新店區"
"231057","720-UM","2019/12/30 19:13:38","新北市新店區百齡一路12號","121.553065","24.93247","6500600","新店區"
"231059","897-TW","2019/12/30 19:13:31","新北市新店區安和路二段142號","121.519648333333","24.9724966666667","6500600","新店區"
"231043","899-TW","2019/12/30 19:13:31","新北市新店區寶橋路45號","121.544863333333","24.974335","6500600","新店區"
"231066","AKT-0513","2019/12/30 19:13:39","新北市新店區安祥路35-2號","121.490743333333","24.9567266666667","6500600","新店區"
"241031","061-VK","2019/12/30 19:13:35","新北市三重區重新路四段85巷16號","121.485373333333","25.05553","6500200","三重區"
"241020","316-R6","2019/12/30 19:13:23","新北市三重區後竹圍街130號","121.488146666667","25.07258","6500200","三重區"
"241035","KEA-2210","2019/12/30 19:13:41","新北市三重區信義西街110號","121.495858333333","25.0643616666667","6500200","三重區"
"241004","462-BY","2019/12/30 19:13:39","新北市三重區成功路6號","121.49007","25.0500283333333","6500200","三重區"
"241026","480-VK","2019/12/30 19:13:23","新北市三重區中正南路201號","121.4933","25.0540666666667","6500200","三重區"
"241029","942-UM","2019/12/30 19:13:39","新北市三重區中正南路199號","121.49336","25.0544983333333","6500200","三重區"
"235066","003-UY","2019/12/30 19:13:42","新北市中和區廣福路112號","121.502176666667","25.0011133333333","6500300","中和區"
"235064","005-UY","2019/12/30 19:13:29","新北市中和區中和路2號","121.499435","25.0024483333333","6500300","中和區"
"235063","006-UY","2019/12/30 19:13:43","新北市中和區連城路249巷17弄2號","121.49383","24.9964233333333","6500300","中和區"
"235072","KEE-1103","2019/12/30 19:13:40","新北市中和區連城路217號","121.494308333333","24.997775","6500300","中和區"
"235056","096-UM","2019/12/30 19:13:23","新北市中和區新民街90號","121.482011666667","25.0077233333333","6500300","中和區"
"235039","097-UM","2019/12/30 19:13:31","新北市中和區景平路3號","121.523628333333","24.99025","6500300","中和區"
"235065","098-UM","2019/12/30 19:13:23","新北市中和區中山路二段136巷6弄8號","121.502165","25.00405","6500300","中和區"
"235040","150-BY","2019/12/30 19:13:29","新北市中和區保健路48巷25號","121.50985","24.9965883333333","6500300","中和區"
"235058","151-BY","2019/12/30 19:13:36","新北市中和區連城路469巷89號","121.48473","24.99346","6500300","中和區"
"235055","183-VK","2019/12/30 19:13:38","新北市中和區德光路21號","121.470901666667","25.0042616666667","6500300","中和區"
"235038","185-VK","2019/12/30 19:13:40","新北市中和區大仁街10巷11號","121.518268333333","24.9926166666667","6500300","中和區"
"235067","255-BX","2019/12/30 19:13:33","新北市中和區民樂路36號","121.483041666667","25.001185","6500300","中和區"
"235044","293-VK","2019/12/30 19:13:39","新北市中和區中興街237巷1號","121.500798333333","24.9892583333333","6500300","中和區"
"235071","301-VK","2019/12/30 19:13:37","新北市中和區連城路322號","121.483411666667","24.996","6500300","中和區"
"235043","352-BY","2019/12/30 19:13:39","新北市中和區景平路420號","121.507855","24.9931716666667","6500300","中和區"
"235042","KEA-2878","2019/12/30 19:13:25","新北市中和區自強路66號","121.519843333333","24.9942","6500300","中和區"
"235050","4979-A6","2019/12/30 19:13:41","新北市中和區復興路280巷20號","121.502186666667","24.991715","6500300","中和區"
"235069","4980-A6","2019/12/30 19:13:27","新北市中和區中山路二段181巷16號","121.50091","25.0023","6500300","中和區"
"235070","558-UM","2019/12/30 19:13:39","新北市中和區中和路143號","121.502096666667","24.9996783333333","6500300","中和區"
"235045","565-BX","2019/12/30 19:13:38","新北市中和區景新街423巷28號","121.514406666667","24.98971","6500300","中和區"
"235060","KED-0823","2019/12/30 19:13:38","新北市中和區民樂路15號","121.481935","25.001775","6500300","中和區"
"235054","640-BX","2019/12/30 19:13:24","新北市中和區國光街112巷18弄2號","121.469755","25.0017566666667","6500300","中和區"
"235047","732-UM","2019/12/30 19:13:30","新北市中和區和平街54巷1弄4號","121.508623333333","24.99114","6500300","中和區"
"235046","733-UM","2019/12/30 19:13:33","新北市中和區忠孝街2號","121.508646666667","24.98278","6500300","中和區"
"235057","801-TS","2019/12/30 19:13:32","新北市中和區台新街37號","121.479676666667","25.005","6500300","中和區"
"235041","802-TS","2019/12/30 19:13:28","新北市中和區中和路294號","121.50854","24.9997883333333","6500300","中和區"
"235052","805-TS","2019/12/30 19:13:30","新北市中和區興南路二段142巷17弄8號","121.50317","24.9831766666667","6500300","中和區"
"235048","896-TW","2019/12/30 19:13:35","新北市中和區忠孝街122-2號","121.512115","24.985935","6500300","中和區"
"235053","900-TW","2019/12/30 19:13:25","新北市中和區華安街19巷8號","121.467396666667","24.9978933333333","6500300","中和區"
"235051","157-BY","2019/12/30 19:13:36","新北市中和區和平街2巷4弄2號","121.510101666667","24.9905583333333","6500300","中和區"
"235037","AAC-213","2019/12/30 19:13:32","新北市中和區自立路3號","121.522638333333","24.996625","6500300","中和區"
"235059","AAC-215","2019/12/30 19:13:44","新北市中和區錦和路193號","121.4908","24.9907366666667","6500300","中和區"
"207004","KEE-1107","2019/12/30 19:13:42","新北市萬里區萬里里瑪鋉路54巷12號","121.690226666667","25.1770766666667","6502800","萬里區"
"220054","015-TV","2019/12/30 19:13:32","新北市板橋區後埔街37號","121.46053","25.006165","6500100","板橋區"
"220065","072-UY","2019/12/30 19:13:34","新北市板橋區民族路151巷77號","121.469486666667","25.008695","6500100","板橋區"
"220086","073-UY","2019/12/30 19:13:31","新北市板橋區幸福路70巷1號","121.46056","25.0200066666667","6500100","板橋區"
"220106","075-UY","2019/12/30 19:13:25","新北市板橋區長江路二段280-8號","121.470065","25.0328083333333","6500100","板橋區"
"220069","AAD-861","2019/12/30 19:13:36","新北市板橋區大明街20巷29弄20號","121.45762","25.0034766666667","6500100","板橋區"
"226004","312-R5","2019/12/30 19:13:23","新北市平溪區望古里灰3-1號","121.75635","25.029525","6502400","平溪區"
"235049","251-BX","2019/12/30 19:13:34","新北市中和區景新街241號","121.50819","24.9943716666667","6500300","中和區"
"228003","097-TW","2019/12/30 19:13:41","新北市貢寮區和美里和美街22號","121.912961666667","25.082615","6502600","貢寮區"
"228001","212-TW","2019/12/30 19:13:41","新北市貢寮區真理里新港街10號","121.925481666667","25.0543083333333","6502600","貢寮區"
"228002","663-BX","2019/12/30 19:13:39","新北市貢寮區福隆里興隆街36號","121.941295","25.0172866666667","6502600","貢寮區"
"224009","275-VK","2019/12/30 19:13:34","新北市瑞芳區祈堂路110號","121.858988333333","25.1095","6501200","瑞芳區"
"224008","273-VK","2019/12/30 19:13:40","新北市瑞芳區瑞芳街118號","121.801426666667","25.110965","6501200","瑞芳區"
"227002","642-TC","2019/12/30 19:13:25","新北市雙溪區平林里外平林9-25號","121.860091666667","25.0374033333333","6502500","雙溪區"
"227001","400-TW","2019/12/30 19:13:27","新北市雙溪區牡丹里中正路46-4號","121.865011666667","25.0390633333333","6502500","雙溪區"
"253005","032-BX","2019/12/30 19:13:35","新北市石門區阿里荖5-7號","121.609281666667","25.27987","6502200","石門區"
"253006","295-VK","2019/12/30 19:13:23","新北市石門區崁子腳46號","121.534346666667","25.288355","6502200","石門區"
"222001","KEA-2212","2019/12/30 19:13:34","新北市深坑區北深路二段48號","121.619471666667","25.004295","6501800","深坑區"
"208002","KEA-2872","2019/12/30 19:13:37","新北市金山區中華路159號","121.632711666667","25.2218616666667","6502700","金山區"
"208003","665-BX","2019/12/30 19:13:23","新北市金山區中山路217號","121.637676666667","25.2215766666667","6502700","金山區"
"251009","008-UM","2019/12/30 19:13:27","新北市淡水區清水街236號","121.440193333333","25.1717883333333","6501000","淡水區"
"251005","010-UM","2019/12/30 19:13:33","新北市淡水區原德路53號","121.44231","25.172085","6501000","淡水區"
"251016","180-VK","2019/12/30 19:13:24","新北市淡水區下圭柔山119-51號","121.450723333333","25.2084716666667","6501000","淡水區"
"251008","181-VK","2019/12/30 19:13:32","新北市淡水區後洲路一段58號","121.428855","25.2008166666667","6501000","淡水區"
"251013","182-VK","2019/12/30 19:13:32","新北市淡水區安子內12-1號","121.481508333333","25.2190933333333","6501000","淡水區"
"251010","413-VK","2019/12/30 19:13:36","新北市淡水區沙崙路10號","121.420961666667","25.1810483333333","6501000","淡水區"
"251007","442-VK","2019/12/30 19:13:30","新北市淡水區民生路145巷31號","121.466673333333","25.138945","6501000","淡水區"
"251001","559-UM","2019/12/30 19:13:38","新北市淡水區自強路201巷39號","121.46212","25.1268083333333","6501000","淡水區"
"251014","577-R6","2019/12/30 19:13:29","新北市淡水區小中寮19-7號","121.48474","25.2295766666667","6501000","淡水區"
"251002","672-BX","2019/12/30 19:13:43","新北市淡水區中山路87巷1號","121.442581666667","25.1704816666667","6501000","淡水區"
"251003","673-BX","2019/12/30 19:13:35","新北市淡水區中山北路一段6號","121.441505","25.1748216666667","6501000","淡水區"
"251015","178-VK","2019/12/30 19:13:25","新北市淡水區南勢埔5-1號","121.482146666667","25.18003","6501000","淡水區"
"252001","292-VK","2019/12/30 19:13:24","新北市三芝區長勤街22號","121.50113","25.2557516666667","6502100","三芝區"
"237004","KEA-2597","2019/12/30 19:13:34","新北市三峽區有木206號","121.439133333333","24.8514883333333","6500900","三峽區"
"237007","153-BY","2019/12/30 19:13:27","新北市三峽區麻園36-12號","121.363681666667","24.9200883333333","6500900","三峽區"
"237009","210-TH","2019/12/30 19:13:25","新北市三峽區文化路145號","121.368576666667","24.9359433333333","6500900","三峽區"
"237013","252-BX","2019/12/30 19:13:44","新北市三峽區光明路69巷24號","121.37667","24.9290816666667","6500900","三峽區"
"237012","275-BY","2019/12/30 19:13:41","新北市三峽區三樹路222巷254弄15號","121.392146666667","24.9440333333333","6500900","三峽區"
"237008","302-VK","2019/12/30 19:13:31","新北市三峽區大同路119巷5號","121.374376666667","24.9264666666667","6500900","三峽區"
"237006","5530-G3","2019/12/30 19:13:36","新北市三峽區溪東路203號","121.40445","24.933465","6500900","三峽區"
"237014","433-BY","2019/12/30 19:13:44","新北市三峽區隆恩街158巷68號","121.365208333333","24.94517","6500900","三峽區"
"237011","KEA-2596","2019/12/30 19:13:26","新北市三峽區介壽路三段147號","121.400196666667","24.942815","6500900","三峽區"
"237015","649-BX","2019/12/30 19:13:23","新北市三峽區安坑38號","121.454446666667","24.9319716666667","6500900","三峽區"
"237010","706-TV","2019/12/30 19:13:28","新北市三峽區國光街364巷11號","121.371038333333","24.940125","6500900","三峽區"
"237005","AKY-6261","2019/12/30 19:13:38","新北市三峽區中山路459巷135號","121.348648333333","24.9329266666667","6500900","三峽區"
"236078","166-UM","2019/12/30 19:13:44","新北市土城區龍泉路38-2號","121.412146666667","24.9457","6501300","土城區"
"236026","269-VK","2019/12/30 19:13:40","新北市土城區中正路13號","121.442916666667","24.97537","6501300","土城區"
"236014","270-VK","2019/12/30 19:13:41","新北市土城區學府路一段23巷23號","121.457788333333","24.9870016666667","6501300","土城區"
"236069","KEA-2877","2019/12/30 19:13:29","新北市土城區裕生路84巷1號","121.447368333333","24.98525","6501300","土城區"
"252002","KED-0821","2019/12/30 19:13:31","新北市三芝區淡金路二段18-1號","121.502581666667","25.259595","6502100","三芝區"
"236020","401-BY","2019/12/30 19:13:24","新北市土城區延峰街11號","121.46875","24.9863383333333","6501300","土城區"
"236059","912-UM","2019/12/30 19:13:26","新北市土城區中央路二段235號","121.440256666667","24.9723333333333","6501300","土城區"
"236055","AAC-216","2019/12/30 19:13:41","新北市土城區學府路一段276號","121.450095","24.982965","6501300","土城區"
"242060","986-R7","2019/12/30 19:13:25","新北市新莊區新樹路308號","121.433271666667","25.004595","6500500","新莊區"
"238015","755-BX","2019/12/30 19:13:39","新北市樹林區備內街158巷14號","121.407233333333","24.9899766666667","6500700","樹林區"
"238023","601-UM","2019/12/30 19:13:37","新北市樹林區三興路87巷2號","121.392423333333","25.0134683333333","6500700","樹林區"
"238019","599-UM","2019/12/30 19:13:43","新北市樹林區東華街30號","121.414765","24.98219","6500700","樹林區"
"238020","571-TV","2019/12/30 19:13:39","新北市樹林區俊英街131號","121.424276666667","25.0113966666667","6500700","樹林區"
"238022","KEA-2213","2019/12/30 19:13:31","新北市樹林區中山路二段151巷12號","121.406881666667","24.97824","6500700","樹林區"
"238021","KEA-2539","2019/12/30 19:13:41","新北市樹林區柑園街二段441-1號","121.364146666667","24.94682","6500700","樹林區"
"238025","303-VK","2019/12/30 19:13:25","新北市樹林區中山路三段315號","121.391093333333","24.97162","6500700","樹林區"
"238017","283-BY","2019/12/30 19:13:34","新北市樹林區中華路190-6號","121.410135","24.980525","6500700","樹林區"
"238014","282-BY","2019/12/30 19:13:25","新北市樹林區千歲街63-14號","121.427016666667","24.998655","6500700","樹林區"
"238026","172-UY","2019/12/30 19:13:30","新北市樹林區佳園路一段41巷18號","121.393871666667","24.9710316666667","6500700","樹林區"
"238016","169-UY","2019/12/30 19:13:40","新北市樹林區中山路一段276號","121.420648333333","24.9868583333333","6500700","樹林區"
"239007","AAC-297","2019/12/30 19:13:36","新北市鶯歌區成功街6巷28號","121.359405","24.9573866666667","6500800","鶯歌區"
"239006","891-R6","2019/12/30 19:13:24","新北市鶯歌區鶯桃路296巷57號","121.335928333333","24.9613516666667","6500800","鶯歌區"
"239008","527-UM","2019/12/30 19:13:32","新北市鶯歌區國際二路70巷27號","121.336186666667","24.9754333333333","6500800","鶯歌區"
"239005","526-UM","2019/12/30 19:13:35","新北市鶯歌區鳳吉一街100號","121.327291666667","24.9745","6500800","鶯歌區"
"239001","417-VK","2019/12/30 19:13:35","新北市鶯歌區永明街60巷6號","121.340068333333","24.956125","6500800","鶯歌區"
"239003","360-BY","2019/12/30 19:13:26","新北市鶯歌區鶯桃路514號","121.331705","24.966515","6500800","鶯歌區"
"239002","359-BY","2019/12/30 19:13:30","新北市鶯歌區中正一路138號","121.352221666667","24.95554","6500800","鶯歌區"
"221008","489-VK","2019/12/30 19:13:38","新北市汐止區康寧街379號","121.62896","25.06773","6501100","汐止區"
"221036","130-UY","2019/12/30 19:13:40","新北市汐止區忠孝東路271號","121.663516666667","25.0681616666667","6501100","汐止區"
"221032","280-BY","2019/12/30 19:13:34","新北市汐止區橫科路367巷26號","121.623388333333","25.0482833333333","6501100","汐止區"
"207003","KEE-1020","2019/12/30 19:13:35","新北市萬里區大鵬里頂社75號","121.655083333333","25.2092216666667","6502800","萬里區"
"221035","622-UM","2019/12/30 19:13:29","新北市汐止區汐萬路一段265巷2號","121.650651666667","25.0742066666667","6501100","汐止區"
"221002","707-TV","2019/12/30 19:13:37","新北市汐止區大同路一段312號","121.637296666667","25.0586983333333","6501100","汐止區"
"220079","145-BY","2019/12/30 19:13:38","新北市板橋區民權路204號","121.459198333333","25.0140233333333","6500100","板橋區"
"233001","KEA-2870","2019/12/30 19:13:37","新北市新店區安康路二段382號","121.500391666667","24.9571533333333","6502900","烏來區"
"220080","200-UY","2019/12/30 19:13:29","新北市板橋區大觀路二段7巷27號","121.447876666667","25.003415","6500100","板橋區"
"220082","610-BX","2019/12/30 19:13:39","新北市板橋區溪崑二街111巷1號","121.42668","24.9887766666667","6500100","板橋區"
"220101","245-BX","2019/12/30 19:13:36","新北市板橋區雙十路二段4-5號","121.476926666667","25.0257266666667","6500100","板橋區"
"220056","276-BY","2019/12/30 19:13:39","新北市板橋區信義路110巷2弄1號","121.457938333333","24.9923016666667","6500100","板橋區"
"220072","277-BY","2019/12/30 19:13:37","新北市板橋區金門街280巷6號","121.429216666667","24.98623","6500100","板橋區"
"220071","283-VK","2019/12/30 19:13:44","新北市板橋區重慶路245巷50弄28-5號","121.465066666667","24.9998333333333","6500100","板橋區"
"220094","285-UM","2019/12/30 19:13:38","新北市板橋區吳鳳路17巷26弄12號","121.467293333333","25.0296783333333","6500100","板橋區"
"220053","285-VK","2019/12/30 19:13:42","新北市板橋區永豐街146號","121.478105","25.02125","6500100","板橋區"
"220083","286-VK","2019/12/30 19:13:40","新北市板橋區大觀路二段174巷165弄18號","121.441258333333","25.00363","6500100","板橋區"
"220081","287-VK","2019/12/30 19:13:36","新北市板橋區南雅西路二段154號","121.451963333333","25.01335","6500100","板橋區"
"220090","288-VK","2019/12/30 19:13:42","新北市板橋區長江路一段106巷18弄7號","121.46003","25.02846","6500100","板橋區"
"220061","293-UM","2019/12/30 19:13:38","新北市板橋區光復街18號","121.481358333333","25.0188983333333","6500100","板橋區"
"220084","296-UM","2019/12/30 19:13:25","新北市板橋區溪崑二街22巷30號","121.428195","24.9919783333333","6500100","板橋區"
"220075","303-R5","2019/12/30 19:13:27","新北市板橋區南雅南路一段5巷6號","121.455993333333","25.0055183333333","6500100","板橋區"
"220062","305-R5","2019/12/30 19:13:26","新北市板橋區三民路二段203-9號","121.479308333333","25.0133183333333","6500100","板橋區"
"220092","307-R5","2019/12/30 19:13:39","新北市板橋區光武街2巷59號","121.468951666667","25.0258733333333","6500100","板橋區"
"220098","317-R6","2019/12/30 19:13:24","新北市板橋區四維路103巷9號","121.465045","25.02425","6500100","板橋區"
"220089","487-VK","2019/12/30 19:13:21","新北市板橋區漢生西路23號","121.463395","25.0182416666667","6500100","板橋區"
"220088","491-VK","2019/12/30 19:13:23","新北市板橋區雙十路二段4-3號","121.476963333333","25.0255466666667","6500100","板橋區"
"220035","560-BX","2019/12/30 19:13:38","新北市板橋區中正路328-1號","121.454593333333","25.0214866666667","6500100","板橋區"
"220103","561-BX","2019/12/30 19:13:27","新北市板橋區文化路一段220號","121.466623333333","25.0206166666667","6500100","板橋區"
"220063","609-BX","2019/12/30 19:13:41","新北市板橋區三民路二段157號","121.479166666667","25.0148666666667","6500100","板橋區"
"220091","637-BX","2019/12/30 19:13:27","新北市板橋區萬板路408號","121.47909","25.025575","6500100","板橋區"
"220057","686-BX","2019/12/30 19:13:31","新北市板橋區重慶路368號","121.4645","24.997145","6500100","板橋區"
"220077","687-BX","2019/12/30 19:13:38","新北市板橋區大觀路二段40號","121.445561666667","25.0011016666667","6500100","板橋區"
"220093","689-BX","2019/12/30 19:13:25","新北市板橋區漢生西路98號","121.462653333333","25.0197933333333","6500100","板橋區"
"220102","KEA-2699","2019/12/30 19:13:32","新北市板橋區松柏街18號","121.474358333333","25.0297366666667","6500100","板橋區"
"220055","827-TW","2019/12/30 19:13:41","新北市板橋區新民街5號","121.46395","25.0097066666667","6500100","板橋區"
"220067","829-TW","2019/12/30 19:13:39","新北市板橋區長安街138巷3弄39號","121.473925","25.0098016666667","6500100","板橋區"
"220068","830-TW","2019/12/30 19:13:34","新北市板橋區三民路一段1巷39號","121.48027","25.0248266666667","6500100","板橋區"
"220074","895-R6","2019/12/30 19:13:29","新北市板橋區中正路69巷1弄7號","121.455825","25.01365","6500100","板橋區"
"220073","985-R7","2019/12/30 19:13:28","新北市板橋區新生街89巷20號","121.457455","25.0224433333333","6500100","板橋區"
"220097","AAC-210","2019/12/30 19:13:29","新北市板橋區幸福路60巷79號","121.459823333333","25.0220016666667","6500100","板橋區"
"220064","AAC-253","2019/12/30 19:13:40","新北市板橋區板新路238號","121.46797","25.016015","6500100","板橋區"
"235061","KEA-2875","2019/12/30 19:13:37","新北市中和區連城路430號","121.480061666667","24.994865","6500300","中和區"
"235068","KEA-2876","2019/12/30 19:13:29","新北市中和區連城路203巷10弄33號","121.49557","24.9963083333333","6500300","中和區"
