"lineid","car","time","location","longitude","latitude","cityid","cityname"
"234046","148-BY","2019/12/30 19:59:36","新北市永和區成功路一段16巷2號","121.526683333333","25.0054416666667","6500400","永和區"
"234081","298-R6","2019/12/30 19:59:38","新北市永和區林森路64號","121.523921666667","25.004025","6500400","永和區"
"234038","336-UY","2019/12/30 19:59:38","新北市永和區成功路二段179-1號","121.526711666667","24.9966783333333","6500400","永和區"
"234064","337-UY","2019/12/30 19:59:41","新北市永和區中正路412巷2弄11號","121.518495","25.001965","6500400","永和區"
"234086","338-UY","2019/12/30 19:59:41","新北市永和區永亨路31號","121.519855","25.0062066666667","6500400","永和區"
"234070","552-UM","2019/12/30 19:59:32","新北市永和區國光路14號","121.519123333333","25.0083433333333","6500400","永和區"
"234017","745-BX","2019/12/30 19:59:44","新北市永和區文化路63號","121.514041666667","25.01508","6500400","永和區"
"234030","746-BX","2019/12/30 19:59:29","新北市永和區民權路49巷5弄24號","121.521601666667","24.9978166666667","6500400","永和區"
"234054","KEA-2590","2019/12/30 19:59:44","新北市永和區環河東路一段122號","121.520695","25.015595","6500400","永和區"
"234007","KED-0605","2019/12/30 19:59:29","新北市永和區保生路22巷21號","121.507188333333","25.0081783333333","6500400","永和區"
"234013","KEA-2591","2019/12/30 19:59:36","新北市永和區保生路55號","121.50471","25.01059","6500400","永和區"
"234061","AAD-866","2019/12/30 19:59:39","新北市永和區中正路283巷37號","121.516206666667","24.9995966666667","6500400","永和區"
"234042","862-TW","2019/12/30 19:59:40","新北市永和區雙和街17巷23號","121.508966666667","25.0012166666667","6500400","永和區"
"234050","863-TW","2019/12/30 19:59:41","新北市永和區保安路264號","121.505866666667","25.0123216666667","6500400","永和區"
"234026","9371-KE","2019/12/30 19:59:36","新北市永和區水源街27巷3號","121.511198333333","25.004245","6500400","永和區"
"249005","172-UM","2019/12/30 19:59:27","新北市八里區楓林路8號","121.386951666667","25.1314033333333","6502300","八里區"
"249001","173-UM","2019/12/30 19:59:33","新北市八里區中華路二段310號","121.40383","25.148335","6502300","八里區"
"249004","303-UY","2019/12/30 19:59:27","新北市八里區中華路一段333-1號","121.413221666667","25.1539766666667","6502300","八里區"
"249002","305-UY","2019/12/30 19:59:40","新北市八里區頂寮二街1號","121.451008333333","25.1238483333333","6502300","八里區"
"249003","593-UM","2019/12/30 19:59:27","新北市八里區中華路二段562號","121.398778333333","25.1450033333333","6502300","八里區"
"248014","025-BX","2019/12/30 19:59:24","新北市五股區成泰路三段43-4號","121.442426666667","25.08895","6501500","五股區"
"248016","026-BX","2019/12/30 19:59:40","新北市五股區成泰路三段577巷80弄7號","121.449521666667","25.1042833333333","6501500","五股區"
"248008","KED-0815","2019/12/30 19:59:29","新北市五股區四維路30巷34弄2號","121.468318333333","25.0714733333333","6501500","五股區"
"248018","KED-0813","2019/12/30 19:59:33","新北市五股區登林路118號","121.41841","25.0737916666667","6501500","五股區"
"248012","247-BX","2019/12/30 19:59:37","新北市五股區工商路207號","121.433221666667","25.0871366666667","6501500","五股區"
"248010","272-BY","2019/12/30 19:59:23","新北市五股區登林路79-7號","121.427235","25.0705283333333","6501500","五股區"
"248004","677-BX","2019/12/30 19:59:43","新北市五股區成泰路一段28號","121.434915","25.06782","6501500","五股區"
"248002","678-BX","2019/12/30 19:59:41","新北市五股區成泰路三段476號","121.451781666667","25.1014266666667","6501500","五股區"
"234023","9380-KE","2019/12/30 19:59:43","新北市永和區中正路702巷18號","121.51643","25.0105966666667","6500400","永和區"
"234077","969-R7","2019/12/30 19:59:31","新北市永和區智光街94號","121.516173333333","24.9969333333333","6500400","永和區"
"234074","AAC-211","2019/12/30 19:59:29","新北市永和區豫溪街193-3號","121.522785","25.0100383333333","6500400","永和區"
"234067","AAC-212","2019/12/30 19:59:37","新北市永和區永貞路356號","121.510308333333","25.0065633333333","6500400","永和區"
"234003","AAC-295","2019/12/30 19:59:43","新北市永和區中正路625號","121.515805","25.0099966666667","6500400","永和區"
"243012","AAD-798","2019/12/30 19:59:33","新北市泰山區全興路13號","121.432341666667","25.0589016666667","6501600","泰山區"
"243010","297-R6","2019/12/30 19:54:08","新北市泰山區仁愛路6巷38號","121.431406666667","25.0531083333333","6501600","泰山區"
"243014","KEA-2801","2019/12/30 19:59:23","新北市泰山區泰林路二段33-1號","121.43583","25.0567916666667","6501600","泰山區"
"243016","421-VK","2019/12/30 19:59:37","新北市泰山區貴陽街3號","121.42103","25.0335333333333","6501600","泰山區"
"243009","KEA-2215","2019/12/30 19:59:32","新北市泰山區楓江路16巷27號","121.434171666667","25.061365","6501600","泰山區"
"243011","KEA-2216","2019/12/30 19:59:32","新北市泰山區明志路三段182巷58號","121.4227","25.0398616666667","6501600","泰山區"
"222003","KEE-1106","2019/12/30 19:59:34","新北市深坑區埔新街10號","121.620713333333","25.0040816666667","6501800","深坑區"
"222002","659-BX","2019/12/30 19:59:33","新北市深坑區北深路二段81巷8弄3號","121.618273333333","25.0030633333333","6501800","深坑區"
"231061","002-UM","2019/12/30 19:59:29","新北市新店區安民街304號","121.517658333333","24.9738516666667","6500600","新店區"
"231055","0291-UT","2019/12/30 19:59:30","新北市新店區力行路56號","121.538718333333","24.96572","6500600","新店區"
"231044","046-UY","2019/12/30 19:59:27","新北市新店區復興路27號","121.538998333333","24.98672","6500600","新店區"
"231060","106-UY","2019/12/30 19:59:39","新北市新店區安康路二段416號","121.49666","24.95519","6500600","新店區"
"231051","107-UY","2019/12/30 19:59:29","新北市新店區中央路153號","121.529966666667","24.9731083333333","6500600","新店區"
"231049","108-UY","2019/12/30 19:59:37","新北市新店區明德路52號","121.541776666667","24.9785816666667","6500600","新店區"
"231065","110-UY","2019/12/30 19:59:28","新北市新店區安祥路104-10號","121.479108333333","24.96207","6500600","新店區"
"231052","189-VK","2019/12/30 19:59:24","新北市新店區新烏路三段251號","121.546413333333","24.8954666666667","6500600","新店區"
"221031","KEA-2785","2019/12/30 19:59:39","新北市汐止區福德二路55巷1弄1號","121.634416666667","25.0667416666667","6501100","汐止區"
"231062","256-BX","2019/12/30 19:59:23","新北市新店區華潭街26巷1弄3號","121.529486666667","24.9537183333333","6500600","新店區"
"231054","260-TV","2019/12/30 19:59:39","新北市新店區光明街226號","121.540126666667","24.96306","6500600","新店區"
"231042","268-BY","2019/12/30 19:59:30","新北市新店區中正路2號","121.5459","24.969265","6500600","新店區"
"231064","278-BY","2019/12/30 19:59:23","新北市新店區安光路10-1號","121.513801666667","24.9641266666667","6500600","新店區"
"231050","AAD-862","2019/12/30 19:59:30","新北市新店區北宜路二段36號","121.548493333333","24.9513966666667","6500600","新店區"
"231045","355-BY","2019/12/30 19:59:29","新北市新店區北宜路二段208號","121.55933","24.9543783333333","6500600","新店區"
"231056","4715-K9","2019/12/30 19:59:34","新北市新店區北新路二段29巷3弄2號","121.54217","24.9731333333333","6500600","新店區"
"231068","512-UM","2019/12/30 19:59:27","新北市新店區安康路一段258-2號","121.520408333333","24.9655433333333","6500600","新店區"
"231063","616-UM","2019/12/30 19:59:29","新北市新店區車子路11號","121.502985","24.9520466666667","6500600","新店區"
"231040","617-UM","2019/12/30 19:59:35","新北市新店區中正路75巷71號","121.543263333333","24.9687166666667","6500600","新店區"
"231041","619-UM","2019/12/30 19:59:26","新北市新店區中正路366號","121.535296666667","24.9761216666667","6500600","新店區"
"231047","KED-0819","2019/12/30 19:59:26","新北市新店區寶宏路38號","121.549391666667","24.9755533333333","6500600","新店區"
"231057","720-UM","2019/12/30 19:59:38","新北市新店區花園二路一段11號","121.555446666667","24.932535","6500600","新店區"
"231059","897-TW","2019/12/30 19:59:25","新北市新店區吉安街2號","121.517331666667","24.9656483333333","6500600","新店區"
"231043","899-TW","2019/12/30 19:59:31","新北市新店區中正路282-2號","121.538291666667","24.9742033333333","6500600","新店區"
"241011","013-R5","2019/12/30 19:59:27","新北市三重區介壽路3-1號","121.498998333333","25.069045","6500200","三重區"
"241028","022-UY","2019/12/30 19:59:40","新北市三重區中正南路184號","121.493976666667","25.0563766666667","6500200","三重區"
"241008","059-VK","2019/12/30 19:59:38","新北市三重區永福街179巷1號","121.478766666667","25.075035","6500200","三重區"
"241031","061-VK","2019/12/30 19:59:35","新北市三重區重新路四段144巷5號","121.486943333333","25.0556316666667","6500200","三重區"
"241015","062-VK","2019/12/30 19:59:39","新北市三重區三和路二段14-2號","121.500843333333","25.0671433333333","6500200","三重區"
"241017","063-VK","2019/12/30 19:59:37","新北市三重區自強路一段219號","121.49123","25.06855","6500200","三重區"
"241024","065-VK","2019/12/30 19:59:23","新北市三重區大勇街40號","121.481356666667","25.0716533333333","6500200","三重區"
"241007","066-VK","2019/12/30 19:59:23","新北市三重區慈愛街66號","121.487273333333","25.07952","6500200","三重區"
"241003","091-VK","2019/12/30 19:59:38","新北市三重區五華街91-4號","121.491868333333","25.0836","6500200","三重區"
"241009","742-BX","2019/12/30 19:59:31","新北市三重區三和路四段382巷95號","121.480318333333","25.07835","6500200","三重區"
"241006","262-UM","2019/12/30 19:59:30","新北市三重區力行路二段33巷1號","121.482581666667","25.0736633333333","6500200","三重區"
"241020","316-R6","2019/12/30 19:59:43","新北市三重區三和路三段170巷63號","121.490456666667","25.072515","6500200","三重區"
"241016","266-UM","2019/12/30 19:59:42","新北市三重區正義北路37號","121.497418333333","25.06366","6500200","三重區"
"241018","268-UM","2019/12/30 19:59:22","新北市三重區正義北路244巷32號","121.495281666667","25.0678683333333","6500200","三重區"
"241032","269-UM","2019/12/30 19:59:29","新北市三重區朝陽街26巷1弄19號","121.483156666667","25.0570516666667","6500200","三重區"
"241013","270-UM","2019/12/30 19:59:35","新北市三重區三和路三段123號","121.493","25.0733983333333","6500200","三重區"
"241025","271-UM","2019/12/30 19:59:40","新北市三重區頂崁街210巷12弄2號","121.476518333333","25.0675083333333","6500200","三重區"
"241035","KEA-2210","2019/12/30 19:59:41","新北市三重區大榮街7號","121.498223333333","25.0630033333333","6500200","三重區"
"241030","KED-0822","2019/12/30 19:59:32","新北市三重區成功路187號","121.485651666667","25.052815","6500200","三重區"
"241004","462-BY","2019/12/30 19:59:39","新北市三重區五華街74號","121.493278333333","25.0819433333333","6500200","三重區"
"241026","480-VK","2019/12/30 19:59:23","新北市三重區福德南路5號","121.502485","25.0634333333333","6500200","三重區"
"241014","543-UM","2019/12/30 19:59:30","新北市三重區三和路二段93號","121.499578333333","25.0683733333333","6500200","三重區"
"241023","545-UM","2019/12/30 19:59:39","新北市三重區頂崁街172號","121.477561666667","25.0659116666667","6500200","三重區"
"241001","547-UM","2019/12/30 19:59:38","新北市三重區福隆路8號","121.489961666667","25.07731","6500200","三重區"
"241019","KEA-2593","2019/12/30 19:59:30","新北市三重區重陽路四段40號","121.491386666667","25.06992","6500200","三重區"
"241012","743-BX","2019/12/30 19:59:27","新北市三重區仁興街39巷2號","121.49921","25.0758316666667","6500200","三重區"
"241002","KED-0670","2019/12/30 19:59:32","新北市三重區仁愛街192巷1號","121.494098333333","25.0771666666667","6500200","三重區"
"241029","942-UM","2019/12/30 19:59:39","新北市三重區重安街14號","121.490238333333","25.0582216666667","6500200","三重區"
"241033","AAC-255","2019/12/30 19:59:41","新北市三重區中興北街103號","121.469668333333","25.04844","6500200","三重區"
"235066","003-UY","2019/12/30 19:59:21","新北市中和區光華街33號","121.504975","25.0039766666667","6500300","中和區"
"235039","097-UM","2019/12/30 19:59:31","新北市中和區景平路278巷16弄24號","121.514428333333","24.993785","6500300","中和區"
"235065","098-UM","2019/12/30 19:59:22","新北市中和區福祥路59號","121.499271666667","25.0046333333333","6500300","中和區"
"235040","150-BY","2019/12/30 19:59:29","新北市中和區保健路10巷3弄1號","121.507776666667","24.99764","6500300","中和區"
"235055","183-VK","2019/12/30 19:59:38","新北市中和區中山路三段214號","121.471435","25.00653","6500300","中和區"
"235044","293-VK","2019/12/30 19:59:39","新北市中和區復興路56號","121.503885","24.9904483333333","6500300","中和區"
"235042","KEA-2878","2019/12/30 19:59:25","新北市新店區安和路三段1-1號","121.517081666667","24.9794766666667","6500300","中和區"
"247016","KEA-2869","2019/12/30 19:59:40","新北市蘆洲區中正路116號","121.469498333333","25.0847183333333","6501400","蘆洲區"
"235050","4979-A6","2019/12/30 19:59:40","新北市中和區景平路239巷38號","121.508251666667","24.99219","6500300","中和區"
"235046","733-UM","2019/12/30 19:59:33","新北市中和區興南路一段93巷58弄1號","121.51064","24.9858816666667","6500300","中和區"
"235051","157-BY","2019/12/30 19:59:36","新北市中和區景安路225號","121.504273333333","24.9913016666667","6500300","中和區"
"235037","AAC-213","2019/12/30 19:59:24","新北市中和區自強路54號","121.520151666667","24.9947066666667","6500300","中和區"
"235059","AAC-215","2019/12/30 19:59:24","新北市中和區圓通路351號","121.491496666667","24.9902066666667","6500300","中和區"
"207004","KEE-1107","2019/12/30 19:59:31","新北市萬里區北基里忠一街1號","121.686798333333","25.176305","6502800","萬里區"
"220054","015-TV","2019/12/30 19:59:31","新北市板橋區忠孝路忠義巷15弄28號","121.46575","25.0042683333333","6500100","板橋區"
"220065","072-UY","2019/12/30 19:59:36","新北市板橋區海山路33號","121.467626666667","25.0092683333333","6500100","板橋區"
"220086","073-UY","2019/12/30 19:59:31","新北市板橋區南雅西路二段7巷25號","121.451888333333","25.0094983333333","6500100","板橋區"
"220106","075-UY","2019/12/30 19:59:32","新北市板橋區懷德街68號","121.477385","25.032235","6500100","板橋區"
"220069","AAD-861","2019/12/30 19:59:39","新北市板橋區貴興路79號","121.456806666667","25.0029516666667","6500100","板橋區"
"247006","893-R6","2019/12/30 19:59:35","新北市蘆洲區九芎街115號","121.465526666667","25.07956","6501400","蘆洲區"
"247020","546-UM","2019/12/30 19:59:30","新北市蘆洲區民權路109號","121.472488333333","25.0893433333333","6501400","蘆洲區"
"247010","341-TH","2019/12/30 19:59:29","新北市蘆洲區集賢路204號","121.483378333333","25.0873933333333","6501400","蘆洲區"
"247004","336-TH","2019/12/30 19:59:41","新北市蘆洲區長安街275號","121.458523333333","25.0841583333333","6501400","蘆洲區"
"247024","057-VK","2019/12/30 19:59:38","新北市蘆洲區光復路40號","121.463663333333","25.0849883333333","6501400","蘆洲區"
"247014","056-VK","2019/12/30 19:59:34","新北市蘆洲區中山二路97號","121.472815","25.0817716666667","6501400","蘆洲區"
"247018","053-VK","2019/12/30 19:59:32","新北市蘆洲區民族路298巷10號","121.478421666667","25.0901216666667","6501400","蘆洲區"
"247022","007-UY","2019/12/30 19:59:37","新北市蘆洲區中正路174巷10號","121.467696666667","25.0879783333333","6501400","蘆洲區"
"247008","002-UY","2019/12/30 19:59:37","新北市蘆洲區信義路113巷1弄2號","121.47824","25.080545","6501400","蘆洲區"
"247002","001-UY","2019/12/30 19:59:32","新北市蘆洲區長安街349號","121.457228333333","25.08711","6501400","蘆洲區"
"226004","312-R5","2019/12/30 19:58:58","新北市平溪區靜安路三段392巷1號","121.784161666667","25.0495733333333","6502400","平溪區"
"228003","097-TW","2019/12/30 19:59:20","新北市貢寮區仁理村仁和路220號","121.923973333333","25.0534683333333","6502600","貢寮區"
"227002","642-TC","2019/12/30 19:59:25","新北市雙溪區雙溪里長安街16號","121.864973333333","25.0347066666667","6502500","雙溪區"
"227001","400-TW","2019/12/30 19:59:27","新北市雙溪區新基里新基南街25號","121.866266666667","25.0381133333333","6502500","雙溪區"
"222001","KEA-2212","2019/12/30 19:59:25","新北市深坑區北深路三段165-1號","121.60213","25.003445","6501800","深坑區"
"208003","665-BX","2019/12/30 19:59:23","新北市金山區永興里濆水路1-1號","121.629776666667","25.26461","6502700","金山區"
"251009","008-UM","2019/12/30 19:59:27","新北市淡水區英專路21巷21號","121.444848333333","25.169725","6501000","淡水區"
"251004","009-UM","2019/12/30 19:59:32","新北市淡水區民權路177巷13號","121.460803333333","25.13512","6501000","淡水區"
"251005","010-UM","2019/12/30 19:59:33","新北市淡水區學府路136巷31號","121.451611666667","25.1728","6501000","淡水區"
"251016","180-VK","2019/12/30 19:59:44","新北市淡水區淡金路五段20號","121.452945","25.2321866666667","6501000","淡水區"
"251008","181-VK","2019/12/30 19:59:11","新北市淡水區中正路一段132巷7弄6號","121.42254","25.1798416666667","6501000","淡水區"
"251013","182-VK","2019/12/30 19:59:32","新北市淡水區下圭柔山63-7號","121.451903333333","25.2061433333333","6501000","淡水區"
"251012","441-VK","2019/12/30 19:59:41","新北市淡水區下圭柔山93-3號","121.436218333333","25.2091416666667","6501000","淡水區"
"251001","559-UM","2019/12/30 19:59:38","新北市淡水區水源街二段189-4號","121.456408333333","25.1766816666667","6501000","淡水區"
"251006","561-UM","2019/12/30 19:59:37","新北市淡水區水碓街14號","121.443768333333","25.1771966666667","6501000","淡水區"
"251014","577-R6","2019/12/30 19:59:29","新北市淡水區石頭厝2-1號","121.458101666667","25.2357366666667","6501000","淡水區"
"251011","650-BX","2019/12/30 19:59:33","新北市淡水區淡金路二段15號","121.447048333333","25.1894233333333","6501000","淡水區"
"251002","672-BX","2019/12/30 19:59:23","新北市淡水區新市一路一段6號","121.428956666667","25.18736","6501000","淡水區"
"251015","178-VK","2019/12/30 19:59:25","新北市淡水區大埤頭1-3號","121.492521666667","25.1949166666667","6501000","淡水區"
"252001","292-VK","2019/12/30 19:59:24","新北市三芝區公正街9號","121.499745","25.2575","6502100","三芝區"
"237004","KEA-2597","2019/12/30 19:59:34","新北市三峽區添福2號","121.371921666667","24.9060633333333","6500900","三峽區"
"237009","210-TH","2019/12/30 19:59:24","新北市三峽區民族街78巷2弄12號","121.368281666667","24.930005","6500900","三峽區"
"237012","275-BY","2019/12/30 19:59:41","新北市三峽區愛國路170-1號","121.374971666667","24.93116","6500900","三峽區"
"237008","302-VK","2019/12/30 19:59:31","新北市三峽區中正路一段174巷1弄2號","121.372166666667","24.928685","6500900","三峽區"
"237006","5530-G3","2019/12/30 19:59:36","新北市三峽區中正路二段176巷36號","121.365113333333","24.9145933333333","6500900","三峽區"
"237014","433-BY","2019/12/30 19:59:24","新北市三峽區中山路236號","121.36246","24.9374","6500900","三峽區"
"237015","649-BX","2019/12/30 19:59:43","新北市三峽區介壽路二段138巷1弄13-1號","121.39625","24.9339183333333","6500900","三峽區"
"237005","AKY-6261","2019/12/30 19:59:38","新北市三峽區民生街1巷1號","121.382475","24.932425","6500900","三峽區"
"236042","KED-0685","2019/12/30 19:59:33","新北市土城區學府路一段98巷15號","121.455723333333","24.9886783333333","6501300","土城區"
"236078","166-UM","2019/12/30 19:59:26","新北市土城區福安街55巷19號","121.419175","24.9635533333333","6501300","土城區"
"236026","269-VK","2019/12/30 19:59:40","新北市土城區中央路二段98號","121.442183333333","24.9784966666667","6501300","土城區"
"236039","271-VK","2019/12/30 19:59:31","新北市土城區國際路116號","121.46752","24.9756166666667","6501300","土城區"
"247012","KED-0683","2019/12/30 19:59:33","新北市蘆洲區民族路226號","121.47959","25.0880516666667","6501400","蘆洲區"
"236069","KEA-2877","2019/12/30 19:59:29","新北市土城區忠義路95號","121.443615","24.96432","6501300","土城區"
"252002","KED-0821","2019/12/30 19:59:31","新北市三芝區忠孝街116-3號","121.505635","25.257435","6502100","三芝區"
"236020","401-BY","2019/12/30 19:59:24","新北市土城區延吉街105號","121.47148","24.9867633333333","6501300","土城區"
"236030","752-BX","2019/12/30 19:59:33","新北市土城區中央路一段248-3號","121.444445","24.9846033333333","6501300","土城區"
"236059","912-UM","2019/12/30 19:59:26","新北市土城區中央路一段343號","121.443331666667","24.9813566666667","6501300","土城區"
"236048","913-UM","2019/12/30 19:59:37","新北市土城區金城路三段262號","121.474375","24.9907966666667","6501300","土城區"
"236063","915-UM","2019/12/30 19:59:26","新北市土城區金城路三段73巷4弄7號","121.466386666667","24.9881033333333","6501300","土城區"
"236055","AAC-216","2019/12/30 19:59:41","新北市土城區學府路一段12號","121.459228333333","24.9884733333333","6501300","土城區"
"242042","AAC-296","2019/12/30 19:59:37","新北市新莊區新北大道七段556號","121.412123333333","25.0287766666667","6500500","新莊區"
"242060","986-R7","2019/12/30 19:59:25","新北市新莊區瓊林路96巷2號","121.444258333333","25.0275066666667","6500500","新莊區"
"242004","751-BX","2019/12/30 19:59:29","新北市新莊區化成路314巷18號","121.466948333333","25.04825","6500500","新莊區"
"242029","615-BX","2019/12/30 19:59:24","新北市新莊區中平路296號","121.444941666667","25.0516366666667","6500500","新莊區"
"242027","613-BX","2019/12/30 19:59:39","新北市新莊區立信五街10號","121.444156666667","25.0516566666667","6500500","新莊區"
"242058","612-BX","2019/12/30 19:59:24","新北市新莊區八德街55號","121.424831666667","25.0220266666667","6500500","新莊區"
"242048","566-BX","2019/12/30 19:59:36","新北市新莊區民安路211號","121.42646","25.0223516666667","6500500","新莊區"
"242053","497-BY","2019/12/30 19:59:24","新北市新莊區西盛街427號","121.427286666667","25.0121316666667","6500500","新莊區"
"242017","442-UM","2019/12/30 19:59:42","新北市新莊區中港路287號","121.452838333333","25.0440333333333","6500500","新莊區"
"242002","441-UM","2019/12/30 19:59:26","新北市新莊區新泰路71號","121.449281666667","25.034305","6500500","新莊區"
"242007","440-UM","2019/12/30 19:59:37","新北市新莊區思源路587號","121.459848333333","25.05948","6500500","新莊區"
"242013","413-TV","2019/12/30 19:59:29","新北市新莊區中港路391號","121.451306666667","25.0469583333333","6500500","新莊區"
"242050","400-BY","2019/12/30 19:59:43","新北市新莊區民本街27巷2號","121.428353333333","25.0191033333333","6500500","新莊區"
"242023","353-BY","2019/12/30 19:59:32","新北市新莊區化成路380-1號","121.46593","25.0500416666667","6500500","新莊區"
"242015","132-UY","2019/12/30 19:59:23","新北市新莊區泰順街43巷1號","121.446946666667","25.0429083333333","6500500","新莊區"
"242039","135-UY","2019/12/30 19:59:36","新北市新莊區民安路285-5號","121.428948333333","25.0225583333333","6500500","新莊區"
"242031","175-VK","2019/12/30 19:59:29","新北市新莊區公園一路36號","121.443426666667","25.0354333333333","6500500","新莊區"
"242056","176-VK","2019/12/30 19:59:42","新北市新莊區新豐街20巷24號","121.447571666667","25.0346233333333","6500500","新莊區"
"242021","KED-0687","2019/12/30 19:59:37","新北市新莊區建中街10號","121.4496","25.0376633333333","6500500","新莊區"
"242019","346-TH","2019/12/30 19:59:35","新北市新莊區明智街13號","121.454391666667","25.0413433333333","6500500","新莊區"
"242036","348-TH","2019/12/30 19:59:34","新北市新莊區民安路207巷38號","121.428731666667","25.0248483333333","6500500","新莊區"
"242034","350-TH","2019/12/30 19:59:22","新北市新莊區建中街91號","121.446803333333","25.0364983333333","6500500","新莊區"
"238021","KEA-2539","2019/12/30 19:59:41","新北市樹林區佳園路二段138號","121.389446666667","24.9561566666667","6500700","樹林區"
"238017","283-BY","2019/12/30 19:59:40","新北市樹林區保安街二段45巷17號","121.415101666667","24.9999466666667","6500700","樹林區"
"239006","891-R6","2019/12/30 19:59:24","新北市鶯歌區鶯桃路33巷16號","121.342931666667","24.9500316666667","6500800","鶯歌區"
"239003","360-BY","2019/12/30 19:59:35","新北市鶯歌區文化路124號","121.351908333333","24.95179","6500800","鶯歌區"
"239002","359-BY","2019/12/30 19:59:31","新北市鶯歌區大湖路424號","121.342255","24.9728433333333","6500800","鶯歌區"
"239004","193-VK","2019/12/30 19:59:32","新北市鶯歌區中正三路194巷2-3號","121.332676666667","24.93846","6500800","鶯歌區"
"221008","489-VK","2019/12/30 19:59:44","新北市汐止區康寧街141巷1弄1號","121.621435","25.06701","6501100","汐止區"
"221015","131-UY","2019/12/30 19:59:30","新北市汐止區橋東街5巷2-1號","121.666698333333","25.07583","6501100","汐止區"
"221010","269-BY","2019/12/30 19:59:32","新北市汐止區康寧街885巷3號","121.650206666667","25.076555","6501100","汐止區"
"221012","278-VK","2019/12/30 19:59:33","新北市汐止區大同路三段579號","121.683051666667","25.07318","6501100","汐止區"
"221023","279-VK","2019/12/30 19:59:37","新北市汐止區民族六街3巷2號","121.629563333333","25.070225","6501100","汐止區"
"221027","281-BY","2019/12/30 19:59:28","新北市汐止區中正路87號","121.66125","25.0694733333333","6501100","汐止區"
"221029","298-VK","2019/12/30 19:59:36","新北市汐止區樟樹一路137巷24號","121.641065","25.0660116666667","6501100","汐止區"
"221021","299-VK","2019/12/30 19:59:23","新北市汐止區水源路一段171號","121.655246666667","25.06187","6501100","汐止區"
"207003","KEE-1020","2019/12/30 19:59:35","新北市萬里區大鵬里萬里加投51-1號","121.641993333333","25.21164","6502800","萬里區"
"221035","622-UM","2019/12/30 19:59:29","新北市汐止區長江街11號","121.654696666667","25.0712066666667","6501100","汐止區"
"221025","623-UM","2019/12/30 19:59:34","新北市汐止區仁愛路77巷2弄22號","121.66172","25.063615","6501100","汐止區"
"221038","646-BX","2019/12/30 19:59:38","新北市汐止區忠孝東路526號","121.667093333333","25.0760833333333","6501100","汐止區"
"221033","647-BX","2019/12/30 19:59:28","新北市汐止區東勢街190巷3號","121.633856666667","25.0416383333333","6501100","汐止區"
"221002","707-TV","2019/12/30 19:59:37","新北市汐止區康寧街901號","121.651341666667","25.0749983333333","6501100","汐止區"
"220079","145-BY","2019/12/30 19:59:32","新北市板橋區民權路202巷15弄26號","121.459705","25.01624","6500100","板橋區"
"233001","KEA-2870","2019/12/30 19:58:14","新北市烏來區啦卡路70-1號","121.56532","24.8558266666667","6502900","烏來區"
"220080","200-UY","2019/12/30 19:59:29","新北市板橋區大觀路二段59巷30號","121.447648333333","25.0022783333333","6500100","板橋區"
"220082","610-BX","2019/12/30 19:59:43","新北市板橋區篤行路二段105號","121.431686666667","24.99121","6500100","板橋區"
"220101","245-BX","2019/12/30 19:59:36","新北市板橋區莒光路165巷32-2號","121.474276666667","25.0247883333333","6500100","板橋區"
"224002","257-TC","2019/12/30 19:59:23","新北市瑞芳區民享新村23號","121.817251666667","25.10541","6501200","瑞芳區"
"220056","276-BY","2019/12/30 19:59:39","新北市板橋區四川路二段85號","121.452903333333","24.9950033333333","6500100","板橋區"
"220072","277-BY","2019/12/30 19:59:45","新北市板橋區篤行路二段31巷5號","121.432523333333","24.9926466666667","6500100","板橋區"
"220071","283-VK","2019/12/30 19:59:24","新北市板橋區五權街30巷21號","121.464021666667","24.993105","6500100","板橋區"
"220094","285-UM","2019/12/30 19:59:38","新北市板橋區文化路一段154號","121.465591666667","25.019145","6500100","板橋區"
"220053","285-VK","2019/12/30 19:59:42","新北市板橋區懷仁街64號","121.477043333333","25.0186466666667","6500100","板橋區"
"220083","286-VK","2019/12/30 19:59:40","新北市板橋區僑中二街10巷7號","121.446585","25.01093","6500100","板橋區"
"220081","287-VK","2019/12/30 19:59:36","新北市板橋區大觀路一段28巷91-1號","121.450155","25.0114933333333","6500100","板橋區"
"220090","288-VK","2019/12/30 19:59:29","新北市板橋區新海路72巷5弄36號","121.461561666667","25.0230333333333","6500100","板橋區"
"220061","293-UM","2019/12/30 19:59:31","新北市板橋區中山路一段156號","121.464761666667","25.0115066666667","6500100","板橋區"
"220084","296-UM","2019/12/30 19:59:26","新北市板橋區溪崑二街94號","121.426758333333","24.9891816666667","6500100","板橋區"
"220075","303-R5","2019/12/30 19:59:28","新北市板橋區金華街10巷48弄3號","121.457125","25.0199366666667","6500100","板橋區"
"220062","305-R5","2019/12/30 19:59:26","新北市板橋區光復街156巷2號","121.484843333333","25.0195583333333","6500100","板橋區"
"220092","307-R5","2019/12/30 19:59:39","新北市板橋區文化路一段81巷7號","121.460566666667","25.0141933333333","6500100","板橋區"
"220098","317-R6","2019/12/30 19:59:24","新北市板橋區裕民街135號","121.459076666667","25.027275","6500100","板橋區"
"220089","487-VK","2019/12/30 19:59:32","新北市板橋區四維路327號","121.46265","25.0293833333333","6500100","板橋區"
"242011","280-VK","2019/12/30 19:59:40","新北市新莊區中港路531巷54號","121.450151666667","25.0515883333333","6500500","新莊區"
"220088","491-VK","2019/12/30 19:59:23","新北市板橋區民治街92號","121.479213333333","25.0318016666667","6500100","板橋區"
"220035","560-BX","2019/12/30 19:59:30","新北市板橋區金華街81號","121.45795","25.02085","6500100","板橋區"
"220103","561-BX","2019/12/30 19:59:27","新北市板橋區陽明街259號","121.462541666667","25.0254816666667","6500100","板橋區"
"220063","609-BX","2019/12/30 19:59:41","新北市板橋區中山路二段113號","121.47479","25.0162533333333","6500100","板橋區"
"220091","637-BX","2019/12/30 19:59:32","新北市板橋區文聖街89巷20號","121.478043333333","25.0302233333333","6500100","板橋區"
"220077","687-BX","2019/12/30 19:59:37","新北市板橋區僑中一街84號","121.44738","25.0116133333333","6500100","板橋區"
"220093","689-BX","2019/12/30 19:59:25","新北市板橋區民生路三段252號","121.464483333333","25.0312016666667","6500100","板橋區"
"220102","KEA-2699","2019/12/30 19:59:30","新北市板橋區文化路一段370號","121.469868333333","25.02356","6500100","板橋區"
"220055","827-TW","2019/12/30 19:59:41","新北市板橋區仁愛路62巷15弄2號","121.460035","24.998445","6500100","板橋區"
"220067","829-TW","2019/12/30 19:59:38","新北市板橋區中山路一段206巷72號","121.47231","25.0134116666667","6500100","板橋區"
"220068","830-TW","2019/12/30 19:59:34","新北市板橋區中山路二段408號","121.48276","25.0207766666667","6500100","板橋區"
"220074","895-R6","2019/12/30 19:59:29","新北市板橋區東門街36-5號","121.458425","25.0079333333333","6500100","板橋區"
"220073","985-R7","2019/12/30 19:59:33","新北市板橋區南雅西路二段210號","121.451983333333","25.0150316666667","6500100","板橋區"
"220097","AAC-210","2019/12/30 19:59:31","新北市板橋區建國街127號","121.460911666667","25.0176983333333","6500100","板橋區"
"220064","AAC-253","2019/12/30 19:59:40","新北市板橋區民族路61號","121.465091666667","25.0087433333333","6500100","板橋區"
"235068","KEA-2876","2019/12/30 19:59:29","新北市中和區福美路303號","121.49719","25.0047616666667","6500300","中和區"
