"lineid","car","time","location","longitude","latitude","cityid","cityname"
"234081","298-R6","2019/12/30 20:29:33","新北市永和區國中路132巷5號","121.523666666667","25.0071066666667","6500400","永和區"
"234038","336-UY","2019/12/30 20:29:38","新北市永和區民樂街31巷17弄2號","121.528711666667","25.0020416666667","6500400","永和區"
"234064","337-UY","2019/12/30 20:29:41","新北市永和區中正路526號","121.517253333333","25.0049366666667","6500400","永和區"
"234086","338-UY","2019/12/30 20:29:41","新北市永和區中正路637號","121.515391666667","25.01001","6500400","永和區"
"234070","552-UM","2019/12/30 20:29:32","新北市永和區永亨路7號","121.519361666667","25.00569","6500400","永和區"
"234017","745-BX","2019/12/30 20:29:42","新北市永和區仁愛路91號","121.512996666667","25.01305","6500400","永和區"
"234030","746-BX","2019/12/30 20:29:29","新北市永和區秀朗路二段259號","121.526456666667","24.99912","6500400","永和區"
"234054","KEA-2590","2019/12/30 20:29:24","新北市永和區環河東路一段76號","121.519611666667","25.016575","6500400","永和區"
"234013","KEA-2591","2019/12/30 20:29:36","新北市永和區仁愛路282巷14號","121.50324","25.0087233333333","6500400","永和區"
"234061","AAD-866","2019/12/30 20:29:39","新北市永和區安樂路194巷29號","121.516226666667","25.0009433333333","6500400","永和區"
"234042","862-TW","2019/12/30 20:29:40","新北市永和區安樂路282號","121.51449","25.0044033333333","6500400","永和區"
"234050","863-TW","2019/12/30 20:29:22","新北市永和區新生路122號","121.506935","25.0144983333333","6500400","永和區"
"249001","173-UM","2019/12/30 20:29:32","新北市八里區中山路三段106號","121.391038333333","25.142335","6502300","八里區"
"249004","303-UY","2019/12/30 20:29:27","新北市八里區中山路一段129巷19號","121.413895","25.158695","6502300","八里區"
"249002","305-UY","2019/12/30 20:29:40","新北市八里區龍米路二段125巷23號","121.4458","25.1454883333333","6502300","八里區"
"249003","593-UM","2019/12/30 20:29:27","新北市八里區中山路二段339號","121.3997","25.1472083333333","6502300","八里區"
"248002","678-BX","2019/12/30 20:29:41","新北市五股區成泰路三段43-7號","121.442525","25.089075","6501500","五股區"
"234023","9380-KE","2019/12/30 20:29:43","新北市永和區博愛街32巷13號","121.518846666667","25.0153583333333","6500400","永和區"
"234074","AAC-211","2019/12/30 20:29:30","新北市永和區豫溪街191巷7弄24號","121.52318","25.011115","6500400","永和區"
"234067","AAC-212","2019/12/30 20:29:37","新北市永和區保平路268巷51弄6號","121.50685","25.0062083333333","6500400","永和區"
"234003","AAC-295","2019/12/30 20:29:22","新北市永和區中正路616巷1號","121.517215","25.0077466666667","6500400","永和區"
"243012","AAD-798","2019/12/30 20:29:33","新北市泰山區楓江路17號","121.433915","25.0624033333333","6501600","泰山區"
"243010","297-R6","2019/12/30 20:16:08","新北市泰山區明志路二段254巷12號","121.426261666667","25.0478966666667","6501600","泰山區"
"243014","KEA-2801","2019/12/30 20:29:43","新北市泰山區泰林路二段455號","121.425615","25.0640366666667","6501600","泰山區"
"243016","421-VK","2019/12/30 20:29:37","新北市泰山區文程路23號","121.428553333333","25.0491983333333","6501600","泰山區"
"243009","KEA-2215","2019/12/30 20:29:32","新北市泰山區忠孝街40巷1號","121.428495","25.065385","6501600","泰山區"
"243011","KEA-2216","2019/12/30 20:29:32","新北市泰山區明志路三段46號","121.424616666667","25.0424433333333","6501600","泰山區"
"243013","646-TV","2019/12/30 20:29:34","新北市泰山區中央路5巷1號","121.426608333333","25.043715","6501600","泰山區"
"243015","680-BX","2019/12/30 20:29:25","新北市泰山區仁德路125號","121.432608333333","25.056145","6501600","泰山區"
"222003","KEE-1106","2019/12/30 20:29:34","新北市深坑區深坑街32號","121.615261666667","25.0017616666667","6501800","深坑區"
"222002","659-BX","2019/12/30 20:29:33","新北市深坑區萬福路63巷8號","121.600146666667","25.0078433333333","6501800","深坑區"
"231061","002-UM","2019/12/30 20:29:29","新北市新店區光華街38巷11號","121.515851666667","24.97035","6500600","新店區"
"231055","0291-UT","2019/12/30 20:29:30","新北市新店區安康路二段1-5號","121.517221666667","24.963955","6500600","新店區"
"231058","0293-UT","2019/12/30 20:29:25","新北市新店區中央路11號","121.533436666667","24.9784933333333","6500600","新店區"
"231044","046-UY","2019/12/30 20:29:27","新北市新店區民族路37號","121.54085","24.978565","6500600","新店區"
"231060","106-UY","2019/12/30 20:29:39","新北市新店區錦秀路11巷90弄2號","121.480438333333","24.94323","6500600","新店區"
"231051","107-UY","2019/12/30 20:29:29","新北市新店區中央七街59號","121.528155","24.97626","6500600","新店區"
"231049","108-UY","2019/12/30 20:29:39","新北市新店區永業路81巷1弄2號","121.529773333333","24.9494933333333","6500600","新店區"
"231065","110-UY","2019/12/30 20:29:28","新北市新店區安祥路102巷46弄69號","121.486811666667","24.9633916666667","6500600","新店區"
"231052","189-VK","2019/12/30 20:29:25","新北市新店區松林路36號","121.546196666667","24.9102616666667","6500600","新店區"
"221031","KEA-2785","2019/12/30 20:29:39","新北市汐止區中興路150巷15-1號","121.633001666667","25.065105","6501100","汐止區"
"231062","256-BX","2019/12/30 20:29:23","新北市新店區安泰路7巷16號","121.485663333333","24.9509216666667","6500600","新店區"
"231054","260-TV","2019/12/30 20:29:42","新北市新店區檳榔路174號","121.544258333333","24.9618616666667","6500600","新店區"
"231042","268-BY","2019/12/30 20:29:29","新北市新店區寶橋路230號","121.551488333333","24.97888","6500600","新店區"
"231064","278-BY","2019/12/30 20:29:23","新北市新店區新和街59巷17號","121.519228333333","24.9860016666667","6500600","新店區"
"231050","AAD-862","2019/12/30 20:29:30","新北市新店區建國路85號","121.540415","24.9764766666667","6500600","新店區"
"231045","355-BY","2019/12/30 20:29:37","新北市新店區新坡一街2號","121.548495","24.961095","6500600","新店區"
"231056","4715-K9","2019/12/30 20:29:34","新北市新店區中央六街33號","121.528975","24.9752416666667","6500600","新店區"
"231067","4772-VM","2019/12/30 20:29:29","新北市新店區安華路28-1號","121.519626666667","24.96088","6500600","新店區"
"231068","512-UM","2019/12/30 20:29:27","新北市新店區民權路7號","121.542571666667","24.9827633333333","6500600","新店區"
"231063","616-UM","2019/12/30 20:29:29","新北市新店區安康路二段382號","121.500283333333","24.9569566666667","6500600","新店區"
"231040","617-UM","2019/12/30 20:29:35","新北市新店區三民路66號","121.534968333333","24.97225","6500600","新店區"
"231041","619-UM","2019/12/30 20:29:35","新北市新店區中正路499號","121.533623333333","24.9834433333333","6500600","新店區"
"231047","KED-0819","2019/12/30 20:29:26","新北市新店區寶慶街58巷21-1號","121.541995","24.9873066666667","6500600","新店區"
"231057","720-UM","2019/12/30 20:29:38","新北市新店區花園十路二段2號","121.555645","24.9334083333333","6500600","新店區"
"231059","897-TW","2019/12/30 20:29:45","新北市新店區安德街167號","121.508496666667","24.95928","6500600","新店區"
"231043","899-TW","2019/12/30 20:29:31","新北市新店區明德路65巷20號","121.540576666667","24.9767816666667","6500600","新店區"
"231066","AKT-0513","2019/12/30 20:29:39","新北市新店區安興路102號","121.51519","24.976705","6500600","新店區"
"241011","013-R5","2019/12/30 20:29:27","新北市三重區龍門路79號","121.496928333333","25.07251","6500200","三重區"
"241028","022-UY","2019/12/30 20:29:40","新北市三重區光興街95號","121.497286666667","25.05999","6500200","三重區"
"241008","059-VK","2019/12/30 20:29:38","新北市三重區永福街299號","121.483831666667","25.0745866666667","6500200","三重區"
"241031","061-VK","2019/12/30 20:29:35","新北市三重區三寧街13-1號","121.489296666667","25.0597083333333","6500200","三重區"
"241015","062-VK","2019/12/30 20:29:39","新北市三重區長元西街3號","121.49871","25.065375","6500200","三重區"
"241017","063-VK","2019/12/30 20:29:37","新北市三重區自強路一段203號","121.491635","25.06843","6500200","三重區"
"241024","065-VK","2019/12/30 20:29:42","新北市三重區中正北路276巷20號","121.480503333333","25.0676583333333","6500200","三重區"
"241007","066-VK","2019/12/30 20:29:43","新北市三重區自強路四段48號","121.489671666667","25.0779016666667","6500200","三重區"
"241003","091-VK","2019/12/30 20:29:38","新北市三重區富華街160號","121.492511666667","25.084505","6500200","三重區"
"241009","742-BX","2019/12/30 20:29:31","新北市三重區永福街28號","121.48246","25.0781366666667","6500200","三重區"
"241006","262-UM","2019/12/30 20:29:29","新北市三重區車路頭街139巷14號","121.48431","25.0762083333333","6500200","三重區"
"241020","316-R6","2019/12/30 20:29:23","新北市三重區明德街28號","121.492481666667","25.0720183333333","6500200","三重區"
"241016","266-UM","2019/12/30 20:29:36","新北市三重區正義北路196號","121.496338333333","25.0670716666667","6500200","三重區"
"241018","268-UM","2019/12/30 20:29:42","新北市三重區正義北路222-1號","121.49601","25.067685","6500200","三重區"
"241032","269-UM","2019/12/30 20:29:29","新北市三重區三陽路14巷10號","121.485985","25.058295","6500200","三重區"
"241013","270-UM","2019/12/30 20:29:35","新北市三重區溪尾街5巷22號","121.492466666667","25.0746033333333","6500200","三重區"
"241025","271-UM","2019/12/30 20:29:40","新北市三重區頂崁街210巷27號","121.475745","25.0681616666667","6500200","三重區"
"241035","KEA-2210","2019/12/30 20:29:41","新北市三重區正義北路46號","121.497308333333","25.0637","6500200","三重區"
"241030","KED-0822","2019/12/30 20:29:32","新北市三重區成功路70號","121.488565","25.0511416666667","6500200","三重區"
"241004","462-BY","2019/12/30 20:29:39","新北市三重區溪尾街169號","121.489071666667","25.0800866666667","6500200","三重區"
"241026","480-VK","2019/12/30 20:29:23","新北市三重區福德南路24巷11號","121.503333333333","25.0631366666667","6500200","三重區"
"241014","543-UM","2019/12/30 20:28:30","新北市三重區長榮路67號","121.502186666667","25.06897","6500200","三重區"
"241023","545-UM","2019/12/30 20:29:39","新北市三重區自由街17巷16號","121.479905","25.0668033333333","6500200","三重區"
"241001","547-UM","2019/12/30 20:29:38","新北市三重區自強路四段28號","121.488923333333","25.076855","6500200","三重區"
"241019","KEA-2593","2019/12/30 20:29:30","新北市三重區忠孝路一段21號","121.491888333333","25.0718833333333","6500200","三重區"
"241005","AAD-863","2019/12/30 20:29:30","新北市三重區碧華街401號","121.49318","25.08575","6500200","三重區"
"241012","743-BX","2019/12/30 20:29:27","新北市三重區龍門路272號","121.501436666667","25.0739833333333","6500200","三重區"
"241022","KED-0820","2019/12/30 20:29:29","新北市三重區中正北路20巷12號","121.488031666667","25.0624833333333","6500200","三重區"
"241002","KED-0670","2019/12/30 20:29:32","新北市三重區五華街21巷1號","121.495021666667","25.0806866666667","6500200","三重區"
"241029","942-UM","2019/12/30 20:29:39","新北市三重區集美街112巷21號","121.489761666667","25.054155","6500200","三重區"
"241033","AAC-255","2019/12/30 20:29:41","新北市三重區五谷王北街80巷60號","121.47466","25.0527383333333","6500200","三重區"
"235066","003-UY","2019/12/30 20:29:42","新北市中和區光華街59-1號","121.506345","25.0031916666667","6500300","中和區"
"235055","183-VK","2019/12/30 20:29:38","新北市八里區下罟子17號","121.379158333333","25.1426883333333","6500300","中和區"
"247016","KEA-2869","2019/12/30 20:29:40","新北市蘆洲區光華路150巷5號","121.465446666667","25.082445","6501400","蘆洲區"
"235050","4979-A6","2019/12/30 20:29:40","新北市中和區景新街160巷15號","121.505071666667","24.9967266666667","6500300","中和區"
"235069","4980-A6","2019/12/30 20:29:26","新北市中和區中正路282號","121.494736666667","24.9940866666667","6500300","中和區"
"235059","AAC-215","2019/12/30 20:29:24","新北市中和區員山路66-3號","121.482218333333","24.9914466666667","6500300","中和區"
"207004","KEE-1107","2019/12/30 20:29:31","新北市萬里區北基里忠四街22號","121.684523333333","25.1759066666667","6502800","萬里區"
"247006","893-R6","2019/12/30 20:29:35","新北市蘆洲區九芎街88號","121.465843333333","25.0798933333333","6501400","蘆洲區"
"247020","546-UM","2019/12/30 20:29:30","新北市蘆洲區仁愛街132號","121.46912","25.0945533333333","6501400","蘆洲區"
"247010","341-TH","2019/12/30 20:29:29","新北市蘆洲區民族路132號","121.47915","25.085785","6501400","蘆洲區"
"247004","336-TH","2019/12/30 20:29:41","新北市蘆洲區長安街222號","121.458146666667","25.0849416666667","6501400","蘆洲區"
"247024","057-VK","2019/12/30 20:29:38","新北市蘆洲區長興路50巷41號","121.464855","25.084855","6501400","蘆洲區"
"247014","056-VK","2019/12/30 20:29:34","新北市蘆洲區中山二路92號","121.472888333333","25.0819133333333","6501400","蘆洲區"
"247018","053-VK","2019/12/30 20:29:32","新北市蘆洲區民族路253號","121.476698333333","25.0904283333333","6501400","蘆洲區"
"247022","007-UY","2019/12/30 20:29:37","新北市蘆洲區中正路224號","121.46619","25.088855","6501400","蘆洲區"
"247008","002-UY","2019/12/30 20:29:16","新北市蘆洲區永安北路二段76巷1-1號","121.48361","25.0848016666667","6501400","蘆洲區"
"247002","001-UY","2019/12/30 20:29:32","新北市蘆洲區長安街361巷26號","121.456021666667","25.0876316666667","6501400","蘆洲區"
"222001","KEA-2212","2019/12/30 20:29:25","新北市深坑區北深路三段325號","121.597578333333","25.0050066666667","6501800","深坑區"
"251016","180-VK","2019/12/30 20:29:24","新北市淡水區新埔子11-7號","121.447458333333","25.2284866666667","6501000","淡水區"
"251008","181-VK","2019/12/30 20:29:39","新北市淡水區淡海路208巷26號","121.42155","25.1856666666667","6501000","淡水區"
"251013","182-VK","2019/12/30 20:29:32","新北市淡水區後坑子6號","121.46344","25.2066883333333","6501000","淡水區"
"251010","413-VK","2019/12/30 20:29:36","新北市淡水區沙崙路191號","121.424783333333","25.1841316666667","6501000","淡水區"
"251012","441-VK","2019/12/30 20:29:28","新北市淡水區頂田寮路29號","121.455123333333","25.2164216666667","6501000","淡水區"
"251007","442-VK","2019/12/30 20:29:30","新北市淡水區淡金路二段605號","121.446238333333","25.1933966666667","6501000","淡水區"
"251001","559-UM","2019/12/30 20:29:38","新北市淡水區新市一路三段108號","121.446663333333","25.1828616666667","6501000","淡水區"
"251006","561-UM","2019/12/30 20:29:37","新北市淡水區北新路一段3-2號","121.474846666667","25.18481","6501000","淡水區"
"251014","577-R6","2019/12/30 20:29:29","新北市淡水區石頭厝14-40號","121.465666666667","25.2367916666667","6501000","淡水區"
"251002","672-BX","2019/12/30 20:29:43","新北市淡水區中正路51號","121.441876666667","25.1695083333333","6501000","淡水區"
"251003","673-BX","2019/12/30 20:29:35","新北市淡水區新生街108巷2號","121.440145","25.1747366666667","6501000","淡水區"
"251015","178-VK","2019/12/30 20:29:25","新北市淡水區埤島3-20號","121.447056666667","25.1914033333333","6501000","淡水區"
"252001","292-VK","2019/12/30 20:29:24","新北市三芝區中山路一段14號","121.500703333333","25.25806","6502100","三芝區"
"237014","433-BY","2019/12/30 20:29:24","新北市三峽區添福13-18號","121.3745","24.9078483333333","6500900","三峽區"
"247012","KED-0683","2019/12/30 20:29:33","新北市蘆洲區復興路187號","121.479128333333","25.089445","6501400","蘆洲區"
"252002","KED-0821","2019/12/30 20:29:31","新北市三芝區淡金路二段47-2號","121.503735","25.2605833333333","6502100","三芝區"
"242042","AAC-296","2019/12/30 20:29:37","新北市新莊區天祥街54巷2弄1號","121.416641666667","25.0291716666667","6500500","新莊區"
"242060","986-R7","2019/12/30 20:29:24","新北市新莊區新樹路172-13號","121.434606666667","25.02163","6500500","新莊區"
"242004","751-BX","2019/12/30 20:29:29","新北市新莊區化成路524巷3號","121.466748333333","25.05274","6500500","新莊區"
"242029","615-BX","2019/12/30 20:29:44","新北市新莊區中華路二段202號","121.45292","25.05196","6500500","新莊區"
"242027","613-BX","2019/12/30 20:29:39","新北市新莊區幸福路703號","121.44999","25.0491216666667","6500500","新莊區"
"242058","612-BX","2019/12/30 20:29:24","新北市新莊區四維路205-3號","121.421751666667","25.0202816666667","6500500","新莊區"
"242048","566-BX","2019/12/30 20:29:36","新北市新莊區四維路297號","121.421086666667","25.0196933333333","6500500","新莊區"
"242053","497-BY","2019/12/30 20:29:24","新北市新莊區民安西路229巷8弄9號","121.426741666667","25.0136933333333","6500500","新莊區"
"242017","442-UM","2019/12/30 20:29:42","新北市新莊區中港二街141號","121.448173333333","25.0455783333333","6500500","新莊區"
"242002","441-UM","2019/12/30 20:29:26","新北市新莊區中正路11號","121.464185","25.0409316666667","6500500","新莊區"
"242007","440-UM","2019/12/30 20:29:37","新北市新莊區福壽街124巷30號","121.458828333333","25.0512683333333","6500500","新莊區"
"242044","415-TV","2019/12/30 20:29:23","新北市新莊區中正路新建巷36號","121.414525","25.0215883333333","6500500","新莊區"
"242013","413-TV","2019/12/30 20:29:29","新北市新莊區中和街155巷24弄28號","121.446668333333","25.0509116666667","6500500","新莊區"
"242050","400-BY","2019/12/30 20:29:36","新北市新莊區民安西路212巷3弄15號","121.425295","25.01418","6500500","新莊區"
"242023","353-BY","2019/12/30 20:29:25","新北市新莊區化成路896號","121.464671666667","25.0615766666667","6500500","新莊區"
"242015","132-UY","2019/12/30 20:29:43","新北市新莊區中平路36巷22號","121.445655","25.0435133333333","6500500","新莊區"
"242039","135-UY","2019/12/30 20:29:36","新北市新莊區民安路292號","121.428058333333","25.0217216666667","6500500","新莊區"
"242031","175-VK","2019/12/30 20:29:44","新北市泰山區新生路181號","121.43563","25.0394383333333","6500500","新莊區"
"242056","176-VK","2019/12/30 20:29:42","新北市新莊區新莊路614號","121.443461666667","25.0328833333333","6500500","新莊區"
"242021","KED-0687","2019/12/30 20:29:37","新北市新莊區公園路12號","121.44794","25.0388316666667","6500500","新莊區"
"242019","346-TH","2019/12/30 20:29:41","新北市新莊區復興路二段198號","121.4594","25.04448","6500500","新莊區"
"242036","348-TH","2019/12/30 20:29:34","新北市新莊區後港一路76巷3弄1號","121.427241666667","25.02596","6500500","新莊區"
"242009","349-TH","2019/12/30 20:29:35","新北市新莊區昌盛街81巷2弄1號","121.455518333333","25.0503333333333","6500500","新莊區"
"242034","350-TH","2019/12/30 20:29:22","新北市新莊區新泰路207號","121.446851666667","25.0384016666667","6500500","新莊區"
"239004","193-VK","2019/12/30 20:29:32","新北市鶯歌區中正三路145-1號","121.336943333333","24.9401583333333","6500800","鶯歌區"
"221008","489-VK","2019/12/30 20:29:44","新北市汐止區康寧街135號","121.621141666667","25.0664766666667","6501100","汐止區"
"221036","130-UY","2019/12/30 20:29:40","新北市汐止區福安街37巷1號","121.662961666667","25.0649283333333","6501100","汐止區"
"221015","131-UY","2019/12/30 20:29:30","新北市汐止區建成路142巷19弄7號","121.662055","25.0737866666667","6501100","汐止區"
"221010","269-BY","2019/12/30 20:29:26","新北市汐止區八連路二段36巷14號","121.636498333333","25.094785","6501100","汐止區"
"221012","278-VK","2019/12/30 20:29:33","新北市汐止區汐平路二段66號","121.698415","25.0610533333333","6501100","汐止區"
"221023","279-VK","2019/12/30 20:29:37","新北市汐止區明峰街125號","121.630656666667","25.070995","6501100","汐止區"
"221032","280-BY","2019/12/30 20:29:34","新北市汐止區民權街二段37號","121.619421666667","25.0495733333333","6501100","汐止區"
"221027","281-BY","2019/12/30 20:29:28","新北市汐止區中正路214號","121.658195","25.068895","6501100","汐止區"
"221029","298-VK","2019/12/30 20:29:36","新北市汐止區樟樹一路129巷29號","121.640655","25.065045","6501100","汐止區"
"221021","299-VK","2019/12/30 20:29:43","新北市汐止區水源路一段284號","121.654165","25.05829","6501100","汐止區"
"221035","622-UM","2019/12/30 20:29:29","新北市汐止區長江街79巷17號","121.657726666667","25.0729083333333","6501100","汐止區"
"221025","623-UM","2019/12/30 20:29:34","新北市汐止區水源路二段86號","121.656508333333","25.056235","6501100","汐止區"
"221038","646-BX","2019/12/30 20:29:38","新北市汐止區新興路3號","121.656328333333","25.0653416666667","6501100","汐止區"
"221033","647-BX","2019/12/30 20:29:39","新北市汐止區林森街73巷11號","121.623606666667","25.0411183333333","6501100","汐止區"
"221002","707-TV","2019/12/30 20:29:37","新北市汐止區福德二路50號","121.63423","25.0672783333333","6501100","汐止區"
"221018","753-BX","2019/12/30 20:29:40","新北市汐止區茄苳路225巷11弄30號","121.670673333333","25.06999","6501100","汐止區"
"220083","286-VK","2019/12/30 20:29:40","新北市板橋區僑中二街102巷37號","121.444628333333","25.0084516666667","6500100","板橋區"
"220081","287-VK","2019/12/30 20:29:36","新北市板橋區僑中一街80巷1弄13號","121.446953333333","25.01195","6500100","板橋區"
"242046","281-VK","2019/12/30 20:29:43","新北市新莊區裕民街90巷16號","121.418065","25.0237916666667","6500500","新莊區"
"242011","280-VK","2019/12/30 20:29:25","新北市新莊區中港路527號","121.451691666667","25.0512266666667","6500500","新莊區"
