"lineid","car","time","location","longitude","latitude","cityid","cityname"
"244004","248-BX","2019/09/13 08:09:34","新北市林口區寶斗厝坑52號","121.323746666667","25.1211666666667","6501700","林口區"
"222004","289-BY","2019/09/13 08:09:37","新北市深坑區萬福路83號","121.601701666667","25.00933","6501800","深坑區"
"231007","189-VK","2019/09/13 08:09:42","新北市新店區安康路一段75-1號","121.530165","24.9611016666667","6500600","新店區"
"231009","192-VK","2019/09/13 08:09:39","新北市新店區北宜路一段109巷20號","121.54071","24.9552733333333","6500600","新店區"
"231052","512-UM","2019/09/13 08:09:41","新北市新店區新和街33號","121.518973333333","24.9847333333333","6500600","新店區"
"226001","7418-A5","2019/09/13 08:09:26","新北市平溪區十分里姜仔坑2-3號","121.766458333333","25.0352","6502400","平溪區"
"226006","AGD-0702","2019/09/13 08:09:16","新北市平溪區十分里十分街304號","121.77607","25.044225","6502400","平溪區"
"223003","205-TH","2019/09/13 08:09:32","新北市石碇區大格門5號","121.66566","24.9574866666667","6501900","石碇區"
"223008","406-TH","2019/09/13 08:09:41","新北市石碇區靜安路一段308號","121.692681666667","25.0065783333333","6501900","石碇區"
"223001","592-UM","2019/09/13 08:09:33","新北市石碇區月扇湖3號","121.662826666667","24.9557266666667","6501900","石碇區"
"223004","660-BX","2019/09/13 08:09:36","新北市石碇區外按5號","121.651801666667","24.9949816666667","6501900","石碇區"
"223007","661-BX","2019/09/13 08:09:35","新北市石碇區靜安路一段304號","121.692181666667","25.006375","6501900","石碇區"
"224009","275-VK","2019/09/13 08:09:31","新北市瑞芳區明燈路一段265號","121.81704","25.108405","6501200","瑞芳區"
"227003","282-VK","2019/09/13 08:09:10","新北市雙溪區上林里大瀨10號","121.822155","25.0224766666667","6502500","雙溪區"
"237007","153-BY","2019/09/13 07:59:46","新北市三峽區中山路459巷135號","121.348888333333","24.9330066666667","6500900","三峽區"
"237004","756-BX","2019/09/13 08:09:31","新北市三峽區紫和路13號","121.415565","24.916495","6500900","三峽區"
"237014","760-BX","2019/09/13 08:09:31","新北市三峽區竹崙路185號","121.451643333333","24.891515","6500900","三峽區"
"226005","ANY-2373","2019/09/13 08:09:29","新北市平溪區靜安路三段152號","121.774691666667","25.0382516666667","6502400","平溪區"
