"lineid","car","time","location","longitude","latitude","cityid","cityname"
"234044","148-BY","2019/09/13 13:59:42","新北市永和區成功路一段26號","121.526968333333","25.00481","6500400","永和區"
"234078","298-R6","2019/09/13 13:59:43","新北市永和區國中路8號","121.524233333333","25.004765","6500400","永和區"
"234036","336-UY","2019/09/13 13:59:30","新北市永和區成功路二段2號","121.52669","25.0012066666667","6500400","永和區"
"234062","337-UY","2019/09/13 13:59:38","新北市永和區中正路412巷20弄27號","121.519135","25.0012416666667","6500400","永和區"
"234084","338-UY","2019/09/13 13:59:30","新北市永和區福和路152號","121.521806666667","25.0078916666667","6500400","永和區"
"234068","552-UM","2019/09/13 13:59:34","新北市永和區福和路222號","121.519196666667","25.0079516666667","6500400","永和區"
"234015","745-BX","2019/09/13 13:59:33","新北市永和區文化路24號","121.515233333333","25.0151116666667","6500400","永和區"
"234028","746-BX","2019/09/13 13:59:45","新北市永和區民權路49巷5弄16號","121.521195","24.997665","6500400","永和區"
"234052","KEA-2590","2019/09/13 13:59:44","新北市永和區環河東路一段122號","121.520715","25.0155516666667","6500400","永和區"
"234005","KED-0605","2019/09/13 13:59:41","新北市永和區中和路385號","121.508666666667","25.000065","6500400","永和區"
"234012","KEA-2591","2019/09/13 13:59:28","新北市永和區保生路55號","121.504735","25.0105816666667","6500400","永和區"
"234060","AAD-866","2019/09/13 13:59:29","新北市永和區中正路151巷8弄2號","121.51602","24.99865","6500400","永和區"
"234040","862-TW","2019/09/13 13:59:37","新北市永和區中和路335巷18弄28號","121.507983333333","25.000355","6500400","永和區"
"234048","863-TW","2019/09/13 13:59:31","新北市永和區保安路264號","121.505853333333","25.012365","6500400","永和區"
"234025","9371-KE","2019/09/13 13:59:29","新北市永和區自由街58號","121.513916666667","25.0060816666667","6500400","永和區"
"234010","9373-KE","2019/09/13 13:59:37","新北市永和區仁愛路352巷116號","121.500408333333","25.0083283333333","6500400","永和區"
"248019","KED-0813","2019/09/13 13:59:45","新北市五股區凌雲路三段71-10號","121.423488333333","25.124315","6501500","五股區"
"234022","9380-KE","2019/09/13 13:59:39","新北市永和區復興街35號","121.516361666667","25.013215","6500400","永和區"
"234076","969-R7","2019/09/13 13:59:28","新北市永和區民族街43巷11號","121.51897","24.9984166666667","6500400","永和區"
"234072","AAC-211","2019/09/13 13:59:33","新北市永和區豫溪街169巷2-1號","121.521916666667","25.0104516666667","6500400","永和區"
"234066","AAC-212","2019/09/13 13:59:39","新北市永和區永貞路358號","121.510185","25.006585","6500400","永和區"
"234001","AAC-295","2019/09/13 13:59:35","新北市永和區福和路313號","121.516078333333","25.0072183333333","6500400","永和區"
"244004","248-BX","2019/09/13 13:59:33","新北市林口區南勢六街81巷26號","121.354063333333","25.07112","6501700","林口區"
"231030","002-UM","2019/09/13 13:59:40","新北市新店區安和路一段6-6號","121.517278333333","24.9654016666667","6500600","新店區"
"231005","046-UY","2019/09/13 13:59:33","新北市新店區中興路三段247-1號","121.542776666667","24.9840116666667","6500600","新店區"
"231029","106-UY","2019/09/13 13:59:29","新北市新店區安康路二段3-1號","121.516023333333","24.9636733333333","6500600","新店區"
"231013","108-UY","2019/09/13 13:59:37","新北市新店區明德路60號","121.541706666667","24.9792816666667","6500600","新店區"
"231036","110-UY","2019/09/13 13:59:35","新北市新店區安祥路109巷3弄64號","121.477661666667","24.96115","6500600","新店區"
"231022","192-VK","2019/09/13 13:59:48","新北市新店區屈尺路75號","121.545736666667","24.9226966666667","6500600","新店區"
"231032","256-BX","2019/09/13 13:59:38","新北市新店區莒光路101-3號","121.52117","24.952425","6500600","新店區"
"231023","260-TV","2019/09/13 13:59:28","新北市新店區文中路40號","121.53975","24.95655","6500600","新店區"
"231003","268-BY","2019/09/13 13:59:41","新北市新店區光明街24號","121.538308333333","24.9587566666667","6500600","新店區"
"231035","278-BY","2019/09/13 13:59:23","新北市新店區安和路二段115號","121.518688333333","24.970415","6500600","新店區"
"231016","AAD-862","2019/09/13 13:59:40","新北市新店區北宜路二段150號","121.5577","24.9530033333333","6500600","新店區"
"231006","355-BY","2019/09/13 13:59:40","新北市新店區北宜路二段57號","121.549121666667","24.9515666666667","6500600","新店區"
"231038","3712-VJ","2019/09/13 13:59:39","新北市新店區安康路一段321巷5-1號","121.522118333333","24.96258","6500600","新店區"
"231027","3713-VJ","2019/09/13 13:59:41","新北市新店區中興路一段24-2號","121.538561666667","24.9582616666667","6500600","新店區"
"231024","4716-K9","2019/09/13 13:59:27","新北市新店區北新路一段271巷26號","121.540098333333","24.9672866666667","6500600","新店區"
"231025","4715-K9","2019/09/13 13:59:48","新北市新店區中正路366號","121.535251666667","24.9760566666667","6500600","新店區"
"231034","616-UM","2019/09/13 13:59:42","新北市新店區達觀路40號","121.502978333333","24.9392216666667","6500600","新店區"
"231002","618-UM","2019/09/13 13:59:40","新北市新店區中正路630號","121.534045","24.98903","6500600","新店區"
"231012","KED-0819","2019/09/13 13:59:46","新北市新店區中興路二段79巷14號","121.546305","24.9714133333333","6500600","新店區"
"231018","718-UY","2019/09/13 13:59:33","新北市新店區中央路192號","121.530833333333","24.9746983333333","6500600","新店區"
"231010","719-UM","2019/09/13 13:59:27","新北市新店區安一路一段1-1號","121.519645","24.9610516666667","6500600","新店區"
"231026","720-UM","2019/09/13 13:59:41","新北市新店區三民路159巷19弄46號","121.532175","24.97325","6500600","新店區"
"231028","897-TW","2019/09/13 13:59:36","新北市新店區安和路三段60-1號","121.518133333333","24.982695","6500600","新店區"
"231001","898-TW","2019/09/13 13:59:31","新北市新店區三民路43號","121.537185","24.9709016666667","6500600","新店區"
"231004","899-TW","2019/09/13 13:59:42","新北市新店區北新路二段167號","121.542818333333","24.9763516666667","6500600","新店區"
"231037","AKT-0513","2019/09/13 13:59:31","新北市新店區安康路三段456號","121.484296666667","24.9510883333333","6500600","新店區"
"235030","003-UY","2019/09/13 13:59:46","新北市中和區光華街28號","121.504638333333","25.0040916666667","6500300","中和區"
"235027","006-UY","2019/09/13 13:59:32","新北市中和區連城路263號","121.491888333333","24.9965283333333","6500300","中和區"
"235020","096-UM","2019/09/13 13:59:30","新北市中和區員山路514巷14弄10號","121.47999","25.00918","6500300","中和區"
"235003","097-UM","2019/09/13 13:59:41","新北市中和區秀朗路三段177號","121.524378333333","24.9909583333333","6500300","中和區"
"235029","098-UM","2019/09/13 13:59:34","新北市中和區中山路二段136巷40號","121.50122","25.00441","6500300","中和區"
"235040","150-BY","2019/09/13 13:59:37","新北市中和區保健路46巷20弄1號","121.508893333333","24.9960766666667","6500300","中和區"
"235022","151-BY","2019/09/13 13:59:39","新北市中和區連城路469巷44弄17號","121.482411666667","24.9946383333333","6500300","中和區"
"235019","183-VK","2019/09/13 13:59:32","新北市中和區德光路79號","121.469358333333","25.0036083333333","6500300","中和區"
"235002","185-VK","2019/09/13 13:59:29","新北市中和區立人街24-5號","121.518826666667","24.99414","6500300","中和區"
"235013","186-VK","2019/09/13 13:59:46","新北市中和區景安路139號","121.505656666667","24.9956066666667","6500300","中和區"
"235031","255-BX","2019/09/13 13:59:47","新北市中和區中正路701號","121.485135","24.998325","6500300","中和區"
"235008","293-VK","2019/09/13 13:59:36","新北市中和區中興街202巷35號","121.498903333333","24.9897533333333","6500300","中和區"
"235036","301-VK","2019/09/13 13:59:35","新北市中和區中山路二段183號","121.500501666667","25.0027716666667","6500300","中和區"
"235007","352-BY","2019/09/13 13:59:31","新北市中和區成功路139號","121.52566","24.990435","6500300","中和區"
"235006","KEA-2878","2019/09/13 13:59:46","新北市中和區秀朗路三段10巷37弄13號","121.524141666667","24.9957933333333","6500300","中和區"
"247015","KEA-2869","2019/09/13 13:59:30","新北市蘆洲區光華路42號","121.468873333333","25.0832","6501400","蘆洲區"
"247009","KED-0682","2019/09/13 13:59:42","新北市蘆洲區集賢路226號","121.482368333333","25.086565","6501400","蘆洲區"
"235014","4979-A6","2019/09/13 13:59:37","新北市中和區忠孝街3號","121.509423333333","24.982945","6500300","中和區"
"235033","4980-A6","2019/09/13 13:59:39","新北市中和區中和路217巷6號","121.50413","25.000535","6500300","中和區"
"235034","558-UM","2019/09/13 13:59:32","新北市中和區中和路94號","121.501328333333","25.0004433333333","6500300","中和區"
"235009","565-BX","2019/09/13 13:59:38","新北市中和區景新街467巷27號","121.51446","24.9886316666667","6500300","中和區"
"235018","640-BX","2019/09/13 13:59:45","新北市中和區國光街107巷2弄2-1號","121.47005","25.0001083333333","6500300","中和區"
"235024","647-TV","2019/09/13 13:59:29","新北市中和區中山路三段97號","121.475291666667","25.00597","6500300","中和區"
"235011","732-UM","2019/09/13 13:59:41","新北市中和區興南路二段107號","121.505753333333","24.9844883333333","6500300","中和區"
"235010","733-UM","2019/09/13 13:59:38","新北市中和區忠孝街1巷86號","121.508158333333","24.9850316666667","6500300","中和區"
"235035","783-BX","2019/09/13 13:59:43","新北市中和區中正路928號","121.483015","25.0080733333333","6500300","中和區"
"235021","801-TS","2019/09/13 13:59:35","新北市中和區民利街52號","121.47928","24.9987683333333","6500300","中和區"
"235005","802-TS","2019/09/13 13:59:34","新北市中和區永貞路237號","121.513118333333","25.00366","6500300","中和區"
"235016","805-TS","2019/09/13 13:59:41","新北市中和區興南路二段261巷6-30號","121.503058333333","24.98013","6500300","中和區"
"235012","896-TW","2019/09/13 13:59:40","新北市中和區華新街56號","121.508015","24.9840216666667","6500300","中和區"
"235017","900-TW","2019/09/13 13:59:27","新北市板橋區和平路185巷1號","121.463968333333","24.99639","6500300","中和區"
"235028","911-UM","2019/09/13 13:59:38","新北市中和區連城路2號","121.499271666667","25.00234","6500300","中和區"
"235015","157-BY","2019/09/13 13:59:35","新北市中和區忠孝街19巷22號","121.51006","24.9834183333333","6500300","中和區"
"235001","AAC-213","2019/09/13 13:59:47","新北市中和區秀朗路三段50巷5-1號","121.526023333333","24.9954616666667","6500300","中和區"
"235023","AAC-215","2019/09/13 13:59:42","新北市中和區圓通路393巷14弄2號","121.489425","24.9880783333333","6500300","中和區"
"220013","072-UY","2019/09/13 13:59:37","新北市板橋區漢生東路324號","121.471825","25.007935","6500100","板橋區"
"220034","073-UY","2019/09/13 13:59:44","新北市板橋區大智街14號","121.455938333333","25.0148333333333","6500100","板橋區"
"220105","075-UY","2019/09/13 13:59:27","新北市板橋區雙十路三段12號","121.471886666667","25.030615","6500100","板橋區"
"220017","AAD-861","2019/09/13 13:59:27","新北市板橋區貴興路7號","121.457728333333","25.00443","6500100","板橋區"
"220016","120-SR","2019/09/13 13:59:43","新北市板橋區中山路二段465巷40弄2號","121.481198333333","25.0214816666667","6500100","板橋區"
"247005","893-R6","2019/09/13 13:59:44","新北市蘆洲區永安南路二段28號","121.46721","25.0771516666667","6501400","蘆洲區"
"247019","546-UM","2019/09/13 13:59:25","新北市蘆洲區民族路426巷15弄12號","121.473641666667","25.093015","6501400","蘆洲區"
"247017","500-BY","2019/09/13 13:59:39","新北市蘆洲區民族路255巷12號","121.47619","25.0897416666667","6501400","蘆洲區"
"247007","341-TH","2019/09/13 13:59:29","新北市蘆洲區永安北路二段12巷1號","121.481238333333","25.08069","6501400","蘆洲區"
"247011","337-TH","2019/09/13 13:59:30","新北市蘆洲區民族路148巷5號","121.479715","25.0858683333333","6501400","蘆洲區"
"247003","336-TH","2019/09/13 13:59:47","新北市蘆洲區長安街106號","121.4617","25.0813033333333","6501400","蘆洲區"
"247023","057-VK","2019/09/13 13:59:33","新北市蘆洲區光榮路120巷9號","121.465166666667","25.0888383333333","6501400","蘆洲區"
"247013","056-VK","2019/09/13 13:59:40","新北市蘆洲區保和街73號","121.469221666667","25.0861333333333","6501400","蘆洲區"
"247021","007-UY","2019/09/13 13:59:46","新北市蘆洲區中正路263巷2號","121.467373333333","25.0874933333333","6501400","蘆洲區"
"247001","001-UY","2019/09/13 13:59:33","新北市蘆洲區三民路605號","121.46059","25.0937383333333","6501400","蘆洲區"
"207002","749-BX","2019/09/13 13:59:30","新北市萬里區溪底里溪底路9-1號","121.618813333333","25.1488833333333","6502800","萬里區"
"207001","662-BX","2019/09/13 13:59:30","新北市萬里區磺潭里磺溪12號","121.630295","25.2029666666667","6502800","萬里區"
"237007","153-BY","2019/09/13 13:59:29","新北市三峽區信義街2號","121.370705","24.936055","6500900","三峽區"
"237004","756-BX","2019/09/13 13:41:03","新北市三峽區中山路459巷135號","121.348866666667","24.9331016666667","6500900","三峽區"
"236040","KED-0685","2019/09/13 13:59:41","新北市土城區城林路6巷80號","121.438491666667","24.9796483333333","6501300","土城區"
"236029","253-BX","2019/09/13 13:59:31","新北市土城區城林路6巷80號","121.438575","24.97981","6501300","土城區"
"236024","269-VK","2019/09/13 13:59:43","新北市土城區承天路65號","121.439586666667","24.96363","6501300","土城區"
"236013","270-VK","2019/09/13 13:59:39","新北市土城區學府路2段81-1號","121.448441666667","24.980795","6501300","土城區"
"236032","271-VK","2019/09/13 13:59:34","新北市土城區城林路6巷80號","121.438451666667","24.979855","6501300","土城區"
"236067","KEA-2877","2019/09/13 13:59:27","新北市土城區和平路54號","121.445161666667","24.9691516666667","6501300","土城區"
"236016","752-BX","2019/09/13 13:59:27","新北市土城區中華路二段2號","121.43883","24.979755","6501300","土城區"
"236057","912-UM","2019/09/13 13:59:36","新北市土城區中央路三段282號","121.426676666667","24.9636433333333","6501300","土城區"
"236045","913-UM","2019/09/13 13:59:45","新北市土城區城林路6巷80號","121.438521666667","24.9797333333333","6501300","土城區"
"236060","915-UM","2019/09/13 13:59:35","新北市土城區城林路6巷80號","121.438491666667","24.9797116666667","6501300","土城區"
"236054","AAC-216","2019/09/13 13:59:41","新北市土城區城林路6巷80號","121.438248333333","24.9794933333333","6501300","土城區"
"220027","145-BY","2019/09/13 13:59:44","新北市板橋區大智街82號","121.45365","25.015625","6500100","板橋區"
"220028","200-UY","2019/09/13 13:59:41","新北市板橋區大觀路二段文和巷89號","121.444611666667","24.9981633333333","6500100","板橋區"
"220030","610-BX","2019/09/13 13:59:42","新北市板橋區篤行路三段8號","121.429275","24.987745","6500100","板橋區"
"220040","267-BY","2019/09/13 13:59:38","新北市板橋區大同街14-3號","121.477431666667","25.02689","6500100","板橋區"
"220004","276-BY","2019/09/13 13:59:44","新北市板橋區信義路148號","121.458778333333","24.99175","6500100","板橋區"
"220020","277-BY","2019/09/13 13:59:45","新北市樹林區樹新路96號","121.429848333333","24.9976133333333","6500100","板橋區"
"220050","280-UM","2019/09/13 13:59:44","新北市板橋區萬板路13號","121.470551666667","25.0209466666667","6500100","板橋區"
"220043","283-UM","2019/09/13 13:59:37","新北市板橋區光武街138號","121.46541","25.0299783333333","6500100","板橋區"
"220001","285-VK","2019/09/13 13:59:35","新北市板橋區永豐街119號","121.474426666667","25.0196283333333","6500100","板橋區"
"220031","286-VK","2019/09/13 13:59:34","新北市板橋區龍興街101巷6號","121.444166666667","25.0033566666667","6500100","板橋區"
"220029","287-VK","2019/09/13 13:59:39","新北市板橋區光華街19巷11號","121.453285","25.0119733333333","6500100","板橋區"
"220009","293-UM","2019/09/13 13:59:35","新北市板橋區三民路二段21巷8號","121.47992","25.0181866666667","6500100","板橋區"
"220010","295-UM","2019/09/13 13:59:27","新北市板橋區三民路二段245巷77號","121.481281666667","25.0126","6500100","板橋區"
"220032","296-UM","2019/09/13 13:59:30","新北市板橋區大觀路三段52號","121.432316666667","24.9960933333333","6500100","板橋區"
"220014","299-UM","2019/09/13 13:59:32","新北市板橋區三民路二段154巷8號","121.478618333333","25.01506","6500100","板橋區"
"220023","303-R5","2019/09/13 13:59:30","新北市板橋區館前西路213巷34號","121.454068333333","25.0078883333333","6500100","板橋區"
"220041","307-R5","2019/09/13 13:59:31","新北市板橋區文化路二段225巷72弄74號","121.468868333333","25.0299883333333","6500100","板橋區"
"220047","317-R6","2019/09/13 13:59:42","新北市板橋區莊敬路148-1號","121.470498333333","25.0226583333333","6500100","板橋區"
"220038","487-VK","2019/09/13 13:59:43","新北市板橋區文化路二段181號","121.470648333333","25.0279533333333","6500100","板橋區"
"220037","491-VK","2019/09/13 13:59:33","新北市板橋區莊敬路48-2號","121.472701666667","25.027145","6500100","板橋區"
"220104","560-BX","2019/09/13 13:59:27","新北市板橋區中正路325巷23號","121.454166666667","25.0196583333333","6500100","板橋區"
"220052","561-BX","2019/09/13 13:59:29","新北市板橋區介壽街37號","121.468556666667","25.0197983333333","6500100","板橋區"
"220019","568-UM","2019/09/13 13:59:32","新北市板橋區忠孝路196巷33號","121.465701666667","25.0017116666667","6500100","板橋區"
"220011","609-BX","2019/09/13 13:59:29","新北市板橋區三民路二段72號","121.479286666667","25.0171466666667","6500100","板橋區"
"220005","686-BX","2019/09/13 13:59:43","新北市板橋區國慶路212號","121.463745","24.9971866666667","6500100","板橋區"
"220025","687-BX","2019/09/13 13:59:23","新北市板橋區大觀路二段174巷157號","121.441581666667","25.0029","6500100","板橋區"
"220002","741-BX","2019/09/13 13:59:45","新北市板橋區重慶路127巷21-3號","121.463655","25.00494","6500100","板橋區"
"220051","KEA-2699","2019/09/13 13:59:35","新北市板橋區田單街2巷29號","121.482206666667","25.0280433333333","6500100","板橋區"
"220003","827-TW","2019/09/13 13:59:38","新北市板橋區新站路3號","121.467113333333","25.01129","6500100","板橋區"
"220039","831-TW","2019/09/13 13:59:31","新北市板橋區四維路310號","121.462506666667","25.0297866666667","6500100","板橋區"
"220022","895-R6","2019/09/13 13:59:30","新北市板橋區南雅南路一段106號","121.454986666667","25.004305","6500100","板橋區"
"220021","985-R7","2019/09/13 13:59:43","新北市板橋區西門街2號","121.455883333333","25.0115966666667","6500100","板橋區"
"220046","AAC-210","2019/09/13 13:59:38","新北市板橋區新海路135巷33號","121.459988333333","25.0228766666667","6500100","板橋區"
"220012","AAC-253","2019/09/13 13:59:39","新北市板橋區板新路72號","121.473086666667","25.014235","6500100","板橋區"
"235032","KEA-2873","2019/09/13 13:59:20","新北市中和區圓通路158巷3-1號","121.497598333333","24.996235","6500300","中和區"
"235025","KEA-2875","2019/09/13 13:59:21","新北市中和區員山路150-10號","121.481271666667","24.9975933333333","6500300","中和區"
"235026","KEA-2876","2019/09/13 13:59:39","新北市中和區建三路24號","121.48615","25.00216","6500300","中和區"
