"lineid","car","time","location","longitude","latitude","cityid","cityname"
"234078","298-R6","2019/09/13 14:19:37","新北市永和區國中路134號","121.52347","25.0068866666667","6500400","永和區"
"234036","336-UY","2019/09/13 14:19:38","新北市永和區成功路一段17巷6弄2號","121.527578333333","25.0051083333333","6500400","永和區"
"234062","337-UY","2019/09/13 14:19:38","新北市永和區得和路122號","121.518706666667","25.0000516666667","6500400","永和區"
"234084","338-UY","2019/09/13 14:19:30","新北市永和區永和路二段207號","121.515408333333","25.01359","6500400","永和區"
"234068","552-UM","2019/09/13 14:19:47","新北市永和區福和路261號","121.517913333333","25.0073366666667","6500400","永和區"
"234028","746-BX","2019/09/13 14:19:45","新北市中和區安樂路77號","121.512801666667","24.9942516666667","6500400","永和區"
"234052","KEA-2590","2019/09/13 14:19:44","新北市永和區光復街2巷39號","121.51756","25.0166866666667","6500400","永和區"
"234005","KED-0605","2019/09/13 14:19:21","新北市永和區中正路682號","121.516655","25.0093616666667","6500400","永和區"
"234012","KEA-2591","2019/09/13 14:19:28","新北市永和區保生路40巷1號","121.505886666667","25.0083466666667","6500400","永和區"
"234060","AAD-866","2019/09/13 14:19:29","新北市永和區安樂路192號","121.515256666667","25.00127","6500400","永和區"
"234040","862-TW","2019/09/13 14:19:37","新北市中和區安平路186號","121.512961666667","24.998965","6500400","永和區"
"234048","863-TW","2019/09/13 14:19:40","新北市永和區新生路2-6號","121.509385","25.01687","6500400","永和區"
"234025","9371-KE","2019/09/13 14:19:32","新北市永和區安樂路144巷25號","121.514935","24.9999016666667","6500400","永和區"
"248019","KED-0813","2019/09/13 14:03:20","新北市五股區凌雲路三段59-6號","121.424991666667","25.1250033333333","6501500","五股區"
"234022","9380-KE","2019/09/13 14:19:44","新北市永和區竹林路25巷17弄2號","121.51806","25.0149766666667","6500400","永和區"
"234076","969-R7","2019/09/13 14:19:28","新北市永和區民族街81巷58號","121.520058333333","24.9963983333333","6500400","永和區"
"234072","AAC-211","2019/09/13 14:19:33","新北市永和區竹林路119巷22弄3-3號","121.521988333333","25.0116383333333","6500400","永和區"
"234066","AAC-212","2019/09/13 14:19:39","新北市永和區保平路292巷40弄2號","121.507731666667","25.0050483333333","6500400","永和區"
"234001","AAC-295","2019/09/13 14:19:35","新北市永和區中正路614-2號","121.517066666667","25.0076233333333","6500400","永和區"
"244004","248-BX","2019/09/13 14:19:32","新北市林口區南勢里31號","121.352055","25.0703033333333","6501700","林口區"
"231030","002-UM","2019/09/13 14:19:40","新北市新店區安民街65巷21-2號","121.515353333333","24.9673333333333","6500600","新店區"
"231005","046-UY","2019/09/13 14:19:33","新北市新店區中興路三段133號","121.544646666667","24.97967","6500600","新店區"
"231029","106-UY","2019/09/13 14:19:29","新北市新店區安康路二段161號","121.51023","24.9593333333333","6500600","新店區"
"231013","108-UY","2019/09/13 14:19:37","新北市新店區建國路176號","121.53812","24.9799183333333","6500600","新店區"
"231036","110-UY","2019/09/13 14:19:36","新北市新店區安祥路109巷90弄72號","121.476075","24.9586083333333","6500600","新店區"
"231022","192-VK","2019/09/13 14:18:08","新北市新店區桂山路121號","121.569363333333","24.8918383333333","6500600","新店區"
"231032","256-BX","2019/09/13 14:19:38","新北市新店區溪洲路61號","121.533531666667","24.9609366666667","6500600","新店區"
"231023","260-TV","2019/09/13 14:19:48","新北市新店區光明街37號","121.538468333333","24.9597966666667","6500600","新店區"
"231003","268-BY","2019/09/13 14:19:41","新北市新店區中興路一段203號","121.543576666667","24.9655","6500600","新店區"
"231035","278-BY","2019/09/13 14:19:44","新北市新店區光華街5巷6號","121.517781666667","24.968775","6500600","新店區"
"231016","AAD-862","2019/09/13 14:19:40","新北市新店區北宜路二段228號","121.559806666667","24.954405","6500600","新店區"
"231006","355-BY","2019/09/13 14:19:40","新北市新店區北宜路二段270號","121.560788333333","24.9542783333333","6500600","新店區"
"231038","3712-VJ","2019/09/13 14:19:34","新北市新店區溪洲路8巷64號","121.533341666667","24.96241","6500600","新店區"
"231027","3713-VJ","2019/09/13 14:19:41","新北市新店區光明街286巷15號","121.540893333333","24.9636516666667","6500600","新店區"
"231024","4716-K9","2019/09/13 14:19:27","新北市新店區薏仁坑路6號","121.50029","24.958005","6500600","新店區"
"231034","616-UM","2019/09/13 14:19:42","新北市新店區車子路11號","121.503078333333","24.9520566666667","6500600","新店區"
"231002","618-UM","2019/09/13 14:19:40","新北市新店區中央路155號","121.529811666667","24.9727916666667","6500600","新店區"
"231012","KED-0819","2019/09/13 14:19:26","新北市新店區中興路一段288巷10號","121.546363333333","24.9685616666667","6500600","新店區"
"231018","718-UY","2019/09/13 14:19:36","新北市新店區中央四街94號","121.525685","24.97618","6500600","新店區"
"231028","897-TW","2019/09/13 14:19:36","新北市新店區安和路二段171號","121.518625","24.9745116666667","6500600","新店區"
"231001","898-TW","2019/09/13 14:19:31","新北市新店區北新路一段309號","121.541488333333","24.9678283333333","6500600","新店區"
"231004","899-TW","2019/09/13 14:19:37","新北市新店區中正路211號","121.539823333333","24.9727633333333","6500600","新店區"
"231037","AKT-0513","2019/09/13 14:19:31","新北市新店區安康路二段341巷4號","121.496886666667","24.9550066666667","6500600","新店區"
"235030","003-UY","2019/09/13 14:19:46","新北市中和區景新街2號","121.502606666667","24.9996716666667","6500300","中和區"
"235027","006-UY","2019/09/13 14:19:32","新北市中和區連城路203巷10弄21號","121.495108333333","24.9966416666667","6500300","中和區"
"235020","096-UM","2019/09/13 14:19:30","新北市中和區民富街11號","121.476518333333","25.0073183333333","6500300","中和區"
"235003","097-UM","2019/09/13 14:19:41","新北市中和區秀峰街129號","121.518005","24.9893833333333","6500300","中和區"
"235029","098-UM","2019/09/13 14:19:33","新北市中和區莊敬路10號","121.499703333333","25.00429","6500300","中和區"
"235040","150-BY","2019/09/13 14:19:37","新北市中和區保健路106巷83號","121.511185","24.99449","6500300","中和區"
"235022","151-BY","2019/09/13 14:19:39","新北市中和區員山路132巷19號","121.4823","24.9963416666667","6500300","中和區"
"235019","183-VK","2019/09/13 14:19:32","新北市中和區中山路三段181巷30號","121.473118333333","25.0049833333333","6500300","中和區"
"235002","185-VK","2019/09/13 14:19:29","新北市中和區大仁街10巷52號","121.520635","24.992715","6500300","中和區"
"235013","186-VK","2019/09/13 14:19:26","新北市中和區景新街230巷5號","121.508136666667","24.99409","6500300","中和區"
"235031","255-BX","2019/09/13 14:19:27","新北市中和區新生街186巷5弄11號","121.482955","24.9992883333333","6500300","中和區"
"235008","293-VK","2019/09/13 14:19:36","新北市中和區復興路308號","121.501203333333","24.9903533333333","6500300","中和區"
"235036","301-VK","2019/09/13 14:19:35","新北市中和區莊敬路33巷18號","121.500246666667","25.005415","6500300","中和區"
"235007","352-BY","2019/09/13 14:19:31","新北市中和區景平路280號","121.513581666667","24.99261","6500300","中和區"
"235006","KEA-2878","2019/09/13 14:19:46","新北市中和區安樂路217巷37號","121.513503333333","24.99802","6500300","中和區"
"247015","KEA-2869","2019/09/13 14:19:30","新北市蘆洲區中正路185巷31弄5號","121.466525","25.08414","6501400","蘆洲區"
"247009","KED-0682","2019/09/13 14:19:42","新北市蘆洲區三民路26巷29號","121.476823333333","25.0828683333333","6501400","蘆洲區"
"235014","4979-A6","2019/09/13 14:19:37","新北市中和區復興路56號","121.50381","24.9904216666667","6500300","中和區"
"235033","4980-A6","2019/09/13 14:19:38","新北市中和區中山路二段269號","121.49671","25.0022266666667","6500300","中和區"
"235034","558-UM","2019/09/13 14:19:32","新北市中和區景平路632-8號","121.499835","24.9985783333333","6500300","中和區"
"235009","565-BX","2019/09/13 14:19:38","新北市中和區景新街425號","121.513155","24.9892433333333","6500300","中和區"
"235018","640-BX","2019/09/13 14:19:45","新北市中和區莒光路63號","121.472306666667","25.003865","6500300","中和區"
"235024","647-TV","2019/09/13 14:19:29","新北市中和區中山路二段523巷8號","121.481618333333","25.0047383333333","6500300","中和區"
"235011","732-UM","2019/09/13 14:19:44","新北市中和區景平路239巷32號","121.508511666667","24.9921983333333","6500300","中和區"
"235010","733-UM","2019/09/13 14:19:38","新北市中和區忠孝街2-2號","121.508908333333","24.9829566666667","6500300","中和區"
"235035","783-BX","2019/09/13 14:19:38","新北市中和區連城路344-1號","121.482751666667","24.9956383333333","6500300","中和區"
"235021","801-TS","2019/09/13 14:19:35","新北市中和區台新街37號","121.479653333333","25.0049483333333","6500300","中和區"
"235005","802-TS","2019/09/13 14:19:34","新北市中和區安平路100號","121.511543333333","24.997215","6500300","中和區"
"235016","805-TS","2019/09/13 14:19:41","新北市中和區華新街143巷49號","121.506378333333","24.9802433333333","6500300","中和區"
"235012","896-TW","2019/09/13 14:19:40","新北市中和區忠孝街2-8號","121.50922","24.9829733333333","6500300","中和區"
"235017","900-TW","2019/09/13 14:19:46","新北市中和區華順街30巷1號","121.466901666667","24.99896","6500300","中和區"
"235028","911-UM","2019/09/13 14:19:38","新北市中和區南山路131-11號","121.502436666667","24.9962533333333","6500300","中和區"
"235015","157-BY","2019/09/13 14:19:39","新北市中和區和平街54巷10弄14號","121.509521666667","24.9916683333333","6500300","中和區"
"235001","AAC-213","2019/09/13 14:19:27","新北市中和區秀朗路三段10巷9號","121.525898333333","24.9965533333333","6500300","中和區"
"235023","AAC-215","2019/09/13 14:19:42","新北市中和區圓通路252巷36弄2號","121.49238","24.9927766666667","6500300","中和區"
"220013","072-UY","2019/09/13 14:19:37","新北市板橋區民族路129巷5號","121.467505","25.008445","6500100","板橋區"
"220034","073-UY","2019/09/13 14:19:35","新北市板橋區中正路216巷66號","121.457761666667","25.0189033333333","6500100","板橋區"
"220105","075-UY","2019/09/13 14:19:27","新北市板橋區文化路二段417巷1號","121.473735","25.03339","6500100","板橋區"
"220017","AAD-861","2019/09/13 14:19:47","新北市板橋區稚暉街35號","121.457065","25.0041283333333","6500100","板橋區"
"220016","120-SR","2019/09/13 14:19:43","新北市板橋區林森街1巷1號","121.482068333333","25.0241233333333","6500100","板橋區"
"247005","893-R6","2019/09/13 14:19:44","新北市蘆洲區長安街22巷31弄2號","121.464676666667","25.0798833333333","6501400","蘆洲區"
"247019","546-UM","2019/09/13 14:19:25","新北市蘆洲區仁愛街41號","121.472208333333","25.0929933333333","6501400","蘆洲區"
"247017","500-BY","2019/09/13 14:19:30","新北市蘆洲區民義街106巷1號","121.47386","25.090815","6501400","蘆洲區"
"247007","341-TH","2019/09/13 14:19:29","新北市蘆洲區民生街53號","121.47479","25.07882","6501400","蘆洲區"
"247011","337-TH","2019/09/13 14:19:30","新北市蘆洲區民權路3巷26號","121.475176666667","25.085555","6501400","蘆洲區"
"247003","336-TH","2019/09/13 14:19:27","新北市蘆洲區長安街182號","121.458965","25.08372","6501400","蘆洲區"
"247023","057-VK","2019/09/13 14:19:33","新北市蘆洲區三民路501號","121.463513333333","25.09144","6501400","蘆洲區"
"247013","056-VK","2019/09/13 14:19:40","新北市蘆洲區中山二路137巷46號","121.472508333333","25.0805566666667","6501400","蘆洲區"
"247021","007-UY","2019/09/13 14:19:46","新北市蘆洲區仁愛街212巷28-1號","121.464138333333","25.094615","6501400","蘆洲區"
"247001","001-UY","2019/09/13 14:19:33","新北市蘆洲區永樂街108號","121.455658333333","25.0889816666667","6501400","蘆洲區"
"207002","749-BX","2019/09/13 14:19:30","新北市萬里區溪底里富士坪路23-3號","121.621646666667","25.152355","6502800","萬里區"
"207001","662-BX","2019/09/13 14:19:30","新北市萬里區磺潭里清水18號","121.637828333333","25.1977833333333","6502800","萬里區"
"237007","153-BY","2019/09/13 14:19:29","新北市三峽區和平街2-1號","121.370448333333","24.935435","6500900","三峽區"
"236040","KED-0685","2019/09/13 14:19:41","新北市土城區裕生路21巷1弄2號","121.448671666667","24.98721","6501300","土城區"
"236029","253-BX","2019/09/13 14:19:31","新北市土城區順風路46號","121.440155","24.97715","6501300","土城區"
"236024","269-VK","2019/09/13 14:19:43","新北市土城區承天路18號","121.4393","24.9633866666667","6501300","土城區"
"236013","270-VK","2019/09/13 14:19:39","新北市土城區青雲路39巷7號","121.460365","24.9875916666667","6501300","土城區"
"236032","271-VK","2019/09/13 14:19:35","新北市土城區青雲路483巷9號","121.459373333333","24.973675","6501300","土城區"
"236067","KEA-2877","2019/09/13 14:19:47","新北市土城區明德路一段128巷11號","121.463185","24.978925","6501300","土城區"
"236016","752-BX","2019/09/13 14:19:27","新北市土城區永豐路202巷5-2號","121.466351666667","24.9832466666667","6501300","土城區"
"236057","912-UM","2019/09/13 14:19:36","新北市土城區中央路四段466號","121.409951666667","24.95064","6501300","土城區"
"236045","913-UM","2019/09/13 14:19:45","新北市土城區明德路一段369號","121.455525","24.9779366666667","6501300","土城區"
"236060","915-UM","2019/09/13 14:19:35","新北市土城區金城路三段202-3號","121.469361666667","24.98858","6501300","土城區"
"236054","AAC-216","2019/09/13 14:19:41","新北市土城區中華路二段196號","121.437553333333","24.9706366666667","6501300","土城區"
"220027","145-BY","2019/09/13 14:19:32","新北市板橋區民權路256號","121.458215","25.014945","6500100","板橋區"
"220028","200-UY","2019/09/13 14:19:35","新北市板橋區大觀路二段1巷54號","121.45051","25.0036083333333","6500100","板橋區"
"220030","610-BX","2019/09/13 14:19:42","新北市板橋區篤行路三段91號","121.426605","24.9848683333333","6500100","板橋區"
"220040","267-BY","2019/09/13 14:19:41","新北市板橋區文聖街202號","121.480213333333","25.025885","6500100","板橋區"
"220004","276-BY","2019/09/13 14:19:35","新北市板橋區廣權路39號","121.462973333333","24.9918466666667","6500100","板橋區"
"220020","277-BY","2019/09/13 14:19:45","新北市板橋區金門街337巷9弄40號","121.43088","24.985365","6500100","板橋區"
"220050","280-UM","2019/09/13 14:19:44","新北市板橋區縣民大道三段127巷1號","121.477271666667","25.0229216666667","6500100","板橋區"
"220043","283-UM","2019/09/13 14:19:37","新北市板橋區吳鳳路50巷77號","121.470048333333","25.0303866666667","6500100","板橋區"
"220001","285-VK","2019/09/13 14:19:35","新北市板橋區富山街18巷28號","121.47848","25.0228283333333","6500100","板橋區"
"220031","286-VK","2019/09/13 14:19:36","新北市板橋區龍興街73巷17號","121.443063333333","25.0024733333333","6500100","板橋區"
"220029","287-VK","2019/09/13 14:19:39","新北市板橋區南雅東路29巷11號","121.453511666667","25.005515","6500100","板橋區"
"220009","293-UM","2019/09/13 14:19:35","新北市板橋區中山路一段265巷36弄2號","121.469136666667","25.0151216666667","6500100","板橋區"
"220010","295-UM","2019/09/13 14:19:27","新北市板橋區三民路二段181巷1號","121.4796","25.0143666666667","6500100","板橋區"
"220032","296-UM","2019/09/13 14:19:45","新北市板橋區滿平街136巷6弄11號","121.427615","24.98784","6500100","板橋區"
"220014","299-UM","2019/09/13 14:19:32","新北市板橋區長安街138巷7弄34號","121.473836666667","25.00884","6500100","板橋區"
"220023","303-R5","2019/09/13 14:19:28","新北市板橋區南雅南路一段1巷21號","121.457046666667","25.0068283333333","6500100","板橋區"
"220041","307-R5","2019/09/13 14:19:41","新北市板橋區文化路一段387巷34號","121.465816666667","25.0223666666667","6500100","板橋區"
"220047","317-R6","2019/09/13 14:19:42","新北市板橋區自由路51巷9-3號","121.46502","25.0234333333333","6500100","板橋區"
"220038","487-VK","2019/09/13 14:19:43","新北市板橋區英士路49號","121.461148333333","25.0246316666667","6500100","板橋區"
"220037","491-VK","2019/09/13 14:19:43","新北市板橋區雙十路二段4號","121.47719","25.0252466666667","6500100","板橋區"
"220104","560-BX","2019/09/13 14:19:27","新北市板橋區中正路362號","121.454331666667","25.0239283333333","6500100","板橋區"
"220052","561-BX","2019/09/13 14:19:29","新北市板橋區陽明街48號","121.465491666667","25.0221116666667","6500100","板橋區"
"220019","568-UM","2019/09/13 14:19:35","新北市板橋區大豐街23號","121.462161666667","25.0014166666667","6500100","板橋區"
"220011","609-BX","2019/09/13 14:19:31","新北市板橋區三民路二段150號","121.479083333333","25.0150616666667","6500100","板橋區"
"220005","686-BX","2019/09/13 14:19:42","新北市板橋區和平路66號","121.461235","24.9945866666667","6500100","板橋區"
"220025","687-BX","2019/09/13 14:19:42","新北市板橋區大觀路二段108號","121.44422","24.9993783333333","6500100","板橋區"
"220002","741-BX","2019/09/13 14:19:45","新北市板橋區校前街52號","121.461485","25.00325","6500100","板橋區"
"220051","KEA-2699","2019/09/13 14:19:36","新北市板橋區松柏街22巷21號","121.474841666667","25.0293716666667","6500100","板橋區"
"220003","827-TW","2019/09/13 14:19:41","新北市板橋區館前東路156巷19號","121.464246666667","25.0069933333333","6500100","板橋區"
"220039","831-TW","2019/09/13 14:19:31","新北市板橋區長江路一段1號","121.457543333333","25.028635","6500100","板橋區"
"220022","895-R6","2019/09/13 14:19:30","新北市板橋區北門街59號","121.456163333333","25.0118133333333","6500100","板橋區"
"220021","985-R7","2019/09/13 14:19:40","新北市板橋區中正路257號","121.455825","25.018395","6500100","板橋區"
"220046","AAC-210","2019/09/13 14:19:38","新北市板橋區漢生西路89巷2弄12-2號","121.461788333333","25.0196783333333","6500100","板橋區"
"220012","AAC-253","2019/09/13 14:19:39","新北市板橋區館前東路24號","121.460215","25.0071733333333","6500100","板橋區"
"235032","KEA-2873","2019/09/13 14:19:20","新北市中和區中山路二段136巷3弄4號","121.501183333333","25.00355","6500300","中和區"
"235025","KEA-2875","2019/09/13 14:19:21","新北市中和區民安街13號","121.480645","25.000755","6500300","中和區"
"235026","KEA-2876","2019/09/13 14:19:39","新北市中和區立業路83巷27號","121.49145","25.0063233333333","6500300","中和區"
