"lineid","car","time","location","longitude","latitude","cityid","cityname"
"234040","862-TW","2019/09/13 14:58:36","新北市五股區中直路21號","121.42137","25.1119116666667","6500400","永和區"
"234025","9371-KE","2019/09/13 14:59:29","新北市永和區永貞路271號","121.511666666667","25.0047116666667","6500400","永和區"
"248019","KED-0813","2019/09/13 14:59:38","新北市五股區中直路19-2號","121.42353","25.112405","6501500","五股區"
"244004","248-BX","2019/09/13 14:59:33","新北市林口區南勢里31號","121.352128333333","25.0703483333333","6501700","林口區"
"231030","002-UM","2019/09/13 14:59:40","新北市新店區安民街339號","121.517006666667","24.9749083333333","6500600","新店區"
"231005","046-UY","2019/09/13 14:59:33","新北市新店區寶慶街58巷8號","121.542125","24.9870766666667","6500600","新店區"
"231029","106-UY","2019/09/13 14:59:29","新北市新店區錦秀路11巷64號","121.480776666667","24.9436533333333","6500600","新店區"
"231013","108-UY","2019/09/13 14:59:37","新北市新店區安康路一段44號","121.530776666667","24.9611333333333","6500600","新店區"
"231036","110-UY","2019/09/13 14:59:35","新北市新店區安祥路102巷42弄13號","121.484883333333","24.9641766666667","6500600","新店區"
"231039","187-VK","2019/09/13 14:59:43","新北市新店區中興路二段190號","121.54828","24.9731583333333","6500600","新店區"
"231022","192-VK","2019/09/13 14:59:28","新北市新店區新烏路三段38號","121.553731666667","24.9049683333333","6500600","新店區"
"231032","256-BX","2019/09/13 14:59:38","新北市新店區安泰路60巷50號","121.483551666667","24.9464883333333","6500600","新店區"
"231023","260-TV","2019/09/13 14:59:28","新北市新店區檳榔路117號","121.544456666667","24.9613466666667","6500600","新店區"
"231003","268-BY","2019/09/13 14:59:41","新北市新店區中興路二段100巷2號","121.54728","24.9711166666667","6500600","新店區"
"231035","278-BY","2019/09/13 14:59:44","新北市新店區安業街1-1號","121.516683333333","24.9788066666667","6500600","新店區"
"231016","AAD-862","2019/09/13 14:59:40","新北市新店區北宜路三段140號","121.584868333333","24.9501133333333","6500600","新店區"
"231006","355-BY","2019/09/13 14:59:40","新北市新店區北宜路一段69號","121.538476666667","24.95643","6500600","新店區"
"231038","3712-VJ","2019/09/13 14:59:34","新北市新店區安華路28-1號","121.519791666667","24.9609466666667","6500600","新店區"
"231024","4716-K9","2019/09/13 14:59:38","新北市新店區力行路12號","121.539396666667","24.9646133333333","6500600","新店區"
"231025","4715-K9","2019/09/13 14:59:48","新北市新店區建國路219-1號","121.537481666667","24.9812116666667","6500600","新店區"
"231034","616-UM","2019/09/13 14:59:42","新北市新店區玫瑰路4-1號","121.493605","24.9514166666667","6500600","新店區"
"231002","618-UM","2019/09/13 14:59:40","新北市新店區中正路501-2號","121.533681666667","24.9837533333333","6500600","新店區"
"231012","KED-0819","2019/09/13 14:59:26","新北市新店區中興路三段205巷9號","121.543175","24.9815483333333","6500600","新店區"
"231018","718-UY","2019/09/13 14:59:33","新北市新店區中央路192號","121.530856666667","24.9747566666667","6500600","新店區"
"231026","720-UM","2019/09/13 14:59:31","新北市新店區中正路136號","121.541971666667","24.9714516666667","6500600","新店區"
"231028","897-TW","2019/09/13 14:59:36","新北市新店區安德街173號","121.50875","24.9589283333333","6500600","新店區"
"231001","898-TW","2019/09/13 14:59:31","新北市新店區三民路127號","121.534601666667","24.97244","6500600","新店區"
"231004","899-TW","2019/09/13 14:59:37","新北市新店區民族路14-1號","121.541441666667","24.9788716666667","6500600","新店區"
"231037","AKT-0513","2019/09/13 14:59:30","新北市新店區安民街365巷1弄10號","121.516481666667","24.9750216666667","6500600","新店區"
"235030","003-UY","2019/09/13 14:59:26","新北市中和區光華街22號","121.504373333333","25.00419","6500300","中和區"
"235020","096-UM","2019/09/13 14:59:30","新北市中和區中山路三段170巷2弄2號","121.473046666667","25.0066183333333","6500300","中和區"
"235003","097-UM","2019/09/13 14:59:41","新北市中和區安樂路217巷56號","121.513048333333","24.9976316666667","6500300","中和區"
"235029","098-UM","2019/09/13 14:59:33","新北市中和區福美路315號","121.496781666667","25.0047416666667","6500300","中和區"
"235040","150-BY","2019/09/13 14:59:37","新北市中和區景安路79巷21號","121.507015","24.9967566666667","6500300","中和區"
"235019","183-VK","2019/09/13 14:59:32","新北市三重區光復路二段192號","121.47074","25.06303","6500300","中和區"
"235013","186-VK","2019/09/13 14:59:26","新北市中和區中正路446號","121.490951666667","24.9942416666667","6500300","中和區"
"235036","301-VK","2019/09/13 14:59:35","新北市中和區廟美街6巷2號","121.501125","25.00125","6500300","中和區"
"235007","352-BY","2019/09/13 14:59:31","新北市中和區華新街232巷6號","121.505848333333","24.9819216666667","6500300","中和區"
"235006","KEA-2878","2019/09/13 14:59:26","新北市新店區薏仁坑路自強巷1號","121.497396666667","24.957755","6500300","中和區"
"235014","4979-A6","2019/09/13 14:59:37","新北市中和區景平路235號","121.51013","24.9926283333333","6500300","中和區"
"235033","4980-A6","2019/09/13 14:59:38","新北市中和區景新街34巷10號","121.503151666667","24.99896","6500300","中和區"
"235034","558-UM","2019/09/13 14:59:32","新北市中和區中正路426號","121.49149","24.994235","6500300","中和區"
"235011","732-UM","2019/09/13 14:59:41","新北市中和區中正路637巷52弄1號","121.48562","24.9937716666667","6500300","中和區"
"235010","733-UM","2019/09/13 14:59:37","新北市中和區忠孝街31巷40號","121.509891666667","24.9850016666667","6500300","中和區"
"235012","896-TW","2019/09/13 14:59:40","新北市中和區華新街82號","121.508361666667","24.9834483333333","6500300","中和區"
"235015","157-BY","2019/09/13 14:59:35","新北市中和區景安路220巷4弄1號","121.503325","24.9909816666667","6500300","中和區"
"235001","AAC-213","2019/09/13 14:59:47","新北市中和區大勇街22號","121.517263333333","24.9929366666667","6500300","中和區"
"235023","AAC-215","2019/09/13 14:59:42","新北市中和區圓通路335巷3弄1號","121.492208333333","24.9902516666667","6500300","中和區"
"220013","072-UY","2019/09/13 14:59:37","新北市板橋區民族路69巷18弄22號","121.466501666667","25.0098966666667","6500100","板橋區"
"220034","073-UY","2019/09/13 14:59:31","新北市板橋區館前西路160巷18號","121.452433333333","25.0090216666667","6500100","板橋區"
"220105","075-UY","2019/09/13 14:59:27","新北市板橋區懷德街76巷11號","121.477685","25.0316733333333","6500100","板橋區"
"220017","AAD-861","2019/09/13 14:59:27","新北市板橋區貴興路113號","121.455841666667","25.002465","6500100","板橋區"
"220016","120-SR","2019/09/13 14:59:43","新北市板橋區中山路二段410號","121.482793333333","25.02085","6500100","板橋區"
"247012","337-TH","2019/09/13 14:59:30","新北市五股區中興路三段2巷10號","121.449445","25.0810616666667","6501400","蘆洲區"
"207002","749-BX","2019/09/13 14:59:30","新北市萬里區崁腳里崁腳路73號","121.647613333333","25.1595583333333","6502800","萬里區"
"207001","662-BX","2019/09/13 14:59:30","新北市萬里區雙興里太和路30-1號","121.654745","25.1783116666667","6502800","萬里區"
"237007","153-BY","2019/09/13 14:40:50","新北市三峽區中山路459巷137號","121.349898333333","24.9338783333333","6500900","三峽區"
"236040","KED-0685","2019/09/13 14:59:41","新北市土城區學府路一段189巷15號","121.452595","24.9845633333333","6501300","土城區"
"236029","253-BX","2019/09/13 14:59:31","新北市土城區中央路二段180巷14號","121.441143333333","24.976645","6501300","土城區"
"236024","269-VK","2019/09/13 14:59:43","新北市土城區中正路74巷3弄8號","121.445071666667","24.974715","6501300","土城區"
"236013","270-VK","2019/09/13 14:59:39","新北市土城區立德路13巷22號","121.461628333333","24.9888216666667","6501300","土城區"
"236032","271-VK","2019/09/13 14:59:41","新北市土城區清水路183號","121.459601666667","24.9815416666667","6501300","土城區"
"236067","KEA-2877","2019/09/13 14:59:27","新北市土城區裕生路84巷1號","121.447245","24.9853566666667","6501300","土城區"
"236016","752-BX","2019/09/13 14:58:46","新北市土城區延吉街217巷3弄1號","121.468686666667","24.9848916666667","6501300","土城區"
"236057","912-UM","2019/09/13 14:59:36","新北市土城區金城路二段248號","121.456925","24.9833483333333","6501300","土城區"
"236045","913-UM","2019/09/13 14:59:45","新北市土城區青雲路319號","121.458975","24.9786583333333","6501300","土城區"
"236060","915-UM","2019/09/13 14:59:36","新北市土城區金城路三段97號","121.467128333333","24.9875783333333","6501300","土城區"
"236054","AAC-216","2019/09/13 14:59:41","新北市土城區學成路29號","121.452863333333","24.9869783333333","6501300","土城區"
"220027","145-BY","2019/09/13 14:59:32","新北市板橋區復興街27號","121.45801","25.0174033333333","6500100","板橋區"
"220028","200-UY","2019/09/13 14:59:27","新北市板橋區大觀路二段169巷10號","121.445718333333","25.000045","6500100","板橋區"
"220030","610-BX","2019/09/13 14:59:42","新北市板橋區溪北路52號","121.427596666667","24.9899133333333","6500100","板橋區"
"220040","267-BY","2019/09/13 14:59:38","新北市板橋區文聖街121號","121.478076666667","25.028965","6500100","板橋區"
"220004","276-BY","2019/09/13 14:59:35","新北市板橋區四川路二段99巷4弄2號","121.45289","24.9941466666667","6500100","板橋區"
"220020","277-BY","2019/09/13 14:59:45","新北市板橋區金門街109巷10號","121.433726666667","24.9918183333333","6500100","板橋區"
"220050","280-UM","2019/09/13 14:59:44","新北市板橋區雙十路二段47巷4弄17號","121.474981666667","25.0263283333333","6500100","板橋區"
"220043","283-UM","2019/09/13 14:59:37","新北市板橋區文化路一段152號","121.465348333333","25.0191716666667","6500100","板橋區"
"220001","285-VK","2019/09/13 14:59:38","新北市板橋區永豐街10號","121.474913333333","25.0168216666667","6500100","板橋區"
"220031","286-VK","2019/09/13 14:59:34","新北市板橋區僑中二街88巷38號","121.444438333333","25.00972","6500100","板橋區"
"220029","287-VK","2019/09/13 14:59:46","新北市板橋區僑中一街80巷14弄2號","121.448193333333","25.0133316666667","6500100","板橋區"
"220009","293-UM","2019/09/13 14:59:35","新北市板橋區四川路一段387號","121.457906666667","24.9991666666667","6500100","板橋區"
"220010","295-UM","2019/09/13 14:59:27","新北市板橋區中山路二段494號","121.485468333333","25.0221766666667","6500100","板橋區"
"220014","299-UM","2019/09/13 14:59:32","新北市板橋區中山路一段206巷74號","121.472496666667","25.0134783333333","6500100","板橋區"
"220023","303-R5","2019/09/13 14:59:28","新北市板橋區金華街3號","121.455513333333","25.0201266666667","6500100","板橋區"
"220041","307-R5","2019/09/13 14:59:31","新北市板橋區漢生西路130號","121.46273","25.0202","6500100","板橋區"
"220047","317-R6","2019/09/13 14:59:42","新北市板橋區新海路385巷24號","121.457908333333","25.0255683333333","6500100","板橋區"
"220038","487-VK","2019/09/13 14:59:44","新北市板橋區四維路227號","121.463848333333","25.02736","6500100","板橋區"
"220037","491-VK","2019/09/13 14:59:33","新北市板橋區懷德街54號","121.477393333333","25.0324883333333","6500100","板橋區"
"220104","560-BX","2019/09/13 14:59:27","新北市板橋區新生街39號","121.45684","25.02123","6500100","板橋區"
"220052","561-BX","2019/09/13 14:59:43","新北市板橋區漢生東路63巷26號","121.466941666667","25.0171716666667","6500100","板橋區"
"220011","609-BX","2019/09/13 14:59:29","新北市板橋區縣民大道三段310號","121.478605","25.0237166666667","6500100","板橋區"
"220005","686-BX","2019/09/13 14:59:42","新北市板橋區四川路二段245巷69號","121.452645","24.9920133333333","6500100","板橋區"
"220025","687-BX","2019/09/13 14:59:42","新北市板橋區僑中二街106巷2號","121.445941666667","25.0076116666667","6500100","板橋區"
"220002","741-BX","2019/09/13 14:59:24","新北市板橋區實踐路93巷9-2號","121.464505","25.0054816666667","6500100","板橋區"
"220051","KEA-2699","2019/09/13 14:59:35","新北市板橋區莒光路103號","121.472638333333","25.024085","6500100","板橋區"
"220003","827-TW","2019/09/13 14:59:40","新北市板橋區仁愛路55號","121.460318333333","24.9996383333333","6500100","板橋區"
"220022","895-R6","2019/09/13 14:59:30","新北市板橋區文化路一段46巷23號","121.460423333333","25.011425","6500100","板橋區"
"220021","985-R7","2019/09/13 14:59:33","新北市板橋區南雅西路二段82號","121.452526666667","25.0109066666667","6500100","板橋區"
"220046","AAC-210","2019/09/13 14:59:38","新北市板橋區光正街42號","121.461778333333","25.017525","6500100","板橋區"
"220012","AAC-253","2019/09/13 14:59:39","新北市板橋區民族路63號","121.465245","25.0087333333333","6500100","板橋區"
"235026","KEA-2876","2019/09/13 14:59:39","新北市中和區員山路36巷16-3號","121.485123333333","24.9914916666667","6500300","中和區"
