"lineid","car","time","location","longitude","latitude","cityid","cityname"
"244004","248-BX","2019/09/13 15:19:32","新北市林口區粉寮路二段92號","121.404586666667","25.0887533333333","6501700","林口區"
"231030","002-UM","2019/09/13 15:19:40","新北市新店區安民街341-1號","121.516865","24.9749266666667","6500600","新店區"
"231005","046-UY","2019/09/13 15:19:33","新北市新店區建國路251號","121.537425","24.98265","6500600","新店區"
"231029","106-UY","2019/09/13 15:19:29","新北市新店區安康路三段738號","121.473876666667","24.9420633333333","6500600","新店區"
"231036","110-UY","2019/09/13 15:19:35","新北市新店區安祥路69巷15號","121.481965","24.9614416666667","6500600","新店區"
"231039","187-VK","2019/09/13 15:19:43","新北市新店區寶元路一段65號","121.542241666667","24.98579","6500600","新店區"
"231022","192-VK","2019/09/13 15:19:28","新北市新店區永福路54號","121.55817","24.9286516666667","6500600","新店區"
"231032","256-BX","2019/09/13 15:19:38","新北市新店區安泰路45巷14號","121.485648333333","24.9471933333333","6500600","新店區"
"231023","260-TV","2019/09/13 15:19:28","新北市新店區行政街45號","121.543093333333","24.9655066666667","6500600","新店區"
"231003","268-BY","2019/09/13 15:19:40","新北市新店區寶高路116號","121.554566666667","24.976145","6500600","新店區"
"231035","278-BY","2019/09/13 15:19:44","新北市新店區安和路三段37號","121.5178","24.9819266666667","6500600","新店區"
"231016","AAD-862","2019/09/13 15:19:40","新北市新店區北宜路二段599號","121.568265","24.955525","6500600","新店區"
"231038","3712-VJ","2019/09/13 15:19:34","新北市新店區安華路28-1號","121.519908333333","24.9609433333333","6500600","新店區"
"231024","4716-K9","2019/09/13 15:19:27","新北市新店區新明街10號","121.541086666667","24.9683066666667","6500600","新店區"
"231025","4715-K9","2019/09/13 15:19:48","新北市新店區環河路113-1號","121.531115","24.9710383333333","6500600","新店區"
"231034","616-UM","2019/09/13 15:19:42","新北市新店區如意街5巷1號","121.495526666667","24.9490583333333","6500600","新店區"
"231002","618-UM","2019/09/13 15:19:40","新北市新店區中正路700巷1號","121.533965","24.99126","6500600","新店區"
"231012","KED-0819","2019/09/13 15:19:46","新北市新店區寶慶街41號","121.542838333333","24.9866316666667","6500600","新店區"
"231018","718-UY","2019/09/13 15:19:35","新北市新店區中央八街90號","121.526823333333","24.9774433333333","6500600","新店區"
"231026","720-UM","2019/09/13 15:19:31","新北市新店區中正路282號","121.538666666667","24.9738633333333","6500600","新店區"
"231028","897-TW","2019/09/13 15:19:36","新北市新店區僑愛五路21號","121.499123333333","24.9442016666667","6500600","新店區"
"231001","898-TW","2019/09/13 15:19:31","新北市新店區中正路114號","121.542473333333","24.9710616666667","6500600","新店區"
"231004","899-TW","2019/09/13 15:19:38","新北市新店區建國路43號","121.540586666667","24.9750383333333","6500600","新店區"
"231037","AKT-0513","2019/09/13 15:19:30","新北市新店區安興路81號","121.515328333333","24.9753433333333","6500600","新店區"
"241007","066-VK","2019/09/13 15:19:38","新北市三重區重新路四段121號","121.484931666667","25.0519566666667","6500200","三重區"
"241013","270-UM","2019/09/13 15:19:43","新北市三重區重新路四段121號","121.484675","25.05188","6500200","三重區"
"235030","003-UY","2019/09/13 15:19:46","新北市中和區保平路326巷19號","121.506528333333","25.004585","6500300","中和區"
"235019","183-VK","2019/09/13 15:19:32","新北市八里區中山路三段382號","121.368536666667","25.1359333333333","6500300","中和區"
"235014","4979-A6","2019/09/13 15:19:37","新北市中和區景平路402號","121.509253333333","24.9931516666667","6500300","中和區"
"235033","4980-A6","2019/09/13 15:19:38","新北市中和區連城路347巷18弄30號","121.487426666667","24.9946916666667","6500300","中和區"
"235012","896-TW","2019/09/13 15:19:40","新北市中和區景新街368號","121.512135","24.990385","6500300","中和區"
"235023","AAC-215","2019/09/13 15:19:42","新北市中和區圓通路320-1號","121.485318333333","24.987915","6500300","中和區"
"220013","072-UY","2019/09/13 15:19:37","新北市板橋區四川路二段140巷16弄19號","121.448546666667","24.9936566666667","6500100","板橋區"
"220034","073-UY","2019/09/13 15:19:31","新北市樹林區八德街262-1號","121.417621666667","24.9721766666667","6500100","板橋區"
"220017","AAD-861","2019/09/13 15:19:27","新北市樹林區佳園路一段94號","121.393625","24.968745","6500100","板橋區"
"247012","337-TH","2019/09/13 15:10:50","新北市五股區中興路三段2巷10號","121.449478333333","25.0810266666667","6501400","蘆洲區"
"207002","749-BX","2019/09/13 15:19:30","新北市萬里區崁腳里內中福路14-2號","121.662826666667","25.1653783333333","6502800","萬里區"
"207001","662-BX","2019/09/13 15:19:30","新北市萬里區大鵬里萬里加投19-12號","121.649976666667","25.2094633333333","6502800","萬里區"
"236040","KED-0685","2019/09/13 15:19:41","新北市土城區學府路一段143巷35號","121.45441","24.98528","6501300","土城區"
"236029","253-BX","2019/09/13 15:19:31","新北市土城區中華路一段199-1號","121.443575","24.9849883333333","6501300","土城區"
"236024","269-VK","2019/09/13 15:19:43","新北市土城區員林街61巷1弄1號","121.444031666667","24.9776833333333","6501300","土城區"
"236013","270-VK","2019/09/13 15:19:39","新北市土城區廣福街68巷32-1號","121.458558333333","24.9902733333333","6501300","土城區"
"236032","271-VK","2019/09/13 15:19:34","新北市土城區國際路139巷2號","121.468501666667","24.9765766666667","6501300","土城區"
"236067","KEA-2877","2019/09/13 15:19:27","新北市土城區裕民路185巷36弄10號","121.454336666667","24.9845466666667","6501300","土城區"
"236016","752-BX","2019/09/13 15:19:26","新北市土城區明峰街83號","121.468935","24.9874233333333","6501300","土城區"
"236057","912-UM","2019/09/13 15:19:36","新北市土城區中央路二段181號","121.44207","24.9759266666667","6501300","土城區"
"236045","913-UM","2019/09/13 15:19:44","新北市土城區明德路一段137-4號","121.465346666667","24.9808766666667","6501300","土城區"
"236060","915-UM","2019/09/13 15:19:35","新北市土城區延和路217號","121.469901666667","24.98974","6501300","土城區"
"236054","AAC-216","2019/09/13 15:19:41","新北市土城區延和路64號","121.465821666667","24.9891083333333","6501300","土城區"
"220031","286-VK","2019/09/13 15:19:34","新北市板橋區僑中二街104巷19號","121.445183333333","25.0080083333333","6500100","板橋區"
"220029","287-VK","2019/09/13 15:19:39","新北市板橋區僑中一街92號","121.447028333333","25.0116083333333","6500100","板橋區"
"220023","303-R5","2019/09/13 15:19:28","新北市板橋區中正路335號","121.454883333333","25.0202783333333","6500100","板橋區"
"220025","687-BX","2019/09/13 15:19:42","新北市板橋區大觀路一段28巷1弄94號","121.451471666667","25.0065816666667","6500100","板橋區"
"220003","827-TW","2019/09/13 15:19:42","新北市板橋區國慶路149巷37弄8號","121.460531666667","24.9980316666667","6500100","板橋區"
"220022","895-R6","2019/09/13 15:19:35","新北市板橋區館前西路47號","121.457908333333","25.0068316666667","6500100","板橋區"
"235062","KEA-2876","2019/09/13 15:00:44","新北市中和區員山路36巷16-3號","121.485016666667","24.9914716666667","6500300","中和區"
