"lineid","car","time","location","longitude","latitude","cityid","cityname"
"249005","172-UM","2019/09/13 16:49:30","新北市八里區大堀湖1-5號","121.422706666667","25.1541666666667","6502300","八里區"
"249004","303-UY","2019/09/13 16:49:39","新北市八里區博物館路202巷30號","121.405213333333","25.1595016666667","6502300","八里區"
"249002","305-UY","2019/09/13 16:49:34","新北市八里區牛寮埔33號","121.429943333333","25.1456516666667","6502300","八里區"
"249003","593-UM","2019/09/13 16:49:26","新北市八里區中山路二段289號","121.401571666667","25.1486316666667","6502300","八里區"
"244007","080-UY","2019/09/13 16:49:46","新北市林口區粉寮路二段27號","121.40078","25.0845666666667","6501700","林口區"
"231046","719-UM","2019/09/13 16:43:03","新北市新店區灣潭路3-5號","121.538071666667","24.9508183333333","6500600","新店區"
"241011","013-R5","2019/09/13 16:49:32","新北市三重區仁愛街53巷166號","121.499881666667","25.0728133333333","6500200","三重區"
"241028","022-UY","2019/09/13 16:49:29","新北市三重區光興街125號","121.496683333333","25.05982","6500200","三重區"
"241008","059-VK","2019/09/13 16:49:37","新北市三重區永安北路一段17巷13號","121.477443333333","25.0750766666667","6500200","三重區"
"241031","061-VK","2019/09/13 16:49:44","新北市三重區重新路三段204號","121.48993","25.0587233333333","6500200","三重區"
"241015","062-VK","2019/09/13 16:49:31","新北市三重區長元街42號","121.499816666667","25.0660033333333","6500200","三重區"
"241017","063-VK","2019/09/13 16:49:34","新北市三重區國隆路8巷7號","121.493191666667","25.06357","6500200","三重區"
"241007","066-VK","2019/09/13 16:49:38","新北市三重區三和路四段181巷86號","121.484495","25.0795516666667","6500200","三重區"
"241002","090-VK","2019/09/13 16:49:43","新北市三重區五華街1巷96號","121.497301666667","25.0806533333333","6500200","三重區"
"241003","091-VK","2019/09/13 16:49:41","新北市三重區五華街87巷36號","121.493175","25.0840616666667","6500200","三重區"
"241006","262-UM","2019/09/13 16:49:37","新北市三重區車路頭街115號","121.484286666667","25.07528","6500200","三重區"
"241016","266-UM","2019/09/13 16:49:39","新北市三重區大同北路115巷19號","121.493881666667","25.0646683333333","6500200","三重區"
"241009","267-UM","2019/09/13 16:49:44","新北市三重區溪尾街218巷14號","121.487303333333","25.081275","6500200","三重區"
"241018","268-UM","2019/09/13 16:49:33","新北市三重區安慶街149巷11號","121.494455","25.0692433333333","6500200","三重區"
"241032","269-UM","2019/09/13 16:49:47","新北市三重區重陽路一段120巷4號","121.486306666667","25.0600733333333","6500200","三重區"
"241013","270-UM","2019/09/13 16:49:43","新北市三重區仁壽街38號","121.497341666667","25.073625","6500200","三重區"
"241025","271-UM","2019/09/13 16:49:48","新北市三重區中正北路357號","121.472738333333","25.071885","6500200","三重區"
"241030","KED-0822","2019/09/13 16:49:26","新北市三重區昌隆街6號","121.492266666667","25.052875","6500200","三重區"
"241004","475-VK","2019/09/13 16:49:34","新北市三重區仁愛街397巷23號","121.492265","25.08157","6500200","三重區"
"241020","478-VK","2019/09/13 16:49:44","新北市三重區忠孝路二段51號","121.485666666667","25.071","6500200","三重區"
"241026","480-VK","2019/09/13 16:49:32","新北市三重區中央南路27號","121.501338333333","25.062255","6500200","三重區"
"241014","543-UM","2019/09/13 16:49:33","新北市三重區長榮路75號","121.502571666667","25.0692116666667","6500200","三重區"
"241023","545-UM","2019/09/13 16:49:37","新北市三重區新北大道一段206巷16號","121.482635","25.0621466666667","6500200","三重區"
"241001","547-UM","2019/09/13 16:49:43","新北市三重區仁愛街162號","121.494195","25.07628","6500200","三重區"
"241019","KEA-2593","2019/09/13 16:49:36","新北市三重區三張街149巷11號","121.486955","25.0701","6500200","三重區"
"241005","AAD-863","2019/09/13 16:49:38","新北市三重區仁華街106號","121.485308333333","25.08322","6500200","三重區"
"241022","KED-0820","2019/09/13 16:49:43","新北市三重區貴陽街47巷17號","121.484786666667","25.06242","6500200","三重區"
"241012","941-UM","2019/09/13 16:49:40","新北市三重區仁壽街269號","121.50168","25.07502","6500200","三重區"
"241029","942-UM","2019/09/13 16:49:43","新北市三重區集美街257號","121.492428333333","25.0556083333333","6500200","三重區"
"241033","AAC-255","2019/09/13 16:49:34","新北市三重區新北大道二段65號","121.46917","25.0609816666667","6500200","三重區"
"235064","911-UM","2019/09/13 16:45:59","新北市中和區員山路36巷16-3號","121.48508","24.9913366666667","6500300","中和區"
"247008","341-TH","2019/09/13 16:49:44","新北市蘆洲區中山一路176號","121.474148333333","25.0810816666667","6501400","蘆洲區"
"247012","337-TH","2019/09/13 16:49:27","新北市蘆洲區三民路1號","121.475888333333","25.08168","6501400","蘆洲區"
"247002","001-UY","2019/09/13 16:49:44","新北市蘆洲區永平街20號","121.459145","25.0906133333333","6501400","蘆洲區"
"228003","097-TW","2019/09/13 16:49:28","新北市貢寮區貢寮里朝陽街1-2號","121.9124","25.02126","6502600","貢寮區"
"228002","663-BX","2019/09/13 16:49:27","新北市貢寮區貢寮里朝陽街142號","121.905923333333","25.0231","6502600","貢寮區"
"224007","285-BY","2019/09/13 16:49:41","新北市瑞芳區中央路48巷162號","121.759321666667","25.10353","6501200","瑞芳區"
"224009","275-VK","2019/09/13 16:49:38","新北市瑞芳區民權街3-1號","121.809376666667","25.1083516666667","6501200","瑞芳區"
"224005","271-BY","2019/09/13 16:49:45","新北市瑞芳區洞頂路122號","121.861491666667","25.1233233333333","6501200","瑞芳區"
"227001","642-TC","2019/09/13 16:49:34","新北市雙溪區牡丹里下坑29號","121.850075","25.0568216666667","6502500","雙溪區"
"251004","009-UM","2019/09/13 16:49:31","新北市淡水區中正路二段31號","121.419491666667","25.1815433333333","6501000","淡水區"
"251008","181-VK","2019/09/13 16:49:39","新北市淡水區樹梅坑9號","121.472906666667","25.1425983333333","6501000","淡水區"
"251007","442-VK","2019/09/13 16:49:39","新北市淡水區中正路一段130號","121.422691666667","25.1787166666667","6501000","淡水區"
"251009","575-R6","2019/09/13 16:49:34","新北市淡水區中正路二段18號","121.419798333333","25.1810533333333","6501000","淡水區"
"251011","650-BX","2019/09/13 16:49:30","新北市淡水區重建街82號","121.440071666667","25.172415","6501000","淡水區"
"252002","178-VK","2019/09/13 16:49:40","新北市三芝區埔坪里埔頭坑88-7號","121.506888333333","25.2548616666667","6502100","三芝區"
"252001","292-VK","2019/09/13 16:49:29","新北市三芝區淡金路二段89-1號","121.504021666667","25.2608683333333","6502100","三芝區"
"242005","751-BX","2019/09/13 16:49:29","新北市新莊區新泰路255巷83號","121.442371666667","25.0387066666667","6500500","新莊區"
"242025","362-BY","2019/09/13 16:49:45","新北市新莊區新泰路357巷3弄57號","121.442038333333","25.0390983333333","6500500","新莊區"
"242021","KED-0687","2019/09/13 16:49:39","新北市新莊區三和路12-21號","121.4423","25.037995","6500500","新莊區"
"239007","AAC-297","2019/09/13 16:49:33","新北市鶯歌區二甲路13-16號","121.345093333333","24.9351916666667","6500800","鶯歌區"
"239008","527-UM","2019/09/13 16:49:42","新北市鶯歌區二甲路13-16號","121.345016666667","24.935455","6500800","鶯歌區"
"244019","KED-0667","2019/09/13 16:49:30","新北市林口區粉寮69號","121.405035","25.0908883333333","6501700","林口區"
"242046","281-VK","2019/09/13 16:49:38","新北市新莊區三和路12-21號","121.442403333333","25.0383833333333","6500500","新莊區"
"242011","280-VK","2019/09/13 16:49:41","新北市新莊區三和路12-21號","121.442025","25.0384383333333","6500500","新莊區"
