"lineid","car","time","location","longitude","latitude","cityid","cityname"
"249005","172-UM","2019/09/13 17:09:30","新北市八里區大堀湖28-2號","121.420626666667","25.1467266666667","6502300","八里區"
"249001","173-UM","2019/09/13 17:09:36","新北市八里區中華路二段201號","121.40549","25.1496166666667","6502300","八里區"
"249004","303-UY","2019/09/13 17:09:39","新北市八里區忠孝路133號","121.424118333333","25.1606516666667","6502300","八里區"
"249002","305-UY","2019/09/13 17:09:34","新北市八里區米倉18號","121.439915","25.149945","6502300","八里區"
"249003","593-UM","2019/09/13 17:09:26","新北市八里區中山路二段405號","121.3978","25.14652","6502300","八里區"
"244007","080-UY","2019/09/13 17:09:26","新北市林口區菁埔24-3號","121.37762","25.096985","6501700","林口區"
"244023","483-VK","2019/09/13 17:09:31","新北市林口區仁愛路一段667巷5號","121.387748333333","25.0760716666667","6501700","林口區"
"244017","485-VK","2019/09/13 17:09:35","新北市林口區粉寮69號","121.405051666667","25.0908216666667","6501700","林口區"
"244009","656-BX","2019/09/13 17:09:36","新北市林口區松柏路35-2號","121.379455","25.0915233333333","6501700","林口區"
"244025","837-TS","2019/09/13 17:09:39","新北市林口區中山路267號","121.385311666667","25.0794333333333","6501700","林口區"
"244021","838-TS","2019/09/13 17:09:41","新北市林口區粉寮路二段288號","121.405093333333","25.09544","6501700","林口區"
"231046","719-UM","2019/09/13 17:01:24","新北市新店區灣潭路15-2號","121.542636666667","24.9430516666667","6500600","新店區"
"241011","013-R5","2019/09/13 17:09:32","新北市三重區龍濱路285號","121.501061666667","25.0733533333333","6500200","三重區"
"241028","022-UY","2019/09/13 17:09:29","新北市三重區重新路三段98號","121.492751666667","25.060515","6500200","三重區"
"241008","059-VK","2019/09/13 17:09:37","新北市三重區力行路二段134號","121.482188333333","25.0756683333333","6500200","三重區"
"241015","062-VK","2019/09/13 17:09:31","新北市三重區中央北路83號","121.500393333333","25.0666916666667","6500200","三重區"
"241017","063-VK","2019/09/13 17:09:34","新北市三重區國隆路29號","121.49264","25.0643616666667","6500200","三重區"
"241007","066-VK","2019/09/13 17:09:38","新北市三重區三和路四段163巷63號","121.485296666667","25.079185","6500200","三重區"
"241002","090-VK","2019/09/13 17:09:43","新北市三重區五華街53號","121.494261666667","25.0812966666667","6500200","三重區"
"241003","091-VK","2019/09/13 17:09:41","新北市三重區富福街106號","121.49333","25.0855366666667","6500200","三重區"
"241006","262-UM","2019/09/13 17:09:37","新北市三重區三和路四段111-3號","121.48587","25.07747","6500200","三重區"
"241016","266-UM","2019/09/13 17:09:39","新北市三重區大同北路54巷7號","121.493988333333","25.06338","6500200","三重區"
"241009","267-UM","2019/09/13 17:09:44","新北市三重區仁愛街622號","121.483471666667","25.080665","6500200","三重區"
"241018","268-UM","2019/09/13 17:09:33","新北市三重區安慶街99號","121.495361666667","25.06909","6500200","三重區"
"241032","269-UM","2019/09/13 17:09:40","新北市三重區三陽路3號","121.486216666667","25.0588083333333","6500200","三重區"
"241013","270-UM","2019/09/13 17:09:43","新北市三重區仁愛街99號","121.495861666667","25.0737966666667","6500200","三重區"
"241025","271-UM","2019/09/13 17:09:28","新北市三重區中正北路560號","121.470948333333","25.0719916666667","6500200","三重區"
"241030","KED-0822","2019/09/13 17:09:46","新北市三重區集成路49號","121.489486666667","25.053015","6500200","三重區"
"241004","475-VK","2019/09/13 17:09:35","新北市三重區五華街122巷3號","121.491681666667","25.0830866666667","6500200","三重區"
"241020","478-VK","2019/09/13 17:09:44","新北市三重區自強路三段33號","121.48693","25.0726083333333","6500200","三重區"
"241026","480-VK","2019/09/13 17:09:32","新北市三重區福德南路1號","121.502618333333","25.0637","6500200","三重區"
"241014","543-UM","2019/09/13 17:09:33","新北市三重區龍濱路183號","121.502111666667","25.0706666666667","6500200","三重區"
"241023","545-UM","2019/09/13 17:09:37","新北市三重區忠孝路三段84巷1號","121.480253333333","25.0646116666667","6500200","三重區"
"241001","547-UM","2019/09/13 17:09:43","新北市三重區仁愛街269巷6-1號","121.493266666667","25.0789283333333","6500200","三重區"
"241019","KEA-2593","2019/09/13 17:09:36","新北市三重區三張街162號","121.485885","25.0693683333333","6500200","三重區"
"241005","AAD-863","2019/09/13 17:09:38","新北市三重區永安北路二段43巷22號","121.483096666667","25.0827383333333","6500200","三重區"
"241022","KED-0820","2019/09/13 17:09:43","新北市三重區重陽路二段34巷68號","121.485051666667","25.0642216666667","6500200","三重區"
"241012","941-UM","2019/09/13 17:09:40","新北市三重區河邊北街248巷17號","121.501223333333","25.07583","6500200","三重區"
"241029","942-UM","2019/09/13 17:09:43","新北市三重區過圳街7巷1號","121.489531666667","25.05856","6500200","三重區"
"241033","AAC-255","2019/09/13 17:09:34","新北市三重區中興北街275號","121.469131666667","25.0608866666667","6500200","三重區"
"247016","KEA-2869","2019/09/13 17:09:42","新北市蘆洲區光華路73巷25號","121.468533333333","25.082155","6501400","蘆洲區"
"247010","KED-0682","2019/09/13 17:09:38","新北市蘆洲區民族路26號","121.47616","25.0842683333333","6501400","蘆洲區"
"235064","911-UM","2019/09/13 17:09:40","新北市中和區員山路36巷16-3號","121.485053333333","24.9912216666667","6500300","中和區"
"247006","893-R6","2019/09/13 17:09:33","新北市蘆洲區中華街6巷28號","121.462808333333","25.082155","6501400","蘆洲區"
"247020","546-UM","2019/09/13 17:09:29","新北市蘆洲區民族路422巷116號","121.472521666667","25.09424","6501400","蘆洲區"
"247018","500-BY","2019/09/13 17:09:31","新北市蘆洲區復興路101號","121.476591666667","25.087545","6501400","蘆洲區"
"247008","341-TH","2019/09/13 17:09:44","新北市蘆洲區民生街30號","121.474745","25.078825","6501400","蘆洲區"
"247012","337-TH","2019/09/13 17:09:27","新北市蘆洲區信義路266巷11號","121.478595","25.0872033333333","6501400","蘆洲區"
"247004","336-TH","2019/09/13 17:09:44","新北市蘆洲區長安街209號","121.459863333333","25.082175","6501400","蘆洲區"
"247024","057-VK","2019/09/13 17:09:33","新北市蘆洲區長榮路16-2號","121.461771666667","25.0853383333333","6501400","蘆洲區"
"247014","056-VK","2019/09/13 17:09:48","新北市蘆洲區中央路37巷15號","121.47347","25.0825833333333","6501400","蘆洲區"
"247022","007-UY","2019/09/13 17:09:44","新北市蘆洲區水湳街91號","121.470303333333","25.0901416666667","6501400","蘆洲區"
"247002","001-UY","2019/09/13 17:09:44","新北市蘆洲區永樂街83號","121.45587","25.0887433333333","6501400","蘆洲區"
"228003","097-TW","2019/09/13 17:09:28","新北市貢寮區福隆里東興街31-1號","121.95224","25.0205766666667","6502600","貢寮區"
"228002","663-BX","2019/09/13 17:09:27","新北市貢寮區龍崗里泮宮路33號","121.907835","25.017645","6502600","貢寮區"
"228001","670-TC","2019/09/13 17:09:44","新北市貢寮區仁理村研海街45號","121.925786666667","25.04305","6502600","貢寮區"
"224006","676-BX","2019/09/13 17:09:37","新北市瑞芳區大寮路114號","121.780265","25.097915","6501200","瑞芳區"
"224007","285-BY","2019/09/13 17:09:36","新北市瑞芳區大埔路吉慶公園城41號","121.76515","25.098385","6501200","瑞芳區"
"224009","275-VK","2019/09/13 17:08:38","新北市瑞芳區濱二路30號","121.841248333333","25.116075","6501200","瑞芳區"
"224008","273-VK","2019/09/13 17:09:30","新北市瑞芳區九芎橋路4-2號","121.831921666667","25.0908166666667","6501200","瑞芳區"
"224005","271-BY","2019/09/13 17:09:31","新北市瑞芳區南雅路1號","121.889873333333","25.1195833333333","6501200","瑞芳區"
"227001","642-TC","2019/09/13 17:09:34","新北市雙溪區三貂里定福路22-1號","121.851503333333","25.073115","6502500","雙溪區"
"227002","400-TW","2019/09/13 17:09:29","新北市雙溪區上林里內平林12號","121.837245","25.0299266666667","6502500","雙溪區"
"251004","009-UM","2019/09/13 17:09:32","新北市淡水區中正東路二段88巷15號","121.45906","25.1505283333333","6501000","淡水區"
"251008","181-VK","2019/09/13 17:09:39","新北市淡水區樹梅坑17號","121.47126","25.1442266666667","6501000","淡水區"
"251010","413-VK","2019/09/13 17:09:35","新北市淡水區中正路二段31號","121.419465","25.1815266666667","6501000","淡水區"
"251012","441-VK","2019/09/13 17:09:42","新北市淡水區中山北路一段96號","121.442511666667","25.1763683333333","6501000","淡水區"
"251007","442-VK","2019/09/13 17:09:39","新北市淡水區民生路10號","121.460806666667","25.1378683333333","6501000","淡水區"
"251005","443-VK","2019/09/13 17:09:34","新北市淡水區鄧公路19-1號","121.450278333333","25.1699583333333","6501000","淡水區"
"251006","561-UM","2019/09/13 17:09:46","新北市淡水區真理街6號","121.438428333333","25.1745033333333","6501000","淡水區"
"251009","575-R6","2019/09/13 17:09:34","新北市淡水區中正路一段130-2號","121.42247","25.1788933333333","6501000","淡水區"
"251011","650-BX","2019/09/13 17:09:30","新北市淡水區坪頂路49號","121.45784","25.16265","6501000","淡水區"
"251003","766-UM","2019/09/13 17:09:33","新北市淡水區中正路二段31號","121.41939","25.1815866666667","6501000","淡水區"
"252002","178-VK","2019/09/13 17:09:40","新北市三芝區忠孝街1-14號","121.505551666667","25.2539633333333","6502100","三芝區"
"252001","292-VK","2019/09/13 17:09:38","新北市三芝區埔頭里埔頭18-2號","121.49353","25.2603266666667","6502100","三芝區"
"242041","AAC-296","2019/09/13 17:09:44","新北市新莊區新泰路357巷3弄57號","121.442256666667","25.0396283333333","6500500","新莊區"
"242005","751-BX","2019/09/13 17:09:29","新北市新莊區三和路12-21號","121.442276666667","25.0386366666667","6500500","新莊區"
"242029","615-BX","2019/09/13 17:09:43","新北市新莊區三和路12-21號","121.442221666667","25.0386816666667","6500500","新莊區"
"242027","613-BX","2019/09/13 17:09:29","新北市新莊區新泰路357巷3弄57號","121.442295","25.0392366666667","6500500","新莊區"
"242058","612-BX","2019/09/13 17:09:36","新北市新莊區新泰路255巷83號","121.442296666667","25.0391133333333","6500500","新莊區"
"242048","566-BX","2019/09/13 17:09:34","新北市新莊區中正路517-2號","121.439783333333","25.0334783333333","6500500","新莊區"
"242054","497-BY","2019/09/13 17:09:28","新北市新莊區新泰路357巷1弄57號","121.442451666667","25.039365","6500500","新莊區"
"242002","442-UM","2019/09/13 17:09:37","新北市新莊區三和路12-17號","121.442193333333","25.03752","6500500","新莊區"
"242044","415-TV","2019/09/13 17:09:38","新北市泰山區磚雅厝3號","121.442003333333","25.0418233333333","6500500","新莊區"
"242013","413-TV","2019/09/13 17:09:38","新北市新莊區新泰路357巷3弄57號","121.442115","25.0394666666667","6500500","新莊區"
"242050","400-BY","2019/09/13 17:09:30","新北市新莊區新莊路769號","121.442118333333","25.0325266666667","6500500","新莊區"
"242025","362-BY","2019/09/13 17:09:45","新北市新莊區新泰路255巷83號","121.442218333333","25.0391316666667","6500500","新莊區"
"242023","353-BY","2019/09/13 17:09:26","新北市新莊區新泰路357巷3弄57號","121.442121666667","25.0392416666667","6500500","新莊區"
"242032","175-VK","2019/09/13 17:09:36","新北市新莊區三和路12-21號","121.442151666667","25.038355","6500500","新莊區"
"242039","176-VK","2019/09/13 17:09:33","新北市新莊區三和路12-16號","121.442188333333","25.0374616666667","6500500","新莊區"
"242021","KED-0687","2019/09/13 17:09:39","新北市新莊區三和路12-21號","121.442308333333","25.03812","6500500","新莊區"
"242037","348-TH","2019/09/13 17:09:28","新北市新莊區新泰路255巷83號","121.442113333333","25.03889","6500500","新莊區"
"242009","349-TH","2019/09/13 17:09:38","新北市新莊區三和路12-21號","121.442311666667","25.03851","6500500","新莊區"
"242034","350-TH","2019/09/13 17:09:31","新北市新莊區新泰路357巷3弄53號","121.442315","25.039855","6500500","新莊區"
"242019","351-TH","2019/09/13 17:09:26","新北市新莊區新泰路357巷3弄57號","121.44209","25.0395616666667","6500500","新莊區"
"238018","KEA-2217","2019/09/13 17:09:37","新北市樹林區環河路10號","121.427093333333","24.97826","6500700","樹林區"
"238017","283-BY","2019/09/13 17:09:34","新北市樹林區大安路325號","121.417401666667","24.9917433333333","6500700","樹林區"
"238014","282-BY","2019/09/13 17:09:48","新北市樹林區大安路618號","121.411408333333","24.9829816666667","6500700","樹林區"
"238026","172-UY","2019/09/13 17:09:31","新北市樹林區八德街224號","121.415563333333","24.9717916666667","6500700","樹林區"
"238016","169-UY","2019/09/13 17:09:32","新北市樹林區中山路二段34號","121.417406666667","24.984935","6500700","樹林區"
"239007","AAC-297","2019/09/13 17:09:33","新北市鶯歌區信義街6號","121.35333","24.955755","6500800","鶯歌區"
"239006","891-R6","2019/09/13 17:09:33","新北市鶯歌區八德路2巷20弄2號","121.336315","24.94668","6500800","鶯歌區"
"239008","527-UM","2019/09/13 17:09:42","新北市鶯歌區尖山路68號","121.348903333333","24.9494216666667","6500800","鶯歌區"
"239001","417-VK","2019/09/13 17:09:31","新北市鶯歌區尖山路140巷27號","121.346306666667","24.94922","6500800","鶯歌區"
"239002","359-BY","2019/09/13 17:09:37","新北市鶯歌區建國路178號","121.349621666667","24.953635","6500800","鶯歌區"
"239004","193-VK","2019/09/13 17:09:41","新北市鶯歌區文化路324巷11弄1號","121.350436666667","24.9450616666667","6500800","鶯歌區"
"244019","KED-0667","2019/09/13 17:09:30","新北市林口區公園路233-3號","121.375626666667","25.07526","6501700","林口區"
"242046","281-VK","2019/09/13 17:09:39","新北市新莊區中正路384號","121.44203","25.0348183333333","6500500","新莊區"
"242011","280-VK","2019/09/13 17:09:41","新北市新莊區三和路12-21號","121.4421","25.0382916666667","6500500","新莊區"
"235062","KEA-2876","2019/09/13 17:09:27","新北市中和區員山路36巷16-3號","121.485065","24.9914016666667","6500300","中和區"
