"lineid","car","time","location","longitude","latitude","cityid","cityname"
"249005","172-UM","2019/09/13 17:29:30","新北市八里區荖阡坑路69號","121.406776666667","25.1263333333333","6502300","八里區"
"249001","173-UM","2019/09/13 17:29:36","新北市八里區大崁腳47-2號","121.424265","25.158935","6502300","八里區"
"249004","303-UY","2019/09/13 17:29:39","新北市八里區民治街52號","121.414155","25.1573016666667","6502300","八里區"
"249002","305-UY","2019/09/13 17:29:34","新北市八里區龍米路二段31號","121.448455","25.1398666666667","6502300","八里區"
"249003","593-UM","2019/09/13 17:29:45","新北市八里區中山路二段315號","121.400588333333","25.1477416666667","6502300","八里區"
"232011","375-UM","2019/09/13 17:29:43","新北市坪林區鶯子瀨1-2號","121.709276666667","24.9182183333333","6502000","坪林區"
"244007","080-UY","2019/09/13 17:29:26","新北市林口區湖子7-8號","121.388571666667","25.0924733333333","6501700","林口區"
"244013","KEA-2802","2019/09/13 17:29:47","新北市林口區中山路319號","121.383638333333","25.08058","6501700","林口區"
"244023","483-VK","2019/09/13 17:29:31","新北市林口區東明一街35巷17號","121.392633333333","25.0717083333333","6501700","林口區"
"244017","485-VK","2019/09/13 17:29:35","新北市林口區文化一路一段95號","121.372186666667","25.0704633333333","6501700","林口區"
"244009","656-BX","2019/09/13 17:29:36","新北市林口區民享路228號","121.383","25.0849083333333","6501700","林口區"
"244011","701-TV","2019/09/13 17:29:41","新北市林口區佳林路211號","121.384246666667","25.0771433333333","6501700","林口區"
"244025","837-TS","2019/09/13 17:29:39","新北市林口區忠孝路308巷19號","121.367451666667","25.07197","6501700","林口區"
"244021","838-TS","2019/09/13 17:29:41","新北市林口區粉寮路一段5號","121.39622","25.0760166666667","6501700","林口區"
"231046","719-UM","2019/09/13 17:12:44","新北市新店區直潭三街88號","121.531633333333","24.94179","6500600","新店區"
"241011","013-R5","2019/09/13 17:29:32","新北市三重區河邊北街128巷42號","121.50236","25.0713233333333","6500200","三重區"
"241015","062-VK","2019/09/13 17:29:31","新北市三重區三和路一段47巷18-2號","121.50365","25.065745","6500200","三重區"
"241017","063-VK","2019/09/13 17:29:34","新北市三重區中正北路25巷6號","121.493338333333","25.062835","6500200","三重區"
"241007","066-VK","2019/09/13 17:29:38","新北市三重區三和路四段145巷162號","121.48829","25.0794816666667","6500200","三重區"
"241006","262-UM","2019/09/13 17:29:37","新北市三重區自強路三段80號","121.487168333333","25.0745066666667","6500200","三重區"
"241016","266-UM","2019/09/13 17:29:43","新北市三重區信義西街47號","121.495076666667","25.0639983333333","6500200","三重區"
"241032","269-UM","2019/09/13 17:29:27","新北市三重區名源街61巷3號","121.481953333333","25.05941","6500200","三重區"
"241013","270-UM","2019/09/13 17:29:43","新北市三重區仁愛街92巷22號","121.494576666667","25.0736033333333","6500200","三重區"
"241025","271-UM","2019/09/13 17:25:07","新北市三重區中正北路335號","121.473293333333","25.0715","6500200","三重區"
"241030","KED-0822","2019/09/13 17:29:46","新北市三重區環河南路256號","121.49102","25.050425","6500200","三重區"
"241020","478-VK","2019/09/13 17:29:44","新北市三重區忠孝路三段84巷18號","121.480925","25.0645933333333","6500200","三重區"
"241014","543-UM","2019/09/13 17:29:32","新北市三重區長壽街65號","121.50173","25.06846","6500200","三重區"
"241023","545-UM","2019/09/13 17:29:37","新北市三重區忠孝路三段84巷30號","121.48154","25.0642416666667","6500200","三重區"
"241001","547-UM","2019/09/13 17:29:43","新北市三重區溪尾街73號","121.490736666667","25.0777116666667","6500200","三重區"
"241019","KEA-2593","2019/09/13 17:29:36","新北市三重區六張街217號","121.488268333333","25.068555","6500200","三重區"
"241005","AAD-863","2019/09/13 17:29:38","新北市三重區碧華街26號","121.48249","25.0807616666667","6500200","三重區"
"241012","941-UM","2019/09/13 17:29:40","新北市三重區仁興街39巷20號","121.500233333333","25.0762266666667","6500200","三重區"
"241033","AAC-255","2019/09/13 17:29:34","新北市三重區興德路129號","121.47034","25.0531816666667","6500200","三重區"
"247016","KEA-2869","2019/09/13 17:29:42","新北市蘆洲區光華路22巷39號","121.468358333333","25.0846733333333","6501400","蘆洲區"
"247010","KED-0682","2019/09/13 17:29:38","新北市蘆洲區集賢路406號","121.479916666667","25.081815","6501400","蘆洲區"
"235064","911-UM","2019/09/13 17:29:20","新北市中和區員山路36巷16-2號","121.485166666667","24.9914466666667","6500300","中和區"
"247006","893-R6","2019/09/13 17:29:33","新北市蘆洲區長安街22巷31弄9號","121.464075","25.0802466666667","6501400","蘆洲區"
"247020","546-UM","2019/09/13 17:29:29","新北市蘆洲區水湳街375巷1號","121.46966","25.093755","6501400","蘆洲區"
"247018","500-BY","2019/09/13 17:29:36","新北市蘆洲區民義街22巷20號","121.471823333333","25.0880483333333","6501400","蘆洲區"
"247008","341-TH","2019/09/13 17:29:44","新北市蘆洲區信義路34巷48號","121.475036666667","25.07811","6501400","蘆洲區"
"247012","337-TH","2019/09/13 17:29:27","新北市蘆洲區三民路88號","121.473408333333","25.0855016666667","6501400","蘆洲區"
"247004","336-TH","2019/09/13 17:29:44","新北市蘆洲區長安街233巷30號","121.45822","25.0824433333333","6501400","蘆洲區"
"247024","057-VK","2019/09/13 17:29:33","新北市蘆洲區長榮路478號","121.460293333333","25.0894833333333","6501400","蘆洲區"
"247014","056-VK","2019/09/13 17:29:28","新北市蘆洲區三民路17號","121.475718333333","25.0823166666667","6501400","蘆洲區"
"247022","007-UY","2019/09/13 17:29:44","新北市蘆洲區三民路277號","121.467896666667","25.08975","6501400","蘆洲區"
"247002","001-UY","2019/09/13 17:29:44","新北市蘆洲區永樂街38巷69號","121.458418333333","25.090585","6501400","蘆洲區"
"228003","097-TW","2019/09/13 17:29:28","新北市貢寮區仁理村研海街62-2號","121.925416666667","25.0458716666667","6502600","貢寮區"
"228002","663-BX","2019/09/13 17:29:48","新北市貢寮區福隆里惠隆街1巷2號","121.94488","25.016355","6502600","貢寮區"
"228001","670-TC","2019/09/13 17:29:44","新北市貢寮區仁理村仁愛路39號","121.925145","25.05338","6502600","貢寮區"
"224010","AGQ-8101","2019/09/13 17:29:26","新北市瑞芳區逢甲路84號","121.809778333333","25.1087216666667","6501200","瑞芳區"
"224006","676-BX","2019/09/13 17:29:37","新北市瑞芳區傑魚坑路74號","121.792911666667","25.11053","6501200","瑞芳區"
"224009","275-VK","2019/09/13 17:29:38","新北市瑞芳區汽車路29號","121.844525","25.1097816666667","6501200","瑞芳區"
"224008","273-VK","2019/09/13 17:29:30","新北市瑞芳區侯硐路220號","121.831091666667","25.0885733333333","6501200","瑞芳區"
"224005","271-BY","2019/09/13 17:29:30","新北市瑞芳區鼻頭路247號","121.912633333333","25.1239433333333","6501200","瑞芳區"
"227001","642-TC","2019/09/13 17:24:11","新北市雙溪區三貂里定福路1-2號","121.850706666667","25.0633666666667","6502500","雙溪區"
"227002","400-TW","2019/09/13 17:29:28","新北市雙溪區共和里東榮街52號","121.866323333333","25.0336833333333","6502500","雙溪區"
"251004","009-UM","2019/09/13 17:12:00","新北市淡水區中正東路二段88巷15號","121.459056666667","25.15053","6501000","淡水區"
"251008","181-VK","2019/09/13 17:29:39","新北市淡水區大同路122巷18號","121.463326666667","25.1397616666667","6501000","淡水區"
"251010","413-VK","2019/09/13 17:29:35","新北市淡水區中正路二段206號","121.426253333333","25.1890866666667","6501000","淡水區"
"251012","441-VK","2019/09/13 17:29:42","新北市淡水區北新路111號","121.447995","25.1784016666667","6501000","淡水區"
"251007","442-VK","2019/09/13 17:29:39","新北市淡水區民生路47-4號","121.461936666667","25.1380283333333","6501000","淡水區"
"251005","443-VK","2019/09/13 17:29:34","新北市淡水區鄧公路31巷1號","121.451308333333","25.1709166666667","6501000","淡水區"
"251001","559-UM","2019/09/13 17:29:43","新北市淡水區自強路279-1號","121.461335","25.1278266666667","6501000","淡水區"
"251006","561-UM","2019/09/13 17:29:26","新北市淡水區大仁街29號","121.442648333333","25.1754316666667","6501000","淡水區"
"251009","575-R6","2019/09/13 17:29:34","新北市淡水區新生街68號","121.43897","25.1743883333333","6501000","淡水區"
"251011","650-BX","2019/09/13 17:29:30","新北市淡水區三空泉8-1號","121.475901666667","25.16124","6501000","淡水區"
"251002","672-BX","2019/09/13 17:29:44","新北市淡水區中正路一段87巷1號","121.421761666667","25.1793566666667","6501000","淡水區"
"251003","766-UM","2019/09/13 17:29:33","新北市淡水區中山路159-1號","121.440733333333","25.1730083333333","6501000","淡水區"
"207003","550-UM","2019/09/13 17:29:40","新北市萬里區龜吼里美崙路93號","121.68529","25.1851083333333","6502800","萬里區"
"207004","291-VK","2019/09/13 17:29:44","新北市萬里區萬里里成功新村57號","121.688155","25.1745983333333","6502800","萬里區"
"252002","178-VK","2019/09/13 17:29:40","新北市三芝區忠孝街1-14號","121.505523333333","25.2539583333333","6502100","三芝區"
"252001","292-VK","2019/09/13 17:29:29","新北市三芝區淡金路一段3號","121.498085","25.2596666666667","6502100","三芝區"
"242041","AAC-296","2019/09/13 17:29:44","新北市新莊區新樹路113巷32號","121.438865","25.0266383333333","6500500","新莊區"
"242060","986-R7","2019/09/13 17:29:34","新北市新莊區瓊林南路12-2號","121.436288333333","25.0189683333333","6500500","新莊區"
"242005","751-BX","2019/09/13 17:29:29","新北市新莊區中港路286號","121.453011666667","25.0442883333333","6500500","新莊區"
"242029","615-BX","2019/09/13 17:29:43","新北市新莊區復興路二段194號","121.459266666667","25.0444483333333","6500500","新莊區"
"242027","613-BX","2019/09/13 17:29:29","新北市新莊區思源路28號","121.46025","25.04031","6500500","新莊區"
"242058","612-BX","2019/09/13 17:29:36","新北市新莊區中正路471號","121.441935","25.0340266666667","6500500","新莊區"
"242048","566-BX","2019/09/13 17:29:34","新北市新莊區四維路210號","121.421366666667","25.0201266666667","6500500","新莊區"
"242054","497-BY","2019/09/13 17:29:28","新北市新莊區瓊林南路218號","121.433581666667","25.0058516666667","6500500","新莊區"
"242002","442-UM","2019/09/13 17:29:37","新北市新莊區思明街5號","121.455461666667","25.03539","6500500","新莊區"
"242007","440-UM","2019/09/13 17:29:45","新北市新莊區自強街27號","121.454638333333","25.0463866666667","6500500","新莊區"
"242044","415-TV","2019/09/13 17:29:38","新北市新莊區富國路99號","121.421061666667","25.0256066666667","6500500","新莊區"
"242013","413-TV","2019/09/13 17:29:38","新北市新莊區中誠街46巷4弄13號","121.4518","25.0488033333333","6500500","新莊區"
"242050","400-BY","2019/09/13 17:29:30","新北市新莊區新樹路449巷11號","121.43435","25.014275","6500500","新莊區"
"242025","362-BY","2019/09/13 17:29:45","新北市新莊區中港路278號","121.453146666667","25.0441116666667","6500500","新莊區"
"242023","353-BY","2019/09/13 17:29:26","新北市新莊區公園路39號","121.45315","25.04014","6500500","新莊區"
"242015","132-UY","2019/09/13 17:29:45","新北市新莊區新泰路136號","121.447951666667","25.037025","6500500","新莊區"
"242056","172-VK","2019/09/13 17:29:36","新北市新莊區新泰路13號","121.449643333333","25.03257","6500500","新莊區"
"242032","175-VK","2019/09/13 17:29:41","新北市新莊區新泰路413巷16號","121.442713333333","25.0444166666667","6500500","新莊區"
"242039","176-VK","2019/09/13 17:29:33","新北市新莊區民安路292號","121.427943333333","25.0217516666667","6500500","新莊區"
"242021","KED-0687","2019/09/13 17:29:39","新北市新莊區中正路102號","121.454575","25.0366483333333","6500500","新莊區"
"242017","347-TH","2019/09/13 17:29:36","新北市新莊區中華路一段103號","121.452725","25.0439233333333","6500500","新莊區"
"242037","348-TH","2019/09/13 17:29:28","新北市新莊區建國二路11號","121.434591666667","25.02384","6500500","新莊區"
"242009","349-TH","2019/09/13 17:29:38","新北市新莊區中原路181號","121.453435","25.054535","6500500","新莊區"
"242034","350-TH","2019/09/13 17:29:31","新北市新莊區新莊路376號","121.44924","25.0334966666667","6500500","新莊區"
"242019","351-TH","2019/09/13 17:29:46","新北市新莊區中港路76號","121.455496666667","25.0389966666667","6500500","新莊區"
"238015","755-BX","2019/09/13 17:29:41","新北市樹林區大安路263號","121.419055","24.9938316666667","6500700","樹林區"
"238023","601-UM","2019/09/13 17:29:37","新北市樹林區三寶街2號","121.40654","25.0161866666667","6500700","樹林區"
"238019","599-UM","2019/09/13 17:29:46","新北市樹林區八德街130號","121.421371666667","24.9790233333333","6500700","樹林區"
"238024","5061-A6","2019/09/13 17:29:28","新北市樹林區博愛街207號","121.424126666667","24.9878783333333","6500700","樹林區"
"238018","KEA-2217","2019/09/13 17:29:41","新北市樹林區鎮前街143-2號","121.42391","24.9889966666667","6500700","樹林區"
"238022","KEA-2213","2019/09/13 17:29:27","新北市樹林區仁愛街28號","121.422655","24.98225","6500700","樹林區"
"238021","KEA-2539","2019/09/13 17:29:37","新北市樹林區佳園路二段59號","121.391273333333","24.9612916666667","6500700","樹林區"
"238025","303-VK","2019/09/13 17:29:40","新北市樹林區保安街二段2號","121.416611666667","24.9995433333333","6500700","樹林區"
"238017","283-BY","2019/09/13 17:29:34","新北市樹林區三德街8號","121.413226666667","25.0128033333333","6500700","樹林區"
"238014","282-BY","2019/09/13 17:29:48","新北市樹林區保安街一段294巷3號","121.419271666667","24.9975633333333","6500700","樹林區"
"238020","268-VK","2019/09/13 17:29:43","新北市樹林區俊英街24-1號","121.429301666667","25.0015716666667","6500700","樹林區"
"238026","172-UY","2019/09/13 17:29:31","新北市樹林區味王街14號","121.40304","24.9759883333333","6500700","樹林區"
"238016","169-UY","2019/09/13 17:29:32","新北市樹林區長壽街28巷4弄10號","121.42349","24.9942816666667","6500700","樹林區"
"239007","AAC-297","2019/09/13 17:29:33","新北市鶯歌區國華路2號","121.342868333333","24.95646","6500800","鶯歌區"
"239006","891-R6","2019/09/13 17:29:33","新北市鶯歌區鶯桃路472巷55號","121.333288333333","24.9660983333333","6500800","鶯歌區"
"239008","527-UM","2019/09/13 17:29:42","新北市鶯歌區大湖路576號","121.33631","24.973445","6500800","鶯歌區"
"239001","417-VK","2019/09/13 17:29:31","新北市鶯歌區中正三路86號","121.338243333333","24.9410633333333","6500800","鶯歌區"
"239003","360-BY","2019/09/13 17:29:36","新北市鶯歌區德昌街189號","121.331078333333","24.9605833333333","6500800","鶯歌區"
"239002","359-BY","2019/09/13 17:29:37","新北市鶯歌區國慶街69號","121.349951666667","24.9551166666667","6500800","鶯歌區"
"239004","193-VK","2019/09/13 17:29:40","新北市鶯歌區三鶯路29巷19號","121.354725","24.9403966666667","6500800","鶯歌區"
"244019","KED-0667","2019/09/13 17:29:30","新北市林口區文化一路一段83巷14弄23-1號","121.371893333333","25.0712466666667","6501700","林口區"
"242046","281-VK","2019/09/13 17:29:41","新北市新莊區福營路30-5號","121.43942","25.0326583333333","6500500","新莊區"
"242011","280-VK","2019/09/13 17:29:41","新北市新莊區幸福路602-1號","121.452251666667","25.04939","6500500","新莊區"
"235061","KEA-2875","2019/09/13 17:15:59","新北市中和區員山路36巷16-2號","121.485356666667","24.991655","6500300","中和區"
"235062","KEA-2876","2019/09/13 17:27:09","新北市中和區員山路36巷16-3號","121.485178333333","24.99135","6500300","中和區"
