"lineid","car","time","location","longitude","latitude","cityid","cityname"
"234026","9371-KE","2019/09/13 17:39:40","新北市永和區中正路619號","121.516021666667","25.00979","6500400","永和區"
"249005","172-UM","2019/09/13 17:39:30","新北市八里區荖阡坑路34-1號","121.402756666667","25.1297583333333","6502300","八里區"
"249001","173-UM","2019/09/13 17:39:36","新北市八里區龍米路二段153-8號","121.440128333333","25.1534566666667","6502300","八里區"
"249004","303-UY","2019/09/13 17:39:39","新北市八里區大崁一街15號","121.419766666667","25.1587183333333","6502300","八里區"
"249002","305-UY","2019/09/13 17:39:34","新北市八里區龍米路一段470號","121.450398333333","25.1346916666667","6502300","八里區"
"249003","593-UM","2019/09/13 17:39:45","新北市八里區中山路二段133號","121.405388333333","25.1516016666667","6502300","八里區"
"232011","375-UM","2019/09/13 17:39:43","新北市坪林區北宜路八段103號","121.706096666667","24.9348516666667","6502000","坪林區"
"244007","080-UY","2019/09/13 17:39:28","新北市林口區菁埔39-1號","121.38291","25.0940133333333","6501700","林口區"
"244013","KEA-2802","2019/09/13 17:39:27","新北市林口區中正路438號","121.383858333333","25.077815","6501700","林口區"
"244023","483-VK","2019/09/13 17:39:31","新北市林口區興林路152巷16號","121.388278333333","25.0715516666667","6501700","林口區"
"244017","485-VK","2019/09/13 17:39:41","新北市林口區文化二路一段220號","121.369478333333","25.07229","6501700","林口區"
"244009","656-BX","2019/09/13 17:39:36","新北市林口區寶林路40號","121.385488333333","25.0844016666667","6501700","林口區"
"244011","701-TV","2019/09/13 17:39:41","新北市林口區中正路398號","121.384946666667","25.077765","6501700","林口區"
"244025","837-TS","2019/09/13 17:39:39","新北市林口區文化三路一段249巷20號","121.362436666667","25.0718033333333","6501700","林口區"
"244021","838-TS","2019/09/13 17:39:41","新北市林口區仁愛路123巷1號","121.39877","25.0712266666667","6501700","林口區"
"222002","659-BX","2019/09/13 17:39:35","新北市深坑區深南路51-1號","121.621351666667","25.01011","6501800","深坑區"
"231046","719-UM","2019/09/13 17:12:44","新北市新店區直潭三街88號","121.531633333333","24.94179","6500600","新店區"
"241015","062-VK","2019/09/13 17:39:31","新北市三重區龍濱路285號","121.501208333333","25.0735433333333","6500200","三重區"
"241017","063-VK","2019/09/13 17:39:34","新北市三重區大同北路34巷19號","121.494453333333","25.0624016666667","6500200","三重區"
"241007","066-VK","2019/09/13 17:39:38","新北市三重區後竹圍街205巷50號","121.484431666667","25.073265","6500200","三重區"
"241016","266-UM","2019/09/13 17:39:39","新北市三重區重新路二段98號","121.49695","25.061505","6500200","三重區"
"241025","271-UM","2019/09/13 17:25:07","新北市三重區中正北路335號","121.473293333333","25.0715","6500200","三重區"
"241014","543-UM","2019/09/13 17:39:32","新北市三重區龍濱路80號","121.502465","25.0695283333333","6500200","三重區"
"241023","545-UM","2019/09/13 17:39:37","新北市三重區中華路75巷2號","121.483793333333","25.062805","6500200","三重區"
"241001","547-UM","2019/09/13 17:39:43","新北市三重區溪尾街73號","121.49072","25.07778","6500200","三重區"
"241012","941-UM","2019/09/13 17:39:40","新北市三重區龍濱路190號","121.501198333333","25.0732233333333","6500200","三重區"
"241033","AAC-255","2019/09/13 17:39:34","新北市三重區光復路一段59號","121.472498333333","25.0491883333333","6500200","三重區"
"247016","KEA-2869","2019/09/13 17:39:42","新北市蘆洲區光華路70巷2號","121.468001666667","25.0830133333333","6501400","蘆洲區"
"247010","KED-0682","2019/09/13 17:39:38","新北市蘆洲區中山一路124號","121.4767","25.0816333333333","6501400","蘆洲區"
"235064","911-UM","2019/09/13 17:39:40","新北市中和區員山路36巷16-3號","121.485083333333","24.9913816666667","6500300","中和區"
"247006","893-R6","2019/09/13 17:39:33","新北市蘆洲區長安街68巷29號","121.463831666667","25.0809616666667","6501400","蘆洲區"
"247020","546-UM","2019/09/13 17:39:29","新北市蘆洲區民族路331-1號","121.473886666667","25.0917083333333","6501400","蘆洲區"
"247018","500-BY","2019/09/13 17:39:31","新北市蘆洲區民權路61巷4弄2號","121.473521666667","25.0879","6501400","蘆洲區"
"247008","341-TH","2019/09/13 17:39:44","新北市蘆洲區民生街119號","121.472898333333","25.0789233333333","6501400","蘆洲區"
"247012","337-TH","2019/09/13 17:39:27","新北市蘆洲區復興路90巷8號","121.475681666667","25.0859183333333","6501400","蘆洲區"
"247004","336-TH","2019/09/13 17:39:24","新北市蘆洲區長安街172巷3號","121.45929","25.0834833333333","6501400","蘆洲區"
"247024","057-VK","2019/09/13 17:39:33","新北市蘆洲區長樂路125-1號","121.462138333333","25.0880833333333","6501400","蘆洲區"
"247014","056-VK","2019/09/13 17:39:28","新北市蘆洲區中正路110號","121.469578333333","25.0845683333333","6501400","蘆洲區"
"247022","007-UY","2019/09/13 17:39:44","新北市蘆洲區中正路262號","121.465576666667","25.08957","6501400","蘆洲區"
"247002","001-UY","2019/09/13 17:39:44","新北市蘆洲區永平街62號","121.457388333333","25.091805","6501400","蘆洲區"
"228003","097-TW","2019/09/13 17:39:28","新北市貢寮區仁理村仁和路252號","121.924131666667","25.0540533333333","6502600","貢寮區"
"228002","663-BX","2019/09/13 17:39:27","新北市貢寮區福隆里龜壽谷街11-1號","121.955221666667","25.006535","6502600","貢寮區"
"228001","670-TC","2019/09/13 17:39:44","新北市貢寮區仁理村仁愛路95-1號","121.927698333333","25.0555366666667","6502600","貢寮區"
"224010","AGQ-8101","2019/09/13 17:39:46","新北市瑞芳區岳王路158-1號","121.808465","25.111245","6501200","瑞芳區"
"224006","676-BX","2019/09/13 17:39:37","新北市瑞芳區中山路387號","121.795421666667","25.1102383333333","6501200","瑞芳區"
"224009","275-VK","2019/09/13 17:39:38","新北市瑞芳區基山街31巷20號","121.845996666667","25.1101","6501200","瑞芳區"
"224008","273-VK","2019/09/13 17:39:30","新北市瑞芳區瑞柑新村37號","121.829283333333","25.1070116666667","6501200","瑞芳區"
"224005","271-BY","2019/09/13 17:39:30","新北市瑞芳區南雅路91號","121.885065","25.1228983333333","6501200","瑞芳區"
"227001","642-TC","2019/09/13 17:24:11","新北市雙溪區三貂里定福路1-2號","121.850706666667","25.0633666666667","6502500","雙溪區"
"227002","400-TW","2019/09/13 17:39:28","新北市雙溪區共和里東榮街52號","121.866358333333","25.03368","6502500","雙溪區"
"251004","009-UM","2019/09/13 17:39:35","新北市淡水區中正東路二段145號","121.459256666667","25.1472516666667","6501000","淡水區"
"251008","181-VK","2019/09/13 17:39:39","新北市淡水區民權路3巷36號","121.462681666667","25.1442916666667","6501000","淡水區"
"251010","413-VK","2019/09/13 17:39:35","新北市淡水區淡海路280巷97號","121.41994","25.1891633333333","6501000","淡水區"
"251012","441-VK","2019/09/13 17:39:42","新北市淡水區北新路200巷8號","121.451706666667","25.179695","6501000","淡水區"
"251007","442-VK","2019/09/13 17:39:39","新北市淡水區民生路124巷30號","121.464183333333","25.1375816666667","6501000","淡水區"
"251005","443-VK","2019/09/13 17:39:34","新北市淡水區鄧公路32巷1號","121.451493333333","25.1713633333333","6501000","淡水區"
"251001","559-UM","2019/09/13 17:39:43","新北市淡水區自強路279-1號","121.461371666667","25.1278633333333","6501000","淡水區"
"251006","561-UM","2019/09/13 17:39:26","新北市淡水區大信街24巷2號","121.441968333333","25.1767666666667","6501000","淡水區"
"251009","575-R6","2019/09/13 17:39:34","新北市淡水區中正路125號","121.439496666667","25.1702816666667","6501000","淡水區"
"251011","650-BX","2019/09/13 17:39:30","新北市淡水區坪頂路718號","121.482565","25.15842","6501000","淡水區"
"251002","672-BX","2019/09/13 17:39:44","新北市淡水區重建街永興巷11號","121.43931","25.17267","6501000","淡水區"
"251003","766-UM","2019/09/13 17:39:33","新北市淡水區中山北路一段50號","121.44187","25.1755983333333","6501000","淡水區"
"207003","550-UM","2019/09/13 17:39:38","新北市萬里區龜吼里漁澳路16號","121.686841666667","25.1947716666667","6502800","萬里區"
"207004","291-VK","2019/09/13 17:39:44","新北市萬里區中幅里中福路27號","121.679915","25.1670683333333","6502800","萬里區"
"252002","178-VK","2019/09/13 17:39:40","新北市三芝區中正路二段2號","121.504946666667","25.2557666666667","6502100","三芝區"
"252001","292-VK","2019/09/13 17:39:29","新北市三芝區育英街7號","121.50169","25.2584283333333","6502100","三芝區"
"237007","153-BY","2019/09/13 17:39:41","新北市三峽區中山路459巷135號","121.348806666667","24.9330316666667","6500900","三峽區"
"237013","252-BX","2019/09/13 17:39:45","新北市三峽區愛國路22號","121.374428333333","24.9334766666667","6500900","三峽區"
"237014","433-BY","2019/09/13 17:39:33","新北市三峽區中山路365-8號","121.359083333333","24.9372466666667","6500900","三峽區"
"237011","KEA-2596","2019/09/13 17:39:29","新北市三峽區中山路107巷10號","121.364955","24.93552","6500900","三峽區"
"236042","KED-0685","2019/09/13 17:39:36","新北市土城區城林路6巷80號","121.438506666667","24.979575","6501300","土城區"
"236014","270-VK","2019/09/13 17:39:37","新北市土城區城林路6巷80號","121.438483333333","24.9796883333333","6501300","土城區"
"236055","AAC-216","2019/09/13 17:39:42","新北市土城區城林路6巷80號","121.438481666667","24.9795766666667","6501300","土城區"
"242041","AAC-296","2019/09/13 17:39:44","新北市新莊區建國一路23號","121.43403","25.0313583333333","6500500","新莊區"
"242060","986-R7","2019/09/13 17:39:39","新北市新莊區瓊林南路214號","121.433768333333","25.00592","6500500","新莊區"
"242005","751-BX","2019/09/13 17:39:32","新北市新莊區自立街168號","121.45561","25.045325","6500500","新莊區"
"242029","615-BX","2019/09/13 17:39:43","新北市新莊區復興路一段153號","121.45058","25.0432833333333","6500500","新莊區"
"242027","613-BX","2019/09/13 17:39:29","新北市新莊區福壽街107號","121.457963333333","25.05077","6500500","新莊區"
"242058","612-BX","2019/09/13 17:39:36","新北市新莊區中正路606號","121.426595","25.0302316666667","6500500","新莊區"
"242048","566-BX","2019/09/13 17:39:34","新北市新莊區萬安街133號","121.42064","25.022185","6500500","新莊區"
"242054","497-BY","2019/09/13 17:39:48","新北市新莊區新樹路699巷16號","121.432528333333","25.0018683333333","6500500","新莊區"
"242002","442-UM","2019/09/13 17:39:47","新北市新莊區新莊路357號","121.451931666667","25.0339433333333","6500500","新莊區"
"242007","440-UM","2019/09/13 17:39:28","新北市新莊區福樂街116號","121.457173333333","25.0478116666667","6500500","新莊區"
"242044","415-TV","2019/09/13 17:39:38","新北市新莊區富國路19巷4號","121.418793333333","25.0266883333333","6500500","新莊區"
"242013","413-TV","2019/09/13 17:39:38","新北市新莊區中誠街144號","121.448736666667","25.0476216666667","6500500","新莊區"
"242050","400-BY","2019/09/13 17:39:30","新北市新莊區西盛街216號","121.427965","25.0173366666667","6500500","新莊區"
"242025","362-BY","2019/09/13 17:39:45","新北市新莊區思源路118號","121.460101666667","25.0469133333333","6500500","新莊區"
"242023","353-BY","2019/09/13 17:39:35","新北市新莊區公園路129-10號","121.457485","25.0410133333333","6500500","新莊區"
"242015","132-UY","2019/09/13 17:39:31","新北市新莊區新泰路305巷1號","121.445335","25.0409433333333","6500500","新莊區"
"242056","172-VK","2019/09/13 17:39:36","新北市新莊區瓊林路13-3號","121.448881666667","25.0308233333333","6500500","新莊區"
"242032","175-VK","2019/09/13 17:39:39","新北市新莊區新泰路361巷1號","121.443705","25.0431433333333","6500500","新莊區"
"242039","176-VK","2019/09/13 17:39:43","新北市新莊區民全街17號","121.428996666667","25.0216766666667","6500500","新莊區"
"242021","KED-0687","2019/09/13 17:39:39","新北市新莊區中華路一段124號","121.452518333333","25.0407816666667","6500500","新莊區"
"242017","347-TH","2019/09/13 17:39:36","新北市新莊區復興路一段149巷21弄23號","121.448931666667","25.0438366666667","6500500","新莊區"
"242037","348-TH","2019/09/13 17:39:28","新北市新莊區後港一路139號","121.42977","25.0274466666667","6500500","新莊區"
"242009","349-TH","2019/09/13 17:39:38","新北市新莊區昌明街14巷10號","121.457416666667","25.0532833333333","6500500","新莊區"
"242034","350-TH","2019/09/13 17:39:31","新北市新莊區景德路409-2號","121.445171666667","25.0331","6500500","新莊區"
"242019","351-TH","2019/09/13 17:39:46","新北市新莊區中港路228號","121.454191666667","25.0427616666667","6500500","新莊區"
"238015","755-BX","2019/09/13 17:39:41","新北市樹林區樹德街114號","121.419615","24.9927316666667","6500700","樹林區"
"238023","601-UM","2019/09/13 17:39:37","新北市樹林區三福街114號","121.406428333333","25.016205","6500700","樹林區"
"238019","599-UM","2019/09/13 17:39:47","新北市樹林區八德街37-3號","121.419141666667","24.9830466666667","6500700","樹林區"
"238024","5061-A6","2019/09/13 17:39:28","新北市樹林區八德街262-1號","121.417533333333","24.9720983333333","6500700","樹林區"
"238018","KEA-2217","2019/09/13 17:39:36","新北市樹林區鎮前街8號","121.426353333333","24.99346","6500700","樹林區"
"238022","KEA-2213","2019/09/13 17:39:47","新北市樹林區中華路185-2號","121.420176666667","24.9817183333333","6500700","樹林區"
"238021","KEA-2539","2019/09/13 17:39:37","新北市樹林區柑園街一段127號","121.401113333333","24.959475","6500700","樹林區"
"238025","303-VK","2019/09/13 17:39:40","新北市樹林區保安街三段71-2號","121.412608333333","25.0121783333333","6500700","樹林區"
"238017","283-BY","2019/09/13 17:39:34","新北市樹林區三德街27-1號","121.41401","25.0130566666667","6500700","樹林區"
"238014","282-BY","2019/09/13 17:39:28","新北市樹林區保安街一段313巷28號","121.416988333333","24.9974216666667","6500700","樹林區"
"238020","268-VK","2019/09/13 17:39:41","新北市樹林區俊英街116巷41弄35號","121.428421666667","25.0071933333333","6500700","樹林區"
"238026","172-UY","2019/09/13 17:39:31","新北市樹林區新興街19巷36弄5號","121.402431666667","24.9732733333333","6500700","樹林區"
"238016","169-UY","2019/09/13 17:39:32","新北市樹林區育英街126號","121.419845","24.98933","6500700","樹林區"
"239007","AAC-297","2019/09/13 17:39:33","新北市鶯歌區鶯桃路182巷30號","121.337545","24.9563216666667","6500800","鶯歌區"
"239006","891-R6","2019/09/13 17:39:33","新北市鶯歌區永和街34巷23號","121.333811666667","24.96716","6500800","鶯歌區"
"239008","527-UM","2019/09/13 17:39:42","桃園市龜山區宏德司法新村4號","121.331193333333","24.9793766666667","6500800","鶯歌區"
"239001","417-VK","2019/09/13 17:39:31","新北市鶯歌區中正三路215號","121.335321666667","24.9393916666667","6500800","鶯歌區"
"239003","360-BY","2019/09/13 17:39:36","新北市鶯歌區鶯桃路196號","121.337621666667","24.9587566666667","6500800","鶯歌區"
"239002","359-BY","2019/09/13 17:39:39","新北市鶯歌區育智路88號","121.34512","24.9544383333333","6500800","鶯歌區"
"239004","193-VK","2019/09/13 17:39:40","新北市鶯歌區三鶯路19號","121.355446666667","24.9421733333333","6500800","鶯歌區"
"244019","KED-0667","2019/09/13 17:39:30","新北市林口區忠孝路552巷17-1號","121.37409","25.0672166666667","6501700","林口區"
"242046","281-VK","2019/09/13 17:39:39","新北市新莊區建國一路38號","121.433913333333","25.0314016666667","6500500","新莊區"
"242011","280-VK","2019/09/13 17:39:41","新北市新莊區中港路596號","121.451266666667","25.0538666666667","6500500","新莊區"
"235061","KEA-2875","2019/09/13 17:15:59","新北市中和區員山路36巷16-2號","121.485356666667","24.991655","6500300","中和區"
"235062","KEA-2876","2019/09/13 17:27:09","新北市中和區員山路36巷16-3號","121.485178333333","24.99135","6500300","中和區"
