"lineid","car","time","location","longitude","latitude","cityid","cityname"
"234046","148-BY","2019/09/13 18:39:46","新北市永和區永元路54號","121.522528333333","25.0011083333333","6500400","永和區"
"234081","298-R6","2019/09/13 18:39:33","新北市永和區林森路81號","121.523961666667","25.0038533333333","6500400","永和區"
"234038","336-UY","2019/09/13 18:39:35","新北市永和區福和路1號","121.526603333333","25.0099933333333","6500400","永和區"
"234064","337-UY","2019/09/13 18:39:43","新北市永和區福和路1號","121.526515","25.0099","6500400","永和區"
"234086","338-UY","2019/09/13 18:39:32","新北市中和區安樂路69-1號","121.51246","24.9939133333333","6500400","永和區"
"234017","745-BX","2019/09/13 18:39:32","新北市永和區福和路1號","121.526371666667","25.0095633333333","6500400","永和區"
"234030","746-BX","2019/09/13 18:39:37","新北市永和區得和路326號","121.523255","24.9995633333333","6500400","永和區"
"234007","KED-0605","2019/09/13 18:39:43","新北市永和區文化路168號","121.512116666667","25.01538","6500400","永和區"
"234013","KEA-2591","2019/09/13 18:39:30","新北市永和區保安路13號","121.51037","25.016865","6500400","永和區"
"234061","AAD-866","2019/09/13 18:39:25","新北市永和區福和路8巷1號","121.52482","25.00876","6500400","永和區"
"234042","862-TW","2019/09/13 18:39:28","新北市永和區永貞路304號","121.511935","25.00483","6500400","永和區"
"234026","9371-KE","2019/09/13 18:39:40","新北市永和區自由街58號","121.51372","25.0058883333333","6500400","永和區"
"234011","9373-KE","2019/09/13 18:39:43","新北市永和區永和路二段231巷1-1號","121.51498","25.0140216666667","6500400","永和區"
"249005","172-UM","2019/09/13 18:39:44","新北市八里區長道坑26-9號","121.390836666667","25.1257183333333","6502300","八里區"
"249001","173-UM","2019/09/13 18:39:36","新北市八里區龍米路一段366號","121.451545","25.1313933333333","6502300","八里區"
"249004","303-UY","2019/09/13 18:39:39","新北市八里區中山路一段2號","121.423531666667","25.1589316666667","6502300","八里區"
"249002","305-UY","2019/09/13 18:39:34","新北市八里區龍形一街12巷10號","121.449878333333","25.1308183333333","6502300","八里區"
"249003","593-UM","2019/09/13 18:14:10","新北市八里區中華路二段165巷1-2號","121.408311666667","25.150545","6502300","八里區"
"248014","025-BX","2019/09/13 18:39:40","新北市五股區民義路一段132號","121.434581666667","25.0860266666667","6501500","五股區"
"248016","026-BX","2019/09/13 18:39:35","新北市五股區凌雲路一段149巷5-1號","121.448928333333","25.1016966666667","6501500","五股區"
"248008","KED-0815","2019/09/13 18:39:29","新北市五股區中興路一段140巷10-1號","121.465045","25.074625","6501500","五股區"
"248018","KED-0813","2019/09/13 18:39:37","新北市五股區民義路二段84號","121.405966666667","25.1089766666667","6501500","五股區"
"248012","247-BX","2019/09/13 18:39:44","新北市五股區成泰路三段45號","121.44251","25.0892283333333","6501500","五股區"
"248010","272-BY","2019/09/13 18:39:35","新北市五股區水碓一路92號","121.43179","25.0736466666667","6501500","五股區"
"248004","677-BX","2019/09/13 18:39:29","新北市五股區民義路一段312-22號","121.42255","25.095375","6501500","五股區"
"248002","678-BX","2019/09/13 18:39:27","新北市五股區西雲路205號","121.448525","25.0964833333333","6501500","五股區"
"234023","9380-KE","2019/09/13 18:39:32","新北市永和區福和路76巷5弄9號","121.52233","25.0082933333333","6500400","永和區"
"234077","969-R7","2019/09/13 18:39:38","新北市永和區中正路164號","121.515093333333","24.9966916666667","6500400","永和區"
"234067","AAC-212","2019/09/13 18:39:32","新北市永和區永貞路41號","121.520953333333","25.006455","6500400","永和區"
"234003","AAC-295","2019/09/13 18:39:48","新北市永和區福和路1號","121.526051666667","25.00917","6500400","永和區"
"232011","375-UM","2019/09/13 18:39:43","新北市坪林區坪雙路一段41號","121.711703333333","24.9424416666667","6502000","坪林區"
"244007","080-UY","2019/09/13 18:39:46","新北市林口區後湖2-16號","121.389135","25.0969183333333","6501700","林口區"
"244013","KEA-2802","2019/09/13 18:39:27","新北市林口區麗園路6號","121.375306666667","25.06986","6501700","林口區"
"244023","483-VK","2019/09/13 18:39:31","新北市林口區文化二路二段88巷36號","121.379441666667","25.0808033333333","6501700","林口區"
"244017","485-VK","2019/09/13 18:39:35","新北市林口區文化二路一段20巷25弄7號","121.365501666667","25.067","6501700","林口區"
"244009","656-BX","2019/09/13 18:39:36","新北市林口區竹林路326巷102號","121.393026666667","25.0833066666667","6501700","林口區"
"244011","701-TV","2019/09/13 18:39:41","新北市林口區新寮1-84號","121.392761666667","25.0768016666667","6501700","林口區"
"244025","837-TS","2019/09/13 18:39:39","新北市林口區南勢四街327號","121.356621666667","25.0749133333333","6501700","林口區"
"244021","838-TS","2019/09/13 18:39:41","新北市林口區工六路62-2號","121.399635","25.0778216666667","6501700","林口區"
"243010","297-R6","2019/09/13 18:39:39","新北市泰山區明志路一段479號","121.430726666667","25.05558","6501600","泰山區"
"243015","680-BX","2019/09/13 18:39:39","新北市泰山區黎明路25號","121.422001666667","25.060785","6501600","泰山區"
"222003","436-BY","2019/09/13 18:39:35","新北市深坑區翠谷街14號","121.626991666667","25.0085766666667","6501800","深坑區"
"222002","659-BX","2019/09/13 18:39:36","新北市深坑區雲鄉路28號","121.621506666667","24.9997266666667","6501800","深坑區"
"231061","002-UM","2019/09/13 18:39:38","新北市新店區安華路28-1號","121.51973","24.96096","6500600","新店區"
"231044","046-UY","2019/09/13 18:39:25","新北市新店區安華路28-1號","121.519365","24.9607183333333","6500600","新店區"
"231060","106-UY","2019/09/13 18:39:27","新北市新店區安華路28-1號","121.519648333333","24.960845","6500600","新店區"
"231065","110-UY","2019/09/13 18:39:42","新北市新店區安一路一段1-1號","121.519215","24.9611783333333","6500600","新店區"
"231053","192-VK","2019/09/13 18:39:30","新北市新店區永興路38號","121.543431666667","24.9386033333333","6500600","新店區"
"231062","256-BX","2019/09/13 18:39:34","新北市新店區安一路一段1-1號","121.519648333333","24.96114","6500600","新店區"
"231054","260-TV","2019/09/13 18:39:44","新北市新店區安一路一段1-1號","121.519265","24.9610566666667","6500600","新店區"
"231042","268-BY","2019/09/13 18:39:29","新北市新店區中正路96號","121.543496666667","24.9703866666667","6500600","新店區"
"231064","278-BY","2019/09/13 18:39:30","新北市新店區安一路一段1-1號","121.519831666667","24.9611","6500600","新店區"
"231050","AAD-862","2019/09/13 18:38:53","新北市新店區安康路一段319號","121.5222","24.9636483333333","6500600","新店區"
"231045","355-BY","2019/09/13 18:39:37","新北市新店區安華路28-1號","121.51922","24.960845","6500600","新店區"
"231058","3713-VJ","2019/09/13 18:39:28","新北市新店區國校路67號","121.538656666667","24.9531766666667","6500600","新店區"
"231055","4716-K9","2019/09/13 18:39:40","新北市新店區華興街40號","121.537025","24.9690883333333","6500600","新店區"
"231056","4715-K9","2019/09/13 18:39:43","新北市新店區建國路200號","121.537913333333","24.9805633333333","6500600","新店區"
"231063","641-BX","2019/09/13 18:39:38","新北市新店區安華路1-1號","121.51943","24.9605283333333","6500600","新店區"
"231048","KED-0819","2019/09/13 18:39:38","新北市新店區安一路一段1-1號","121.519693333333","24.961075","6500600","新店區"
"231051","718-UY","2019/09/13 18:39:31","新北市新店區中央路151號","121.529335","24.9720416666667","6500600","新店區"
"231046","719-UM","2019/09/13 18:39:43","新北市新店區直潭二街1號","121.535406666667","24.9431516666667","6500600","新店區"
"231057","720-UM","2019/09/13 18:39:32","新北市新店區北宜路一段310號","121.547286666667","24.9521566666667","6500600","新店區"
"231059","897-TW","2019/09/13 18:39:35","新北市新店區安一路一段1-1號","121.519795","24.961085","6500600","新店區"
"231040","898-TW","2019/09/13 18:39:38","新北市新店區安華路28-1號","121.519453333333","24.96083","6500600","新店區"
"231043","899-TW","2019/09/13 18:39:25","新北市新店區安華路28-1號","121.519323333333","24.9607766666667","6500600","新店區"
"231066","AKT-0513","2019/09/13 18:39:47","新北市新店區安華路1-1號","121.519496666667","24.9604466666667","6500600","新店區"
"235066","003-UY","2019/09/13 18:39:46","新北市中和區水源路34巷1號","121.504953333333","25.0035783333333","6500300","中和區"
"235063","006-UY","2019/09/13 18:39:42","新北市中和區連城路319巷11弄12號","121.489671666667","24.99489","6500300","中和區"
"235056","096-UM","2019/09/13 18:39:46","新北市中和區員山路611巷5弄5號","121.478073333333","25.0112166666667","6500300","中和區"
"235039","097-UM","2019/09/13 18:39:36","新北市中和區安樂路143巷9弄2號","121.514006666667","24.997005","6500300","中和區"
"235065","098-UM","2019/09/13 18:39:33","新北市中和區中山路二段2巷83號","121.500831666667","25.0073583333333","6500300","中和區"
"235040","150-BY","2019/09/13 18:39:44","新北市中和區安平路59號","121.50956","24.9951516666667","6500300","中和區"
"235058","151-BY","2019/09/13 18:39:35","新北市中和區員山路143巷11-4號","121.480283333333","24.9959466666667","6500300","中和區"
"235055","183-VK","2019/09/13 18:39:44","新北市中和區民生街21-6號","121.470776666667","25.0055783333333","6500300","中和區"
"235038","185-VK","2019/09/13 18:39:37","新北市中和區大勇街76號","121.518278333333","24.9947233333333","6500300","中和區"
"235049","186-VK","2019/09/13 18:39:33","新北市中和區明義街10號","121.504851666667","24.9949916666667","6500300","中和區"
"235067","255-BX","2019/09/13 18:39:38","新北市中和區中正路839巷17號","121.483988333333","25.0023083333333","6500300","中和區"
"235044","293-VK","2019/09/13 18:39:30","新北市中和區復興路280巷5號","121.50227","24.9909266666667","6500300","中和區"
"235072","301-VK","2019/09/13 18:39:40","新北市中和區中山路二段69號","121.503913333333","25.0044216666667","6500300","中和區"
"235043","352-BY","2019/09/13 18:39:42","新北市中和區景平路73-2號","121.518591666667","24.991395","6500300","中和區"
"235042","KEA-2878","2019/09/13 18:39:36","新北市中和區秀朗路三段135巷1號","121.525303333333","24.9924966666667","6500300","中和區"
"235050","4979-A6","2019/09/13 18:39:35","新北市中和區景新街496巷26號","121.51327","24.9858666666667","6500300","中和區"
"235069","4980-A6","2019/09/13 18:39:27","新北市中和區連城路65巷12號","121.498006666667","25.00073","6500300","中和區"
"235070","558-UM","2019/09/13 18:39:36","新北市中和區枋寮街4號","121.502258333333","24.99971","6500300","中和區"
"235045","565-BX","2019/09/13 18:39:33","新北市中和區南山路234號","121.506655","24.9900616666667","6500300","中和區"
"235054","640-BX","2019/09/13 18:39:34","新北市中和區自治街28號","121.47491","25.0031633333333","6500300","中和區"
"235060","647-TV","2019/09/13 18:39:41","新北市中和區中山路三段160號","121.473128333333","25.00633","6500300","中和區"
"235047","732-UM","2019/09/13 18:39:38","新北市中和區興南路二段32巷1號","121.507341666667","24.9856683333333","6500300","中和區"
"235046","733-UM","2019/09/13 18:39:29","新北市中和區仁愛街36巷46號","121.511383333333","24.9862083333333","6500300","中和區"
"235057","801-TS","2019/09/13 18:39:38","新北市中和區民利街14巷2號","121.480658333333","24.9994733333333","6500300","中和區"
"235041","802-TS","2019/09/13 18:39:34","新北市中和區中安街178巷13弄3號","121.510268333333","24.9986433333333","6500300","中和區"
"235052","805-TS","2019/09/13 18:39:30","新北市中和區興南路三段61號","121.493278333333","24.97513","6500300","中和區"
"235048","896-TW","2019/09/13 18:39:30","新北市中和區南山路252號","121.50783","24.9885316666667","6500300","中和區"
"235053","900-TW","2019/09/13 18:39:32","新北市中和區民德路256號","121.467661666667","24.9971866666667","6500300","中和區"
"235064","911-UM","2019/09/13 18:39:40","新北市中和區景平路513號","121.499121666667","24.998555","6500300","中和區"
"235051","157-BY","2019/09/13 18:39:30","新北市中和區華新街143巷11弄8號","121.506963333333","24.9812083333333","6500300","中和區"
"235037","AAC-213","2019/09/13 18:39:45","新北市中和區秀朗路三段128巷12弄1號","121.524576666667","24.99286","6500300","中和區"
"235059","AAC-215","2019/09/13 18:39:45","新北市中和區錦和路354巷5號","121.49024","24.9915233333333","6500300","中和區"
"220065","072-UY","2019/09/13 18:39:43","新北市板橋區成都街101號","121.46347","25.005385","6500100","板橋區"
"220086","073-UY","2019/09/13 18:39:36","新北市板橋區大觀路二段266號","121.449091666667","24.9964216666667","6500100","板橋區"
"220069","AAD-861","2019/09/13 18:39:40","新北市板橋區南雅南路一段1巷42號","121.45759","25.00641","6500100","板橋區"
"220068","120-SR","2019/09/13 18:39:29","新北市板橋區民生路二段120號","121.470481666667","25.0195816666667","6500100","板橋區"
"226004","312-R5","2019/09/13 18:39:40","新北市平溪區石底里公園街18-3號","121.733511666667","25.0256366666667","6502400","平溪區"
"228003","097-TW","2019/09/13 18:39:28","新北市貢寮區和美里龍洞街41號","121.912631666667","25.1132316666667","6502600","貢寮區"
"228002","663-BX","2019/09/13 18:39:27","新北市貢寮區福連里香蘭街2-1號","121.968281666667","25.02347","6502600","貢寮區"
"228001","670-TC","2019/09/13 18:39:43","新北市貢寮區仁理村仁和路106巷2號","121.92464","25.05079","6502600","貢寮區"
"224006","676-BX","2019/09/13 18:39:37","新北市瑞芳區明燈路三段97號","121.804185","25.108545","6501200","瑞芳區"
"224002","639-TC","2019/09/13 18:39:30","新北市瑞芳區三爪子坑路69巷34號","121.812483333333","25.1063066666667","6501200","瑞芳區"
"224007","285-BY","2019/09/13 18:39:36","新北市瑞芳區大埔路115巷26號","121.762991666667","25.10164","6501200","瑞芳區"
"224009","275-VK","2019/09/13 18:39:38","新北市瑞芳區祈堂路105號","121.859058333333","25.1094083333333","6501200","瑞芳區"
"224008","273-VK","2019/09/13 18:39:30","新北市瑞芳區岳王路37號","121.807945","25.1113083333333","6501200","瑞芳區"
"224005","271-BY","2019/09/13 18:39:30","新北市瑞芳區建基路二段83號","121.806146666667","25.1337766666667","6501200","瑞芳區"
"227001","642-TC","2019/09/13 18:39:43","新北市雙溪區牡丹里牡丹156號","121.8507","25.05848","6502500","雙溪區"
"227002","400-TW","2019/09/13 18:39:34","新北市雙溪區魚行里坤溪3-5號","121.876141666667","25.0209083333333","6502500","雙溪區"
"253005","032-BX","2019/09/13 18:39:32","新北市石門區石門街38號","121.566421666667","25.2903033333333","6502200","石門區"
"253006","295-VK","2019/09/13 18:39:31","新北市石門區楓林28-1號","121.541815","25.2893083333333","6502200","石門區"
"222001","KEA-2212","2019/09/13 18:39:28","新北市深坑區北深路一段80號","121.636375","25.0106383333333","6501800","深坑區"
"208002","KEA-2872","2019/09/13 18:39:32","新北市金山區忠孝一路15巷11號","121.638426666667","25.2184133333333","6502700","金山區"
"208003","665-BX","2019/09/13 18:39:37","新北市金山區中山路342號","121.633471666667","25.22531","6502700","金山區"
"251004","009-UM","2019/09/13 18:39:35","新北市淡水區大同路107巷10號","121.463101666667","25.1410266666667","6501000","淡水區"
"251008","181-VK","2019/09/13 18:39:38","新北市淡水區北投子17-1號","121.453793333333","25.1832616666667","6501000","淡水區"
"251010","413-VK","2019/09/13 18:39:35","新北市淡水區沙崙路124號","121.423351666667","25.182805","6501000","淡水區"
"251012","441-VK","2019/09/13 18:39:42","新北市淡水區北新路121號","121.448958333333","25.1786916666667","6501000","淡水區"
"251001","559-UM","2019/09/13 18:39:43","新北市淡水區自強路166號","121.46556","25.1340066666667","6501000","淡水區"
"251006","561-UM","2019/09/13 18:39:26","新北市淡水區崁頂36號","121.438898333333","25.19464","6501000","淡水區"
"251011","650-BX","2019/09/13 18:39:40","新北市淡水區學府路36號","121.448078333333","25.16859","6501000","淡水區"
"251002","672-BX","2019/09/13 18:39:44","新北市淡水區中正東路一段3巷14弄1號","121.450941666667","25.1641416666667","6501000","淡水區"
"251003","766-UM","2019/09/13 18:39:33","新北市淡水區北新路69巷26號","121.446676666667","25.1801266666667","6501000","淡水區"
"207003","550-UM","2019/09/13 18:39:45","新北市萬里區野柳里港東路72-1號","121.687973333333","25.20481","6502800","萬里區"
"207004","291-VK","2019/09/13 18:39:44","新北市萬里區萬里里獅頭路10-1號","121.692008333333","25.1786733333333","6502800","萬里區"
"252002","178-VK","2019/09/13 18:39:48","新北市三芝區民生街64巷14號","121.503741666667","25.2550083333333","6502100","三芝區"
"252003","249-BX","2019/09/13 18:39:44","新北市三芝區後厝里土地公坑54-18號","121.465008333333","25.249245","6502100","三芝區"
"252001","292-VK","2019/09/13 18:39:28","新北市三芝區中興街二段260號","121.5018","25.2529933333333","6502100","三芝區"
"208001","170-UY","2019/09/13 18:39:36","新北市金山區文化三路42-6號","121.635068333333","25.22512","6502700","金山區"
"237004","KEA-2597","2019/09/13 18:39:27","新北市三峽區插角96號","121.407393333333","24.870455","6500900","三峽區"
"237007","153-BY","2019/09/13 18:39:41","新北市三峽區中正路三段178-1號","121.351666666667","24.9033966666667","6500900","三峽區"
"237009","210-TH","2019/09/13 18:39:46","新北市三峽區弘園街26號","121.36639","24.927275","6500900","三峽區"
"237013","252-BX","2019/09/13 18:39:45","新北市三峽區光明路69巷25號","121.376675","24.929195","6500900","三峽區"
"237012","275-BY","2019/09/13 18:39:25","新北市三峽區三樹路340號","121.383975","24.9433483333333","6500900","三峽區"
"237008","302-VK","2019/09/13 18:39:31","新北市三峽區白雞33-60號","121.370918333333","24.913135","6500900","三峽區"
"237014","433-BY","2019/09/13 18:39:33","新北市三峽區復興路480巷30號","121.359436666667","24.939735","6500900","三峽區"
"237006","5529-G3","2019/09/13 18:39:38","新北市三峽區溪東路315巷26號","121.410953333333","24.9309866666667","6500900","三峽區"
"237011","KEA-2596","2019/09/13 18:39:42","新北市三峽區成福路3號","121.416655","24.9280533333333","6500900","三峽區"
"237015","649-BX","2019/09/13 18:39:30","新北市三峽區成福路313號","121.429385","24.9236216666667","6500900","三峽區"
"237010","706-TV","2019/09/13 18:39:31","新北市三峽區復興路485號","121.361358333333","24.9384383333333","6500900","三峽區"
"237005","AKY-6261","2019/09/13 18:39:27","新北市三峽區復興路17號","121.374191666667","24.93617","6500900","三峽區"
"236042","KED-0685","2019/09/13 18:39:39","新北市土城區裕民路56號","121.44887","24.98789","6501300","土城區"
"236030","253-BX","2019/09/13 18:39:46","新北市土城區中華路二段185號","121.438598333333","24.9746116666667","6501300","土城區"
"236026","269-VK","2019/09/13 18:39:43","新北市土城區忠義路53-2號","121.440748333333","24.9685116666667","6501300","土城區"
"236014","270-VK","2019/09/13 18:39:37","新北市土城區清水路207巷19號","121.459875","24.982415","6501300","土城區"
"236039","271-VK","2019/09/13 18:39:29","新北市土城區明德路一段232號","121.460448333333","24.9773666666667","6501300","土城區"
"236069","KEA-2877","2019/09/13 18:39:30","新北市土城區永豐路157巷29弄6-1號","121.468273333333","24.98149","6501300","土城區"
"236020","752-BX","2019/09/13 18:39:00","新北市土城區延吉街206號","121.467576666667","24.985005","6501300","土城區"
"236059","912-UM","2019/09/13 18:39:40","新北市土城區中央路三段121號","121.43394","24.9654733333333","6501300","土城區"
"236048","913-UM","2019/09/13 18:39:26","新北市土城區金城路二段356號","121.461215","24.98509","6501300","土城區"
"236063","915-UM","2019/09/13 18:39:36","新北市土城區延壽路13巷36號","121.47007","24.99138","6501300","土城區"
"236055","AAC-216","2019/09/13 18:39:42","新北市土城區裕民路45-1號","121.448515","24.9881633333333","6501300","土城區"
"242058","612-BX","2019/09/13 18:39:36","新北市泰山區新北大道六段381號","121.421898333333","25.0325433333333","6500500","新莊區"
"242009","349-TH","2019/09/13 18:39:38","新北市板橋區金門街109巷24-7號","121.435068333333","24.991645","6500500","新莊區"
"238023","601-UM","2019/09/13 18:39:37","新北市樹林區三福街114號","121.406486666667","25.0162583333333","6500700","樹林區"
"238024","5061-A6","2019/09/13 18:39:28","新北市樹林區中山路一段151號","121.422086666667","24.9891433333333","6500700","樹林區"
"238018","KEA-2217","2019/09/13 18:39:37","新北市樹林區鎮前街21號","121.425846666667","24.9925166666667","6500700","樹林區"
"238022","KEA-2213","2019/09/13 18:39:27","新北市樹林區中華路393號","121.41133","24.9804566666667","6500700","樹林區"
"238017","283-BY","2019/09/13 18:39:34","新北市樹林區光興街50號","121.40984","25.0027533333333","6500700","樹林區"
"238014","282-BY","2019/09/13 18:39:28","新北市樹林區大安路111巷41號","121.423281666667","24.9975383333333","6500700","樹林區"
"238020","268-VK","2019/09/13 18:39:41","新北市樹林區俊安街33號","121.420356666667","25.0133133333333","6500700","樹林區"
"238026","172-UY","2019/09/13 18:39:30","新北市樹林區育德街78-1號","121.387518333333","24.9680916666667","6500700","樹林區"
"239007","AAC-297","2019/09/13 18:39:32","新北市鶯歌區中正一路建德巷38號","121.364515","24.957785","6500800","鶯歌區"
"239006","891-R6","2019/09/13 18:39:33","新北市鶯歌區鶯桃路296巷48-2號","121.335923333333","24.96125","6500800","鶯歌區"
"239008","527-UM","2019/09/13 18:39:42","新北市鶯歌區朝陽街4號","121.336258333333","24.9766083333333","6500800","鶯歌區"
"239005","526-UM","2019/09/13 18:39:46","新北市鶯歌區鳳吉一街157號","121.328851666667","24.9751966666667","6500800","鶯歌區"
"239001","417-VK","2019/09/13 18:39:31","新北市鶯歌區國中街178號","121.338235","24.93921","6500800","鶯歌區"
"239003","360-BY","2019/09/13 18:39:36","新北市鶯歌區福安街24號","121.334323333333","24.9641083333333","6500800","鶯歌區"
"239002","359-BY","2019/09/13 18:39:37","新北市鶯歌區中正一路462號","121.364745","24.956455","6500800","鶯歌區"
"239004","193-VK","2019/09/13 18:39:40","新北市鶯歌區國中街118號","121.339716666667","24.940095","6500800","鶯歌區"
"221036","130-UY","2019/09/13 18:39:36","新北市汐止區長興街一段20號","121.669723333333","25.079095","6501100","汐止區"
"221015","131-UY","2019/09/13 18:39:38","新北市汐止區鄉長路二段23巷1號","121.66711","25.0826","6501100","汐止區"
"244019","KED-0667","2019/09/13 18:39:38","新北市林口區麗園二街87號","121.382668333333","25.0668683333333","6501700","林口區"
"221010","269-BY","2019/09/13 18:39:31","新北市汐止區瑞松街32號","121.645573333333","25.105845","6501100","汐止區"
"221012","278-VK","2019/09/13 18:39:40","新北市汐止區保長路51巷5號","121.673505","25.0788933333333","6501100","汐止區"
"221032","280-BY","2019/09/13 18:39:33","新北市汐止區民權街二段93號","121.61899","25.0474566666667","6501100","汐止區"
"221029","298-VK","2019/09/13 18:39:41","新北市汐止區樟樹一路133巷1號","121.642125","25.065125","6501100","汐止區"
"221021","299-VK","2019/09/13 18:39:35","新北市汐止區復興路53巷2號","121.656876666667","25.062645","6501100","汐止區"
"221031","353-TW","2019/09/13 18:39:42","新北市汐止區新台五路一段35號","121.636208333333","25.0559583333333","6501100","汐止區"
"221035","622-UM","2019/09/13 18:39:47","新北市汐止區大同路二段175號","121.651365","25.0640883333333","6501100","汐止區"
"221025","623-UM","2019/09/13 18:39:44","新北市汐止區仁愛路121巷13號","121.66261","25.0643133333333","6501100","汐止區"
"221002","707-TV","2019/09/13 18:39:38","新北市汐止區大同路一段296號","121.635383333333","25.057965","6501100","汐止區"
"221018","753-BX","2019/09/13 18:38:11","新北市汐止區茄苳路224巷3弄3號","121.670848333333","25.0683183333333","6501100","汐止區"
"220079","145-BY","2019/09/13 18:39:33","新北市板橋區大觀路二段111號","121.446168333333","25.0015983333333","6500100","板橋區"
"220080","200-UY","2019/09/13 18:39:45","新北市板橋區大觀路二段265巷7-7號","121.44414","24.9945933333333","6500100","板橋區"
"220082","610-BX","2019/09/13 18:39:40","新北市板橋區大觀路三段59巷17弄6-1號","121.437465","24.9953583333333","6500100","板橋區"
"220056","276-BY","2019/09/13 18:39:27","新北市板橋區四川路一段55號","121.459626666667","25.00625","6500100","板橋區"
"220072","277-BY","2019/09/13 18:39:44","新北市板橋區大觀路三段59巷17弄6-1號","121.435695","24.99555","6500100","板橋區"
"220083","286-VK","2019/09/13 18:39:38","新北市板橋區板城路407號","121.447441666667","24.9951283333333","6500100","板橋區"
"220081","287-VK","2019/09/13 18:39:31","新北市板橋區板城路421號","121.448031666667","24.9964116666667","6500100","板橋區"
"220061","293-UM","2019/09/13 18:39:28","新北市板橋區民生路二段120號","121.470333333333","25.0197683333333","6500100","板橋區"
"220062","295-UM","2019/09/13 18:39:31","新北市板橋區民生路二段120號","121.470353333333","25.0197666666667","6500100","板橋區"
"220084","296-UM","2019/09/13 18:39:44","新北市板橋區大觀路二段136號","121.443003333333","24.99912","6500100","板橋區"
"220067","299-UM","2019/09/13 18:39:32","新北市板橋區民生路二段89-6號","121.4706","25.0188416666667","6500100","板橋區"
"242046","281-VK","2019/09/13 18:39:39","新北市樹林區中正路280-1號","121.415793333333","25.0094866666667","6500500","新莊區"
"220075","303-R5","2019/09/13 18:39:45","新北市板橋區南雅南路二段144巷60號","121.450258333333","24.9974083333333","6500100","板橋區"
"220092","307-R5","2019/09/13 18:39:25","新北市板橋區民生路二段89-4號","121.471586666667","25.0182683333333","6500100","板橋區"
"220098","317-R6","2019/09/13 18:39:35","新北市板橋區民生路二段161巷9號","121.470313333333","25.0196133333333","6500100","板橋區"
"220089","487-VK","2019/09/13 18:39:31","新北市板橋區民生路二段188號","121.469968333333","25.020335","6500100","板橋區"
"220088","491-VK","2019/09/13 18:39:45","新北市板橋區民生路二段188號","121.470183333333","25.0202433333333","6500100","板橋區"
"220035","560-BX","2019/09/13 18:39:32","新北市板橋區南雅西路二段145巷10號","121.451596666667","25.0118916666667","6500100","板橋區"
"220103","561-BX","2019/09/13 18:39:31","新北市板橋區民生路二段89-4號","121.471488333333","25.0180433333333","6500100","板橋區"
"220071","568-UM","2019/09/13 18:39:47","新北市板橋區四川路二段63號","121.453435","24.9950933333333","6500100","板橋區"
"220063","609-BX","2019/09/13 18:39:27","新北市板橋區民生路二段171號","121.469813333333","25.020065","6500100","板橋區"
"220057","686-BX","2019/09/13 18:39:39","新北市板橋區館前西路4-1號","121.459153333333","25.0071866666667","6500100","板橋區"
"220077","687-BX","2019/09/13 18:39:37","新北市板橋區板城路421號","121.44797","24.99639","6500100","板橋區"
"220054","741-BX","2019/09/13 18:39:34","新北市板橋區大觀路二段266號","121.449373333333","24.9966383333333","6500100","板橋區"
"220102","KEA-2699","2019/09/13 18:39:34","新北市板橋區民生路二段161巷1號","121.470288333333","25.02003","6500100","板橋區"
"220055","827-TW","2019/09/13 18:39:42","新北市板橋區忠孝路33-1號","121.46083","25.0020116666667","6500100","板橋區"
"220021","833-TW","2019/09/13 18:34:49","新北市板橋區華東街1-10號","121.448608333333","24.99479","6500100","板橋區"
"220074","895-R6","2019/09/13 18:39:29","新北市板橋區南雅南路一段112號","121.454901666667","25.0040466666667","6500100","板橋區"
"220073","985-R7","2019/09/13 18:39:43","新北市土城區四川路22號","121.454715","24.9962966666667","6500100","板橋區"
"220097","AAC-210","2019/09/13 18:39:37","新北市板橋區民生路二段161巷9號","121.47026","25.0196","6500100","板橋區"
"220064","AAC-253","2019/09/13 18:39:45","新北市板橋區民生路二段36-1號","121.472033333333","25.016885","6500100","板橋區"
"235068","KEA-2873","2019/09/13 18:39:39","新北市中和區中正路215號","121.496645","24.993735","6500300","中和區"
"235061","KEA-2875","2019/09/13 18:39:43","新北市中和區民享街54巷16弄2號","121.473178333333","25.0025116666667","6500300","中和區"
"235062","KEA-2876","2019/09/13 18:39:32","新北市中和區中山路二段278號","121.496458333333","25.0024533333333","6500300","中和區"
