"lineid","car","time","location","longitude","latitude","cityid","cityname"
"234046","148-BY","2019/09/13 18:49:46","新北市永和區秀朗路二段151號","121.524883333333","25.0016316666667","6500400","永和區"
"234081","298-R6","2019/09/13 18:49:45","新北市永和區國中路100號","121.524285","25.006275","6500400","永和區"
"234038","336-UY","2019/09/13 18:49:35","新北市中和區秀朗路三段38號","121.526513333333","24.995905","6500400","永和區"
"234064","337-UY","2019/09/13 18:49:43","新北市永和區福和路1號","121.526526666667","25.0099033333333","6500400","永和區"
"234086","338-UY","2019/09/13 18:49:32","新北市永和區中正路75號","121.515041666667","24.9968233333333","6500400","永和區"
"234017","745-BX","2019/09/13 18:49:32","新北市永和區永和路二段297號","121.515995","25.0160433333333","6500400","永和區"
"234030","746-BX","2019/09/13 18:49:37","新北市永和區得和路351號","121.524155","24.9995333333333","6500400","永和區"
"234054","KEA-2590","2019/09/13 18:49:28","新北市永和區福和路1號","121.525971666667","25.0095516666667","6500400","永和區"
"234007","KED-0605","2019/09/13 18:49:43","新北市永和區文化路108號","121.513458333333","25.0152333333333","6500400","永和區"
"234013","KEA-2591","2019/09/13 18:49:30","新北市永和區保福路二段133巷20號","121.5092","25.0137066666667","6500400","永和區"
"234061","AAD-866","2019/09/13 18:49:45","新北市永和區福和路309巷1號","121.516375","25.0070466666667","6500400","永和區"
"234042","862-TW","2019/09/13 18:49:27","新北市永和區永貞路306號","121.511896666667","25.00484","6500400","永和區"
"234050","863-TW","2019/09/13 18:49:46","新北市永和區福和路1號","121.526495","25.01009","6500400","永和區"
"234026","9371-KE","2019/09/13 18:49:40","新北市永和區自由街58號","121.513746666667","25.005915","6500400","永和區"
"234011","9373-KE","2019/09/13 18:49:40","新北市永和區文化路126巷8號","121.513135","25.0157983333333","6500400","永和區"
"249005","172-UM","2019/09/13 18:49:29","新北市八里區長道坑16號","121.395478333333","25.1184833333333","6502300","八里區"
"249001","173-UM","2019/09/13 18:49:36","新北市八里區龍米路二段91號","121.447728333333","25.1420833333333","6502300","八里區"
"248016","026-BX","2019/09/13 18:49:35","新北市五股區成泰路三段543巷52號","121.450038333333","25.102855","6501500","五股區"
"248006","077-UY","2019/09/13 18:49:32","新北市五股區中興路一段40號","121.468248333333","25.0725383333333","6501500","五股區"
"248008","KED-0815","2019/09/13 18:49:29","新北市五股區中興路一段151巷84號","121.465111666667","25.0716583333333","6501500","五股區"
"248018","KED-0813","2019/09/13 18:49:37","新北市五股區民義路二段22巷35-1號","121.424206666667","25.1006183333333","6501500","五股區"
"248012","247-BX","2019/09/13 18:49:44","新北市五股區成泰路二段147巷34-1號","121.437125","25.0884516666667","6501500","五股區"
"248010","272-BY","2019/09/13 18:49:35","新北市五股區水碓五路81號","121.429968333333","25.0719333333333","6501500","五股區"
"248004","677-BX","2019/09/13 18:49:29","新北市五股區民義路二段73號","121.409011666667","25.1056283333333","6501500","五股區"
"248002","678-BX","2019/09/13 18:49:48","新北市五股區成泰路三段454號","121.451423333333","25.1003483333333","6501500","五股區"
"234023","9380-KE","2019/09/13 18:49:32","新北市永和區竹林路119巷53弄1號","121.522171666667","25.011895","6500400","永和區"
"234077","969-R7","2019/09/13 18:49:44","新北市永和區中正路42巷12號","121.513421666667","24.9941183333333","6500400","永和區"
"234067","AAC-212","2019/09/13 18:49:32","新北市永和區永和路一段22號","121.512981666667","25.0048","6500400","永和區"
"234003","AAC-295","2019/09/13 18:49:28","新北市永和區中正路659號","121.514711666667","25.010275","6500400","永和區"
"232011","375-UM","2019/09/13 18:49:43","新北市坪林區坪林街53號","121.711478333333","24.937345","6502000","坪林區"
"244007","080-UY","2019/09/13 18:49:26","新北市林口區中湖62號","121.384756666667","25.100805","6501700","林口區"
"244013","KEA-2802","2019/09/13 18:49:47","新北市林口區麗園二街23巷15-9號","121.379176666667","25.0703483333333","6501700","林口區"
"244023","483-VK","2019/09/13 18:49:31","新北市林口區文化三路二段211巷79號","121.374936666667","25.0838833333333","6501700","林口區"
"244017","485-VK","2019/09/13 18:49:35","新北市林口區文化二路一段68巷33號","121.367033333333","25.069","6501700","林口區"
"244009","656-BX","2019/09/13 18:49:36","新北市林口區台電新村18號","121.386723333333","25.0861966666667","6501700","林口區"
"244011","701-TV","2019/09/13 18:49:41","新北市林口區粉寮路一段41號","121.3966","25.0772866666667","6501700","林口區"
"244025","837-TS","2019/09/13 18:49:39","新北市林口區忠孝一路148號","121.360058333333","25.0738166666667","6501700","林口區"
"244021","838-TS","2019/09/13 18:49:41","新北市林口區工六路38號","121.398681666667","25.0784933333333","6501700","林口區"
"243010","297-R6","2019/09/13 18:49:39","新北市泰山區辭修路48號","121.428556666667","25.0571566666667","6501600","泰山區"
"243014","KEA-2801","2019/09/13 18:49:33","新北市泰山區犁頭窠3-1號","121.422185","25.0604716666667","6501600","泰山區"
"243015","680-BX","2019/09/13 18:49:39","新北市泰山區美寧街48號","121.430575","25.0643516666667","6501600","泰山區"
"222003","436-BY","2019/09/13 18:49:35","新北市深坑區北深路二段2巷13弄2號","121.62237","25.0069083333333","6501800","深坑區"
"222002","659-BX","2019/09/13 18:49:35","新北市深坑區文山路一段69號","121.626976666667","25.001905","6501800","深坑區"
"231061","002-UM","2019/09/13 18:49:38","新北市新店區安華路28-1號","121.519788333333","24.9607816666667","6500600","新店區"
"231044","046-UY","2019/09/13 18:49:45","新北市新店區北新路一段303號","121.541371666667","24.9673366666667","6500600","新店區"
"231060","106-UY","2019/09/13 18:49:47","新北市新店區安華路28-1號","121.519561666667","24.960735","6500600","新店區"
"231049","108-UY","2019/09/13 18:49:45","新北市新店區環河路118號","121.536721666667","24.9679583333333","6500600","新店區"
"231065","110-UY","2019/09/13 18:49:42","新北市新店區建業路15號","121.483403333333","24.951715","6500600","新店區"
"231053","192-VK","2019/09/13 18:49:30","新北市新店區長興路35號","121.547633333333","24.939125","6500600","新店區"
"231062","256-BX","2019/09/13 18:49:34","新北市新店區安一路一段1-1號","121.519676666667","24.9611433333333","6500600","新店區"
"231054","260-TV","2019/09/13 18:49:44","新北市新店區安一路一段1-1號","121.519325","24.961045","6500600","新店區"
"231042","268-BY","2019/09/13 18:49:29","新北市新店區中正路35號","121.545016666667","24.9697083333333","6500600","新店區"
"231064","278-BY","2019/09/13 18:49:30","新北市新店區安一路一段1-1號","121.519808333333","24.961075","6500600","新店區"
"231050","AAD-862","2019/09/13 18:49:31","新北市新店區北新路一段23號","121.537931666667","24.9591233333333","6500600","新店區"
"231045","355-BY","2019/09/13 18:49:37","新北市新店區安華路28-1號","121.519203333333","24.9608283333333","6500600","新店區"
"231058","3713-VJ","2019/09/13 18:49:28","新北市新店區北宜路一段105巷4弄5號","121.540105","24.955495","6500600","新店區"
"231055","4716-K9","2019/09/13 18:49:40","新北市新店區新生街55號","121.538823333333","24.96694","6500600","新店區"
"231056","4715-K9","2019/09/13 18:49:43","新北市新店區大同街8巷9號","121.53935","24.98048","6500600","新店區"
"231063","641-BX","2019/09/13 18:49:38","新北市新店區安華路1-1號","121.519456666667","24.960525","6500600","新店區"
"231048","KED-0819","2019/09/13 18:49:38","新北市新店區環河路1-5號","121.538263333333","24.9616366666667","6500600","新店區"
"231051","718-UY","2019/09/13 18:49:31","新北市新店區中央路75號","121.532488333333","24.9767016666667","6500600","新店區"
"231046","719-UM","2019/09/13 18:49:43","新北市新店區直潭路71號","121.532431666667","24.942225","6500600","新店區"
"231057","720-UM","2019/09/13 18:49:32","新北市新店區新烏路一段215號","121.548686666667","24.93167","6500600","新店區"
"231059","897-TW","2019/09/13 18:49:35","新北市新店區安一路一段1-1號","121.519708333333","24.96107","6500600","新店區"
"231040","898-TW","2019/09/13 18:49:38","新北市新店區安康路一段50-1號","121.529716666667","24.961295","6500600","新店區"
"231043","899-TW","2019/09/13 18:49:45","新北市新店區安康路一段355-10號","121.520381666667","24.9637833333333","6500600","新店區"
"231066","AKT-0513","2019/09/13 18:49:27","新北市新店區安華路28-1號","121.519556666667","24.960525","6500600","新店區"
"235066","003-UY","2019/09/13 18:49:46","新北市中和區中山路二段131巷23號","121.503558333333","25.00253","6500300","中和區"
"235063","006-UY","2019/09/13 18:49:42","新北市中和區中正路546號","121.48723","24.994395","6500300","中和區"
"235056","096-UM","2019/09/13 18:49:46","新北市中和區員山路466巷17弄31號","121.480456666667","25.007425","6500300","中和區"
"235039","097-UM","2019/09/13 18:49:48","新北市中和區安樂路217巷24號","121.51376","24.9984933333333","6500300","中和區"
"235065","098-UM","2019/09/13 18:49:33","新北市中和區莊敬路33巷7號","121.500058333333","25.0065683333333","6500300","中和區"
"235040","150-BY","2019/09/13 18:49:44","新北市中和區安平路36巷55號","121.51052","24.99468","6500300","中和區"
"235058","151-BY","2019/09/13 18:49:35","新北市中和區連城路631-2號","121.475861666667","24.9914333333333","6500300","中和區"
"235055","183-VK","2019/09/13 18:49:44","新北市中和區民德路10號","121.468796666667","25.0028166666667","6500300","中和區"
"235038","185-VK","2019/09/13 18:49:38","新北市中和區大勇街52號","121.517601666667","24.9943333333333","6500300","中和區"
"235049","186-VK","2019/09/13 18:49:33","新北市中和區景安路177巷31號","121.506776666667","24.99456","6500300","中和區"
"235067","255-BX","2019/09/13 18:49:38","新北市中和區新生街176巷22號","121.48258","24.999905","6500300","中和區"
"235044","293-VK","2019/09/13 18:49:29","新北市中和區中興街167號","121.499906666667","24.9906133333333","6500300","中和區"
"235072","301-VK","2019/09/13 18:49:40","新北市中和區中山路二段187號","121.500295","25.002765","6500300","中和區"
"235043","352-BY","2019/09/13 18:49:41","新北市中和區秀朗路三段72號","121.526315","24.9944716666667","6500300","中和區"
"235042","KEA-2878","2019/09/13 18:49:36","新北市中和區秀朗路三段70巷32號","121.525695","24.994475","6500300","中和區"
"235050","4979-A6","2019/09/13 18:49:35","新北市中和區忠孝街62巷9弄1號","121.513091666667","24.9839166666667","6500300","中和區"
"235069","4980-A6","2019/09/13 18:49:47","新北市中和區南山路52巷32號","121.501026666667","24.9972633333333","6500300","中和區"
"235070","558-UM","2019/09/13 18:49:36","新北市中和區景安路77號","121.506401666667","24.9971666666667","6500300","中和區"
"235045","565-BX","2019/09/13 18:49:33","新北市中和區景新街400號","121.512538333333","24.989525","6500300","中和區"
"235054","640-BX","2019/09/13 18:49:34","新北市中和區民享街86巷3號","121.47431","25.000875","6500300","中和區"
"235060","647-TV","2019/09/13 18:49:41","新北市中和區民治街19巷2號","121.475293333333","25.002585","6500300","中和區"
"235047","732-UM","2019/09/13 18:49:38","新北市中和區興南路二段34巷26弄2號","121.505391666667","24.9864216666667","6500300","中和區"
"235046","733-UM","2019/09/13 18:49:29","新北市中和區興南路一段146號","121.508405","24.9870366666667","6500300","中和區"
"235057","801-TS","2019/09/13 18:49:38","新北市中和區民利街91號","121.477995","24.99798","6500300","中和區"
"235041","802-TS","2019/09/13 18:49:34","新北市中和區安平路145巷16號","121.511463333333","24.9984116666667","6500300","中和區"
"235052","805-TS","2019/09/13 18:49:30","新北市中和區興南路二段399巷98-2號","121.500241666667","24.97772","6500300","中和區"
"235048","896-TW","2019/09/13 18:49:30","新北市中和區華新街47號","121.507838333333","24.9845283333333","6500300","中和區"
"235053","900-TW","2019/09/13 18:49:32","新北市中和區民德路302號","121.467431666667","24.9953066666667","6500300","中和區"
"235064","911-UM","2019/09/13 18:49:40","新北市中和區泰和街30巷25號","121.498875","25.0012666666667","6500300","中和區"
"235051","157-BY","2019/09/13 18:49:30","新北市中和區忠孝街106巷25號","121.513115","24.9843866666667","6500300","中和區"
"235037","AAC-213","2019/09/13 18:49:45","新北市永和區民生路83號","121.522675","24.996785","6500300","中和區"
"235059","AAC-215","2019/09/13 18:49:45","新北市中和區圓通路393巷20號","121.489925","24.9885433333333","6500300","中和區"
"220065","072-UY","2019/09/13 18:49:43","新北市板橋區民族路166號","121.464818333333","25.0084116666667","6500100","板橋區"
"220086","073-UY","2019/09/13 18:49:36","新北市板橋區南雅西路二段145巷3號","121.45166","25.01157","6500100","板橋區"
"220106","075-UY","2019/09/13 18:49:37","新北市板橋區莊敬路66號","121.471756666667","25.0253916666667","6500100","板橋區"
"220069","AAD-861","2019/09/13 18:49:40","新北市板橋區華興街81號","121.456846666667","25.0050166666667","6500100","板橋區"
"220068","120-SR","2019/09/13 18:49:29","新北市板橋區大同街35巷16號","121.477503333333","25.0277716666667","6500100","板橋區"
"226004","312-R5","2019/09/13 18:49:40","新北市平溪區平溪里三坑路13號","121.737066666667","25.0283366666667","6502400","平溪區"
"228003","097-TW","2019/09/13 18:49:28","新北市貢寮區和美里龍洞街35號","121.915998333333","25.11165","6502600","貢寮區"
"228002","663-BX","2019/09/13 18:49:27","新北市貢寮區福隆里東興街6-11號","121.950756666667","25.0210966666667","6502600","貢寮區"
"228001","670-TC","2019/09/13 18:49:43","新北市貢寮區仁理村研海街12-1號","121.923776666667","25.0516833333333","6502600","貢寮區"
"224006","676-BX","2019/09/13 18:49:37","新北市瑞芳區中正路45號","121.807061666667","25.107235","6501200","瑞芳區"
"224002","639-TC","2019/09/13 18:49:30","新北市瑞芳區三爪子坑路25號","121.813431666667","25.1075783333333","6501200","瑞芳區"
"224007","285-BY","2019/09/13 18:49:36","新北市瑞芳區大埔路慶安新村44-1號","121.762826666667","25.100155","6501200","瑞芳區"
"224009","275-VK","2019/09/13 18:49:38","新北市瑞芳區祈堂路53-1號","121.859586666667","25.1104733333333","6501200","瑞芳區"
"224008","273-VK","2019/09/13 18:49:30","新北市瑞芳區逢甲路342號","121.80288","25.1117933333333","6501200","瑞芳區"
"224005","271-BY","2019/09/13 18:49:30","新北市瑞芳區建基新村39號","121.812311666667","25.130055","6501200","瑞芳區"
"227001","642-TC","2019/09/13 18:49:43","新北市雙溪區牡丹里下坑11號","121.851053333333","25.056185","6502500","雙溪區"
"227002","400-TW","2019/09/13 18:49:28","新北市雙溪區魚行里新店41號","121.869416666667","25.03121","6502500","雙溪區"
"253005","032-BX","2019/09/13 18:49:32","新北市石門區中山路32-3號","121.565986666667","25.2899566666667","6502200","石門區"
"253006","295-VK","2019/09/13 18:49:31","新北市石門區下員坑15-13號","121.51194","25.2845583333333","6502200","石門區"
"222001","KEA-2212","2019/09/13 18:49:28","新北市深坑區北深路一段32-1號","121.638223333333","25.0104833333333","6501800","深坑區"
"208002","KEA-2872","2019/09/13 18:49:32","新北市金山區仁愛路35-1號","121.63631","25.2192766666667","6502700","金山區"
"208003","665-BX","2019/09/13 18:49:40","新北市金山區中山路260號","121.635513333333","25.22395","6502700","金山區"
"251004","009-UM","2019/09/13 18:49:35","新北市淡水區中正東路二段143巷2弄1號","121.460798333333","25.1473733333333","6501000","淡水區"
"251010","413-VK","2019/09/13 18:49:35","新北市淡水區沙崙路11號","121.421125","25.181275","6501000","淡水區"
"251012","441-VK","2019/09/13 18:49:42","新北市淡水區中山北路一段156號","121.444088333333","25.178245","6501000","淡水區"
"251001","559-UM","2019/09/13 18:49:43","新北市淡水區自強路293號","121.462156666667","25.1291783333333","6501000","淡水區"
"251009","575-R6","2019/09/13 18:49:34","新北市淡水區中山北路一段129號","121.442935","25.1770283333333","6501000","淡水區"
"251011","650-BX","2019/09/13 18:49:30","新北市淡水區學府路32巷29號","121.44849","25.1682533333333","6501000","淡水區"
"251002","672-BX","2019/09/13 18:49:44","新北市淡水區學府路87號","121.44867","25.1702466666667","6501000","淡水區"
"251003","766-UM","2019/09/13 18:49:33","新北市淡水區中山北路一段212巷38號","121.4462","25.1790533333333","6501000","淡水區"
"207003","550-UM","2019/09/13 18:49:38","新北市萬里區野柳里港西路71號","121.685523333333","25.2048733333333","6502800","萬里區"
"207004","291-VK","2019/09/13 18:49:44","新北市萬里區萬里里獅頭路23號","121.693176666667","25.1783566666667","6502800","萬里區"
"252002","178-VK","2019/09/13 18:49:39","新北市三芝區智成街72-1號","121.504876666667","25.25591","6502100","三芝區"
"252003","249-BX","2019/09/13 18:49:44","新北市三芝區後厝里大片頭108號","121.458495","25.242825","6502100","三芝區"
"252001","292-VK","2019/09/13 18:49:28","新北市三芝區中正路三段9號","121.502895","25.2538983333333","6502100","三芝區"
"208001","170-UY","2019/09/13 18:49:36","新北市金山區文化三路66巷1號","121.634203333333","25.225605","6502700","金山區"
"237004","KEA-2597","2019/09/13 18:49:47","新北市三峽區有木130-1號","121.435515","24.8571533333333","6500900","三峽區"
"237007","153-BY","2019/09/13 18:49:41","新北市三峽區柑樹路2巷13號","121.362006666667","24.9050316666667","6500900","三峽區"
"237013","252-BX","2019/09/13 18:49:44","新北市三峽區光明路69巷25號","121.376586666667","24.9291466666667","6500900","三峽區"
"237012","275-BY","2019/09/13 18:49:45","新北市三峽區三樹路340號","121.38395","24.9433383333333","6500900","三峽區"
"237008","302-VK","2019/09/13 18:49:31","新北市三峽區中正路一段415號","121.37019","24.92048","6500900","三峽區"
"237014","433-BY","2019/09/13 18:49:33","新北市三峽區隆恩街158巷68號","121.365413333333","24.9448433333333","6500900","三峽區"
"237006","5529-G3","2019/09/13 18:49:38","新北市三峽區溪東路233巷4弄17號","121.407228333333","24.9337633333333","6500900","三峽區"
"237011","KEA-2596","2019/09/13 18:49:29","新北市三峽區溪東路209號","121.404608333333","24.9334266666667","6500900","三峽區"
"237015","649-BX","2019/09/13 18:49:30","新北市三峽區建安112-1號","121.45901","24.921775","6500900","三峽區"
"237010","706-TV","2019/09/13 18:49:44","新北市三峽區復興路485號","121.3614","24.9384583333333","6500900","三峽區"
"237005","AKY-6261","2019/09/13 18:49:47","新北市三峽區中山路321-2號","121.360798333333","24.937975","6500900","三峽區"
"236042","KED-0685","2019/09/13 18:49:35","新北市土城區裕民路136巷2弄1號","121.451298333333","24.98593","6501300","土城區"
"236030","253-BX","2019/09/13 18:49:38","新北市土城區忠義路26巷10號","121.43987","24.9699433333333","6501300","土城區"
"236026","269-VK","2019/09/13 18:49:42","新北市土城區興城路48號","121.441363333333","24.9726283333333","6501300","土城區"
"236014","270-VK","2019/09/13 18:49:37","新北市土城區金城路二段354巷4號","121.46082","24.9846033333333","6501300","土城區"
"236039","271-VK","2019/09/13 18:49:44","新北市土城區仁愛路48-11號","121.462175","24.9788633333333","6501300","土城區"
"236069","KEA-2877","2019/09/13 18:49:30","新北市土城區永豐路157巷29弄6-1號","121.468268333333","24.9814866666667","6501300","土城區"
"236020","752-BX","2019/09/13 18:49:40","新北市土城區延安街2號","121.467188333333","24.9861433333333","6501300","土城區"
"236059","912-UM","2019/09/13 18:49:40","新北市土城區明德路一段385-1號","121.452815","24.9801983333333","6501300","土城區"
"236048","913-UM","2019/09/13 18:49:40","新北市土城區青雲路99號","121.459253333333","24.9856816666667","6501300","土城區"
"236063","915-UM","2019/09/13 18:49:36","新北市土城區延和路252號","121.469941666667","24.9895366666667","6501300","土城區"
"236055","AAC-216","2019/09/13 18:49:42","新北市土城區裕民路94號","121.450441666667","24.986995","6501300","土城區"
"242009","349-TH","2019/09/13 18:49:38","新北市樹林區中山路三段210-2號","121.38221","24.965975","6500500","新莊區"
"238023","601-UM","2019/09/13 18:49:37","新北市樹林區工興街14巷1號","121.398925","25.013605","6500700","樹林區"
"238024","5061-A6","2019/09/13 18:49:48","新北市樹林區太順街49巷18號","121.418136666667","24.9785283333333","6500700","樹林區"
"238022","KEA-2213","2019/09/13 18:49:47","新北市樹林區中華路190號","121.411926666667","24.9804233333333","6500700","樹林區"
"238021","KEA-2539","2019/09/13 18:49:37","新北市樹林區西圳街二段59號","121.387316666667","24.9600683333333","6500700","樹林區"
"238017","283-BY","2019/09/13 18:49:34","新北市樹林區光興街50號","121.409848333333","25.0027466666667","6500700","樹林區"
"238014","282-BY","2019/09/13 18:49:28","新北市樹林區大安路111巷43號","121.423378333333","24.9975266666667","6500700","樹林區"
"238020","268-VK","2019/09/13 18:49:41","新北市樹林區俊英街223巷2號","121.423715","25.0132766666667","6500700","樹林區"
"238026","172-UY","2019/09/13 18:49:30","新北市樹林區信和街90號","121.388685","24.9734066666667","6500700","樹林區"
"239007","AAC-297","2019/09/13 18:49:32","新北市鶯歌區中正一路460號","121.364456666667","24.95661","6500800","鶯歌區"
"239006","891-R6","2019/09/13 18:49:33","新北市鶯歌區鶯桃路296巷57號","121.33597","24.9612766666667","6500800","鶯歌區"
"239008","527-UM","2019/09/13 18:49:42","新北市鶯歌區朝陽街4號","121.336251666667","24.976605","6500800","鶯歌區"
"239005","526-UM","2019/09/13 18:49:46","新北市鶯歌區鳳吉一街38號","121.32597","24.9737283333333","6500800","鶯歌區"
"239001","417-VK","2019/09/13 18:49:31","新北市鶯歌區二橋街80號","121.337073333333","24.9383416666667","6500800","鶯歌區"
"239003","360-BY","2019/09/13 18:49:36","新北市鶯歌區永和街249號","121.336883333333","24.972245","6500800","鶯歌區"
"239002","359-BY","2019/09/13 18:49:37","新北市鶯歌區中山路300號","121.342845","24.9570583333333","6500800","鶯歌區"
"239004","193-VK","2019/09/13 18:49:40","新北市鶯歌區中正三路194巷2-3號","121.332641666667","24.93854","6500800","鶯歌區"
"221036","130-UY","2019/09/13 18:49:36","新北市汐止區南昌街35號","121.66299","25.068975","6501100","汐止區"
"221015","131-UY","2019/09/13 18:49:38","新北市汐止區吉祥街26號","121.667818333333","25.080885","6501100","汐止區"
"244019","KED-0667","2019/09/13 18:49:30","新北市林口區麗園二街1巷6-2號","121.37799","25.07014","6501700","林口區"
"221032","280-BY","2019/09/13 18:49:33","新北市汐止區橫科路121巷11弄5號","121.6218","25.050665","6501100","汐止區"
"221029","298-VK","2019/09/13 18:49:41","新北市汐止區樟樹一路91號","121.64196","25.0633316666667","6501100","汐止區"
"221021","299-VK","2019/09/13 18:49:35","新北市汐止區新興路44號","121.657108333333","25.0631933333333","6501100","汐止區"
"221031","353-TW","2019/09/13 18:49:42","新北市汐止區福德一路272巷15號","121.631655","25.0644916666667","6501100","汐止區"
"221035","622-UM","2019/09/13 18:49:47","新北市汐止區大同路二段33號","121.64773","25.0631133333333","6501100","汐止區"
"221025","623-UM","2019/09/13 18:49:44","新北市汐止區仁愛路113巷21號","121.661845","25.0641016666667","6501100","汐止區"
"221002","707-TV","2019/09/13 18:49:38","新北市汐止區大同路一段138號","121.630876666667","25.055035","6501100","汐止區"
"221018","753-BX","2019/09/13 18:49:41","新北市汐止區茄苳路291號","121.67298","25.0672766666667","6501100","汐止區"
"220079","145-BY","2019/09/13 18:49:33","新北市板橋區南雅西路二段192巷1弄5號","121.452036666667","25.0145433333333","6500100","板橋區"
"220080","200-UY","2019/09/13 18:49:41","新北市板橋區大觀路二段265巷72弄1號","121.442435","24.996775","6500100","板橋區"
"220082","610-BX","2019/09/13 18:49:40","新北市板橋區篤行路三段91號","121.426583333333","24.9848716666667","6500100","板橋區"
"220091","267-BY","2019/09/13 18:49:30","新北市板橋區雙十路二段47巷52號","121.474923333333","25.0253683333333","6500100","板橋區"
"220056","276-BY","2019/09/13 18:49:47","新北市板橋區信義路10號","121.456923333333","24.9960916666667","6500100","板橋區"
"220072","277-BY","2019/09/13 18:49:44","新北市板橋區大觀路三段36巷54弄1號","121.43454","24.9972866666667","6500100","板橋區"
"220101","280-UM","2019/09/13 18:49:25","新北市板橋區莊敬路123號","121.471958333333","25.0254916666667","6500100","板橋區"
"220094","283-UM","2019/09/13 18:49:35","新北市板橋區莒光路1-1號","121.469555","25.0249583333333","6500100","板橋區"
"220053","285-VK","2019/09/13 18:49:27","新北市板橋區成功路48號","121.475013333333","25.017875","6500100","板橋區"
"220083","286-VK","2019/09/13 18:49:42","新北市板橋區大觀路二段22巷31號","121.445043333333","25.0035966666667","6500100","板橋區"
"220081","287-VK","2019/09/13 18:49:31","新北市板橋區南雅西路二段40號","121.45289","25.01005","6500100","板橋區"
"220061","293-UM","2019/09/13 18:49:28","新北市板橋區永豐街139號","121.47491","25.0199316666667","6500100","板橋區"
"220062","295-UM","2019/09/13 18:49:31","新北市板橋區中山路二段40巷6弄4號","121.473045","25.0148216666667","6500100","板橋區"
"220084","296-UM","2019/09/13 18:49:44","新北市板橋區大觀路二段150巷22號","121.441695","24.9995416666667","6500100","板橋區"
"220067","299-UM","2019/09/13 18:49:32","新北市板橋區中山路二段90巷47弄2號","121.476478333333","25.0145133333333","6500100","板橋區"
"242046","281-VK","2019/09/13 18:49:39","新北市樹林區環河路10號","121.426946666667","24.9780433333333","6500500","新莊區"
"220075","303-R5","2019/09/13 18:49:25","新北市板橋區館前西路162號","121.45287","25.00856","6500100","板橋區"
"220092","307-R5","2019/09/13 18:49:45","新北市板橋區文化路一段136巷8弄1號","121.465541666667","25.01828","6500100","板橋區"
"220098","317-R6","2019/09/13 18:49:15","新北市板橋區民生路二段234巷26弄9號","121.47049","25.0221733333333","6500100","板橋區"
"220089","487-VK","2019/09/13 18:49:31","新北市板橋區文化路二段464號","121.475001666667","25.0325983333333","6500100","板橋區"
"220088","491-VK","2019/09/13 18:49:45","新北市板橋區莒光路75號","121.471631666667","25.02417","6500100","板橋區"
"220035","560-BX","2019/09/13 18:49:32","新北市板橋區南雅西路二段301巷50弄2號","121.452025","25.0173616666667","6500100","板橋區"
"220103","561-BX","2019/09/13 18:49:31","新北市板橋區文化路一段188巷9弄86-3號","121.468965","25.0187283333333","6500100","板橋區"
"220071","568-UM","2019/09/13 18:49:47","新北市板橋區四川路一段16號","121.459435","25.00651","6500100","板橋區"
"220063","609-BX","2019/09/13 18:49:47","新北市板橋區中山路二段243號","121.47713","25.0173966666667","6500100","板橋區"
"220057","686-BX","2019/09/13 18:49:39","新北市板橋區重慶路183號","121.462733333333","25.002385","6500100","板橋區"
"220077","687-BX","2019/09/13 18:49:39","新北市板橋區大觀路二段174巷165弄2號","121.441916666667","25.0034166666667","6500100","板橋區"
"220054","741-BX","2019/09/13 18:49:34","新北市板橋區館前東路23-1號","121.46038","25.0072683333333","6500100","板橋區"
"220102","KEA-2699","2019/09/13 18:49:34","新北市板橋區萬板路520號","121.480668333333","25.0264733333333","6500100","板橋區"
"220055","827-TW","2019/09/13 18:49:42","新北市板橋區忠孝路114號","121.462495","25.0021783333333","6500100","板橋區"
"220090","831-TW","2019/09/13 18:49:42","新北市板橋區四維路291巷2弄2號","121.463128333333","25.0281833333333","6500100","板橋區"
"220021","833-TW","2019/09/13 18:34:49","新北市板橋區華東街1-10號","121.448608333333","24.99479","6500100","板橋區"
"220074","895-R6","2019/09/13 18:49:45","新北市板橋區南門街53號","121.457191666667","25.0084183333333","6500100","板橋區"
"220073","985-R7","2019/09/13 18:49:43","新北市板橋區林園街1號","121.453801666667","25.00912","6500100","板橋區"
"220097","AAC-210","2019/09/13 18:49:39","新北市板橋區陽明街129巷1號","121.463298333333","25.0235383333333","6500100","板橋區"
"220064","AAC-253","2019/09/13 18:49:45","新北市板橋區縣民大道二段106號","121.467026666667","25.0154883333333","6500100","板橋區"
"235068","KEA-2873","2019/09/13 18:49:39","新北市中和區中正路211巷36弄8號","121.49707","24.9927366666667","6500300","中和區"
"235061","KEA-2875","2019/09/13 18:49:43","新北市中和區民享街59巷5號","121.474513333333","25.0026033333333","6500300","中和區"
"235062","KEA-2876","2019/09/13 18:49:32","新北市中和區中山路二段401號","121.486505","25.0048166666667","6500300","中和區"
