"lineid","car","time","location","longitude","latitude","cityid","cityname"
"234046","148-BY","2019/09/13 19:19:26","新北市永和區得和路373巷6弄1號","121.524758333333","24.9998","6500400","永和區"
"234081","298-R6","2019/09/13 19:19:33","新北市永和區福和路30號","121.523883333333","25.008365","6500400","永和區"
"234038","336-UY","2019/09/13 19:19:35","新北市永和區民樂街51號","121.527493333333","24.9987383333333","6500400","永和區"
"234064","337-UY","2019/09/13 19:19:47","新北市永和區得和路243巷28弄21號","121.521393333333","25.0011183333333","6500400","永和區"
"234086","338-UY","2019/09/13 19:19:33","新北市永和區永利路72號","121.520256666667","25.0042266666667","6500400","永和區"
"234070","552-UM","2019/09/13 19:19:34","新北市永和區豫溪街55號","121.517213333333","25.00994","6500400","永和區"
"234017","745-BX","2019/09/13 19:19:32","新北市永和區環河西路一段85巷4弄20號","121.512051666667","25.0169666666667","6500400","永和區"
"234030","746-BX","2019/09/13 19:19:45","新北市永和區民生路4號","121.522693333333","24.9978633333333","6500400","永和區"
"234054","KEA-2590","2019/09/13 19:19:27","新北市永和區中興街33號","121.516203333333","25.011855","6500400","永和區"
"234007","KED-0605","2019/09/13 19:19:43","新北市永和區中山路一段232號","121.507906666667","25.0082066666667","6500400","永和區"
"234013","KEA-2591","2019/09/13 19:19:30","新北市永和區信義路14號","121.514473333333","25.01207","6500400","永和區"
"234061","AAD-866","2019/09/13 19:19:25","新北市永和區秀朗路一段175號","121.51705","25.0036916666667","6500400","永和區"
"234042","862-TW","2019/09/13 19:19:28","新北市永和區保平路151巷17號","121.510675","25.0050766666667","6500400","永和區"
"234050","863-TW","2019/09/13 19:19:26","新北市永和區信義路87號","121.512405","25.0136833333333","6500400","永和區"
"234026","9371-KE","2019/09/13 19:19:40","新北市永和區得和路42巷23號","121.515335","24.9996183333333","6500400","永和區"
"234011","9373-KE","2019/09/13 19:19:47","新北市永和區保福路二段25號","121.51072","25.0112183333333","6500400","永和區"
"249001","173-UM","2019/09/13 19:19:36","新北市八里區文昌七街二段167號","121.4092","25.1527283333333","6502300","八里區"
"249003","593-UM","2019/09/13 19:19:40","新北市八里區中山路二段462號","121.398955","25.1472633333333","6502300","八里區"
"248014","025-BX","2019/09/13 19:19:41","新北市五股區民義路一段163-2號","121.432065","25.0878316666667","6501500","五股區"
"248008","KED-0815","2019/09/13 19:19:29","新北市五股區中興路二段83巷26-3號","121.46009","25.075345","6501500","五股區"
"248018","KED-0813","2019/09/13 19:16:57","新北市五股區壟路15-1號","121.416531666667","25.0834766666667","6501500","五股區"
"248012","247-BX","2019/09/13 19:19:44","新北市五股區中興路四段48巷16號","121.438623333333","25.0834083333333","6501500","五股區"
"248010","272-BY","2019/09/13 19:19:35","新北市五股區水碓一路23號","121.430638333333","25.0713116666667","6501500","五股區"
"248004","677-BX","2019/09/13 19:19:29","新北市五股區五福路119號","121.431976666667","25.09125","6501500","五股區"
"248002","678-BX","2019/09/13 19:19:48","新北市五股區凌雲路一段158巷6號","121.4478","25.10298","6501500","五股區"
"234023","9380-KE","2019/09/13 19:19:32","新北市永和區竹林路105號","121.519771666667","25.011875","6500400","永和區"
"234077","969-R7","2019/09/13 19:19:38","新北市永和區民治街72巷4號","121.51794","24.9982966666667","6500400","永和區"
"234074","AAC-211","2019/09/13 19:19:32","新北市永和區竹林路69號","121.518425","25.0135466666667","6500400","永和區"
"234067","AAC-212","2019/09/13 19:19:32","新北市永和區保平路50巷8弄1號","121.511071666667","25.0075283333333","6500400","永和區"
"234003","AAC-295","2019/09/13 19:19:28","新北市永和區中山路一段110號","121.510871666667","25.0104066666667","6500400","永和區"
"244023","483-VK","2019/09/13 19:19:31","新北市林口區文化三路一段555巷16號","121.36992","25.07678","6501700","林口區"
"244025","837-TS","2019/09/13 19:19:39","新北市林口區文化三路一段555巷88-1號","121.368776666667","25.076725","6501700","林口區"
"243009","267-VK","2019/09/13 19:19:41","新北市泰山區和平街15號","121.434376666667","25.064585","6501600","泰山區"
"243012","AAD-798","2019/09/13 19:19:45","新北市泰山區同義街22號","121.431575","25.0564183333333","6501600","泰山區"
"243010","297-R6","2019/09/13 19:19:39","新北市泰山區明志路二段32巷1號","121.42935","25.05345","6501600","泰山區"
"243014","KEA-2801","2019/09/13 19:19:33","新北市泰山區泰林路二段155號","121.433873333333","25.0602916666667","6501600","泰山區"
"243016","421-VK","2019/09/13 19:19:38","新北市泰山區工專路57號","121.422593333333","25.0403866666667","6501600","泰山區"
"243011","KEA-2216","2019/09/13 19:19:29","新北市泰山區貴子路15巷4弄2號","121.426576666667","25.0422033333333","6501600","泰山區"
"243013","646-TV","2019/09/13 19:19:41","新北市泰山區明志路三段145巷7號","121.425451666667","25.0399816666667","6501600","泰山區"
"243015","680-BX","2019/09/13 19:19:39","新北市泰山區公園路36號","121.428935","25.0544183333333","6501600","泰山區"
"222003","436-BY","2019/09/13 19:19:35","新北市深坑區深南路91號","121.626551666667","25.0159966666667","6501800","深坑區"
"222002","659-BX","2019/09/13 19:19:35","新北市深坑區北深路一段177號","121.63251","25.0108633333333","6501800","深坑區"
"231061","002-UM","2019/09/13 19:19:42","新北市新店區安康路一段46巷4號","121.530678333333","24.9611383333333","6500600","新店區"
"231044","046-UY","2019/09/13 19:19:45","新北市新店區中興路三段255號","121.54252","24.9843266666667","6500600","新店區"
"231060","106-UY","2019/09/13 19:19:47","新北市新店區安康路二段125-1號","121.512375","24.96101","6500600","新店區"
"231049","108-UY","2019/09/13 19:19:45","新北市新店區明德路66號","121.541505","24.9795583333333","6500600","新店區"
"231065","110-UY","2019/09/13 19:19:42","新北市新店區安祥路109巷3弄33號","121.478806666667","24.9608583333333","6500600","新店區"
"231053","192-VK","2019/09/13 19:19:38","新北市新店區自強路251號","121.54813","24.9190233333333","6500600","新店區"
"231062","256-BX","2019/09/13 19:19:35","新北市新店區莒光路38巷3號","121.522336666667","24.9588766666667","6500600","新店區"
"231054","260-TV","2019/09/13 19:19:44","新北市新店區北宜路一段72-1號","121.537968333333","24.9560583333333","6500600","新店區"
"231042","268-BY","2019/09/13 19:19:29","新北市新店區中興路一段24-2號","121.538618333333","24.9582783333333","6500600","新店區"
"231064","278-BY","2019/09/13 19:19:30","新北市新店區安忠路57巷26弄45號","121.51205","24.9576483333333","6500600","新店區"
"231050","AAD-862","2019/09/13 19:19:31","新北市新店區竹林路25巷10號","121.552316666667","24.9513616666667","6500600","新店區"
"231045","355-BY","2019/09/13 19:19:37","新北市新店區北宜路一段260號","121.545643333333","24.9527766666667","6500600","新店區"
"231058","3713-VJ","2019/09/13 19:19:28","新北市新店區光明街286巷4號","121.540495","24.9637966666667","6500600","新店區"
"231056","4715-K9","2019/09/13 19:19:43","新北市新店區安康路二段414巷2號","121.4958","24.9577716666667","6500600","新店區"
"231041","618-UM","2019/09/13 19:19:45","新北市新店區溪園路221號","121.52617","24.98392","6500600","新店區"
"231063","641-BX","2019/09/13 19:19:38","新北市新店區達觀路14巷1-3號","121.504208333333","24.9420983333333","6500600","新店區"
"231048","KED-0819","2019/09/13 19:19:38","新北市新店區中興路二段59號","121.546383333333","24.9704933333333","6500600","新店區"
"231051","718-UY","2019/09/13 19:19:31","新北市新店區中央路192號","121.530795","24.97468","6500600","新店區"
"231046","719-UM","2019/09/13 19:18:03","新北市新店區華城路10巷2-2號","121.529338333333","24.958635","6500600","新店區"
"231057","720-UM","2019/09/13 19:19:32","新北市新店區百齡一路12號","121.553068333333","24.9324766666667","6500600","新店區"
"231059","897-TW","2019/09/13 19:19:35","新北市新店區安和路二段185號","121.518248333333","24.9749066666667","6500600","新店區"
"231040","898-TW","2019/09/13 19:19:39","新北市新店區三民路62號","121.53513","24.9721366666667","6500600","新店區"
"231043","899-TW","2019/09/13 19:19:45","新北市新店區北新路二段149號","121.542803333333","24.9759583333333","6500600","新店區"
"231066","AKT-0513","2019/09/13 19:19:47","新北市新店區安祥路35-1號","121.491796666667","24.955485","6500600","新店區"
"241031","061-VK","2019/09/13 19:19:44","新北市三重區重新路四段101-1號","121.485758333333","25.0544133333333","6500200","三重區"
"241017","063-VK","2019/09/13 19:19:34","新北市三重區大同北路217號","121.491581666667","25.0659966666667","6500200","三重區"
"241007","066-VK","2019/09/13 19:19:38","新北市三重區慈愛街64號","121.487116666667","25.07949","6500200","三重區"
"241009","267-UM","2019/09/13 19:19:44","新北市三重區溪尾街218巷37-7號","121.48641","25.0812083333333","6500200","三重區"
"241032","269-UM","2019/09/13 19:19:42","新北市三重區新生街82號","121.484031666667","25.0593466666667","6500200","三重區"
"241025","271-UM","2019/09/13 19:19:33","新北市三重區中正北路406號","121.475363333333","25.070455","6500200","三重區"
"241035","KEA-2210","2019/09/13 19:19:25","新北市三重區信義西街138號","121.49548","25.0642966666667","6500200","三重區"
"241030","KED-0822","2019/09/13 19:19:46","新北市三重區成功路41巷70號","121.491241666667","25.0531","6500200","三重區"
"241020","478-VK","2019/09/13 19:19:44","新北市三重區大智街250號","121.489158333333","25.0732216666667","6500200","三重區"
"241026","480-VK","2019/09/13 19:19:30","新北市三重區正義南路131號","121.498836666667","25.0578966666667","6500200","三重區"
"241022","KED-0820","2019/09/13 19:19:40","新北市三重區重陽路二段50號","121.487205","25.06336","6500200","三重區"
"241029","942-UM","2019/09/13 19:19:45","新北市三重區重安街27號","121.491123333333","25.057045","6500200","三重區"
"235066","003-UY","2019/09/13 19:19:45","新北市中和區中和路104號","121.502776666667","24.9997966666667","6500300","中和區"
"235063","006-UY","2019/09/13 19:19:42","新北市中和區連勝街95號","121.495108333333","24.9961116666667","6500300","中和區"
"235056","096-UM","2019/09/13 19:19:36","新北市中和區中山路三段108號","121.476833333333","25.0064","6500300","中和區"
"235039","097-UM","2019/09/13 19:19:40","新北市中和區秀峰街119巷6弄6號","121.519456666667","24.9900883333333","6500300","中和區"
"235065","098-UM","2019/09/13 19:19:33","新北市中和區中山路二段64巷16弄16號","121.503811666667","25.006185","6500300","中和區"
"235040","150-BY","2019/09/13 19:19:44","新北市中和區保健路50巷5號","121.51025","24.9966566666667","6500300","中和區"
"235058","151-BY","2019/09/13 19:19:35","新北市中和區員山路124巷1號","121.48153","24.9959783333333","6500300","中和區"
"235055","183-VK","2019/09/13 19:19:24","新北市中和區莒光路120巷38號","121.471555","25.0013516666667","6500300","中和區"
"235038","185-VK","2019/09/13 19:19:37","新北市中和區自強路27巷1號","121.520621666667","24.9928883333333","6500300","中和區"
"235049","186-VK","2019/09/13 19:19:33","新北市中和區景新街295巷27號","121.5111","24.99343","6500300","中和區"
"235067","255-BX","2019/09/13 19:19:38","新北市中和區新生街186巷16號","121.4829","24.9996633333333","6500300","中和區"
"235044","293-VK","2019/09/13 19:19:49","新北市中和區復興路276號","121.502826666667","24.990415","6500300","中和區"
"235072","301-VK","2019/09/13 19:19:40","新北市中和區連城路265巷8弄2號","121.491538333333","24.9956516666667","6500300","中和區"
"235043","352-BY","2019/09/13 19:19:41","新北市中和區南山路76號","121.502483333333","24.9952833333333","6500300","中和區"
"235042","KEA-2878","2019/09/13 19:19:36","新北市中和區宜安路92巷23號","121.511233333333","24.9985333333333","6500300","中和區"
"235069","4980-A6","2019/09/13 19:19:47","新北市中和區景平路736巷1弄3號","121.497185","25.00412","6500300","中和區"
"235070","558-UM","2019/09/13 19:19:36","新北市中和區景平路634-7號","121.499116666667","24.999175","6500300","中和區"
"235045","565-BX","2019/09/13 19:19:33","新北市中和區景新街425號","121.513036666667","24.989215","6500300","中和區"
"235054","640-BX","2019/09/13 19:19:44","新北市中和區國光街102巷10號","121.470448333333","25.0004616666667","6500300","中和區"
"235060","647-TV","2019/09/13 19:19:41","新北市中和區員山路314巷7弄6號","121.482151666667","25.003195","6500300","中和區"
"235047","732-UM","2019/09/13 19:19:38","新北市中和區景平路243號","121.50946","24.992695","6500300","中和區"
"235046","733-UM","2019/09/13 19:19:35","新北市中和區忠孝街2巷9弄2號","121.510293333333","24.9822116666667","6500300","中和區"
"235071","783-BX","2019/09/13 19:19:48","新北市中和區連城路469巷54號","121.48345","24.9942883333333","6500300","中和區"
"235057","801-TS","2019/09/13 19:19:38","新北市中和區員山路378號","121.480665","25.0042183333333","6500300","中和區"
"235041","802-TS","2019/09/13 19:19:34","新北市中和區中和路324巷3弄2號","121.509961666667","25.0008216666667","6500300","中和區"
"235052","805-TS","2019/09/13 19:19:29","新北市中和區興南路二段149號","121.504785","24.9838216666667","6500300","中和區"
"235048","896-TW","2019/09/13 19:19:29","新北市中和區景新街436號","121.513146666667","24.988325","6500300","中和區"
"235053","900-TW","2019/09/13 19:19:32","新北市中和區華順街73號","121.465635","24.998405","6500300","中和區"
"235064","911-UM","2019/09/13 19:19:40","新北市中和區南山路62-2號","121.502188333333","24.9965433333333","6500300","中和區"
"235051","157-BY","2019/09/13 19:19:29","新北市中和區景平路239巷33弄16號","121.509436666667","24.9920733333333","6500300","中和區"
"235037","AAC-213","2019/09/13 19:19:45","新北市中和區秀朗路三段10巷19號","121.525431666667","24.9964766666667","6500300","中和區"
"235059","AAC-215","2019/09/13 19:19:45","新北市中和區圓通路252巷5弄38號","121.492256666667","24.991485","6500300","中和區"
"220065","072-UY","2019/09/13 19:19:43","新北市板橋區民族路129巷14號","121.467646666667","25.0084916666667","6500100","板橋區"
"220086","073-UY","2019/09/13 19:19:36","新北市板橋區國光路171號","121.46054","25.018355","6500100","板橋區"
"220106","075-UY","2019/09/13 19:19:43","新北市板橋區江寧路三段79巷2號","121.472363333333","25.032485","6500100","板橋區"
"220069","AAD-861","2019/09/13 19:19:40","新北市板橋區稚暉街46巷1號","121.45645","25.0042433333333","6500100","板橋區"
"220068","120-SR","2019/09/13 19:19:29","新北市板橋區萬安街107號","121.48358","25.02484","6500100","板橋區"
"226004","312-R5","2019/09/13 19:19:40","新北市平溪區靜安路三段288號","121.776558333333","25.0407366666667","6502400","平溪區"
"228003","097-TW","2019/09/13 19:19:28","新北市貢寮區和美里和美街22-1號","121.912821666667","25.082635","6502600","貢寮區"
"228002","663-BX","2019/09/13 19:19:27","新北市貢寮區龍門里復興街14號","121.926526666667","25.0259783333333","6502600","貢寮區"
"228001","670-TC","2019/09/13 19:19:43","新北市貢寮區真理里新港街10號","121.925491666667","25.0542816666667","6502600","貢寮區"
"224002","639-TC","2019/09/13 19:19:30","新北市平溪區新寮里五分寮10-2號","121.799853333333","25.073975","6501200","瑞芳區"
"224009","275-VK","2019/09/13 19:16:38","新北市瑞芳區洞頂路155-8號","121.861366666667","25.1221816666667","6501200","瑞芳區"
"224008","273-VK","2019/09/13 19:19:29","新北市瑞芳區明燈路三段245號","121.799588333333","25.1116483333333","6501200","瑞芳區"
"224005","271-BY","2019/09/13 19:19:30","新北市瑞芳區瑞濱路12號","121.82626","25.1213316666667","6501200","瑞芳區"
"227001","642-TC","2019/09/13 19:19:43","新北市雙溪區牡丹里中正路23號","121.864421666667","25.03746","6502500","雙溪區"
"227002","400-TW","2019/09/13 19:19:28","新北市雙溪區平林里梅竹蹊66-1號","121.860141666667","25.0358283333333","6502500","雙溪區"
"253005","032-BX","2019/09/13 19:19:32","新北市石門區阿里荖6-1號","121.609703333333","25.2799516666667","6502200","石門區"
"253006","295-VK","2019/09/13 19:19:31","新北市石門區崁子腳46-1號","121.533553333333","25.2891116666667","6502200","石門區"
"222001","KEA-2212","2019/09/13 19:19:28","新北市深坑區北深路二段109號","121.617293333333","25.00337","6501800","深坑區"
"208002","KEA-2872","2019/09/13 19:19:43","新北市金山區中華路111號","121.633708333333","25.220185","6502700","金山區"
"208003","665-BX","2019/09/13 19:19:44","新北市金山區忠孝一路74號","121.637285","25.2206583333333","6502700","金山區"
"251010","413-VK","2019/09/13 19:19:35","新北市淡水區沙崙路131巷13弄26號","121.422651666667","25.1838733333333","6501000","淡水區"
"251007","442-VK","2019/09/13 19:19:39","新北市淡水區民生路117巷10號","121.464975","25.1391233333333","6501000","淡水區"
"251005","443-VK","2019/09/13 19:19:33","新北市淡水區水源街一段34巷1號","121.443203333333","25.1722666666667","6501000","淡水區"
"251001","559-UM","2019/09/13 19:19:43","新北市淡水區自強路201巷51號","121.461996666667","25.12703","6501000","淡水區"
"251009","575-R6","2019/09/13 19:19:34","新北市淡水區清水街99-1號","121.440778333333","25.170705","6501000","淡水區"
"251002","672-BX","2019/09/13 19:19:44","新北市淡水區文化路18號","121.439686666667","25.172635","6501000","淡水區"
"251003","766-UM","2019/09/13 19:19:33","新北市淡水區中山北路一段85號","121.442121666667","25.1760383333333","6501000","淡水區"
"207003","550-UM","2019/09/13 19:19:39","新北市萬里區大鵬里萬里加投29-11號","121.647328333333","25.20746","6502800","萬里區"
"207004","291-VK","2019/09/13 19:19:44","新北市萬里區萬里里成功新村63號","121.688293333333","25.174565","6502800","萬里區"
"252002","178-VK","2019/09/13 19:19:39","新北市三芝區淡金路二段18-1號","121.50265","25.2594833333333","6502100","三芝區"
"252001","292-VK","2019/09/13 19:19:48","新北市三芝區長勤街37巷25號","121.501671666667","25.254835","6502100","三芝區"
"208001","170-UY","2019/09/13 19:19:36","新北市金山區中山路115號","121.639495","25.2196033333333","6502700","金山區"
"237004","KEA-2597","2019/09/13 19:19:27","新北市三峽區有木205-1號","121.438993333333","24.8516166666667","6500900","三峽區"
"237007","153-BY","2019/09/13 19:19:41","新北市三峽區二鬮路178號","121.359113333333","24.9067883333333","6500900","三峽區"
"237009","210-TH","2019/09/13 19:19:46","新北市三峽區信義街26號","121.370878333333","24.9353566666667","6500900","三峽區"
"237013","252-BX","2019/09/13 19:19:44","新北市三峽區介壽路一段276巷108弄50號","121.378935","24.927645","6500900","三峽區"
"237012","275-BY","2019/09/13 19:19:25","新北市三峽區三樹路222巷236弄23號","121.391361666667","24.9430683333333","6500900","三峽區"
"237008","302-VK","2019/09/13 19:19:45","新北市三峽區永安街87號","121.374843333333","24.9291133333333","6500900","三峽區"
"237014","433-BY","2019/09/13 19:19:44","新北市三峽區大智路7號","121.361246666667","24.9374366666667","6500900","三峽區"
"237006","5529-G3","2019/09/13 19:19:38","新北市三峽區介壽路一段269號","121.380075","24.930265","6500900","三峽區"
"237011","KEA-2596","2019/09/13 19:19:29","新北市三峽區介壽路三段57號","121.395506666667","24.9376033333333","6500900","三峽區"
"237015","649-BX","2019/09/13 19:19:30","新北市三峽區安坑49-6號","121.460965","24.9321433333333","6500900","三峽區"
"237010","706-TV","2019/09/13 19:19:31","新北市三峽區國光街25號","121.375431666667","24.936975","6500900","三峽區"
"237005","AKY-6261","2019/09/13 19:19:47","新北市三峽區中山路459巷50-3號","121.356036666667","24.9377433333333","6500900","三峽區"
"236026","269-VK","2019/09/13 19:19:32","新北市土城區中正路67巷26號","121.444393333333","24.9765966666667","6501300","土城區"
"236014","270-VK","2019/09/13 19:19:37","新北市土城區廣福街5號","121.457285","24.9887783333333","6501300","土城區"
"236069","KEA-2877","2019/09/13 19:19:30","新北市土城區學成路147號","121.448773333333","24.9895316666667","6501300","土城區"
"236020","752-BX","2019/09/13 19:19:40","新北市土城區峰廷街3號","121.469035","24.9873283333333","6501300","土城區"
"236059","912-UM","2019/09/13 19:19:40","新北市土城區中央路二段246號","121.441825","24.9747783333333","6501300","土城區"
"236048","913-UM","2019/09/13 19:19:26","新北市土城區明德路一段365-1號","121.453663333333","24.9791","6501300","土城區"
"242009","349-TH","2019/09/13 19:19:38","新北市泰山區磚雅厝3號","121.442095","25.0416033333333","6500500","新莊區"
"238015","755-BX","2019/09/13 19:19:44","新北市樹林區備內街65號","121.410908333333","24.98843","6500700","樹林區"
"238023","601-UM","2019/09/13 19:19:37","新北市樹林區中正路865號","121.408733333333","25.018115","6500700","樹林區"
"238019","599-UM","2019/09/13 19:19:34","新北市樹林區東榮街125號","121.414983333333","24.98195","6500700","樹林區"
"238018","KEA-2217","2019/09/13 19:19:32","新北市樹林區太元街5號","121.417765","24.9809183333333","6500700","樹林區"
"238022","KEA-2213","2019/09/13 19:19:47","新北市樹林區中山路二段151巷6弄16號","121.406033333333","24.9781766666667","6500700","樹林區"
"238021","KEA-2539","2019/09/13 19:19:37","新北市樹林區學府路212號","121.377868333333","24.9501133333333","6500700","樹林區"
"238025","303-VK","2019/09/13 19:19:40","新北市樹林區中山路三段147-5號","121.396143333333","24.9731216666667","6500700","樹林區"
"238017","283-BY","2019/09/13 19:19:34","新北市樹林區光興街50號","121.409863333333","25.0027216666667","6500700","樹林區"
"238014","282-BY","2019/09/13 19:19:48","新北市樹林區千歲街69號","121.427241666667","24.9988966666667","6500700","樹林區"
"238020","268-VK","2019/09/13 19:19:40","新北市樹林區俊英街250號","121.424468333333","25.010895","6500700","樹林區"
"238026","172-UY","2019/09/13 19:19:30","新北市樹林區佳園路二段77號","121.39071","24.95999","6500700","樹林區"
"238016","169-UY","2019/09/13 19:19:32","新北市樹林區文化街5巷11號","121.419965","24.986595","6500700","樹林區"
"239007","AAC-297","2019/09/13 19:19:32","新北市鶯歌區西湖街45巷1號","121.340258333333","24.9585216666667","6500800","鶯歌區"
"239006","891-R6","2019/09/13 19:19:33","新北市鶯歌區鶯桃路289-1號","121.334853333333","24.9602266666667","6500800","鶯歌區"
"239008","527-UM","2019/09/13 19:19:42","新北市鶯歌區國際二路10巷19號","121.338373333333","24.9744266666667","6500800","鶯歌區"
"239005","526-UM","2019/09/13 19:19:46","新北市鶯歌區東湖路13-4號","121.352196666667","24.971605","6500800","鶯歌區"
"239001","417-VK","2019/09/13 19:19:37","新北市鶯歌區鶯桃路161號","121.33733","24.95517","6500800","鶯歌區"
"239003","360-BY","2019/09/13 19:19:36","新北市鶯歌區德昌二街53號","121.333331666667","24.9584616666667","6500800","鶯歌區"
"239002","359-BY","2019/09/13 19:19:37","新北市鶯歌區中正一路309號","121.356726666667","24.9570533333333","6500800","鶯歌區"
"239004","193-VK","2019/09/13 19:19:40","新北市鶯歌區鶯華新村37號","121.330483333333","24.934265","6500800","鶯歌區"
"221008","489-VK","2019/09/13 19:19:34","新北市汐止區康寧街309號","121.62736","25.0674333333333","6501100","汐止區"
"221035","622-UM","2019/09/13 19:19:27","新北市汐止區汐萬路一段256巷3號","121.65236","25.07465","6501100","汐止區"
"221002","707-TV","2019/09/13 19:19:38","新北市汐止區中興路25號","121.636948333333","25.0596616666667","6501100","汐止區"
"220079","145-BY","2019/09/13 19:19:33","新北市板橋區民權路202巷7弄37號","121.458531666667","25.015","6500100","板橋區"
"220080","200-UY","2019/09/13 19:19:41","新北市板橋區大觀路二段19巷81號","121.449148333333","25.0028766666667","6500100","板橋區"
"220082","610-BX","2019/09/13 19:19:39","新北市板橋區篤行路三段79-1號","121.427191666667","24.9853266666667","6500100","板橋區"
"220091","267-BY","2019/09/13 19:19:30","新北市板橋區文聖街198號","121.480106666667","25.0259183333333","6500100","板橋區"
"220056","276-BY","2019/09/13 19:19:47","新北市板橋區信義路279巷15號","121.464145","24.9902016666667","6500100","板橋區"
"220072","277-BY","2019/09/13 19:19:44","新北市板橋區篤行路二段151巷2號","121.429755","24.9878616666667","6500100","板橋區"
"220101","280-UM","2019/09/13 19:19:44","新北市板橋區民生路二段172號","121.471416666667","25.0205266666667","6500100","板橋區"
"220094","283-UM","2019/09/13 19:19:37","新北市板橋區吳鳳路50巷20號","121.469745","25.0303233333333","6500100","板橋區"
"220053","285-VK","2019/09/13 19:19:47","新北市板橋區富山街99號","121.47633","25.0218583333333","6500100","板橋區"
"220083","286-VK","2019/09/13 19:19:38","新北市板橋區大觀路二段174巷196弄16號","121.44311","25.0035366666667","6500100","板橋區"
"220081","287-VK","2019/09/13 19:19:31","新北市板橋區南雅西路二段83號","121.452656666667","25.0102533333333","6500100","板橋區"
"220061","293-UM","2019/09/13 19:19:28","新北市板橋區成功路6巷15號","121.476043333333","25.0171316666667","6500100","板橋區"
"220062","295-UM","2019/09/13 19:19:31","新北市板橋區三民路二段153巷4號","121.479656666667","25.014935","6500100","板橋區"
"220084","296-UM","2019/09/13 19:19:44","新北市板橋區溪北路134號","121.429271666667","24.98893","6500100","板橋區"
"220067","299-UM","2019/09/13 19:19:43","新北市板橋區長安街138巷7弄26號","121.473651666667","25.00868","6500100","板橋區"
"242046","281-VK","2019/09/13 19:19:39","新北市樹林區中正路158號","121.423856666667","25.00271","6500500","新莊區"
"220075","303-R5","2019/09/13 19:19:45","新北市板橋區僑中一街124巷72-3號","121.44961","25.017635","6500100","板橋區"
"220092","307-R5","2019/09/13 19:19:45","新北市板橋區文化路二段107號","121.469525","25.0260383333333","6500100","板橋區"
"220098","317-R6","2019/09/13 19:19:34","新北市板橋區四維路115-3號","121.465405","25.0248033333333","6500100","板橋區"
"220089","487-VK","2019/09/13 19:19:31","新北市板橋區新海路332號","121.460446666667","25.02432","6500100","板橋區"
"220088","491-VK","2019/09/13 19:19:42","新北市板橋區雙十路二段223號","121.47308","25.0292683333333","6500100","板橋區"
"220035","560-BX","2019/09/13 19:19:36","新北市板橋區中正路360巷31號","121.45549","25.0233366666667","6500100","板橋區"
"220103","561-BX","2019/09/13 19:19:31","新北市板橋區陽明街23巷8弄17號","121.465488333333","25.0206733333333","6500100","板橋區"
"220071","568-UM","2019/09/13 19:19:39","新北市板橋區重慶路269巷13號","121.463893333333","24.9995633333333","6500100","板橋區"
"220063","609-BX","2019/09/13 19:19:27","新北市板橋區翠華街6巷1號","121.480241666667","25.0240166666667","6500100","板橋區"
"220057","686-BX","2019/09/13 19:19:39","新北市板橋區國慶路49巷1號","121.459438333333","24.9954366666667","6500100","板橋區"
"220077","687-BX","2019/09/13 19:19:37","新北市板橋區大觀路二段125-1號","121.445878333333","25.001295","6500100","板橋區"
"220054","741-BX","2019/09/13 19:19:34","新北市板橋區校前街78號","121.46209","25.0033033333333","6500100","板橋區"
"220102","KEA-2699","2019/09/13 19:19:46","新北市板橋區雙十路二段130巷2弄29號","121.475046666667","25.0287166666667","6500100","板橋區"
"220055","827-TW","2019/09/13 19:19:42","新北市板橋區民族路57號","121.464666666667","25.0088316666667","6500100","板橋區"
"220090","831-TW","2019/09/13 19:19:27","新北市板橋區長江路一段134號","121.460471666667","25.0300216666667","6500100","板橋區"
"220021","833-TW","2019/09/13 19:09:21","新北市板橋區華東街1-10號","121.448568333333","24.99481","6500100","板橋區"
"220074","895-R6","2019/09/13 19:19:29","新北市板橋區中正路1巷18-1號","121.455161666667","25.0116283333333","6500100","板橋區"
"220073","985-R7","2019/09/13 19:19:43","新北市板橋區新生街27號","121.456305","25.0211866666667","6500100","板橋區"
"220097","AAC-210","2019/09/13 19:19:44","新北市板橋區漢生西路89巷2弄5號","121.461755","25.0194366666667","6500100","板橋區"
"220064","AAC-253","2019/09/13 19:19:45","新北市板橋區中山路一段26號","121.460435","25.0082383333333","6500100","板橋區"
"235068","KEA-2873","2019/09/13 19:19:39","新北市中和區圓通路158巷3-1號","121.49761","24.9961266666667","6500300","中和區"
"235061","KEA-2875","2019/09/13 19:19:43","新北市中和區民利街22號","121.480251666667","24.9991333333333","6500300","中和區"
