"lineid","car","time","location","longitude","latitude","cityid","cityname"
"234046","148-BY","2019/09/13 19:39:26","新北市永和區永利路137號","121.524096666667","25.003445","6500400","永和區"
"234081","298-R6","2019/09/13 19:39:41","新北市永和區國中路104巷8弄18號","121.525178333333","25.0063466666667","6500400","永和區"
"234038","336-UY","2019/09/13 19:39:35","新北市永和區民樂街37巷7號","121.528138333333","25.000785","6500400","永和區"
"234064","337-UY","2019/09/13 19:39:43","新北市永和區秀朗路一段192巷6弄10號","121.519118333333","25.0023483333333","6500400","永和區"
"234086","338-UY","2019/09/13 19:39:32","新北市永和區林森路65號","121.524305","25.0041466666667","6500400","永和區"
"234070","552-UM","2019/09/13 19:39:34","新北市永和區永和路二段217號","121.515438333333","25.0140433333333","6500400","永和區"
"234017","745-BX","2019/09/13 19:39:32","新北市永和區永和路二段425巷75弄5號","121.513501666667","25.017125","6500400","永和區"
"234030","746-BX","2019/09/13 19:39:37","新北市永和區民生路67巷29號","121.524306666667","24.9973416666667","6500400","永和區"
"234054","KEA-2590","2019/09/13 19:39:33","新北市永和區竹林路39巷1號","121.518033333333","25.0144","6500400","永和區"
"234007","KED-0605","2019/09/13 19:39:43","新北市永和區中和路425號","121.509266666667","25.0008266666667","6500400","永和區"
"234013","KEA-2591","2019/09/13 19:39:35","新北市永和區仁愛路186巷2號","121.50987","25.0126116666667","6500400","永和區"
"234061","AAD-866","2019/09/13 19:39:45","新北市永和區中正路446號","121.517396666667","25.0027416666667","6500400","永和區"
"234042","862-TW","2019/09/13 19:39:47","新北市中和區中和路260-1號","121.508145","24.99961","6500400","永和區"
"234050","863-TW","2019/09/13 19:39:26","新北市永和區保安路13號","121.510465","25.0168783333333","6500400","永和區"
"234026","9371-KE","2019/09/13 19:39:40","新北市永和區中和路495號","121.510521666667","25.00218","6500400","永和區"
"234011","9373-KE","2019/09/13 19:39:40","新北市永和區仁愛路352巷80號","121.50185","25.00759","6500400","永和區"
"249002","305-UY","2019/09/13 19:39:33","新北市八里區頂寮二街35號","121.450275","25.1251683333333","6502300","八里區"
"249003","593-UM","2019/09/13 19:39:40","新北市八里區華峰三街31號","121.399425","25.145845","6502300","八里區"
"248014","025-BX","2019/09/13 19:39:41","新北市五股區五福路52巷25號","121.434465","25.0903516666667","6501500","五股區"
"248016","026-BX","2019/09/13 19:39:35","新北市五股區凌雲路一段41號","121.451746666667","25.10074","6501500","五股區"
"248008","KED-0815","2019/09/13 19:39:29","新北市五股區四維路118巷15號","121.469393333333","25.0741616666667","6501500","五股區"
"248018","KED-0813","2019/09/13 19:39:37","新北市五股區外寮路2號","121.425745","25.0773266666667","6501500","五股區"
"248012","247-BX","2019/09/13 19:39:44","新北市五股區蓬萊路6巷41號","121.435731666667","25.080165","6501500","五股區"
"248010","272-BY","2019/09/13 19:39:35","新北市五股區自強路148號","121.432231666667","25.0705116666667","6501500","五股區"
"248004","677-BX","2019/09/13 19:39:29","新北市五股區成泰路一段219-4號","121.43541","25.07744","6501500","五股區"
"248002","678-BX","2019/09/13 19:39:27","新北市五股區成泰路三段577巷82號","121.449631666667","25.1037516666667","6501500","五股區"
"234023","9380-KE","2019/09/13 19:39:32","新北市永和區中山路一段277號","121.50694","25.0070566666667","6500400","永和區"
"234077","969-R7","2019/09/13 19:39:38","新北市永和區民族街67巷25號","121.519541666667","24.997185","6500400","永和區"
"234074","AAC-211","2019/09/13 19:39:32","新北市永和區竹林路208號","121.52079","25.0082116666667","6500400","永和區"
"234067","AAC-212","2019/09/13 19:39:32","新北市永和區永平路173巷10號","121.510358333333","25.0087466666667","6500400","永和區"
"234003","AAC-295","2019/09/13 19:39:43","新北市永和區自由街70-8號","121.513441666667","25.00538","6500400","永和區"
"244023","483-VK","2019/09/13 19:39:31","新北市林口區文化北路二段234號","121.37311","25.0854516666667","6501700","林口區"
"243009","267-VK","2019/09/13 19:39:40","新北市泰山區美寧街60號","121.430958333333","25.0646883333333","6501600","泰山區"
"243012","AAD-798","2019/09/13 19:39:44","新北市泰山區仁愛路76號","121.432673333333","25.0552333333333","6501600","泰山區"
"243016","421-VK","2019/09/13 19:39:28","新北市泰山區新北大道七段46號","121.419255","25.0322466666667","6501600","泰山區"
"243011","KEA-2216","2019/09/13 19:39:37","新北市泰山區明志路三段196巷21弄31號","121.422483333333","25.0381583333333","6501600","泰山區"
"243015","680-BX","2019/09/13 19:39:39","新北市泰山區文程路18巷35號","121.428191666667","25.0482466666667","6501600","泰山區"
"222003","436-BY","2019/09/13 19:39:35","新北市深坑區深南路51-1號","121.621225","25.0098233333333","6501800","深坑區"
"222002","659-BX","2019/09/13 19:39:35","新北市深坑區北深路一段177號","121.632458333333","25.0108733333333","6501800","深坑區"
"231061","002-UM","2019/09/13 19:39:38","新北市新店區安民街163號","121.51665","24.97006","6500600","新店區"
"231044","046-UY","2019/09/13 19:39:45","新北市新店區順安街52號","121.540883333333","24.9861933333333","6500600","新店區"
"231060","106-UY","2019/09/13 19:39:27","新北市新店區安康路二段161號","121.51009","24.9593483333333","6500600","新店區"
"231049","108-UY","2019/09/13 19:39:45","新北市新店區大豐路70號","121.53906","24.97946","6500600","新店區"
"231065","110-UY","2019/09/13 19:39:42","新北市新店區安祥路109巷90弄98號","121.475901666667","24.9575533333333","6500600","新店區"
"231053","192-VK","2019/09/13 19:39:30","新北市新店區新烏路二段333號","121.550241666667","24.9105016666667","6500600","新店區"
"231062","256-BX","2019/09/13 19:39:34","新北市新店區碧潭路52號","121.534296666667","24.9566516666667","6500600","新店區"
"231054","260-TV","2019/09/13 19:39:44","新北市新店區文中路40號","121.539756666667","24.9565916666667","6500600","新店區"
"231042","268-BY","2019/09/13 19:39:28","新北市新店區中興路一段202號","121.543651666667","24.9653633333333","6500600","新店區"
"231064","278-BY","2019/09/13 19:39:30","新北市新店區安和路二段115號","121.518691666667","24.97041","6500600","新店區"
"231050","AAD-862","2019/09/13 19:39:31","新北市新店區北宜路二段92-1號","121.555096666667","24.9535033333333","6500600","新店區"
"231045","355-BY","2019/09/13 19:39:37","新北市新店區北宜路二段209號","121.553156666667","24.9533683333333","6500600","新店區"
"231058","3713-VJ","2019/09/13 19:39:47","新北市新店區寶橋路69-1號","121.545401666667","24.9750116666667","6500600","新店區"
"231056","4715-K9","2019/09/13 19:39:43","新北市新店區中正路504號","121.533871666667","24.9827","6500600","新店區"
"231041","618-UM","2019/09/13 19:39:45","新北市新店區中正路487號","121.533808333333","24.9821816666667","6500600","新店區"
"231063","641-BX","2019/09/13 19:39:38","新北市新店區達觀路40號","121.503631666667","24.9390066666667","6500600","新店區"
"231048","KED-0819","2019/09/13 19:39:37","新北市新店區五峰路63巷8弄2號","121.546711666667","24.96859","6500600","新店區"
"231051","718-UY","2019/09/13 19:39:31","新北市新店區中央五街25號","121.529216666667","24.9746166666667","6500600","新店區"
"231046","719-UM","2019/09/13 19:39:23","新北市新店區中正路278號","121.538721666667","24.9737083333333","6500600","新店區"
"231057","720-UM","2019/09/13 19:39:32","新北市新店區橘園一路11號","121.547935","24.93402","6500600","新店區"
"231059","897-TW","2019/09/13 19:39:35","新北市新店區安和路三段89號","121.517811666667","24.9840066666667","6500600","新店區"
"231040","898-TW","2019/09/13 19:39:38","新北市新店區北新路一段285號","121.541173333333","24.9669683333333","6500600","新店區"
"231043","899-TW","2019/09/13 19:39:25","新北市新店區中正路161號","121.541155","24.9718516666667","6500600","新店區"
"231066","AKT-0513","2019/09/13 19:39:27","新北市新店區安康路三段165巷2弄29號","121.487933333333","24.9513966666667","6500600","新店區"
"241011","013-R5","2019/09/13 19:39:32","新北市三重區秀江街201號","121.497683333333","25.07166","6500200","三重區"
"241028","022-UY","2019/09/13 19:39:31","新北市三重區中正南路115號","121.494023333333","25.0575266666667","6500200","三重區"
"241008","059-VK","2019/09/13 19:39:28","新北市三重區永福街135巷15號","121.478121666667","25.0769816666667","6500200","三重區"
"241031","061-VK","2019/09/13 19:39:44","新北市三重區重新路四段101號","121.4858","25.0544366666667","6500200","三重區"
"241015","062-VK","2019/09/13 19:39:35","新北市三重區福德北路52號","121.50176","25.0656383333333","6500200","三重區"
"241017","063-VK","2019/09/13 19:39:34","新北市三重區重陽路三段5巷30號","121.491425","25.0654233333333","6500200","三重區"
"241007","066-VK","2019/09/13 19:39:38","新北市三重區仁美街62號","121.486411666667","25.078275","6500200","三重區"
"241006","262-UM","2019/09/13 19:39:37","新北市三重區三和路四段160巷86號","121.485558333333","25.0747733333333","6500200","三重區"
"241009","267-UM","2019/09/13 19:39:44","新北市三重區三和路四段400巷28號","121.480158333333","25.0791416666667","6500200","三重區"
"241018","268-UM","2019/09/13 19:39:39","新北市三重區雙園街57巷34弄48號","121.493265","25.0680183333333","6500200","三重區"
"241032","269-UM","2019/09/13 19:39:42","新北市三重區重陽路一段60巷73號","121.484321666667","25.0583116666667","6500200","三重區"
"241013","270-UM","2019/09/13 19:39:35","新北市三重區仁賢街7號","121.49587","25.0746183333333","6500200","三重區"
"241025","271-UM","2019/09/13 19:39:32","新北市三重區忠孝路三段56-1號","121.480508333333","25.065365","6500200","三重區"
"241035","KEA-2210","2019/09/13 19:39:45","新北市三重區正義北路61-3號","121.49766","25.0645766666667","6500200","三重區"
"241030","KED-0822","2019/09/13 19:39:46","新北市三重區新興路32號","121.491948333333","25.0533166666667","6500200","三重區"
"241026","480-VK","2019/09/13 19:39:30","新北市三重區文化南路67號","121.500206666667","25.060935","6500200","三重區"
"241014","543-UM","2019/09/13 19:39:32","新北市三重區河邊北街80號","121.504231666667","25.0688483333333","6500200","三重區"
"241023","545-UM","2019/09/13 19:39:37","新北市三重區忠孝路三段125-1號","121.479926666667","25.0635483333333","6500200","三重區"
"241001","547-UM","2019/09/13 19:39:42","新北市三重區仁愛街315巷21號","121.493581666667","25.0797966666667","6500200","三重區"
"241019","KEA-2593","2019/09/13 19:39:41","新北市三重區六張街194巷1弄5號","121.488325","25.0682366666667","6500200","三重區"
"241012","941-UM","2019/09/13 19:39:35","新北市三重區仁義街8號","121.499846666667","25.0757066666667","6500200","三重區"
"241029","942-UM","2019/09/13 19:39:25","新北市三重區重安街94號","121.492456666667","25.05638","6500200","三重區"
"235066","003-UY","2019/09/13 19:39:25","新北市中和區景新街162號","121.50569","24.9972133333333","6500300","中和區"
"235056","096-UM","2019/09/13 19:39:46","新北市中和區中山路三段114巷46號","121.475771666667","25.00744","6500300","中和區"
"235039","097-UM","2019/09/13 19:39:36","新北市中和區景平路133號","121.514793333333","24.9920583333333","6500300","中和區"
"235065","098-UM","2019/09/13 19:39:33","新北市中和區福祥路126號","121.498925","25.00672","6500300","中和區"
"235040","150-BY","2019/09/13 19:39:44","新北市中和區安平路64號","121.510661666667","24.9962083333333","6500300","中和區"
"235058","151-BY","2019/09/13 19:39:35","新北市中和區員山路150巷2弄22號","121.48167","24.9975933333333","6500300","中和區"
"235055","183-VK","2019/09/13 19:39:44","新北市中和區中山路三段181巷18弄37號","121.472621666667","25.0049916666667","6500300","中和區"
"235038","185-VK","2019/09/13 19:39:37","新北市中和區自立路141巷3號","121.522433333333","24.9935433333333","6500300","中和區"
"235049","186-VK","2019/09/13 19:39:33","新北市中和區中正路14號","121.502836666667","24.9936483333333","6500300","中和區"
"235067","255-BX","2019/09/13 19:39:38","新北市中和區員山路148巷23弄7號","121.48224","24.9976316666667","6500300","中和區"
"235044","293-VK","2019/09/13 19:39:29","新北市中和區南山路417號","121.507338333333","24.9895583333333","6500300","中和區"
"235072","301-VK","2019/09/13 19:39:40","新北市中和區連城路281巷2弄13號","121.49024","24.995745","6500300","中和區"
"235043","352-BY","2019/09/13 19:39:41","新北市中和區華新街230號","121.506041666667","24.9816583333333","6500300","中和區"
"235042","KEA-2878","2019/09/13 19:39:36","新北市中和區景安路79巷3號","121.506825","24.997345","6500300","中和區"
"235070","558-UM","2019/09/13 19:39:36","新北市中和區圓通路123號","121.499235","24.9961183333333","6500300","中和區"
"235045","565-BX","2019/09/13 19:39:33","新北市中和區景平路171號","121.512226666667","24.99246","6500300","中和區"
"235054","640-BX","2019/09/13 19:39:34","新北市中和區莒光路11號","121.472003333333","25.0057266666667","6500300","中和區"
"235060","647-TV","2019/09/13 19:39:41","新北市中和區民樂路47號","121.483433333333","25.0015583333333","6500300","中和區"
"235047","732-UM","2019/09/13 19:39:38","新北市中和區捷運路6號","121.510073333333","24.9894733333333","6500300","中和區"
"235046","733-UM","2019/09/13 19:39:29","新北市中和區景新街496巷22號","121.51327","24.986195","6500300","中和區"
"235071","783-BX","2019/09/13 19:39:28","新北市中和區中正路866-2號","121.484288333333","25.0060533333333","6500300","中和區"
"235057","801-TS","2019/09/13 19:39:38","新北市中和區中正路810號","121.485013333333","25.0030316666667","6500300","中和區"
"235041","802-TS","2019/09/13 19:39:35","新北市中和區中安街40巷2號","121.512741666667","25.0029216666667","6500300","中和區"
"235052","805-TS","2019/09/13 19:39:29","新北市中和區華新街208號","121.506543333333","24.981995","6500300","中和區"
"235048","896-TW","2019/09/13 19:39:29","新北市中和區興南路二段49號","121.507226666667","24.9854116666667","6500300","中和區"
"235053","900-TW","2019/09/13 19:39:32","新北市中和區國光街189巷22號","121.467661666667","25.0009066666667","6500300","中和區"
"235051","157-BY","2019/09/13 19:39:29","新北市中和區中興街132巷26號","121.498831666667","24.991685","6500300","中和區"
"235037","AAC-213","2019/09/13 19:39:25","新北市中和區秀朗路三段142號","121.524363333333","24.9913966666667","6500300","中和區"
"235059","AAC-215","2019/09/13 19:39:45","新北市中和區圓通路262號","121.493193333333","24.9909083333333","6500300","中和區"
"220065","072-UY","2019/09/13 19:39:43","新北市板橋區國泰街111巷9號","121.465745","25.0061266666667","6500100","板橋區"
"220086","073-UY","2019/09/13 19:39:46","新北市板橋區中正路236巷35號","121.45741","25.0193366666667","6500100","板橋區"
"220106","075-UY","2019/09/13 19:39:37","新北市板橋區民治街57巷22號","121.480091666667","25.0338316666667","6500100","板橋區"
"220069","AAD-861","2019/09/13 19:39:40","新北市板橋區南雅南路二段96號","121.453606666667","25.0012883333333","6500100","板橋區"
"220068","120-SR","2019/09/13 19:39:28","新北市板橋區中山路二段412巷9號","121.483311666667","25.0205583333333","6500100","板橋區"
"247004","336-TH","2019/09/13 19:39:44","新北市蘆洲區中原路5巷19號","121.46186","25.0830466666667","6501400","蘆洲區"
"226004","312-R5","2019/09/13 19:39:40","新北市平溪區十分里十分街129號","121.777005","25.0434033333333","6502400","平溪區"
"228003","097-TW","2019/09/13 19:39:28","新北市貢寮區真理里美艷山街49-2號","121.923033333333","25.0697466666667","6502600","貢寮區"
"228001","670-TC","2019/09/13 19:39:43","新北市貢寮區真理里大澳街5號","121.924805","25.0557566666667","6502600","貢寮區"
"224010","AGQ-8101","2019/09/13 19:39:46","新北市瑞芳區基山街139號","121.843941666667","25.1083666666667","6501200","瑞芳區"
"224002","639-TC","2019/09/13 19:39:30","新北市瑞芳區三爪子坑路32巷124號","121.80922","25.10659","6501200","瑞芳區"
"224009","275-VK","2019/09/13 19:39:38","新北市瑞芳區靜安路四段92號","121.79314","25.1101416666667","6501200","瑞芳區"
"224005","271-BY","2019/09/13 19:38:50","新北市瑞芳區瑞濱路185號","121.818263333333","25.11366","6501200","瑞芳區"
"227001","642-TC","2019/09/13 19:39:43","新北市雙溪區新基里新基北街23號","121.867298333333","25.03926","6502500","雙溪區"
"227002","400-TW","2019/09/13 19:39:28","新北市雙溪區雙溪里光復街5號","121.865468333333","25.035745","6502500","雙溪區"
"222001","KEA-2212","2019/09/13 19:39:27","新北市深坑區深坑街152號","121.612918333333","25.00142","6501800","深坑區"
"208002","KEA-2872","2019/09/13 19:39:32","新北市金山區三民街34號","121.634851666667","25.2236066666667","6502700","金山區"
"208003","665-BX","2019/09/13 19:39:30","新北市金山區中正路78號","121.633906666667","25.22188","6502700","金山區"
"251008","181-VK","2019/09/13 19:39:38","新北市淡水區中正路一段33號","121.425931666667","25.1766866666667","6501000","淡水區"
"251010","413-VK","2019/09/13 19:39:35","新北市淡水區崁頂三路135號","121.431433333333","25.20097","6501000","淡水區"
"251007","442-VK","2019/09/13 19:39:39","新北市淡水區中正東路一段111巷25號","121.455245","25.16079","6501000","淡水區"
"251005","443-VK","2019/09/13 19:39:33","新北市淡水區原德路108巷2號","121.443375","25.1735833333333","6501000","淡水區"
"251001","559-UM","2019/09/13 19:39:43","新北市淡水區民權路3號","121.459745","25.1422916666667","6501000","淡水區"
"251006","561-UM","2019/09/13 19:39:46","新北市淡水區中山北路一段207巷54號","121.442291666667","25.179175","6501000","淡水區"
"251009","575-R6","2019/09/13 19:39:34","新北市淡水區中山北路一段186巷10號","121.445396666667","25.1788483333333","6501000","淡水區"
"251011","650-BX","2019/09/13 19:39:40","新北市淡水區中正東路二段143巷2弄1號","121.46064","25.1471383333333","6501000","淡水區"
"251002","672-BX","2019/09/13 19:39:44","新北市淡水區崁頂142號","121.431055","25.2056716666667","6501000","淡水區"
"207003","550-UM","2019/09/13 19:39:38","新北市萬里區大鵬里萬里加投289-4號","121.645736666667","25.2186716666667","6502800","萬里區"
"207004","291-VK","2019/09/13 19:39:44","新北市萬里區萬里里瑪鋉路33號","121.687511666667","25.1756333333333","6502800","萬里區"
"252002","178-VK","2019/09/13 19:39:39","新北市三芝區中正路一段36巷25號","121.50411","25.2588033333333","6502100","三芝區"
"252001","292-VK","2019/09/13 19:39:28","新北市三芝區長安街89號","121.499736666667","25.2574383333333","6502100","三芝區"
"208001","170-UY","2019/09/13 19:39:38","新北市金山區重和里六股林口5-1號","121.609026666667","25.2222266666667","6502700","金山區"
"237004","KEA-2597","2019/09/13 19:39:47","新北市三峽區插角67-5號","121.405971666667","24.87117","6500900","三峽區"
"237007","153-BY","2019/09/13 19:39:41","新北市三峽區二鬮路136巷24弄21號","121.356171666667","24.91058","6500900","三峽區"
"237009","210-TH","2019/09/13 19:39:45","新北市三峽區中園街64號","121.368056666667","24.9255333333333","6500900","三峽區"
"237013","252-BX","2019/09/13 19:39:45","新北市三峽區橫溪路15號","121.39618","24.9359433333333","6500900","三峽區"
"237012","275-BY","2019/09/13 19:39:45","新北市三峽區中正路一段24號","121.375948333333","24.9310183333333","6500900","三峽區"
"237008","302-VK","2019/09/13 19:39:31","新北市三峽區大同路172號","121.372653333333","24.9267566666667","6500900","三峽區"
"237014","433-BY","2019/09/13 19:39:32","新北市三峽區嘉添97號","121.37022","24.9095133333333","6500900","三峽區"
"237006","5529-G3","2019/09/13 19:39:38","新北市三峽區中正路一段330-10號","121.369835","24.92459","6500900","三峽區"
"237011","KEA-2596","2019/09/13 19:39:29","新北市三峽區中正路一段474-4號","121.370371666667","24.9212016666667","6500900","三峽區"
"237015","649-BX","2019/09/13 19:39:30","新北市三峽區成福路203巷1號","121.422488333333","24.9291766666667","6500900","三峽區"
"237010","706-TV","2019/09/13 19:39:31","新北市三峽區復興路77號","121.372678333333","24.9375","6500900","三峽區"
"237005","AKY-6261","2019/09/13 19:39:27","新北市三峽區中山路107巷10號","121.36532","24.9355633333333","6500900","三峽區"
"236042","KED-0685","2019/09/13 19:39:36","新北市土城區裕民路259號","121.454828333333","24.9827216666667","6501300","土城區"
"236030","253-BX","2019/09/13 19:39:38","新北市土城區員福街18巷3號","121.441671666667","24.9791533333333","6501300","土城區"
"236039","271-VK","2019/09/13 19:39:43","新北市土城區清水路98巷3弄47號","121.458673333333","24.98094","6501300","土城區"
"236069","KEA-2877","2019/09/13 19:39:10","新北市土城區學府路2段185巷37-1號","121.447321666667","24.9772916666667","6501300","土城區"
"236020","752-BX","2019/09/13 19:39:40","新北市土城區峰廷街3號","121.469025","24.9873233333333","6501300","土城區"
"236059","912-UM","2019/09/13 19:39:31","新北市土城區中央路二段78號","121.442493333333","24.9790533333333","6501300","土城區"
"236048","913-UM","2019/09/13 19:39:46","新北市土城區明德路一段109號","121.465545","24.9817783333333","6501300","土城區"
"236063","915-UM","2019/09/13 19:39:36","新北市土城區延平街69巷4號","121.467458333333","24.99284","6501300","土城區"
"236055","AAC-216","2019/09/13 19:39:42","新北市土城區延和路20號","121.464521666667","24.9883116666667","6501300","土城區"
"242005","751-BX","2019/09/13 19:39:49","新北市新莊區化成路29巷28號","121.464001666667","25.0439616666667","6500500","新莊區"
"242023","353-BY","2019/09/13 19:39:46","新北市新莊區復興路三段115號","121.464306666667","25.0445333333333","6500500","新莊區"
"242032","175-VK","2019/09/13 19:39:36","新北市新莊區新泰路213巷54號","121.444956666667","25.03847","6500500","新莊區"
"242039","176-VK","2019/09/13 19:39:33","新北市新莊區建國二路108號","121.430863333333","25.02717","6500500","新莊區"
"238015","755-BX","2019/09/13 19:39:44","新北市樹林區中興街20-4號","121.420833333333","24.9901366666667","6500700","樹林區"
"238023","601-UM","2019/09/13 19:39:37","新北市樹林區三寶街14號","121.406346666667","25.0153933333333","6500700","樹林區"
"238019","599-UM","2019/09/13 19:39:34","新北市樹林區東榮街8號","121.41818","24.983785","6500700","樹林區"
"238024","5061-A6","2019/09/13 19:39:27","新北市樹林區中山路三段155巷14弄1號","121.396105","24.9725583333333","6500700","樹林區"
"238022","KEA-2213","2019/09/13 19:39:47","新北市樹林區名園街78巷1號","121.419903333333","24.977655","6500700","樹林區"
"238021","KEA-2539","2019/09/13 19:39:37","新北市樹林區佳園路三段101巷38弄6號","121.391255","24.9503783333333","6500700","樹林區"
"238025","303-VK","2019/09/13 19:39:40","新北市樹林區中山路一段86號","121.423401666667","24.9914016666667","6500700","樹林區"
"238017","283-BY","2019/09/13 19:39:34","新北市樹林區光興街63巷8號","121.410771666667","25.0020866666667","6500700","樹林區"
"238014","282-BY","2019/09/13 19:39:28","新北市樹林區千歲街24-1號","121.42539","24.9960083333333","6500700","樹林區"
"238020","268-VK","2019/09/13 19:39:41","新北市樹林區中正路243號","121.43012","24.9984716666667","6500700","樹林區"
"238026","172-UY","2019/09/13 19:39:47","新北市樹林區佳園路二段39號","121.391696666667","24.9627816666667","6500700","樹林區"
"238016","169-UY","2019/09/13 19:39:32","新北市樹林區中山路二段118號","121.413603333333","24.9831166666667","6500700","樹林區"
"239007","AAC-297","2019/09/13 19:39:32","新北市鶯歌區大湖路340號","121.346083333333","24.9712616666667","6500800","鶯歌區"
"239006","891-R6","2019/09/13 19:39:33","新北市鶯歌區建國路512巷18號","121.340256666667","24.9511216666667","6500800","鶯歌區"
"239001","417-VK","2019/09/13 19:39:31","新北市鶯歌區建國路608號","121.340525","24.95282","6500800","鶯歌區"
"239002","359-BY","2019/09/13 19:39:37","新北市鶯歌區湖山路64巷5號","121.339888333333","24.9767883333333","6500800","鶯歌區"
"239004","193-VK","2019/09/13 19:39:40","新北市鶯歌區二甲路55-10號","121.336276666667","24.93235","6500800","鶯歌區"
"221008","489-VK","2019/09/13 19:39:34","新北市汐止區康寧街145號","121.621883333333","25.0666116666667","6501100","汐止區"
"221010","269-BY","2019/09/13 19:39:44","新北市汐止區連峰街5巷1號","121.646376666667","25.0767","6501100","汐止區"
"221027","281-BY","2019/09/13 19:39:41","新北市汐止區忠孝東路9號","121.658268333333","25.0659783333333","6501100","汐止區"
"221021","299-VK","2019/09/13 19:39:44","新北市汐止區新興路85巷4號","121.658135","25.0612916666667","6501100","汐止區"
"221025","623-UM","2019/09/13 19:39:44","新北市汐止區福安街20巷1號","121.662616666667","25.065015","6501100","汐止區"
"221038","646-BX","2019/09/13 19:39:47","新北市汐止區忠孝東路247號","121.662946666667","25.067565","6501100","汐止區"
"221033","647-BX","2019/09/13 19:39:33","新北市汐止區南勢街3號","121.627168333333","25.0375483333333","6501100","汐止區"
"220079","145-BY","2019/09/13 19:39:33","新北市板橋區民權路243號","121.457316666667","25.0156783333333","6500100","板橋區"
"220080","200-UY","2019/09/13 19:39:41","新北市板橋區大觀路二段153巷46弄4號","121.448876666667","24.9995016666667","6500100","板橋區"
"220082","610-BX","2019/09/13 19:39:39","新北市板橋區大觀路三段223號","121.43104","24.9926933333333","6500100","板橋區"
"220091","267-BY","2019/09/13 19:39:39","新北市板橋區懷德街139巷8號","121.479465","25.0304733333333","6500100","板橋區"
"220056","276-BY","2019/09/13 19:39:47","新北市板橋區信義路1巷26弄45號","121.459623333333","24.996745","6500100","板橋區"
"220072","277-BY","2019/09/13 19:39:44","新北市板橋區金門街215號","121.432556666667","24.9899866666667","6500100","板橋區"
"220101","280-UM","2019/09/13 19:39:44","新北市板橋區縣民大道三段103巷12號","121.475891666667","25.0229583333333","6500100","板橋區"
"220094","283-UM","2019/09/13 19:39:35","新北市板橋區長江路二段165號","121.466431666667","25.031915","6500100","板橋區"
"220053","285-VK","2019/09/13 19:39:37","新北市板橋區民享街27號","121.475403333333","25.0146916666667","6500100","板橋區"
"220083","286-VK","2019/09/13 19:39:38","新北市板橋區龍興街71巷21號","121.442868333333","25.0021866666667","6500100","板橋區"
"220081","287-VK","2019/09/13 19:39:42","新北市板橋區大觀路一段75巷16號","121.447736666667","25.004375","6500100","板橋區"
"220061","293-UM","2019/09/13 19:39:28","新北市板橋區中山路一段265巷45號","121.469331666667","25.0157633333333","6500100","板橋區"
"220062","295-UM","2019/09/13 19:39:31","新北市板橋區三民路二段81巷27弄31號","121.481343333333","25.017675","6500100","板橋區"
"220084","296-UM","2019/09/13 19:39:44","新北市板橋區板林路176號","121.424741666667","24.9879933333333","6500100","板橋區"
"220067","299-UM","2019/09/13 19:39:32","新北市板橋區長安街251巷30號","121.47215","25.0110933333333","6500100","板橋區"
"220075","303-R5","2019/09/13 19:39:45","新北市板橋區大勇街77號","121.452866666667","25.0165916666667","6500100","板橋區"
"220092","307-R5","2019/09/13 19:39:45","新北市板橋區四維路259巷57號","121.4612","25.0270466666667","6500100","板橋區"
"220098","317-R6","2019/09/13 19:39:34","新北市板橋區四維路295號","121.463281666667","25.0283566666667","6500100","板橋區"
"220089","487-VK","2019/09/13 19:39:31","新北市板橋區互助街90號","121.46027","25.026255","6500100","板橋區"
"220088","491-VK","2019/09/13 19:39:45","新北市板橋區文聖街42號","121.476435","25.0313033333333","6500100","板橋區"
"220035","560-BX","2019/09/13 19:39:32","新北市板橋區中正路413巷2弄2號","121.453913333333","25.0226433333333","6500100","板橋區"
"220103","561-BX","2019/09/13 19:39:31","新北市板橋區自由路26巷17號","121.466373333333","25.0225433333333","6500100","板橋區"
"220071","568-UM","2019/09/13 19:39:27","新北市板橋區四川路一段387號","121.457965","24.9991416666667","6500100","板橋區"
"220063","609-BX","2019/09/13 19:39:33","新北市板橋區中山路二段326號","121.480993333333","25.01965","6500100","板橋區"
"220057","686-BX","2019/09/13 19:39:39","新北市板橋區德興街16號","121.453401666667","24.9943383333333","6500100","板橋區"
"220077","687-BX","2019/09/13 19:39:38","新北市板橋區僑中二街82號","121.446513333333","25.00961","6500100","板橋區"
"220054","741-BX","2019/09/13 19:39:34","新北市板橋區四川路一段265號","121.459541666667","25.0021216666667","6500100","板橋區"
"220102","KEA-2699","2019/09/13 19:39:43","新北市板橋區仁化街45號","121.47509","25.03182","6500100","板橋區"
"220055","827-TW","2019/09/13 19:39:42","新北市板橋區國慶路149巷6號","121.461236666667","24.9969283333333","6500100","板橋區"
"220090","831-TW","2019/09/13 19:39:30","新北市板橋區龍泉街72巷6號","121.456345","25.0262933333333","6500100","板橋區"
"220074","895-R6","2019/09/13 19:39:40","新北市板橋區福德街24號","121.456008333333","25.0085983333333","6500100","板橋區"
"220073","985-R7","2019/09/13 19:39:43","新北市板橋區國光路49巷17號","121.458991666667","25.0187866666667","6500100","板橋區"
"220097","AAC-210","2019/09/13 19:39:37","新北市板橋區文化路一段31號","121.4602","25.012905","6500100","板橋區"
"220064","AAC-253","2019/09/13 19:39:47","新北市板橋區館前東路132號","121.464015","25.007735","6500100","板橋區"
"235068","KEA-2873","2019/09/13 19:39:39","新北市中和區福祥路38號","121.499455","25.00383","6500300","中和區"
"235061","KEA-2875","2019/09/13 19:39:43","新北市中和區員山路325-2號","121.481228333333","25.00068","6500300","中和區"
"235026","KEA-2876","2019/09/13 19:39:34","新北市中和區員山路36巷16-3號","121.484951666667","24.9915083333333","6500300","中和區"
