"lineid","car","time","location","longitude","latitude","cityid","cityname"
"241029","942-UM","2019/09/13 22:19:45","新北市五股區四維路2號","121.467455","25.0697283333333","6500200","三重區"
"251004","009-UM","2019/09/13 22:19:35","新北市淡水區民族路33號","121.46233","25.1357833333333","6501000","淡水區"
"251008","181-VK","2019/09/13 22:19:38","新北市淡水區學府路104號","121.44982","25.171745","6501000","淡水區"
"251010","413-VK","2019/09/13 22:19:35","新北市淡水區沙崙路200號","121.424671666667","25.183885","6501000","淡水區"
"251007","442-VK","2019/09/13 22:19:39","新北市淡水區北新路180號","121.449503333333","25.1786583333333","6501000","淡水區"
"251011","650-BX","2019/09/13 22:19:40","新北市淡水區水碓街7號","121.443173333333","25.1771","6501000","淡水區"
