"lineid","car","time","location","longitude","latitude","cityid","cityname"
"234044","148-BY","2019/08/17 13:19:58","新北市永和區得和路324號","121.523188333333","24.999575","6500400","永和區"
"234078","298-R6","2019/08/17 13:20:04","新北市永和區福和路7巷7號","121.525303333333","25.0078866666667","6500400","永和區"
"234036","336-UY","2019/08/17 13:19:48","新北市永和區民樂街70號","121.527406666667","24.9983933333333","6500400","永和區"
"234062","337-UY","2019/08/17 13:19:50","新北市永和區永元路17巷25弄2號","121.521525","25.0014033333333","6500400","永和區"
"234084","338-UY","2019/08/17 13:19:55","新北市永和區永利路69號","121.519493333333","25.0049583333333","6500400","永和區"
"234068","552-UM","2019/08/17 13:19:53","新北市永和區豫溪街45號","121.516941666667","25.0098916666667","6500400","永和區"
"234015","745-BX","2019/08/17 13:19:45","新北市永和區文化路144巷27號","121.512448333333","25.0167433333333","6500400","永和區"
"234028","746-BX","2019/08/17 13:19:53","新北市永和區厚德街89號","121.523968333333","24.9987283333333","6500400","永和區"
"234052","KEA-2590","2019/08/17 13:20:03","新北市永和區中興街27號","121.51607","25.0119116666667","6500400","永和區"
"234005","KED-0605","2019/08/17 13:19:55","新北市中和區中山路二段23號","121.504875","25.0053133333333","6500400","永和區"
"234012","KEA-2591","2019/08/17 13:19:47","新北市永和區信義路39號","121.513336666667","25.0123316666667","6500400","永和區"
"234060","AAD-866","2019/08/17 13:20:06","新北市永和區秀朗路一段175號","121.51709","25.0036266666667","6500400","永和區"
"234040","862-TW","2019/08/17 13:20:00","新北市永和區保平路151巷2弄2號","121.510013333333","25.0055966666667","6500400","永和區"
"234048","863-TW","2019/08/17 13:19:57","新北市永和區信義路77號","121.512376666667","25.013155","6500400","永和區"
"234025","9371-KE","2019/08/17 13:19:44","新北市永和區豫溪街28巷12號","121.515181666667","25.0093966666667","6500400","永和區"
"234010","9373-KE","2019/08/17 13:19:49","新北市永和區文化路144巷33號","121.512636666667","25.0168033333333","6500400","永和區"
"248017","KED-0813","2019/08/17 13:19:44","新北市五股區御史路138-1號","121.433198333333","25.0988383333333","6501500","五股區"
"234022","9380-KE","2019/08/17 13:20:03","新北市永和區竹林路111號","121.519801666667","25.011825","6500400","永和區"
"234076","969-R7","2019/08/17 13:19:47","新北市永和區民有街100號","121.517618333333","24.9958433333333","6500400","永和區"
"234072","AAC-211","2019/08/17 13:19:58","新北市永和區竹林路46號","121.517726666667","25.0142566666667","6500400","永和區"
"234066","AAC-212","2019/08/17 13:19:58","新北市永和區保平路50巷8弄1號","121.511018333333","25.007615","6500400","永和區"
"234001","AAC-295","2019/08/17 13:19:58","新北市永和區保福路一段71號","121.512213333333","25.0101916666667","6500400","永和區"
"244005","248-BX","2019/08/17 13:19:59","新北市林口區南勢里90-3號","121.345663333333","25.0776116666667","6501700","林口區"
"231024","0291-UT","2019/08/17 13:19:54","新北市新店區安康路一段92-1號","121.527803333333","24.9620083333333","6500600","新店區"
"231005","046-UY","2019/08/17 13:19:51","新北市新店區安華路28-1號","121.519335","24.960565","6500600","新店區"
"231030","047-UY","2019/08/17 13:19:59","新北市新店區安一路一段1-1號","121.519076666667","24.9610116666667","6500600","新店區"
"231029","106-UY","2019/08/17 13:19:51","新北市新店區安華路28-1號","121.519723333333","24.9607883333333","6500600","新店區"
"231018","107-UY","2019/08/17 13:20:03","新北市新店區環河路180-3號","121.535421666667","24.9692816666667","6500600","新店區"
"231036","110-UY","2019/08/17 13:19:43","新北市新店區建業路20號","121.482335","24.952625","6500600","新店區"
"231033","256-BX","2019/08/17 13:19:48","新北市新店區安華路1-1號","121.519608333333","24.9600683333333","6500600","新店區"
"231023","260-TV","2019/08/17 13:19:46","新北市新店區安一路一段1-1號","121.519081666667","24.9612816666667","6500600","新店區"
"231003","268-BY","2019/08/17 13:19:47","新北市新店區安康路一段147號","121.52761","24.9621333333333","6500600","新店區"
"231035","278-BY","2019/08/17 13:19:59","新北市新店區安一路一段1-1號","121.519771666667","24.961255","6500600","新店區"
"231017","AAD-862","2019/08/17 13:19:54","新北市新店區安華路28-1號","121.519708333333","24.9608133333333","6500600","新店區"
"231006","355-BY","2019/08/17 13:19:59","新北市新店區安華路28-1號","121.51906","24.96079","6500600","新店區"
"231038","3712-VJ","2019/08/17 13:19:57","新北市新店區安華路28-1號","121.51911","24.960655","6500600","新店區"
"231027","3713-VJ","2019/08/17 13:19:49","新北市新店區安一路一段1-1號","121.519751666667","24.9615666666667","6500600","新店區"
"231025","4715-K9","2019/08/17 13:19:56","新北市新店區中央五街42-1號","121.528328333333","24.9750666666667","6500600","新店區"
"231020","513-UM","2019/08/17 13:19:57","新北市新店區安康路一段147號","121.527591666667","24.962175","6500600","新店區"
"231034","616-UM","2019/08/17 13:19:50","新北市新店區安華路1-1號","121.51943","24.9605233333333","6500600","新店區"
"231002","619-UM","2019/08/17 13:19:49","新北市新店區安一路一段1-1號","121.519291666667","24.961245","6500600","新店區"
"231012","KED-0819","2019/08/17 13:19:55","新北市新店區安一路一段1-1號","121.519735","24.9610833333333","6500600","新店區"
"231010","719-UM","2019/08/17 13:20:04","新北市新店區安康路一段94-3號","121.527575","24.9622033333333","6500600","新店區"
"231026","720-UM","2019/08/17 13:20:02","新北市新店區安一路一段1-1號","121.519171666667","24.961135","6500600","新店區"
"231028","897-TW","2019/08/17 13:19:57","新北市新店區安華路28-1號","121.519605","24.960645","6500600","新店區"
"231001","898-TW","2019/08/17 13:19:59","新北市新店區安華路28-1號","121.519381666667","24.9608583333333","6500600","新店區"
"231037","AKT-0513","2019/08/17 13:20:01","新北市新店區安華路1-1號","121.519321666667","24.9603483333333","6500600","新店區"
"235030","003-UY","2019/08/17 13:20:01","新北市中和區中山路二段119號","121.50287","25.0036483333333","6500300","中和區"
"235028","005-UY","2019/08/17 13:19:48","新北市中和區圓通路141巷35弄1號","121.498971666667","24.9951483333333","6500300","中和區"
"235027","006-UY","2019/08/17 13:20:02","新北市中和區中正路547號","121.4873","24.9940933333333","6500300","中和區"
"235020","096-UM","2019/08/17 13:19:52","新北市中和區連城路467-5號","121.483585","24.9960483333333","6500300","中和區"
"235003","097-UM","2019/08/17 13:19:55","新北市中和區安平路59號","121.509661666667","24.9949433333333","6500300","中和區"
"235029","098-UM","2019/08/17 13:19:51","新北市中和區莊敬路49巷20弄20號","121.502681666667","25.0057483333333","6500300","中和區"
"235022","151-BY","2019/08/17 13:19:50","新北市中和區圓通路369巷36-2號","121.490653333333","24.9843983333333","6500300","中和區"
"235019","183-VK","2019/08/17 13:20:06","新北市中和區莒光路203-3號","121.471498333333","24.9976733333333","6500300","中和區"
"235013","186-VK","2019/08/17 13:19:57","新北市中和區錦和路350-1號","121.490676666667","24.993555","6500300","中和區"
"235031","255-BX","2019/08/17 13:20:01","新北市中和區中正路797號","121.484806666667","25.0004966666667","6500300","中和區"
"235036","301-VK","2019/08/17 13:19:48","新北市中和區連城路297號","121.490133333333","24.9962733333333","6500300","中和區"
"235007","352-BY","2019/08/17 13:19:47","新北市中和區景平路381號","121.5038","24.99343","6500300","中和區"
"235006","KEA-2878","2019/08/17 13:19:56","新北市中和區大仁街20巷25弄34號","121.519786666667","24.9936583333333","6500300","中和區"
"235014","4979-A6","2019/08/17 13:19:49","新北市中和區捷運路61巷9號","121.509263333333","24.989355","6500300","中和區"
"235033","4980-A6","2019/08/17 13:19:58","新北市中和區圓通路172號","121.497253333333","24.9946733333333","6500300","中和區"
"235034","558-UM","2019/08/17 13:19:54","新北市中和區景平路429-2號","121.501353333333","24.99552","6500300","中和區"
"235009","565-BX","2019/08/17 13:19:48","新北市中和區復興路43號","121.504956666667","24.9899266666667","6500300","中和區"
"235024","KED-0823","2019/08/17 13:20:06","新北市中和區員山路315號","121.481191666667","25.0004316666667","6500300","中和區"
"235018","640-BX","2019/08/17 13:19:49","新北市中和區民享街89巷2弄1號","121.47475","25.00161","6500300","中和區"
"235010","733-UM","2019/08/17 13:19:48","新北市中和區中正路637巷52弄1號","121.485573333333","24.99356","6500300","中和區"
"235035","783-BX","2019/08/17 13:19:51","新北市中和區中板路18巷1弄1號","121.483821666667","25.012355","6500300","中和區"
"235073","800-TS","2019/08/17 13:19:50","新北市中和區中山路二段312巷49號","121.495065","25.0044116666667","6500300","中和區"
"235021","801-TS","2019/08/17 13:19:50","新北市中和區民享街97巷12號","121.475248333333","24.9996066666667","6500300","中和區"
"235016","805-TS","2019/08/17 13:19:59","新北市中和區興南路二段96號","121.505198333333","24.9841716666667","6500300","中和區"
"235017","900-TW","2019/08/17 13:20:03","新北市中和區員山路36巷16-2號","121.485321666667","24.9915133333333","6500300","中和區"
"235015","157-BY","2019/08/17 13:19:57","新北市中和區忠孝街29號","121.510496666667","24.9829766666667","6500300","中和區"
"235001","AAC-213","2019/08/17 13:20:00","新北市中和區景德街72號","121.516776666667","24.991515","6500300","中和區"
"235023","AAC-215","2019/08/17 13:19:53","新北市中和區員山路36巷16-3號","121.484838333333","24.9910283333333","6500300","中和區"
"220013","072-UY","2019/08/17 13:19:54","新北市板橋區華東街1-10號","121.448713333333","24.994885","6500100","板橋區"
"247009","337-TH","2019/08/17 13:19:55","新北市五股區中興路三段163號","121.4491","25.0809766666667","6501400","蘆洲區"
"247011","056-VK","2019/08/17 13:19:53","新北市五股區中興路三段2巷10號","121.44925","25.0810483333333","6501400","蘆洲區"
"235005","251-BX","2019/08/17 13:19:59","新北市永和區中和路385號","121.50859","25.00006","6500300","中和區"
"228005","097-TW","2019/08/17 13:19:55","新北市貢寮區美豐里丹裡街38號","121.909018333333","25.060005","6502600","貢寮區"
"228004","212-TW","2019/08/17 13:20:02","新北市貢寮區吉林里內寮街35號","121.899715","24.9807366666667","6502600","貢寮區"
"253003","6232-TK","2019/08/17 13:20:03","新北市石門區石崩山19號","121.566286666667","25.2661233333333","6502200","石門區"
"253004","6251-TK","2019/08/17 13:19:57","新北市石門區竹子湖1號","121.614446666667","25.26568","6502200","石門區"
"253002","637-UY","2019/08/17 13:19:47","新北市石門區大溪墘9-6號","121.552293333333","25.2756766666667","6502200","石門區"
"253001","KEC-0718","2019/08/17 13:19:59","新北市石門區八甲1-9號","121.521108333333","25.2838533333333","6502200","石門區"
"207002","749-BX","2019/08/17 13:20:01","新北市萬里區崁腳里內崁路8號","121.640903333333","25.159585","6502800","萬里區"
"207001","662-BX","2019/08/17 13:19:49","新北市萬里區龜吼里玉田路55-2號","121.680881666667","25.1934866666667","6502800","萬里區"
"252005","AAC-283","2019/08/17 13:20:00","新北市三芝區福德里土地公埔67-3號","121.519905","25.2277733333333","6502100","三芝區"
"221029","298-VK","2019/08/17 13:20:05","新北市汐止區南陽街120巷13號","121.623808333333","25.0602733333333","6501100","汐止區"
"220022","895-R6","2019/08/17 13:20:03","新北市板橋區華東街1-10號","121.448215","24.994995","6500100","板橋區"
"235032","KEA-2873","2019/08/17 13:19:50","新北市中和區錦和路350-1號","121.490505","24.993545","6500300","中和區"
"235025","KEA-2875","2019/08/17 13:20:06","新北市中和區民治街27巷2號","121.475505","25.00101","6500300","中和區"
"235002","KEA-2876","2019/08/17 13:19:41","新北市中和區大智街42巷9號","121.522431666667","24.9920466666667","6500300","中和區"
