"lineid","car","time","location","longitude","latitude","cityid","cityname"
"248017","KED-0813","2019/08/17 15:10:04","新北市五股區登林路118-1號","121.417548333333","25.0745666666667","6501500","五股區"
"231024","0291-UT","2019/08/17 15:09:54","新北市新店區中華路42巷14號","121.540461666667","24.9686266666667","6500600","新店區"
"231005","046-UY","2019/08/17 15:09:51","新北市新店區北新路三段50號","121.542225","24.97991","6500600","新店區"
"231030","047-UY","2019/08/17 15:09:58","新北市新店區安民街339號","121.51686","24.9748366666667","6500600","新店區"
"231029","106-UY","2019/08/17 15:09:51","新北市新店區錦秀路31號","121.479275","24.94398","6500600","新店區"
"231018","107-UY","2019/08/17 15:10:03","新北市新店區中央七街97號","121.526293333333","24.97735","6500600","新店區"
"231013","108-UY","2019/08/17 15:09:57","新北市新店區華潭街6號","121.529766666667","24.9518633333333","6500600","新店區"
"231036","110-UY","2019/08/17 15:09:43","新北市新店區安祥路104巷11弄2號","121.481251666667","24.9634516666667","6500600","新店區"
"231039","187-VK","2019/08/17 15:09:52","新北市新店區寶安街4巷1號","121.542246666667","24.9810133333333","6500600","新店區"
"231033","256-BX","2019/08/17 15:09:48","新北市新店區安泰路100號","121.486993333333","24.9412666666667","6500600","新店區"
"231023","260-TV","2019/08/17 15:10:06","新北市新店區檳榔路111號","121.544626666667","24.9615416666667","6500600","新店區"
"231003","268-BY","2019/08/17 15:09:46","新北市新店區寶橋路230號","121.551405","24.9788666666667","6500600","新店區"
"231035","278-BY","2019/08/17 15:09:58","新北市新店區安和路三段112號","121.517125","24.9853866666667","6500600","新店區"
"231017","AAD-862","2019/08/17 15:09:54","新北市新店區銀河路66-4號","121.579418333333","24.9587966666667","6500600","新店區"
"231006","355-BY","2019/08/17 15:09:59","新北市新店區新坡一街52-2號","121.550315","24.9627133333333","6500600","新店區"
"231038","3712-VJ","2019/08/17 15:09:49","新北市新店區安華路28-1號","121.519691666667","24.9609916666667","6500600","新店區"
"231025","4715-K9","2019/08/17 15:09:56","新北市新店區中央路151號","121.52942","24.97234","6500600","新店區"
"231020","513-UM","2019/08/17 15:09:57","新北市新店區新烏路二段42-1號","121.546298333333","24.929215","6500600","新店區"
"231034","616-UM","2019/08/17 15:09:50","新北市新店區玫瑰路4-1號","121.493626666667","24.951375","6500600","新店區"
"231002","619-UM","2019/08/17 15:09:49","新北市新店區中正路543-4號","121.533656666667","24.9875016666667","6500600","新店區"
"231012","KED-0819","2019/08/17 15:09:55","新北市新店區寶元路一段65號","121.542225","24.9858616666667","6500600","新店區"
"231026","720-UM","2019/08/17 15:09:56","新北市新店區建國路70號","121.540576666667","24.9761316666667","6500600","新店區"
"231028","897-TW","2019/08/17 15:09:57","新北市新店區安豐路54號","121.499585","24.9544033333333","6500600","新店區"
"231001","898-TW","2019/08/17 15:09:59","新北市新店區中正路270號","121.539066666667","24.97375","6500600","新店區"
"231004","899-TW","2019/08/17 15:09:49","新北市新店區建國路6-1號","121.539908333333","24.9734533333333","6500600","新店區"
"231037","AKT-0513","2019/08/17 15:10:01","新北市新店區安興路81號","121.515445","24.9753866666667","6500600","新店區"
"241011","013-R5","2019/08/17 15:10:03","新北市三重區重新路四段121號","121.485221666667","25.0521783333333","6500200","三重區"
"241013","270-UM","2019/08/17 15:09:58","新北市三重區重新路四段121號","121.485015","25.0520083333333","6500200","三重區"
"235030","003-UY","2019/08/17 15:10:01","新北市中和區水源路120號","121.507053333333","25.0034216666667","6500300","中和區"
"235040","150-BY","2019/08/17 15:10:00","新北市中和區保健路10巷21弄27號","121.508481666667","24.99763","6500300","中和區"
"235014","4979-A6","2019/08/17 15:09:49","新北市中和區景新街270號","121.5107","24.9924433333333","6500300","中和區"
"235033","4980-A6","2019/08/17 15:09:57","新北市中和區景新街132巷6-3號","121.504808333333","24.9981666666667","6500300","中和區"
"235034","558-UM","2019/08/17 15:09:54","新北市中和區中正路440號","121.491075","24.9942933333333","6500300","中和區"
"235062","800-TS","2019/08/17 15:06:54","新北市中和區員山路36巷16-3號","121.484951666667","24.9914883333333","6500300","中和區"
"235012","896-TW","2019/08/17 15:10:05","新北市中和區興南路一段124號","121.509501666667","24.9885883333333","6500300","中和區"
"235015","157-BY","2019/08/17 15:09:57","新北市中和區景新街505-1號","121.514133333333","24.98696","6500300","中和區"
"235023","AAC-215","2019/08/17 15:09:53","新北市中和區圓通路367巷13弄29-9號","121.49321","24.98817","6500300","中和區"
"220003","015-TV","2019/08/17 15:09:58","新北市板橋區重慶路290巷22弄16號","121.4623","24.9995683333333","6500100","板橋區"
"220013","072-UY","2019/08/17 15:09:54","新北市板橋區長安街11號","121.466373333333","25.0086366666667","6500100","板橋區"
"220017","AAD-861","2019/08/17 15:09:54","新北市板橋區貴興路107號","121.45595","25.0025616666667","6500100","板橋區"
"247012","402-BY","2019/08/17 14:52:47","新北市蘆洲區光榮路120巷22弄16號","121.465226666667","25.087245","6501400","蘆洲區"
"247010","337-TH","2019/08/17 14:56:13","新北市五股區中興路三段163號","121.44935","25.0809","6501400","蘆洲區"
"228005","097-TW","2019/08/17 15:09:54","新北市貢寮區仁理村研海街20號","121.928465","25.037915","6502600","貢寮區"
"228004","212-TW","2019/08/17 15:10:02","新北市貢寮區雙玉里田寮洋街6號","121.926473333333","25.0227266666667","6502600","貢寮區"
"253004","6251-TK","2019/08/17 15:09:57","新北市石門區坪林6-1號","121.59185","25.27376","6502200","石門區"
"253002","637-UY","2019/08/17 15:10:07","新北市石門區老梅路24-8號","121.545681666667","25.28748","6502200","石門區"
"207002","749-BX","2019/08/17 15:10:01","新北市萬里區崁腳里內中福路87號","121.655645","25.16584","6502800","萬里區"
"207001","662-BX","2019/08/17 15:09:48","新北市萬里區雙興里麗水路3-2號","121.65332","25.18272","6502800","萬里區"
"236040","KED-0685","2019/08/17 15:09:49","新北市土城區學府路一段189巷11弄2號","121.452516666667","24.984445","6501300","土城區"
"236074","166-UM","2019/08/17 15:10:00","新北市土城區大暖坑11-3號","121.41913","24.9546866666667","6501300","土城區"
"236029","253-BX","2019/08/17 15:09:56","新北市土城區福祥街61號","121.440998333333","24.980325","6501300","土城區"
"236024","269-VK","2019/08/17 15:10:06","新北市土城區中央路二段242號","121.441955","24.9749983333333","6501300","土城區"
"236013","270-VK","2019/08/17 15:10:07","新北市土城區學府路一段23巷25弄32號","121.457278333333","24.98621","6501300","土城區"
"236032","271-VK","2019/08/17 15:09:48","新北市土城區國際路91號","121.467286666667","24.9758366666667","6501300","土城區"
"236068","KEA-2877","2019/08/17 15:09:50","新北市土城區學成路126號","121.449318333333","24.989545","6501300","土城區"
"236017","401-BY","2019/08/17 15:10:07","新北市土城區延峰街10號","121.468588333333","24.9865383333333","6501300","土城區"
"236057","912-UM","2019/08/17 15:10:04","新北市土城區千歲路13號","121.441103333333","24.9696816666667","6501300","土城區"
"236045","913-UM","2019/08/17 15:10:00","新北市土城區清水路239號","121.46144","24.9831416666667","6501300","土城區"
"236060","915-UM","2019/08/17 15:10:06","新北市土城區延平街69巷8號","121.467313333333","24.9928633333333","6501300","土城區"
"236054","AAC-216","2019/08/17 15:09:56","新北市土城區學府路一段230號","121.45198","24.9850133333333","6501300","土城區"
"220027","145-BY","2019/08/17 15:09:59","新北市板橋區建國街56號","121.458871666667","25.017","6500100","板橋區"
"220028","200-UY","2019/08/17 15:10:07","新北市板橋區大觀路二段175號","121.445","25.0001766666667","6500100","板橋區"
"220030","610-BX","2019/08/17 15:10:05","新北市板橋區大觀路三段201號","121.43178","24.9933516666667","6500100","板橋區"
"220050","245-BX","2019/08/17 15:10:00","新北市板橋區莊敬路75巷4號","121.47325","25.02671","6500100","板橋區"
"220040","267-BY","2019/08/17 15:09:57","新北市板橋區懷德街127巷26-3號","121.479695","25.03119","6500100","板橋區"
"220020","277-BY","2019/08/17 15:10:07","新北市板橋區金門街281號","121.431253333333","24.988075","6500100","板橋區"
"220031","286-VK","2019/08/17 15:09:57","新北市板橋區僑中二街92巷34號","121.444523333333","25.0091733333333","6500100","板橋區"
"220029","287-VK","2019/08/17 15:09:49","新北市板橋區僑中一街102巷7弄10號","121.44649","25.012945","6500100","板橋區"
"220023","303-R5","2019/08/17 15:09:59","新北市板橋區金華街10巷119號","121.459565","25.02058","6500100","板橋區"
"220010","305-R5","2019/08/17 15:09:49","新北市板橋區萬安街20巷4弄12-1號","121.485353333333","25.0228966666667","6500100","板橋區"
"220038","487-VK","2019/08/17 15:09:48","新北市板橋區四維路345號","121.462305","25.029805","6500100","板橋區"
"220037","491-VK","2019/08/17 15:10:02","新北市板橋區民治街92-1號","121.47916","25.0317016666667","6500100","板橋區"
"220025","687-BX","2019/08/17 15:10:03","新北市板橋區僑中一街124巷20弄1號","121.446188333333","25.014175","6500100","板橋區"
"220042","689-BX","2019/08/17 15:10:02","新北市板橋區長江路一段30號","121.458106666667","25.0288416666667","6500100","板橋區"
"220002","741-BX","2019/08/17 15:09:51","新北市板橋區忠孝路忠義巷9弄50號","121.465188333333","25.0046666666667","6500100","板橋區"
"220051","KEA-2699","2019/08/17 15:10:02","新北市板橋區莒光路79巷13-3號","121.472036666667","25.024715","6500100","板橋區"
"220022","895-R6","2019/08/17 15:10:03","新北市板橋區府後街1巷1號","121.459033333333","25.0106333333333","6500100","板橋區"
"220012","AAC-253","2019/08/17 15:09:57","新北市板橋區漢生東路193巷23-4號","121.470996666667","25.012195","6500100","板橋區"
