"lineid","car","time","location","longitude","latitude","cityid","cityname"
"249005","172-UM","2019/08/17 17:19:51","新北市五股區民義路二段130號","121.407541666667","25.1216","6502300","八里區"
"249001","173-UM","2019/08/17 17:19:48","新北市八里區中華路二段165巷3號","121.40765","25.1508566666667","6502300","八里區"
"249004","303-UY","2019/08/17 17:19:55","新北市八里區賢三街18號","121.418698333333","25.158905","6502300","八里區"
"249002","305-UY","2019/08/17 17:20:01","新北市八里區龍米路二段117巷3號","121.446756666667","25.1429683333333","6502300","八里區"
"249003","593-UM","2019/08/17 17:19:44","新北市八里區中山路二段472號","121.398706666667","25.1473183333333","6502300","八里區"
"244007","080-UY","2019/08/17 17:19:49","新北市林口區湖子18-3號","121.38565","25.0922516666667","6501700","林口區"
"244019","402-UM","2019/08/17 17:20:05","新北市林口區文化二路一段382號","121.37437","25.0767133333333","6501700","林口區"
"244013","KEA-2802","2019/08/17 17:19:57","新北市林口區粉寮69號","121.404805","25.0907966666667","6501700","林口區"
"244023","483-VK","2019/08/17 17:19:51","新北市林口區仁愛路一段635號","121.389166666667","25.0765666666667","6501700","林口區"
"244017","485-VK","2019/08/17 17:20:04","新北市林口區文化一路二段200號","121.382973333333","25.0808066666667","6501700","林口區"
"244009","656-BX","2019/08/17 17:19:48","新北市林口區中北一街17巷17號","121.385108333333","25.0872983333333","6501700","林口區"
"244011","657-BX","2019/08/17 17:20:01","新北市林口區仁愛路一段386巷2號","121.387916666667","25.0771816666667","6501700","林口區"
"244025","837-TS","2019/08/17 17:19:50","新北市林口區民族路67-1號","121.365708333333","25.0752883333333","6501700","林口區"
"244021","838-TS","2019/08/17 17:20:01","新北市林口區粉寮路二段46-1號","121.40366","25.0871316666667","6501700","林口區"
"231046","719-UM","2019/08/17 17:15:16","新北市新店區直潭六街64號","121.532226666667","24.9400183333333","6500600","新店區"
"241011","013-R5","2019/08/17 17:20:03","新北市三重區河邊北街100巷33號","121.502485","25.0701616666667","6500200","三重區"
"241028","022-UY","2019/08/17 17:19:47","新北市三重區中正南路96號","121.494341666667","25.0587816666667","6500200","三重區"
"241008","059-VK","2019/08/17 17:19:45","新北市三重區永福街72巷25號","121.479841666667","25.0765783333333","6500200","三重區"
"241015","062-VK","2019/08/17 17:19:50","新北市三重區長元街82-1號","121.501916666667","25.066295","6500200","三重區"
"241017","063-VK","2019/08/17 17:20:01","新北市三重區中正北路25巷6號","121.493261666667","25.0628766666667","6500200","三重區"
"241024","065-VK","2019/08/17 17:19:46","新北市三重區中正北路193巷1號","121.477273333333","25.069755","6500200","三重區"
"241002","090-VK","2019/08/17 17:19:47","新北市三重區自強路五段61號","121.49474","25.0817633333333","6500200","三重區"
"241003","091-VK","2019/08/17 17:19:48","新北市三重區富福街32號","121.490646666667","25.0837466666667","6500200","三重區"
"241030","742-BX","2019/08/17 17:20:03","新北市三重區集美街125號","121.490323333333","25.05302","6500200","三重區"
"241009","267-UM","2019/08/17 17:19:49","新北市三重區慈愛街1號","121.484576666667","25.0784016666667","6500200","三重區"
"241032","269-UM","2019/08/17 17:19:44","新北市三重區興華街144號","121.482873333333","25.05984","6500200","三重區"
"241013","270-UM","2019/08/17 17:19:58","新北市三重區仁愛街70號","121.495503333333","25.07318","6500200","三重區"
"241007","398-BY","2019/08/17 17:19:58","新北市三重區慈愛街9號","121.485045","25.0787166666667","6500200","三重區"
"241004","475-VK","2019/08/17 17:19:52","新北市三重區碧華街416號","121.492128333333","25.0852316666667","6500200","三重區"
"241020","478-VK","2019/08/17 17:19:44","新北市三重區自強路三段23號","121.48706","25.072395","6500200","三重區"
"241026","480-VK","2019/08/17 17:19:46","新北市三重區正義南路39號","121.49814","25.06091","6500200","三重區"
"241014","543-UM","2019/08/17 17:19:58","新北市三重區長壽街120巷8弄97-1號","121.499936666667","25.068505","6500200","三重區"
"241023","545-UM","2019/08/17 17:19:51","新北市三重區三民街152號","121.482373333333","25.065115","6500200","三重區"
"241001","547-UM","2019/08/17 17:19:55","新北市三重區仁愛街269巷10號","121.49348","25.0790966666667","6500200","三重區"
"241019","KEA-2593","2019/08/17 17:19:50","新北市三重區自強路二段74巷23-1號","121.487845","25.069805","6500200","三重區"
"241005","AAD-863","2019/08/17 17:19:52","新北市三重區永安北路二段5巷36號","121.482865","25.0813783333333","6500200","三重區"
"241022","KED-0820","2019/08/17 17:19:51","新北市三重區重陽路二段34巷2號","121.486761666667","25.06305","6500200","三重區"
"241016","887-TS","2019/08/17 17:19:56","新北市三重區大同北路54巷1號","121.494193333333","25.06356","6500200","三重區"
"241012","941-UM","2019/08/17 17:19:59","新北市三重區仁昌街112號","121.500361666667","25.075345","6500200","三重區"
"241033","AAC-255","2019/08/17 17:19:48","新北市三重區中興北街219號","121.469046666667","25.0584666666667","6500200","三重區"
"247014","KEA-2869","2019/08/17 17:19:48","新北市蘆洲區得勝街108號","121.471141666667","25.0829266666667","6501400","蘆洲區"
"247008","KED-0682","2019/08/17 17:19:57","新北市蘆洲區信義路34巷122-1號","121.475935","25.0768516666667","6501400","蘆洲區"
"235062","800-TS","2019/08/17 17:19:59","新北市中和區員山路36巷16-3號","121.485111666667","24.99134","6500300","中和區"
"247004","893-R6","2019/08/17 17:19:46","新北市蘆洲區中原路74號","121.458255","25.0819216666667","6501400","蘆洲區"
"247018","546-UM","2019/08/17 17:20:01","新北市蘆洲區民權路92號","121.474178333333","25.0878733333333","6501400","蘆洲區"
"247002","500-BY","2019/08/17 17:19:47","新北市蘆洲區永樂街38巷45弄6號","121.457973333333","25.090055","6501400","蘆洲區"
"247006","341-TH","2019/08/17 17:19:45","新北市蘆洲區長安街73巷9號","121.462371666667","25.079705","6501400","蘆洲區"
"247010","337-TH","2019/08/17 17:20:01","新北市蘆洲區中山一路120巷7弄26號","121.477268333333","25.08207","6501400","蘆洲區"
"247022","057-VK","2019/08/17 17:19:50","新北市蘆洲區三民路134號","121.470793333333","25.0876216666667","6501400","蘆洲區"
"247012","056-VK","2019/08/17 17:19:55","新北市蘆洲區信義路319巷10弄17號","121.47747","25.0864683333333","6501400","蘆洲區"
"247016","053-VK","2019/08/17 17:19:56","新北市蘆洲區正和街96巷52號","121.467423333333","25.0816333333333","6501400","蘆洲區"
"247020","007-UY","2019/08/17 17:19:55","新北市蘆洲區民族路436巷22號","121.472775","25.0930233333333","6501400","蘆洲區"
"247024","001-UY","2019/08/17 17:19:52","新北市蘆洲區長榮路394號","121.459641666667","25.0874883333333","6501400","蘆洲區"
"228003","097-TW","2019/08/17 17:19:54","新北市貢寮區福隆里興隆街24-1號","121.944355","25.01663","6502600","貢寮區"
"228001","212-TW","2019/08/17 17:19:42","新北市貢寮區仁理村尖山腳街18-3號","121.925498333333","25.0484116666667","6502600","貢寮區"
"228002","663-BX","2019/08/17 17:20:05","新北市貢寮區雙玉里下雙溪街24號","121.92252","25.0098633333333","6502600","貢寮區"
"224006","676-BX","2019/08/17 17:20:01","新北市瑞芳區傑魚坑路245巷4號","121.788451666667","25.1062733333333","6501200","瑞芳區"
"224009","275-VK","2019/08/17 17:19:56","新北市瑞芳區石崁巷49號","121.837645","25.1095183333333","6501200","瑞芳區"
"224008","273-VK","2019/08/17 17:20:00","新北市瑞芳區侯硐路48號","121.825723333333","25.08299","6501200","瑞芳區"
"224005","271-BY","2019/08/17 17:19:58","新北市瑞芳區鼻頭路247號","121.912893333333","25.1242233333333","6501200","瑞芳區"
"227002","642-TC","2019/08/17 17:19:48","新北市雙溪區雙溪里太平路50號","121.864586666667","25.0351416666667","6502500","雙溪區"
"251004","009-UM","2019/08/17 17:14:23","新北市淡水區中正東路二段88巷15號","121.459065","25.1505033333333","6501000","淡水區"
"251005","010-UM","2019/08/17 17:19:45","新北市淡水區鄧公路19號","121.451466666667","25.169935","6501000","淡水區"
"251010","012-UM","2019/08/17 17:19:42","新北市淡水區中正路一段22巷100號","121.42703","25.18635","6501000","淡水區"
"251015","KEA-2871","2019/08/17 17:20:02","新北市淡水區樹林口22號","121.477375","25.1698833333333","6501000","淡水區"
"251016","179-VK","2019/08/17 17:20:02","新北市淡水區鄒厝崙12-2號","121.46493","25.1902666666667","6501000","淡水區"
"251008","181-VK","2019/08/17 17:19:48","新北市淡水區大同路269號","121.467228333333","25.1422983333333","6501000","淡水區"
"251013","182-VK","2019/08/17 17:19:50","新北市淡水區大竹圍1-1號","121.470578333333","25.1960566666667","6501000","淡水區"
"251007","442-VK","2019/08/17 17:19:52","新北市淡水區民生路47-4號","121.462046666667","25.1380366666667","6501000","淡水區"
"251012","443-VK","2019/08/17 17:19:45","新北市淡水區中山北路一段158號","121.444198333333","25.1778683333333","6501000","淡水區"
"251006","561-UM","2019/08/17 17:19:57","新北市淡水區中山路192號","121.44172","25.1745766666667","6501000","淡水區"
"251009","575-R6","2019/08/17 17:19:45","新北市淡水區三民街21號","121.439038333333","25.1718883333333","6501000","淡水區"
"251014","577-R6","2019/08/17 17:18:31","新北市淡水區公埔子45號","121.464003333333","25.230145","6501000","淡水區"
"251011","650-BX","2019/08/17 17:19:56","新北市淡水區坪頂路86號","121.462088333333","25.16355","6501000","淡水區"
"251003","673-BX","2019/08/17 17:19:54","新北市淡水區中正路32巷2號","121.430761666667","25.1752583333333","6501000","淡水區"
"207003","550-UM","2019/08/17 17:20:02","新北市萬里區萬里里獅頭路23號","121.69338","25.1783916666667","6502800","萬里區"
"252002","178-VK","2019/08/17 17:19:55","新北市三芝區忠孝街1-14號","121.505503333333","25.2539466666667","6502100","三芝區"
"233002","762-BX","2019/08/17 17:20:00","新北市烏來區環山路63號","121.548758333333","24.862615","6502900","烏來區"
"252001","KED-0821","2019/08/17 17:19:43","新北市三芝區長安街119號","121.498013333333","25.2596266666667","6502100","三芝區"
"242039","AAC-296","2019/08/17 17:19:45","新北市新莊區新樹路223號","121.435435","25.0231833333333","6500500","新莊區"
"242061","986-R7","2019/08/17 17:19:51","新北市新莊區新泰路357巷3弄45號","121.44197","25.0401983333333","6500500","新莊區"
"242002","751-BX","2019/08/17 17:19:55","新北市新莊區新莊路771巷10號","121.442101666667","25.0318166666667","6500500","新莊區"
"242029","615-BX","2019/08/17 17:19:51","新北市新莊區幸福路848號","121.444395","25.0490866666667","6500500","新莊區"
"242027","613-BX","2019/08/17 17:19:53","新北市新莊區中港一街142號","121.446995","25.0450533333333","6500500","新莊區"
"242058","612-BX","2019/08/17 17:19:49","新北市新莊區新泰路255巷83號","121.442063333333","25.038905","6500500","新莊區"
"242046","566-BX","2019/08/17 17:19:52","新北市新莊區新泰路357巷3弄45號","121.44197","25.040135","6500500","新莊區"
"242051","497-BY","2019/08/17 17:20:00","新北市新莊區瓊林南路12-3號","121.43625","25.0188616666667","6500500","新莊區"
"242056","442-UM","2019/08/17 17:19:52","新北市新莊區新莊路763巷6號","121.442418333333","25.0323783333333","6500500","新莊區"
"242004","440-UM","2019/08/17 17:20:02","新北市新莊區中平路82巷21號","121.445888333333","25.0450716666667","6500500","新莊區"
"242042","415-TV","2019/08/17 17:19:47","新北市新莊區新樹路52-24號","121.436595","25.026995","6500500","新莊區"
"242011","413-TV","2019/08/17 17:19:58","新北市新莊區中港路350號","121.451863333333","25.0463966666667","6500500","新莊區"
"242048","400-BY","2019/08/17 17:19:57","新北市新莊區龍安路253號","121.419648333333","25.0201183333333","6500500","新莊區"
"242025","362-BY","2019/08/17 17:19:59","新北市新莊區中平路82巷18號","121.445536666667","25.0447866666667","6500500","新莊區"
"242023","353-BY","2019/08/17 17:20:01","新北市新莊區中平路84號","121.44484","25.0449016666667","6500500","新莊區"
"242013","132-UY","2019/08/17 17:19:52","新北市新莊區新泰路502巷1號","121.44319","25.0465433333333","6500500","新莊區"
"242036","135-UY","2019/08/17 17:19:45","新北市新莊區中正路491號","121.441006666667","25.0334066666667","6500500","新莊區"
"242053","172-VK","2019/08/17 17:19:44","新北市新莊區中環路一段287號","121.44185","25.0319466666667","6500500","新莊區"
"242015","173-VK","2019/08/17 17:19:52","新北市新莊區新泰路434號","121.443376666667","25.0444533333333","6500500","新莊區"
"242017","176-VK","2019/08/17 17:19:49","新北市新莊區新泰路502巷43號","121.44393","25.0464516666667","6500500","新莊區"
"242019","347-TH","2019/08/17 17:19:54","新北市新莊區新泰路279號","121.445665","25.0404816666667","6500500","新莊區"
"242034","348-TH","2019/08/17 17:19:49","新北市新莊區新樹路69-66號","121.442131666667","25.0294116666667","6500500","新莊區"
"242007","349-TH","2019/08/17 17:19:55","新北市新莊區中平路84號","121.444843333333","25.0448733333333","6500500","新莊區"
"242031","350-TH","2019/08/17 17:20:04","新北市新莊區新泰路417-2號","121.44323","25.04473","6500500","新莊區"
"238019","599-UM","2019/08/17 17:19:44","新北市樹林區八德街370號","121.407938333333","24.9695583333333","6500700","樹林區"
"238024","5061-A6","2019/08/17 17:19:56","新北市樹林區保安街一段48巷22號","121.42641","24.9950866666667","6500700","樹林區"
"238018","KEA-2217","2019/08/17 17:19:52","新北市樹林區樹中街63-1號","121.421201666667","24.98532","6500700","樹林區"
"238022","KEA-2213","2019/08/17 17:19:44","新北市樹林區仁愛街73巷1號","121.423525","24.9828016666667","6500700","樹林區"
"238021","KEA-2539","2019/08/17 17:19:47","新北市樹林區西圳街一段50號","121.401226666667","24.962075","6500700","樹林區"
"238025","303-VK","2019/08/17 17:20:04","新北市樹林區保安二街56號","121.424286666667","24.9952033333333","6500700","樹林區"
"238017","283-BY","2019/08/17 17:20:01","新北市樹林區光武街30巷2-4號","121.416735","25.00541","6500700","樹林區"
"238014","282-BY","2019/08/17 17:20:00","新北市樹林區長壽街70巷35弄9號","121.421363333333","24.9951983333333","6500700","樹林區"
"238020","268-VK","2019/08/17 17:19:49","新北市樹林區千歲街101-2號","121.428506666667","25.0008933333333","6500700","樹林區"
"238026","172-UY","2019/08/17 17:19:53","新北市樹林區東順街79巷2號","121.40957","24.9764183333333","6500700","樹林區"
"238016","169-UY","2019/08/17 17:19:56","新北市樹林區中山路一段241號","121.42064","24.9867366666667","6500700","樹林區"
"239007","AAC-297","2019/08/17 17:19:49","新北市鶯歌區光復街2-1號","121.351808333333","24.9549383333333","6500800","鶯歌區"
"239006","891-R6","2019/08/17 17:19:59","新北市鶯歌區德昌二街3巷1-1號","121.333235","24.9593016666667","6500800","鶯歌區"
"239008","527-UM","2019/08/17 17:19:45","新北市鶯歌區西湖街45巷17號","121.339815","24.9593383333333","6500800","鶯歌區"
"239005","526-UM","2019/08/17 17:19:58","新北市鶯歌區福德二街19號","121.329736666667","24.9671366666667","6500800","鶯歌區"
"239001","417-VK","2019/08/17 17:19:43","新北市鶯歌區尖山路185號","121.344393333333","24.9473033333333","6500800","鶯歌區"
"239003","360-BY","2019/08/17 17:19:49","新北市鶯歌區德昌二街70巷27弄2號","121.331616666667","24.957615","6500800","鶯歌區"
"239002","359-BY","2019/08/17 17:19:47","新北市鶯歌區建國路298號","121.345318333333","24.9527783333333","6500800","鶯歌區"
"239004","193-VK","2019/08/17 17:19:57","新北市鶯歌區文化路501號","121.353025","24.9486733333333","6500800","鶯歌區"
"233001","KEA-2870","2019/08/17 17:19:55","新北市烏來區野要街30-1號","121.5485","24.854365","6502900","烏來區"
"242044","281-VK","2019/08/17 17:19:59","新北市新莊區富國路130號","121.422556666667","25.0251616666667","6500500","新莊區"
"242009","280-VK","2019/08/17 17:19:58","新北市新莊區立信三街35巷7號","121.442416666667","25.050705","6500500","新莊區"
