"lineid","car","time","location","longitude","latitude","cityid","cityname"
"234046","148-BY","2019/08/17 18:29:47","新北市永和區豫溪街217巷7號","121.525095","25.0099666666667","6500400","永和區"
"234081","298-R6","2019/08/17 18:29:49","新北市永和區福和路1號","121.525695","25.0094816666667","6500400","永和區"
"234086","338-UY","2019/08/17 18:29:50","新北市永和區福和路1號","121.525753333333","25.00956","6500400","永和區"
"234007","KED-0605","2019/08/17 18:29:45","新北市永和區新生路2-7號","121.509361666667","25.01702","6500400","永和區"
"234026","9371-KE","2019/08/17 18:29:59","新北市永和區中山路一段68號","121.512605","25.0107733333333","6500400","永和區"
"234011","9373-KE","2019/08/17 18:29:59","新北市永和區保安路132號","121.50876","25.01531","6500400","永和區"
"249005","172-UM","2019/08/17 18:29:58","新北市八里區長坑口47-5號","121.389428333333","25.1340566666667","6502300","八里區"
"249001","173-UM","2019/08/17 18:29:48","新北市八里區龍米路一段156號","121.4528","25.12593","6502300","八里區"
"249004","303-UY","2019/08/17 18:29:55","新北市八里區忠孝路90號","121.425948333333","25.1604516666667","6502300","八里區"
"249002","305-UY","2019/08/17 18:29:52","新北市八里區龍形三街2號","121.45031","25.1318083333333","6502300","八里區"
"248014","025-BX","2019/08/17 18:29:51","新北市五股區成泰路一段118號","121.435375","25.07371","6501500","五股區"
"248016","026-BX","2019/08/17 18:29:49","新北市五股區凌雲路一段83巷22弄2號","121.450071666667","25.1006933333333","6501500","五股區"
"248008","KED-0815","2019/08/17 18:29:45","新北市五股區四維路185巷42弄3-1號","121.463408333333","25.07734","6501500","五股區"
"248020","KED-0813","2019/08/17 18:29:50","新北市五股區孝義路70-1號","121.45306","25.1134066666667","6501500","五股區"
"248012","247-BX","2019/08/17 18:29:45","新北市五股區御史路1巷1號","121.442158333333","25.090345","6501500","五股區"
"248010","272-BY","2019/08/17 18:30:00","新北市五股區明德路6號","121.433841666667","25.07131","6501500","五股區"
"248004","677-BX","2019/08/17 18:29:57","新北市五股區六合街3號","121.431998333333","25.088555","6501500","五股區"
"248002","678-BX","2019/08/17 18:29:53","新北市五股區西雲路116-6號","121.444728333333","25.0935766666667","6501500","五股區"
"232011","375-UM","2019/08/17 18:29:45","新北市坪林區坪雙路一段41號","121.711735","24.942435","6502000","坪林區"
"244007","080-UY","2019/08/17 18:29:49","新北市林口區中湖62號","121.384751666667","25.1008266666667","6501700","林口區"
"244019","402-UM","2019/08/17 18:29:45","新北市林口區忠孝路606號","121.376496666667","25.0681516666667","6501700","林口區"
"244013","KEA-2802","2019/08/17 18:29:57","新北市林口區文化一路二段40號","121.380576666667","25.077465","6501700","林口區"
"244023","483-VK","2019/08/17 18:29:50","新北市林口區仁愛路二段106巷11號","121.38327","25.07543","6501700","林口區"
"244017","485-VK","2019/08/17 18:29:51","新北市林口區文化二路一段2-1號","121.364191666667","25.0660083333333","6501700","林口區"
"244009","656-BX","2019/08/17 18:29:48","新北市林口區寶林路103號","121.383763333333","25.0851383333333","6501700","林口區"
"244011","657-BX","2019/08/17 18:30:01","新北市林口區中正路188號","121.391611666667","25.0775766666667","6501700","林口區"
"244025","837-TS","2019/08/17 18:29:50","新北市林口區南勢四街196巷17號","121.356855","25.0730266666667","6501700","林口區"
"244021","838-TS","2019/08/17 18:30:01","新北市林口區自強二街24號","121.398031666667","25.0779783333333","6501700","林口區"
"222003","436-BY","2019/08/17 18:30:05","新北市深坑區文山路一段28號","121.630533333333","25.0063783333333","6501800","深坑區"
"222002","659-BX","2019/08/17 18:30:01","新北市深坑區雲鄉路178號","121.622328333333","24.9982416666667","6501800","深坑區"
"231041","001-UM","2019/08/17 18:29:46","新北市新店區安一路一段1-1號","121.519661666667","24.96106","6500600","新店區"
"231055","0291-UT","2019/08/17 18:29:48","新北市新店區北新路二段27-3號","121.542563333333","24.9719733333333","6500600","新店區"
"231044","046-UY","2019/08/17 18:30:00","新北市新店區安華路28-1號","121.519393333333","24.960805","6500600","新店區"
"231061","047-UY","2019/08/17 18:29:45","新北市新店區安華路28-1號","121.519238333333","24.9609233333333","6500600","新店區"
"231060","106-UY","2019/08/17 18:29:54","新北市新店區安華路28-1號","121.51969","24.961025","6500600","新店區"
"231051","107-UY","2019/08/17 18:29:52","新北市新店區安一路一段1-1號","121.519381666667","24.9613466666667","6500600","新店區"
"221035","KEA-2785","2019/08/17 18:29:53","新北市汐止區大同路二段207號","121.652716666667","25.0645783333333","6501100","汐止區"
"231062","256-BX","2019/08/17 18:29:48","新北市新店區安一路一段1-1號","121.519643333333","24.9613633333333","6500600","新店區"
"231054","260-TV","2019/08/17 18:29:57","新北市新店區安一路一段1-1號","121.519183333333","24.9613333333333","6500600","新店區"
"231042","268-BY","2019/08/17 18:29:49","新北市新店區中正路71號","121.543533333333","24.9697533333333","6500600","新店區"
"231050","AAD-862","2019/08/17 18:30:02","新北市新店區安華路28-1號","121.519876666667","24.9610333333333","6500600","新店區"
"231045","355-BY","2019/08/17 18:30:01","新北市新店區安華路28-1號","121.518951666667","24.960755","6500600","新店區"
"231058","3713-VJ","2019/08/17 18:29:46","新北市新店區環河路19巷13號","121.537656666667","24.9604116666667","6500600","新店區"
"231056","4715-K9","2019/08/17 18:29:55","新北市新店區二十張路96號","121.536175","24.9797183333333","6500600","新店區"
"231052","513-UM","2019/08/17 18:29:54","新北市新店區新烏路一段18號","121.546528333333","24.95115","6500600","新店區"
"231063","616-UM","2019/08/17 18:29:58","新北市新店區安華路28-1號","121.519576666667","24.9606383333333","6500600","新店區"
"231048","KED-0819","2019/08/17 18:29:57","新北市新店區安一路一段1-1號","121.519886666667","24.96127","6500600","新店區"
"231057","720-UM","2019/08/17 18:29:49","新北市新店區安一路一段1-1號","121.51931","24.961415","6500600","新店區"
"231059","897-TW","2019/08/17 18:30:01","新北市新店區安華路28-1號","121.519568333333","24.9608166666667","6500600","新店區"
"231040","898-TW","2019/08/17 18:30:02","新北市新店區安華路28-1號","121.519561666667","24.9609833333333","6500600","新店區"
"231043","899-TW","2019/08/17 18:30:00","新北市新店區安華路28-1號","121.519123333333","24.960835","6500600","新店區"
"231066","AKT-0513","2019/08/17 18:29:53","新北市新店區安華路28-1號","121.51952","24.9605566666667","6500600","新店區"
"241011","013-R5","2019/08/17 18:29:43","新北市八里區中華路三段7巷5號","121.397333333333","25.143755","6500200","三重區"
"235066","003-UY","2019/08/17 18:29:51","新北市中和區中山路二段119號","121.502876666667","25.0036633333333","6500300","中和區"
"235064","005-UY","2019/08/17 18:29:56","新北市中和區連城路109巷28號","121.496953333333","24.9983566666667","6500300","中和區"
"235063","006-UY","2019/08/17 18:29:44","新北市中和區連城路246-4號","121.488206666667","24.9963383333333","6500300","中和區"
"235056","096-UM","2019/08/17 18:29:49","新北市中和區員山路611巷5弄3號","121.478011666667","25.0112516666667","6500300","中和區"
"235039","097-UM","2019/08/17 18:29:59","新北市中和區安平路202號","121.51345","24.9994916666667","6500300","中和區"
"235065","098-UM","2019/08/17 18:29:51","新北市中和區莊敬路49巷20弄18號","121.502518333333","25.0058583333333","6500300","中和區"
"235040","150-BY","2019/08/17 18:29:50","新北市中和區安平路59號","121.509545","24.9950433333333","6500300","中和區"
"235058","151-BY","2019/08/17 18:30:01","新北市中和區圓通路369巷30弄14號","121.489476666667","24.984865","6500300","中和區"
"235055","183-VK","2019/08/17 18:29:52","新北市中和區民生街28巷12號","121.469858333333","25.0059633333333","6500300","中和區"
"235049","186-VK","2019/08/17 18:29:54","新北市中和區景安路110號","121.50538","24.9953066666667","6500300","中和區"
"235031","255-BX","2019/08/17 18:29:50","新北市中和區新生街3號","121.483165","25.004655","6500300","中和區"
"235044","293-VK","2019/08/17 18:29:51","新北市中和區復興路301巷2弄1號","121.50151","24.989915","6500300","中和區"
"235072","301-VK","2019/08/17 18:29:56","新北市中和區連城路32號","121.498598333333","25.0020566666667","6500300","中和區"
"235043","352-BY","2019/08/17 18:29:48","新北市中和區景平路253號","121.508731666667","24.9929783333333","6500300","中和區"
"235042","KEA-2878","2019/08/17 18:29:57","新北市中和區自立路56巷11號","121.523016666667","24.9917266666667","6500300","中和區"
"235050","4979-A6","2019/08/17 18:29:59","新北市中和區景新街362巷5號","121.51201","24.99013","6500300","中和區"
"235069","4980-A6","2019/08/17 18:29:47","新北市中和區連城路127巷7-3號","121.49647","24.9987433333333","6500300","中和區"
"235070","558-UM","2019/08/17 18:29:58","新北市中和區景新街131號","121.505893333333","24.9973183333333","6500300","中和區"
"235045","565-BX","2019/08/17 18:29:57","新北市中和區南山路236-2號","121.506205","24.9893233333333","6500300","中和區"
"235060","KED-0823","2019/08/17 18:29:54","新北市中和區中山路三段1號","121.479965","25.0059033333333","6500300","中和區"
"235054","640-BX","2019/08/17 18:29:57","新北市中和區莒光路129巷2弄24號","121.473046666667","25.001185","6500300","中和區"
"235047","732-UM","2019/08/17 18:29:46","新北市中和區南山路507號","121.508013333333","24.9875816666667","6500300","中和區"
"235062","800-TS","2019/08/17 18:29:57","新北市中和區中山路二段312巷10弄1號","121.495638333333","25.0032166666667","6500300","中和區"
"235057","801-TS","2019/08/17 18:29:50","新北市中和區員山路327巷9號","121.480701666667","25.0014616666667","6500300","中和區"
"235052","805-TS","2019/08/17 18:29:46","新北市中和區興南路二段122號","121.504493333333","24.9837333333333","6500300","中和區"
"235048","896-TW","2019/08/17 18:29:53","新北市中和區中正路33號","121.502098333333","24.9933566666667","6500300","中和區"
"235053","900-TW","2019/08/17 18:29:47","新北市中和區民享街462號","121.469763333333","24.9923133333333","6500300","中和區"
"235051","157-BY","2019/08/17 18:29:56","新北市中和區興南路二段114巷16弄8號","121.503933333333","24.98487","6500300","中和區"
"235037","AAC-213","2019/08/17 18:29:59","新北市中和區景德街52號","121.517683333333","24.99152","6500300","中和區"
"220055","015-TV","2019/08/17 18:29:53","新北市板橋區四川路二段241號","121.450628333333","24.99372","6500100","板橋區"
"220065","072-UY","2019/08/17 18:29:58","新北市板橋區南雅南路二段1-1號","121.454816666667","25.0038466666667","6500100","板橋區"
"220069","AAD-861","2019/08/17 18:29:59","新北市板橋區南雅南路二段144巷60號","121.450315","24.9974133333333","6500100","板橋區"
"226004","312-R5","2019/08/17 18:29:56","新北市平溪區靜安路二段294巷6號","121.73542","25.02379","6502400","平溪區"
"235041","251-BX","2019/08/17 18:29:57","新北市中和區宜安路147號","121.509225","24.998695","6500300","中和區"
"228003","097-TW","2019/08/17 18:29:54","新北市貢寮區和美里和美街40-3號","121.913288333333","25.09081","6502600","貢寮區"
"228001","212-TW","2019/08/17 18:30:02","新北市貢寮區仁理村仁和路124號","121.922981666667","25.051205","6502600","貢寮區"
"228002","663-BX","2019/08/17 18:29:45","新北市貢寮區福連里福連街1號","121.988325","25.0174616666667","6502600","貢寮區"
"224010","AGQ-8101","2019/08/17 18:29:46","新北市瑞芳區烏勢巷117號","121.846311666667","25.108095","6501200","瑞芳區"
"224006","676-BX","2019/08/17 18:30:01","新北市瑞芳區明燈路三段34號","121.807873333333","25.1077483333333","6501200","瑞芳區"
"224002","639-TC","2019/08/17 18:29:44","新北市瑞芳區正貿新村15號","121.813561666667","25.1060033333333","6501200","瑞芳區"
"224007","285-BY","2019/08/17 18:30:00","新北市瑞芳區大埔路國宅新村30-1號","121.764698333333","25.1002216666667","6501200","瑞芳區"
"224009","275-VK","2019/08/17 18:29:56","新北市瑞芳區五號路308號","121.856778333333","25.1113333333333","6501200","瑞芳區"
"224008","273-VK","2019/08/17 18:30:00","新北市瑞芳區岳王路1巷28號","121.806351666667","25.1105116666667","6501200","瑞芳區"
"224005","271-BY","2019/08/17 18:29:58","新北市瑞芳區建基路二段7號","121.808085","25.1326033333333","6501200","瑞芳區"
"227002","642-TC","2019/08/17 18:29:53","新北市雙溪區魚行里坤溪21-1號","121.8703","25.0286","6502500","雙溪區"
"227001","400-TW","2019/08/17 18:29:55","新北市雙溪區牡丹里牡丹39號","121.852535","25.05841","6502500","雙溪區"
"253006","032-BX","2019/08/17 18:29:55","新北市石門區公地47-5號","121.545365","25.2899766666667","6502200","石門區"
"253005","295-VK","2019/08/17 18:29:57","新北市石門區老崩山6-2號","121.552471666667","25.2911833333333","6502200","石門區"
"222001","KEA-2212","2019/08/17 18:30:00","新北市深坑區北深路一段171號","121.633323333333","25.0108566666667","6501800","深坑區"
"208002","KEA-2872","2019/08/17 18:29:57","新北市金山區民生路69號","121.640123333333","25.2197566666667","6502700","金山區"
"208003","665-BX","2019/08/17 18:29:55","新北市金山區中山路192號","121.63784","25.22154","6502700","金山區"
"251004","009-UM","2019/08/17 18:29:44","新北市淡水區民族路31巷2號","121.46252","25.1364","6501000","淡水區"
"251005","010-UM","2019/08/17 18:29:45","新北市淡水區中山路18-1號","121.444486666667","25.169215","6501000","淡水區"
"251001","011-UM","2019/08/17 18:29:50","新北市淡水區自強路373號","121.464605","25.1333916666667","6501000","淡水區"
"251010","012-UM","2019/08/17 18:30:02","新北市淡水區沙崙路181巷1號","121.424098333333","25.18424","6501000","淡水區"
"251015","KEA-2871","2019/08/17 18:29:47","新北市淡水區興福寮88巷216號","121.486018333333","25.166635","6501000","淡水區"
"251016","179-VK","2019/08/17 18:30:02","新北市淡水區下圭柔山106號","121.443753333333","25.209255","6501000","淡水區"
"251008","181-VK","2019/08/17 18:29:48","新北市淡水區北投子87-2號","121.468123333333","25.1785283333333","6501000","淡水區"
"251013","182-VK","2019/08/17 18:29:51","新北市淡水區椿子林5-2號","121.48237","25.2051433333333","6501000","淡水區"
"251012","443-VK","2019/08/17 18:29:45","新北市淡水區北新路一段55號","121.455826666667","25.181655","6501000","淡水區"
"251006","561-UM","2019/08/17 18:29:56","新北市淡水區大信街38號","121.442298333333","25.1774283333333","6501000","淡水區"
"251014","577-R6","2019/08/17 18:29:51","新北市淡水區南平26-2號","121.493436666667","25.2148183333333","6501000","淡水區"
"251011","650-BX","2019/08/17 18:29:56","新北市淡水區淡金路33-11號","121.457146666667","25.1621316666667","6501000","淡水區"
"251002","672-BX","2019/08/17 18:29:53","新北市淡水區竿蓁二街65號","121.454903333333","25.1633483333333","6501000","淡水區"
"251003","673-BX","2019/08/17 18:29:54","新北市淡水區北新路169巷12號","121.449715","25.1802983333333","6501000","淡水區"
"207003","550-UM","2019/08/17 18:30:02","新北市萬里區野柳里港東路8-1號","121.686851666667","25.203475","6502800","萬里區"
"207004","291-VK","2019/08/17 18:29:51","新北市萬里區萬里里瑪鋉路12-4號","121.687763333333","25.1756416666667","6502800","萬里區"
"252002","178-VK","2019/08/17 18:29:55","新北市三芝區中山路二段39號","121.502865","25.2551066666667","6502100","三芝區"
"252003","249-BX","2019/08/17 18:29:57","新北市三芝區後厝里北勢子45-32號","121.469441666667","25.25089","6502100","三芝區"
"208001","170-UY","2019/08/17 18:29:53","新北市金山區文化二路6號","121.63681","25.2246233333333","6502700","金山區"
"237004","KEA-2597","2019/08/17 18:29:47","新北市三峽區五寮84-1號","121.365941666667","24.8639033333333","6500900","三峽區"
"237007","153-BY","2019/08/17 18:29:43","新北市三峽區中正路三段170巷34號","121.35264","24.9046383333333","6500900","三峽區"
"237009","210-TH","2019/08/17 18:29:45","新北市三峽區大同路243號","121.366821666667","24.9262066666667","6500900","三峽區"
"237013","252-BX","2019/08/17 18:29:58","新北市三峽區光明路69巷25號","121.376638333333","24.9291633333333","6500900","三峽區"
"237012","275-BY","2019/08/17 18:29:58","新北市三峽區三樹路214巷10號","121.379611666667","24.94203","6500900","三峽區"
"237008","302-VK","2019/08/17 18:29:47","新北市三峽區白雞68-225號","121.390716666667","24.9089333333333","6500900","三峽區"
"237014","433-BY","2019/08/17 18:29:46","新北市三峽區文化路105號","121.370615","24.936115","6500900","三峽區"
"237006","5529-G3","2019/08/17 18:29:59","新北市三峽區溪東路240號","121.408415","24.931685","6500900","三峽區"
"237011","KEA-2596","2019/08/17 18:29:58","新北市三峽區溪東路218巷24弄2號","121.406841666667","24.93045","6500900","三峽區"
"237015","649-BX","2019/08/17 18:23:51","新北市三峽區竹崙路52巷2號","121.431613333333","24.9203316666667","6500900","三峽區"
"237010","706-TV","2019/08/17 18:29:59","新北市三峽區中山路222-1號","121.362798333333","24.9372466666667","6500900","三峽區"
"237005","AKY-6261","2019/08/17 18:29:48","新北市三峽區秀川街61號","121.370383333333","24.933275","6500900","三峽區"
"236042","KED-0685","2019/08/17 18:29:59","新北市土城區裕民路67巷14號","121.44989","24.9880533333333","6501300","土城區"
"236079","166-UM","2019/08/17 18:30:00","新北市土城區中央路四段27巷3號","121.424488333333","24.962145","6501300","土城區"
"236030","253-BX","2019/08/17 18:29:43","新北市土城區福仁街50巷2號","121.439488333333","24.97525","6501300","土城區"
"236026","269-VK","2019/08/17 18:29:53","新北市土城區南天母路135巷14號","121.44819","24.954565","6501300","土城區"
"236014","270-VK","2019/08/17 18:29:57","新北市土城區青雲路39巷7號","121.460335","24.9874483333333","6501300","土城區"
"236038","271-VK","2019/08/17 18:29:51","新北市土城區青雲路449號","121.45881","24.9750316666667","6501300","土城區"
"236070","KEA-2877","2019/08/17 18:29:53","新北市土城區永豐路255巷32號","121.4756","24.9729016666667","6501300","土城區"
"252001","KED-0821","2019/08/17 18:30:03","新北市三芝區中興街二段24號","121.498831666667","25.2558483333333","6502100","三芝區"
"236021","401-BY","2019/08/17 18:29:59","新北市土城區永豐路202巷14號","121.466483333333","24.9833516666667","6501300","土城區"
"236059","912-UM","2019/08/17 18:29:48","新北市土城區中央路四段129號","121.41615","24.9575216666667","6501300","土城區"
"236049","913-UM","2019/08/17 18:30:01","新北市土城區青雲路449-1號","121.458785","24.9747116666667","6501300","土城區"
"236063","915-UM","2019/08/17 18:29:46","新北市土城區延壽路75巷23弄2號","121.468851666667","24.9918183333333","6501300","土城區"
"236055","AAC-216","2019/08/17 18:29:52","新北市土城區中華路一段245號","121.4411","24.981985","6501300","土城區"
"242061","986-R7","2019/08/17 18:29:51","新北市新莊區民安路188巷2弄1號","121.425151666667","25.023605","6500500","新莊區"
"242027","613-BX","2019/08/17 18:29:53","新北市泰山區磚雅厝6號","121.441818333333","25.0425066666667","6500500","新莊區"
"242058","612-BX","2019/08/17 18:30:02","新北市新莊區中正路895-50號","121.411966666667","25.0218283333333","6500500","新莊區"
"242046","566-BX","2019/08/17 18:29:52","新北市新莊區中正路803巷52號","121.421733333333","25.0276466666667","6500500","新莊區"
"242056","442-UM","2019/08/17 18:29:52","新北市新莊區瓊林路51-3號","121.445218333333","25.0276183333333","6500500","新莊區"
"242042","415-TV","2019/08/17 18:29:46","新北市新莊區中正路694巷126號","121.416308333333","25.0301516666667","6500500","新莊區"
"242011","413-TV","2019/08/17 18:29:57","新北市新莊區中港路615巷7號","121.450795","25.0533416666667","6500500","新莊區"
"242048","400-BY","2019/08/17 18:29:57","新北市新莊區民安路100號","121.423915","25.02594","6500500","新莊區"
"242025","362-BY","2019/08/17 18:29:59","新北市新莊區中原路656號","121.44322","25.054395","6500500","新莊區"
"242053","172-VK","2019/08/17 18:29:44","新北市新莊區樹新路120巷40號","121.430055","24.9960266666667","6500500","新莊區"
"242007","349-TH","2019/08/17 18:29:55","新北市新莊區中華路二段35號","121.453501666667","25.046365","6500500","新莊區"
"242031","350-TH","2019/08/17 18:30:04","新北市新莊區新泰路277巷7號","121.445381666667","25.0402583333333","6500500","新莊區"
"238015","755-BX","2019/08/17 18:29:47","新北市樹林區大安路526號","121.41355","24.9864466666667","6500700","樹林區"
"238023","601-UM","2019/08/17 18:29:57","新北市樹林區三福街114號","121.406431666667","25.0163566666667","6500700","樹林區"
"238024","5061-A6","2019/08/17 18:29:56","新北市樹林區中山路一段27-8號","121.424458333333","24.9930533333333","6500700","樹林區"
"238018","KEA-2217","2019/08/17 18:30:02","新北市樹林區樹新路89號","121.428046666667","24.9953","6500700","樹林區"
"238025","303-VK","2019/08/17 18:30:04","新北市樹林區大安路587號","121.411761666667","24.98345","6500700","樹林區"
"238017","283-BY","2019/08/17 18:30:01","新北市樹林區保安街二段333巷2號","121.412485","25.0074183333333","6500700","樹林區"
"238014","282-BY","2019/08/17 18:29:59","新北市樹林區大安路111巷25號","121.423183333333","24.99765","6500700","樹林區"
"238020","268-VK","2019/08/17 18:29:49","新北市樹林區中正路642巷19號","121.411415","25.0174983333333","6500700","樹林區"
"238026","172-UY","2019/08/17 18:29:59","新北市樹林區佳園路一段75巷40號","121.396013333333","24.97047","6500700","樹林區"
"239007","AAC-297","2019/08/17 18:29:49","新北市鶯歌區中正一路55號","121.352246666667","24.954055","6500800","鶯歌區"
"239006","891-R6","2019/08/17 18:29:59","新北市鶯歌區德昌街140巷30號","121.332306666667","24.9616383333333","6500800","鶯歌區"
"239008","527-UM","2019/08/17 18:29:45","新北市鶯歌區朝陽街1號","121.336278333333","24.9765816666667","6500800","鶯歌區"
"239005","526-UM","2019/08/17 18:29:18","新北市鶯歌區鶯桃路668巷48號","121.329273333333","24.9703733333333","6500800","鶯歌區"
"239001","417-VK","2019/08/17 18:29:43","新北市鶯歌區高職東街21號","121.340395","24.9413266666667","6500800","鶯歌區"
"239003","360-BY","2019/08/17 18:29:49","新北市鶯歌區福安街58號","121.335596666667","24.9652183333333","6500800","鶯歌區"
"239002","359-BY","2019/08/17 18:29:46","新北市鶯歌區國慶街49號","121.34983","24.955525","6500800","鶯歌區"
"239004","193-VK","2019/08/17 18:29:57","新北市鶯歌區尖山路212巷27號","121.343105","24.94782","6500800","鶯歌區"
"221036","130-UY","2019/08/17 18:29:46","新北市汐止區大同路三段143號","121.669371666667","25.0777416666667","6501100","汐止區"
"221015","131-UY","2019/08/17 18:25:03","新北市汐止區鄉長路二段90-1號","121.665791666667","25.0857366666667","6501100","汐止區"
"221010","269-BY","2019/08/17 18:29:52","新北市汐止區汐萬路35號","121.644441666667","25.0912366666667","6501100","汐止區"
"221012","278-VK","2019/08/17 18:29:49","新北市汐止區保長路35巷12號","121.672993333333","25.079815","6501100","汐止區"
"221023","279-VK","2019/08/17 18:29:41","新北市汐止區康寧街474巷7-2號","121.632243333333","25.067915","6501100","汐止區"
"221032","280-BY","2019/08/17 18:29:47","新北市汐止區民權街二段97巷4弄9號","121.618871666667","25.0470483333333","6501100","汐止區"
"221027","281-BY","2019/08/17 18:29:40","新北市汐止區和平街59號","121.661741666667","25.0706216666667","6501100","汐止區"
"221021","299-VK","2019/08/17 18:29:57","新北市汐止區新台五路一段150號","121.65345","25.062105","6501100","汐止區"
"221031","353-TW","2019/08/17 18:30:02","新北市汐止區光復街8巷16號","121.638391666667","25.057675","6501100","汐止區"
"221025","623-UM","2019/08/17 18:29:56","新北市汐止區仁愛路121巷1號","121.662791666667","25.06377","6501100","汐止區"
"221038","646-BX","2019/08/17 18:29:58","新北市汐止區忠孝東路303號","121.664193333333","25.0689783333333","6501100","汐止區"
"221033","647-BX","2019/08/17 18:29:54","新北市汐止區宜興街17號","121.621526666667","25.0417133333333","6501100","汐止區"
"221002","707-TV","2019/08/17 18:29:59","新北市汐止區福德一路212號","121.634453333333","25.065225","6501100","汐止區"
"221018","753-BX","2019/08/17 18:29:48","新北市汐止區茄苳路120巷3弄1號","121.667761666667","25.0699066666667","6501100","汐止區"
"220082","610-BX","2019/08/17 18:30:04","新北市板橋區華東街1-10號","121.448238333333","24.9949566666667","6500100","板橋區"
"220056","276-BY","2019/08/17 18:30:01","新北市板橋區華東街1-9號","121.448108333333","24.9949566666667","6500100","板橋區"
"220071","283-VK","2019/08/17 18:30:02","新北市板橋區華東街1-9號","121.448085","24.9948883333333","6500100","板橋區"
"220094","285-UM","2019/08/17 18:29:59","新北市板橋區民生路二段148號","121.471495","25.0200316666667","6500100","板橋區"
"220084","296-UM","2019/08/17 18:29:59","新北市板橋區華東街1-9號","121.448148333333","24.9949783333333","6500100","板橋區"
"242044","281-VK","2019/08/17 18:29:59","新北市新莊區中正路新旺巷38號","121.416328333333","25.0224533333333","6500500","新莊區"
"220035","630-UY","2019/08/17 18:30:01","新北市板橋區南雅西路一段110號","121.452536666667","25.0060566666667","6500100","板橋區"
"220057","686-BX","2019/08/17 18:30:03","新北市板橋區四川路二段130巷25弄10號","121.448865","24.9946533333333","6500100","板橋區"
"220074","895-R6","2019/08/17 18:29:54","新北市板橋區華東街1-10號","121.44822","24.9949883333333","6500100","板橋區"
"220073","985-R7","2019/08/17 18:29:56","新北市板橋區四川路二段239號","121.45071","24.993945","6500100","板橋區"
"235068","KEA-2873","2019/08/17 18:29:59","新北市中和區中正路196號","121.497171666667","24.993815","6500300","中和區"
"235061","KEA-2875","2019/08/17 18:29:43","新北市中和區民享街92號","121.474831666667","24.9999483333333","6500300","中和區"
"235038","KEA-2876","2019/08/17 18:29:40","新北市中和區秀朗路三段128巷17弄27號","121.523085","24.9934183333333","6500300","中和區"
