"lineid","car","time","location","longitude","latitude","cityid","cityname"
"234046","148-BY","2019/08/17 18:50:03","新北市永和區秀朗路二段136號","121.525093333333","25.0015283333333","6500400","永和區"
"234081","298-R6","2019/08/17 18:49:54","新北市永和區國中路96號","121.524323333333","25.00628","6500400","永和區"
"234038","336-UY","2019/08/17 18:50:00","新北市永和區成功路一段137號","121.526808333333","25.0016166666667","6500400","永和區"
"234064","337-UY","2019/08/17 18:49:53","新北市永和區福和路1號","121.52565","25.0093516666667","6500400","永和區"
"234086","338-UY","2019/08/17 18:50:03","新北市永和區中正路59號","121.514696666667","24.9964116666667","6500400","永和區"
"234070","552-UM","2019/08/17 18:49:44","新北市永和區竹林路115號","121.519858333333","25.0116533333333","6500400","永和區"
"234017","745-BX","2019/08/17 18:50:01","新北市永和區永和路二段299號","121.516066666667","25.0161516666667","6500400","永和區"
"234030","746-BX","2019/08/17 18:49:53","新北市永和區得和路321號","121.52335","24.9996166666667","6500400","永和區"
"234054","KEA-2590","2019/08/17 18:50:00","新北市永和區豫溪街169巷2-1號","121.521988333333","25.0104383333333","6500400","永和區"
"234007","KED-0605","2019/08/17 18:49:45","新北市永和區文化路34號","121.515021666667","25.015035","6500400","永和區"
"234013","KEA-2591","2019/08/17 18:49:49","新北市永和區保福路二段135號","121.509591666667","25.0138983333333","6500400","永和區"
"234061","AAD-866","2019/08/17 18:49:58","新北市永和區福和路307號","121.516278333333","25.00716","6500400","永和區"
"234042","862-TW","2019/08/17 18:49:48","新北市永和區永貞路271號","121.51167","25.00478","6500400","永和區"
"234050","863-TW","2019/08/17 18:49:51","新北市永和區福和路1號","121.52624","25.0097383333333","6500400","永和區"
"234026","9371-KE","2019/08/17 18:49:59","新北市永和區自由街58號","121.513885","25.006095","6500400","永和區"
"234011","9373-KE","2019/08/17 18:49:59","新北市永和區文化路90巷39號","121.512618333333","25.0167","6500400","永和區"
"249005","172-UM","2019/08/17 18:49:51","新北市八里區長道坑15號","121.395175","25.1186733333333","6502300","八里區"
"249001","173-UM","2019/08/17 18:49:48","新北市八里區龍米路二段121-3號","121.44712","25.1435583333333","6502300","八里區"
"248014","025-BX","2019/08/17 18:49:51","新北市五股區民義路一段107巷32號","121.432478333333","25.084625","6501500","五股區"
"248016","026-BX","2019/08/17 18:49:49","新北市五股區成泰路三段543巷60號","121.44943","25.10316","6501500","五股區"
"248006","077-UY","2019/08/17 18:49:54","新北市五股區中興路一段75號","121.46736","25.072675","6501500","五股區"
"248008","KED-0815","2019/08/17 18:49:45","新北市五股區中興路一段151巷1弄1號","121.465075","25.0732716666667","6501500","五股區"
"248020","KED-0813","2019/08/17 18:49:50","新北市五股區凌雲路三段82-3號","121.431303333333","25.118035","6501500","五股區"
"248012","247-BX","2019/08/17 18:49:45","新北市五股區成泰路二段147巷34-1號","121.437106666667","25.08845","6501500","五股區"
"248010","272-BY","2019/08/17 18:50:00","新北市五股區水碓五路81號","121.42994","25.0719166666667","6501500","五股區"
"248004","677-BX","2019/08/17 18:49:57","新北市五股區民義路二段68號","121.40577","25.107805","6501500","五股區"
"248002","678-BX","2019/08/17 18:49:53","新北市五股區成泰路三段454號","121.45143","25.100355","6501500","五股區"
"234023","9380-KE","2019/08/17 18:49:50","新北市永和區竹林路119巷45號","121.52196","25.011825","6500400","永和區"
"234077","969-R7","2019/08/17 18:50:05","新北市永和區中正路42巷6弄2號","121.51331","24.9941933333333","6500400","永和區"
"234003","AAC-295","2019/08/17 18:49:56","新北市永和區中正路736號","121.515335","25.0101783333333","6500400","永和區"
"232011","375-UM","2019/08/17 18:49:45","新北市坪林區坪碇路71號","121.711475","24.9375933333333","6502000","坪林區"
"244019","402-UM","2019/08/17 18:49:44","新北市林口區麗園二街38巷61號","121.380158333333","25.0682933333333","6501700","林口區"
"244013","KEA-2802","2019/08/17 18:49:57","新北市林口區麗園二街1巷7-3號","121.378218333333","25.0704","6501700","林口區"
"244023","483-VK","2019/08/17 18:49:50","新北市林口區文化三路二段238號","121.376361666667","25.082825","6501700","林口區"
"244017","485-VK","2019/08/17 18:49:44","新北市林口區文化二路一段20巷9號","121.365225","25.0671616666667","6501700","林口區"
"244009","656-BX","2019/08/17 18:49:48","新北市林口區竹林路442號","121.388386666667","25.085375","6501700","林口區"
"244011","657-BX","2019/08/17 18:50:01","新北市林口區粉寮路一段52號","121.39667","25.07712","6501700","林口區"
"244025","837-TS","2019/08/17 18:49:49","新北市林口區忠孝一路148號","121.360105","25.0738083333333","6501700","林口區"
"243010","297-R6","2019/08/17 18:50:03","新北市泰山區辭修路48號","121.428435","25.057435","6501600","泰山區"
"243014","KEA-2801","2019/08/17 18:49:51","新北市泰山區黎明路25號","121.422081666667","25.060775","6501600","泰山區"
"243011","KEA-2216","2019/08/17 18:49:51","新北市泰山區明志路二段232巷8號","121.426645","25.048455","6501600","泰山區"
"243015","680-BX","2019/08/17 18:49:53","新北市泰山區美寧街50號","121.430618333333","25.0644033333333","6501600","泰山區"
"222003","436-BY","2019/08/17 18:50:05","新北市深坑區深南路51-1號","121.621455","25.0102166666667","6501800","深坑區"
"222002","659-BX","2019/08/17 18:50:01","新北市深坑區文山路一段69號","121.626985","25.0019083333333","6501800","深坑區"
"231041","001-UM","2019/08/17 18:49:46","新北市新店區安一路一段1-1號","121.519621666667","24.96106","6500600","新店區"
"231055","0291-UT","2019/08/17 18:49:48","新北市新店區北新路一段271巷34號","121.539838333333","24.9671566666667","6500600","新店區"
"231044","046-UY","2019/08/17 18:50:00","新北市新店區中興路二段85號","121.547193333333","24.9711083333333","6500600","新店區"
"231061","047-UY","2019/08/17 18:49:45","新北市新店區安華路28-1號","121.519131666667","24.96096","6500600","新店區"
"231060","106-UY","2019/08/17 18:49:54","新北市新店區安華路28-1號","121.519905","24.961025","6500600","新店區"
"231051","107-UY","2019/08/17 18:49:52","新北市新店區中央路75號","121.532435","24.9767383333333","6500600","新店區"
"231049","108-UY","2019/08/17 18:49:51","新北市新店區中央路216號","121.529966666667","24.9734316666667","6500600","新店區"
"231065","110-UY","2019/08/17 18:49:56","新北市新店區安豐路22巷20號","121.503418333333","24.9545066666667","6500600","新店區"
"221035","KEA-2785","2019/08/17 18:49:53","新北市汐止區大同路二段268號","121.654678333333","25.0661066666667","6501100","汐止區"
"231062","256-BX","2019/08/17 18:49:48","新北市新店區安一路一段1-1號","121.519721666667","24.9611933333333","6500600","新店區"
"231054","260-TV","2019/08/17 18:49:57","新北市新店區安一路一段1-1號","121.519388333333","24.9612983333333","6500600","新店區"
"231042","268-BY","2019/08/17 18:49:49","新北市新店區中正路71號","121.543608333333","24.969745","6500600","新店區"
"231050","AAD-862","2019/08/17 18:50:02","新北市新店區安康路一段33-1號","121.532371666667","24.9604583333333","6500600","新店區"
"231045","355-BY","2019/08/17 18:50:01","新北市新店區安一路一段1-1號","121.51937","24.961075","6500600","新店區"
"231058","3713-VJ","2019/08/17 18:49:46","新北市新店區北宜路一段168號","121.540353333333","24.9529366666667","6500600","新店區"
"231056","4715-K9","2019/08/17 18:49:55","新北市新店區大同街8巷17號","121.539088333333","24.98069","6500600","新店區"
"231067","4772-VM","2019/08/17 18:49:47","新北市新店區安華路28-1號","121.519283333333","24.9606483333333","6500600","新店區"
"231052","513-UM","2019/08/17 18:49:54","新北市新店區新烏路一段105巷9-1號","121.546311666667","24.9409266666667","6500600","新店區"
"231063","616-UM","2019/08/17 18:49:58","新北市新店區安華路28-1號","121.519548333333","24.9605683333333","6500600","新店區"
"231048","KED-0819","2019/08/17 18:49:57","新北市新店區北新路一段159號","121.539838333333","24.96363","6500600","新店區"
"231046","719-UM","2019/08/17 18:49:56","新北市新店區直潭路75號","121.532218333333","24.9421383333333","6500600","新店區"
"231057","720-UM","2019/08/17 18:49:49","新北市新店區新烏路一段215號","121.549321666667","24.9313783333333","6500600","新店區"
"231059","897-TW","2019/08/17 18:50:01","新北市新店區安華路28-1號","121.519735","24.9608183333333","6500600","新店區"
"231040","898-TW","2019/08/17 18:50:01","新北市新店區安康路一段35號","121.531625","24.96077","6500600","新店區"
"231043","899-TW","2019/08/17 18:50:00","新北市新店區安康路一段355號","121.519773333333","24.96289","6500600","新店區"
"231066","AKT-0513","2019/08/17 18:49:53","新北市新店區安華路1-1號","121.51955","24.960455","6500600","新店區"
"241011","013-R5","2019/08/17 18:49:43","新北市三重區集賢路108號","121.49217","25.0900983333333","6500200","三重區"
"235066","003-UY","2019/08/17 18:49:51","新北市中和區水源路18巷4號","121.504006666667","25.0032016666667","6500300","中和區"
"235064","005-UY","2019/08/17 18:49:56","新北市中和區連城路47巷6號","121.498068333333","25.001475","6500300","中和區"
"235063","006-UY","2019/08/17 18:49:44","新北市中和區中正路466號","121.490066666667","24.9942833333333","6500300","中和區"
"235056","096-UM","2019/08/17 18:49:49","新北市中和區員山路466巷19號","121.480796666667","25.0066633333333","6500300","中和區"
"235039","097-UM","2019/08/17 18:49:59","新北市中和區安樂路217巷54號","121.512808333333","24.9976","6500300","中和區"
"235065","098-UM","2019/08/17 18:49:51","新北市中和區中山路二段2巷45弄36號","121.501451666667","25.0069283333333","6500300","中和區"
"235040","150-BY","2019/08/17 18:49:50","新北市中和區安平路36巷3號","121.510083333333","24.9947283333333","6500300","中和區"
"235058","151-BY","2019/08/17 18:50:01","新北市中和區連城路532巷34弄18號","121.47528","24.99278","6500300","中和區"
"235055","183-VK","2019/08/17 18:49:52","新北市中和區民德路25巷7弄1號","121.469481666667","25.0029533333333","6500300","中和區"
"235049","186-VK","2019/08/17 18:49:54","新北市中和區景新街210巷13號","121.507076666667","24.99466","6500300","中和區"
"235031","255-BX","2019/08/17 18:49:50","新北市中和區中正路839巷1號","121.484671666667","25.0022766666667","6500300","中和區"
"235044","293-VK","2019/08/17 18:49:51","新北市中和區中興街169號","121.499996666667","24.9904883333333","6500300","中和區"
"235072","301-VK","2019/08/17 18:49:56","新北市中和區中山路二段122號","121.502643333333","25.0036","6500300","中和區"
"235043","352-BY","2019/08/17 18:49:48","新北市中和區秀朗路三段93號","121.526431666667","24.9952333333333","6500300","中和區"
"235042","KEA-2878","2019/08/17 18:49:57","新北市中和區秀朗路三段70巷32號","121.52572","24.994525","6500300","中和區"
"235050","4979-A6","2019/08/17 18:49:59","新北市中和區景新街496巷30弄28號","121.512711666667","24.9856833333333","6500300","中和區"
"235069","4980-A6","2019/08/17 18:49:47","新北市中和區南山路52巷2號","121.501741666667","24.997475","6500300","中和區"
"235070","558-UM","2019/08/17 18:50:02","新北市中和區中和路194號","121.50507","24.99969","6500300","中和區"
"235045","565-BX","2019/08/17 18:49:57","新北市中和區景新街392-1號","121.512468333333","24.9897133333333","6500300","中和區"
"235060","KED-0823","2019/08/17 18:49:47","新北市中和區民治街24號","121.475166666667","25.004185","6500300","中和區"
"235054","640-BX","2019/08/17 18:49:57","新北市中和區民享街2巷1號","121.473865","25.0057283333333","6500300","中和區"
"235047","732-UM","2019/08/17 18:49:46","新北市中和區興南路二段34巷53號","121.505088333333","24.9864066666667","6500300","中和區"
"235046","733-UM","2019/08/17 18:49:59","新北市中和區興南路一段106號","121.509823333333","24.9888933333333","6500300","中和區"
"235062","800-TS","2019/08/17 18:49:57","新北市中和區中山路二段359巷2號","121.488268333333","25.0044316666667","6500300","中和區"
"235057","801-TS","2019/08/17 18:50:04","新北市中和區民利街56號","121.479061666667","24.998765","6500300","中和區"
"235052","805-TS","2019/08/17 18:49:46","新北市中和區興南路二段399巷98弄48號","121.498918333333","24.97674","6500300","中和區"
"235048","896-TW","2019/08/17 18:49:53","新北市中和區華新街28-1號","121.507768333333","24.9845633333333","6500300","中和區"
"235053","900-TW","2019/08/17 18:49:47","新北市中和區民德路290巷2號","121.46732","24.9957566666667","6500300","中和區"
"235051","157-BY","2019/08/17 18:49:56","新北市中和區忠孝街106巷31號","121.513276666667","24.9843466666667","6500300","中和區"
"235037","AAC-213","2019/08/17 18:49:59","新北市中和區秀朗路三段10巷16弄2號","121.52406","24.9962083333333","6500300","中和區"
"235059","AAC-215","2019/08/17 18:49:57","新北市中和區圓通路393巷26號","121.49009","24.9884733333333","6500300","中和區"
"220055","015-TV","2019/08/17 18:50:04","新北市板橋區忠孝路110-1號","121.462331666667","25.0021533333333","6500100","板橋區"
"220065","072-UY","2019/08/17 18:49:58","新北市板橋區民族路166號","121.464816666667","25.0085216666667","6500100","板橋區"
"220086","073-UY","2019/08/17 18:49:50","新北市板橋區南雅西路二段145巷4號","121.45165","25.01166","6500100","板橋區"
"220106","075-UY","2019/08/17 18:49:45","新北市板橋區莊敬路66號","121.471756666667","25.0253933333333","6500100","板橋區"
"220069","AAD-861","2019/08/17 18:50:02","新北市板橋區華興街90號","121.456775","25.0055283333333","6500100","板橋區"
"220068","120-SR","2019/08/17 18:49:48","新北市板橋區大同街35巷15號","121.477455","25.027755","6500100","板橋區"
"226004","312-R5","2019/08/17 18:49:56","新北市平溪區平溪里三坑路3號","121.737728333333","25.0281483333333","6502400","平溪區"
"235041","251-BX","2019/08/17 18:49:57","新北市中和區安平路147號","121.511988333333","24.9979366666667","6500300","中和區"
"228003","097-TW","2019/08/17 18:49:54","新北市貢寮區和美里龍洞街35-2號","121.916545","25.11176","6502600","貢寮區"
"228001","212-TW","2019/08/17 18:50:02","新北市貢寮區仁理村保健街73號","121.923663333333","25.0517266666667","6502600","貢寮區"
"228002","663-BX","2019/08/17 18:50:05","新北市貢寮區福隆里東興街6-11號","121.950748333333","25.021115","6502600","貢寮區"
"224010","AGQ-8101","2019/08/17 18:49:46","新北市瑞芳區基山街41-1號","121.845593333333","25.1089883333333","6501200","瑞芳區"
"224006","676-BX","2019/08/17 18:50:01","新北市瑞芳區中正路41號","121.807218333333","25.10721","6501200","瑞芳區"
"224002","639-TC","2019/08/17 18:50:04","新北市瑞芳區靜安路四段107號","121.793148333333","25.1096833333333","6501200","瑞芳區"
"224007","285-BY","2019/08/17 18:50:00","新北市瑞芳區大埔路東泰新村10號","121.761438333333","25.10131","6501200","瑞芳區"
"224009","275-VK","2019/08/17 18:49:56","新北市瑞芳區五號路314號","121.85775","25.111425","6501200","瑞芳區"
"224008","273-VK","2019/08/17 18:50:00","新北市瑞芳區裕民新城2號","121.801918333333","25.1119916666667","6501200","瑞芳區"
"224005","271-BY","2019/08/17 18:49:58","新北市瑞芳區永龍新村34號","121.818925","25.1194083333333","6501200","瑞芳區"
"227002","642-TC","2019/08/17 18:49:53","新北市雙溪區共和里中山路57號","121.867348333333","25.0318616666667","6502500","雙溪區"
"227001","400-TW","2019/08/17 18:49:55","新北市雙溪區牡丹里下坑11號","121.851003333333","25.0561766666667","6502500","雙溪區"
"253006","032-BX","2019/08/17 18:49:56","新北市石門區下員坑15-13號","121.511826666667","25.2847566666667","6502200","石門區"
"253005","295-VK","2019/08/17 18:49:57","新北市石門區中山路28-3號","121.565713333333","25.289895","6502200","石門區"
"222001","KEA-2212","2019/08/17 18:50:00","新北市深坑區北深路一段62號","121.637061666667","25.010765","6501800","深坑區"
"208002","KEA-2872","2019/08/17 18:49:57","新北市金山區仁愛路20-10號","121.636491666667","25.2195","6502700","金山區"
"208003","665-BX","2019/08/17 18:49:55","新北市金山區中山路377號","121.63431","25.2247266666667","6502700","金山區"
"251001","011-UM","2019/08/17 18:49:50","新北市淡水區自強路106號","121.462095","25.1296483333333","6501000","淡水區"
"251010","012-UM","2019/08/17 18:50:02","新北市淡水區沙崙路20號","121.421235","25.1810366666667","6501000","淡水區"
"251015","KEA-2871","2019/08/17 18:49:47","新北市淡水區興福寮66巷28號","121.486075","25.1625866666667","6501000","淡水區"
"251016","179-VK","2019/08/17 18:49:42","新北市淡水區下圭柔山71-3號","121.446996666667","25.2062333333333","6501000","淡水區"
"251008","181-VK","2019/08/17 18:49:48","新北市淡水區淡金路二段66-1號","121.450593333333","25.1826166666667","6501000","淡水區"
"251013","182-VK","2019/08/17 18:49:50","新北市淡水區安子內5-1號","121.48363","25.2150966666667","6501000","淡水區"
"243009","549-UM","2019/08/17 18:49:56","新北市泰山區泰林路二段362號","121.428696666667","25.06361","6501600","泰山區"
"251012","443-VK","2019/08/17 18:49:45","新北市淡水區中山北路一段156號","121.444045","25.178235","6501000","淡水區"
"251009","575-R6","2019/08/17 18:50:04","新北市淡水區重建街226號","121.441436666667","25.1749983333333","6501000","淡水區"
"251014","577-R6","2019/08/17 18:49:51","新北市淡水區崙頂3號","121.491","25.2239366666667","6501000","淡水區"
"251011","650-BX","2019/08/17 18:49:56","新北市淡水區學府路32巷37號","121.448271666667","25.16782","6501000","淡水區"
"251002","672-BX","2019/08/17 18:50:01","新北市淡水區學府路19號","121.447715","25.1686666666667","6501000","淡水區"
"251003","673-BX","2019/08/17 18:49:54","新北市淡水區中山北路一段212巷38號","121.446113333333","25.179045","6501000","淡水區"
"207003","550-UM","2019/08/17 18:50:02","新北市萬里區野柳里港西路78-13號","121.685628333333","25.20652","6502800","萬里區"
"207004","291-VK","2019/08/17 18:49:46","新北市萬里區萬里里獅頭路23號","121.693221666667","25.17821","6502800","萬里區"
"252002","178-VK","2019/08/17 18:49:55","新北市三芝區中正路一段118號","121.50486","25.256285","6502100","三芝區"
"252003","249-BX","2019/08/17 18:49:57","新北市三芝區後厝里土地公坑55-10號","121.459613333333","25.2466716666667","6502100","三芝區"
"208001","170-UY","2019/08/17 18:49:53","新北市金山區文化三路66巷1號","121.634201666667","25.2256466666667","6502700","金山區"
"237004","KEA-2597","2019/08/17 18:49:47","新北市三峽區有木31號","121.42908","24.8629733333333","6500900","三峽區"
"237007","153-BY","2019/08/17 18:50:03","新北市三峽區中正路二段395巷23號","121.365545","24.907695","6500900","三峽區"
"237009","210-TH","2019/08/17 18:49:45","新北市三峽區大智路69號","121.361001666667","24.93574","6500900","三峽區"
"237013","252-BX","2019/08/17 18:49:58","新北市三峽區光明路69巷25號","121.376693333333","24.9291883333333","6500900","三峽區"
"237012","275-BY","2019/08/17 18:49:58","新北市三峽區三樹路340號","121.383966666667","24.9433366666667","6500900","三峽區"
"237008","302-VK","2019/08/17 18:49:47","新北市三峽區白雞28-1號","121.370511666667","24.912135","6500900","三峽區"
"237014","433-BY","2019/08/17 18:49:46","新北市三峽區隆恩街158巷42號","121.365845","24.9451783333333","6500900","三峽區"
"237006","5529-G3","2019/08/17 18:49:59","新北市三峽區溪東路315巷110號","121.41207","24.931555","6500900","三峽區"
"237011","KEA-2596","2019/08/17 18:49:58","新北市三峽區溪東路148號","121.405308333333","24.9331333333333","6500900","三峽區"
"237015","649-BX","2019/08/17 18:35:37","新北市三峽區竹崙路90-1號","121.432573333333","24.918105","6500900","三峽區"
"237010","706-TV","2019/08/17 18:49:59","新北市三峽區復興路449號","121.362618333333","24.9385666666667","6500900","三峽區"
"237005","AKY-6261","2019/08/17 18:49:48","新北市三峽區中山路299巷15弄29號","121.361585","24.935875","6500900","三峽區"
"236042","KED-0685","2019/08/17 18:49:59","新北市土城區裕民路114巷22號","121.450235","24.9856683333333","6501300","土城區"
"236079","166-UM","2019/08/17 18:50:00","新北市土城區中央路四段67巷60-13號","121.416908333333","24.956005","6501300","土城區"
"236030","253-BX","2019/08/17 18:49:53","新北市土城區忠義路26巷25號","121.439616666667","24.9695366666667","6501300","土城區"
"236026","269-VK","2019/08/17 18:49:53","新北市土城區農豐街14號","121.442591666667","24.973915","6501300","土城區"
"236014","270-VK","2019/08/17 18:49:58","新北市土城區金城路二段354巷20號","121.460703333333","24.9841266666667","6501300","土城區"
"236038","271-VK","2019/08/17 18:50:01","新北市土城區明德路一段195巷2弄17號","121.463423333333","24.9782183333333","6501300","土城區"
"236070","KEA-2877","2019/08/17 18:49:53","新北市土城區延和路19號","121.464406666667","24.9885383333333","6501300","土城區"
"252001","KED-0821","2019/08/17 18:49:43","新北市三芝區中正路三段9號","121.502888333333","25.2539966666667","6502100","三芝區"
"236021","401-BY","2019/08/17 18:49:59","新北市土城區延吉街206號","121.467555","24.9851033333333","6501300","土城區"
"236059","912-UM","2019/08/17 18:49:53","新北市土城區金城路二段56號","121.451931666667","24.9793716666667","6501300","土城區"
"236049","913-UM","2019/08/17 18:49:48","新北市土城區廣福街68巷32-1號","121.458888333333","24.9903483333333","6501300","土城區"
"236063","915-UM","2019/08/17 18:49:46","新北市土城區延和路177巷7號","121.469773333333","24.9905016666667","6501300","土城區"
"236055","AAC-216","2019/08/17 18:49:52","新北市土城區裕民路186號","121.452873333333","24.9851083333333","6501300","土城區"
"238023","601-UM","2019/08/17 18:49:57","新北市樹林區三福街114號","121.406475","25.0164233333333","6500700","樹林區"
"238019","599-UM","2019/08/17 18:49:44","新北市樹林區中山路三段107-1號","121.399855","24.9746666666667","6500700","樹林區"
"238024","5061-A6","2019/08/17 18:49:56","新北市樹林區太平路270-1號","121.417808333333","24.9732916666667","6500700","樹林區"
"238021","KEA-2539","2019/08/17 18:49:42","新北市樹林區西圳街二段79號","121.38652","24.9592316666667","6500700","樹林區"
"238025","303-VK","2019/08/17 18:50:04","新北市樹林區中山路三段22號","121.395713333333","24.9729733333333","6500700","樹林區"
"238017","283-BY","2019/08/17 18:50:01","新北市樹林區光興街44號","121.40991","25.0027966666667","6500700","樹林區"
"238014","282-BY","2019/08/17 18:49:59","新北市樹林區大安路113號","121.422891666667","24.9976533333333","6500700","樹林區"
"238020","268-VK","2019/08/17 18:49:49","新北市樹林區俊英街282號","121.423721666667","25.01336","6500700","樹林區"
"238026","172-UY","2019/08/17 18:49:47","新北市樹林區育德街121巷7號","121.388938333333","24.968235","6500700","樹林區"
"239007","AAC-297","2019/08/17 18:49:49","新北市鶯歌區中正一路457-1號","121.362691666667","24.9567383333333","6500800","鶯歌區"
"239006","891-R6","2019/08/17 18:49:59","新北市鶯歌區鶯桃路296巷57號","121.335901666667","24.9613","6500800","鶯歌區"
"239008","527-UM","2019/08/17 18:49:45","新北市鶯歌區朝陽街1號","121.336278333333","24.9766066666667","6500800","鶯歌區"
"239005","526-UM","2019/08/17 18:49:38","新北市鶯歌區鳳吉三街19號","121.326738333333","24.973655","6500800","鶯歌區"
"239001","417-VK","2019/08/17 18:49:43","新北市鶯歌區二橋街83巷6號","121.337281666667","24.938355","6500800","鶯歌區"
"239003","360-BY","2019/08/17 18:49:49","新北市鶯歌區鶯桃路530號","121.331386666667","24.9669566666667","6500800","鶯歌區"
"239002","359-BY","2019/08/17 18:49:46","新北市鶯歌區中正一路478號","121.366491666667","24.9568633333333","6500800","鶯歌區"
"239004","193-VK","2019/08/17 18:49:57","新北市鶯歌區中正三路194巷46號","121.331241666667","24.94076","6500800","鶯歌區"
"221036","130-UY","2019/08/17 18:49:46","新北市汐止區大同路二段599號","121.663925","25.0705366666667","6501100","汐止區"
"221015","131-UY","2019/08/17 18:49:43","新北市汐止區鄉友街1號","121.667965","25.0806533333333","6501100","汐止區"
"221032","280-BY","2019/08/17 18:49:46","新北市汐止區橫科路121巷52弄3號","121.622621666667","25.050915","6501100","汐止區"
"221029","298-VK","2019/08/17 18:49:47","新北市汐止區樟樹一路1巷52號","121.640795","25.062605","6501100","汐止區"
"221021","299-VK","2019/08/17 18:49:57","新北市汐止區新興路44號","121.65704","25.0631583333333","6501100","汐止區"
"221031","353-TW","2019/08/17 18:50:02","新北市汐止區福德一路272巷11號","121.631815","25.0643083333333","6501100","汐止區"
"221025","623-UM","2019/08/17 18:49:56","新北市汐止區仁愛路113巷24號","121.661796666667","25.06425","6501100","汐止區"
"221002","707-TV","2019/08/17 18:49:59","新北市汐止區大同路一段149號","121.632016666667","25.0562166666667","6501100","汐止區"
"221018","753-BX","2019/08/17 18:49:48","新北市汐止區茄福街10號","121.672846666667","25.0674383333333","6501100","汐止區"
"220079","145-BY","2019/08/17 18:49:51","新北市板橋區南雅西路二段192巷1弄27號","121.452411666667","25.0152766666667","6500100","板橋區"
"220080","200-UY","2019/08/17 18:49:46","新北市板橋區大觀路二段265巷72弄11號","121.441948333333","24.9969833333333","6500100","板橋區"
"220082","610-BX","2019/08/17 18:49:47","新北市板橋區篤行路三段玉平巷57號","121.428446666667","24.9865483333333","6500100","板橋區"
"220101","245-BX","2019/08/17 18:49:53","新北市板橋區莊敬路86-3號","121.47155","25.0247783333333","6500100","板橋區"
"220091","267-BY","2019/08/17 18:49:50","新北市板橋區雙十路二段47巷52號","121.474923333333","25.02543","6500100","板橋區"
"220056","276-BY","2019/08/17 18:50:02","新北市板橋區四川路一段337號","121.45861","25.0001766666667","6500100","板橋區"
"220072","277-BY","2019/08/17 18:49:49","新北市板橋區金門街25巷3號","121.433685","24.9945866666667","6500100","板橋區"
"220071","283-VK","2019/08/17 18:49:42","新北市板橋區四川路一段22號","121.45939","25.0064033333333","6500100","板橋區"
"220094","285-UM","2019/08/17 18:50:00","新北市板橋區文化路二段76號","121.469215","25.02513","6500100","板橋區"
"220053","285-VK","2019/08/17 18:49:47","新北市板橋區永豐街69號","121.47369","25.0186483333333","6500100","板橋區"
"220083","286-VK","2019/08/17 18:50:01","新北市板橋區大觀路二段22巷38-2號","121.444775","25.0036733333333","6500100","板橋區"
"220081","287-VK","2019/08/17 18:49:57","新北市板橋區南雅西路二段42號","121.452861666667","25.0100833333333","6500100","板橋區"
"220090","288-VK","2019/08/17 18:50:05","新北市板橋區四維路177巷4弄6號","121.463656666667","25.0262116666667","6500100","板橋區"
"220061","293-UM","2019/08/17 18:49:56","新北市板橋區永豐街151號","121.475155","25.0200716666667","6500100","板橋區"
"220084","296-UM","2019/08/17 18:49:59","新北市板橋區大觀路二段150巷20號","121.441731666667","24.9994383333333","6500100","板橋區"
"220075","303-R5","2019/08/17 18:49:58","新北市板橋區大觀路一段1-1號","121.45067","25.0084666666667","6500100","板橋區"
"220062","305-R5","2019/08/17 18:49:56","新北市板橋區中山路二段28號","121.47264","25.0151266666667","6500100","板橋區"
"220092","307-R5","2019/08/17 18:49:58","新北市板橋區文化路一段136巷10-1號","121.465648333333","25.0185033333333","6500100","板橋區"
"220098","317-R6","2019/08/17 18:49:52","新北市板橋區民生路二段234巷77號","121.470206666667","25.022595","6500100","板橋區"
"220089","487-VK","2019/08/17 18:50:02","新北市板橋區文化路二段417巷32號","121.473943333333","25.0333666666667","6500100","板橋區"
"220088","491-VK","2019/08/17 18:50:03","新北市板橋區民生路二段224號","121.469105","25.0218666666667","6500100","板橋區"
"220103","561-BX","2019/08/17 18:49:59","新北市板橋區文化路一段188巷11弄16號","121.469036666667","25.0186733333333","6500100","板橋區"
"220063","609-BX","2019/08/17 18:49:47","新北市板橋區民生路一段80號","121.47349","25.0154733333333","6500100","板橋區"
"220035","630-UY","2019/08/17 18:50:01","新北市板橋區中正路275巷79弄9號","121.452196666667","25.0176366666667","6500100","板橋區"
"220057","686-BX","2019/08/17 18:49:43","新北市板橋區重慶路204號","121.462631666667","25.002635","6500100","板橋區"
"220077","687-BX","2019/08/17 18:50:03","新北市板橋區大觀路二段174巷184號","121.442115","25.003705","6500100","板橋區"
"220093","689-BX","2019/08/17 18:49:55","新北市板橋區民生路三段52號","121.467155","25.02516","6500100","板橋區"
"220054","741-BX","2019/08/17 18:49:59","新北市板橋區館前東路21號","121.460285","25.0073016666667","6500100","板橋區"
"220102","KEA-2699","2019/08/17 18:49:51","新北市板橋區萬板路558-1號","121.480853333333","25.02649","6500100","板橋區"
"220067","829-TW","2019/08/17 18:49:57","新北市板橋區三民路二段正隆巷30-1號","121.477336666667","25.0135966666667","6500100","板橋區"
"220074","895-R6","2019/08/17 18:49:54","新北市板橋區南門街10號","121.457428333333","25.0090283333333","6500100","板橋區"
"220073","985-R7","2019/08/17 18:50:03","新北市板橋區館前西路209號","121.454838333333","25.008365","6500100","板橋區"
"220097","AAC-210","2019/08/17 18:50:00","新北市板橋區漢生西路158號","121.463258333333","25.0231816666667","6500100","板橋區"
"220012","AAC-253","2019/08/17 18:49:59","新北市板橋區板新路121巷1號","121.47127","25.01503","6500100","板橋區"
"235068","KEA-2873","2019/08/17 18:49:59","新北市中和區圓通路265巷32號","121.495811666667","24.9925016666667","6500300","中和區"
"235061","KEA-2875","2019/08/17 18:49:45","新北市中和區民治街130巷9號","121.47482","25.002565","6500300","中和區"
"235038","KEA-2876","2019/08/17 18:49:40","新北市中和區大勇街31巷1號","121.5175","24.9941283333333","6500300","中和區"
