"lineid","car","time","location","longitude","latitude","cityid","cityname"
"234046","148-BY","2019/08/17 19:29:47","新北市永和區秀朗路二段237號","121.526463333333","24.999935","6500400","永和區"
"234081","298-R6","2019/08/17 19:29:49","新北市永和區林森路10巷6號","121.52623","25.0060116666667","6500400","永和區"
"234038","336-UY","2019/08/17 19:30:00","新北市永和區成功路二段47巷11號","121.527468333333","25.0003466666667","6500400","永和區"
"234064","337-UY","2019/08/17 19:29:59","新北市永和區中正路368巷1弄86號","121.520388333333","25.0007","6500400","永和區"
"234086","338-UY","2019/08/17 19:29:50","新北市永和區林森路39巷1號","121.525553333333","25.0049383333333","6500400","永和區"
"234070","552-UM","2019/08/17 19:29:44","新北市永和區警光街5-1號","121.519781666667","25.0095416666667","6500400","永和區"
"234017","745-BX","2019/08/17 19:30:01","新北市永和區環河西路一段87號","121.512278333333","25.017975","6500400","永和區"
"234030","746-BX","2019/08/17 19:29:55","新北市永和區民生路49號","121.522748333333","24.997865","6500400","永和區"
"234054","KEA-2590","2019/08/17 19:30:00","新北市永和區復興街32巷4號","121.516075","25.0128316666667","6500400","永和區"
"234007","KED-0605","2019/08/17 19:30:04","新北市永和區永和路一段107號","121.51392","25.007985","6500400","永和區"
"234013","KEA-2591","2019/08/17 19:29:49","新北市永和區中山路一段211號","121.508771666667","25.0084033333333","6500400","永和區"
"234061","AAD-866","2019/08/17 19:29:58","新北市永和區中正路520號","121.51726","25.0049083333333","6500400","永和區"
"234042","862-TW","2019/08/17 19:29:49","新北市永和區中和路519巷14號","121.510966666667","25.0032883333333","6500400","永和區"
"234050","863-TW","2019/08/17 19:29:51","新北市永和區信義路120號","121.51235","25.014685","6500400","永和區"
"234026","9371-KE","2019/08/17 19:29:59","新北市中和區安平路220號","121.513795","25.0001583333333","6500400","永和區"
"234011","9373-KE","2019/08/17 19:29:59","新北市永和區保生路55-1號","121.50454","25.0109033333333","6500400","永和區"
"249003","593-UM","2019/08/17 19:29:48","新北市八里區中山路二段500巷18號","121.397486666667","25.1474033333333","6502300","八里區"
"248014","025-BX","2019/08/17 19:29:51","新北市五股區民義路一段172巷11號","121.433561666667","25.088115","6501500","五股區"
"248008","KED-0815","2019/08/17 19:29:45","新北市五股區中興路一段152號","121.464473333333","25.0738316666667","6501500","五股區"
"248020","KED-0813","2019/08/17 19:29:50","新北市五股區凌雲路三段94號","121.427616666667","25.1215766666667","6501500","五股區"
"248012","247-BX","2019/08/17 19:29:45","新北市五股區成泰路二段91巷9號","121.437561666667","25.08416","6501500","五股區"
"248004","677-BX","2019/08/17 19:30:01","新北市五股區工商路107號","121.436943333333","25.0855666666667","6501500","五股區"
"248002","678-BX","2019/08/17 19:29:53","新北市五股區凌雲路一段158巷6號","121.447813333333","25.1029783333333","6501500","五股區"
"234023","9380-KE","2019/08/17 19:29:50","新北市永和區竹林路91巷45號","121.521383333333","25.0129433333333","6500400","永和區"
"234077","969-R7","2019/08/17 19:30:05","新北市永和區民族街43巷5號","121.518708333333","24.9985433333333","6500400","永和區"
"234074","AAC-211","2019/08/17 19:30:00","新北市永和區環河東路一段122號","121.520593333333","25.0156466666667","6500400","永和區"
"234067","AAC-212","2019/08/17 19:30:02","新北市永和區永貞路313號","121.51006","25.006535","6500400","永和區"
"234003","AAC-295","2019/08/17 19:29:56","新北市永和區福和路362號","121.514518333333","25.007615","6500400","永和區"
"244023","483-VK","2019/08/17 19:29:50","新北市林口區仁愛路二段636號","121.370901666667","25.0795483333333","6501700","林口區"
"243012","AAD-798","2019/08/17 19:29:55","新北市泰山區仁義路220巷2號","121.433016666667","25.053785","6501600","泰山區"
"243010","297-R6","2019/08/17 19:30:01","新北市泰山區民生路12號","121.430031666667","25.0525466666667","6501600","泰山區"
"243014","KEA-2801","2019/08/17 19:29:50","新北市泰山區全興路199-1號","121.435025","25.0549283333333","6501600","泰山區"
"243016","421-VK","2019/08/17 19:29:46","新北市泰山區明志路三段225號","121.423768333333","25.03803","6501600","泰山區"
"243011","KEA-2216","2019/08/17 19:29:51","新北市泰山區中山路二段561-9號","121.429953333333","25.0405266666667","6501600","泰山區"
"243013","646-TV","2019/08/17 19:29:57","新北市泰山區貴子路36巷3弄2號","121.42595","25.0411583333333","6501600","泰山區"
"243015","680-BX","2019/08/17 19:29:53","新北市泰山區明志路二段96號","121.42822","25.0519533333333","6501600","泰山區"
"222003","436-BY","2019/08/17 19:29:45","新北市深坑區深南路51-1號","121.62127","25.0097883333333","6501800","深坑區"
"222002","659-BX","2019/08/17 19:30:01","新北市深坑區北深路一段177號","121.63231","25.0107083333333","6501800","深坑區"
"231041","001-UM","2019/08/17 19:29:46","新北市新店區中正路620號","121.534091666667","24.9886916666667","6500600","新店區"
"231044","046-UY","2019/08/17 19:30:00","新北市新店區中興路三段135號","121.544398333333","24.9795816666667","6500600","新店區"
"231061","047-UY","2019/08/17 19:29:45","新北市新店區安康路一段261號","121.524371666667","24.9633516666667","6500600","新店區"
"231060","106-UY","2019/08/17 19:29:55","新北市新店區安康路二段86號","121.513916666667","24.9632066666667","6500600","新店區"
"231051","107-UY","2019/08/17 19:29:52","新北市新店區中央五街30號","121.5288","24.9747833333333","6500600","新店區"
"231049","108-UY","2019/08/17 19:29:51","新北市新店區北新路三段65巷12弄25號","121.540573333333","24.9818983333333","6500600","新店區"
"231065","110-UY","2019/08/17 19:29:36","新北市新店區安祥路106-14號","121.4769","24.9607783333333","6500600","新店區"
"231062","256-BX","2019/08/17 19:29:48","新北市新店區莒光路85巷3號","121.523435","24.956465","6500600","新店區"
"231054","260-TV","2019/08/17 19:29:57","新北市新店區文中路40號","121.539728333333","24.9565633333333","6500600","新店區"
"231042","268-BY","2019/08/17 19:29:49","新北市新店區中興路一段115號","121.541563333333","24.9626383333333","6500600","新店區"
"231064","278-BY","2019/08/17 19:29:57","新北市新店區安康路二段96號","121.513633333333","24.9630916666667","6500600","新店區"
"231050","AAD-862","2019/08/17 19:30:02","新北市新店區北宜路二段243號","121.55403","24.9535333333333","6500600","新店區"
"231045","355-BY","2019/08/17 19:30:01","新北市新店區北宜路二段209號","121.553156666667","24.95328","6500600","新店區"
"231058","3713-VJ","2019/08/17 19:29:46","新北市新店區北新路二段228巷11號","121.543415","24.9772366666667","6500600","新店區"
"231056","4715-K9","2019/08/17 19:29:55","新北市新店區安民街121巷12號","121.515435","24.9693433333333","6500600","新店區"
"231067","4772-VM","2019/08/17 19:27:07","新北市新店區薏仁坑路自強巷1號","121.497425","24.9576166666667","6500600","新店區"
"231052","513-UM","2019/08/17 19:29:54","新北市新店區新烏路二段176號","121.548193333333","24.9180683333333","6500600","新店區"
"231063","616-UM","2019/08/17 19:29:58","新北市新店區達觀路16號","121.50299","24.9409433333333","6500600","新店區"
"231048","KED-0819","2019/08/17 19:29:57","新北市新店區五峰路127號","121.544866666667","24.966275","6500600","新店區"
"231046","719-UM","2019/08/17 19:29:56","新北市新店區北新路一段32號","121.540825","24.965785","6500600","新店區"
"231057","720-UM","2019/08/17 19:29:49","新北市新店區花園一路二段15號","121.550818333333","24.9333483333333","6500600","新店區"
"231059","897-TW","2019/08/17 19:30:01","新北市新店區安和路三段4巷1-3號","121.518145","24.9806133333333","6500600","新店區"
"231040","898-TW","2019/08/17 19:30:01","新北市新店區中華路95號","121.539113333333","24.9690466666667","6500600","新店區"
"231043","899-TW","2019/08/17 19:30:00","新北市新店區北新路二段170號","121.542958333333","24.975735","6500600","新店區"
"231066","AKT-0513","2019/08/17 19:29:53","新北市新店區安康路三段359巷12弄5-1號","121.484095","24.9493933333333","6500600","新店區"
"241011","013-R5","2019/08/17 19:29:48","新北市三重區龍濱路285號","121.501095","25.0733733333333","6500200","三重區"
"241028","022-UY","2019/08/17 19:29:47","新北市三重區中寮街30號","121.49256","25.0589816666667","6500200","三重區"
"241008","059-VK","2019/08/17 19:29:54","新北市蘆洲區永安北路一段72巷2號","121.476991666667","25.077175","6500200","三重區"
"241031","061-VK","2019/08/17 19:29:50","新北市三重區集美街100號","121.488508333333","25.05418","6500200","三重區"
"241030","742-BX","2019/08/17 19:29:51","新北市三重區成功路41巷15號","121.49046","25.0516116666667","6500200","三重區"
"241009","267-UM","2019/08/17 19:29:49","新北市三重區碧華街91號","121.485481666667","25.0815733333333","6500200","三重區"
"241032","269-UM","2019/08/17 19:30:02","新北市三重區三陽路39號","121.485185","25.0589133333333","6500200","三重區"
"241013","270-UM","2019/08/17 19:29:53","新北市三重區仁賢街12-1號","121.495778333333","25.0749183333333","6500200","三重區"
"241025","271-UM","2019/08/17 19:29:55","新北市三重區頂崁街210巷28弄12號","121.47571","25.0672833333333","6500200","三重區"
"241007","398-BY","2019/08/17 19:29:58","新北市三重區慈愛街149號","121.48937","25.0794583333333","6500200","三重區"
"241035","KEA-2210","2019/08/17 19:29:44","新北市三重區信義西街1巷3號","121.497995","25.06501","6500200","三重區"
"241020","478-VK","2019/08/17 19:29:55","新北市三重區三和路四段20巷24-1號","121.489893333333","25.073605","6500200","三重區"
"241026","480-VK","2019/08/17 19:30:06","新北市三重區文化南路47巷26號","121.499285","25.06104","6500200","三重區"
"241023","545-UM","2019/08/17 19:29:51","新北市三重區頂崁街99號","121.477975","25.0638633333333","6500200","三重區"
"241022","KED-0820","2019/08/17 19:29:56","新北市三重區重陽路二段52巷83弄1號","121.484283333333","25.065575","6500200","三重區"
"241012","941-UM","2019/08/17 19:29:54","新北市三重區河邊北街379-1號","121.501755","25.07647","6500200","三重區"
"241029","942-UM","2019/08/17 19:29:47","新北市三重區泉州街84巷18號","121.495838333333","25.0543366666667","6500200","三重區"
"235066","003-UY","2019/08/17 19:29:51","新北市中和區中和路132號","121.503661666667","24.999455","6500300","中和區"
"235064","005-UY","2019/08/17 19:29:56","新北市中和區南山路81巷68號","121.503963333333","24.99781","6500300","中和區"
"235063","006-UY","2019/08/17 19:29:44","新北市中和區連勝街72號","121.49576","24.9964033333333","6500300","中和區"
"235056","096-UM","2019/08/17 19:29:49","新北市中和區員山路581巷31弄17號","121.476718333333","25.0103283333333","6500300","中和區"
"235039","097-UM","2019/08/17 19:29:59","新北市中和區秀峰街103巷1弄2號","121.5206","24.9901216666667","6500300","中和區"
"235065","098-UM","2019/08/17 19:29:51","新北市中和區中山路二段2巷45弄28號","121.501953333333","25.0066633333333","6500300","中和區"
"235040","150-BY","2019/08/17 19:29:50","新北市中和區保健路46巷37弄2號","121.508671666667","24.9956283333333","6500300","中和區"
"235058","151-BY","2019/08/17 19:29:41","新北市中和區連城路374巷4弄4號","121.481598333333","24.995615","6500300","中和區"
"235055","183-VK","2019/08/17 19:29:52","新北市中和區中山路三段177號","121.47288","25.0060833333333","6500300","中和區"
"235049","186-VK","2019/08/17 19:29:54","新北市中和區安平路22號","121.509291666667","24.9942783333333","6500300","中和區"
"235031","255-BX","2019/08/17 19:29:50","新北市中和區連城路340巷14弄18號","121.482943333333","24.9971733333333","6500300","中和區"
"235044","293-VK","2019/08/17 19:29:51","新北市中和區捷運路81號","121.508343333333","24.98992","6500300","中和區"
"235072","301-VK","2019/08/17 19:29:56","新北市中和區連城路263巷4弄6號","121.491571666667","24.9956316666667","6500300","中和區"
"235043","352-BY","2019/08/17 19:29:48","新北市中和區景新街273巷32號","121.510751666667","24.9941433333333","6500300","中和區"
"235042","KEA-2878","2019/08/17 19:30:03","新北市中和區中和路350巷8弄36號","121.509911666667","24.999885","6500300","中和區"
"235050","4979-A6","2019/08/17 19:29:59","新北市中和區南山路281號","121.504246666667","24.9923066666667","6500300","中和區"
"235070","558-UM","2019/08/17 19:29:58","新北市中和區景平路668號","121.497271666667","25.00087","6500300","中和區"
"235045","565-BX","2019/08/17 19:29:57","新北市中和區景新街421號","121.51286","24.9892833333333","6500300","中和區"
"235060","KED-0823","2019/08/17 19:29:47","新北市中和區中山路二段586-2號","121.482188333333","25.00516","6500300","中和區"
"235054","640-BX","2019/08/17 19:29:57","新北市中和區莒光路12號","121.472093333333","25.0043883333333","6500300","中和區"
"235047","732-UM","2019/08/17 19:29:46","新北市中和區景平路259巷38號","121.506763333333","24.9927916666667","6500300","中和區"
"235046","733-UM","2019/08/17 19:30:04","新北市中和區忠孝街60巷2弄2號","121.511613333333","24.983745","6500300","中和區"
"235071","783-BX","2019/08/17 19:30:02","新北市中和區新生街184號","121.483618333333","24.9997466666667","6500300","中和區"
"235057","801-TS","2019/08/17 19:30:04","新北市中和區員山路150-31號","121.481378333333","24.99831","6500300","中和區"
"235052","805-TS","2019/08/17 19:29:46","新北市中和區華新街143巷67弄1號","121.506823333333","24.9788216666667","6500300","中和區"
"235048","896-TW","2019/08/17 19:29:53","新北市中和區忠孝街118號","121.512155","24.9856433333333","6500300","中和區"
"235053","900-TW","2019/08/17 19:29:47","新北市中和區民德路97號","121.468893333333","25.001015","6500300","中和區"
"235051","157-BY","2019/08/17 19:29:56","新北市中和區景新街134號","121.505416666667","24.99799","6500300","中和區"
"235037","AAC-213","2019/08/17 19:29:59","新北市中和區秀朗路三段50巷2弄1號","121.525958333333","24.9955883333333","6500300","中和區"
"235059","AAC-215","2019/08/17 19:29:57","新北市中和區圓通路252巷8號","121.492711666667","24.9919","6500300","中和區"
"220055","015-TV","2019/08/17 19:29:53","新北市板橋區重慶路278巷5號","121.46268","24.9995","6500100","板橋區"
"220065","072-UY","2019/08/17 19:29:58","新北市板橋區國泰街39巷4弄31號","121.467763333333","25.0057633333333","6500100","板橋區"
"220086","073-UY","2019/08/17 19:29:59","新北市板橋區中正路216巷57號","121.457508333333","25.01896","6500100","板橋區"
"220106","075-UY","2019/08/17 19:29:57","新北市板橋區文化路二段554號","121.476273333333","25.0341416666667","6500100","板橋區"
"220069","AAD-861","2019/08/17 19:29:59","新北市板橋區縣民大道一段64巷36號","121.455883333333","25.00334","6500100","板橋區"
"220068","120-SR","2019/08/17 19:30:03","新北市板橋區萬安街41號","121.484076666667","25.023535","6500100","板橋區"
"226004","312-R5","2019/08/17 19:29:56","新北市平溪區十分里十分街158號","121.778118333333","25.0433866666667","6502400","平溪區"
"235041","251-BX","2019/08/17 19:30:06","新北市永和區中和路545號","121.511466666667","25.0032883333333","6500300","中和區"
"228003","097-TW","2019/08/17 19:29:54","新北市貢寮區和美里和美街22-1號","121.912826666667","25.08265","6502600","貢寮區"
"228001","212-TW","2019/08/17 19:30:02","新北市貢寮區真理里大澳街31號","121.925086666667","25.0563466666667","6502600","貢寮區"
"224008","273-VK","2019/08/17 19:30:00","新北市瑞芳區一坑路299號","121.800956666667","25.108575","6501200","瑞芳區"
"227002","642-TC","2019/08/17 19:29:53","新北市雙溪區雙溪里光復街3號","121.865175","25.0355333333333","6502500","雙溪區"
"227001","400-TW","2019/08/17 19:29:55","新北市雙溪區新基里新基北街64號","121.868798333333","25.0397183333333","6502500","雙溪區"
"222001","KEA-2212","2019/08/17 19:30:00","新北市深坑區北深路二段134號","121.615886666667","25.002995","6501800","深坑區"
"208002","KEA-2872","2019/08/17 19:29:57","新北市金山區中山路313巷2號","121.635496666667","25.22355","6502700","金山區"
"208003","665-BX","2019/08/17 19:29:55","新北市金山區中山路263巷8號","121.636378333333","25.2216666666667","6502700","金山區"
"251005","010-UM","2019/08/17 19:29:45","新北市淡水區水源街一段47巷30號","121.444048333333","25.17322","6501000","淡水區"
"251001","011-UM","2019/08/17 19:27:10","新北市淡水區民權路177號","121.45986","25.1355533333333","6501000","淡水區"
"251010","012-UM","2019/08/17 19:30:02","新北市淡水區中正路二段301號","121.426106666667","25.1905783333333","6501000","淡水區"
"251015","KEA-2871","2019/08/17 19:29:47","新北市淡水區北新路三段38巷5號","121.484375","25.18696","6501000","淡水區"
"251016","179-VK","2019/08/17 19:29:42","新北市淡水區淡金路三段350巷18號","121.450806666667","25.2083516666667","6501000","淡水區"
"251008","181-VK","2019/08/17 19:29:48","新北市淡水區中正路一段33號","121.425923333333","25.1764233333333","6501000","淡水區"
"251013","182-VK","2019/08/17 19:29:54","新北市淡水區大牛稠5號","121.46975","25.2197883333333","6501000","淡水區"
"243009","549-UM","2019/08/17 19:29:56","新北市泰山區半山雅4號","121.431668333333","25.06743","6501600","泰山區"
"251007","442-VK","2019/08/17 19:29:51","新北市淡水區八勢路20號","121.460676666667","25.1535433333333","6501000","淡水區"
"251006","561-UM","2019/08/17 19:30:01","新北市淡水區大義街51號","121.44138","25.1782333333333","6501000","淡水區"
"251009","575-R6","2019/08/17 19:29:44","新北市淡水區中正路28號","121.444415","25.169095","6501000","淡水區"
"251014","577-R6","2019/08/17 19:29:51","新北市淡水區小中寮15-3號","121.48525","25.2302183333333","6501000","淡水區"
"251002","672-BX","2019/08/17 19:29:53","新北市淡水區沙崙路257號","121.426331666667","25.18522","6501000","淡水區"
"251003","673-BX","2019/08/17 19:29:54","新北市淡水區中山北路三段116號","121.443938333333","25.193965","6501000","淡水區"
"207003","550-UM","2019/08/17 19:30:02","新北市萬里區大鵬里萬里加投100號","121.645698333333","25.2131933333333","6502800","萬里區"
"207004","291-VK","2019/08/17 19:29:47","新北市萬里區萬里里瑪鋉路119號","121.688855","25.1776883333333","6502800","萬里區"
"252002","178-VK","2019/08/17 19:29:55","新北市三芝區淡金路二段20號","121.502688333333","25.2596016666667","6502100","三芝區"
"208001","170-UY","2019/08/17 19:29:53","新北市金山區金包里街98號","121.638275","25.221865","6502700","金山區"
"237004","KEA-2597","2019/08/17 19:29:47","新北市三峽區有木205號","121.439128333333","24.8521233333333","6500900","三峽區"
"237007","153-BY","2019/08/17 19:30:03","新北市三峽區二鬮路136巷20弄81號","121.358041666667","24.909175","6500900","三峽區"
"237009","210-TH","2019/08/17 19:29:45","新北市三峽區中山路22號","121.369311666667","24.9343883333333","6500900","三峽區"
"237013","252-BX","2019/08/17 19:29:58","新北市三峽區介壽路一段338巷8號","121.381396666667","24.929805","6500900","三峽區"
"237012","275-BY","2019/08/17 19:29:58","新北市三峽區三樹路98巷169號","121.384436666667","24.939315","6500900","三峽區"
"237008","302-VK","2019/08/17 19:29:47","新北市三峽區永安街95巷6號","121.374843333333","24.9286366666667","6500900","三峽區"
"237014","433-BY","2019/08/17 19:29:46","新北市三峽區中山路252號","121.361813333333","24.93774","6500900","三峽區"
"237006","5529-G3","2019/08/17 19:29:59","新北市三峽區中正路一段336巷15弄2號","121.36999","24.9249416666667","6500900","三峽區"
"237011","KEA-2596","2019/08/17 19:29:58","新北市三峽區介壽路一段365號","121.382725","24.9307216666667","6500900","三峽區"
"237015","649-BX","2019/08/17 19:29:51","新北市三峽區安坑1-5號","121.435206666667","24.9246016666667","6500900","三峽區"
"237010","706-TV","2019/08/17 19:29:59","新北市三峽區復興路150號","121.37157","24.938225","6500900","三峽區"
"237005","AKY-6261","2019/08/17 19:29:48","新北市三峽區中山路184巷19號","121.364366666667","24.9374133333333","6500900","三峽區"
"236042","KED-0685","2019/08/17 19:29:59","新北市土城區學府路一段239號","121.450408333333","24.98341","6501300","土城區"
"236079","166-UM","2019/08/17 19:30:00","新北市土城區中州路14號","121.414771666667","24.9572883333333","6501300","土城區"
"236026","269-VK","2019/08/17 19:29:53","新北市土城區中央路二段61巷26號","121.443266666667","24.978645","6501300","土城區"
"236070","KEA-2877","2019/08/17 19:29:53","新北市土城區學府路一段159號","121.453146666667","24.985905","6501300","土城區"
"252001","KED-0821","2019/08/17 19:29:43","新北市三芝區長勤街62-1號","121.500156666667","25.2561316666667","6502100","三芝區"
"236021","401-BY","2019/08/17 19:29:59","新北市土城區明峰街83號","121.468995","24.987365","6501300","土城區"
"236049","913-UM","2019/08/17 19:29:48","新北市土城區清水路222號","121.460825","24.982265","6501300","土城區"
"236055","AAC-216","2019/08/17 19:29:52","新北市土城區學府路一段276號","121.45021","24.98335","6501300","土城區"
"242031","350-TH","2019/08/17 19:30:04","新北市新莊區三和路12-20號","121.442185","25.037805","6500500","新莊區"
"238015","755-BX","2019/08/17 19:29:44","新北市樹林區復興路196號","121.42006","24.99105","6500700","樹林區"
"238019","599-UM","2019/08/17 19:29:44","新北市樹林區鎮前街347巷6號","121.416708333333","24.983575","6500700","樹林區"
"238024","5061-A6","2019/08/17 19:29:56","新北市樹林區福德街3號","121.401668333333","24.9758633333333","6500700","樹林區"
"238018","KEA-2217","2019/08/17 19:30:03","新北市樹林區中華路221號","121.418985","24.98108","6500700","樹林區"
"238022","KEA-2213","2019/08/17 19:29:44","新北市樹林區名園街44號","121.419656666667","24.9787433333333","6500700","樹林區"
"238021","KEA-2539","2019/08/17 19:30:02","新北市樹林區佳園路三段213號","121.385118333333","24.9467733333333","6500700","樹林區"
"238025","303-VK","2019/08/17 19:30:04","新北市樹林區中山路一段235號","121.420841666667","24.9867616666667","6500700","樹林區"
"238017","283-BY","2019/08/17 19:28:21","新北市樹林區光興街313號","121.40625","25.0056233333333","6500700","樹林區"
"238014","282-BY","2019/08/17 19:29:59","新北市樹林區保安二街40巷18號","121.425636666667","24.9946666666667","6500700","樹林區"
"238020","268-VK","2019/08/17 19:29:49","新北市樹林區俊英街121巷53號","121.423403333333","25.00937","6500700","樹林區"
"238026","172-UY","2019/08/17 19:30:03","新北市樹林區佳園路三段28號","121.387965","24.95391","6500700","樹林區"
"238016","169-UY","2019/08/17 19:29:56","新北市樹林區復興路464巷46號","121.412743333333","24.9835033333333","6500700","樹林區"
"239007","AAC-297","2019/08/17 19:29:49","新北市鶯歌區大湖路146號","121.342716666667","24.96437","6500800","鶯歌區"
"239006","891-R6","2019/08/17 19:29:59","新北市鶯歌區鶯桃路91巷20弄2號","121.338548333333","24.95301","6500800","鶯歌區"
"239008","527-UM","2019/08/17 19:29:45","新北市鶯歌區大湖路532號","121.337113333333","24.9727183333333","6500800","鶯歌區"
"239005","526-UM","2019/08/17 19:29:58","新北市鶯歌區中湖街315巷1號","121.346265","24.978045","6500800","鶯歌區"
"239001","417-VK","2019/08/17 19:30:03","新北市鶯歌區鶯桃路95巷33號","121.338146666667","24.9532416666667","6500800","鶯歌區"
"239003","360-BY","2019/08/17 19:29:49","新北市鶯歌區文化路297號","121.352643333333","24.9526366666667","6500800","鶯歌區"
"239002","359-BY","2019/08/17 19:29:47","新北市鶯歌區中山路122號","121.350446666667","24.95712","6500800","鶯歌區"
"239004","193-VK","2019/08/17 19:29:57","新北市鶯歌區鶯華新村19號","121.330261666667","24.9345683333333","6500800","鶯歌區"
"221008","489-VK","2019/08/17 19:29:55","新北市汐止區康寧街241號","121.624663333333","25.0668083333333","6501100","汐止區"
"221027","281-BY","2019/08/17 19:30:00","新北市汐止區忠孝東路9號","121.658275","25.0659883333333","6501100","汐止區"
"221021","299-VK","2019/08/17 19:29:57","新北市汐止區南興路6巷4號","121.651783333333","25.06327","6501100","汐止區"
"221031","353-TW","2019/08/17 19:30:02","新北市汐止區康寧街901號","121.650785","25.0753083333333","6501100","汐止區"
"221025","623-UM","2019/08/17 19:29:56","新北市汐止區新台五路二段6號","121.660203333333","25.0649816666667","6501100","汐止區"
"221038","646-BX","2019/08/17 19:29:58","新北市汐止區新台五路二段58號","121.661265","25.0658066666667","6501100","汐止區"
"221002","707-TV","2019/08/17 19:29:59","新北市汐止區大同路一段219巷27號","121.633268333333","25.05843","6501100","汐止區"
"220079","145-BY","2019/08/17 19:29:51","新北市板橋區民權路202巷15弄2號","121.460623333333","25.0161766666667","6500100","板橋區"
"220080","200-UY","2019/08/17 19:29:46","新北市板橋區大觀路二段3巷42號","121.44859","25.0035183333333","6500100","板橋區"
"220082","610-BX","2019/08/17 19:29:44","新北市板橋區金門街254號","121.430248333333","24.9869266666667","6500100","板橋區"
"220101","245-BX","2019/08/17 19:30:00","新北市板橋區萬板路36號","121.471863333333","25.022635","6500100","板橋區"
"220091","267-BY","2019/08/17 19:29:53","新北市板橋區文聖街149巷10號","121.479016666667","25.0282666666667","6500100","板橋區"
"220056","276-BY","2019/08/17 19:30:01","新北市板橋區信義路64號","121.457285","24.9937466666667","6500100","板橋區"
"220072","277-BY","2019/08/17 19:29:49","新北市板橋區金門街236號","121.430665","24.9874033333333","6500100","板橋區"
"220071","283-VK","2019/08/17 19:29:43","新北市板橋區忠孝路48巷9弄19號","121.461996666667","25.0004033333333","6500100","板橋區"
"220094","285-UM","2019/08/17 19:30:00","新北市板橋區宏國路47號","121.46832","25.0318716666667","6500100","板橋區"
"220053","285-VK","2019/08/17 19:29:47","新北市板橋區富山街53巷1弄112號","121.47777","25.0196366666667","6500100","板橋區"
"220083","286-VK","2019/08/17 19:30:02","新北市板橋區龍興街73巷49號","121.441976666667","25.0029283333333","6500100","板橋區"
"220081","287-VK","2019/08/17 19:29:54","新北市板橋區南雅南路一段106號","121.45477","25.00448","6500100","板橋區"
"220090","288-VK","2019/08/17 19:29:59","新北市板橋區長江路一段50號","121.458866666667","25.02899","6500100","板橋區"
"220061","293-UM","2019/08/17 19:29:56","新北市板橋區中山路一段265巷13號","121.468665","25.0148066666667","6500100","板橋區"
"220084","296-UM","2019/08/17 19:29:59","新北市板橋區篤行路三段玉平巷79號","121.42822","24.985995","6500100","板橋區"
"220075","303-R5","2019/08/17 19:29:45","新北市板橋區中正路275巷93號","121.45073","25.0181583333333","6500100","板橋區"
"220062","305-R5","2019/08/17 19:30:03","新北市板橋區三民路二段123巷12號","121.479936666667","25.01559","6500100","板橋區"
"220092","307-R5","2019/08/17 19:29:48","新北市板橋區自由路51巷24弄7-2號","121.464455","25.02344","6500100","板橋區"
"220098","317-R6","2019/08/17 19:30:02","新北市板橋區民有街91號","121.464605","25.0276266666667","6500100","板橋區"
"220089","487-VK","2019/08/17 19:30:02","新北市板橋區英士路192-1號","121.458441666667","25.0234616666667","6500100","板橋區"
"220088","491-VK","2019/08/17 19:29:46","新北市板橋區長江路三段151號","121.476595","25.0347733333333","6500100","板橋區"
"220103","561-BX","2019/08/17 19:29:59","新北市板橋區陽明街29巷19號","121.464526666667","25.0221416666667","6500100","板橋區"
"220063","609-BX","2019/08/17 19:29:46","新北市板橋區三民路一段31巷2-4號","121.481821666667","25.0230966666667","6500100","板橋區"
"220035","630-UY","2019/08/17 19:30:01","新北市板橋區中正路431號","121.454196666667","25.0231016666667","6500100","板橋區"
"220057","686-BX","2019/08/17 19:29:43","新北市板橋區和平路安樂巷51號","121.462241666667","24.9931916666667","6500100","板橋區"
"220077","687-BX","2019/08/17 19:30:02","新北市板橋區僑中二街10巷6號","121.446738333333","25.01106","6500100","板橋區"
"220093","689-BX","2019/08/17 19:29:52","新北市板橋區長江路一段103號","121.459541666667","25.0296233333333","6500100","板橋區"
"220054","741-BX","2019/08/17 19:30:03","新北市板橋區光明街132號","121.46368","25.0031483333333","6500100","板橋區"
"220102","KEA-2699","2019/08/17 19:29:51","新北市板橋區松柏街25號","121.474953333333","25.0302","6500100","板橋區"
"220067","829-TW","2019/08/17 19:29:57","新北市板橋區漢生東路279巷10弄11號","121.472121666667","25.0086916666667","6500100","板橋區"
"220074","895-R6","2019/08/17 19:29:53","新北市板橋區中正路1巷12號","121.455261666667","25.0117733333333","6500100","板橋區"
"220073","985-R7","2019/08/17 19:29:56","新北市板橋區中正路346號","121.454196666667","25.0234133333333","6500100","板橋區"
"220097","AAC-210","2019/08/17 19:30:00","新北市板橋區文化路一段285巷27號","121.463678333333","25.0193833333333","6500100","板橋區"
"220064","AAC-253","2019/08/17 19:29:59","新北市板橋區館前東路110-1號","121.463308333333","25.0078466666667","6500100","板橋區"
"235068","KEA-2873","2019/08/17 19:29:59","新北市中和區景平路493-5號","121.500081666667","24.9979683333333","6500300","中和區"
"235061","KEA-2875","2019/08/17 19:29:43","新北市中和區民安街2巷23號","121.480195","25.0015016666667","6500300","中和區"
"235038","KEA-2876","2019/08/17 19:29:40","新北市中和區立人街1號","121.521928333333","24.9939833333333","6500300","中和區"
