"lineid","car","time","location","longitude","latitude","cityid","cityname"
"234046","148-BY","2019/08/17 19:49:57","新北市永和區永利路125號","121.524081666667","25.003005","6500400","永和區"
"234081","298-R6","2019/08/17 19:49:49","新北市永和區永亨路127號","121.524438333333","25.0042316666667","6500400","永和區"
"234038","336-UY","2019/08/17 19:50:00","新北市永和區民樂街59巷2號","121.527468333333","24.9982966666667","6500400","永和區"
"234064","337-UY","2019/08/17 19:49:52","新北市永和區中正路368巷26號","121.518751666667","25.0006683333333","6500400","永和區"
"234086","338-UY","2019/08/17 19:49:54","新北市永和區中正路469號","121.516995","25.006115","6500400","永和區"
"234070","552-UM","2019/08/17 19:50:04","新北市永和區竹林路125-1號","121.520066666667","25.0112266666667","6500400","永和區"
"234017","745-BX","2019/08/17 19:50:01","新北市永和區忠孝街26巷27弄2號","121.515183333333","25.01717","6500400","永和區"
"234030","746-BX","2019/08/17 19:49:53","新北市永和區民生路67巷28號","121.524156666667","24.9972433333333","6500400","永和區"
"234054","KEA-2590","2019/08/17 19:50:00","新北市永和區竹林路73-1號","121.518625","25.013145","6500400","永和區"
"234007","KED-0605","2019/08/17 19:49:45","新北市中和區中山路二段15號","121.50514","25.00551","6500400","永和區"
"234013","KEA-2591","2019/08/17 19:49:49","新北市永和區永平路296號","121.507416666667","25.0121916666667","6500400","永和區"
"234061","AAD-866","2019/08/17 19:49:58","新北市永和區中正路9號","121.51409","24.99564","6500400","永和區"
"234042","862-TW","2019/08/17 19:49:55","新北市永和區中和路389巷45號","121.508173333333","25.0018316666667","6500400","永和區"
"234050","863-TW","2019/08/17 19:49:51","新北市永和區保安路144號","121.508593333333","25.0149616666667","6500400","永和區"
"234026","9371-KE","2019/08/17 19:49:59","新北市永和區雙和街25巷5號","121.50902","25.0019133333333","6500400","永和區"
"234011","9373-KE","2019/08/17 19:49:59","新北市永和區仁愛路352巷112弄12號","121.501163333333","25.008485","6500400","永和區"
"249005","172-UM","2019/08/17 19:49:55","新北市八里區長坑口38-8號","121.38962","25.1281416666667","6502300","八里區"
"249001","173-UM","2019/08/17 19:49:51","新北市八里區中華路二段201-27號","121.406098333333","25.1502583333333","6502300","八里區"
"249004","303-UY","2019/08/17 19:49:42","新北市八里區仁愛路17號","121.41337","25.1610083333333","6502300","八里區"
"249002","305-UY","2019/08/17 19:49:52","新北市八里區頂寮五街17號","121.451576666667","25.1260166666667","6502300","八里區"
"249003","593-UM","2019/08/17 19:49:48","新北市八里區華峰三街37號","121.398565","25.1454283333333","6502300","八里區"
"248014","025-BX","2019/08/17 19:49:51","新北市五股區五福路14巷9號","121.434735","25.0887983333333","6501500","五股區"
"248016","026-BX","2019/08/17 19:49:48","新北市五股區成泰路四段16號","121.453556666667","25.1067716666667","6501500","五股區"
"248008","KED-0815","2019/08/17 19:49:45","新北市五股區四維路140號","121.46813","25.0753583333333","6501500","五股區"
"248020","KED-0813","2019/08/17 19:49:50","新北市五股區中直路46-1號","121.418588333333","25.1179333333333","6501500","五股區"
"248012","247-BX","2019/08/17 19:49:45","新北市五股區蓬萊路8號","121.43552","25.07945","6501500","五股區"
"248010","272-BY","2019/08/17 19:50:00","新北市五股區登林路貿商巷3弄15號","121.429686666667","25.06995","6501500","五股區"
"248004","677-BX","2019/08/17 19:49:57","新北市五股區成泰路一段16號","121.434593333333","25.067525","6501500","五股區"
"248002","678-BX","2019/08/17 19:49:53","新北市五股區成泰路三段544-18號","121.452768333333","25.1034616666667","6501500","五股區"
"234023","9380-KE","2019/08/17 19:49:50","新北市永和區中正路625號","121.51566","25.0100616666667","6500400","永和區"
"234077","969-R7","2019/08/17 19:49:44","新北市永和區民治街97巷8號","121.516821666667","24.9981183333333","6500400","永和區"
"234074","AAC-211","2019/08/17 19:49:59","新北市永和區豫溪街136巷5號","121.521268333333","25.01003","6500400","永和區"
"234067","AAC-212","2019/08/17 19:50:02","新北市永和區永平路186-1號","121.510403333333","25.0092666666667","6500400","永和區"
"234003","AAC-295","2019/08/17 19:49:56","新北市永和區福和路315號","121.516008333333","25.007285","6500400","永和區"
"244023","483-VK","2019/08/17 19:49:30","新北市林口區嘉寶里42號","121.3334","25.122175","6501700","林口區"
"243012","AAD-798","2019/08/17 19:49:58","新北市泰山區仁愛路98號","121.433336666667","25.0551566666667","6501600","泰山區"
"243016","421-VK","2019/08/17 19:49:45","新北市泰山區貴陽街20號","121.422635","25.032635","6501600","泰山區"
"243011","KEA-2216","2019/08/17 19:49:51","新北市泰山區明志路三段204巷10弄15號","121.422866666667","25.03866","6501600","泰山區"
"222003","436-BY","2019/08/17 19:49:45","新北市深坑區深南路51-1號","121.62132","25.0097283333333","6501800","深坑區"
"222002","659-BX","2019/08/17 19:50:01","新北市深坑區北深路一段361號","121.622396666667","25.0049683333333","6501800","深坑區"
"231041","001-UM","2019/08/17 19:49:46","新北市新店區中央路224號","121.529688333333","24.972875","6500600","新店區"
"231044","046-UY","2019/08/17 19:50:00","新北市新店區復興路97號","121.534713333333","24.987875","6500600","新店區"
"231061","047-UY","2019/08/17 19:50:05","新北市新店區安民街172號","121.516805","24.9707133333333","6500600","新店區"
"231060","106-UY","2019/08/17 19:49:54","新北市新店區安康路二段161號","121.510268333333","24.9593683333333","6500600","新店區"
"231051","107-UY","2019/08/17 19:49:52","新北市新店區中央三街55號","121.527258333333","24.9747533333333","6500600","新店區"
"231049","108-UY","2019/08/17 19:49:51","新北市新店區民權路131號","121.535188333333","24.9825033333333","6500600","新店區"
"231065","110-UY","2019/08/17 19:49:56","新北市新店區安祥路109巷111號","121.47685","24.958345","6500600","新店區"
"231062","256-BX","2019/08/17 19:49:48","新北市新店區永業路51巷1號","121.531953333333","24.954885","6500600","新店區"
"231054","260-TV","2019/08/17 19:50:00","新北市新店區光明街58號","121.538535","24.9595416666667","6500600","新店區"
"231042","268-BY","2019/08/17 19:49:49","新北市新店區中興路一段268-3號","121.545211666667","24.9679416666667","6500600","新店區"
"231064","278-BY","2019/08/17 19:49:46","新北市新店區光華街10號","121.517776666667","24.9690466666667","6500600","新店區"
"231050","AAD-862","2019/08/17 19:49:42","新北市新店區北宜路二段401號","121.559648333333","24.9544433333333","6500600","新店區"
"231045","355-BY","2019/08/17 19:50:01","新北市新店區北宜路二段435號","121.561101666667","24.9542433333333","6500600","新店區"
"231056","4715-K9","2019/08/17 19:49:55","新北市新店區民權路42巷32號","121.539138333333","24.9837816666667","6500600","新店區"
"231067","4772-VM","2019/08/17 19:49:47","新北市新店區精忠路10-1號","121.532561666667","24.9590816666667","6500600","新店區"
"231052","513-UM","2019/08/17 19:49:54","新北市新店區新烏路三段206號","121.550868333333","24.9015866666667","6500600","新店區"
"231063","616-UM","2019/08/17 19:49:58","新北市新店區車子路11號","121.503008333333","24.9519766666667","6500600","新店區"
"231048","KED-0819","2019/08/17 19:49:57","新北市新店區寶興路64巷1號","121.550715","24.971565","6500600","新店區"
"231046","719-UM","2019/08/17 19:47:56","新北市新店區福園街10巷1號","121.532703333333","24.9727883333333","6500600","新店區"
"231057","720-UM","2019/08/17 19:49:49","新北市新店區梅崗三路1號","121.557805","24.9310883333333","6500600","新店區"
"231059","897-TW","2019/08/17 19:50:01","新北市新店區安和路二段227號","121.517266666667","24.9760433333333","6500600","新店區"
"231040","898-TW","2019/08/17 19:50:01","新北市新店區中正路75巷71號","121.54314","24.968705","6500600","新店區"
"231043","899-TW","2019/08/17 19:50:00","新北市新店區中正路263-3號","121.538336666667","24.9737383333333","6500600","新店區"
"231066","AKT-0513","2019/08/17 19:49:53","新北市新店區安康路三段165巷2弄2號","121.489633333333","24.951485","6500600","新店區"
"241011","013-R5","2019/08/17 19:49:48","新北市三重區介壽路39巷6號","121.498968333333","25.0701416666667","6500200","三重區"
"241028","022-UY","2019/08/17 19:49:47","新北市三重區中正南路111號","121.494181666667","25.0577016666667","6500200","三重區"
"241008","059-VK","2019/08/17 19:49:54","新北市三重區永福街101號","121.479425","25.0773566666667","6500200","三重區"
"241031","061-VK","2019/08/17 19:49:50","新北市三重區重新路四段97-1號","121.485706666667","25.0548633333333","6500200","三重區"
"241015","062-VK","2019/08/17 19:50:05","新北市三重區重新路一段1號","121.503746666667","25.0643083333333","6500200","三重區"
"241017","063-VK","2019/08/17 19:50:01","新北市三重區重陽路三段27巷1號","121.489675","25.0665716666667","6500200","三重區"
"241024","065-VK","2019/08/17 19:49:46","新北市三重區中正北路193巷35弄24號","121.476841666667","25.0710116666667","6500200","三重區"
"241003","091-VK","2019/08/17 19:49:48","新北市三重區五華街93巷54號","121.493791666667","25.0849566666667","6500200","三重區"
"241030","742-BX","2019/08/17 19:49:51","新北市三重區成功路41巷11弄11號","121.49077","25.0510883333333","6500200","三重區"
"241009","267-UM","2019/08/17 19:49:48","新北市三重區三和路四段396巷13號","121.480895","25.0791233333333","6500200","三重區"
"241032","269-UM","2019/08/17 19:50:02","新北市三重區重陽路一段44巷7號","121.486091666667","25.057795","6500200","三重區"
"241013","270-UM","2019/08/17 19:49:53","新北市三重區仁愛街92巷13號","121.49473","25.07381","6500200","三重區"
"241025","271-UM","2019/08/17 19:49:55","新北市三重區頂崁街210巷16號","121.476435","25.06765","6500200","三重區"
"241007","398-BY","2019/08/17 19:49:58","新北市三重區慈愛街8號","121.48449","25.0785183333333","6500200","三重區"
"241035","KEA-2210","2019/08/17 19:50:04","新北市三重區大榮街53號","121.499215","25.063475","6500200","三重區"
"241020","478-VK","2019/08/17 19:49:58","新北市三重區後竹圍街8號","121.49166","25.0735316666667","6500200","三重區"
"241026","480-VK","2019/08/17 19:49:46","新北市三重區文化南路42號","121.50047","25.060155","6500200","三重區"
"241014","543-UM","2019/08/17 19:49:58","新北市三重區三和路二段37-9號","121.501283333333","25.0675916666667","6500200","三重區"
"241023","545-UM","2019/08/17 19:49:51","新北市三重區頂崁街172號","121.477586666667","25.0659566666667","6500200","三重區"
"241001","547-UM","2019/08/17 19:49:43","新北市三重區仁愛街329號","121.4924","25.0796","6500200","三重區"
"241019","KEA-2593","2019/08/17 19:49:47","新北市三重區安慶街361巷1-1號","121.487698333333","25.06761","6500200","三重區"
"241005","AAD-863","2019/08/17 19:49:52","新北市三重區溪尾街325巷3弄2號","121.488351666667","25.0842766666667","6500200","三重區"
"241016","887-TS","2019/08/17 19:49:56","新北市三重區正德街67號","121.495518333333","25.0635416666667","6500200","三重區"
"241012","941-UM","2019/08/17 19:49:54","新北市三重區仁興街55號","121.498936666667","25.07605","6500200","三重區"
"241029","942-UM","2019/08/17 19:49:47","新北市三重區光明路55號","121.491596666667","25.0579966666667","6500200","三重區"
"241033","AAC-255","2019/08/17 19:49:57","新北市三重區中興南街66號","121.47064","25.0439666666667","6500200","三重區"
"235066","003-UY","2019/08/17 19:49:51","新北市中和區南工路40號","121.505843333333","25.001175","6500300","中和區"
"235056","096-UM","2019/08/17 19:49:49","新北市中和區中山路三段170巷29號","121.472575","25.0073016666667","6500300","中和區"
"235039","097-UM","2019/08/17 19:49:59","新北市中和區大勇街25巷38弄1號","121.515821666667","24.99377","6500300","中和區"
"235065","098-UM","2019/08/17 19:49:51","新北市中和區福美路263號","121.498421666667","25.0049783333333","6500300","中和區"
"235040","150-BY","2019/08/17 19:49:50","新北市中和區安平路59號","121.509673333333","24.9949583333333","6500300","中和區"
"235058","151-BY","2019/08/17 19:48:21","新北市中和區員山路150巷2弄21號","121.481708333333","24.997815","6500300","中和區"
"235055","183-VK","2019/08/17 19:49:52","新北市中和區德光路38-1號","121.470448333333","25.0048016666667","6500300","中和區"
"235049","186-VK","2019/08/17 19:49:54","新北市中和區中正路2-1號","121.50343","24.99367","6500300","中和區"
"235031","255-BX","2019/08/17 19:49:50","新北市中和區中正路751巷3弄12號","121.48437","24.9993816666667","6500300","中和區"
"235044","293-VK","2019/08/17 19:49:51","新北市中和區南山路146巷15號","121.50324","24.992205","6500300","中和區"
"235072","301-VK","2019/08/17 19:49:56","新北市中和區板南路399巷2號","121.49329","24.998985","6500300","中和區"
"235043","352-BY","2019/08/17 19:49:48","新北市中和區興南路二段159巷7號","121.505325","24.98313","6500300","中和區"
"235042","KEA-2878","2019/08/17 19:48:37","新北市中和區保健路72號","121.511351666667","24.9964383333333","6500300","中和區"
"247014","KEA-2869","2019/08/17 19:49:55","新北市蘆洲區中央路87號","121.47273","25.0844383333333","6501400","蘆洲區"
"235050","4979-A6","2019/08/17 19:49:59","新北市中和區中正路169號","121.498101666667","24.9937383333333","6500300","中和區"
"235070","558-UM","2019/08/17 19:49:58","新北市中和區圓通路160-1號","121.497641666667","24.9955783333333","6500300","中和區"
"235045","565-BX","2019/08/17 19:49:57","新北市中和區安樂路18-1號","121.511798333333","24.9921583333333","6500300","中和區"
"235047","732-UM","2019/08/17 19:49:46","新北市中和區和平街74號","121.507706666667","24.99108","6500300","中和區"
"235046","733-UM","2019/08/17 19:49:59","新北市中和區仁愛街6號","121.510585","24.9892116666667","6500300","中和區"
"235052","805-TS","2019/08/17 19:50:06","新北市中和區華新街144巷9號","121.507551666667","24.9830833333333","6500300","中和區"
"235048","896-TW","2019/08/17 19:49:53","新北市中和區興南路一段106號","121.50966","24.988835","6500300","中和區"
"235053","900-TW","2019/08/17 19:49:47","新北市中和區民德路222號","121.468166666667","24.9977783333333","6500300","中和區"
"235051","157-BY","2019/08/17 19:49:56","新北市中和區中興街180巷52弄3號","121.498431666667","24.9883833333333","6500300","中和區"
"235037","AAC-213","2019/08/17 19:49:59","新北市中和區自立路133號","121.521981666667","24.9939716666667","6500300","中和區"
"235059","AAC-215","2019/08/17 19:49:57","新北市中和區圓通路335巷53號","121.494785","24.989115","6500300","中和區"
"220055","015-TV","2019/08/17 19:49:53","新北市板橋區國慶路149巷13弄13號","121.460178333333","24.996695","6500100","板橋區"
"220065","072-UY","2019/08/17 19:49:58","新北市板橋區國泰街39巷9弄8號","121.468856666667","25.0052766666667","6500100","板橋區"
"220086","073-UY","2019/08/17 19:49:54","新北市板橋區國光路162號","121.46013","25.0182016666667","6500100","板橋區"
"220106","075-UY","2019/08/17 19:50:05","新北市板橋區民治街52巷11號","121.478898333333","25.0328366666667","6500100","板橋區"
"220069","AAD-861","2019/08/17 19:49:58","新北市板橋區大明街12號","121.459108333333","25.002635","6500100","板橋區"
"220068","120-SR","2019/08/17 19:49:48","新北市板橋區光復街146號","121.484583333333","25.01936","6500100","板橋區"
"247002","336-TH","2019/08/17 19:49:46","新北市蘆洲區永樂街38巷69號","121.458766666667","25.0903833333333","6501400","蘆洲區"
"247016","053-VK","2019/08/17 19:49:45","新北市蘆洲區中正路245號","121.467768333333","25.08698","6501400","蘆洲區"
"226004","312-R5","2019/08/17 19:49:56","新北市平溪區十分里十分街311號","121.775273333333","25.0436616666667","6502400","平溪區"
"235041","251-BX","2019/08/17 19:49:57","新北市中和區中安街130號","121.511023333333","25.0003883333333","6500300","中和區"
"228003","097-TW","2019/08/17 19:49:54","新北市貢寮區真理里延平街173號","121.92522","25.0588483333333","6502600","貢寮區"
"228001","212-TW","2019/08/17 19:49:42","新北市貢寮區真理里新港街101號","121.926886666667","25.0566583333333","6502600","貢寮區"
"224002","639-TC","2019/08/17 19:49:44","新北市瑞芳區民享新村24號","121.817403333333","25.1056016666667","6501200","瑞芳區"
"227002","642-TC","2019/08/17 19:49:53","新北市雙溪區雙溪里內挖路47號","121.863275","25.03672","6502500","雙溪區"
"227001","400-TW","2019/08/17 19:49:55","新北市雙溪區新基里中華路65號","121.865816666667","25.0382033333333","6502500","雙溪區"
"222001","KEA-2212","2019/08/17 19:50:00","新北市深坑區北深路三段83號","121.6064","25.0014833333333","6501800","深坑區"
"208002","KEA-2872","2019/08/17 19:49:57","新北市金山區中正路134-1號","121.632058333333","25.2205983333333","6502700","金山區"
"208003","665-BX","2019/08/17 19:49:55","新北市金山區海興路30號","121.630576666667","25.23807","6502700","金山區"
"251004","009-UM","2019/08/17 19:49:45","新北市淡水區民權路185巷22號","121.46044","25.1337416666667","6501000","淡水區"
"251005","010-UM","2019/08/17 19:50:05","新北市淡水區中山路24號","121.444386666667","25.169495","6501000","淡水區"
"251001","011-UM","2019/08/17 19:49:52","新北市淡水區淡金路132號","121.457933333333","25.1647566666667","6501000","淡水區"
"251015","KEA-2871","2019/08/17 19:49:47","新北市淡水區山子頂24-1號","121.491365","25.1871716666667","6501000","淡水區"
"251016","179-VK","2019/08/17 19:50:02","新北市淡水區下圭柔山122號","121.455685","25.208985","6501000","淡水區"
"251008","181-VK","2019/08/17 19:49:48","新北市淡水區中正路一段24巷2-3號","121.426815","25.1771483333333","6501000","淡水區"
"251013","182-VK","2019/08/17 19:49:50","新北市淡水區頂田寮2-1號","121.460785","25.2129866666667","6501000","淡水區"
"243009","549-UM","2019/08/17 19:49:56","新北市泰山區美寧街69號","121.430981666667","25.0647633333333","6501600","泰山區"
"251007","442-VK","2019/08/17 19:49:51","新北市淡水區竿蓁一街56號","121.452996666667","25.166365","6501000","淡水區"
"251012","443-VK","2019/08/17 19:49:44","新北市淡水區淡金路三段66號","121.448238333333","25.1998933333333","6501000","淡水區"
"251006","561-UM","2019/08/17 19:49:56","新北市淡水區水碓街15號","121.443511666667","25.17702","6501000","淡水區"
"251009","575-R6","2019/08/17 19:50:04","新北市淡水區中正路8巷5號","121.44162","25.1697933333333","6501000","淡水區"
"251014","577-R6","2019/08/17 19:49:51","新北市淡水區石頭厝17-1號","121.467535","25.237215","6501000","淡水區"
"251011","650-BX","2019/08/17 19:49:49","新北市淡水區中正東路二段5巷31號","121.460591666667","25.1585066666667","6501000","淡水區"
"251002","672-BX","2019/08/17 19:49:53","新北市淡水區下圭柔山90-8號","121.431278333333","25.2103283333333","6501000","淡水區"
"207003","550-UM","2019/08/17 19:50:02","新北市萬里區大鵬里下社9-4號","121.647088333333","25.2172716666667","6502800","萬里區"
"207004","291-VK","2019/08/17 19:49:46","新北市萬里區萬里里瑪鋉路154號","121.690273333333","25.179515","6502800","萬里區"
"252002","178-VK","2019/08/17 19:49:55","新北市三芝區三民街27巷5號","121.504701666667","25.25829","6502100","三芝區"
"208001","170-UY","2019/08/17 19:49:53","新北市金山區重和里六股林口20號","121.603141666667","25.21907","6502700","金山區"
"237004","KEA-2597","2019/08/17 19:49:47","新北市三峽區添福253號","121.37534","24.8946166666667","6500900","三峽區"
"237007","153-BY","2019/08/17 19:50:03","新北市三峽區二鬮路136巷18弄23號","121.358468333333","24.90851","6500900","三峽區"
"237009","210-TH","2019/08/17 19:49:45","新北市三峽區清水街426號","121.368745","24.9261216666667","6500900","三峽區"
"237013","252-BX","2019/08/17 19:49:58","新北市三峽區溪北街43號","121.39702","24.93605","6500900","三峽區"
"237012","275-BY","2019/08/17 19:49:58","新北市三峽區中華路24號","121.373973333333","24.9323716666667","6500900","三峽區"
"237008","302-VK","2019/08/17 19:49:47","新北市三峽區中華路136號","121.37088","24.927195","6500900","三峽區"
"237014","433-BY","2019/08/17 19:49:46","新北市三峽區添福5號","121.370985","24.9082866666667","6500900","三峽區"
"237006","5529-G3","2019/08/17 19:49:59","新北市三峽區中正路一段336巷15弄2號","121.369943333333","24.9249716666667","6500900","三峽區"
"237015","649-BX","2019/08/17 19:49:51","新北市三峽區橫溪路99巷1號","121.399413333333","24.935825","6500900","三峽區"
"237005","AKY-6261","2019/08/17 19:49:51","新北市三峽區長泰街18巷1號","121.379088333333","24.9316983333333","6500900","三峽區"
"236042","KED-0685","2019/08/17 19:49:59","新北市土城區金城路二段231號","121.455576666667","24.9824166666667","6501300","土城區"
"236079","166-UM","2019/08/17 19:50:00","新北市土城區溪頭路71號","121.411508333333","24.9544533333333","6501300","土城區"
"236030","253-BX","2019/08/17 19:49:53","新北市土城區中央路一段290號","121.443333333333","24.9824116666667","6501300","土城區"
"236026","269-VK","2019/08/17 19:49:53","新北市土城區中央路二段61巷28號","121.44337","24.9787433333333","6501300","土城區"
"236070","KEA-2877","2019/08/17 19:49:53","新北市土城區中央路二段258號","121.441503333333","24.9747233333333","6501300","土城區"
"252001","KED-0821","2019/08/17 19:49:43","新北市三芝區公正街9號","121.499773333333","25.257545","6502100","三芝區"
"236021","401-BY","2019/08/17 19:49:59","新北市土城區延吉街137巷6號","121.470911666667","24.9857683333333","6501300","土城區"
"236059","912-UM","2019/08/17 19:49:56","新北市土城區中央路一段148號","121.446168333333","24.987385","6501300","土城區"
"236049","913-UM","2019/08/17 19:50:00","新北市土城區青雲路188號","121.459121666667","24.9822","6501300","土城區"
"236063","915-UM","2019/08/17 19:50:04","新北市土城區延和路105巷6弄2號","121.467443333333","24.9909116666667","6501300","土城區"
"236055","AAC-216","2019/08/17 19:49:56","新北市土城區延平街1號","121.468316666667","24.990515","6501300","土城區"
"242039","AAC-296","2019/08/17 19:50:01","新北市新莊區民安路299巷49號","121.429623333333","25.02347","6500500","新莊區"
"242002","751-BX","2019/08/17 19:49:55","新北市新莊區新泰路2-11號","121.45013","25.0324766666667","6500500","新莊區"
"242004","440-UM","2019/08/17 19:50:01","新北市新莊區化成路63巷24弄5號","121.462928333333","25.04593","6500500","新莊區"
"242048","400-BY","2019/08/17 19:49:57","新北市新莊區後港一路28巷14號","121.425588333333","25.0250983333333","6500500","新莊區"
"242025","362-BY","2019/08/17 19:49:59","新北市新莊區五權一路12巷21弄6號","121.457896666667","25.064465","6500500","新莊區"
"242023","353-BY","2019/08/17 19:50:01","新北市新莊區化成路220號","121.46561","25.046675","6500500","新莊區"
"242013","132-UY","2019/08/17 19:50:00","新北市新莊區中泰街51號","121.45025","25.0468366666667","6500500","新莊區"
"242036","135-UY","2019/08/17 19:49:50","新北市新莊區民安路207巷30弄1-1號","121.427718333333","25.02376","6500500","新莊區"
"242034","348-TH","2019/08/17 19:49:48","新北市新莊區仁愛街54巷1號","121.444956666667","25.0371216666667","6500500","新莊區"
"242031","350-TH","2019/08/17 19:50:04","新北市新莊區公園一路132號","121.446018333333","25.0380733333333","6500500","新莊區"
"238019","599-UM","2019/08/17 19:49:44","新北市樹林區中華路190號","121.411978333333","24.9805616666667","6500700","樹林區"
"238024","5061-A6","2019/08/17 19:49:56","新北市樹林區八德街1018號","121.391245","24.9684516666667","6500700","樹林區"
"238022","KEA-2213","2019/08/17 19:49:44","新北市樹林區太平路148號","121.418435","24.9779883333333","6500700","樹林區"
"238021","KEA-2539","2019/08/17 19:50:02","新北市樹林區佳園路三段101巷38弄6號","121.39125","24.9504766666667","6500700","樹林區"
"238025","303-VK","2019/08/17 19:49:53","新北市樹林區八德街1號","121.417681666667","24.9849116666667","6500700","樹林區"
"238017","283-BY","2019/08/17 19:50:01","新北市樹林區保安街二段118號","121.414038333333","25.003835","6500700","樹林區"
"238014","282-BY","2019/08/17 19:49:59","新北市樹林區千歲街34號","121.425828333333","24.996535","6500700","樹林區"
"239006","891-R6","2019/08/17 19:49:59","新北市鶯歌區永昌街111號","121.339948333333","24.9502233333333","6500800","鶯歌區"
"239002","359-BY","2019/08/17 19:49:46","新北市鶯歌區湖山路49號","121.339578333333","24.97485","6500800","鶯歌區"
"239004","193-VK","2019/08/17 19:49:57","新北市鶯歌區二甲路47-1號","121.336181666667","24.9339583333333","6500800","鶯歌區"
"221008","489-VK","2019/08/17 19:49:55","新北市汐止區康寧街83巷11號","121.619945","25.0670383333333","6501100","汐止區"
"221010","269-BY","2019/08/17 19:49:52","新北市汐止區汐萬路二段3號","121.649283333333","25.0799733333333","6501100","汐止區"
"221012","278-VK","2019/08/17 19:49:49","新北市汐止區大同路三段356號","121.680198333333","25.0710683333333","6501100","汐止區"
"221023","279-VK","2019/08/17 19:49:50","新北市汐止區中興路284號","121.628506666667","25.0694283333333","6501100","汐止區"
"221029","298-VK","2019/08/17 19:49:47","新北市汐止區康寧街901號","121.651533333333","25.0749783333333","6501100","汐止區"
"221021","299-VK","2019/08/17 19:49:57","新北市汐止區新台五路一段197號","121.655961666667","25.0633066666667","6501100","汐止區"
"221031","353-TW","2019/08/17 19:49:42","新北市汐止區汐萬路一段312號","121.650653333333","25.0753083333333","6501100","汐止區"
"221025","623-UM","2019/08/17 19:49:56","新北市汐止區新台五路二段20巷8號","121.660735","25.0646733333333","6501100","汐止區"
"221038","646-BX","2019/08/17 19:49:58","新北市汐止區忠孝東路408號","121.665875","25.0711766666667","6501100","汐止區"
"221033","647-BX","2019/08/17 19:49:31","新北市汐止區芳園街108號","121.625848333333","25.0397666666667","6501100","汐止區"
"220079","145-BY","2019/08/17 19:49:51","新北市板橋區民權路202巷18弄1號","121.460888333333","25.01668","6500100","板橋區"
"220080","200-UY","2019/08/17 19:49:46","新北市板橋區大觀路二段37巷49號","121.449101666667","25.0026433333333","6500100","板橋區"
"220082","610-BX","2019/08/17 19:50:04","新北市板橋區大觀路三段191號","121.432071666667","24.993685","6500100","板橋區"
"220101","245-BX","2019/08/17 19:49:53","新北市板橋區縣民大道三段71號","121.475066666667","25.021495","6500100","板橋區"
"220091","267-BY","2019/08/17 19:49:50","新北市板橋區懷德街127巷23弄29號","121.480061666667","25.03219","6500100","板橋區"
"220056","276-BY","2019/08/17 19:50:01","新北市板橋區四川路二段47巷1弄2號","121.454145","24.9949783333333","6500100","板橋區"
"220072","277-BY","2019/08/17 19:49:49","新北市板橋區金門街151巷42弄2號","121.434086666667","24.9900733333333","6500100","板橋區"
"220071","283-VK","2019/08/17 19:50:02","新北市板橋區和平路174巷32號","121.464713333333","24.994335","6500100","板橋區"
"220094","285-UM","2019/08/17 19:50:00","新北市板橋區雨農路18巷1號","121.461905","25.024585","6500100","板橋區"
"220053","285-VK","2019/08/17 19:49:47","新北市板橋區永豐街20號","121.474795","25.0170333333333","6500100","板橋區"
"220083","286-VK","2019/08/17 19:50:01","新北市板橋區僑中三街36號","121.445468333333","25.0052066666667","6500100","板橋區"
"220081","287-VK","2019/08/17 19:49:48","新北市板橋區大觀路一段29巷179弄20號","121.44906","25.0047283333333","6500100","板橋區"
"220090","288-VK","2019/08/17 19:49:59","新北市板橋區新海路72巷64號","121.461855","25.0235383333333","6500100","板橋區"
"220061","293-UM","2019/08/17 19:49:56","新北市板橋區縣民大道二段200巷26號","121.47008","25.0173716666667","6500100","板橋區"
"220084","296-UM","2019/08/17 19:49:59","新北市板橋區溪崑二街112巷33弄10號","121.425353333333","24.9887083333333","6500100","板橋區"
"220075","303-R5","2019/08/17 19:50:05","新北市板橋區大勇街10巷2號","121.453913333333","25.0170466666667","6500100","板橋區"
"220062","305-R5","2019/08/17 19:49:57","新北市板橋區光復街33巷14號","121.48206","25.018835","6500100","板橋區"
"220092","307-R5","2019/08/17 19:49:48","新北市板橋區幸福路32巷29號","121.460811666667","25.0214233333333","6500100","板橋區"
"220098","317-R6","2019/08/17 19:49:52","新北市板橋區四維路269巷53號","121.460993333333","25.027265","6500100","板橋區"
"220089","487-VK","2019/08/17 19:50:02","新北市板橋區四維路152號","121.464925","25.0258016666667","6500100","板橋區"
"220088","491-VK","2019/08/17 19:49:48","新北市板橋區懷德街121號","121.478711666667","25.0311166666667","6500100","板橋區"
"220103","561-BX","2019/08/17 19:49:59","新北市板橋區英士路58巷9號","121.460671666667","25.0252066666667","6500100","板橋區"
"220063","609-BX","2019/08/17 19:49:52","新北市板橋區三民路一段3巷2號","121.478896666667","25.02347","6500100","板橋區"
"220035","630-UY","2019/08/17 19:50:01","新北市板橋區金華街85巷19號","121.458371666667","25.0214416666667","6500100","板橋區"
"220057","686-BX","2019/08/17 19:50:03","新北市板橋區德興街33號","121.453528333333","24.993925","6500100","板橋區"
"220077","687-BX","2019/08/17 19:49:43","新北市板橋區僑中二街124巷2號","121.445386666667","25.0052983333333","6500100","板橋區"
"220093","689-BX","2019/08/17 19:49:52","新北市板橋區民治街57巷32-1號","121.481253333333","25.03579","6500100","板橋區"
"220054","741-BX","2019/08/17 19:49:56","新北市板橋區忠孝路196-2號","121.465331666667","25.00249","6500100","板橋區"
"220102","KEA-2699","2019/08/17 19:50:04","新北市板橋區仁化街42巷29號","121.475833333333","25.0306483333333","6500100","板橋區"
"220067","829-TW","2019/08/17 19:49:57","新北市板橋區漢生東路193巷64弄3號","121.473458333333","25.012015","6500100","板橋區"
"220074","895-R6","2019/08/17 19:49:54","新北市板橋區大東街55號","121.456506666667","25.008235","6500100","板橋區"
"220073","985-R7","2019/08/17 19:49:56","新北市板橋區國光路49巷2號","121.45807","25.0180366666667","6500100","板橋區"
"220097","AAC-210","2019/08/17 19:50:00","新北市板橋區光正街43號","121.461828333333","25.01726","6500100","板橋區"
"220064","AAC-253","2019/08/17 19:49:59","新北市板橋區民族路83-1號","121.465855","25.00826","6500100","板橋區"
"235068","KEA-2873","2019/08/17 19:49:59","新北市中和區福美路297號","121.497301666667","25.0049083333333","6500300","中和區"
"235038","KEA-2876","2019/08/17 19:49:40","新北市中和區自立路6號","121.522465","24.9964933333333","6500300","中和區"
