"lineid","car","time","location","longitude","latitude","cityid","cityname"
"234081","298-R6","2019/08/17 20:29:49","新北市永和區福和路59號","121.522953333333","25.007765","6500400","永和區"
"234038","336-UY","2019/08/17 20:30:01","新北市永和區民樂街31巷10弄11號","121.528915","25.0010133333333","6500400","永和區"
"234086","338-UY","2019/08/17 20:29:50","新北市永和區光復街21號","121.51653","25.0173866666667","6500400","永和區"
"234070","552-UM","2019/08/17 20:29:54","新北市永和區永寧街10號","121.520331666667","25.006615","6500400","永和區"
"234017","745-BX","2019/08/17 20:30:01","新北市永和區仁愛路91號","121.513026666667","25.0130533333333","6500400","永和區"
"234030","746-BX","2019/08/17 20:29:53","新北市永和區民族街81巷62號","121.520246666667","24.9964","6500400","永和區"
"234054","KEA-2590","2019/08/17 20:30:00","新北市永和區環河東路一段82號","121.51959","25.0164183333333","6500400","永和區"
"234013","KEA-2591","2019/08/17 20:29:49","新北市永和區仁愛路296號","121.50365","25.00816","6500400","永和區"
"234061","AAD-866","2019/08/17 20:29:58","新北市永和區安樂路194巷19號","121.515845","25.00106","6500400","永和區"
"234042","862-TW","2019/08/17 20:29:48","新北市永和區安樂路248-1號","121.514715","25.0033316666667","6500400","永和區"
"234050","863-TW","2019/08/17 20:30:04","新北市永和區新生路54號","121.507796666667","25.0153733333333","6500400","永和區"
"249001","173-UM","2019/08/17 20:29:51","新北市八里區中山路三段106號","121.391025","25.14228","6502300","八里區"
"249004","303-UY","2019/08/17 20:30:02","新北市八里區中山路一段129巷19-1號","121.413945","25.1586033333333","6502300","八里區"
"249002","305-UY","2019/08/17 20:29:52","新北市八里區龍米路二段125巷23號","121.445865","25.1455766666667","6502300","八里區"
"249003","593-UM","2019/08/17 20:29:48","新北市八里區舊城路21號","121.399853333333","25.1470283333333","6502300","八里區"
"248002","678-BX","2019/08/17 20:30:00","新北市五股區成泰路三段45號","121.442711666667","25.0891716666667","6501500","五股區"
"234023","9380-KE","2019/08/17 20:29:50","新北市永和區博愛街32巷17-1號","121.518915","25.01529","6500400","永和區"
"234074","AAC-211","2019/08/17 20:29:59","新北市永和區豫溪街217巷29號","121.524313333333","25.01025","6500400","永和區"
"234067","AAC-212","2019/08/17 20:30:02","新北市永和區保平路292巷46弄2號","121.507401666667","25.0052616666667","6500400","永和區"
"234003","AAC-295","2019/08/17 20:29:56","新北市永和區中正路636號","121.516968333333","25.008165","6500400","永和區"
"244017","485-VK","2019/08/17 20:29:44","新北市林口區粉寮69號","121.405061666667","25.090825","6501700","林口區"
"243012","AAD-798","2019/08/17 20:29:55","新北市泰山區文化街37-6號","121.435218333333","25.064145","6501600","泰山區"
"243010","297-R6","2019/08/17 20:29:44","新北市泰山區新生路33號","121.427551666667","25.045255","6501600","泰山區"
"243014","KEA-2801","2019/08/17 20:29:50","新北市泰山區泰林路二段455號","121.425688333333","25.0639633333333","6501600","泰山區"
"243016","421-VK","2019/08/17 20:30:06","新北市泰山區文程路16號","121.4283","25.0492116666667","6501600","泰山區"
"243011","KEA-2216","2019/08/17 20:29:51","新北市泰山區新北大道六段313巷13弄11號","121.424611666667","25.033665","6501600","泰山區"
"243013","646-TV","2019/08/17 20:29:58","新北市泰山區中央路14巷3號","121.426476666667","25.0437183333333","6501600","泰山區"
"243015","680-BX","2019/08/17 20:29:53","新北市泰山區仁德路86號","121.433166666667","25.0564416666667","6501600","泰山區"
"222003","436-BY","2019/08/17 20:30:05","新北市深坑區深坑街32號","121.615238333333","25.0017766666667","6501800","深坑區"
"222002","659-BX","2019/08/17 20:30:01","新北市深坑區萬福路16巷3號","121.604508333333","25.00746","6501800","深坑區"
"231041","001-UM","2019/08/17 20:29:46","新北市新店區中正路501-4號","121.533571666667","24.983805","6500600","新店區"
"231055","0291-UT","2019/08/17 20:29:48","新北市新店區柴埕路59號","121.513601666667","24.9649766666667","6500600","新店區"
"231044","046-UY","2019/08/17 20:30:00","新北市新店區建國路134號","121.539005","24.9789083333333","6500600","新店區"
"231061","047-UY","2019/08/17 20:29:45","新北市新店區新和街33號","121.519091666667","24.98478","6500600","新店區"
"231060","106-UY","2019/08/17 20:29:54","新北市新店區錦秀路11巷12號","121.480958333333","24.944205","6500600","新店區"
"231051","107-UY","2019/08/17 20:29:52","新北市新店區中央路196號","121.530673333333","24.9746666666667","6500600","新店區"
"231049","108-UY","2019/08/17 20:30:00","新北市新店區永業路81巷1弄3號","121.52979","24.9495383333333","6500600","新店區"
"231065","110-UY","2019/08/17 20:29:56","新北市新店區安祥路102巷46弄57號","121.486448333333","24.9634966666667","6500600","新店區"
"231068","187-VK","2019/08/17 20:30:01","新北市新店區中興路三段248號","121.542976666667","24.9839883333333","6500600","新店區"
"221035","KEA-2785","2019/08/17 20:29:53","新北市汐止區長江街79巷16號","121.657893333333","25.0729","6501100","汐止區"
"231062","256-BX","2019/08/17 20:29:48","新北市新店區安泰路60巷49號","121.483855","24.9458783333333","6500600","新店區"
"231054","260-TV","2019/08/17 20:29:57","新北市新店區檳榔路105號","121.54455","24.96175","6500600","新店區"
"231042","268-BY","2019/08/17 20:29:49","新北市新店區寶橋路230號","121.55154","24.9788066666667","6500600","新店區"
"231064","278-BY","2019/08/17 20:29:46","新北市新店區永安街74巷24號","121.51919","24.9859783333333","6500600","新店區"
"231050","AAD-862","2019/08/17 20:30:02","新北市新店區建國路78號","121.540556666667","24.9764966666667","6500600","新店區"
"231045","355-BY","2019/08/17 20:30:01","新北市新店區新坡一街19號","121.549618333333","24.9630066666667","6500600","新店區"
"231058","3713-VJ","2019/08/17 20:29:46","新北市新店區中央路155號","121.52967","24.9727716666667","6500600","新店區"
"231056","4715-K9","2019/08/17 20:29:55","新北市新店區中央七街59號","121.52809","24.976265","6500600","新店區"
"231067","4772-VM","2019/08/17 20:29:47","新北市新店區安華路28-1號","121.51963","24.9609916666667","6500600","新店區"
"231052","513-UM","2019/08/17 20:29:54","新北市新店區松林路38號","121.546238333333","24.9102633333333","6500600","新店區"
"231063","616-UM","2019/08/17 20:29:58","新北市新店區薏仁坑路6-3號","121.49962","24.958745","6500600","新店區"
"231048","KED-0819","2019/08/17 20:29:57","新北市新店區寶慶街58巷12號","121.54209","24.9872383333333","6500600","新店區"
"231057","720-UM","2019/08/17 20:29:49","新北市新店區花園六路二段7號","121.555525","24.9334083333333","6500600","新店區"
"231059","897-TW","2019/08/17 20:30:01","新北市新店區安德街154號","121.508313333333","24.959575","6500600","新店區"
"231040","898-TW","2019/08/17 20:30:01","新北市新店區三民路66號","121.534991666667","24.97223","6500600","新店區"
"231043","899-TW","2019/08/17 20:30:00","新北市新店區明德路65巷20號","121.540543333333","24.9767716666667","6500600","新店區"
"231066","AKT-0513","2019/08/17 20:29:53","新北市新店區安民街301號","121.51756","24.973665","6500600","新店區"
"241011","013-R5","2019/08/17 20:29:48","新北市三重區龍門路92號","121.497325","25.0727066666667","6500200","三重區"
"241028","022-UY","2019/08/17 20:29:47","新北市三重區光興街91號","121.497376666667","25.0600066666667","6500200","三重區"
"241008","059-VK","2019/08/17 20:29:54","新北市三重區下竹圍街91號","121.481088333333","25.0748833333333","6500200","三重區"
"241031","061-VK","2019/08/17 20:29:50","新北市三重區三寧街15號","121.489461666667","25.0596666666667","6500200","三重區"
"241015","062-VK","2019/08/17 20:30:04","新北市三重區正義北路107巷68號","121.498701666667","25.06607","6500200","三重區"
"241017","063-VK","2019/08/17 20:30:01","新北市三重區自強路一段288號","121.491608333333","25.068165","6500200","三重區"
"241024","065-VK","2019/08/17 20:29:58","新北市三重區三民街283巷2號","121.479075","25.0684516666667","6500200","三重區"
"241002","090-VK","2019/08/17 20:29:47","新北市三重區仁義街167巷12號","121.497438333333","25.0819316666667","6500200","三重區"
"241003","091-VK","2019/08/17 20:29:48","新北市三重區富華街149號","121.493056666667","25.08482","6500200","三重區"
"241030","742-BX","2019/08/17 20:13:31","新北市三重區集美街103號","121.489243333333","25.0531583333333","6500200","三重區"
"241009","267-UM","2019/08/17 20:29:48","新北市三重區三和路四段382巷96弄6號","121.478856666667","25.078065","6500200","三重區"
"241032","269-UM","2019/08/17 20:30:02","新北市三重區重陽路一段120巷35號","121.485106666667","25.0601683333333","6500200","三重區"
"241013","270-UM","2019/08/17 20:29:53","新北市三重區溪尾街12號","121.49153","25.074695","6500200","三重區"
"241025","271-UM","2019/08/17 20:29:55","新北市三重區頂崁街210巷23弄1號","121.475848333333","25.0681233333333","6500200","三重區"
"241007","398-BY","2019/08/17 20:29:58","新北市三重區自強路四段28號","121.488785","25.0767066666667","6500200","三重區"
"241035","KEA-2210","2019/08/17 20:29:43","新北市三重區正義北路30-1號","121.497441666667","25.0632583333333","6500200","三重區"
"241004","475-VK","2019/08/17 20:29:51","新北市三重區溪尾街229號","121.488178333333","25.08121","6500200","三重區"
"241020","478-VK","2019/08/17 20:29:58","新北市三重區三和路三段142號","121.493493333333","25.0726133333333","6500200","三重區"
"241026","480-VK","2019/08/17 20:29:46","新北市三重區福德南路56號","121.5033","25.0618866666667","6500200","三重區"
"241014","543-UM","2019/08/17 20:29:58","新北市三重區長壽街120巷19弄7號","121.502353333333","25.06917","6500200","三重區"
"241023","545-UM","2019/08/17 20:29:51","新北市三重區自由街17巷1號","121.479995","25.0666583333333","6500200","三重區"
"241001","547-UM","2019/08/17 20:29:43","新北市三重區自強路四段10號","121.488413333333","25.076175","6500200","三重區"
"241019","KEA-2593","2019/08/17 20:29:47","新北市三重區忠孝路一段21號","121.491961666667","25.0719083333333","6500200","三重區"
"241005","AAD-863","2019/08/17 20:29:52","新北市三重區五華街141巷58號","121.49337","25.0866016666667","6500200","三重區"
"241022","KED-0820","2019/08/17 20:29:56","新北市三重區中正北路20巷12號","121.48795","25.0624916666667","6500200","三重區"
"241016","887-TS","2019/08/17 20:29:56","新北市三重區正義北路188號","121.49634","25.0668383333333","6500200","三重區"
"241012","941-UM","2019/08/17 20:29:54","新北市三重區龍濱路269號","121.501416666667","25.07307","6500200","三重區"
"241029","942-UM","2019/08/17 20:29:47","新北市三重區集美街116號","121.4887","25.0539583333333","6500200","三重區"
"241033","AAC-255","2019/08/17 20:29:57","新北市三重區五谷王北街82號","121.475991666667","25.0527616666667","6500200","三重區"
"235066","003-UY","2019/08/17 20:30:04","新北市中和區保平路342號","121.50655","25.0041633333333","6500300","中和區"
"235040","150-BY","2019/08/17 20:29:50","新北市新店區安和路三段46號","121.518805","24.9819766666667","6500300","中和區"
"247014","KEA-2869","2019/08/17 20:29:55","新北市蘆洲區中山二路100號","121.472566666667","25.0818616666667","6501400","蘆洲區"
"247008","KED-0682","2019/08/17 20:29:46","新北市蘆洲區重陽街112號","121.482625","25.08542","6501400","蘆洲區"
"235050","4979-A6","2019/08/17 20:29:59","新北市中和區景新街160巷18號","121.504881666667","24.9967133333333","6500300","中和區"
"235069","4980-A6","2019/08/17 20:29:45","新北市中和區中正路442巷20號","121.490985","24.99516","6500300","中和區"
"235059","AAC-215","2019/08/17 20:29:57","新北市中和區員山路28-11號","121.48113","24.9863533333333","6500300","中和區"
"247018","546-UM","2019/08/17 20:29:59","新北市蘆洲區民族路314巷3弄13號","121.476946666667","25.0906633333333","6501400","蘆洲區"
"247006","341-TH","2019/08/17 20:29:58","新北市蘆洲區和平路121巷14弄29號","121.46608","25.0800983333333","6501400","蘆洲區"
"247010","337-TH","2019/08/17 20:29:54","新北市蘆洲區集賢路300號","121.481568333333","25.0852983333333","6501400","蘆洲區"
"247002","336-TH","2019/08/17 20:30:03","新北市蘆洲區環堤大道122號","121.455415","25.0873166666667","6501400","蘆洲區"
"247022","057-VK","2019/08/17 20:29:54","新北市蘆洲區中正路227號","121.46801","25.0865266666667","6501400","蘆洲區"
"247012","056-VK","2019/08/17 20:29:50","新北市蘆洲區復興路231號","121.480103333333","25.0897666666667","6501400","蘆洲區"
"247016","053-VK","2019/08/17 20:29:45","新北市蘆洲區光華路32號","121.469183333333","25.0832516666667","6501400","蘆洲區"
"247024","001-UY","2019/08/17 20:29:59","新北市蘆洲區光復路91號","121.464226666667","25.0856216666667","6501400","蘆洲區"
"228003","097-TW","2019/08/17 20:29:54","新北市貢寮區雙玉里學苑街7號","121.915976666667","25.0219766666667","6502600","貢寮區"
"222001","KEA-2212","2019/08/17 20:30:00","新北市深坑區北深路三段327號","121.597345","25.0051616666667","6501800","深坑區"
"251001","011-UM","2019/08/17 20:29:50","新北市淡水區新市一路三段3號","121.444963333333","25.183","6501000","淡水區"
"251010","012-UM","2019/08/17 20:30:02","新北市淡水區沙崙路181巷1號","121.424028333333","25.18431","6501000","淡水區"
"251015","KEA-2871","2019/08/17 20:29:47","新北市淡水區商工路141號","121.447123333333","25.1883616666667","6501000","淡水區"
"251016","179-VK","2019/08/17 20:29:45","新北市淡水區新埔子11-4號","121.447875","25.2286366666667","6501000","淡水區"
"251008","181-VK","2019/08/17 20:29:48","新北市淡水區淡海路204號","121.420268333333","25.1855666666667","6501000","淡水區"
"251013","182-VK","2019/08/17 20:29:50","新北市淡水區後坑子6號","121.463366666667","25.2067416666667","6501000","淡水區"
"243009","549-UM","2019/08/17 20:29:56","新北市泰山區忠孝街16巷8號","121.428311666667","25.0650266666667","6501600","泰山區"
"251012","443-VK","2019/08/17 20:29:44","新北市淡水區頂田寮路123號","121.459445","25.21621","6501000","淡水區"
"251006","561-UM","2019/08/17 20:30:03","新北市淡水區商工路356號","121.468635","25.1853933333333","6501000","淡水區"
"251014","577-R6","2019/08/17 20:29:51","新北市淡水區石頭厝14-30號","121.464993333333","25.2368383333333","6501000","淡水區"
"251002","672-BX","2019/08/17 20:29:53","新北市淡水區中正路90-3號","121.442426666667","25.169645","6501000","淡水區"
"251003","673-BX","2019/08/17 20:29:54","新北市淡水區新民街21號","121.439393333333","25.1751933333333","6501000","淡水區"
"207004","291-VK","2019/08/17 20:29:46","新北市萬里區北基里忠二街11號","121.684911666667","25.1753866666667","6502800","萬里區"
"252002","178-VK","2019/08/17 20:29:55","新北市三芝區淡金路二段47-2號","121.503645","25.26051","6502100","三芝區"
"237015","649-BX","2019/08/17 20:13:51","新北市三峽區三樹路98巷74弄80號","121.387825","24.9381783333333","6500900","三峽區"
"252001","KED-0821","2019/08/17 20:30:03","新北市三芝區中山路一段45號","121.50078","25.257585","6502100","三芝區"
"242039","AAC-296","2019/08/17 20:30:01","新北市新莊區民安西路23號","121.427078333333","25.0212","6500500","新莊區"
"242061","986-R7","2019/08/17 20:29:57","新北市新莊區民安路343號","121.430785","25.0229066666667","6500500","新莊區"
"242002","751-BX","2019/08/17 20:29:55","新北市新莊區中正路78-1號","121.458501666667","25.0378116666667","6500500","新莊區"
"242029","615-BX","2019/08/17 20:29:51","新北市新莊區昌隆街10號","121.453173333333","25.0507933333333","6500500","新莊區"
"242027","613-BX","2019/08/17 20:29:52","新北市新莊區幸福路538號","121.455571666667","25.0494","6500500","新莊區"
"242058","612-BX","2019/08/17 20:29:49","新北市新莊區四維路196號","121.421808333333","25.0206083333333","6500500","新莊區"
"242046","566-BX","2019/08/17 20:29:49","新北市新莊區裕民街90巷13號","121.417826666667","25.02378","6500500","新莊區"
"242051","497-BY","2019/08/17 20:30:00","新北市新莊區民安西路189巷34號","121.427303333333","25.01529","6500500","新莊區"
"242056","442-UM","2019/08/17 20:29:51","新北市新莊區瓊泰路179號","121.443145","25.03151","6500500","新莊區"
"242004","440-UM","2019/08/17 20:30:01","新北市新莊區頭前路36號","121.467425","25.05246","6500500","新莊區"
"242042","415-TV","2019/08/17 20:29:46","新北市新莊區中正路694巷47號","121.41784","25.0289816666667","6500500","新莊區"
"242011","413-TV","2019/08/17 20:30:02","新北市新莊區中義街24號","121.45063","25.0512166666667","6500500","新莊區"
"242048","400-BY","2019/08/17 20:29:57","新北市新莊區龍安路293號","121.421031666667","25.0197383333333","6500500","新莊區"
"242025","362-BY","2019/08/17 20:29:58","新北市新莊區五工三路62巷23號","121.460306666667","25.065065","6500500","新莊區"
"242023","353-BY","2019/08/17 20:30:01","新北市新莊區化成路493-2號","121.464861666667","25.062905","6500500","新莊區"
"242013","132-UY","2019/08/17 20:30:00","新北市新莊區中和街184號","121.447448333333","25.0498","6500500","新莊區"
"242036","135-UY","2019/08/17 20:30:02","新北市新莊區後港一路76巷12弄2號","121.427151666667","25.0259083333333","6500500","新莊區"
"242053","172-VK","2019/08/17 20:30:04","新北市新莊區民安西路229巷6號","121.426568333333","25.0141033333333","6500500","新莊區"
"242015","173-VK","2019/08/17 20:29:59","新北市新莊區中平路46巷19號","121.445665","25.0438433333333","6500500","新莊區"
"242021","175-VK","2019/08/17 20:29:47","新北市新莊區公園路10巷2號","121.447808333333","25.0387683333333","6500500","新莊區"
"242017","176-VK","2019/08/17 20:29:48","新北市新莊區中港三街9巷2弄2號","121.451093333333","25.04629","6500500","新莊區"
"242019","347-TH","2019/08/17 20:30:00","新北市新莊區復興路二段198號","121.459383333333","25.0444016666667","6500500","新莊區"
"242034","348-TH","2019/08/17 20:29:48","新北市新莊區公園一路148號","121.446693333333","25.038225","6500500","新莊區"
"242007","349-TH","2019/08/17 20:29:55","新北市新莊區福壽街124巷29號","121.458898333333","25.051355","6500500","新莊區"
"242031","350-TH","2019/08/17 20:29:44","新北市新莊區義豐街1號","121.441053333333","25.034445","6500500","新莊區"
"221008","489-VK","2019/08/17 20:29:55","新北市汐止區康寧街143號","121.621398333333","25.0666","6501100","汐止區"
"221036","130-UY","2019/08/17 20:29:48","新北市汐止區仁愛路151巷22號","121.663441666667","25.06544","6501100","汐止區"
"221015","131-UY","2019/08/17 20:30:03","新北市汐止區建成路142巷19弄17號","121.661815","25.0739183333333","6501100","汐止區"
"221010","269-BY","2019/08/17 20:29:32","新北市汐止區八連路二段161號","121.634953333333","25.0949483333333","6501100","汐止區"
"221012","278-VK","2019/08/17 20:29:49","新北市汐止區汐平路二段66號","121.698081666667","25.0611116666667","6501100","汐止區"
"221023","279-VK","2019/08/17 20:29:50","新北市汐止區明峰街72號","121.631583333333","25.07121","6501100","汐止區"
"221032","280-BY","2019/08/17 20:29:46","新北市汐止區弘道街53巷10號","121.618701666667","25.0488316666667","6501100","汐止區"
"221027","281-BY","2019/08/17 20:30:00","新北市汐止區中正路207號","121.658405","25.06889","6501100","汐止區"
"221029","298-VK","2019/08/17 20:29:47","新北市汐止區樟樹一路129巷31號","121.640486666667","25.0650733333333","6501100","汐止區"
"221021","299-VK","2019/08/17 20:29:57","新北市汐止區水源路一段282巷1號","121.654106666667","25.0582266666667","6501100","汐止區"
"221031","353-TW","2019/08/17 20:30:02","新北市汐止區中興路150巷13號","121.632896666667","25.0649683333333","6501100","汐止區"
"221025","623-UM","2019/08/17 20:29:56","新北市汐止區水源路二段88巷1弄1號","121.656306666667","25.0558733333333","6501100","汐止區"
"221038","646-BX","2019/08/17 20:29:58","新北市汐止區水源路一段56-1號","121.657105","25.0653116666667","6501100","汐止區"
"221033","647-BX","2019/08/17 20:29:55","新北市汐止區林森街73巷11號","121.623653333333","25.0411366666667","6501100","汐止區"
"221002","707-TV","2019/08/17 20:29:59","新北市汐止區原興路71號","121.632073333333","25.0656433333333","6501100","汐止區"
"221018","753-BX","2019/08/17 20:24:28","新北市汐止區茄苳路231號","121.67115","25.0685566666667","6501100","汐止區"
"220072","277-BY","2019/08/17 20:29:49","新北市樹林區中山路三段214號","121.379885","24.9676983333333","6500100","板橋區"
"220083","286-VK","2019/08/17 20:30:01","新北市板橋區僑中二街102巷1-4號","121.445983333333","25.008225","6500100","板橋區"
"220081","287-VK","2019/08/17 20:29:48","新北市板橋區僑中一街104號","121.446665","25.0117883333333","6500100","板橋區"
"242044","281-VK","2019/08/17 20:29:39","新北市新莊區中正路新建巷20號","121.414123333333","25.0221983333333","6500500","新莊區"
"242009","280-VK","2019/08/17 20:29:57","新北市新莊區昌隆街58巷1弄12號","121.455496666667","25.0506366666667","6500500","新莊區"
"220074","895-R6","2019/08/17 20:29:53","新北市板橋區南雅南路一段7巷22弄7號","121.45586","25.0046916666667","6500100","板橋區"
