"lineid","car","time","location","longitude","latitude","cityid","cityname"
"244017","485-VK","2019/08/17 20:51:51","新北市林口區粉寮69號","121.40508","25.0908316666667","6501700","林口區"
"231051","107-UY","2019/08/17 21:19:51","新北市新店區溪園路87號","121.528356666667","24.9862416666667","6500600","新店區"
"231050","AAD-862","2019/08/17 21:20:02","新北市新店區中正路284巷7號","121.538158333333","24.9746166666667","6500600","新店區"
"231063","616-UM","2019/08/17 21:19:58","新北市新店區吉祥街15巷1號","121.497786666667","24.9456083333333","6500600","新店區"
"231059","897-TW","2019/08/17 21:20:01","新北市新店區僑義路25號","121.500403333333","24.95092","6500600","新店區"
"241011","013-R5","2019/08/17 21:19:48","新北市三重區龍濱路197號","121.501908333333","25.0713966666667","6500200","三重區"
"241028","022-UY","2019/08/17 21:19:49","新北市三重區中正南路151號","121.493928333333","25.056495","6500200","三重區"
"241008","059-VK","2019/08/17 21:19:54","新北市三重區自強路一段155號","121.493601666667","25.0670333333333","6500200","三重區"
"241031","061-VK","2019/08/17 21:19:50","新北市三重區重新路五段408巷19號","121.475785","25.0455666666667","6500200","三重區"
"241015","062-VK","2019/08/17 21:19:44","新北市三重區龍濱路190號","121.501093333333","25.0732916666667","6500200","三重區"
"241017","063-VK","2019/08/17 21:20:01","新北市三重區中正北路25巷25弄2號","121.49321","25.0626016666667","6500200","三重區"
"241024","065-VK","2019/08/17 21:19:46","新北市三重區中正北路145巷14號","121.484161666667","25.0677183333333","6500200","三重區"
"241002","090-VK","2019/08/17 21:19:47","新北市三重區自強路五段87號","121.495185","25.08225","6500200","三重區"
"241003","091-VK","2019/08/17 21:19:48","新北市三重區仁義街321號","121.495375","25.08439","6500200","三重區"
"241030","742-BX","2019/08/17 21:19:51","新北市五股區五工二路136號","121.454885","25.072555","6500200","三重區"
"241009","267-UM","2019/08/17 21:19:48","新北市五股區成泰路一段98巷77號","121.451228333333","25.0766483333333","6500200","三重區"
"241032","269-UM","2019/08/17 21:20:02","新北市五股區成泰路一段98巷77號","121.451363333333","25.0763983333333","6500200","三重區"
"241013","270-UM","2019/08/17 21:19:52","新北市三重區仁愛街66號","121.495825","25.0731633333333","6500200","三重區"
"241007","398-BY","2019/08/17 21:19:58","新北市三重區正義北路388號","121.493146666667","25.0716933333333","6500200","三重區"
"241004","475-VK","2019/08/17 21:19:51","新北市三重區五華街141巷57號","121.49349","25.0864216666667","6500200","三重區"
"241026","480-VK","2019/08/17 21:19:46","新北市三重區大同南路210號","121.496735","25.0564083333333","6500200","三重區"
"241014","543-UM","2019/08/17 21:19:58","新北市三重區萬全街9號","121.499376666667","25.0696733333333","6500200","三重區"
"241023","545-UM","2019/08/17 21:19:51","新北市三重區中正北路176巷27號","121.482675","25.0659433333333","6500200","三重區"
"241005","AAD-863","2019/08/17 21:19:52","新北市三重區仁華街118巷6號","121.485753333333","25.0830466666667","6500200","三重區"
"241016","887-TS","2019/08/17 21:19:56","新北市三重區自強路一段95號","121.495961666667","25.066315","6500200","三重區"
"241033","AAC-255","2019/08/17 21:19:57","新北市三重區光復路二段88巷34號","121.47058","25.0573683333333","6500200","三重區"
"235066","003-UY","2019/08/17 21:05:58","新北市中和區保平路342號","121.506701666667","25.0040916666667","6500300","中和區"
"247008","KED-0682","2019/08/17 21:19:46","新北市蘆洲區中山一路135巷8號","121.475721666667","25.0812283333333","6501400","蘆洲區"
"235018","640-BX","2019/08/17 21:00:42","新北市中和區員山路36巷16-2號","121.48525","24.9914816666667","6500300","中和區"
"235010","733-UM","2019/08/17 21:16:42","新北市中和區員山路36巷13號","121.484128333333","24.9909216666667","6500300","中和區"
"247006","341-TH","2019/08/17 21:19:58","新北市蘆洲區中華街65號","121.462266666667","25.08082","6501400","蘆洲區"
"247002","336-TH","2019/08/17 21:19:46","新北市蘆洲區永樂街57號","121.456725","25.0885316666667","6501400","蘆洲區"
"247024","001-UY","2019/08/17 21:19:59","新北市蘆洲區永康街116號","121.458128333333","25.0852966666667","6501400","蘆洲區"
"251004","009-UM","2019/08/17 21:20:05","新北市淡水區民族路33號","121.462286666667","25.1358383333333","6501000","淡水區"
"251005","010-UM","2019/08/17 21:20:04","新北市淡水區水源街一段122巷37號","121.447113333333","25.170505","6501000","淡水區"
"251001","011-UM","2019/08/17 21:19:50","新北市淡水區濱海路一段306巷60弄32號","121.441815","25.1914933333333","6501000","淡水區"
"251010","012-UM","2019/08/17 21:20:02","新北市淡水區中正路一段156巷12號","121.421808333333","25.1808483333333","6501000","淡水區"
"251015","KEA-2871","2019/08/17 21:19:47","新北市淡水區淡金路四段518號","121.451835","25.2262","6501000","淡水區"
"251016","179-VK","2019/08/17 21:19:45","新北市淡水區前洲子11號","121.441103333333","25.21937","6501000","淡水區"
"251008","181-VK","2019/08/17 21:19:48","新北市淡水區水源街二段208號","121.459318333333","25.1765833333333","6501000","淡水區"
"251013","182-VK","2019/08/17 21:19:50","新北市淡水區行忠路330號","121.460618333333","25.1999066666667","6501000","淡水區"
"251012","443-VK","2019/08/17 21:20:04","新北市淡水區淡金路五段35巷46號","121.452508333333","25.2347533333333","6501000","淡水區"
"251006","561-UM","2019/08/17 21:19:58","新北市淡水區中正路一段21號","121.426343333333","25.1763183333333","6501000","淡水區"
"251009","575-R6","2019/08/17 21:20:04","新北市淡水區民族路33巷16-20號","121.462526666667","25.135795","6501000","淡水區"
"251014","577-R6","2019/08/17 21:19:51","新北市淡水區六塊厝2-1號","121.450213333333","25.2405166666667","6501000","淡水區"
"251011","650-BX","2019/08/17 21:19:49","新北市淡水區新民街120巷29號","121.438895","25.178845","6501000","淡水區"
"251002","672-BX","2019/08/17 21:19:53","新北市淡水區學府路172巷21號","121.448313333333","25.17485","6501000","淡水區"
"251003","673-BX","2019/08/17 21:19:53","新北市淡水區崁頂15-5號","121.438883333333","25.186095","6501000","淡水區"
