"lineid","car","time","location","longitude","latitude","cityid","cityname"
"251004","009-UM","2019/08/17 21:59:45","新北市淡水區民權路233號","121.461233333333","25.128475","6501000","淡水區"
"251005","010-UM","2019/08/17 21:59:45","新北市淡水區鄧公路30巷2弄39號","121.453605","25.169245","6501000","淡水區"
"251010","012-UM","2019/08/17 22:00:02","新北市淡水區中正路二段206號","121.426251666667","25.189075","6501000","淡水區"
"251008","181-VK","2019/08/17 21:59:48","新北市淡水區學府路104號","121.44985","25.17179","6501000","淡水區"
"251007","442-VK","2019/08/17 21:59:51","新北市淡水區北新路184巷1號","121.449473333333","25.17852","6501000","淡水區"
"251006","561-UM","2019/08/17 21:46:16","新北市淡水區中正路11巷3號","121.43784","25.1707583333333","6501000","淡水區"
"251011","650-BX","2019/08/17 21:59:49","新北市淡水區水碓街3號","121.4431","25.17703","6501000","淡水區"
"251003","673-BX","2019/08/17 21:59:53","新北市淡水區新春街94號","121.438966666667","25.1824883333333","6501000","淡水區"
