"lineid","car","time","location","longitude","latitude","cityid","cityname"
"222007","289-BY","2019/08/31 08:59:42","新北市深坑區大崙尾1號","121.615025","24.974985","6501800","深坑區"
"231008","515-UM","2019/08/31 08:59:41","新北市新店區平廣路一段30號","121.535381666667","24.9033583333333","6500600","新店區"
"226007","7418-A5","2019/08/31 08:59:38","新北市平溪區東勢里芊蓁坑30號","121.727523333333","24.9792416666667","6502400","平溪區"
"226003","AGD-0702","2019/08/31 08:59:27","新北市平溪區十分里十分街210號","121.779103333333","25.044365","6502400","平溪區"
"223003","205-TH","2019/08/31 08:59:37","新北市石碇區北宜路六段水底寮巷23號","121.664271666667","24.9420316666667","6501900","石碇區"
"223008","406-TH","2019/08/31 08:59:46","新北市石碇區光明路16號","121.683358333333","25.0330816666667","6501900","石碇區"
"223001","592-UM","2019/08/31 08:59:31","新北市石碇區北宜路六段水底寮巷23號","121.664308333333","24.942115","6501900","石碇區"
"223004","660-BX","2019/08/31 08:59:29","新北市石碇區碇坪路二段51號","121.684373333333","24.9717933333333","6501900","石碇區"
"223007","661-BX","2019/08/31 08:59:35","新北市石碇區光明路2號","121.674218333333","25.0286183333333","6501900","石碇區"
"223005","677-TV","2019/08/31 08:59:27","新北市石碇區碇坪路二段55號","121.684648333333","24.971015","6501900","石碇區"
"227004","282-VK","2019/08/31 08:59:34","新北市雙溪區平林里竹寮坑7號","121.841216666667","25.0397783333333","6502500","雙溪區"
"252004","249-BX","2019/08/31 08:59:29","新北市三芝區興華里田心子32-6號","121.491618333333","25.1997166666667","6502100","三芝區"
"252007","AAC-283","2019/08/31 08:59:39","新北市三芝區錫板里海尾15號","121.475965","25.256585","6502100","三芝區"
"233003","KEA-2870","2019/08/31 08:59:42","新北市烏來區卡拉模基28號","121.503373333333","24.7804733333333","6502900","烏來區"
