"lineid","car","time","location","longitude","latitude","cityid","cityname"
"222007","289-BY","2019/08/31 09:49:42","新北市深坑區深南路56號","121.619503333333","25.009365","6501800","深坑區"
"231008","515-UM","2019/08/31 09:49:30","新北市新店區小坑一路71號","121.531245","24.9084733333333","6500600","新店區"
"227004","282-VK","2019/08/31 09:49:34","新北市雙溪區長源里柑腳54-1號","121.794183333333","25.0078016666667","6502500","雙溪區"
"252004","249-BX","2019/08/31 09:49:29","新北市三芝區圓山里石曹子坑43-6號","121.51532","25.21718","6502100","三芝區"
"252007","AAC-283","2019/08/31 09:49:39","新北市三芝區新庄里新庄子51-13號","121.507376666667","25.276695","6502100","三芝區"
"233003","KEA-2870","2019/08/31 09:49:42","新北市烏來區瀑布路4號","121.55089","24.85067","6502900","烏來區"
