"lineid","car","time","location","longitude","latitude","cityid","cityname"
"222007","289-BY","2019/08/31 10:09:42","新北市深坑區深南路88巷1號","121.621025","25.01179","6501800","深坑區"
"231008","515-UM","2019/08/31 10:09:30","新北市新店區松林路83號","121.548363333333","24.90809","6500600","新店區"
"227004","282-VK","2019/08/31 10:09:34","新北市雙溪區長源里盤山坑13號","121.77281","24.9960516666667","6502500","雙溪區"
"252004","249-BX","2019/08/31 10:09:29","新北市三芝區福德里埔尾10-1號","121.504128333333","25.2448816666667","6502100","三芝區"
"252007","AAC-283","2019/08/31 10:09:39","新北市三芝區車新路87號","121.494368333333","25.267375","6502100","三芝區"
"233003","KEA-2870","2019/08/31 10:09:42","新北市烏來區啦卡路70-1號","121.565015","24.8559533333333","6502900","烏來區"
