"lineid","car","time","location","longitude","latitude","cityid","cityname"
"234044","148-BY","2019/08/31 13:29:30","新北市永和區秀朗路二段181巷8號","121.526258333333","25.0013433333333","6500400","永和區"
"234078","298-R6","2019/08/31 13:29:45","新北市永和區福和路5-9號","121.525455","25.008465","6500400","永和區"
"234036","336-UY","2019/08/31 13:29:34","新北市永和區民樂街42號","121.527491666667","25.0005733333333","6500400","永和區"
"234062","337-UY","2019/08/31 13:29:26","新北市永和區中正路368巷1弄88號","121.520496666667","25.0007383333333","6500400","永和區"
"234084","338-UY","2019/08/31 13:29:29","新北市永和區林森路62號","121.524041666667","25.00422","6500400","永和區"
"234068","552-UM","2019/08/31 13:29:35","新北市永和區竹林路182號","121.520415","25.00976","6500400","永和區"
"234015","745-BX","2019/08/31 13:29:40","新北市永和區環河西路一段1號","121.51527","25.0180183333333","6500400","永和區"
"234028","746-BX","2019/08/31 13:29:33","新北市永和區四維街66號","121.524091666667","24.9982383333333","6500400","永和區"
"234052","KEA-2590","2019/08/31 13:29:33","新北市永和區竹林路36號","121.517321666667","25.01454","6500400","永和區"
"234005","KED-0605","2019/08/31 13:29:37","新北市永和區中山路一段144號","121.509936666667","25.00965","6500400","永和區"
"234012","KEA-2591","2019/08/31 13:29:44","新北市永和區永平路203巷5弄1號","121.509181666667","25.0097766666667","6500400","永和區"
"234060","AAD-866","2019/08/31 13:29:38","新北市永和區永貞路194號","121.515965","25.0042616666667","6500400","永和區"
"234040","862-TW","2019/08/31 13:29:38","新北市永和區中和路519巷6號","121.510983333333","25.0030266666667","6500400","永和區"
"234048","863-TW","2019/08/31 13:29:46","新北市永和區仁愛路127號","121.51187","25.0130633333333","6500400","永和區"
"234025","9371-KE","2019/08/31 13:29:36","新北市永和區中正路748號","121.514786666667","25.0102833333333","6500400","永和區"
"234010","9373-KE","2019/08/31 13:29:42","新北市永和區信義路43巷22弄2號","121.5124","25.0121533333333","6500400","永和區"
"248017","KED-0813","2019/08/31 13:29:34","新北市五股區御史路285號","121.420003333333","25.1065033333333","6501500","五股區"
"234022","9380-KE","2019/08/31 13:29:31","新北市永和區環河東路二段92號","121.524028333333","25.010555","6500400","永和區"
"234076","969-R7","2019/08/31 13:29:35","新北市永和區民治街89號","121.517405","24.9983016666667","6500400","永和區"
"234072","AAC-211","2019/08/31 13:29:45","新北市永和區博愛街49巷2號","121.519761666667","25.0164566666667","6500400","永和區"
"234066","AAC-212","2019/08/31 13:29:32","新北市永和區保平路113號","121.510895","25.0067033333333","6500400","永和區"
"234001","AAC-295","2019/08/31 13:29:44","新北市永和區永和路一段118號","121.513986666667","25.007855","6500400","永和區"
"244005","248-BX","2019/08/31 13:29:25","新北市林口區南勢里90-3號","121.345733333333","25.077825","6501700","林口區"
"231030","002-UM","2019/08/31 13:29:30","新北市新店區安華路28-1號","121.519615","24.9608483333333","6500600","新店區"
"231027","0293-UT","2019/08/31 13:29:31","新北市新店區環河路19巷2弄2號","121.537501666667","24.9609066666667","6500600","新店區"
"231005","046-UY","2019/08/31 13:29:38","新北市新店區光明街169號","121.539556666667","24.9626383333333","6500600","新店區"
"231029","106-UY","2019/08/31 13:29:35","新北市新店區安華路30巷3號","121.51878","24.9585866666667","6500600","新店區"
"231018","107-UY","2019/08/31 13:29:40","新北市新店區中央路177-1號","121.535181666667","24.96944","6500600","新店區"
"231013","108-UY","2019/08/31 13:29:46","新北市新店區環河路116-11號","121.536806666667","24.9676933333333","6500600","新店區"
"231036","110-UY","2019/08/31 13:29:39","新北市新店區安祥路191號","121.47464","24.9543966666667","6500600","新店區"
"231033","256-BX","2019/08/31 13:29:44","新北市新店區安豐路54-1號","121.499806666667","24.9541516666667","6500600","新店區"
"231023","260-TV","2019/08/31 13:29:33","新北市新店區北新路一段41號","121.53809","24.9593183333333","6500600","新店區"
"231003","268-BY","2019/08/31 13:29:38","新北市新店區安康路一段48號","121.530446666667","24.9610866666667","6500600","新店區"
"231035","278-BY","2019/08/31 13:29:47","新北市新店區安康路一段355號","121.51981","24.9632016666667","6500600","新店區"
"231017","AAD-862","2019/08/31 13:29:29","新北市新店區北宜路一段140巷1號","121.539796666667","24.9546516666667","6500600","新店區"
"231006","355-BY","2019/08/31 13:29:41","新北市新店區安華路28-1號","121.519346666667","24.9609366666667","6500600","新店區"
"231038","3712-VJ","2019/08/31 13:29:27","新北市新店區安華路30巷1號","121.519536666667","24.95924","6500600","新店區"
"231024","4716-K9","2019/08/31 13:29:32","新北市新店區北新路二段29巷3弄1號","121.542195","24.972975","6500600","新店區"
"231025","4715-K9","2019/08/31 13:29:40","新北市新店區中央五街37號","121.528566666667","24.9750916666667","6500600","新店區"
"231020","515-UM","2019/08/31 13:29:33","新北市新店區新烏路一段159號","121.544806666667","24.93517","6500600","新店區"
"231034","616-UM","2019/08/31 13:29:41","新北市新店區安華路1-1號","121.51942","24.9605016666667","6500600","新店區"
"231002","619-UM","2019/08/31 13:29:31","新北市新店區安康路一段52巷2號","121.53018","24.961205","6500600","新店區"
"231012","KED-0819","2019/08/31 13:29:42","新北市新店區光明街169號","121.539533333333","24.9626716666667","6500600","新店區"
"231010","719-UM","2019/08/31 13:29:39","新北市新店區自由街2-1號","121.535675","24.975505","6500600","新店區"
"231026","720-UM","2019/08/31 13:29:30","新北市新店區安一路一段1-1號","121.51932","24.961055","6500600","新店區"
"231028","897-TW","2019/08/31 13:29:34","新北市新店區安一路一段1-1號","121.519676666667","24.96113","6500600","新店區"
"231001","898-TW","2019/08/31 13:29:34","新北市新店區安康路一段50號","121.530295","24.9610933333333","6500600","新店區"
"231004","899-TW","2019/08/31 13:29:44","新北市新店區安康路一段355-3號","121.519795","24.962405","6500600","新店區"
"231037","AKT-0513","2019/08/31 13:29:24","新北市新店區安康路二段382號","121.50042","24.9570933333333","6500600","新店區"
"235030","003-UY","2019/08/31 13:29:30","新北市中和區中山路二段120號","121.502826666667","25.00381","6500300","中和區"
"235027","006-UY","2019/08/31 13:29:38","新北市中和區連城路347巷6弄2號","121.488336666667","24.995365","6500300","中和區"
"235020","096-UM","2019/08/31 13:29:33","新北市中和區新民街97號","121.480776666667","25.0083383333333","6500300","中和區"
"235003","097-UM","2019/08/31 13:29:44","新北市中和區大仁街19巷8號","121.517261666667","24.9932866666667","6500300","中和區"
"235029","098-UM","2019/08/31 13:29:35","新北市中和區莊敬路49巷19號","121.501443333333","25.005855","6500300","中和區"
"235004","150-BY","2019/08/31 13:29:27","新北市中和區安平路59號","121.509398333333","24.9951883333333","6500300","中和區"
"235022","151-BY","2019/08/31 13:29:26","新北市中和區圓通路369巷66號","121.49052","24.982345","6500300","中和區"
"235019","183-VK","2019/08/31 13:29:33","新北市中和區國光街8巷7號","121.471603333333","25.0006766666667","6500300","中和區"
"235002","185-VK","2019/08/31 13:29:29","新北市中和區秀朗路三段128巷17弄41號","121.522891666667","24.993245","6500300","中和區"
"235013","186-VK","2019/08/31 13:29:39","新北市中和區景安路80號","121.50575","24.9963516666667","6500300","中和區"
"235031","255-BX","2019/08/31 13:29:31","新北市中和區員山路148巷49號","121.482761666667","24.99717","6500300","中和區"
"235008","293-VK","2019/08/31 13:29:41","新北市中和區復興路301巷2弄1號","121.501501666667","24.98988","6500300","中和區"
"235036","301-VK","2019/08/31 13:29:34","新北市中和區連城路189號","121.49506","24.998105","6500300","中和區"
"235007","352-BY","2019/08/31 13:29:43","新北市中和區景平路257號","121.508615","24.9929583333333","6500300","中和區"
"235006","KEA-2878","2019/08/31 13:29:31","新北市中和區自立路56巷24號","121.522373333333","24.991625","6500300","中和區"
"235014","4979-A6","2019/08/31 13:29:25","新北市中和區景新街362巷5號","121.511995","24.9900683333333","6500300","中和區"
"235033","4980-A6","2019/08/31 13:29:43","新北市中和區連城路127巷33號","121.497308333333","24.99729","6500300","中和區"
"235034","558-UM","2019/08/31 13:29:39","新北市中和區明禮街46號","121.504098333333","24.9966166666667","6500300","中和區"
"235009","565-BX","2019/08/31 13:29:34","新北市中和區南山路236巷24弄48號","121.504653333333","24.9886566666667","6500300","中和區"
"235024","KED-0823","2019/08/31 13:29:36","新北市中和區中山路三段35-1號","121.478826666667","25.0058033333333","6500300","中和區"
"235018","640-BX","2019/08/31 13:29:44","新北市中和區莒光路95號","121.472368333333","25.0031033333333","6500300","中和區"
"235011","732-UM","2019/08/31 13:29:24","新北市中和區中正路271號","121.495836666667","24.993875","6500300","中和區"
"235035","783-BX","2019/08/31 13:29:25","新北市中和區板南路472-1號","121.488826666667","25.006425","6500300","中和區"
"235073","800-TS","2019/08/31 13:29:28","新北市中和區中山路二段312巷10弄1號","121.495586666667","25.0031016666667","6500300","中和區"
"235021","801-TS","2019/08/31 13:29:30","新北市中和區民安街42巷3號","121.47855","25.001505","6500300","中和區"
"235016","805-TS","2019/08/31 13:29:28","新北市中和區興南路二段122號","121.504501666667","24.9837033333333","6500300","中和區"
"235012","896-TW","2019/08/31 13:29:30","新北市中和區中正路637巷52弄1號","121.485455","24.9934183333333","6500300","中和區"
"235017","900-TW","2019/08/31 13:29:35","新北市土城區金城路三段259-1號","121.471981666667","24.9901366666667","6500300","中和區"
"235028","911-UM","2019/08/31 13:29:41","新北市中和區連城路109巷42號","121.497251666667","24.997835","6500300","中和區"
"235015","157-BY","2019/08/31 13:29:43","新北市中和區興南路二段142巷35弄2號","121.502351666667","24.9846683333333","6500300","中和區"
"235001","AAC-213","2019/08/31 13:29:25","新北市中和區景德街58號","121.51738","24.991615","6500300","中和區"
"235023","AAC-215","2019/08/31 13:29:32","新北市中和區員山路36巷16-3號","121.4852","24.9913083333333","6500300","中和區"
"220013","072-UY","2019/08/31 13:29:38","新北市板橋區縣民大道一段92-1號","121.45614","25.00484","6500100","板橋區"
"247011","337-TH","2019/08/31 13:29:30","新北市五股區中興路三段163號","121.44912","25.0809533333333","6501400","蘆洲區"
"235005","251-BX","2019/08/31 13:29:30","新北市中和區中和路400巷12弄2號","121.511388333333","25.0024216666667","6500300","中和區"
"228005","097-TW","2019/08/31 13:29:27","新北市貢寮區仁理村仁和路78號","121.922746666667","25.0502416666667","6502600","貢寮區"
"228004","212-TW","2019/08/31 13:29:32","新北市貢寮區龍崗里石壁坑街17號","121.910431666667","24.9895466666667","6502600","貢寮區"
"253003","6232-TK","2019/08/31 13:29:36","新北市石門區內石門50-1號","121.572006666667","25.2617433333333","6502200","石門區"
"253004","6251-TK","2019/08/31 13:29:44","新北市石門區竹子湖13號","121.617806666667","25.25578","6502200","石門區"
"253002","637-UY","2019/08/31 13:29:32","新北市石門區九芎林5-3號","121.559865","25.2681766666667","6502200","石門區"
"253001","KEC-0718","2019/08/31 13:27:59","新北市石門區下員坑20號","121.511311666667","25.2789966666667","6502200","石門區"
"207002","749-BX","2019/08/31 13:29:43","新北市萬里區崁腳里崁腳路166號","121.645051666667","25.1558533333333","6502800","萬里區"
"252005","073-UM","2019/08/31 13:29:40","新北市三芝區福德里土地公埔72號","121.522145","25.224015","6502100","三芝區"
"207001","662-BX","2019/08/31 13:29:44","新北市萬里區野柳里八斗60-1號","121.675995","25.2005983333333","6502800","萬里區"
"236013","270-VK","2019/08/31 13:29:40","新北市土城區城林路6巷80號","121.43848","24.979805","6501300","土城區"
"221029","298-VK","2019/08/31 13:29:28","新北市汐止區南陽街65號","121.624485","25.0636633333333","6501100","汐止區"
"220027","145-BY","2019/08/31 13:29:35","新北市板橋區華東街1-10號","121.448348333333","24.9950616666667","6500100","板橋區"
"220030","610-BX","2019/08/31 13:29:38","新北市板橋區華東街1-9號","121.448248333333","24.9949183333333","6500100","板橋區"
"220004","276-BY","2019/08/31 13:29:32","新北市板橋區華東街1-9號","121.448113333333","24.9949316666667","6500100","板橋區"
"220020","277-BY","2019/08/31 13:29:43","新北市板橋區華東街1-10號","121.448311666667","24.995115","6500100","板橋區"
"220043","283-UM","2019/08/31 13:29:42","新北市板橋區民生路二段120號","121.470296666667","25.0198133333333","6500100","板橋區"
"220019","283-VK","2019/08/31 13:29:36","新北市板橋區華東街1-10號","121.448705","24.994945","6500100","板橋區"
"220031","286-VK","2019/08/31 13:29:38","新北市板橋區華東街1-10號","121.448376666667","24.99508","6500100","板橋區"
"220032","296-UM","2019/08/31 13:29:13","新北市板橋區華東街1-9號","121.448156666667","24.9949633333333","6500100","板橋區"
"220037","491-VK","2019/08/31 13:29:42","新北市板橋區民生路二段188號","121.47012","25.0202733333333","6500100","板橋區"
"220104","560-BX","2019/08/31 13:29:31","新北市板橋區南雅南路一段115號","121.455311666667","25.004875","6500100","板橋區"
"220005","686-BX","2019/08/31 13:29:42","新北市板橋區華東街1-9號","121.448215","24.994915","6500100","板橋區"
"220025","687-BX","2019/08/31 13:29:37","新北市板橋區大觀路二段265巷7-7號","121.443765","24.9946516666667","6500100","板橋區"
"220003","827-TW","2019/08/31 13:29:31","新北市板橋區華東街1-9號","121.44822","24.994925","6500100","板橋區"
"220022","895-R6","2019/08/31 13:29:39","新北市板橋區南雅南路二段11-23號","121.453868333333","25.0020383333333","6500100","板橋區"
"220021","985-R7","2019/08/31 13:29:44","新北市板橋區四川路二段247號","121.45013","24.9932183333333","6500100","板橋區"
"220046","AAC-210","2019/08/31 13:29:40","新北市板橋區民生路二段120號","121.470395","25.0195716666667","6500100","板橋區"
"220012","AAC-253","2019/08/31 13:29:42","新北市板橋區華東街11號","121.451241666667","24.9982466666667","6500100","板橋區"
"235032","KEA-2873","2019/08/31 13:29:23","新北市中和區中正路271-5號","121.495821666667","24.9932266666667","6500300","中和區"
"235025","KEA-2875","2019/08/31 13:29:27","新北市中和區民享街114巷25號","121.47356","24.9995566666667","6500300","中和區"
