"lineid","car","time","location","longitude","latitude","cityid","cityname"
"234078","298-R6","2019/08/31 14:19:44","新北市永和區國中路132巷7號","121.523701666667","25.0073583333333","6500400","永和區"
"234036","336-UY","2019/08/31 14:19:31","新北市永和區成功路一段93巷18號","121.527915","25.002715","6500400","永和區"
"234062","337-UY","2019/08/31 14:19:26","新北市永和區得和路127號","121.51888","25.0002183333333","6500400","永和區"
"234084","338-UY","2019/08/31 14:19:29","新北市永和區永和路二段55號","121.51463","25.0108116666667","6500400","永和區"
"234068","552-UM","2019/08/31 14:19:35","新北市永和區永安街7巷5號","121.51855","25.0061016666667","6500400","永和區"
"234028","746-BX","2019/08/31 14:19:33","新北市永和區民權路51號","121.519985","24.9970133333333","6500400","永和區"
"234052","KEA-2590","2019/08/31 14:19:33","新北市永和區光復街2巷18號","121.517141666667","25.0166116666667","6500400","永和區"
"234005","KED-0605","2019/08/31 14:19:37","新北市永和區中正路666巷2號","121.516806666667","25.0090416666667","6500400","永和區"
"234012","KEA-2591","2019/08/31 14:19:44","新北市永和區仁愛路295號","121.504893333333","25.0091","6500400","永和區"
"234060","AAD-866","2019/08/31 14:19:39","新北市永和區安樂路194巷17弄6號","121.516041666667","25.001255","6500400","永和區"
"234040","862-TW","2019/08/31 14:19:36","新北市中和區安平路176號","121.51285","24.99881","6500400","永和區"
"234048","863-TW","2019/08/31 14:19:41","新北市永和區新生路107號","121.507858333333","25.0153816666667","6500400","永和區"
"234025","9371-KE","2019/08/31 14:19:36","新北市永和區安樂路144巷24號","121.51523","24.9996383333333","6500400","永和區"
"248017","KED-0813","2019/08/31 14:18:53","新北市五股區壟路16-1號","121.414705","25.085365","6501500","五股區"
"234076","969-R7","2019/08/31 14:19:35","新北市永和區民族街73巷6號","121.518953333333","24.99669","6500400","永和區"
"234072","AAC-211","2019/08/31 14:19:45","新北市永和區豫溪街191巷7弄15號","121.523401666667","25.010855","6500400","永和區"
"234066","AAC-212","2019/08/31 14:19:32","新北市永和區保平路290號","121.508003333333","25.00449","6500400","永和區"
"234001","AAC-295","2019/08/31 14:19:44","新北市永和區中正路527號","121.51681","25.0076583333333","6500400","永和區"
"231030","002-UM","2019/08/31 14:19:30","新北市新店區安民街65巷21-2號","121.515285","24.9674833333333","6500600","新店區"
"231027","0293-UT","2019/08/31 14:19:33","新北市新店區光明街224巷1號","121.540881666667","24.9627466666667","6500600","新店區"
"231005","046-UY","2019/08/31 14:19:40","新北市新店區寶強路53號","121.544093333333","24.9792983333333","6500600","新店區"
"231029","106-UY","2019/08/31 14:19:36","新北市新店區安康路二段161號","121.510163333333","24.9593683333333","6500600","新店區"
"231018","107-UY","2019/08/31 14:19:40","新北市新店區中央五街36號","121.528511666667","24.97481","6500600","新店區"
"231013","108-UY","2019/08/31 14:19:46","新北市新店區大豐路60號","121.539666666667","24.9796433333333","6500600","新店區"
"231036","110-UY","2019/08/31 14:19:39","新北市新店區安祥路109巷124號","121.476401666667","24.95803","6500600","新店區"
"231033","256-BX","2019/08/31 14:19:44","新北市新店區碧潭路64號","121.534703333333","24.9569483333333","6500600","新店區"
"231023","260-TV","2019/08/31 14:19:33","新北市新店區中興路一段26號","121.53893","24.958035","6500600","新店區"
"231003","268-BY","2019/08/31 14:19:38","新北市新店區中興路一段199號","121.543471666667","24.965325","6500600","新店區"
"231035","278-BY","2019/08/31 14:19:27","新北市新店區光華街5巷1號","121.51785","24.9687133333333","6500600","新店區"
"231017","AAD-862","2019/08/31 14:19:29","新北市新店區中生路60號","121.564483333333","24.9527616666667","6500600","新店區"
"231006","355-BY","2019/08/31 14:19:42","新北市新店區北宜路二段419-2號","121.560361666667","24.954445","6500600","新店區"
"231038","3712-VJ","2019/08/31 14:19:27","新北市新店區溪洲路8巷60號","121.533333333333","24.9623083333333","6500600","新店區"
"231020","515-UM","2019/08/31 14:19:33","新北市新店區桂山路81巷1號","121.567453333333","24.8992866666667","6500600","新店區"
"231034","616-UM","2019/08/31 14:19:41","新北市新店區車子路11號","121.502905","24.9516416666667","6500600","新店區"
"231002","619-UM","2019/08/31 14:19:31","新北市新店區中央路200號","121.530536666667","24.9741566666667","6500600","新店區"
"231012","KED-0819","2019/08/31 14:19:42","新北市新店區五峰路63巷42號","121.546963333333","24.9699016666667","6500600","新店區"
"231028","897-TW","2019/08/31 14:19:39","新北市新店區安和路二段190號","121.518871666667","24.974625","6500600","新店區"
"231001","898-TW","2019/08/31 14:19:34","新北市新店區北新路一段259號","121.540805","24.9663083333333","6500600","新店區"
"231004","899-TW","2019/08/31 14:19:44","新北市新店區中正路143號","121.541593333333","24.9715983333333","6500600","新店區"
"231037","AKT-0513","2019/08/31 14:19:45","新北市新店區車子路3-1號","121.504561666667","24.9560683333333","6500600","新店區"
"235030","003-UY","2019/08/31 14:19:30","新北市中和區中和路163號","121.502855","24.9998916666667","6500300","中和區"
"235027","006-UY","2019/08/31 14:19:38","新北市中和區連勝街161號","121.494268333333","24.99658","6500300","中和區"
"235020","096-UM","2019/08/31 14:19:33","新北市中和區民富街1號","121.476643333333","25.006895","6500300","中和區"
"235003","097-UM","2019/08/31 14:19:44","新北市中和區秀峰街86號","121.519656666667","24.991065","6500300","中和區"
"235029","098-UM","2019/08/31 14:19:33","新北市中和區莊敬路2號","121.499466666667","25.0042416666667","6500300","中和區"
"235004","150-BY","2019/08/31 14:19:26","新北市中和區安平路36巷59號","121.510668333333","24.9946616666667","6500300","中和區"
"235022","151-BY","2019/08/31 14:19:26","新北市中和區員山路124巷14號","121.482088333333","24.9959116666667","6500300","中和區"
"235019","183-VK","2019/08/31 14:19:33","新北市中和區中山路三段181巷18弄11號","121.472646666667","25.0048233333333","6500300","中和區"
"235002","185-VK","2019/08/31 14:19:29","新北市中和區大仁街10巷52號","121.52045","24.9926583333333","6500300","中和區"
"235013","186-VK","2019/08/31 14:19:39","新北市中和區景新街265號","121.508873333333","24.9939983333333","6500300","中和區"
"235031","255-BX","2019/08/31 14:19:31","新北市中和區新生街220巷4號","121.482988333333","24.9985216666667","6500300","中和區"
"235008","293-VK","2019/08/31 14:19:40","新北市中和區復興路314號","121.501015","24.9903183333333","6500300","中和區"
"235036","301-VK","2019/08/31 14:19:34","新北市中和區莊敬路31巷36-1號","121.499955","25.00585","6500300","中和區"
"235007","352-BY","2019/08/31 14:19:43","新北市中和區景平路288號","121.513283333333","24.992725","6500300","中和區"
"235006","KEA-2878","2019/08/31 14:19:31","新北市中和區中和路378巷14弄19號","121.510976666667","25.001375","6500300","中和區"
"247013","KEA-2869","2019/08/31 14:19:26","新北市蘆洲區成功路58號","121.472531666667","25.0803283333333","6501400","蘆洲區"
"247007","KED-0682","2019/08/31 14:19:41","新北市蘆洲區信義路34巷1號","121.474553333333","25.0793833333333","6501400","蘆洲區"
"235014","4979-A6","2019/08/31 14:19:25","新北市中和區景安路208巷24號","121.503001666667","24.9916066666667","6500300","中和區"
"235033","4980-A6","2019/08/31 14:19:43","新北市中和區永和路39巷8號","121.497671666667","25.0049716666667","6500300","中和區"
"235034","558-UM","2019/08/31 14:19:39","新北市中和區南山路24號","121.50195","24.9982916666667","6500300","中和區"
"235009","565-BX","2019/08/31 14:19:33","新北市中和區景新街423巷35弄23號","121.513873333333","24.9905166666667","6500300","中和區"
"235024","KED-0823","2019/08/31 14:19:35","新北市中和區中山路二段570號","121.483096666667","25.0050766666667","6500300","中和區"
"235018","640-BX","2019/08/31 14:19:44","新北市中和區國光街102巷2號","121.470336666667","25.0003733333333","6500300","中和區"
"235011","732-UM","2019/08/31 14:19:44","新北市中和區景平路239巷38號","121.508291666667","24.9921566666667","6500300","中和區"
"235010","733-UM","2019/08/31 14:19:33","新北市中和區忠孝街20巷10號","121.510615","24.98244","6500300","中和區"
"235035","783-BX","2019/08/31 14:19:45","新北市中和區建一路7號","121.488106666667","25.003655","6500300","中和區"
"235073","800-TS","2019/08/31 14:19:28","新北市中和區中山路二段478號","121.487825","25.0048433333333","6500300","中和區"
"235021","801-TS","2019/08/31 14:19:30","新北市中和區員山路437號","121.480838333333","25.003855","6500300","中和區"
"235016","805-TS","2019/08/31 14:19:48","新北市中和區興南路二段126號","121.50427","24.98363","6500300","中和區"
"235012","896-TW","2019/08/31 14:19:30","新北市中和區忠孝街2-6號","121.509113333333","24.982885","6500300","中和區"
"235017","900-TW","2019/08/31 14:19:34","新北市板橋區重慶路269巷91號","121.465708333333","24.9992066666667","6500300","中和區"
"235028","911-UM","2019/08/31 14:19:41","新北市中和區南華路17號","121.502808333333","24.9957583333333","6500300","中和區"
"235015","157-BY","2019/08/31 14:19:43","新北市中和區和平街54巷8弄15號","121.509548333333","24.991525","6500300","中和區"
"235001","AAC-213","2019/08/31 14:19:44","新北市中和區秀朗路三段10巷19號","121.525466666667","24.9964883333333","6500300","中和區"
"235023","AAC-215","2019/08/31 14:19:32","新北市中和區圓通路252巷5弄56號","121.492183333333","24.9921583333333","6500300","中和區"
"220013","072-UY","2019/08/31 14:19:38","新北市板橋區民族路129巷15號","121.467538333333","25.00846","6500100","板橋區"
"220034","073-UY","2019/08/31 14:19:43","新北市板橋區中正路216巷97號","121.45889","25.0192266666667","6500100","板橋區"
"220105","075-UY","2019/08/31 14:19:43","新北市板橋區文化路二段441巷11號","121.474568333333","25.033475","6500100","板橋區"
"220017","AAD-861","2019/08/31 14:19:35","新北市板橋區貴興路59號","121.457323333333","25.00314","6500100","板橋區"
"220016","120-SR","2019/08/31 14:19:36","新北市板橋區林森街1巷3號","121.482205","25.024155","6500100","板橋區"
"247003","893-R6","2019/08/31 14:19:42","新北市蘆洲區長安街186-1號","121.458948333333","25.0838883333333","6501400","蘆洲區"
"247017","546-UM","2019/08/31 14:19:31","新北市蘆洲區民權路99號","121.472708333333","25.08913","6501400","蘆洲區"
"247011","337-TH","2019/08/31 14:19:31","新北市蘆洲區民權路3巷18號","121.47568","25.0851866666667","6501400","蘆洲區"
"247001","336-TH","2019/08/31 14:19:30","新北市蘆洲區永平街51號","121.457756666667","25.09121","6501400","蘆洲區"
"247021","057-VK","2019/08/31 14:19:28","新北市蘆洲區中正路449號","121.462718333333","25.0943616666667","6501400","蘆洲區"
"247015","053-VK","2019/08/31 14:19:30","新北市蘆洲區光華路110巷30號","121.466325","25.0838533333333","6501400","蘆洲區"
"247019","007-UY","2019/08/31 14:19:40","新北市蘆洲區仁愛街35巷15弄1號","121.471645","25.0926466666667","6501400","蘆洲區"
"247005","002-UY","2019/08/31 14:19:45","新北市蘆洲區長安街23巷1號","121.463866666667","25.0789383333333","6501400","蘆洲區"
"247023","001-UY","2019/08/31 14:19:40","新北市蘆洲區三民路589號","121.46129","25.0930533333333","6501400","蘆洲區"
"235005","251-BX","2019/08/31 14:19:30","新北市中和區安平路101號","121.511435","24.99731","6500300","中和區"
"228005","097-TW","2019/08/31 14:19:27","新北市貢寮區美豐里土地公嶺55號","121.89456","25.06505","6502600","貢寮區"
"228004","212-TW","2019/08/31 14:19:32","新北市貢寮區雙玉里下雙溪街28號","121.924973333333","25.0117616666667","6502600","貢寮區"
"253003","6232-TK","2019/08/31 14:19:36","新北市石門區內石門67-3號","121.576861666667","25.2587516666667","6502200","石門區"
"253004","6251-TK","2019/08/31 14:19:23","新北市石門區坪林50-1號","121.589315","25.2661216666667","6502200","石門區"
"253002","637-UY","2019/08/31 14:19:32","新北市石門區七股28號","121.551896666667","25.2662083333333","6502200","石門區"
"253001","KEC-0718","2019/08/31 14:19:39","新北市石門區八甲13-2號","121.52258","25.2804666666667","6502200","石門區"
"207002","749-BX","2019/08/31 14:19:43","新北市萬里區溪底里溪底路21號","121.612283333333","25.1483333333333","6502800","萬里區"
"252005","073-UM","2019/08/31 14:19:40","新北市三芝區橫山里橫山33號","121.542221666667","25.25871","6502100","三芝區"
"207001","662-BX","2019/08/31 14:19:43","新北市萬里區磺潭里清水18號","121.637943333333","25.1976966666667","6502800","萬里區"
"236040","KED-0685","2019/08/31 14:19:47","新北市土城區裕生路21巷2弄32號","121.44791","24.9860433333333","6501300","土城區"
"236029","253-BX","2019/08/31 14:19:29","新北市土城區順風路31號","121.44075","24.976705","6501300","土城區"
"236024","269-VK","2019/08/31 14:19:28","新北市土城區承天路67號","121.439536666667","24.96349","6501300","土城區"
"236013","270-VK","2019/08/31 14:19:39","新北市土城區青雲路39巷7號","121.460306666667","24.9874516666667","6501300","土城區"
"236032","271-VK","2019/08/31 14:19:40","新北市土城區青雲路483巷3號","121.459418333333","24.973915","6501300","土城區"
"247009","KED-0683","2019/08/31 14:19:38","新北市蘆洲區三民路26巷18號","121.477106666667","25.0829066666667","6501400","蘆洲區"
"236068","KEA-2877","2019/08/31 14:19:41","新北市土城區明德路一段152號","121.463205","24.9786083333333","6501300","土城區"
"236017","401-BY","2019/08/31 14:19:34","新北市土城區明德路一段138號","121.463515","24.9787916666667","6501300","土城區"
"236057","912-UM","2019/08/31 14:19:46","新北市土城區中央路四段450號","121.410445","24.9511466666667","6501300","土城區"
"236045","913-UM","2019/08/31 14:19:31","新北市土城區明德路一段355-5號","121.456901666667","24.9775433333333","6501300","土城區"
"236060","915-UM","2019/08/31 14:19:42","新北市土城區金城路三段202-3號","121.469431666667","24.9885166666667","6501300","土城區"
"236054","AAC-216","2019/08/31 14:19:38","新北市土城區中華路二段126號","121.437731666667","24.97366","6501300","土城區"
"221029","298-VK","2019/08/31 14:19:28","新北市汐止區福德一路86巷85號","121.636421666667","25.0684316666667","6501100","汐止區"
"220027","145-BY","2019/08/31 14:19:35","新北市板橋區民權路260巷1弄7號","121.458023333333","25.0156733333333","6500100","板橋區"
"220028","200-UY","2019/08/31 14:19:40","新北市板橋區大觀路二段1巷50號","121.450321666667","25.0037133333333","6500100","板橋區"
"220030","610-BX","2019/08/31 14:19:38","新北市板橋區篤行路三段71號","121.427328333333","24.985605","6500100","板橋區"
"220040","267-BY","2019/08/31 14:19:47","新北市板橋區縣民大道三段247巷9號","121.48167","25.0262983333333","6500100","板橋區"
"220004","276-BY","2019/08/31 14:19:32","新北市土城區延和路41巷25號","121.46538","24.99062","6500100","板橋區"
"220020","277-BY","2019/08/31 14:19:43","新北市板橋區金門街260巷9號","121.42946","24.986815","6500100","板橋區"
"220050","280-UM","2019/08/31 14:19:29","新北市板橋區縣民大道三段121巷32號","121.476511666667","25.023455","6500100","板橋區"
"220043","283-UM","2019/08/31 14:19:42","新北市板橋區吳鳳路50巷42弄2號","121.470208333333","25.0303416666667","6500100","板橋區"
"220019","283-VK","2019/08/31 14:19:36","新北市板橋區大豐街25號","121.46212","25.0014","6500100","板橋區"
"220001","285-VK","2019/08/31 14:19:25","新北市板橋區富山街36號","121.477938333333","25.0218616666667","6500100","板橋區"
"220031","286-VK","2019/08/31 14:19:43","新北市板橋區大觀路二段174巷166弄28號","121.442921666667","25.00294","6500100","板橋區"
"220029","287-VK","2019/08/31 14:19:30","新北市板橋區南雅西路一段10巷7弄17號","121.454018333333","25.0043383333333","6500100","板橋區"
"220039","288-VK","2019/08/31 14:19:43","新北市板橋區裕民街51號","121.461255","25.0285316666667","6500100","板橋區"
"220009","293-UM","2019/08/31 14:19:39","新北市板橋區中山路二段157號","121.475601666667","25.0167433333333","6500100","板橋區"
"220010","295-UM","2019/08/31 14:19:41","新北市板橋區三民路二段153巷30弄35號","121.48106","25.014595","6500100","板橋區"
"220032","296-UM","2019/08/31 14:19:42","新北市板橋區滿平街136巷8弄12號","121.42743","24.98769","6500100","板橋區"
"220023","303-R5","2019/08/31 14:19:46","新北市板橋區館前西路159號","121.456046666667","25.0080316666667","6500100","板橋區"
"220041","307-R5","2019/08/31 14:19:34","新北市板橋區文化路一段360號","121.4683","25.0236183333333","6500100","板橋區"
"220047","317-R6","2019/08/31 14:19:34","新北市板橋區四維路100號","121.465698333333","25.0243766666667","6500100","板橋區"
"220038","487-VK","2019/08/31 14:19:40","新北市板橋區英士路49-1號","121.461151666667","25.0245983333333","6500100","板橋區"
"220037","491-VK","2019/08/31 14:19:42","新北市板橋區雙十路二段4-6號","121.476915","25.0257516666667","6500100","板橋區"
"220104","560-BX","2019/08/31 14:19:44","新北市板橋區中正路360巷15號","121.455058333333","25.0236533333333","6500100","板橋區"
"220052","561-BX","2019/08/31 14:19:40","新北市板橋區陽明街23巷8弄22號","121.465411666667","25.02088","6500100","板橋區"
"220011","609-BX","2019/08/31 14:19:38","新北市板橋區三民路二段140-3號","121.479103333333","25.0158016666667","6500100","板橋區"
"220005","686-BX","2019/08/31 14:19:42","新北市板橋區和平路153號","121.463425","24.9958116666667","6500100","板橋區"
"220025","687-BX","2019/08/31 14:19:42","新北市板橋區大觀路二段311號","121.441888333333","24.9986783333333","6500100","板橋區"
"220042","689-BX","2019/08/31 14:19:28","新北市板橋區雨農路32號","121.461188333333","25.024475","6500100","板橋區"
"220002","741-BX","2019/08/31 14:19:41","新北市板橋區校前街38號","121.46099","25.0031733333333","6500100","板橋區"
"220051","KEA-2699","2019/08/31 14:19:25","新北市板橋區松柏街19號","121.474585","25.029865","6500100","板橋區"
"220003","827-TW","2019/08/31 14:19:31","新北市板橋區民族路57號","121.464663333333","25.008835","6500100","板橋區"
"220014","831-TW","2019/08/31 14:19:34","新北市板橋區長安街228號","121.475173333333","25.01215","6500100","板橋區"
"220022","895-R6","2019/08/31 14:19:39","新北市板橋區民權路101巷2號","121.459088333333","25.0134083333333","6500100","板橋區"
"220021","985-R7","2019/08/31 14:19:44","新北市板橋區瑞安街2號","121.454348333333","25.02331","6500100","板橋區"
"220046","AAC-210","2019/08/31 14:19:40","新北市板橋區幸福路32巷14號","121.461411666667","25.0208633333333","6500100","板橋區"
"220012","AAC-253","2019/08/31 14:19:42","新北市板橋區館前西路7號","121.459101666667","25.006965","6500100","板橋區"
"235032","KEA-2873","2019/08/31 14:19:22","新北市中和區廟美街40號","121.500475","25.00204","6500300","中和區"
"235025","KEA-2875","2019/08/31 14:19:27","新北市中和區民安街38號","121.480078333333","25.0004533333333","6500300","中和區"
