"lineid","car","time","location","longitude","latitude","cityid","cityname"
"231030","002-UM","2019/08/31 15:36:03","新北市新店區新和街55號","121.519743333333","24.9853866666667","6500600","新店區"
"231018","107-UY","2019/08/31 15:35:20","新北市新店區民生路156巷50號","121.527931666667","24.98162","6500600","新店區"
"231013","108-UY","2019/08/31 15:49:46","新北市新店區永業路81巷3弄1號","121.529885","24.9491483333333","6500600","新店區"
"231039","187-VK","2019/08/31 15:49:42","新北市新店區安康路一段29巷4號","121.53351","24.9597833333333","6500600","新店區"
"231033","256-BX","2019/08/31 15:35:24","新北市新店區雙城路21號","121.49206","24.950205","6500600","新店區"
"231023","260-TV","2019/08/31 15:49:33","新北市新店區安康路一段98號","121.5275","24.962305","6500600","新店區"
"231003","268-BY","2019/08/31 15:49:37","新北市新店區寶興路60巷4號","121.549848333333","24.9718433333333","6500600","新店區"
"231035","278-BY","2019/08/31 15:49:27","新北市新店區安民街365巷10弄24號","121.515831666667","24.9760533333333","6500600","新店區"
"231017","AAD-862","2019/08/31 15:49:29","新北市新店區中華路50號","121.539638333333","24.96842","6500600","新店區"
"231020","515-UM","2019/08/31 15:49:33","新北市新店區新烏路一段85巷6-6號","121.549725","24.9427533333333","6500600","新店區"
"231034","616-UM","2019/08/31 15:49:41","新北市新店區吉祥街15巷1號","121.497726666667","24.9456316666667","6500600","新店區"
"231012","KED-0819","2019/08/31 15:35:57","新北市新店區文化路74號","121.544676666667","24.981725","6500600","新店區"
"231026","720-UM","2019/08/31 15:49:37","新北市新店區中正路506號","121.53384","24.9828516666667","6500600","新店區"
"231028","897-TW","2019/08/31 15:35:34","新北市新店區僑信路52號","121.499335","24.9503316666667","6500600","新店區"
"231037","AKT-0513","2019/08/31 15:35:24","新北市新店區安興路81號","121.515473333333","24.9754216666667","6500600","新店區"
"241011","013-R5","2019/08/31 15:49:34","新北市三重區文化北路141號","121.497696666667","25.0692933333333","6500200","三重區"
"241028","022-UY","2019/08/31 15:49:41","新北市三重區中正南路98號","121.494323333333","25.0586566666667","6500200","三重區"
"241029","060-VK","2019/08/31 15:35:33","新北市三重區中正南路269號","121.493215","25.05227","6500200","三重區"
"241015","062-VK","2019/08/31 15:49:45","新北市三重區重新路四段121號","121.485385","25.0519016666667","6500200","三重區"
"241017","063-VK","2019/08/31 15:49:42","新北市三重區大仁街42號","121.4916","25.0643483333333","6500200","三重區"
"241024","065-VK","2019/08/31 15:49:30","新北市三重區重新路四段121號","121.484826666667","25.0526066666667","6500200","三重區"
"241006","262-UM","2019/08/31 15:48:30","新北市三重區重新路四段121號","121.484741666667","25.0517366666667","6500200","三重區"
"241018","268-UM","2019/08/31 15:49:39","新北市三重區重新路四段121號","121.48526","25.0520133333333","6500200","三重區"
"241013","270-UM","2019/08/31 15:36:35","新北市三重區忠孝路三段1號","121.48188","25.0676116666667","6500200","三重區"
"241020","478-VK","2019/08/31 15:49:42","新北市三重區忠孝路二段52號","121.48502","25.0704416666667","6500200","三重區"
"241005","AAD-863","2019/08/31 15:49:40","新北市三重區頂崁街212號","121.477106666667","25.067655","6500200","三重區"
"241022","KED-0820","2019/08/31 15:49:31","新北市三重區新北大道一段250號","121.479885","25.0613133333333","6500200","三重區"
"241025","887-TS","2019/08/31 15:36:29","新北市三重區重新路四段121號","121.484813333333","25.0525783333333","6500200","三重區"
"241012","941-UM","2019/08/31 15:49:36","新北市三重區正義北路107巷41號","121.498453333333","25.0659316666667","6500200","三重區"
"241033","AAC-255","2019/08/31 15:49:36","新北市三重區光復路一段99巷23號","121.474286666667","25.0509233333333","6500200","三重區"
"235019","183-VK","2019/08/31 15:35:33","新北市八里區下罟子1-14號","121.389443333333","25.1421916666667","6500300","中和區"
"235033","4980-A6","2019/08/31 15:49:33","新北市中和區連城路523巷9弄11號","121.482233333333","24.9947133333333","6500300","中和區"
"235023","AAC-215","2019/08/31 15:49:34","新北市中和區員山路57號","121.48083","24.9934133333333","6500300","中和區"
"227002","642-TC","2019/08/31 15:36:30","新北市雙溪區牡丹里聖南19號","121.85764","25.0526416666667","6502500","雙溪區"
"227001","400-TW","2019/08/31 15:49:45","新北市雙溪區三港里雙澳路38號","121.871765","25.0508533333333","6502500","雙溪區"
"236024","269-VK","2019/08/31 15:36:24","新北市土城區裕生路81號","121.446903333333","24.98433","6501300","土城區"
"236068","KEA-2877","2019/08/31 15:49:41","新北市土城區福安街42巷16號","121.418806666667","24.96511","6501300","土城區"
"236017","401-BY","2019/08/31 15:35:34","新北市土城區延吉街48號","121.471766666667","24.9870216666667","6501300","土城區"
"236057","912-UM","2019/08/31 15:36:26","新北市土城區中央路一段191號","121.446046666667","24.987155","6501300","土城區"
"236054","AAC-216","2019/08/31 15:35:38","新北市土城區學府路一段97號","121.456243333333","24.9879033333333","6501300","土城區"
"220031","286-VK","2019/08/31 15:35:55","新北市板橋區僑中二街116巷19號","121.444813333333","25.0064816666667","6500100","板橋區"
"220012","AAC-253","2019/08/31 15:35:41","新北市板橋區華東街1-10號","121.448378333333","24.9949383333333","6500100","板橋區"
