"lineid","car","time","location","longitude","latitude","cityid","cityname"
"231018","107-UY","2019/08/31 16:19:40","新北市新店區溪園路35號","121.530436666667","24.9884516666667","6500600","新店區"
"231046","719-UM","2019/08/31 16:08:17","新北市新店區永業路101號","121.528665","24.9486033333333","6500600","新店區"
"231026","720-UM","2019/08/31 16:19:37","新北市新店區安一路一段1-1號","121.519281666667","24.9612733333333","6500600","新店區"
"241011","013-R5","2019/08/31 16:19:33","新北市三重區龍濱路285號","121.501186666667","25.0733683333333","6500200","三重區"
"241028","022-UY","2019/08/31 16:19:40","新北市三重區正義南路181巷1號","121.49909","25.0569116666667","6500200","三重區"
"241008","059-VK","2019/08/31 16:19:34","新北市三重區永福街68號","121.4791","25.0769066666667","6500200","三重區"
"241029","060-VK","2019/08/31 16:19:33","新北市三重區中正南路269號","121.493226666667","25.0522633333333","6500200","三重區"
"241031","061-VK","2019/08/31 16:19:39","新北市三重區捷運路11-2號","121.48626","25.05639","6500200","三重區"
"241015","062-VK","2019/08/31 16:19:45","新北市三重區福德北路79號","121.501883333333","25.0658433333333","6500200","三重區"
"241017","063-VK","2019/08/31 16:19:39","新北市三重區大同北路91號","121.494763333333","25.0636716666667","6500200","三重區"
"241024","065-VK","2019/08/31 16:19:30","新北市三重區中正北路117號","121.483451666667","25.0669116666667","6500200","三重區"
"241002","090-VK","2019/08/31 16:19:34","新北市三重區仁義街91號","121.50008","25.07909","6500200","三重區"
"241003","091-VK","2019/08/31 16:19:39","新北市三重區仁義街220巷17號","121.494678333333","25.0838033333333","6500200","三重區"
"241004","742-BX","2019/08/31 16:19:40","新北市三重區五華街74號","121.49347","25.0819633333333","6500200","三重區"
"241006","262-UM","2019/08/31 16:19:30","新北市三重區下竹圍街14號","121.48099","25.0757133333333","6500200","三重區"
"241016","266-UM","2019/08/31 16:19:28","新北市三重區大仁街92號","121.492813333333","25.06558","6500200","三重區"
"241009","267-UM","2019/08/31 16:19:42","新北市三重區溪尾街196巷35號","121.487076666667","25.0806333333333","6500200","三重區"
"241018","268-UM","2019/08/31 16:19:39","新北市三重區重陽路三段7號","121.489025","25.0664116666667","6500200","三重區"
"241032","269-UM","2019/08/31 16:19:44","新北市三重區三陽路100巷3弄13號","121.483015","25.0581733333333","6500200","三重區"
"241013","270-UM","2019/08/31 16:19:35","新北市三重區三和路三段83巷104號","121.49761","25.0730433333333","6500200","三重區"
"241020","478-VK","2019/08/31 16:19:42","新北市三重區後竹圍街247號","121.48403","25.0712916666667","6500200","三重區"
"241026","480-VK","2019/08/31 16:19:44","新北市三重區大同南路96巷37號","121.49722","25.059045","6500200","三重區"
"241014","543-UM","2019/08/31 16:19:36","新北市三重區河邊北街96-1號","121.50394","25.069945","6500200","三重區"
"241001","547-UM","2019/08/31 16:19:38","新北市三重區仁愛街353號","121.491908333333","25.079855","6500200","三重區"
"241005","AAD-863","2019/08/31 16:19:40","新北市三重區溪尾街305號","121.487586666667","25.0837233333333","6500200","三重區"
"241023","743-BX","2019/08/31 16:19:44","新北市三重區忠孝路三段99巷4號","121.480145","25.0642433333333","6500200","三重區"
"241022","KED-0820","2019/08/31 16:19:31","新北市三重區新北大道一段9號","121.48897","25.06073","6500200","三重區"
"241025","887-TS","2019/08/31 16:19:29","新北市三重區大有街1-62號","121.475678333333","25.0657483333333","6500200","三重區"
"241012","941-UM","2019/08/31 16:19:36","新北市三重區河邊北街313號","121.502431666667","25.0748833333333","6500200","三重區"
"241033","AAC-255","2019/08/31 16:19:36","新北市三重區重新路五段320號","121.478593333333","25.048775","6500200","三重區"
"224007","285-BY","2019/08/31 16:19:36","新北市瑞芳區大埔路126號","121.762025","25.1010133333333","6501200","瑞芳區"
"224009","275-VK","2019/08/31 16:19:41","新北市瑞芳區傑魚坑路49號","121.793488333333","25.1104966666667","6501200","瑞芳區"
"224005","271-BY","2019/08/31 16:19:24","新北市瑞芳區岳王路94號","121.812508333333","25.1116383333333","6501200","瑞芳區"
"227002","642-TC","2019/08/31 16:19:29","新北市雙溪區上林里內平林112號","121.82589","25.02687","6502500","雙溪區"
"227001","400-TW","2019/08/31 16:19:25","新北市雙溪區牡丹里中正路58巷10號","121.866153333333","25.041345","6502500","雙溪區"
"251013","180-VK","2019/08/31 16:19:37","新北市淡水區北新路二段42號","121.477446666667","25.1857683333333","6501000","淡水區"
"251008","181-VK","2019/08/31 16:19:39","新北市淡水區中正東路二段48巷20號","121.457701666667","25.15822","6501000","淡水區"
"251014","577-R6","2019/08/31 16:19:36","新北市淡水區沙崙路28號","121.421518333333","25.181325","6501000","淡水區"
"221023","279-VK","2019/08/31 16:19:41","新北市汐止區康寧街901號","121.651661666667","25.07486","6501100","汐止區"
