"lineid","car","time","location","longitude","latitude","cityid","cityname"
"249005","172-UM","2019/08/31 16:59:45","新北市八里區渡船頭3-19號","121.43395","25.151765","6502300","八里區"
"249001","173-UM","2019/08/31 16:59:43","新北市八里區商港路48號","121.395798333333","25.145385","6502300","八里區"
"249004","303-UY","2019/08/31 16:59:33","新北市八里區仁愛路10號","121.413173333333","25.162275","6502300","八里區"
"249002","305-UY","2019/08/31 16:58:59","新北市八里區牛寮埔28號","121.432303333333","25.1441533333333","6502300","八里區"
"249003","593-UM","2019/08/31 16:59:39","新北市八里區中山路二段356巷16號","121.401358333333","25.1490383333333","6502300","八里區"
"244007","080-UY","2019/08/31 16:59:28","新北市林口區中湖里15鄰50號","121.37621","25.0912533333333","6501700","林口區"
"244019","402-UM","2019/08/31 16:59:41","新北市林口區仁愛路二段167號","121.381691666667","25.0738833333333","6501700","林口區"
"244017","485-VK","2019/08/31 16:59:34","新北市林口區粉寮69號","121.405076666667","25.0907966666667","6501700","林口區"
"244011","701-TV","2019/08/31 16:59:27","新北市林口區粉寮路二段160巷28號","121.405221666667","25.0907666666667","6501700","林口區"
"244025","837-TS","2019/08/31 16:59:42","新北市林口區粉寮路二段160巷28號","121.405138333333","25.090775","6501700","林口區"
"231046","719-UM","2019/08/31 16:59:37","新北市新店區灣潭路15-5號","121.541761666667","24.9402583333333","6500600","新店區"
"241011","013-R5","2019/08/31 16:59:33","新北市三重區仁愛街55巷118號","121.498761666667","25.0727233333333","6500200","三重區"
"241028","022-UY","2019/08/31 16:59:36","新北市三重區中正南路48號","121.493903333333","25.0599366666667","6500200","三重區"
"241008","059-VK","2019/08/31 16:59:34","新北市三重區永福街179巷42號","121.477385","25.0747183333333","6500200","三重區"
"241029","060-VK","2019/08/31 16:59:33","新北市三重區中正南路260-1號","121.493083333333","25.0528833333333","6500200","三重區"
"241031","061-VK","2019/08/31 16:59:39","新北市三重區重新路三段115巷2號","121.490528333333","25.0599466666667","6500200","三重區"
"241015","062-VK","2019/08/31 16:59:45","新北市三重區三和路二段31號","121.500998333333","25.0671266666667","6500200","三重區"
"241017","063-VK","2019/08/31 16:59:39","新北市三重區國隆路12巷14號","121.492656666667","25.0636583333333","6500200","三重區"
"241024","065-VK","2019/08/31 16:59:30","新北市三重區大勇街82巷28號","121.479563333333","25.0722683333333","6500200","三重區"
"241002","090-VK","2019/08/31 16:59:34","新北市三重區仁義街223號","121.496545","25.0821116666667","6500200","三重區"
"241003","091-VK","2019/08/31 16:59:39","新北市三重區五華街141巷58號","121.493508333333","25.0867283333333","6500200","三重區"
"241004","742-BX","2019/08/31 16:59:40","新北市三重區五華街98巷25-1號","121.4914","25.0818383333333","6500200","三重區"
"241006","262-UM","2019/08/31 16:59:30","新北市三重區聯華街101號","121.485343333333","25.0753283333333","6500200","三重區"
"241016","266-UM","2019/08/31 16:59:47","新北市三重區大同北路129-1號","121.493435","25.0640183333333","6500200","三重區"
"241009","267-UM","2019/08/31 16:59:42","新北市三重區仁愛街600巷18號","121.484335","25.0803883333333","6500200","三重區"
"241018","268-UM","2019/08/31 16:59:39","新北市三重區六張街126巷17號","121.492146666667","25.06926","6500200","三重區"
"241032","269-UM","2019/08/31 16:59:24","新北市三重區重陽路一段130巷11號","121.486015","25.0605716666667","6500200","三重區"
"241013","270-UM","2019/08/31 16:59:35","新北市三重區仁福街66號","121.498098333333","25.0748233333333","6500200","三重區"
"241030","KED-0822","2019/08/31 16:59:36","新北市三重區昌隆街64號","121.491133333333","25.0510566666667","6500200","三重區"
"241020","478-VK","2019/08/31 16:59:42","新北市三重區自強路三段72號","121.486585","25.0735583333333","6500200","三重區"
"241026","480-VK","2019/08/31 16:59:43","新北市三重區正義南路60-6號","121.498476666667","25.060095","6500200","三重區"
"241014","543-UM","2019/08/31 16:59:36","新北市三重區介壽路189號","121.50147","25.070745","6500200","三重區"
"241001","547-UM","2019/08/31 16:59:38","新北市三重區仁愛街245巷22號","121.494091666667","25.0783283333333","6500200","三重區"
"241019","KEA-2593","2019/08/31 16:59:28","新北市三重區自強路二段74巷19號","121.48796","25.0699216666667","6500200","三重區"
"241005","AAD-863","2019/08/31 16:59:40","新北市三重區仁愛街634號","121.483151666667","25.08076","6500200","三重區"
"241023","743-BX","2019/08/31 16:59:44","新北市三重區忠孝路三段84巷1號","121.480281666667","25.0645683333333","6500200","三重區"
"241022","KED-0820","2019/08/31 16:59:31","新北市三重區三民街157巷2號","121.483691666667","25.0645133333333","6500200","三重區"
"241025","887-TS","2019/08/31 16:59:28","新北市三重區中正北路357號","121.47271","25.0717133333333","6500200","三重區"
"241012","941-UM","2019/08/31 16:59:36","新北市三重區仁壽街133號","121.499111666667","25.0741266666667","6500200","三重區"
"241033","AAC-255","2019/08/31 16:59:36","新北市三重區中興北街275號","121.469198333333","25.0607233333333","6500200","三重區"
"247014","KEA-2869","2019/08/31 16:59:33","新北市蘆洲區三民路1號","121.475963333333","25.0817216666667","6501400","蘆洲區"
"247008","KED-0682","2019/08/31 16:59:35","新北市蘆洲區信義路56號","121.475423333333","25.0796616666667","6501400","蘆洲區"
"247004","893-R6","2019/08/31 16:59:34","新北市蘆洲區長安街110號","121.46111","25.0816116666667","6501400","蘆洲區"
"247018","546-UM","2019/08/31 16:59:42","新北市蘆洲區民族路227巷18號","121.476995","25.0892216666667","6501400","蘆洲區"
"247012","337-TH","2019/08/31 16:59:34","新北市蘆洲區復興路358-3號","121.48348","25.0908933333333","6501400","蘆洲區"
"247022","057-VK","2019/08/31 16:59:36","新北市蘆洲區三民路128巷166-1號","121.468368333333","25.0925483333333","6501400","蘆洲區"
"247016","053-VK","2019/08/31 16:59:27","新北市蘆洲區中正路69號","121.470373333333","25.0826966666667","6501400","蘆洲區"
"247020","007-UY","2019/08/31 16:59:46","新北市蘆洲區民族路422巷82弄14號","121.473908333333","25.0938683333333","6501400","蘆洲區"
"247006","002-UY","2019/08/31 16:59:43","新北市蘆洲區長安街99巷9號","121.461313333333","25.08034","6501400","蘆洲區"
"247024","001-UY","2019/08/31 16:59:45","新北市蘆洲區長興路202號","121.460546666667","25.0873583333333","6501400","蘆洲區"
"228002","663-BX","2019/08/31 16:59:37","新北市貢寮區貢寮里朝陽街140巷5號","121.907268333333","25.0225066666667","6502600","貢寮區"
"224006","676-BX","2019/08/31 16:59:25","新北市瑞芳區大寮路356-1號","121.785008333333","25.103115","6501200","瑞芳區"
"224007","285-BY","2019/08/31 16:59:39","新北市瑞芳區瑞竹路18號","121.764945","25.1033583333333","6501200","瑞芳區"
"224009","275-VK","2019/08/31 16:59:33","新北市瑞芳區明燈路一段1號","121.826556666667","25.10934","6501200","瑞芳區"
"224008","273-VK","2019/08/31 16:59:34","新北市瑞芳區明燈路一段255號","121.817326666667","25.1083","6501200","瑞芳區"
"224005","271-BY","2019/08/31 16:59:24","新北市瑞芳區南雅路1號","121.892538333333","25.1193633333333","6501200","瑞芳區"
"227002","642-TC","2019/08/31 16:59:29","新北市雙溪區上林里內平林90號","121.827705","25.0275266666667","6502500","雙溪區"
"227001","400-TW","2019/08/31 16:59:25","新北市雙溪區三貂里政光路6-5號","121.851421666667","25.07183","6502500","雙溪區"
"251009","008-UM","2019/08/31 16:59:31","新北市淡水區中正路二段31號","121.4195","25.181615","6501000","淡水區"
"251004","009-UM","2019/08/31 16:59:08","新北市淡水區中正東路36號","121.448808333333","25.1657566666667","6501000","淡水區"
"251015","KEA-2871","2019/08/31 16:59:39","新北市淡水區忠愛街5-2號","121.460691666667","25.17154","6501000","淡水區"
"251016","179-VK","2019/08/31 16:59:37","新北市淡水區瓦坑3號","121.477598333333","25.1808133333333","6501000","淡水區"
"251013","180-VK","2019/08/31 16:59:37","新北市淡水區泉洲厝32號","121.489271666667","25.1926016666667","6501000","淡水區"
"251008","181-VK","2019/08/31 16:59:39","新北市淡水區樹梅坑9號","121.472843333333","25.14268","6501000","淡水區"
"251012","441-VK","2019/08/31 16:59:29","新北市淡水區中正路二段31號","121.419625","25.1821466666667","6501000","淡水區"
"251007","442-VK","2019/08/31 16:59:44","新北市淡水區中山路56號","121.44394","25.1704516666667","6501000","淡水區"
"251005","443-VK","2019/08/31 16:59:36","新北市淡水區文化路61號","121.438403333333","25.1728833333333","6501000","淡水區"
"251006","561-UM","2019/08/31 16:59:41","新北市淡水區中正路437號","121.431958333333","25.1747916666667","6501000","淡水區"
"251014","577-R6","2019/08/31 16:59:36","新北市淡水區淡金路四段472巷22號","121.452586666667","25.2240333333333","6501000","淡水區"
"251011","650-BX","2019/08/31 16:59:45","新北市淡水區中正東路36號","121.44868","25.1657366666667","6501000","淡水區"
"252002","178-VK","2019/08/31 16:59:38","新北市三芝區忠孝街177號","121.5053","25.261615","6502100","三芝區"
"233002","762-BX","2019/08/31 16:59:38","新北市烏來區啦卡路2-11號","121.553418333333","24.8638883333333","6502900","烏來區"
"247010","KED-0683","2019/08/31 16:59:38","新北市蘆洲區信義路176號","121.479306666667","25.083965","6501400","蘆洲區"
"252001","KED-0821","2019/08/31 16:59:29","新北市三芝區淡金路二段47-1號","121.503546666667","25.2604733333333","6502100","三芝區"
"242061","986-R7","2019/08/31 16:59:39","新北市新莊區新泰路357巷1弄57號","121.442541666667","25.03955","6500500","新莊區"
"242029","615-BX","2019/08/31 16:59:38","新北市新莊區新泰路357巷3弄57號","121.441771666667","25.03933","6500500","新莊區"
"242027","613-BX","2019/08/31 16:59:36","新北市新莊區新泰路255巷83號","121.442445","25.0391733333333","6500500","新莊區"
"242051","497-BY","2019/08/31 16:59:28","新北市新莊區新泰路357巷3弄57號","121.442085","25.0393616666667","6500500","新莊區"
"242031","442-UM","2019/08/31 16:59:44","新北市新莊區新泰路255巷83號","121.442051666667","25.03887","6500500","新莊區"
"242011","413-TV","2019/08/31 16:59:36","新北市新莊區新泰路357巷3弄57號","121.442023333333","25.039425","6500500","新莊區"
"242023","353-BY","2019/08/31 16:59:36","新北市新莊區新泰路357巷3弄57號","121.442008333333","25.03919","6500500","新莊區"
"242021","175-VK","2019/08/31 16:59:45","新北市新莊區三和路12-21號","121.442005","25.0386266666667","6500500","新莊區"
"242034","348-TH","2019/08/31 16:59:41","新北市新莊區三和路12-21號","121.441961666667","25.0388216666667","6500500","新莊區"
"238023","601-UM","2019/08/31 16:59:46","新北市樹林區八德街828號","121.394285","24.9686733333333","6500700","樹林區"
"238017","283-BY","2019/08/31 16:59:27","新北市樹林區八德街660號","121.396351666667","24.969065","6500700","樹林區"
"238014","282-BY","2019/08/31 16:59:42","新北市樹林區育德街78-1號","121.387548333333","24.9681383333333","6500700","樹林區"
"238020","268-VK","2019/08/31 16:59:30","新北市樹林區八德街652號","121.396451666667","24.9690616666667","6500700","樹林區"
"239007","AAC-297","2019/08/31 16:59:36","新北市鶯歌區二甲路13-16號","121.345385","24.935075","6500800","鶯歌區"
"239008","527-UM","2019/08/31 16:59:31","新北市鶯歌區二甲路13-16號","121.345078333333","24.93515","6500800","鶯歌區"
"239001","417-VK","2019/08/31 16:59:24","新北市鶯歌區二甲路13-16號","121.345481666667","24.935185","6500800","鶯歌區"
"221023","279-VK","2019/08/31 16:59:41","新北市汐止區康寧街901號","121.65164","25.074905","6501100","汐止區"
"233001","KEA-2870","2019/08/31 16:59:43","新北市烏來區環山路13號","121.54926","24.86422","6502900","烏來區"
"242044","281-VK","2019/08/31 16:59:38","新北市新莊區三和路12-21號","121.44227","25.0384266666667","6500500","新莊區"
"242009","280-VK","2019/08/31 16:59:42","新北市新莊區三和路12-21號","121.442103333333","25.0382083333333","6500500","新莊區"
