"lineid","car","time","location","longitude","latitude","cityid","cityname"
"249005","172-UM","2019/08/31 17:09:36","新北市八里區華富山6-8號","121.420441666667","25.14292","6502300","八里區"
"249001","173-UM","2019/08/31 17:09:43","新北市八里區中華路二段310號","121.403851666667","25.1483866666667","6502300","八里區"
"249004","303-UY","2019/08/31 17:09:41","新北市八里區忠孝路152號","121.423953333333","25.160755","6502300","八里區"
"249002","305-UY","2019/08/31 17:09:39","新北市八里區米倉26-1號","121.439476666667","25.1489083333333","6502300","八里區"
"249003","593-UM","2019/08/31 17:09:39","新北市八里區中山路二段405號","121.397786666667","25.1466066666667","6502300","八里區"
"244007","080-UY","2019/08/31 17:09:28","新北市林口區菁埔25-2號","121.377008333333","25.0964783333333","6501700","林口區"
"244019","402-UM","2019/08/31 17:09:41","新北市林口區公園路223巷13號","121.373388333333","25.0748083333333","6501700","林口區"
"244023","483-VK","2019/08/31 17:09:38","新北市林口區仁愛路一段619號","121.389938333333","25.076605","6501700","林口區"
"244017","485-VK","2019/08/31 17:09:34","新北市林口區粉寮69號","121.405076666667","25.0908183333333","6501700","林口區"
"244009","656-BX","2019/08/31 17:09:37","新北市林口區文化北路二段550巷1號","121.378391666667","25.092315","6501700","林口區"
"244011","701-TV","2019/08/31 17:09:47","新北市林口區粉寮路二段128號","121.404328333333","25.0906683333333","6501700","林口區"
"244025","837-TS","2019/08/31 17:09:42","新北市林口區中山路68號","121.393766666667","25.07854","6501700","林口區"
"244021","838-TS","2019/08/31 17:09:33","新北市林口區宏昌街15號","121.403955","25.085125","6501700","林口區"
"231046","719-UM","2019/08/31 17:00:37","新北市新店區灣潭路15-2號","121.54268","24.942895","6500600","新店區"
"241011","013-R5","2019/08/31 17:09:33","新北市三重區龍濱路190號","121.501086666667","25.07327","6500200","三重區"
"241028","022-UY","2019/08/31 17:09:41","新北市三重區重新路三段106號","121.49259","25.0604","6500200","三重區"
"241008","059-VK","2019/08/31 17:09:34","新北市三重區力行路二段136巷7號","121.48216","25.0757","6500200","三重區"
"241029","060-VK","2019/08/31 17:09:33","新北市三重區重新路三段150號","121.490881666667","25.0592983333333","6500200","三重區"
"241015","062-VK","2019/08/31 17:09:25","新北市三重區長生街3號","121.49903","25.0662933333333","6500200","三重區"
"241017","063-VK","2019/08/31 17:09:39","新北市三重區大同北路60巷24號","121.493581666667","25.0637183333333","6500200","三重區"
"241024","065-VK","2019/08/31 17:09:30","新北市三重區中正北路205號","121.476706666667","25.0700383333333","6500200","三重區"
"241002","090-VK","2019/08/31 17:09:34","新北市三重區五華街60號","121.494063333333","25.0812916666667","6500200","三重區"
"241003","091-VK","2019/08/31 17:09:39","新北市三重區富福街108號","121.493343333333","25.085595","6500200","三重區"
"241004","742-BX","2019/08/31 17:09:40","新北市三重區仁愛街445巷47號","121.491193333333","25.082985","6500200","三重區"
"241006","262-UM","2019/08/31 17:09:30","新北市三重區三和路四段264巷11號","121.48512","25.0768666666667","6500200","三重區"
"241016","266-UM","2019/08/31 17:09:47","新北市三重區中正北路25巷14號","121.493451666667","25.0629483333333","6500200","三重區"
"241009","267-UM","2019/08/31 17:09:42","新北市三重區三和路四段225號","121.481343333333","25.0797316666667","6500200","三重區"
"241018","268-UM","2019/08/31 17:09:39","新北市三重區六張街81號","121.493325","25.07004","6500200","三重區"
"241032","269-UM","2019/08/31 17:09:44","新北市三重區三陽路13巷1號","121.486041666667","25.0594466666667","6500200","三重區"
"241013","270-UM","2019/08/31 17:09:35","新北市三重區仁福街37號","121.496803333333","25.0745333333333","6500200","三重區"
"241030","KED-0822","2019/08/31 17:09:36","新北市三重區集成路13號","121.488711666667","25.052095","6500200","三重區"
"241020","478-VK","2019/08/31 17:09:42","新北市三重區自強路三段33號","121.486975","25.0726066666667","6500200","三重區"
"241026","480-VK","2019/08/31 17:09:43","新北市三重區重新路一段43號","121.502318333333","25.0639016666667","6500200","三重區"
"241014","543-UM","2019/08/31 17:09:36","新北市三重區龍濱路183號","121.502235","25.0705766666667","6500200","三重區"
"241001","547-UM","2019/08/31 17:09:38","新北市三重區五華街1巷2號","121.495545","25.079675","6500200","三重區"
"241019","KEA-2593","2019/08/31 17:09:47","新北市三重區力行路一段153巷3號","121.485635","25.0689166666667","6500200","三重區"
"241005","AAD-863","2019/08/31 17:09:40","新北市三重區永安北路二段11號","121.482033333333","25.0813533333333","6500200","三重區"
"241023","743-BX","2019/08/31 17:09:44","新北市三重區忠孝路三段84巷1號","121.480248333333","25.0645633333333","6500200","三重區"
"241022","KED-0820","2019/08/31 17:09:32","新北市三重區三民街131號","121.484916666667","25.06395","6500200","三重區"
"241025","887-TS","2019/08/31 17:09:28","新北市三重區中正北路560巷61號","121.470893333333","25.0696083333333","6500200","三重區"
"241012","941-UM","2019/08/31 17:09:36","新北市三重區河邊北街246號","121.501641666667","25.0758833333333","6500200","三重區"
"241033","AAC-255","2019/08/31 17:09:36","新北市三重區中興北街275號","121.469191666667","25.060735","6500200","三重區"
"247014","KEA-2869","2019/08/31 17:09:33","新北市蘆洲區中央路37巷15-17號","121.473166666667","25.0825516666667","6501400","蘆洲區"
"247008","KED-0682","2019/08/31 17:09:35","新北市蘆洲區民生街30號","121.474698333333","25.0788","6501400","蘆洲區"
"247004","893-R6","2019/08/31 17:09:37","新北市蘆洲區長安街193巷12號","121.45988","25.08171","6501400","蘆洲區"
"247018","546-UM","2019/08/31 17:09:42","新北市蘆洲區復興路85號","121.476548333333","25.0874766666667","6501400","蘆洲區"
"247012","337-TH","2019/08/31 17:09:34","新北市蘆洲區信義路282號","121.47787","25.0871833333333","6501400","蘆洲區"
"247002","336-TH","2019/08/31 17:09:40","新北市蘆洲區永樂街108號","121.455806666667","25.08889","6501400","蘆洲區"
"247022","057-VK","2019/08/31 17:09:36","新北市蘆洲區民族路512號","121.469216666667","25.0901783333333","6501400","蘆洲區"
"247016","053-VK","2019/08/31 17:09:27","新北市蘆洲區光華路73巷27號","121.46864","25.082055","6501400","蘆洲區"
"247020","007-UY","2019/08/31 17:09:26","新北市蘆洲區民族路422巷116號","121.47252","25.0941516666667","6501400","蘆洲區"
"247006","002-UY","2019/08/31 17:09:43","新北市蘆洲區長安街102巷65號","121.462736666667","25.0821433333333","6501400","蘆洲區"
"247024","001-UY","2019/08/31 17:09:45","新北市蘆洲區長興路15號","121.464081666667","25.0828466666667","6501400","蘆洲區"
"228001","212-TW","2019/08/31 17:09:29","新北市貢寮區仁理村研海街29號","121.92954","25.0327116666667","6502600","貢寮區"
"228002","663-BX","2019/08/31 17:09:38","新北市貢寮區龍崗里泮宮路51-1號","121.907905","25.0166366666667","6502600","貢寮區"
"224006","676-BX","2019/08/31 17:09:45","新北市瑞芳區大寮路69號","121.781196666667","25.0976316666667","6501200","瑞芳區"
"224007","285-BY","2019/08/31 17:09:36","新北市瑞芳區粗坑口路3-1號","121.761856666667","25.0987166666667","6501200","瑞芳區"
"224009","275-VK","2019/08/31 17:09:33","新北市瑞芳區濱二路30號","121.841196666667","25.114805","6501200","瑞芳區"
"224008","273-VK","2019/08/31 17:09:33","新北市瑞芳區九芎橋路14號","121.831943333333","25.0909566666667","6501200","瑞芳區"
"224005","271-BY","2019/08/31 17:09:44","新北市瑞芳區鼻頭路111號","121.91623","25.123055","6501200","瑞芳區"
"227002","642-TC","2019/08/31 17:09:29","新北市雙溪區上林里內平林12號","121.837101666667","25.0296833333333","6502500","雙溪區"
"227001","400-TW","2019/08/31 17:09:45","新北市雙溪區三貂里定福路2號","121.851086666667","25.0668733333333","6502500","雙溪區"
"251009","008-UM","2019/08/31 17:09:31","新北市淡水區中正路一段130號","121.422618333333","25.1787266666667","6501000","淡水區"
"251004","009-UM","2019/08/31 17:09:33","新北市淡水區中正東路二段88巷15號","121.459046666667","25.1504916666667","6501000","淡水區"
"251015","KEA-2871","2019/08/31 17:09:39","新北市淡水區忠愛街11-1號","121.45634","25.173795","6501000","淡水區"
"251016","179-VK","2019/08/31 17:09:37","新北市淡水區社厝坑3-11號","121.47524","25.18888","6501000","淡水區"
"251013","180-VK","2019/08/31 17:09:42","新北市淡水區桂花樹1-3號","121.482793333333","25.1963416666667","6501000","淡水區"
"251008","181-VK","2019/08/31 17:09:39","新北市淡水區樹梅坑6號","121.472406666667","25.1452766666667","6501000","淡水區"
"251012","441-VK","2019/08/31 17:09:29","新北市淡水區中山北路一段98號","121.442573333333","25.1763766666667","6501000","淡水區"
"251007","442-VK","2019/08/31 17:09:24","新北市淡水區民權路20號","121.459853333333","25.1379233333333","6501000","淡水區"
"251005","443-VK","2019/08/31 17:09:36","新北市淡水區鄧公路19-1號","121.450255","25.1699416666667","6501000","淡水區"
"251006","561-UM","2019/08/31 17:09:41","新北市淡水區真理街6號","121.438408333333","25.1744916666667","6501000","淡水區"
"251014","577-R6","2019/08/31 17:09:36","新北市淡水區八里堆8-3號","121.461755","25.2244316666667","6501000","淡水區"
"251011","650-BX","2019/08/31 17:09:45","新北市淡水區中正東路一段125號","121.455125","25.1593933333333","6501000","淡水區"
"251003","766-UM","2019/08/31 17:09:36","新北市淡水區中正路二段31號","121.419495","25.18148","6501000","淡水區"
"252002","178-VK","2019/08/31 17:09:38","新北市三芝區忠孝街1-6號","121.505663333333","25.254515","6502100","三芝區"
"233002","762-BX","2019/08/31 17:09:38","新北市烏來區環山路50號","121.54801","24.8649166666667","6502900","烏來區"
"247010","KED-0683","2019/08/31 17:09:38","新北市蘆洲區民族路16號","121.475965","25.08407","6501400","蘆洲區"
"252001","KED-0821","2019/08/31 17:09:29","新北市三芝區淡金路一段4-5號","121.497948333333","25.2599983333333","6502100","三芝區"
"242039","AAC-296","2019/08/31 17:09:47","新北市新莊區新泰路255巷83號","121.442216666667","25.038835","6500500","新莊區"
"242061","986-R7","2019/08/31 17:09:39","新北市新莊區新泰路357巷1弄57號","121.44253","25.0395966666667","6500500","新莊區"
"242002","751-BX","2019/08/31 17:09:35","新北市新莊區三和路12-21號","121.442381666667","25.0379166666667","6500500","新莊區"
"242029","615-BX","2019/08/31 17:09:38","新北市新莊區新泰路357巷3弄57號","121.441901666667","25.0392983333333","6500500","新莊區"
"242027","613-BX","2019/08/31 17:09:36","新北市新莊區新泰路255巷83號","121.442343333333","25.0390416666667","6500500","新莊區"
"242051","497-BY","2019/08/31 17:09:28","新北市新莊區三和路12-12號","121.442296666667","25.0371033333333","6500500","新莊區"
"242031","442-UM","2019/08/31 17:09:44","新北市新莊區新泰路480號","121.442743333333","25.0455133333333","6500500","新莊區"
"242056","441-UM","2019/08/31 17:09:40","新北市新莊區新泰路357巷3弄1號","121.44239","25.0414933333333","6500500","新莊區"
"242011","413-TV","2019/08/31 17:09:36","新北市新莊區新泰路357巷3弄57號","121.441928333333","25.0394233333333","6500500","新莊區"
"242048","400-BY","2019/08/31 17:09:40","新北市新莊區中正路513-1號","121.439958333333","25.0334516666667","6500500","新莊區"
"242023","353-BY","2019/08/31 17:09:36","新北市新莊區新泰路357巷3弄57號","121.442018333333","25.0391566666667","6500500","新莊區"
"242015","173-VK","2019/08/31 17:09:42","新北市新莊區三和路12-21號","121.442043333333","25.0386416666667","6500500","新莊區"
"242021","175-VK","2019/08/31 17:09:45","新北市新莊區三和路12-21號","121.442101666667","25.0386266666667","6500500","新莊區"
"242034","348-TH","2019/08/31 17:09:41","新北市新莊區三和路12-21號","121.442221666667","25.0379983333333","6500500","新莊區"
"238023","601-UM","2019/08/31 17:09:46","新北市樹林區大安路257號","121.419286666667","24.9939883333333","6500700","樹林區"
"238018","KEA-2217","2019/08/31 17:09:41","新北市樹林區水源街96-2號","121.425851666667","24.97986","6500700","樹林區"
"238017","283-BY","2019/08/31 17:09:27","新北市樹林區大安路251號","121.419395","24.99416","6500700","樹林區"
"238014","282-BY","2019/08/31 17:09:41","新北市樹林區中山路二段230號","121.408843333333","24.98016","6500700","樹林區"
"238020","268-VK","2019/08/31 17:09:30","新北市樹林區大安路255號","121.419325","24.99408","6500700","樹林區"
"239007","AAC-297","2019/08/31 17:09:36","新北市鶯歌區中正一路60號","121.352495","24.954025","6500800","鶯歌區"
"239006","891-R6","2019/08/31 17:09:36","新北市鶯歌區八德路2巷20弄1號","121.33637","24.9465533333333","6500800","鶯歌區"
"239008","527-UM","2019/08/31 17:09:31","新北市鶯歌區尖山路101巷1-3號","121.347858333333","24.947245","6500800","鶯歌區"
"239001","417-VK","2019/08/31 17:09:44","新北市鶯歌區尖山路140巷6弄1號","121.346581666667","24.9489566666667","6500800","鶯歌區"
"239002","359-BY","2019/08/31 17:09:33","新北市鶯歌區建國路154號","121.350828333333","24.95367","6500800","鶯歌區"
"239004","193-VK","2019/08/31 17:09:47","新北市鶯歌區文化路324巷8弄2衖2號","121.350011666667","24.9450366666667","6500800","鶯歌區"
"221023","279-VK","2019/08/31 17:09:41","新北市汐止區康寧街901號","121.651671666667","25.07489","6501100","汐止區"
"233001","KEA-2870","2019/08/31 17:09:42","新北市烏來區環山路171號","121.549326666667","24.8563233333333","6502900","烏來區"
"242044","281-VK","2019/08/31 17:09:38","新北市新莊區新泰路357巷3弄17號","121.442066666667","25.04082","6500500","新莊區"
"242009","280-VK","2019/08/31 17:09:42","新北市新莊區三和路12-21號","121.442061666667","25.0380916666667","6500500","新莊區"
