"lineid","car","time","location","longitude","latitude","cityid","cityname"
"234026","9371-KE","2019/08/31 18:09:37","新北市永和區自由街33號","121.514353333333","25.0063383333333","6500400","永和區"
"249005","172-UM","2019/08/31 18:09:36","新北市八里區荖阡坑路15-40號","121.401738333333","25.1398083333333","6502300","八里區"
"249001","173-UM","2019/08/31 18:09:42","新北市八里區龍米路二段26號","121.448806666667","25.1394466666667","6502300","八里區"
"249004","303-UY","2019/08/31 18:09:33","新北市八里區龍米路二段158號","121.435258333333","25.1578083333333","6502300","八里區"
"249002","305-UY","2019/08/31 18:09:39","新北市八里區龍米路一段356巷20號","121.452206666667","25.13076","6502300","八里區"
"249003","593-UM","2019/08/31 18:09:39","新北市八里區松子腳4-3號","121.40302","25.14426","6502300","八里區"
"248008","KED-0815","2019/08/31 18:09:30","新北市五股區中興路二段182巷15弄13號","121.457138333333","25.0812616666667","6501500","五股區"
"248020","KED-0813","2019/08/31 18:09:39","新北市蘆洲區環堤大道365號","121.455226666667","25.0967983333333","6501500","五股區"
"248014","261-SL","2019/08/31 18:09:39","新北市五股區成泰路一段189巷27號","121.433628333333","25.07636","6501500","五股區"
"248010","272-BY","2019/08/31 18:09:30","新北市五股區成泰路一段229-1號","121.434256666667","25.07764","6501500","五股區"
"248006","677-BX","2019/08/31 18:09:35","新北市五股區中興路二段28號","121.462655","25.0751133333333","6501500","五股區"
"248002","678-BX","2019/08/31 18:09:32","新北市五股區中興路三段160號","121.445765","25.0808466666667","6501500","五股區"
"248004","682-TV","2019/08/31 18:09:38","新北市五股區工商路40號","121.43927","25.0838116666667","6501500","五股區"
"232011","375-UM","2019/08/31 18:09:38","新北市坪林區國中路3號","121.712986666667","24.937185","6502000","坪林區"
"244007","080-UY","2019/08/31 18:09:28","新北市林口區竹林路361號","121.388035","25.0846983333333","6501700","林口區"
"244019","402-UM","2019/08/31 18:09:41","新北市林口區忠孝路569巷11號","121.373896666667","25.0687266666667","6501700","林口區"
"244013","KEA-2802","2019/08/31 18:09:29","新北市林口區佳林路101巷36號","121.387025","25.080025","6501700","林口區"
"244023","483-VK","2019/08/31 18:09:38","新北市林口區東湖一街16號","121.384555","25.0721733333333","6501700","林口區"
"244017","485-VK","2019/08/31 18:09:34","新北市林口區八德路36號","121.367548333333","25.066565","6501700","林口區"
"244009","656-BX","2019/08/31 18:09:37","新北市林口區文化三路二段295號","121.379045","25.0865383333333","6501700","林口區"
"244011","701-TV","2019/08/31 18:09:27","新北市林口區中正路74巷5弄1號","121.394611666667","25.0778933333333","6501700","林口區"
"244025","837-TS","2019/08/31 18:09:42","新北市林口區文明街182號","121.360758333333","25.0723816666667","6501700","林口區"
"244021","838-TS","2019/08/31 18:09:33","新北市林口區新寮29號","121.398926666667","25.06682","6501700","林口區"
"222003","436-BY","2019/08/31 18:09:42","新北市深坑區文山路三段15號","121.612576666667","24.998","6501800","深坑區"
"222002","659-BX","2019/08/31 18:09:27","新北市深坑區文化街39巷1號","121.61888","25.0013733333333","6501800","深坑區"
"231044","046-UY","2019/08/31 18:09:36","新北市新店區安華路28-1號","121.519608333333","24.960625","6500600","新店區"
"231060","106-UY","2019/08/31 18:09:25","新北市新店區安華路28-1號","121.519543333333","24.9607883333333","6500600","新店區"
"231051","107-UY","2019/08/31 18:09:42","新北市新店區安一路一段1-1號","121.51959","24.9613583333333","6500600","新店區"
"221031","KEA-2785","2019/08/31 18:09:33","新北市汐止區中興路216號","121.631011666667","25.0662866666667","6501100","汐止區"
"231054","260-TV","2019/08/31 18:09:33","新北市新店區安一路一段1-1號","121.519405","24.961305","6500600","新店區"
"231050","AAD-862","2019/08/31 18:09:41","新北市新店區安華路28-1號","121.51997","24.9609983333333","6500600","新店區"
"231045","355-BY","2019/08/31 18:09:27","新北市新店區安華路28-1號","121.519406666667","24.9609533333333","6500600","新店區"
"231055","4716-K9","2019/08/31 18:09:26","新北市新店區安華路28-1號","121.519696666667","24.960585","6500600","新店區"
"231056","4715-K9","2019/08/31 18:09:41","新北市新店區安華路28-1號","121.519503333333","24.9606583333333","6500600","新店區"
"231052","515-UM","2019/08/31 18:09:29","新北市新店區安康路一段136號","121.526626666667","24.96281","6500600","新店區"
"231063","616-UM","2019/08/31 18:09:40","新北市新店區安華路1-1號","121.519503333333","24.9605233333333","6500600","新店區"
"231057","720-UM","2019/08/31 18:09:34","新北市新店區安一路一段1-1號","121.519278333333","24.961325","6500600","新店區"
"231040","898-TW","2019/08/31 18:09:35","新北市新店區安一路一段1-1號","121.51966","24.9611016666667","6500600","新店區"
"231043","899-TW","2019/08/31 18:09:40","新北市新店區安華路28-1號","121.519146666667","24.9608683333333","6500600","新店區"
"241016","266-UM","2019/08/31 18:09:28","新北市八里區荖阡坑路32號","121.403783333333","25.1274616666667","6500200","三重區"
"241033","AAC-255","2019/08/31 18:09:36","新北市三重區中興北街42巷33號","121.467986666667","25.0493233333333","6500200","三重區"
"235066","003-UY","2019/08/31 18:09:44","新北市中和區中正路589巷1號","121.48587","24.994385","6500300","中和區"
"235063","006-UY","2019/08/31 18:09:35","新北市中和區中正路637巷52弄1號","121.485485","24.993505","6500300","中和區"
"235039","097-UM","2019/08/31 18:09:29","新北市中和區錦和路350-1號","121.49025","24.993555","6500300","中和區"
"235065","098-UM","2019/08/31 18:09:33","新北市中和區莊敬路49巷18號","121.501686666667","25.0061316666667","6500300","中和區"
"235040","150-BY","2019/08/31 18:09:39","新北市中和區中正路273號","121.495705","24.99374","6500300","中和區"
"235058","151-BY","2019/08/31 18:09:44","新北市中和區圓通路367巷61弄4號","121.491926666667","24.98317","6500300","中和區"
"235055","183-VK","2019/08/31 18:09:37","新北市中和區員山路36巷16-2號","121.485205","24.9915966666667","6500300","中和區"
"235038","185-VK","2019/08/31 18:09:30","新北市中和區景平路276-1號","121.513936666667","24.9924816666667","6500300","中和區"
"235072","301-VK","2019/08/31 18:09:35","新北市中和區中正路589巷11號","121.485878333333","24.99396","6500300","中和區"
"235043","352-BY","2019/08/31 18:09:33","新北市中和區中正路169號","121.498061666667","24.993545","6500300","中和區"
"235070","558-UM","2019/08/31 18:09:40","新北市中和區圓通路171號","121.497653333333","24.99522","6500300","中和區"
"235045","565-BX","2019/08/31 18:09:25","新北市中和區板南路100號","121.503748333333","24.9923766666667","6500300","中和區"
"235060","KED-0823","2019/08/31 18:09:45","新北市中和區員山路72-1號","121.481105","24.9935533333333","6500300","中和區"
"235062","800-TS","2019/08/31 18:09:36","新北市中和區景平路999巷2號","121.495368333333","25.005955","6500300","中和區"
"235057","801-TS","2019/08/31 18:09:41","新北市中和區民享街97巷19號","121.475345","24.999595","6500300","中和區"
"235052","805-TS","2019/08/31 18:09:32","新北市中和區中正路273-1號","121.495656666667","24.9936183333333","6500300","中和區"
"235064","911-UM","2019/08/31 18:09:45","新北市中和區中正路78號","121.50041","24.9937316666667","6500300","中和區"
"235051","157-BY","2019/08/31 18:09:27","新北市中和區復興路307號","121.501318333333","24.99014","6500300","中和區"
"235037","AAC-213","2019/08/31 18:09:30","新北市中和區景平路73號","121.518883333333","24.9914466666667","6500300","中和區"
"235059","AAC-215","2019/08/31 18:09:43","新北市中和區員山路36巷16-2號","121.48521","24.9914433333333","6500300","中和區"
"247002","336-TH","2019/08/31 18:09:40","新北市蘆洲區永平街32巷69弄3號","121.45981","25.0932866666667","6501400","蘆洲區"
"226004","312-R5","2019/08/31 18:09:25","新北市平溪區白石里中埔178-1號","121.722661666667","25.0217333333333","6502400","平溪區"
"228003","097-TW","2019/08/31 18:09:44","新北市貢寮區真理里美艷山街6-2號","121.9289","25.0607466666667","6502600","貢寮區"
"228001","212-TW","2019/08/31 18:09:29","新北市貢寮區真理里新港街26巷55弄2-1號","121.927375","25.0528983333333","6502600","貢寮區"
"228002","663-BX","2019/08/31 18:09:37","新北市貢寮區福連里福興街31號","121.991526666667","25.0109183333333","6502600","貢寮區"
"224006","676-BX","2019/08/31 18:09:45","新北市瑞芳區中山路179號","121.801845","25.1065316666667","6501200","瑞芳區"
"224002","639-TC","2019/08/31 18:09:33","新北市瑞芳區三爪子坑路52號","121.810326666667","25.1056133333333","6501200","瑞芳區"
"224007","285-BY","2019/08/31 18:09:35","新北市瑞芳區四腳亭坑路22號","121.777483333333","25.1096116666667","6501200","瑞芳區"
"224009","275-VK","2019/08/31 18:09:33","新北市瑞芳區金光路209號","121.852888333333","25.1076266666667","6501200","瑞芳區"
"224008","273-VK","2019/08/31 18:09:33","新北市瑞芳區員山子路23號","121.821435","25.1030116666667","6501200","瑞芳區"
"224005","271-BY","2019/08/31 18:09:44","新北市瑞芳區深澳路189-8號","121.821073333333","25.1342216666667","6501200","瑞芳區"
"227002","642-TC","2019/08/31 18:09:30","新北市雙溪區共和里東榮街42號","121.866098333333","25.033725","6502500","雙溪區"
"227001","400-TW","2019/08/31 18:09:33","新北市雙溪區三貂里政光路3-1號","121.850825","25.06334","6502500","雙溪區"
"253006","032-BX","2019/08/31 18:09:26","新北市石門區老梅路52巷19號","121.546433333333","25.288625","6502200","石門區"
"253005","295-VK","2019/08/31 18:09:36","新北市石門區中山路70-5號","121.568295","25.29161","6502200","石門區"
"222001","KEA-2212","2019/08/31 18:09:41","新北市深坑區北深路二段184號","121.614103333333","25.00228","6501800","深坑區"
"208002","KEA-2872","2019/08/31 18:09:42","新北市金山區三界壇路111巷14號","121.619076666667","25.231455","6502700","金山區"
"208003","665-BX","2019/08/31 18:09:29","新北市金山區磺港里磺港路310號","121.64407","25.2277516666667","6502700","金山區"
"251009","008-UM","2019/08/31 18:09:31","新北市淡水區大忠街24巷7號","121.443078333333","25.1752633333333","6501000","淡水區"
"251004","009-UM","2019/08/31 18:09:28","新北市淡水區民族路110巷36弄2號","121.4615","25.135305","6501000","淡水區"
"251002","012-UM","2019/08/31 18:09:34","新北市淡水區中正東路一段45號","121.45209","25.163005","6501000","淡水區"
"251015","KEA-2871","2019/08/31 18:09:39","新北市淡水區興福寮100號","121.487033333333","25.16451","6501000","淡水區"
"251016","179-VK","2019/08/31 18:09:37","新北市淡水區下圭柔山18-2號","121.45352","25.2025666666667","6501000","淡水區"
"251013","180-VK","2019/08/31 18:09:37","新北市淡水區竹圍子12號","121.476453333333","25.1936733333333","6501000","淡水區"
"251008","181-VK","2019/08/31 18:09:39","新北市淡水區八勢一街16號","121.4602","25.155965","6501000","淡水區"
"251010","413-VK","2019/08/31 18:09:35","新北市淡水區淡海路156號","121.42102","25.1831683333333","6501000","淡水區"
"251012","441-VK","2019/08/31 18:09:40","新北市淡水區北新路三段112號","121.486563333333","25.1882016666667","6501000","淡水區"
"251005","443-VK","2019/08/31 18:09:36","新北市淡水區水源街一段141號","121.447216666667","25.17186","6501000","淡水區"
"251001","559-UM","2019/08/31 18:09:36","新北市淡水區自立路10號","121.463021666667","25.1297666666667","6501000","淡水區"
"251006","561-UM","2019/08/31 18:09:41","新北市淡水區真理街3巷21號","121.437683333333","25.1761466666667","6501000","淡水區"
"251014","577-R6","2019/08/31 18:09:36","新北市淡水區南平15號","121.488583333333","25.2190116666667","6501000","淡水區"
"251011","650-BX","2019/08/31 18:09:44","新北市淡水區三空泉6-1號","121.47751","25.1620783333333","6501000","淡水區"
"251003","766-UM","2019/08/31 18:09:36","新北市淡水區大忠街113巷16號","121.447175","25.1776016666667","6501000","淡水區"
"207003","550-UM","2019/08/31 18:09:45","新北市萬里區野柳里港東路159號","121.689985","25.2048733333333","6502800","萬里區"
"207004","291-VK","2019/08/31 18:09:32","新北市萬里區中幅里中福路94號","121.675655","25.1702766666667","6502800","萬里區"
"252002","178-VK","2019/08/31 18:09:38","新北市三芝區中山路二段37號","121.502915","25.2551816666667","6502100","三芝區"
"252003","249-BX","2019/08/31 18:09:40","新北市三芝區埔頭里埔頭37號","121.498538333333","25.26037","6502100","三芝區"
"208001","170-UY","2019/08/31 18:09:35","新北市金山區磺港里磺港路74號","121.647578333333","25.226805","6502700","金山區"
"237004","KEA-2597","2019/08/31 18:09:30","新北市三峽區大埔路359號","121.371958333333","24.896195","6500900","三峽區"
"237007","153-BY","2019/08/31 18:09:45","新北市三峽區中正路二段370巷83號","121.364341666667","24.9116533333333","6500900","三峽區"
"237009","210-TH","2019/08/31 18:09:45","新北市三峽區大仁路53號","121.365355","24.9374533333333","6500900","三峽區"
"237013","252-BX","2019/08/31 18:09:39","新北市三峽區長泰街55號","121.377378333333","24.9328316666667","6500900","三峽區"
"237012","275-BY","2019/08/31 18:09:30","新北市三峽區民生街15號","121.376315","24.9365766666667","6500900","三峽區"
"237008","302-VK","2019/08/31 18:09:37","新北市三峽區白雞58-27號","121.386366666667","24.9094616666667","6500900","三峽區"
"237014","433-BY","2019/08/31 18:09:42","新北市三峽區國光街63巷2號","121.374028333333","24.9381116666667","6500900","三峽區"
"237006","5529-G3","2019/08/31 18:09:44","新北市三峽區介壽路二段138巷16號","121.395751666667","24.9347816666667","6500900","三峽區"
"237011","KEA-2596","2019/08/31 18:09:41","新北市三峽區介壽路一段233號","121.37906","24.930315","6500900","三峽區"
"237015","649-BX","2019/08/31 18:09:30","新北市三峽區紫新路47號","121.422181666667","24.9217766666667","6500900","三峽區"
"237010","706-TV","2019/08/31 18:09:34","新北市三峽區中園街22號","121.368135","24.9270483333333","6500900","三峽區"
"237005","AKY-6261","2019/08/31 18:09:38","新北市三峽區忠孝街7號","121.370788333333","24.93452","6500900","三峽區"
"236042","KED-0685","2019/08/31 18:09:40","新北市土城區城林路6巷80號","121.43848","24.9797583333333","6501300","土城區"
"233002","762-BX","2019/08/31 18:09:38","新北市烏來區天仁1號","121.54257","24.8840116666667","6502900","烏來區"
"236079","166-UM","2019/08/31 18:09:40","新北市土城區永寧路32巷1-1號","121.429121666667","24.960595","6501300","土城區"
"236030","253-BX","2019/08/31 18:09:31","新北市土城區城林路6巷80號","121.438706666667","24.97956","6501300","土城區"
"236026","269-VK","2019/08/31 18:09:30","新北市土城區承天路47號","121.439063333333","24.9637216666667","6501300","土城區"
"236014","270-VK","2019/08/31 18:09:36","新北市土城區青雲路39巷7號","121.460286666667","24.98739","6501300","土城區"
"236038","271-VK","2019/08/31 18:09:32","新北市土城區青雲路451巷2弄2號","121.459025","24.9746083333333","6501300","土城區"
"236070","KEA-2877","2019/08/31 18:09:40","新北市土城區石門路28號","121.457863333333","24.964935","6501300","土城區"
"252001","KED-0821","2019/08/31 18:09:28","新北市三芝區中興街二段2號","121.498336666667","25.2566516666667","6502100","三芝區"
"236021","401-BY","2019/08/31 18:09:45","新北市土城區員林街16-1號","121.443321666667","24.9777683333333","6501300","土城區"
"236059","912-UM","2019/08/31 18:09:40","新北市土城區中央路四段99-1號","121.416723333333","24.9578733333333","6501300","土城區"
"236049","913-UM","2019/08/31 18:09:35","新北市土城區明德路一段365-1號","121.453591666667","24.9790616666667","6501300","土城區"
"236063","915-UM","2019/08/31 18:09:42","新北市土城區金城路二段36號","121.450816666667","24.978545","6501300","土城區"
"236055","AAC-216","2019/08/31 18:09:36","新北市土城區中華路二段90號","121.438351666667","24.9747833333333","6501300","土城區"
"242039","AAC-296","2019/08/31 18:09:27","新北市新莊區民安西路38巷13號","121.426835","25.0206916666667","6500500","新莊區"
"242061","986-R7","2019/08/31 18:09:39","新北市新莊區新樹路207-7號","121.435868333333","25.0239066666667","6500500","新莊區"
"242002","751-BX","2019/08/31 18:09:43","新北市新莊區新莊路2號","121.45947","25.03807","6500500","新莊區"
"242029","615-BX","2019/08/31 18:09:40","新北市新莊區中平路200-2號","121.44474","25.04863","6500500","新莊區"
"242027","613-BX","2019/08/31 18:09:36","新北市新莊區幸福路557號","121.454458333333","25.0492583333333","6500500","新莊區"
"242058","612-BX","2019/08/31 18:09:39","新北市新莊區壽山路160巷15號","121.417101666667","25.0318666666667","6500500","新莊區"
"242046","566-BX","2019/08/31 18:09:31","新北市新莊區福營路298號","121.422568333333","25.0274983333333","6500500","新莊區"
"242051","497-BY","2019/08/31 18:09:28","新北市新莊區民本街11巷35號","121.4291","25.02028","6500500","新莊區"
"242031","442-UM","2019/08/31 18:09:24","新北市新莊區新泰路277巷59號","121.443408333333","25.0400983333333","6500500","新莊區"
"242056","441-UM","2019/08/31 18:09:40","新北市新莊區豐年街55-8號","121.446503333333","25.0308666666667","6500500","新莊區"
"242004","440-UM","2019/08/31 18:09:30","新北市新莊區自由街46號","121.455873333333","25.04605","6500500","新莊區"
"242042","415-TV","2019/08/31 18:09:34","新北市新莊區天祥街129號","121.414205","25.0297333333333","6500500","新莊區"
"242011","413-TV","2019/08/31 18:09:36","新北市新莊區中榮街56巷13弄2號","121.449123333333","25.05348","6500500","新莊區"
"242048","400-BY","2019/08/31 18:09:40","新北市新莊區後港二路10號","121.422886666667","25.0240466666667","6500500","新莊區"
"242025","362-BY","2019/08/31 18:09:36","新北市新莊區五權一路1-6號","121.457045","25.06511","6500500","新莊區"
"242013","132-UY","2019/08/31 18:09:37","新北市新莊區中正路461號","121.441983333333","25.0340633333333","6500500","新莊區"
"242036","135-UY","2019/08/31 18:09:27","新北市新莊區後港一路49巷5弄23號","121.42498","25.0269783333333","6500500","新莊區"
"242053","172-VK","2019/08/31 18:09:43","新北市新莊區民安西路342號","121.42701","25.01143","6500500","新莊區"
"242015","173-VK","2019/08/31 18:09:42","新北市新莊區中和街59巷28號","121.44626","25.0466833333333","6500500","新莊區"
"242021","175-VK","2019/08/31 18:09:45","新北市新莊區建興街24號","121.450155","25.037065","6500500","新莊區"
"242019","346-TH","2019/08/31 18:09:28","新北市新莊區民樂街24號","121.45777","25.040655","6500500","新莊區"
"242034","348-TH","2019/08/31 18:09:41","新北市新莊區福海街24巷5號","121.445738333333","25.0341216666667","6500500","新莊區"
"242007","349-TH","2019/08/31 18:09:33","新北市新莊區自信街26號","121.454111666667","25.0481266666667","6500500","新莊區"
"242017","351-TH","2019/08/31 18:09:37","新北市新莊區永樂街7號","121.452103333333","25.0451","6500500","新莊區"
"238015","755-BX","2019/08/31 18:09:32","新北市樹林區大安路345號","121.41658","24.990745","6500700","樹林區"
"238023","601-UM","2019/08/31 18:09:46","新北市樹林區三福街47巷10號","121.407931666667","25.0158183333333","6500700","樹林區"
"238019","599-UM","2019/08/31 18:09:24","新北市樹林區忠孝街8號","121.423201666667","24.9828116666667","6500700","樹林區"
"238018","KEA-2217","2019/08/31 18:09:41","新北市樹林區保順街85號","121.428998333333","24.9945666666667","6500700","樹林區"
"238022","KEA-2213","2019/08/31 18:09:43","新北市樹林區太平路174巷32弄7號","121.417235","24.9767283333333","6500700","樹林區"
"238021","KEA-2539","2019/08/31 18:09:41","新北市樹林區柑園街二段95號","121.385966666667","24.9549833333333","6500700","樹林區"
"238025","303-VK","2019/08/31 18:09:41","新北市樹林區保安街二段235號","121.413083333333","25.0046033333333","6500700","樹林區"
"238017","283-BY","2019/08/31 18:09:27","新北市樹林區中正路845號","121.409","25.0177033333333","6500700","樹林區"
"238014","282-BY","2019/08/31 18:09:41","新北市樹林區潭興街107巷21弄10號","121.424031666667","24.9990216666667","6500700","樹林區"
"238020","268-VK","2019/08/31 18:09:30","新北市樹林區俊興街286號","121.418633333333","25.0170533333333","6500700","樹林區"
"238026","172-UY","2019/08/31 18:09:40","新北市樹林區佳園路一段6號","121.392691666667","24.971515","6500700","樹林區"
"238016","169-UY","2019/08/31 18:09:26","新北市樹林區文化街10巷23號","121.420556666667","24.9879583333333","6500700","樹林區"
"239007","AAC-297","2019/08/31 18:09:36","新北市鶯歌區鶯桃路5號","121.34409","24.9502516666667","6500800","鶯歌區"
"239006","891-R6","2019/08/31 18:09:36","新北市鶯歌區鶯桃路455巷2弄2號","121.331868333333","24.9655133333333","6500800","鶯歌區"
"239008","527-UM","2019/08/31 18:09:31","新北市鶯歌區欣欣街3號","121.336243333333","24.9779033333333","6500800","鶯歌區"
"239001","417-VK","2019/08/31 18:09:44","新北市鶯歌區中正三路489號","121.320925","24.9339833333333","6500800","鶯歌區"
"239003","360-BY","2019/08/31 18:09:29","新北市鶯歌區福安街32巷36號","121.335296666667","24.9634316666667","6500800","鶯歌區"
"239002","359-BY","2019/08/31 18:09:33","新北市鶯歌區光明街30號","121.348633333333","24.95596","6500800","鶯歌區"
"221008","489-VK","2019/08/31 18:09:30","新北市汐止區明峰街200-1號","121.627746666667","25.0693933333333","6501100","汐止區"
"221036","130-UY","2019/08/31 18:09:33","新北市汐止區大同路三段116號","121.67216","25.0767816666667","6501100","汐止區"
"221015","131-UY","2019/08/31 18:09:44","新北市汐止區長江街299號","121.6657","25.081295","6501100","汐止區"
"221010","269-BY","2019/08/31 18:09:38","新北市汐止區汐萬路二段247號","121.646531666667","25.0883016666667","6501100","汐止區"
"221012","278-VK","2019/08/31 18:09:38","新北市汐止區長興街二段50巷10號","121.674468333333","25.0811783333333","6501100","汐止區"
"221023","279-VK","2019/08/31 18:09:31","新北市汐止區民族五街67號","121.628288333333","25.0705583333333","6501100","汐止區"
"221032","280-BY","2019/08/31 18:09:32","新北市汐止區橫科路73巷22-2號","121.619358333333","25.0515233333333","6501100","汐止區"
"221029","298-VK","2019/08/31 18:09:38","新北市汐止區樟樹二路134號","121.64001","25.0656966666667","6501100","汐止區"
"221021","299-VK","2019/08/31 18:09:30","新北市汐止區復興路23號","121.65613","25.0651666666667","6501100","汐止區"
"221035","622-UM","2019/08/31 18:09:41","新北市汐止區汐萬路一段115巷2號","121.654261666667","25.0707333333333","6501100","汐止區"
"221025","623-UM","2019/08/31 18:09:43","新北市汐止區秀峰路139號","121.660308333333","25.06229","6501100","汐止區"
"221038","646-BX","2019/08/31 18:09:33","新北市汐止區南興路100號","121.653196666667","25.05863","6501100","汐止區"
"221033","647-BX","2019/08/31 18:09:31","新北市汐止區宜興街20巷22號","121.622098333333","25.0407866666667","6501100","汐止區"
"221002","707-TV","2019/08/31 18:09:28","新北市汐止區福德一路188-1號","121.634706666667","25.0654083333333","6501100","汐止區"
"221018","753-BX","2019/08/31 18:09:42","新北市汐止區招商街19巷25號","121.667703333333","25.06829","6501100","汐止區"
"233001","KEA-2870","2019/08/31 18:09:42","新北市烏來區新烏路五段47號","121.542828333333","24.8782683333333","6502900","烏來區"
"242044","281-VK","2019/08/31 18:09:38","新北市新莊區中正路力行巷1弄1號","121.417146666667","25.0262066666667","6500500","新莊區"
"242009","280-VK","2019/08/31 18:09:42","新北市新莊區昌平街71巷15號","121.453705","25.0535433333333","6500500","新莊區"
"235068","KEA-2873","2019/08/31 18:09:24","新北市中和區員山路36巷16-3號","121.485098333333","24.991085","6500300","中和區"
"235061","KEA-2875","2019/08/31 18:09:43","新北市中和區國光街215巷24弄10號","121.466725","25.000005","6500300","中和區"
