"lineid","car","time","location","longitude","latitude","cityid","cityname"
"234081","298-R6","2019/08/31 20:19:34","新北市永和區福和路7巷10弄7號","121.52484","25.0075366666667","6500400","永和區"
"234038","336-UY","2019/08/31 20:19:38","新北市永和區成功路一段93巷11號","121.527556666667","25.0027133333333","6500400","永和區"
"234064","337-UY","2019/08/31 20:19:41","新北市永和區中正路279號","121.517615","25.0009716666667","6500400","永和區"
"234086","338-UY","2019/08/31 20:19:39","新北市永和區永和路二段55號","121.514678333333","25.0109183333333","6500400","永和區"
"234070","552-UM","2019/08/31 20:19:30","新北市永和區福和路278號","121.517953333333","25.0075033333333","6500400","永和區"
"234017","745-BX","2019/08/31 20:19:38","新北市永和區仁愛路18號","121.514831666667","25.0135316666667","6500400","永和區"
"234030","746-BX","2019/08/31 20:19:31","新北市中和區立人街14巷52號","121.51846","24.9956616666667","6500400","永和區"
"234054","KEA-2590","2019/08/31 20:19:38","新北市永和區光復街2巷27號","121.517265","25.0167083333333","6500400","永和區"
"234013","KEA-2591","2019/08/31 20:19:40","新北市永和區仁愛路276號","121.503996666667","25.00837","6500400","永和區"
"234061","AAD-866","2019/08/31 20:19:42","新北市永和區得和路11號","121.515233333333","25.0005716666667","6500400","永和區"
"234042","862-TW","2019/08/31 20:19:37","新北市中和區中安街166號","121.510818333333","25.000095","6500400","永和區"
"234050","863-TW","2019/08/31 20:19:32","新北市永和區新生路28巷16號","121.508285","25.0164066666667","6500400","永和區"
"249005","172-UM","2019/08/31 20:19:35","新北市八里區下罟子1-16號","121.389816666667","25.1420166666667","6502300","八里區"
"249001","173-UM","2019/08/31 20:19:31","新北市八里區中華路二段536-4號","121.399155","25.1450783333333","6502300","八里區"
"249004","303-UY","2019/08/31 20:19:37","新北市八里區中山路一段366號","121.412398333333","25.1587633333333","6502300","八里區"
"249002","305-UY","2019/08/31 20:19:39","新北市八里區龍米路一段100巷3號","121.453603333333","25.1250466666667","6502300","八里區"
"249003","593-UM","2019/08/31 20:19:30","新北市八里區訊埔路20號","121.397603333333","25.1453233333333","6502300","八里區"
"248016","026-BX","2019/08/31 20:19:27","新北市五股區凌雲路一段158巷39弄12號","121.446496666667","25.1040833333333","6501500","五股區"
"248010","272-BY","2019/08/31 20:19:30","新北市五股區成泰路一段32巷45號","121.435151666667","25.06686","6501500","五股區"
"248002","678-BX","2019/08/31 20:19:32","新北市五股區成泰路三段169號","121.445228333333","25.0919016666667","6501500","五股區"
"234023","9380-KE","2019/08/31 20:19:38","新北市永和區勵行街42-1號","121.516588333333","25.0134533333333","6500400","永和區"
"234077","969-R7","2019/08/31 20:19:43","新北市中和區景平路336號","121.511835","24.9927983333333","6500400","永和區"
"234074","AAC-211","2019/08/31 20:19:35","新北市永和區豫溪街160巷1號","121.5233","25.0095933333333","6500400","永和區"
"234067","AAC-212","2019/08/31 20:19:30","新北市永和區保平路270號","121.508658333333","25.0051283333333","6500400","永和區"
"234003","AAC-295","2019/08/31 20:19:38","新北市永和區自強街23號","121.515123333333","25.0081","6500400","永和區"
"243012","AAD-798","2019/08/31 20:19:42","新北市泰山區楓江路142號","121.439828333333","25.0651133333333","6501600","泰山區"
"243010","297-R6","2019/08/31 20:19:43","新北市泰山區明志路二段259號","121.427058333333","25.0475966666667","6501600","泰山區"
"243014","KEA-2801","2019/08/31 20:19:33","新北市泰山區泰林路二段280巷2號","121.431593333333","25.062345","6501600","泰山區"
"243016","421-VK","2019/08/31 20:19:45","新北市泰山區明志路二段418號","121.425013333333","25.04393","6501600","泰山區"
"243009","KEA-2215","2019/08/31 20:19:39","新北市泰山區福泰街35號","121.433141666667","25.0600883333333","6501600","泰山區"
"243011","KEA-2216","2019/08/31 20:19:35","新北市泰山區德安街24號","121.41857","25.0313766666667","6501600","泰山區"
"243013","646-TV","2019/08/31 20:19:40","新北市泰山區民國街31號","121.425925","25.04379","6501600","泰山區"
"243015","680-BX","2019/08/31 20:19:37","新北市泰山區明志路一段266號","121.432028333333","25.0603416666667","6501600","泰山區"
"222003","436-BY","2019/08/31 20:19:39","新北市深坑區深坑街8號","121.616386666667","25.0026083333333","6501800","深坑區"
"222002","659-BX","2019/08/31 20:19:27","新北市深坑區萬福路75巷46號","121.598318333333","25.009885","6501800","深坑區"
"231061","002-UM","2019/08/31 20:19:23","新北市新店區安興路33-1號","121.515808333333","24.97044","6500600","新店區"
"231058","0293-UT","2019/08/31 20:19:31","新北市新店區薏仁坑路自強巷6號","121.496498333333","24.9584616666667","6500600","新店區"
"231044","046-UY","2019/08/31 20:19:35","新北市新店區北新路三段118號","121.541648333333","24.9816866666667","6500600","新店區"
"231060","106-UY","2019/08/31 20:19:25","新北市新店區安康路三段578-1號","121.481035","24.9486683333333","6500600","新店區"
"231051","107-UY","2019/08/31 20:19:42","新北市新店區中央七街121號","121.525148333333","24.9779666666667","6500600","新店區"
"231049","108-UY","2019/08/31 20:19:42","新北市新店區北新路二段4號","121.542671666667","24.9710116666667","6500600","新店區"
"231065","110-UY","2019/08/31 20:19:35","新北市新店區安祥路102巷32號","121.484145","24.9639133333333","6500600","新店區"
"231068","187-VK","2019/08/31 20:19:25","新北市新店區寶安街30號","121.542011666667","24.9824","6500600","新店區"
"221031","KEA-2785","2019/08/31 20:19:33","新北市汐止區原興路73巷1號","121.632088333333","25.0661933333333","6501100","汐止區"
"231062","256-BX","2019/08/31 20:19:39","新北市新店區安康路三段206號","121.48878","24.951765","6500600","新店區"
"231054","260-TV","2019/08/31 20:19:33","新北市新店區檳榔路109號","121.544496666667","24.9615733333333","6500600","新店區"
"231042","268-BY","2019/08/31 20:19:32","新北市新店區中興路二段173號","121.547995","24.9732683333333","6500600","新店區"
"231064","278-BY","2019/08/31 20:19:35","新北市新店區安業街33號","121.517961666667","24.976915","6500600","新店區"
"231050","AAD-862","2019/08/31 20:19:41","新北市新店區博愛街17號","121.541183333333","24.9734666666667","6500600","新店區"
"231045","355-BY","2019/08/31 20:19:27","新北市新店區中興路一段60號","121.539256666667","24.95957","6500600","新店區"
"231055","4716-K9","2019/08/31 20:19:46","新北市新店區北新路一段297巷35號","121.540313333333","24.9684","6500600","新店區"
"231056","4715-K9","2019/08/31 20:19:41","新北市新店區中正路334巷5號","121.536828333333","24.9753983333333","6500600","新店區"
"231067","4772-VM","2019/08/31 20:19:44","新北市新店區安華路28-1號","121.519578333333","24.9608666666667","6500600","新店區"
"231052","515-UM","2019/08/31 20:19:29","新北市新店區新烏路二段369巷353-1號","121.550561666667","24.9102866666667","6500600","新店區"
"231063","616-UM","2019/08/31 20:19:39","新北市新店區車子路10號","121.504698333333","24.9548983333333","6500600","新店區"
"231041","619-UM","2019/08/31 20:19:45","新北市新店區民權路38號","121.540568333333","24.9829983333333","6500600","新店區"
"231048","KED-0819","2019/08/31 20:19:37","新北市新店區寶橋路85巷5弄3號","121.545743333333","24.9759316666667","6500600","新店區"
"231057","720-UM","2019/08/31 20:19:34","新北市新店區花園十二路1號","121.554851666667","24.934725","6500600","新店區"
"231059","897-TW","2019/08/31 20:19:44","新北市新店區安德街60巷35號","121.511183333333","24.9635866666667","6500600","新店區"
"231040","898-TW","2019/08/31 20:19:35","新北市新店區中正路106號","121.543125","24.9706766666667","6500600","新店區"
"231043","899-TW","2019/08/31 20:19:40","新北市新店區建國路133號","121.539371666667","24.9782633333333","6500600","新店區"
"241011","013-R5","2019/08/31 20:19:33","新北市三重區龍門路212號","121.49997","25.0734966666667","6500200","三重區"
"241028","022-UY","2019/08/31 20:19:38","新北市三重區光興街97號","121.497191666667","25.059965","6500200","三重區"
"241008","059-VK","2019/08/31 20:19:36","新北市三重區永福街158號","121.48049","25.074485","6500200","三重區"
"241029","060-VK","2019/08/31 20:19:26","新北市三重區光明路116號","121.492723333333","25.05608","6500200","三重區"
"241031","061-VK","2019/08/31 20:19:39","新北市三重區三寧街15號","121.489466666667","25.0597716666667","6500200","三重區"
"241015","062-VK","2019/08/31 20:19:42","新北市三重區文化北路5號","121.499755","25.0633883333333","6500200","三重區"
"241017","063-VK","2019/08/31 20:19:39","新北市三重區自強路一段236號","121.493386666667","25.0671216666667","6500200","三重區"
"241024","065-VK","2019/08/31 20:19:28","新北市三重區中正北路274號","121.480891666667","25.0685","6500200","三重區"
"241003","091-VK","2019/08/31 20:19:32","新北市三重區富華街76號","121.49065","25.0832733333333","6500200","三重區"
"241004","742-BX","2019/08/31 20:19:34","新北市三重區仁政街198號","121.490536666667","25.0803316666667","6500200","三重區"
"241006","262-UM","2019/08/31 20:19:30","新北市三重區車路頭街135-1號","121.484226666667","25.07618","6500200","三重區"
"241016","266-UM","2019/08/31 20:19:27","新北市三重區大同北路97-2號","121.494468333333","25.063815","6500200","三重區"
"241009","267-UM","2019/08/31 20:19:42","新北市三重區三和路四段382巷31號","121.481593333333","25.0786333333333","6500200","三重區"
"241018","268-UM","2019/08/31 20:19:32","新北市三重區雙園街97號","121.493843333333","25.067315","6500200","三重區"
"241032","269-UM","2019/08/31 20:19:44","新北市三重區捷運路19巷6弄16號","121.484486666667","25.056815","6500200","三重區"
"241013","270-UM","2019/08/31 20:19:41","新北市三重區三和路三段167巷30號","121.492958333333","25.0744166666667","6500200","三重區"
"241035","KEA-2210","2019/08/31 20:19:35","新北市三重區正義北路33巷44號","121.498721666667","25.0638783333333","6500200","三重區"
"241030","KED-0822","2019/08/31 20:19:35","新北市三重區集美街91號","121.488698333333","25.0531166666667","6500200","三重區"
"241020","478-VK","2019/08/31 20:19:42","新北市三重區三和路三段170巷10號","121.49238","25.072965","6500200","三重區"
"241026","480-VK","2019/08/31 20:19:38","新北市三重區重新路一段12號","121.504111666667","25.063735","6500200","三重區"
"241014","543-UM","2019/08/31 20:19:36","新北市三重區長榮路77號","121.502653333333","25.0691983333333","6500200","三重區"
"241001","547-UM","2019/08/31 20:19:36","新北市三重區自強路四段31巷5號","121.489568333333","25.0766416666667","6500200","三重區"
"241019","KEA-2593","2019/08/31 20:19:27","新北市三重區大智街117號","121.491256666667","25.0700566666667","6500200","三重區"
"241005","AAD-863","2019/08/31 20:19:40","新北市三重區碧華街436號","121.49278","25.0856733333333","6500200","三重區"
"241023","743-BX","2019/08/31 20:19:29","新北市三重區忠孝路三段84巷5號","121.480225","25.06442","6500200","三重區"
"241022","KED-0820","2019/08/31 20:19:31","新北市三重區新北大道一段42號","121.487946666667","25.0614816666667","6500200","三重區"
"241025","887-TS","2019/08/31 20:19:28","新北市三重區頂崁街210巷23弄1號","121.475841666667","25.06818","6500200","三重區"
"241012","941-UM","2019/08/31 20:19:36","新北市三重區河邊北街379-1號","121.501823333333","25.0764883333333","6500200","三重區"
"241033","AAC-255","2019/08/31 20:19:39","新北市三重區五谷王北街50巷27號","121.4754","25.0514783333333","6500200","三重區"
"235066","003-UY","2019/08/31 20:19:44","新北市中和區保平路326巷17號","121.506611666667","25.00462","6500300","中和區"
"235039","097-UM","2019/08/31 20:19:29","新北市中和區大勇街29巷12-1號","121.515891666667","24.99453","6500300","中和區"
"235065","098-UM","2019/08/31 20:19:32","新北市中和區永和路128巷47號","121.49774","25.0068366666667","6500300","中和區"
"235040","150-BY","2019/08/31 20:19:39","新北市中和區保健路63號","121.509565","24.9972416666667","6500300","中和區"
"235055","183-VK","2019/08/31 20:19:37","新北市五股區凌雲路二段18巷62-5號","121.440531666667","25.106265","6500300","中和區"
"247014","KEA-2869","2019/08/31 20:19:25","新北市蘆洲區中山二路135號","121.471968333333","25.0815683333333","6501400","蘆洲區"
"247008","KED-0682","2019/08/31 20:19:39","新北市蘆洲區集賢路300號","121.48161","25.0850366666667","6501400","蘆洲區"
"235050","4979-A6","2019/08/31 20:19:33","新北市中和區景平路221巷10號","121.510081666667","24.992245","6500300","中和區"
"235069","4980-A6","2019/08/31 20:19:32","新北市中和區圓通路198巷2弄2號","121.496255","24.9947166666667","6500300","中和區"
"235037","AAC-213","2019/08/31 20:19:30","新北市五股區中直路17-3號","121.422106666667","25.1116133333333","6500300","中和區"
"235059","AAC-215","2019/08/31 20:19:43","新北市中和區圓通路447號","121.484975","24.9865433333333","6500300","中和區"
"220086","073-UY","2019/08/31 20:19:39","新北市樹林區八德街495-3號","121.401921666667","24.9693333333333","6500100","板橋區"
"247004","893-R6","2019/08/31 20:19:29","新北市蘆洲區長榮路269巷28號","121.459553333333","25.0858516666667","6501400","蘆洲區"
"247018","546-UM","2019/08/31 20:19:27","新北市蘆洲區民族路402號","121.474768333333","25.0913983333333","6501400","蘆洲區"
"247012","337-TH","2019/08/31 20:19:33","新北市蘆洲區中興街38號","121.481251666667","25.08717","6501400","蘆洲區"
"247002","336-TH","2019/08/31 20:19:38","新北市蘆洲區長安街331巷22號","121.456388333333","25.086635","6501400","蘆洲區"
"247022","057-VK","2019/08/31 20:19:41","新北市蘆洲區三民路237號","121.469365","25.0886816666667","6501400","蘆洲區"
"247016","053-VK","2019/08/31 20:19:28","新北市蘆洲區中正路185巷45弄2號","121.46585","25.083725","6501400","蘆洲區"
"247006","002-UY","2019/08/31 20:19:42","新北市蘆洲區九芎街136號","121.465091666667","25.079105","6501400","蘆洲區"
"247024","001-UY","2019/08/31 20:19:35","新北市蘆洲區光榮路120巷8弄39號","121.464556666667","25.087925","6501400","蘆洲區"
"228003","097-TW","2019/08/31 20:19:24","新北市貢寮區仁理村研海街20號","121.928378333333","25.0380033333333","6502600","貢寮區"
"222001","KEA-2212","2019/08/31 20:19:41","新北市深坑區北深路三段262號","121.59933","25.00454","6501800","深坑區"
"251009","008-UM","2019/08/31 20:19:31","新北市淡水區清水街44號","121.444486666667","25.170345","6501000","淡水區"
"251002","012-UM","2019/08/31 20:19:34","新北市淡水區中正路258號","121.43879","25.17128","6501000","淡水區"
"251015","KEA-2871","2019/08/31 20:19:39","新北市淡水區埤島80-1號","121.449471666667","25.1896483333333","6501000","淡水區"
"251016","179-VK","2019/08/31 20:19:37","新北市淡水區淡金路五段20號","121.453405","25.23246","6501000","淡水區"
"251013","180-VK","2019/08/31 20:19:37","新北市淡水區相公山1-1號","121.474375","25.206655","6501000","淡水區"
"251008","181-VK","2019/08/31 20:19:39","新北市淡水區淡海路150巷8號","121.42215","25.1840516666667","6501000","淡水區"
"251010","413-VK","2019/08/31 20:19:35","新北市淡水區新民街一段134號","121.427605","25.1889833333333","6501000","淡水區"
"251012","441-VK","2019/08/31 20:19:29","新北市淡水區淡金路三段374號","121.449803333333","25.2100133333333","6501000","淡水區"
"251006","561-UM","2019/08/31 20:19:41","新北市淡水區北新路141巷80弄28號","121.448181666667","25.1802683333333","6501000","淡水區"
"251014","577-R6","2019/08/31 20:19:36","新北市淡水區石頭厝2號","121.458466666667","25.2356383333333","6501000","淡水區"
"251011","650-BX","2019/08/31 20:19:31","新北市淡水區下圭柔山91-4號","121.429025","25.2079016666667","6501000","淡水區"
"251003","766-UM","2019/08/31 20:19:36","新北市淡水區中山北路一段192號","121.444525","25.1792733333333","6501000","淡水區"
"207003","550-UM","2019/08/31 20:19:24","新北市萬里區野柳里八斗60號","121.667103333333","25.20416","6502800","萬里區"
"207004","291-VK","2019/08/31 20:19:38","新北市萬里區北基里仁四街2號","121.68202","25.1753266666667","6502800","萬里區"
"252002","178-VK","2019/08/31 20:19:38","新北市三芝區中正路一段55號","121.503411666667","25.257985","6502100","三芝區"
"237006","5529-G3","2019/08/31 20:19:44","新北市三峽區中園街86巷8號","121.36728","24.925135","6500900","三峽區"
"236079","166-UM","2019/08/31 20:19:40","新北市土城區金安街46號","121.420426666667","24.965325","6501300","土城區"
"236030","253-BX","2019/08/31 20:19:31","新北市土城區中央路一段45巷2弄2號","121.44845","24.9902833333333","6501300","土城區"
"236026","269-VK","2019/08/31 20:19:30","新北市土城區裕生路100巷10號","121.446441666667","24.9850683333333","6501300","土城區"
"236014","270-VK","2019/08/31 20:19:35","新北市土城區廣明街90巷26號","121.455715","24.99465","6501300","土城區"
"236038","271-VK","2019/08/31 20:19:44","新北市土城區延吉街280號","121.465291666667","24.9843066666667","6501300","土城區"
"247010","KED-0683","2019/08/31 20:19:32","新北市蘆洲區信義路275號","121.478886666667","25.0850866666667","6501400","蘆洲區"
"236070","KEA-2877","2019/08/31 20:19:40","新北市土城區三民路43號","121.419988333333","24.9638383333333","6501300","土城區"
"252001","KED-0821","2019/08/31 20:19:28","新北市三芝區中山路一段31號","121.500623333333","25.25806","6502100","三芝區"
"236059","912-UM","2019/08/31 20:19:28","新北市土城區大安路2號","121.432678333333","24.965515","6501300","土城區"
"242039","AAC-296","2019/08/31 20:19:36","新北市新莊區龍安路457號","121.424545","25.0185716666667","6500500","新莊區"
"242061","986-R7","2019/08/31 20:19:27","新北市新莊區新樹路172-13號","121.4346","25.0217016666667","6500500","新莊區"
"242002","751-BX","2019/08/31 20:19:35","新北市新莊區化成路33號","121.465191666667","25.0440433333333","6500500","新莊區"
"242029","615-BX","2019/08/31 20:19:38","新北市新莊區中原路112號","121.45046","25.0543183333333","6500500","新莊區"
"242027","613-BX","2019/08/31 20:19:37","新北市新莊區幸福路672號","121.450908333333","25.0492966666667","6500500","新莊區"
"242058","612-BX","2019/08/31 20:19:39","新北市新莊區八德街145號","121.423561666667","25.019805","6500500","新莊區"
"242046","566-BX","2019/08/31 20:19:39","新北市新莊區中正路新生巷59號","121.417343333333","25.0226166666667","6500500","新莊區"
"242051","497-BY","2019/08/31 20:19:28","新北市新莊區民安西路210號","121.425836666667","25.0148983333333","6500500","新莊區"
"242031","442-UM","2019/08/31 20:19:28","新北市新莊區中正路449號","121.443148333333","25.0341116666667","6500500","新莊區"
"242056","441-UM","2019/08/31 20:19:40","新北市新莊區豐年街24號","121.446301666667","25.03247","6500500","新莊區"
"242004","440-UM","2019/08/31 20:19:45","新北市新莊區頭前路10號","121.468431666667","25.0525316666667","6500500","新莊區"
"242042","415-TV","2019/08/31 20:19:26","新北市新莊區壽山路73號","121.40953","25.0326166666667","6500500","新莊區"
"242011","413-TV","2019/08/31 20:19:39","新北市新莊區中信街37巷3號","121.450335","25.0503333333333","6500500","新莊區"
"242048","400-BY","2019/08/31 20:19:34","新北市新莊區四維路186巷9號","121.421396666667","25.0211266666667","6500500","新莊區"
"242025","362-BY","2019/08/31 20:19:36","新北市新莊區五工二路70巷11號","121.4606","25.0662066666667","6500500","新莊區"
"242023","353-BY","2019/08/31 20:19:31","新北市新莊區化成路794號","121.46508","25.0593883333333","6500500","新莊區"
"242013","132-UY","2019/08/31 20:19:36","新北市新莊區幸福路710巷5弄16號","121.449158333333","25.04975","6500500","新莊區"
"242036","135-UY","2019/08/31 20:19:26","新北市新莊區建安街62巷22號","121.426836666667","25.0252566666667","6500500","新莊區"
"242053","172-VK","2019/08/31 20:19:43","新北市新莊區民安西路261巷18號","121.426761666667","25.0130016666667","6500500","新莊區"
"242015","173-VK","2019/08/31 20:19:42","新北市新莊區中和街44號","121.448185","25.04421","6500500","新莊區"
"242021","175-VK","2019/08/31 20:19:24","新北市新莊區復興路一段7號","121.445675","25.041525","6500500","新莊區"
"242019","346-TH","2019/08/31 20:19:43","新北市新莊區博愛路10巷1號","121.456068333333","25.0440516666667","6500500","新莊區"
"242034","348-TH","2019/08/31 20:19:41","新北市新莊區建中街90巷3弄10號","121.44638","25.037195","6500500","新莊區"
"242007","349-TH","2019/08/31 20:19:33","新北市新莊區福壽街124巷41弄6號","121.459266666667","25.0514833333333","6500500","新莊區"
"242017","351-TH","2019/08/31 20:19:37","新北市新莊區中港一街92號","121.449313333333","25.0453316666667","6500500","新莊區"
"221008","489-VK","2019/08/31 20:19:37","新北市汐止區忠三街9巷16-2號","121.624998333333","25.08014","6501100","汐止區"
"221036","130-UY","2019/08/31 20:19:33","新北市汐止區福安街59巷7號","121.66424","25.0638483333333","6501100","汐止區"
"221015","131-UY","2019/08/31 20:19:24","新北市汐止區建成路142巷19弄12號","121.66201","25.074085","6501100","汐止區"
"221010","269-BY","2019/08/31 20:19:38","新北市汐止區連峰街225巷36號","121.643046666667","25.0817283333333","6501100","汐止區"
"221012","278-VK","2019/08/31 20:19:38","新北市汐止區大同路三段262-1號","121.67653","25.0717866666667","6501100","汐止區"
"221023","279-VK","2019/08/31 20:19:26","新北市汐止區明峰街298巷10弄1號","121.62506","25.0690133333333","6501100","汐止區"
"221032","280-BY","2019/08/31 20:19:32","新北市汐止區弘道街24-1號","121.617481666667","25.0487083333333","6501100","汐止區"
"221029","298-VK","2019/08/31 20:19:38","新北市汐止區樟樹一路99巷7弄1號","121.641183333333","25.063695","6501100","汐止區"
"221021","299-VK","2019/08/31 20:19:30","新北市汐止區水源路一段286號","121.654258333333","25.0582383333333","6501100","汐止區"
"221035","622-UM","2019/08/31 20:19:41","新北市汐止區長江街57巷22號","121.655936666667","25.0722083333333","6501100","汐止區"
"221025","623-UM","2019/08/31 20:19:42","新北市汐止區水源路二段34號","121.654928333333","25.0572533333333","6501100","汐止區"
"221038","646-BX","2019/08/31 20:19:33","新北市汐止區忠孝東路444號","121.666196666667","25.0725583333333","6501100","汐止區"
"221033","647-BX","2019/08/31 20:19:30","新北市汐止區東勢街201巷104號","121.633546666667","25.04289","6501100","汐止區"
"221002","707-TV","2019/08/31 20:19:39","新北市汐止區福德一路86巷21號","121.637423333333","25.0689716666667","6501100","汐止區"
"221018","753-BX","2019/08/31 20:19:42","新北市汐止區茄安路10號","121.673016666667","25.0678716666667","6501100","汐止區"
"220083","286-VK","2019/08/31 20:19:37","新北市板橋區僑中二街102巷2號","121.446141666667","25.0083016666667","6500100","板橋區"
"220081","287-VK","2019/08/31 20:19:37","新北市板橋區僑中一街102巷7弄6號","121.44659","25.0129233333333","6500100","板橋區"
"220062","295-UM","2019/08/31 20:19:28","新北市板橋區中山路二段290號","121.4796","25.018825","6500100","板橋區"
"242044","281-VK","2019/08/31 20:19:32","新北市新莊區中正路新建巷28弄71號","121.4137","25.0209666666667","6500500","新莊區"
"242009","280-VK","2019/08/31 20:19:42","新北市新莊區昌隆街58巷1弄1號","121.45494","25.0504533333333","6500500","新莊區"
"220035","560-BX","2019/08/31 20:19:27","新北市板橋區新生街39號","121.456845","25.02113","6500100","板橋區"
"220054","741-BX","2019/08/31 20:19:33","新北市板橋區實踐路93巷20號","121.464826666667","25.0053833333333","6500100","板橋區"
"220055","827-TW","2019/08/31 20:19:36","新北市板橋區重慶路290巷24號","121.4623","24.9988116666667","6500100","板橋區"
"220074","895-R6","2019/08/31 20:19:41","新北市板橋區館前西路66號","121.457763333333","25.007075","6500100","板橋區"
"235068","KEA-2873","2019/08/31 20:19:24","新北市中和區福祥路125號","121.498743333333","25.0068233333333","6500300","中和區"
