"lineid","car","time","location","longitude","latitude","cityid","cityname"
"234081","298-R6","2019/08/31 20:29:36","新北市永和區永貞路8號","121.52094","25.0073216666667","6500400","永和區"
"234038","336-UY","2019/08/31 20:29:38","新北市永和區民樂街39巷23號","121.528928333333","25.00075","6500400","永和區"
"234064","337-UY","2019/08/31 20:29:28","新北市永和區中正路435號","121.517186666667","25.0051333333333","6500400","永和區"
"234086","338-UY","2019/08/31 20:29:39","新北市永和區光復街13號","121.516413333333","25.0170983333333","6500400","永和區"
"234070","552-UM","2019/08/31 20:29:30","新北市永和區永亨路7號","121.51942","25.00569","6500400","永和區"
"234017","745-BX","2019/08/31 20:29:33","新北市永和區仁愛路85號","121.513178333333","25.0131916666667","6500400","永和區"
"234030","746-BX","2019/08/31 20:29:31","新北市永和區民族街81巷62號","121.520176666667","24.9965616666667","6500400","永和區"
"234054","KEA-2590","2019/08/31 20:29:38","新北市永和區環河東路一段80號","121.519551666667","25.0165","6500400","永和區"
"234061","AAD-866","2019/08/31 20:29:22","新北市永和區安樂路194巷19號","121.515851666667","25.0011016666667","6500400","永和區"
"234042","862-TW","2019/08/31 20:29:37","新北市永和區安樂路248-1號","121.514698333333","25.0033266666667","6500400","永和區"
"234050","863-TW","2019/08/31 20:29:32","新北市永和區新生路64號","121.507661666667","25.0152466666667","6500400","永和區"
"249001","173-UM","2019/08/31 20:29:31","新北市八里區商港路42號","121.39633","25.1450633333333","6502300","八里區"
"249004","303-UY","2019/08/31 20:29:37","新北市八里區中山路一段129巷37號","121.414003333333","25.1584783333333","6502300","八里區"
"249002","305-UY","2019/08/31 20:29:39","新北市八里區龍米路二段69號","121.44801","25.1411483333333","6502300","八里區"
"249003","593-UM","2019/08/31 20:29:30","新北市八里區舊城路21號","121.399836666667","25.1470316666667","6502300","八里區"
"248002","678-BX","2019/08/31 20:29:32","新北市五股區成泰路三段43-7號","121.44257","25.08912","6501500","五股區"
"234023","9380-KE","2019/08/31 20:29:38","新北市永和區博愛街32巷12號","121.518793333333","25.01523","6500400","永和區"
"234074","AAC-211","2019/08/31 20:29:35","新北市永和區豫溪街191巷7弄25號","121.5232","25.0109866666667","6500400","永和區"
"234067","AAC-212","2019/08/31 20:29:30","新北市永和區保平路292巷46弄2號","121.507486666667","25.00539","6500400","永和區"
"234003","AAC-295","2019/08/31 20:29:38","新北市永和區中正路636號","121.516975","25.0081866666667","6500400","永和區"
"243012","AAD-798","2019/08/31 20:29:42","新北市泰山區文化街42號","121.435213333333","25.0634916666667","6501600","泰山區"
"243010","297-R6","2019/08/31 20:29:43","新北市泰山區明志路二段273巷16弄1號","121.42793","25.047105","6501600","泰山區"
"243014","KEA-2801","2019/08/31 20:29:33","新北市泰山區泰林路二段518號","121.423998333333","25.0639383333333","6501600","泰山區"
"243016","421-VK","2019/08/31 20:29:40","新北市泰山區明志路二段220號","121.427318333333","25.04859","6501600","泰山區"
"243009","KEA-2215","2019/08/31 20:29:39","新北市泰山區忠孝街40巷3號","121.428515","25.0653183333333","6501600","泰山區"
"243011","KEA-2216","2019/08/31 20:29:35","新北市泰山區漢口街50號","121.424385","25.0361816666667","6501600","泰山區"
"243013","646-TV","2019/08/31 20:29:41","新北市泰山區中央路14巷4號","121.426475","25.0437616666667","6501600","泰山區"
"243015","680-BX","2019/08/31 20:29:37","新北市泰山區仁德路105號","121.433256666667","25.0562433333333","6501600","泰山區"
"222003","436-BY","2019/08/31 20:29:39","新北市深坑區深坑街42號","121.614928333333","25.0016966666667","6501800","深坑區"
"222002","659-BX","2019/08/31 20:29:46","新北市深坑區萬福路16巷16號","121.606715","25.0077433333333","6501800","深坑區"
"231061","002-UM","2019/08/31 20:29:43","新北市新店區安興路33-1號","121.515808333333","24.9704433333333","6500600","新店區"
"231058","0293-UT","2019/08/31 20:29:31","新北市新店區安興路112號","121.515203333333","24.977415","6500600","新店區"
"231044","046-UY","2019/08/31 20:29:39","新北市新店區建國路149號","121.538858333333","24.9787833333333","6500600","新店區"
"231060","106-UY","2019/08/31 20:29:45","新北市新店區錦秀路11巷38號","121.480873333333","24.9438533333333","6500600","新店區"
"231051","107-UY","2019/08/31 20:29:42","新北市新店區中央路196號","121.530698333333","24.9744316666667","6500600","新店區"
"231049","108-UY","2019/08/31 20:29:42","新北市新店區永業路81巷1弄17號","121.530443333333","24.9504883333333","6500600","新店區"
"231065","110-UY","2019/08/31 20:29:35","新北市新店區安祥路102巷46弄55號","121.48643","24.9635466666667","6500600","新店區"
"231068","187-VK","2019/08/31 20:29:26","新北市新店區民權路10號","121.542401666667","24.9829133333333","6500600","新店區"
"221031","KEA-2785","2019/08/31 20:29:33","新北市汐止區中興路150巷13號","121.633053333333","25.0650083333333","6501100","汐止區"
"231062","256-BX","2019/08/31 20:29:39","新北市新店區安泰路70號","121.4853","24.9473283333333","6500600","新店區"
"231054","260-TV","2019/08/31 20:29:33","新北市新店區檳榔路109號","121.544546666667","24.9615683333333","6500600","新店區"
"231042","268-BY","2019/08/31 20:29:32","新北市新店區寶橋路78巷1-3號","121.547186666667","24.9756033333333","6500600","新店區"
"231064","278-BY","2019/08/31 20:29:35","新北市新店區新和街59巷17號","121.519275","24.98599","6500600","新店區"
"231050","AAD-862","2019/08/31 20:29:41","新北市新店區建興街7號","121.539895","24.9764016666667","6500600","新店區"
"231045","355-BY","2019/08/31 20:29:27","新北市新店區新坡一街85號","121.549105","24.9644833333333","6500600","新店區"
"231055","4716-K9","2019/08/31 20:29:26","新北市新店區新明街7號","121.541008333333","24.9681766666667","6500600","新店區"
"231056","4715-K9","2019/08/31 20:29:40","新北市新店區中央七街60號","121.528021666667","24.9762683333333","6500600","新店區"
"231067","4772-VM","2019/08/31 20:29:24","新北市新店區安華路28-1號","121.519636666667","24.960825","6500600","新店區"
"231052","515-UM","2019/08/31 20:29:29","新北市新店區松林路38號","121.546233333333","24.9102516666667","6500600","新店區"
"231063","616-UM","2019/08/31 20:29:39","新北市新店區安康路二段382號","121.500305","24.9569266666667","6500600","新店區"
"231041","619-UM","2019/08/31 20:29:45","新北市新店區中正路504號","121.533971666667","24.9826816666667","6500600","新店區"
"231048","KED-0819","2019/08/31 20:29:37","新北市新店區寶元路一段65號","121.542195","24.9858366666667","6500600","新店區"
"231057","720-UM","2019/08/31 20:29:40","新北市新店區花園六路二段7號","121.555648333333","24.93327","6500600","新店區"
"231059","897-TW","2019/08/31 20:29:24","新北市新店區安德街117號","121.50926","24.9607383333333","6500600","新店區"
"231040","898-TW","2019/08/31 20:29:35","新北市新店區三民路116號","121.53435","24.974325","6500600","新店區"
"231043","899-TW","2019/08/31 20:29:40","新北市新店區建國路86號","121.540528333333","24.9769483333333","6500600","新店區"
"241011","013-R5","2019/08/31 20:29:33","新北市三重區龍門路28號","121.495468333333","25.0721","6500200","三重區"
"241028","022-UY","2019/08/31 20:29:29","新北市三重區光興街89號","121.497501666667","25.0599466666667","6500200","三重區"
"241008","059-VK","2019/08/31 20:29:36","新北市三重區下竹圍街93巷1號","121.481085","25.07469","6500200","三重區"
"241029","060-VK","2019/08/31 20:29:26","新北市三重區集美街116號","121.488761666667","25.0539816666667","6500200","三重區"
"241031","061-VK","2019/08/31 20:29:39","新北市三重區三寧街25號","121.489628333333","25.0599366666667","6500200","三重區"
"241015","062-VK","2019/08/31 20:29:42","新北市三重區文化北路61號","121.498701666667","25.0661666666667","6500200","三重區"
"241017","063-VK","2019/08/31 20:29:39","新北市三重區自強路一段203號","121.491643333333","25.0684166666667","6500200","三重區"
"241024","065-VK","2019/08/31 20:29:28","新北市三重區中正北路276巷14號","121.48055","25.0679","6500200","三重區"
"241003","091-VK","2019/08/31 20:29:32","新北市三重區富華街194號","121.49308","25.0849683333333","6500200","三重區"
"241004","742-BX","2019/08/31 20:29:34","新北市三重區溪尾街178號","121.4885","25.0806416666667","6500200","三重區"
"241006","262-UM","2019/08/31 20:29:30","新北市三重區車路頭街135-1號","121.484231666667","25.0761766666667","6500200","三重區"
"241016","266-UM","2019/08/31 20:29:28","新北市三重區正義北路198號","121.496301666667","25.067105","6500200","三重區"
"241009","267-UM","2019/08/31 20:29:42","新北市三重區永福街81號","121.480073333333","25.0776216666667","6500200","三重區"
"241018","268-UM","2019/08/31 20:29:32","新北市三重區正義北路222號","121.496138333333","25.0677216666667","6500200","三重區"
"241032","269-UM","2019/08/31 20:29:44","新北市三重區重陽路一段120巷35號","121.485135","25.0601783333333","6500200","三重區"
"241013","270-UM","2019/08/31 20:29:41","新北市三重區溪尾街10-1號","121.491456666667","25.07459","6500200","三重區"
"241035","KEA-2210","2019/08/31 20:29:25","新北市三重區正義北路68號","121.497201666667","25.0643566666667","6500200","三重區"
"241030","KED-0822","2019/08/31 20:29:35","新北市三重區成功路62號","121.488565","25.050965","6500200","三重區"
"241020","478-VK","2019/08/31 20:29:28","新北市三重區三和路三段142號","121.493491666667","25.0726383333333","6500200","三重區"
"241026","480-VK","2019/08/31 20:29:38","新北市三重區福德南路54號","121.50308","25.0621233333333","6500200","三重區"
"241014","543-UM","2019/08/31 20:29:35","新北市三重區龍濱路68號","121.502181666667","25.06928","6500200","三重區"
"241001","547-UM","2019/08/31 20:29:36","新北市三重區福隆路29號","121.489885","25.0772483333333","6500200","三重區"
"241019","KEA-2593","2019/08/31 20:29:27","新北市三重區忠孝路一段73號","121.49061","25.0721666666667","6500200","三重區"
"241005","AAD-863","2019/08/31 20:29:40","新北市三重區五華街141巷21號","121.491886666667","25.0852683333333","6500200","三重區"
"241023","743-BX","2019/08/31 20:29:29","新北市三重區自由街17巷1號","121.479871666667","25.06659","6500200","三重區"
"241022","KED-0820","2019/08/31 20:29:31","新北市三重區中正北路20巷12號","121.488043333333","25.0624766666667","6500200","三重區"
"241025","887-TS","2019/08/31 20:29:28","新北市三重區頂崁街210巷23弄1號","121.47586","25.068185","6500200","三重區"
"241012","941-UM","2019/08/31 20:29:36","新北市三重區龍濱路269號","121.501371666667","25.07309","6500200","三重區"
"241033","AAC-255","2019/08/31 20:29:39","新北市三重區五谷王北街80巷17號","121.475608333333","25.05327","6500200","三重區"
"235055","183-VK","2019/08/31 20:29:37","新北市八里區中山路三段386號","121.368481666667","25.1360366666667","6500300","中和區"
"247014","KEA-2869","2019/08/31 20:29:44","新北市蘆洲區和平路78號","121.469626666667","25.0791783333333","6501400","蘆洲區"
"247008","KED-0682","2019/08/31 20:29:39","新北市蘆洲區重陽街112號","121.482663333333","25.08535","6501400","蘆洲區"
"235050","4979-A6","2019/08/31 20:29:36","新北市中和區景新街160巷20號","121.504878333333","24.99662","6500300","中和區"
"235069","4980-A6","2019/08/31 20:29:32","新北市中和區中正路434號","121.491351666667","24.9942633333333","6500300","中和區"
"235059","AAC-215","2019/08/31 20:29:43","新北市中和區員山路36巷9號","121.483363333333","24.9911116666667","6500300","中和區"
"220086","073-UY","2019/08/31 20:29:39","新北市樹林區中山路三段210-2號","121.381418333333","24.96563","6500100","板橋區"
"247004","893-R6","2019/08/31 20:29:29","新北市蘆洲區長安街303號","121.45804","25.084995","6501400","蘆洲區"
"247012","337-TH","2019/08/31 20:29:33","新北市蘆洲區復興路241號","121.480438333333","25.0898416666667","6501400","蘆洲區"
"247002","336-TH","2019/08/31 20:29:38","新北市蘆洲區長安街361巷28號","121.455933333333","25.087595","6501400","蘆洲區"
"247022","057-VK","2019/08/31 20:29:45","新北市蘆洲區中正路201號","121.468485","25.0858883333333","6501400","蘆洲區"
"247016","053-VK","2019/08/31 20:29:28","新北市蘆洲區光華路49號","121.468653333333","25.0829716666667","6501400","蘆洲區"
"247020","007-UY","2019/08/31 20:29:31","新北市蘆洲區仁愛街132號","121.46911","25.0945716666667","6501400","蘆洲區"
"247006","002-UY","2019/08/31 20:29:42","新北市蘆洲區和平路121巷8弄41號","121.465856666667","25.080685","6501400","蘆洲區"
"247024","001-UY","2019/08/31 20:29:35","新北市蘆洲區光復路70巷16號","121.46459","25.0851583333333","6501400","蘆洲區"
"228003","097-TW","2019/08/31 20:29:44","新北市貢寮區貢寮里朝陽街1-2號","121.912418333333","25.021245","6502600","貢寮區"
"222001","KEA-2212","2019/08/31 20:29:41","新北市深坑區北深路三段272號","121.598298333333","25.0048833333333","6501800","深坑區"
"251002","012-UM","2019/08/31 20:29:36","新北市淡水區中正路100號","121.442106666667","25.16959","6501000","淡水區"
"251015","KEA-2871","2019/08/31 20:29:42","新北市淡水區埤島3-18號","121.447103333333","25.190755","6501000","淡水區"
"251016","179-VK","2019/08/31 20:29:37","新北市淡水區新埔子13號","121.448568333333","25.2284133333333","6501000","淡水區"
"251013","180-VK","2019/08/31 20:29:17","新北市淡水區奎柔山路417號","121.46379","25.2051466666667","6501000","淡水區"
"251008","181-VK","2019/08/31 20:29:39","新北市淡水區淡海路206巷16號","121.42108","25.1856383333333","6501000","淡水區"
"251010","413-VK","2019/08/31 20:29:35","新北市淡水區沙崙路200號","121.424628333333","25.1839533333333","6501000","淡水區"
"251012","441-VK","2019/08/31 20:29:28","新北市淡水區頂田寮路37號","121.455433333333","25.216325","6501000","淡水區"
"251001","559-UM","2019/08/31 20:29:41","新北市淡水區淡金路二段83號","121.451478333333","25.181555","6501000","淡水區"
"251006","561-UM","2019/08/31 20:29:41","新北市淡水區商工路367號","121.46976","25.18543","6501000","淡水區"
"251014","577-R6","2019/08/31 20:29:35","新北市淡水區石頭厝14-31號","121.464783333333","25.2368466666667","6501000","淡水區"
"251003","766-UM","2019/08/31 20:29:36","新北市淡水區新民街32號","121.43925","25.1756033333333","6501000","淡水區"
"207004","291-VK","2019/08/31 20:29:28","新北市萬里區北基里忠三街16號","121.684745","25.17562","6502800","萬里區"
"252002","178-VK","2019/08/31 20:29:38","新北市三芝區淡金路二段47-2號","121.503683333333","25.2605533333333","6502100","三芝區"
"247010","KED-0683","2019/08/31 20:29:32","新北市蘆洲區信義路224號","121.478913333333","25.08526","6501400","蘆洲區"
"252001","KED-0821","2019/08/31 20:29:28","新北市三芝區中山路一段37號","121.500738333333","25.257795","6502100","三芝區"
"242039","AAC-296","2019/08/31 20:29:36","新北市新莊區成功街11號","121.425811666667","25.02168","6500500","新莊區"
"242061","986-R7","2019/08/31 20:29:27","新北市新莊區民安路285-8號","121.429008333333","25.02221","6500500","新莊區"
"242002","751-BX","2019/08/31 20:29:35","新北市新莊區中正路147-16號","121.457271666667","25.03711","6500500","新莊區"
"242029","615-BX","2019/08/31 20:29:38","新北市新莊區昌隆街16號","121.453606666667","25.05084","6500500","新莊區"
"242027","613-BX","2019/08/31 20:29:35","新北市新莊區幸福路62號","121.457126666667","25.0494316666667","6500500","新莊區"
"242058","612-BX","2019/08/31 20:29:39","新北市新莊區龍安路278巷21號","121.421948333333","25.0184366666667","6500500","新莊區"
"242046","566-BX","2019/08/31 20:29:31","新北市新莊區裕民街83號","121.418515","25.0238016666667","6500500","新莊區"
"242051","497-BY","2019/08/31 20:29:28","新北市新莊區民安西路205號","121.425983333333","25.01478","6500500","新莊區"
"242031","442-UM","2019/08/31 20:29:28","新北市新莊區義豐街29號","121.44115","25.0353166666667","6500500","新莊區"
"242056","441-UM","2019/08/31 20:29:40","新北市新莊區瓊泰路150號","121.44319","25.0323366666667","6500500","新莊區"
"242004","440-UM","2019/08/31 20:29:36","新北市新莊區頭前路30號","121.467728333333","25.052515","6500500","新莊區"
"242042","415-TV","2019/08/31 20:29:41","新北市新莊區天祥街54巷3弄6號","121.416833333333","25.029545","6500500","新莊區"
"242011","413-TV","2019/08/31 20:29:36","新北市新莊區中港路523號","121.451716666667","25.0508533333333","6500500","新莊區"
"242048","400-BY","2019/08/31 20:29:43","新北市新莊區成功街202號","121.421735","25.0175916666667","6500500","新莊區"
"242025","362-BY","2019/08/31 20:29:36","新北市新莊區五工三路62巷17號","121.460096666667","25.0649766666667","6500500","新莊區"
"242023","353-BY","2019/08/31 20:29:34","新北市新莊區化成路547號","121.465108333333","25.0647883333333","6500500","新莊區"
"242013","132-UY","2019/08/31 20:29:36","新北市新莊區中平路270巷7弄24號","121.446096666667","25.0509033333333","6500500","新莊區"
"242036","135-UY","2019/08/31 20:29:26","新北市新莊區後港一路28巷1弄13號","121.425988333333","25.0259933333333","6500500","新莊區"
"242053","172-VK","2019/08/31 20:29:43","新北市新莊區民安西路229巷9號","121.426696666667","25.0142516666667","6500500","新莊區"
"242015","173-VK","2019/08/31 20:29:42","新北市新莊區中平路46巷30號","121.445968333333","25.0438316666667","6500500","新莊區"
"242021","175-VK","2019/08/31 20:29:44","新北市新莊區公園路22號","121.448395","25.0391133333333","6500500","新莊區"
"242019","346-TH","2019/08/31 20:29:39","新北市新莊區民樂街79號","121.457968333333","25.04291","6500500","新莊區"
"242034","348-TH","2019/08/31 20:29:41","新北市新莊區新泰路115號","121.448366666667","25.035765","6500500","新莊區"
"242007","349-TH","2019/08/31 20:29:33","新北市新莊區福壽街104號","121.458176666667","25.0503433333333","6500500","新莊區"
"242017","351-TH","2019/08/31 20:29:37","新北市新莊區中港一街44號","121.450681666667","25.04555","6500500","新莊區"
"221008","489-VK","2019/08/31 20:29:37","新北市汐止區明峰街317號","121.625181666667","25.0670233333333","6501100","汐止區"
"221036","130-UY","2019/08/31 20:29:40","新北市汐止區新台五路二段120巷1號","121.663388333333","25.06577","6501100","汐止區"
"221015","131-UY","2019/08/31 20:29:44","新北市汐止區建成路160巷16號","121.661925","25.0740733333333","6501100","汐止區"
"221010","269-BY","2019/08/31 20:29:38","新北市汐止區八連路二段36巷12號","121.63771","25.0941233333333","6501100","汐止區"
"221012","278-VK","2019/08/31 20:29:38","新北市汐止區汐平路二段72號","121.699385","25.0606866666667","6501100","汐止區"
"221023","279-VK","2019/08/31 20:29:26","新北市汐止區明峰街281號","121.62674","25.0683366666667","6501100","汐止區"
"221032","280-BY","2019/08/31 20:29:31","新北市汐止區弘道街53巷12號","121.618676666667","25.0488766666667","6501100","汐止區"
"221027","281-BY","2019/08/31 20:29:41","新北市汐止區中正路214號","121.65838","25.0689266666667","6501100","汐止區"
"221029","298-VK","2019/08/31 20:29:38","新北市汐止區樟樹一路129巷32號","121.640533333333","25.06517","6501100","汐止區"
"221021","299-VK","2019/08/31 20:29:30","新北市汐止區水源路一段293號","121.654366666667","25.0583566666667","6501100","汐止區"
"221035","622-UM","2019/08/31 20:29:41","新北市汐止區長江街97號","121.658013333333","25.0728716666667","6501100","汐止區"
"221025","623-UM","2019/08/31 20:29:42","新北市汐止區水源路二段86號","121.656471666667","25.0560733333333","6501100","汐止區"
"221038","646-BX","2019/08/31 20:29:33","新北市汐止區忠孝東路9號","121.657733333333","25.065665","6501100","汐止區"
"221033","647-BX","2019/08/31 20:29:30","新北市汐止區林森街73巷5號","121.62353","25.0409333333333","6501100","汐止區"
"221002","707-TV","2019/08/31 20:29:28","新北市汐止區福德二路47號","121.634306666667","25.067305","6501100","汐止區"
"221018","753-BX","2019/08/31 20:25:22","新北市汐止區茄苳路225巷3號","121.67121","25.06904","6501100","汐止區"
"220083","286-VK","2019/08/31 20:29:36","新北市板橋區僑中二街102巷46號","121.444365","25.0085316666667","6500100","板橋區"
"220081","287-VK","2019/08/31 20:29:25","新北市板橋區大觀路二段30號","121.444256666667","25.0019966666667","6500100","板橋區"
"242044","281-VK","2019/08/31 20:29:32","新北市新莊區中正路新建巷18號","121.414026666667","25.0222883333333","6500500","新莊區"
"242009","280-VK","2019/08/31 20:29:42","新北市新莊區昌隆街94號","121.456208333333","25.0507516666667","6500500","新莊區"
"220055","827-TW","2019/08/31 20:29:36","新北市板橋區四川路一段367號","121.458266666667","24.9996166666667","6500100","板橋區"
