"lineid","car","time","location","longitude","latitude","cityid","cityname"
"231061","002-UM","2019/08/31 21:09:44","新北市新店區永平街30號","121.516355","24.9838483333333","6500600","新店區"
"231060","106-UY","2019/08/31 21:09:41","新北市新店區安康路三段42號","121.492968333333","24.9530133333333","6500600","新店區"
"231051","107-UY","2019/08/31 21:09:42","新北市新店區中正路700巷40號","121.535521666667","24.9914933333333","6500600","新店區"
"231065","110-UY","2019/08/31 21:09:36","新北市新店區安祥路47號","121.484563333333","24.9604216666667","6500600","新店區"
"231068","187-VK","2019/08/31 21:09:45","新北市新店區柴埕路38-8號","121.513378333333","24.9649983333333","6500600","新店區"
"231062","256-BX","2019/08/31 21:09:39","新北市新店區雙城路60巷16弄13號","121.491725","24.9478516666667","6500600","新店區"
"231054","260-TV","2019/08/31 21:09:33","新北市新店區北新路一段2號","121.540728333333","24.9652333333333","6500600","新店區"
"231042","268-BY","2019/08/31 21:08:52","新北市新店區寶興路63巷31號","121.551926666667","24.9721","6500600","新店區"
"231064","278-BY","2019/08/31 21:09:35","新北市新店區薏仁坑路自強巷1號","121.497561666667","24.9577483333333","6500600","新店區"
"231050","AAD-862","2019/08/31 21:09:21","新北市新店區中華路83巷2弄2號","121.53897","24.9685816666667","6500600","新店區"
"231063","616-UM","2019/08/31 21:09:39","新北市新店區玫瑰路61巷2號","121.495991666667","24.9452383333333","6500600","新店區"
"231059","897-TW","2019/08/31 21:09:44","新北市新店區僑信路60號","121.499338333333","24.9497166666667","6500600","新店區"
"231040","898-TW","2019/08/31 21:09:35","新北市新店區北新路一段263號","121.54101","24.9665","6500600","新店區"
"241011","013-R5","2019/08/31 21:09:33","新北市三重區龍濱路130-1號","121.501678333333","25.07186","6500200","三重區"
"241028","022-UY","2019/08/31 21:09:29","新北市三重區正義南路60-6號","121.498386666667","25.0600233333333","6500200","三重區"
"241008","059-VK","2019/08/31 21:09:36","新北市三重區自強路一段60號","121.497415","25.066835","6500200","三重區"
"241029","060-VK","2019/08/31 21:09:25","新北市三重區正義南路111號","121.498213333333","25.0585466666667","6500200","三重區"
"241031","061-VK","2019/08/31 21:09:39","新北市三重區重新路五段426號","121.475288333333","25.0475516666667","6500200","三重區"
"241015","062-VK","2019/08/31 21:09:42","新北市三重區三和路一段39巷11號","121.504055","25.0652766666667","6500200","三重區"
"241017","063-VK","2019/08/31 21:09:39","新北市三重區國隆路30號","121.492225","25.064405","6500200","三重區"
"241024","065-VK","2019/08/31 21:09:28","新北市三重區大勇街82巷15弄30號","121.481231666667","25.07196","6500200","三重區"
"241003","091-VK","2019/08/31 21:09:32","新北市三重區仁義街224號","121.49497","25.0847333333333","6500200","三重區"
"241004","742-BX","2019/08/31 21:09:34","新北市三重區仁愛街418號","121.490445","25.0813816666667","6500200","三重區"
"241006","262-UM","2019/08/31 21:09:30","新北市三重區明志街135號","121.489263333333","25.0632566666667","6500200","三重區"
"241016","266-UM","2019/08/31 21:09:27","新北市三重區信義西街138號","121.495428333333","25.064525","6500200","三重區"
"241009","267-UM","2019/08/31 21:09:42","新北市三重區忠孝路二段122號","121.483026666667","25.0688","6500200","三重區"
"241018","268-UM","2019/08/31 21:09:32","新北市三重區正義北路338巷4號","121.494075","25.0706416666667","6500200","三重區"
"241032","269-UM","2019/08/31 21:09:44","新北市三重區中興北街164號","121.468991666667","25.0571166666667","6500200","三重區"
"241013","270-UM","2019/08/31 21:09:41","新北市三重區仁愛街124號","121.494923333333","25.0748866666667","6500200","三重區"
"241030","KED-0822","2019/08/31 21:09:35","新北市三重區五谷王北街20巷15弄1號","121.475045","25.04848","6500200","三重區"
"241026","480-VK","2019/08/31 21:09:38","新北市三重區中央南路141巷31弄12號","121.500498333333","25.05919","6500200","三重區"
"241014","543-UM","2019/08/31 21:09:35","新北市三重區三和路二段37-8號","121.501285","25.0675483333333","6500200","三重區"
"241001","547-UM","2019/08/31 21:09:36","新北市三重區溪尾街54號","121.490423333333","25.077445","6500200","三重區"
"241019","KEA-2593","2019/08/31 21:09:27","新北市三重區自強路二段74巷21號","121.487943333333","25.0698666666667","6500200","三重區"
"241005","AAD-863","2019/08/31 21:09:40","新北市三重區集智街2號","121.487745","25.086235","6500200","三重區"
"241023","743-BX","2019/08/31 21:09:29","新北市三重區忠孝路三段84巷63號","121.482335","25.0637666666667","6500200","三重區"
"241022","KED-0820","2019/08/31 21:09:31","新北市三重區中正北路64巷24號","121.486086666667","25.0637666666667","6500200","三重區"
"241025","887-TS","2019/08/31 21:09:28","新北市三重區中正北路208巷10弄4號","121.482333333333","25.0669183333333","6500200","三重區"
"241012","941-UM","2019/08/31 21:08:56","新北市三重區仁信街6號","121.501363333333","25.0755316666667","6500200","三重區"
"241033","AAC-255","2019/08/31 21:09:39","新北市三重區新北大道二段41號","121.470288333333","25.061405","6500200","三重區"
"235055","183-VK","2019/08/31 21:09:37","新北市中和區中正路905號","121.48344","25.0061383333333","6500300","中和區"
"247014","KEA-2869","2019/08/31 21:09:44","新北市蘆洲區中央路155號","121.472653333333","25.0847083333333","6501400","蘆洲區"
"247008","KED-0682","2019/08/31 21:09:39","新北市蘆洲區民生街24號","121.475025","25.078945","6501400","蘆洲區"
"235018","640-BX","2019/08/31 21:00:41","新北市中和區員山路36巷16-2號","121.485283333333","24.9916083333333","6500300","中和區"
"235010","733-UM","2019/08/31 20:50:26","新北市中和區員山路36巷13號","121.484151666667","24.99088","6500300","中和區"
"247004","893-R6","2019/08/31 21:09:29","新北市蘆洲區永安南路二段272號","121.458325","25.0808733333333","6501400","蘆洲區"
"247018","546-UM","2019/08/31 21:09:07","新北市蘆洲區民族路408巷10號","121.474808333333","25.0918416666667","6501400","蘆洲區"
"247012","337-TH","2019/08/31 21:09:33","新北市蘆洲區民族路5號","121.47564","25.0839183333333","6501400","蘆洲區"
"247002","336-TH","2019/08/31 21:09:38","新北市蘆洲區永樂街38巷40號","121.45859","25.0900783333333","6501400","蘆洲區"
"247022","057-VK","2019/08/31 21:09:34","新北市蘆洲區三民路251號","121.468303333333","25.089405","6501400","蘆洲區"
"247020","007-UY","2019/08/31 21:09:31","新北市蘆洲區民族路456號","121.472135","25.0919116666667","6501400","蘆洲區"
"247006","002-UY","2019/08/31 21:09:41","新北市蘆洲區九芎街89號","121.466363333333","25.0793433333333","6501400","蘆洲區"
"247024","001-UY","2019/08/31 21:09:35","新北市蘆洲區長興路50巷3號","121.46384","25.0840266666667","6501400","蘆洲區"
"251009","008-UM","2019/08/31 21:09:31","新北市淡水區民族路112巷57號","121.462068333333","25.1342516666667","6501000","淡水區"
"251004","009-UM","2019/08/31 21:09:41","新北市淡水區民族路33號","121.462278333333","25.1358116666667","6501000","淡水區"
"251002","012-UM","2019/08/31 21:09:34","新北市淡水區水源街一段152號","121.448321666667","25.1715916666667","6501000","淡水區"
"251015","KEA-2871","2019/08/31 21:09:40","新北市淡水區淡金路四段542巷90號","121.454605","25.2253283333333","6501000","淡水區"
"251016","179-VK","2019/08/31 21:09:37","新北市淡水區前洲子11號","121.441116666667","25.2193383333333","6501000","淡水區"
"251013","180-VK","2019/08/31 21:09:37","新北市淡水區水汴頭12號","121.469823333333","25.20354","6501000","淡水區"
"251008","181-VK","2019/08/31 21:09:39","新北市淡水區埤島3-20號","121.446988333333","25.1912466666667","6501000","淡水區"
"251010","413-VK","2019/08/31 21:09:35","新北市淡水區中正路一段63巷7弄1號","121.423163333333","25.1772733333333","6501000","淡水區"
"251012","441-VK","2019/08/31 21:09:28","新北市淡水區六塊厝15號","121.45295","25.2410466666667","6501000","淡水區"
"251005","443-VK","2019/08/31 21:09:35","新北市淡水區英專路2巷27號","121.44641","25.16944","6501000","淡水區"
"251001","559-UM","2019/08/31 21:09:36","新北市淡水區新市一路三段8號","121.445011666667","25.182895","6501000","淡水區"
"251014","577-R6","2019/08/31 21:09:35","新北市淡水區六塊厝1-2號","121.451121666667","25.2424733333333","6501000","淡水區"
"251011","650-BX","2019/08/31 21:09:30","新北市淡水區新民街180巷7弄41號","121.436931666667","25.179675","6501000","淡水區"
"251003","766-UM","2019/08/31 21:09:36","新北市淡水區新春街103-9號","121.440448333333","25.181815","6501000","淡水區"
"247010","KED-0683","2019/08/31 21:09:32","新北市蘆洲區三民路26巷35號","121.477263333333","25.0829683333333","6501400","蘆洲區"
"242002","751-BX","2019/08/31 21:09:35","新北市八里區荖阡坑路28-2號","121.403046666667","25.128135","6500500","新莊區"
"242056","441-UM","2019/08/31 21:09:40","新北市八里區下罟子17號","121.380093333333","25.1433133333333","6500500","新莊區"
"242031","347-TH","2019/08/31 21:09:39","新北市新莊區瓊泰路63巷21弄12號","121.442235","25.028305","6500500","新莊區"
