"lineid","car","time","location","longitude","latitude","cityid","cityname"
"251004","009-UM","2019/08/31 22:19:40","新北市淡水區民族路33號","121.46229","25.1358316666667","6501000","淡水區"
"251008","181-VK","2019/08/31 22:19:39","新北市淡水區學府路104號","121.449885","25.1717733333333","6501000","淡水區"
"251010","413-VK","2019/08/31 22:19:15","新北市淡水區沙崙路187號","121.424608333333","25.1839783333333","6501000","淡水區"
"251007","442-VK","2019/08/31 22:19:24","新北市淡水區北新路180號","121.449376666667","25.1786766666667","6501000","淡水區"
"251011","650-BX","2019/08/31 22:19:30","新北市淡水區水碓街7號","121.443148333333","25.1771216666667","6501000","淡水區"
