"lineid","car","time","location","longitude","latitude","cityid","cityname"
"234044","148-BY","2019/10/04 13:29:29","新北市永和區秀朗路二段230號","121.526276666667","24.9995683333333","6500400","永和區"
"234078","298-R6","2019/10/04 13:29:30","新北市永和區福和路5-1號","121.52497","25.00873","6500400","永和區"
"234036","336-UY","2019/10/04 13:29:33","新北市永和區民樂街35巷1號","121.527615","25.0009833333333","6500400","永和區"
"234062","337-UY","2019/10/04 13:29:39","新北市永和區中正路368巷1弄75號","121.520443333333","25.0007816666667","6500400","永和區"
"234084","338-UY","2019/10/04 13:29:38","新北市永和區成功路一段18巷15號","121.526253333333","25.0049833333333","6500400","永和區"
"234068","552-UM","2019/10/04 13:29:39","新北市永和區竹林路177號","121.520515","25.0097966666667","6500400","永和區"
"234015","745-BX","2019/10/04 13:29:33","新北市永和區環河西路一段73號","121.513258333333","25.0181233333333","6500400","永和區"
"234028","746-BX","2019/10/04 13:29:32","新北市永和區民權路29巷1號","121.520368333333","24.9978433333333","6500400","永和區"
"234052","KEA-2590","2019/10/04 13:29:26","新北市永和區復興街3號","121.515646666667","25.0130066666667","6500400","永和區"
"234005","KED-0605","2019/10/04 13:29:35","新北市永和區中山路一段190號","121.508918333333","25.0088783333333","6500400","永和區"
"234012","KEA-2591","2019/10/04 13:29:27","新北市永和區中山路一段184巷9弄1號","121.508455","25.009245","6500400","永和區"
"234060","AAD-866","2019/10/04 13:29:45","新北市永和區永貞路145號","121.516176666667","25.0040916666667","6500400","永和區"
"234040","862-TW","2019/10/04 13:29:35","新北市永和區中和路573號","121.511621666667","25.0034183333333","6500400","永和區"
"234048","863-TW","2019/10/04 13:29:37","新北市永和區保福路二段127號","121.509863333333","25.0138116666667","6500400","永和區"
"234025","9371-KE","2019/10/04 13:29:38","新北市永和區和平街26號","121.513606666667","25.0099566666667","6500400","永和區"
"234010","9373-KE","2019/10/04 13:29:35","新北市永和區仁愛路141巷15號","121.512118333333","25.0115733333333","6500400","永和區"
"248019","KED-0813","2019/10/04 13:29:27","新北市五股區孝義路90號","121.44824","25.11519","6501500","五股區"
"234022","9380-KE","2019/10/04 13:29:33","新北市永和區竹林路91巷70號","121.522043333333","25.013555","6500400","永和區"
"234076","969-R7","2019/10/04 13:29:39","新北市永和區智光街22號","121.517958333333","24.9992666666667","6500400","永和區"
"234072","AAC-211","2019/10/04 13:29:31","新北市永和區環河東路一段42號","121.518751666667","25.0171283333333","6500400","永和區"
"234066","AAC-212","2019/10/04 13:29:24","新北市永和區保平路105號","121.511155","25.006805","6500400","永和區"
"234001","AAC-295","2019/10/04 13:29:35","新北市永和區永和路一段115-1號","121.513993333333","25.00812","6500400","永和區"
"244004","248-BX","2019/10/04 13:29:34","新北市林口區頂福里21-1號","121.351403333333","25.085405","6501700","林口區"
"231030","002-UM","2019/10/04 13:29:25","新北市新店區安華路28-1號","121.519733333333","24.9605366666667","6500600","新店區"
"231005","046-UY","2019/10/04 13:29:27","新北市新店區北新路一段140號","121.542576666667","24.97042","6500600","新店區"
"231029","106-UY","2019/10/04 13:29:39","新北市新店區安華路30巷12-1號","121.5182","24.9580316666667","6500600","新店區"
"231018","107-UY","2019/10/04 13:29:21","新北市新店區環河路116號","121.53692","24.9674116666667","6500600","新店區"
"231013","108-UY","2019/10/04 13:29:29","新北市新店區中央路208號","121.530243333333","24.9739283333333","6500600","新店區"
"231036","110-UY","2019/10/04 13:29:38","新北市新店區安康路二段393號","121.494246666667","24.9539816666667","6500600","新店區"
"231032","256-BX","2019/10/04 13:29:44","新北市新店區安豐路54-1號","121.499766666667","24.95406","6500600","新店區"
"231023","260-TV","2019/10/04 13:29:31","新北市新店區新店路27-1號","121.540003333333","24.9527966666667","6500600","新店區"
"231003","268-BY","2019/10/04 13:29:38","新北市新店區北新路一段345號","121.541951666667","24.9689916666667","6500600","新店區"
"231035","278-BY","2019/10/04 13:29:36","新北市新店區安康路一段355-3號","121.519806666667","24.9623083333333","6500600","新店區"
"231016","AAD-862","2019/10/04 13:29:31","新北市新店區新烏路一段11巷7號","121.547311666667","24.9513283333333","6500600","新店區"
"231006","355-BY","2019/10/04 13:29:36","新北市新店區安華路28-1號","121.519078333333","24.9608866666667","6500600","新店區"
"231038","3712-VJ","2019/10/04 13:29:30","新北市新店區安華路3號","121.518973333333","24.960595","6500600","新店區"
"231027","3713-VJ","2019/10/04 13:29:31","新北市新店區環河路19巷24號","121.5375","24.9602733333333","6500600","新店區"
"231024","4716-K9","2019/10/04 13:29:40","新北市新店區北新路二段29巷3弄1號","121.54221","24.97297","6500600","新店區"
"231025","4715-K9","2019/10/04 13:29:39","新北市新店區中央五街38號","121.528498333333","24.9749633333333","6500600","新店區"
"231022","515-UM","2019/10/04 13:29:31","新北市新店區新烏路一段12號","121.546888333333","24.9514883333333","6500600","新店區"
"231002","619-UM","2019/10/04 13:29:34","新北市新店區秀山路72號","121.531351666667","24.960885","6500600","新店區"
"231034","641-BX","2019/10/04 13:29:29","新北市新店區安華路1-1號","121.519565","24.96033","6500600","新店區"
"231012","KED-0819","2019/10/04 13:29:31","新北市新店區光明街131號","121.539211666667","24.9619833333333","6500600","新店區"
"231010","719-UM","2019/10/04 13:29:28","新北市新店區中央路9號","121.533378333333","24.978565","6500600","新店區"
"231026","720-UM","2019/10/04 13:29:35","新北市新店區安康路一段359-27號","121.518443333333","24.96167","6500600","新店區"
"231028","897-TW","2019/10/04 13:29:31","新北市新店區安一路一段1-1號","121.519708333333","24.9611116666667","6500600","新店區"
"231001","898-TW","2019/10/04 13:29:36","新北市新店區安康路一段126號","121.526791666667","24.962745","6500600","新店區"
"231037","AKT-0513","2019/10/04 13:29:27","新北市新店區薏仁坑路55號","121.490828333333","24.9645983333333","6500600","新店區"
"235030","003-UY","2019/10/04 13:29:37","新北市中和區中山路二段120號","121.502628333333","25.0038233333333","6500300","中和區"
"235027","006-UY","2019/10/04 13:29:32","新北市中和區連城路347巷2弄2號","121.488015","24.9958666666667","6500300","中和區"
"235020","096-UM","2019/10/04 13:29:33","新北市中和區新民街92號","121.48133","25.0081766666667","6500300","中和區"
"235003","097-UM","2019/10/04 13:29:40","新北市中和區大勇街27巷4號","121.517153333333","24.9936066666667","6500300","中和區"
"235029","098-UM","2019/10/04 13:29:39","新北市中和區莊敬路49巷20弄10號","121.50208","25.005955","6500300","中和區"
"235004","150-BY","2019/10/04 13:29:42","新北市中和區保健路50巷68號","121.509178333333","24.99516","6500300","中和區"
"235022","151-BY","2019/10/04 13:29:33","新北市中和區圓通路369巷63號","121.490546666667","24.98339","6500300","中和區"
"235019","183-VK","2019/10/04 13:29:39","新北市中和區國光街102巷19號","121.471018333333","25.0007583333333","6500300","中和區"
"235002","185-VK","2019/10/04 13:29:34","新北市中和區自立路16號","121.522006666667","24.9937883333333","6500300","中和區"
"235031","255-BX","2019/10/04 13:29:32","新北市中和區連城路340巷14弄18號","121.482925","24.9972683333333","6500300","中和區"
"235036","301-VK","2019/10/04 13:29:40","新北市中和區連城路189號","121.49501","24.9981616666667","6500300","中和區"
"235007","352-BY","2019/10/04 13:29:39","新北市中和區景平路239巷1號","121.509886666667","24.9926566666667","6500300","中和區"
"235006","KEA-2878","2019/10/04 13:29:08","新北市中和區秀朗路三段153巷2號","121.52528","24.9913016666667","6500300","中和區"
"235014","4979-A6","2019/10/04 13:29:24","新北市中和區景新街418巷37號","121.512415","24.98828","6500300","中和區"
"235034","558-UM","2019/10/04 13:29:36","新北市中和區南華路55號","121.50415","24.9970266666667","6500300","中和區"
"235009","565-BX","2019/10/04 13:29:26","新北市中和區復興路49巷6號","121.504468333333","24.9895616666667","6500300","中和區"
"235024","KED-0823","2019/10/04 13:29:44","新北市中和區中山路二段561號","121.480691666667","25.0056566666667","6500300","中和區"
"235018","640-BX","2019/10/04 13:29:44","新北市中和區民享街51號","121.474078333333","25.0026766666667","6500300","中和區"
"235011","732-UM","2019/10/04 13:29:30","新北市中和區中正路190-1號","121.497895","24.99407","6500300","中和區"
"235035","783-BX","2019/10/04 13:29:28","新北市中和區中板路21號","121.48414","25.0117516666667","6500300","中和區"
"235021","801-TS","2019/10/04 13:29:28","新北市中和區民安街42巷24號","121.479608333333","25.0008416666667","6500300","中和區"
"235005","802-TS","2019/10/04 13:29:32","新北市中和區中和路318號","121.509565","25.0006266666667","6500300","中和區"
"235016","805-TS","2019/10/04 13:29:41","新北市中和區興南路二段133號","121.505216666667","24.984145","6500300","中和區"
"235012","896-TW","2019/10/04 13:29:41","新北市中和區中正路637巷52弄1號","121.485521666667","24.9935683333333","6500300","中和區"
"235017","900-TW","2019/10/04 13:29:40","新北市中和區連城路607號","121.477833333333","24.9930633333333","6500300","中和區"
"235028","911-UM","2019/10/04 13:29:38","新北市中和區連城路99巷22號","121.496793333333","24.9991733333333","6500300","中和區"
"235015","157-BY","2019/10/04 13:29:31","新北市中和區興南路二段114巷10弄5號","121.503923333333","24.9851983333333","6500300","中和區"
"235001","AAC-213","2019/10/04 13:29:27","新北市中和區景德街52號","121.517615","24.9915066666667","6500300","中和區"
"235023","AAC-215","2019/10/04 13:29:25","新北市中和區員山路36巷16-3號","121.485186666667","24.99117","6500300","中和區"
"220105","075-UY","2019/10/04 13:29:36","新北市板橋區民生路二段161巷5號","121.470088333333","25.0196883333333","6500100","板橋區"
"220017","AAD-861","2019/10/04 13:29:34","新北市板橋區華東街1-10號","121.44835","24.9950733333333","6500100","板橋區"
"247003","336-TH","2019/10/04 13:29:25","新北市五股區新五路二段258號","121.440676666667","25.0820616666667","6501400","蘆洲區"
"247013","056-VK","2019/10/04 13:29:35","新北市五股區中興路三段163號","121.449055","25.08094","6501400","蘆洲區"
"235013","251-BX","2019/10/04 13:29:31","新北市中和區景安路130號","121.505168333333","24.9944583333333","6500300","中和區"
"207002","749-BX","2019/10/04 13:29:26","新北市萬里區崁腳里崁腳路166號","121.645023333333","25.1558316666667","6502800","萬里區"
"207001","662-BX","2019/10/04 13:28:16","新北市萬里區龜吼里石角路55號","121.684781666667","25.192825","6502800","萬里區"
"220027","145-BY","2019/10/04 13:29:41","新北市板橋區華東街1-10號","121.448311666667","24.9951066666667","6500100","板橋區"
"220030","610-BX","2019/10/04 13:29:29","新北市板橋區華東街1-9號","121.4482","24.9949933333333","6500100","板橋區"
"220013","256-TC","2019/10/04 13:29:38","新北市板橋區稚暉街1號","121.456038333333","25.0047016666667","6500100","板橋區"
"220004","276-BY","2019/10/04 13:29:40","新北市板橋區華東街1-9號","121.448086666667","24.9949666666667","6500100","板橋區"
"220020","277-BY","2019/10/04 13:29:38","新北市板橋區華東街1-10號","121.44825","24.995145","6500100","板橋區"
"220043","285-UM","2019/10/04 13:29:29","新北市板橋區民生路二段161巷1號","121.469921666667","25.0197916666667","6500100","板橋區"
"220032","296-UM","2019/10/04 13:29:31","新北市板橋區華東街1-9號","121.448131666667","24.9950116666667","6500100","板橋區"
"220028","461-BY","2019/10/04 13:29:28","新北市板橋區華東街1-9號","121.44813","24.9948183333333","6500100","板橋區"
"220104","560-BX","2019/10/04 13:29:24","新北市板橋區南雅東路79-1號","121.453428333333","25.0080316666667","6500100","板橋區"
"220025","687-BX","2019/10/04 13:29:23","新北市板橋區大觀路二段265巷7-7號","121.444036666667","24.9946533333333","6500100","板橋區"
"220022","895-R6","2019/10/04 13:29:41","新北市板橋區南雅南路二段140號","121.451691666667","24.9962766666667","6500100","板橋區"
"220021","985-R7","2019/10/04 13:29:37","新北市板橋區四川路二段247號","121.450108333333","24.9931366666667","6500100","板橋區"
"220046","AAC-210","2019/10/04 13:29:24","新北市板橋區民生路二段120號","121.470401666667","25.0197616666667","6500100","板橋區"
"220012","AAC-253","2019/10/04 13:29:45","新北市板橋區南雅南路二段118號","121.452405","25.0002366666667","6500100","板橋區"
"235032","KEA-2873","2019/10/04 13:29:23","新北市中和區中正路271號","121.496008333333","24.9937216666667","6500300","中和區"
"235025","KEA-2875","2019/10/04 13:29:38","新北市中和區民享街110號","121.474628333333","24.9993333333333","6500300","中和區"
"235026","KEA-2876","2019/10/04 13:29:23","新北市中和區中山路二段312巷10弄1號","121.495601666667","25.0030733333333","6500300","中和區"
