"lineid","car","time","location","longitude","latitude","cityid","cityname"
"234044","148-BY","2019/10/04 13:59:29","新北市永和區成功路一段87號","121.526895","25.0030333333333","6500400","永和區"
"234078","298-R6","2019/10/04 13:59:28","新北市永和區永利路81巷15號","121.522161666667","25.00381","6500400","永和區"
"234036","336-UY","2019/10/04 13:59:31","新北市永和區成功路二段115號","121.526733333333","24.9986583333333","6500400","永和區"
"234062","337-UY","2019/10/04 13:59:39","新北市永和區中正路368巷1弄27號","121.518553333333","25.0011116666667","6500400","永和區"
"234084","338-UY","2019/10/04 13:59:38","新北市永和區福和路160號","121.521445","25.0080033333333","6500400","永和區"
"234068","552-UM","2019/10/04 13:59:39","新北市永和區國光路20號","121.518805","25.0084416666667","6500400","永和區"
"234015","745-BX","2019/10/04 13:59:33","新北市永和區文化路84號","121.513998333333","25.01522","6500400","永和區"
"234028","746-BX","2019/10/04 13:59:32","新北市永和區民權路29巷18號","121.521026666667","24.997865","6500400","永和區"
"234052","KEA-2590","2019/10/04 13:59:26","新北市永和區竹林路39巷35-1號","121.520128333333","25.015305","6500400","永和區"
"234005","KED-0605","2019/10/04 13:59:35","新北市永和區中和路401號","121.50881","25.00038","6500400","永和區"
"234012","KEA-2591","2019/10/04 13:59:27","新北市永和區保生路55號","121.504701666667","25.0105733333333","6500400","永和區"
"234060","AAD-866","2019/10/04 13:59:28","新北市永和區中正路151巷8弄2號","121.516016666667","24.9986166666667","6500400","永和區"
"234040","862-TW","2019/10/04 13:59:35","新北市永和區雙和街17巷20號","121.508966666667","25.0015133333333","6500400","永和區"
"234048","863-TW","2019/10/04 13:59:37","新北市永和區保安路264號","121.505905","25.012415","6500400","永和區"
"234025","9371-KE","2019/10/04 13:59:38","新北市永和區自由街47號","121.513945","25.0059716666667","6500400","永和區"
"234010","9373-KE","2019/10/04 13:59:30","新北市永和區仁愛路352巷122弄13號","121.500713333333","25.0088966666667","6500400","永和區"
"248019","KED-0813","2019/10/04 13:59:27","新北市五股區凌雲路三段85-3號","121.422778333333","25.1230866666667","6501500","五股區"
"234022","9380-KE","2019/10/04 13:59:33","新北市永和區勵行街24號","121.516106666667","25.0140066666667","6500400","永和區"
"234076","969-R7","2019/10/04 13:59:38","新北市永和區民族街46號","121.518308333333","24.9985183333333","6500400","永和區"
"234072","AAC-211","2019/10/04 13:59:31","新北市永和區豫溪街149號","121.520953333333","25.0104133333333","6500400","永和區"
"234066","AAC-212","2019/10/04 13:59:43","新北市永和區保平路137號","121.510153333333","25.0061516666667","6500400","永和區"
"234001","AAC-295","2019/10/04 13:59:35","新北市永和區永和路一段118號","121.514038333333","25.007715","6500400","永和區"
"244004","248-BX","2019/10/04 13:59:34","新北市林口區南勢里31號","121.352165","25.0704316666667","6501700","林口區"
"231030","002-UM","2019/10/04 13:59:25","新北市新店區安康路一段240-1號","121.521741666667","24.96383","6500600","新店區"
"231005","046-UY","2019/10/04 13:59:28","新北市新店區中興路三段214號","121.543636666667","24.9824516666667","6500600","新店區"
"231029","106-UY","2019/10/04 13:59:39","新北市新店區安康路二段22號","121.515958333333","24.9637933333333","6500600","新店區"
"231018","107-UY","2019/10/04 13:59:41","新北市新店區中央路109號","121.530985","24.974645","6500600","新店區"
"231013","108-UY","2019/10/04 13:59:29","新北市新店區明德路66號","121.541626666667","24.9795616666667","6500600","新店區"
"231036","110-UY","2019/10/04 13:59:38","新北市新店區安祥路110巷6號","121.474596666667","24.9569266666667","6500600","新店區"
"231032","256-BX","2019/10/04 13:59:24","新北市新店區莒光路44巷21弄11-6號","121.518455","24.952225","6500600","新店區"
"231023","260-TV","2019/10/04 13:59:24","新北市新店區文中路45號","121.539576666667","24.9568333333333","6500600","新店區"
"231003","268-BY","2019/10/04 13:59:38","新北市新店區北宜路一段7號","121.538298333333","24.9583133333333","6500600","新店區"
"231035","278-BY","2019/10/04 13:59:36","新北市新店區安和路二段115號","121.518671666667","24.9704383333333","6500600","新店區"
"231016","AAD-862","2019/10/04 13:59:38","新北市新店區北宜路二段235號","121.553735","24.95352","6500600","新店區"
"231006","355-BY","2019/10/04 13:59:36","新北市新店區北宜路二段145號","121.551555","24.9531816666667","6500600","新店區"
"231038","3712-VJ","2019/10/04 13:59:32","新北市新店區安華路30巷1號","121.519638333333","24.9594883333333","6500600","新店區"
"231027","3713-VJ","2019/10/04 13:59:31","新北市新店區北宜路一段39巷20號","121.538893333333","24.9584166666667","6500600","新店區"
"231024","4716-K9","2019/10/04 13:59:40","新北市新店區新生街13巷42號","121.538936666667","24.966515","6500600","新店區"
"231025","4715-K9","2019/10/04 13:59:39","新北市新店區中正路304號","121.537548333333","24.9747016666667","6500600","新店區"
"231022","515-UM","2019/10/04 13:59:31","新北市新店區屈尺路75號","121.545548333333","24.9226983333333","6500600","新店區"
"231002","619-UM","2019/10/04 13:59:34","新北市新店區中正路642號","121.533946666667","24.9892166666667","6500600","新店區"
"231034","641-BX","2019/10/04 13:59:37","新北市新店區達觀路43號","121.503271666667","24.93852","6500600","新店區"
"231012","KED-0819","2019/10/04 13:59:36","新北市新店區中興路一段282-3號","121.546035","24.9682816666667","6500600","新店區"
"231010","719-UM","2019/10/04 13:59:28","新北市新店區安康路一段355-3號","121.51968","24.9628216666667","6500600","新店區"
"231026","720-UM","2019/10/04 13:59:36","新北市新店區三民路159巷19弄6號","121.532703333333","24.9740133333333","6500600","新店區"
"231028","897-TW","2019/10/04 13:59:31","新北市新店區安和路三段22-1號","121.517986666667","24.98129","6500600","新店區"
"231001","898-TW","2019/10/04 13:59:36","新北市新店區三民路43號","121.537163333333","24.970895","6500600","新店區"
"231004","899-TW","2019/10/04 13:59:35","新北市新店區北新路二段152巷2號","121.54308","24.9752566666667","6500600","新店區"
"231037","AKT-0513","2019/10/04 13:59:27","新北市新店區安康路三段355巷33號","121.484986666667","24.9498116666667","6500600","新店區"
"235030","003-UY","2019/10/04 13:59:37","新北市中和區廣福路2號","121.50609","25.0031416666667","6500300","中和區"
"235027","006-UY","2019/10/04 13:59:31","新北市中和區連城路224號","121.491043333333","24.9966483333333","6500300","中和區"
"235020","096-UM","2019/10/04 13:59:33","新北市板橋區三民路二段228號","121.47876","25.0113916666667","6500300","中和區"
"235003","097-UM","2019/10/04 13:59:40","新北市中和區景平路3號","121.523633333333","24.990265","6500300","中和區"
"235029","098-UM","2019/10/04 13:59:38","新北市中和區中山路二段136巷40號","121.501221666667","25.0044516666667","6500300","中和區"
"235004","150-BY","2019/10/04 13:59:42","新北市中和區保健路46巷20弄2號","121.508993333333","24.996185","6500300","中和區"
"235022","151-BY","2019/10/04 13:59:33","新北市中和區員山路82巷9號","121.481505","24.99416","6500300","中和區"
"235019","183-VK","2019/10/04 13:59:39","新北市中和區德光路132號","121.468081666667","25.0032916666667","6500300","中和區"
"235002","185-VK","2019/10/04 13:59:34","新北市中和區立人街24-4號","121.51899","24.9941633333333","6500300","中和區"
"235031","255-BX","2019/10/04 13:59:32","新北市中和區新生街260號","121.483721666667","24.9973266666667","6500300","中和區"
"235008","293-VK","2019/10/04 13:59:37","新北市中和區中興街202巷16號","121.498968333333","24.98996","6500300","中和區"
"235036","301-VK","2019/10/04 13:59:20","新北市中和區永和路8巷6號","121.500261666667","25.002825","6500300","中和區"
"235007","352-BY","2019/10/04 13:59:39","新北市中和區秀朗路三段179號","121.524471666667","24.9905566666667","6500300","中和區"
"235006","KEA-2878","2019/10/04 13:59:28","新北市中和區秀朗路三段128巷1弄22號","121.523605","24.9917033333333","6500300","中和區"
"247015","KEA-2869","2019/10/04 13:59:29","新北市蘆洲區光華路44號","121.468746666667","25.0831366666667","6501400","蘆洲區"
"247009","KED-0682","2019/10/04 13:59:30","新北市蘆洲區集賢路226號","121.482465","25.0865316666667","6501400","蘆洲區"
"235014","4979-A6","2019/10/04 13:59:44","新北市中和區南山路405號","121.50688","24.9898766666667","6500300","中和區"
"235033","4980-A6","2019/10/04 13:59:26","新北市中和區南山路7號","121.502188333333","24.9994083333333","6500300","中和區"
"235034","558-UM","2019/10/04 13:59:36","新北市中和區南山路127巷35號","121.503906666667","24.99763","6500300","中和區"
"235009","565-BX","2019/10/04 13:59:26","新北市中和區景新街467巷38弄2號","121.514563333333","24.9885266666667","6500300","中和區"
"235024","KED-0823","2019/10/04 13:59:24","新北市中和區中山路三段124號","121.474258333333","25.0063266666667","6500300","中和區"
"235018","640-BX","2019/10/04 13:59:24","新北市中和區民德路153號","121.468666666667","25.000185","6500300","中和區"
"235011","732-UM","2019/10/04 13:59:30","新北市中和區興南路二段92號","121.505233333333","24.9843766666667","6500300","中和區"
"235035","783-BX","2019/10/04 13:59:28","新北市中和區立德街98巷83號","121.488401666667","25.0086233333333","6500300","中和區"
"235021","801-TS","2019/10/04 13:59:27","新北市中和區民利街50號","121.479288333333","24.998855","6500300","中和區"
"235005","802-TS","2019/10/04 13:59:32","新北市中和區中安街34號","121.51314","25.002755","6500300","中和區"
"235016","805-TS","2019/10/04 13:59:36","新北市中和區興南路二段131-15號","121.504195","24.9801766666667","6500300","中和區"
"235012","896-TW","2019/10/04 13:59:41","新北市中和區華新街60號","121.508055","24.9839","6500300","中和區"
"235017","900-TW","2019/10/04 13:59:40","新北市板橋區和平路199號","121.46422","24.9965516666667","6500300","中和區"
"235028","911-UM","2019/10/04 13:59:38","新北市中和區中和路40巷8號","121.499605","25.00138","6500300","中和區"
"235015","157-BY","2019/10/04 13:59:31","新北市中和區忠孝街103號","121.51185","24.9863216666667","6500300","中和區"
"235001","AAC-213","2019/10/04 13:59:27","新北市中和區秀朗路三段60巷32號","121.525221666667","24.9950816666667","6500300","中和區"
"235023","AAC-215","2019/10/04 13:59:45","新北市中和區圓通路369巷14弄8號","121.490166666667","24.9876433333333","6500300","中和區"
"220034","073-UY","2019/10/04 13:59:37","新北市板橋區大智街29號","121.454855","25.0151616666667","6500100","板橋區"
"220105","075-UY","2019/10/04 13:59:36","新北市板橋區雙十路三段10巷29號","121.472531666667","25.0315016666667","6500100","板橋區"
"220017","AAD-861","2019/10/04 13:59:35","新北市板橋區華興街18號","121.459418333333","25.004685","6500100","板橋區"
"247005","893-R6","2019/10/04 13:59:36","新北市蘆洲區中山二路309號","121.469035","25.0770483333333","6501400","蘆洲區"
"247019","546-UM","2019/10/04 13:59:33","新北市蘆洲區民族路422巷82弄2號","121.47363","25.093695","6501400","蘆洲區"
"247003","336-TH","2019/10/04 13:59:45","新北市蘆洲區長安街109號","121.461501666667","25.0809533333333","6501400","蘆洲區"
"247023","057-VK","2019/10/04 13:59:31","新北市蘆洲區光榮路120巷9號","121.465156666667","25.08884","6501400","蘆洲區"
"247013","056-VK","2019/10/04 13:59:35","新北市蘆洲區保和街81號","121.46911","25.0861466666667","6501400","蘆洲區"
"247021","007-UY","2019/10/04 13:59:29","新北市蘆洲區中正路263巷2號","121.467351666667","25.0874","6501400","蘆洲區"
"247007","002-UY","2019/10/04 13:59:44","新北市蘆洲區永安北路二段10號","121.481155","25.08063","6501400","蘆洲區"
"247001","001-UY","2019/10/04 13:59:41","新北市蘆洲區三民路607號","121.460585","25.0938666666667","6501400","蘆洲區"
"235013","251-BX","2019/10/04 13:59:31","新北市中和區明仁街4號","121.505911666667","24.9954766666667","6500300","中和區"
"207002","749-BX","2019/10/04 13:59:36","新北市萬里區溪底里溪底路9號","121.620933333333","25.1488333333333","6502800","萬里區"
"207001","662-BX","2019/10/04 13:59:35","新北市萬里區磺潭里公館崙58號","121.628411666667","25.2052983333333","6502800","萬里區"
"236040","KED-0685","2019/10/04 13:59:41","新北市土城區城林路6巷80號","121.438491666667","24.9797933333333","6501300","土城區"
"236077","166-UM","2019/10/04 13:59:41","新北市土城區永寧路18號","121.430241666667","24.962445","6501300","土城區"
"236029","253-BX","2019/10/04 13:59:26","新北市土城區中央路二段219-6號","121.440921666667","24.973845","6501300","土城區"
"236024","269-VK","2019/10/04 13:59:26","新北市土城區中央路三段42號","121.437505","24.9679216666667","6501300","土城區"
"236013","270-VK","2019/10/04 13:59:36","新北市土城區城林路6巷80號","121.438543333333","24.979775","6501300","土城區"
"236032","271-VK","2019/10/04 13:59:30","新北市土城區城林路6巷80號","121.438528333333","24.9797516666667","6501300","土城區"
"247011","KED-0683","2019/10/04 13:59:28","新北市蘆洲區中興街17號","121.480621666667","25.087005","6501400","蘆洲區"
"236067","KEA-2877","2019/10/04 13:59:35","新北市土城區和平路54號","121.445126666667","24.9690116666667","6501300","土城區"
"236016","401-BY","2019/10/04 13:59:33","新北市土城區城林路6巷80號","121.438475","24.9798183333333","6501300","土城區"
"236057","912-UM","2019/10/04 13:59:41","新北市土城區中央路三段260號","121.42717","24.9640183333333","6501300","土城區"
"236045","913-UM","2019/10/04 13:59:44","新北市土城區城林路6巷80號","121.438403333333","24.9797433333333","6501300","土城區"
"236060","915-UM","2019/10/04 13:59:32","新北市土城區城林路6巷80號","121.438508333333","24.9797783333333","6501300","土城區"
"236054","AAC-216","2019/10/04 13:59:40","新北市土城區城林路6巷80號","121.438273333333","24.9798816666667","6501300","土城區"
"220027","145-BY","2019/10/04 13:59:41","新北市板橋區中正路183巷50號","121.454831666667","25.016045","6500100","板橋區"
"220030","610-BX","2019/10/04 13:59:29","新北市板橋區溪崑一街112號","121.429313333333","24.98871","6500100","板橋區"
"220013","256-TC","2019/10/04 13:59:38","新北市板橋區漢生東路328號","121.47163","25.0078616666667","6500100","板橋區"
"220040","267-BY","2019/10/04 13:59:31","新北市板橋區大同街18號","121.47758","25.0267516666667","6500100","板橋區"
"220004","276-BY","2019/10/04 13:59:40","新北市板橋區信義路150巷2號","121.458638333333","24.991715","6500100","板橋區"
"220020","277-BY","2019/10/04 13:59:38","新北市板橋區篤行路二段135號","121.430285","24.989005","6500100","板橋區"
"220050","280-UM","2019/10/04 13:59:27","新北市板橋區萬板路13號","121.470548333333","25.0209066666667","6500100","板橋區"
"220019","283-VK","2019/10/04 13:59:27","新北市板橋區重慶路245巷59號","121.465445","25.0011233333333","6500100","板橋區"
"220043","285-UM","2019/10/04 13:59:39","新北市板橋區光武街161號","121.465396666667","25.0297883333333","6500100","板橋區"
"220031","286-VK","2019/10/04 13:59:33","新北市板橋區大觀路一段38巷160號","121.442238333333","25.0045683333333","6500100","板橋區"
"220029","287-VK","2019/10/04 13:59:41","新北市板橋區光華街34號","121.453823333333","25.0126416666667","6500100","板橋區"
"220039","288-VK","2019/10/04 13:59:24","新北市板橋區四維路308號","121.462503333333","25.0297516666667","6500100","板橋區"
"220009","293-UM","2019/10/04 13:59:25","新北市板橋區中山路二段214號","121.477848333333","25.0177483333333","6500100","板橋區"
"220032","296-UM","2019/10/04 13:59:32","新北市板橋區篤行路一段16號","121.43129","24.9955716666667","6500100","板橋區"
"220001","299-UM","2019/10/04 13:59:30","新北市板橋區永豐街119號","121.47435","25.0197016666667","6500100","板橋區"
"220023","303-R5","2019/10/04 13:59:21","新北市板橋區南雅東路100巷2號","121.453935","25.0074816666667","6500100","板橋區"
"220010","305-R5","2019/10/04 13:59:42","新北市板橋區三民路二段245巷4弄2號","121.480936666667","25.01218","6500100","板橋區"
"220041","307-R5","2019/10/04 13:59:34","新北市板橋區文化路二段225巷60弄44號","121.469181666667","25.0294516666667","6500100","板橋區"
"220047","317-R6","2019/10/04 13:59:39","新北市板橋區民生路二段234巷24弄1號","121.470335","25.022485","6500100","板橋區"
"220028","461-BY","2019/10/04 13:59:28","新北市板橋區大觀路二段力行1巷3弄2號","121.445463333333","24.99918","6500100","板橋區"
"220038","487-VK","2019/10/04 13:59:37","新北市板橋區文化路二段179號","121.470858333333","25.0278016666667","6500100","板橋區"
"220037","491-VK","2019/10/04 13:59:32","新北市板橋區莊敬路56號","121.472715","25.0269633333333","6500100","板橋區"
"220104","560-BX","2019/10/04 13:59:35","新北市板橋區中正路341巷33號","121.454201666667","25.0198116666667","6500100","板橋區"
"220103","561-BX","2019/10/04 13:59:43","新北市板橋區介壽街32號","121.468053333333","25.0200116666667","6500100","板橋區"
"220011","609-BX","2019/10/04 13:59:38","新北市板橋區三民路二段91號","121.47938","25.016415","6500100","板橋區"
"220005","686-BX","2019/10/04 13:59:29","新北市板橋區重慶路294號","121.463763333333","24.9986733333333","6500100","板橋區"
"220025","687-BX","2019/10/04 13:59:43","新北市板橋區大觀路二段174巷149號","121.441435","25.0026216666667","6500100","板橋區"
"220042","689-BX","2019/10/04 13:59:37","新北市板橋區民生路三段187號","121.465426666667","25.0275283333333","6500100","板橋區"
"220002","741-BX","2019/10/04 13:59:37","新北市板橋區重慶路127巷20號","121.463668333333","25.0048383333333","6500100","板橋區"
"220051","KEA-2699","2019/10/04 13:59:41","新北市板橋區田單街2巷39-3號","121.482275","25.02775","6500100","板橋區"
"220003","827-TW","2019/10/04 13:59:27","新北市板橋區中山路一段160-6號","121.46651","25.01243","6500100","板橋區"
"220016","830-TW","2019/10/04 13:59:39","新北市板橋區中山路二段465巷74弄2-5號","121.48124","25.0220566666667","6500100","板橋區"
"220014","831-TW","2019/10/04 13:59:41","新北市板橋區三民路二段正隆巷62號","121.476646666667","25.0144183333333","6500100","板橋區"
"220022","895-R6","2019/10/04 13:59:41","新北市板橋區館前西路132號","121.456353333333","25.0079566666667","6500100","板橋區"
"220021","985-R7","2019/10/04 13:59:37","新北市板橋區北門街53號","121.455925","25.011625","6500100","板橋區"
"220046","AAC-210","2019/10/04 13:59:24","新北市板橋區幸福路60巷58號","121.45958","25.0220583333333","6500100","板橋區"
"220012","AAC-253","2019/10/04 13:59:46","新北市板橋區板新路3號","121.475461666667","25.0123933333333","6500100","板橋區"
"235032","KEA-2873","2019/10/04 13:59:26","新北市中和區圓通路158巷9弄27號","121.497621666667","24.9963466666667","6500300","中和區"
"235025","KEA-2875","2019/10/04 13:59:38","新北市中和區員山路150-2號","121.481305","24.997325","6500300","中和區"
"235026","KEA-2876","2019/10/04 13:59:23","新北市中和區橋安街2號","121.492913333333","25.003405","6500300","中和區"
