"lineid","car","time","location","longitude","latitude","cityid","cityname"
"234044","148-BY","2019/10/04 14:09:39","新北市永和區得和路336號","121.523458333333","24.999445","6500400","永和區"
"234078","298-R6","2019/10/04 14:09:28","新北市永和區國中路32號","121.524651666667","25.0055616666667","6500400","永和區"
"234036","336-UY","2019/10/04 14:09:31","新北市永和區成功路一段93巷13弄27號","121.527715","25.003765","6500400","永和區"
"234062","337-UY","2019/10/04 14:09:39","新北市永和區永利路146號","121.522351666667","25.00286","6500400","永和區"
"234084","338-UY","2019/10/04 14:09:38","新北市永和區中正路525號","121.516865","25.0076233333333","6500400","永和區"
"234068","552-UM","2019/10/04 14:09:39","新北市永和區永貞路10巷8號","121.520466666667","25.0073133333333","6500400","永和區"
"234015","745-BX","2019/10/04 14:09:33","新北市永和區仁愛路91號","121.512986666667","25.0131683333333","6500400","永和區"
"234028","746-BX","2019/10/04 14:09:32","新北市永和區民權路84號","121.519931666667","24.99699","6500400","永和區"
"234052","KEA-2590","2019/10/04 14:09:26","新北市永和區博愛街21巷1號","121.517656666667","25.0158783333333","6500400","永和區"
"234005","KED-0605","2019/10/04 14:09:35","新北市永和區保平路210號","121.509898333333","25.0059733333333","6500400","永和區"
"234012","KEA-2591","2019/10/04 14:09:27","新北市永和區永貞路387號","121.50802","25.00875","6500400","永和區"
"234060","AAD-866","2019/10/04 14:09:44","新北市永和區得和路29號","121.51568","25.0003733333333","6500400","永和區"
"234040","862-TW","2019/10/04 14:09:43","新北市永和區雙和街23號","121.509171666667","25.0021","6500400","永和區"
"234048","863-TW","2019/10/04 14:09:37","新北市永和區環河西路二段69號","121.50689","25.0151683333333","6500400","永和區"
"234025","9371-KE","2019/10/04 14:09:38","新北市永和區安樂路270號","121.514593333333","25.0040883333333","6500400","永和區"
"248019","KED-0813","2019/10/04 14:02:01","新北市五股區凌雲路三段59-6號","121.424946666667","25.124985","6501500","五股區"
"234022","9380-KE","2019/10/04 14:09:33","新北市永和區博愛街32巷17-1號","121.518833333333","25.015195","6500400","永和區"
"234076","969-R7","2019/10/04 14:09:40","新北市永和區民有街75巷10弄31號","121.519213333333","24.99614","6500400","永和區"
"234072","AAC-211","2019/10/04 14:09:31","新北市永和區竹林路201巷27號","121.521913333333","25.0094683333333","6500400","永和區"
"234066","AAC-212","2019/10/04 14:09:42","新北市永和區保平路266號","121.50872","25.0051933333333","6500400","永和區"
"234001","AAC-295","2019/10/04 14:09:35","新北市永和區中正路609巷14號","121.516028333333","25.0091916666667","6500400","永和區"
"244004","248-BX","2019/10/04 14:09:34","新北市林口區南勢里34-8號","121.352283333333","25.0703266666667","6501700","林口區"
"231030","002-UM","2019/10/04 14:09:25","新北市新店區安民街115巷28號","121.515148333333","24.9675766666667","6500600","新店區"
"231005","046-UY","2019/10/04 14:09:27","新北市新店區中興路三段301號","121.542065","24.9853583333333","6500600","新店區"
"231029","106-UY","2019/10/04 14:09:39","新北市新店區安康路二段208號","121.510205","24.959525","6500600","新店區"
"231018","107-UY","2019/10/04 14:09:41","新北市新店區中央五街22號","121.529388333333","24.97448","6500600","新店區"
"231013","108-UY","2019/10/04 14:09:29","新北市新店區北新路三段65巷34弄21號","121.540013333333","24.981685","6500600","新店區"
"231036","110-UY","2019/10/04 14:09:38","新北市新店區安祥路108巷35號","121.47489","24.957115","6500600","新店區"
"231032","256-BX","2019/10/04 14:09:44","新北市新店區華城路6-1號","121.530125","24.9604216666667","6500600","新店區"
"231023","260-TV","2019/10/04 14:09:44","新北市新店區文中路40號","121.53975","24.9564866666667","6500600","新店區"
"231003","268-BY","2019/10/04 14:09:38","新北市新店區中興路一段108號","121.54099","24.9618666666667","6500600","新店區"
"231035","278-BY","2019/10/04 14:09:36","新北市新店區安和路二段115號","121.518671666667","24.97043","6500600","新店區"
"231016","AAD-862","2019/10/04 14:09:31","新北市新店區北宜路二段417號","121.560113333333","24.954545","6500600","新店區"
"231006","355-BY","2019/10/04 14:09:36","新北市新店區北宜路二段167巷4弄22號","121.553046666667","24.9535083333333","6500600","新店區"
"231038","3712-VJ","2019/10/04 14:09:30","新北市新店區溪洲路44號","121.532926666667","24.961175","6500600","新店區"
"231027","3713-VJ","2019/10/04 14:09:31","新北市新店區光明街28號","121.538495","24.9587016666667","6500600","新店區"
"231024","4716-K9","2019/10/04 14:09:40","新北市新店區安民街121巷12號","121.515358333333","24.969365","6500600","新店區"
"231025","4715-K9","2019/10/04 14:09:39","新北市新店區自立街88號","121.537148333333","24.9799316666667","6500600","新店區"
"231022","515-UM","2019/10/04 14:09:31","新北市新店區屈尺路75號","121.545855","24.922645","6500600","新店區"
"231002","619-UM","2019/10/04 14:09:43","新北市新店區中正路540-1號","121.533798333333","24.9844566666667","6500600","新店區"
"231034","641-BX","2019/10/04 14:09:45","新北市新店區車子路16號","121.50503","24.9537516666667","6500600","新店區"
"231012","KED-0819","2019/10/04 14:09:31","新北市新店區五峰路63巷8弄40號","121.547728333333","24.96877","6500600","新店區"
"231028","897-TW","2019/10/04 14:09:36","新北市新店區安和路三段53號","121.517938333333","24.9827433333333","6500600","新店區"
"231001","898-TW","2019/10/04 14:09:36","新北市新店區三民路20巷4號","121.53802","24.97056","6500600","新店區"
"231004","899-TW","2019/10/04 14:09:33","新北市新店區北新路二段156號","121.54303","24.9754316666667","6500600","新店區"
"231037","AKT-0513","2019/10/04 14:09:27","新北市新店區安康路三段165巷2弄12號","121.489056666667","24.95136","6500600","新店區"
"235030","003-UY","2019/10/04 14:09:36","新北市中和區景新街2號","121.502616666667","24.99977","6500300","中和區"
"235027","006-UY","2019/10/04 14:09:32","新北市中和區連勝街121巷16號","121.495053333333","24.9944316666667","6500300","中和區"
"235020","096-UM","2019/10/04 14:09:33","新北市中和區新民街90號","121.482056666667","25.00769","6500300","中和區"
"235003","097-UM","2019/10/04 14:09:40","新北市中和區秀峰街119巷6弄8號","121.519316666667","24.9901366666667","6500300","中和區"
"235029","098-UM","2019/10/04 14:09:38","新北市中和區中山路二段64巷16弄5號","121.503356666667","25.0061283333333","6500300","中和區"
"235004","150-BY","2019/10/04 14:06:42","新北市中和區保健路46巷10號","121.509405","24.9966166666667","6500300","中和區"
"235022","151-BY","2019/10/04 14:09:33","新北市中和區員山路36巷16-2號","121.485301666667","24.9915883333333","6500300","中和區"
"235019","183-VK","2019/10/04 14:09:39","新北市中和區莒光路3巷6號","121.47232","25.0060083333333","6500300","中和區"
"235002","185-VK","2019/10/04 14:09:34","新北市中和區大仁街10巷27弄3號","121.519196666667","24.9927583333333","6500300","中和區"
"235031","255-BX","2019/10/04 14:09:32","新北市中和區連城路286號","121.484286666667","24.9962633333333","6500300","中和區"
"235008","293-VK","2019/10/04 14:09:37","新北市中和區中興街235巷2號","121.500648333333","24.9894083333333","6500300","中和區"
"235036","301-VK","2019/10/04 14:09:40","新北市中和區永和路52號","121.499151666667","25.00405","6500300","中和區"
"235007","352-BY","2019/10/04 14:09:39","新北市中和區景平路296號","121.512951666667","24.9928683333333","6500300","中和區"
"235006","KEA-2878","2019/10/04 14:09:28","新北市中和區立人街6號","121.519776666667","24.9942533333333","6500300","中和區"
"247015","KEA-2869","2019/10/04 14:09:29","新北市蘆洲區光華路46巷46號","121.467613333333","25.084575","6501400","蘆洲區"
"247009","KED-0682","2019/10/04 14:09:30","新北市蘆洲區民族路31-12號","121.477846666667","25.085165","6501400","蘆洲區"
"235014","4979-A6","2019/10/04 14:09:24","新北市中和區景安路208巷33號","121.502225","24.9923616666667","6500300","中和區"
"235033","4980-A6","2019/10/04 14:09:26","新北市中和區中山路二段181巷5號","121.501143333333","25.0019533333333","6500300","中和區"
"235034","558-UM","2019/10/04 14:09:36","新北市中和區連城路61號","121.497565","25.001465","6500300","中和區"
"235009","565-BX","2019/10/04 14:09:26","新北市中和區景新街437巷17號","121.514103333333","24.98941","6500300","中和區"
"235024","KED-0823","2019/10/04 14:09:24","新北市中和區員山路292號","121.481438333333","25.0024116666667","6500300","中和區"
"235018","640-BX","2019/10/04 14:09:24","新北市中和區國光街112巷14弄1號","121.469858333333","25.0013033333333","6500300","中和區"
"235011","732-UM","2019/10/04 14:09:30","新北市中和區捷運路6號","121.510208333333","24.9896433333333","6500300","中和區"
"235035","783-BX","2019/10/04 14:09:28","新北市中和區建一路66號","121.487826666667","25.0036583333333","6500300","中和區"
"235021","801-TS","2019/10/04 14:09:27","新北市中和區員山路423巷2弄2號","121.480648333333","25.0034183333333","6500300","中和區"
"235005","802-TS","2019/10/04 14:09:32","新北市中和區中安街178巷13弄5-1號","121.51052","24.9986416666667","6500300","中和區"
"235016","805-TS","2019/10/04 14:09:36","新北市中和區興南路二段142巷21號","121.503085","24.983645","6500300","中和區"
"235012","896-TW","2019/10/04 14:09:41","新北市中和區工專路129號","121.508673333333","24.979275","6500300","中和區"
"235017","900-TW","2019/10/04 14:09:40","新北市中和區華安街32巷1號","121.467265","24.9975316666667","6500300","中和區"
"235028","911-UM","2019/10/04 14:09:38","新北市中和區中和路139號","121.501936666667","24.99982","6500300","中和區"
"235015","157-BY","2019/10/04 14:09:31","新北市中和區和平街38巷5號","121.509221666667","24.9908516666667","6500300","中和區"
"235001","AAC-213","2019/10/04 14:09:27","新北市中和區秀朗路三段10巷37弄6號","121.52396","24.9958216666667","6500300","中和區"
"235023","AAC-215","2019/10/04 14:09:25","新北市中和區圓通路425號","121.488213333333","24.9888866666667","6500300","中和區"
"220034","073-UY","2019/10/04 14:09:43","新北市板橋區中正路236巷11號","121.456446666667","25.019225","6500100","板橋區"
"220105","075-UY","2019/10/04 14:09:41","新北市板橋區長江路三段24巷3號","121.472508333333","25.0333633333333","6500100","板橋區"
"220017","AAD-861","2019/10/04 14:09:34","新北市板橋區華興街41號","121.458043333333","25.0047083333333","6500100","板橋區"
"247005","893-R6","2019/10/04 14:09:36","新北市蘆洲區九芎街63號","121.466945","25.07891","6501400","蘆洲區"
"247003","336-TH","2019/10/04 14:09:25","新北市蘆洲區長安街223號","121.459748333333","25.0824266666667","6501400","蘆洲區"
"247023","057-VK","2019/10/04 14:09:31","新北市蘆洲區光榮路122號","121.464648333333","25.0894216666667","6501400","蘆洲區"
"247013","056-VK","2019/10/04 14:09:35","新北市蘆洲區三民路155號","121.471395","25.0868833333333","6501400","蘆洲區"
"247017","053-VK","2019/10/04 14:09:26","新北市蘆洲區民族路201巷20-1號","121.47713","25.0893016666667","6501400","蘆洲區"
"247021","007-UY","2019/10/04 14:09:29","新北市蘆洲區三民路171巷27號","121.470398333333","25.0869433333333","6501400","蘆洲區"
"247007","002-UY","2019/10/04 14:09:44","新北市蘆洲區中山一路280號","121.471285","25.07896","6501400","蘆洲區"
"247001","001-UY","2019/10/04 14:09:32","新北市蘆洲區永平街32巷1號","121.458661666667","25.0909616666667","6501400","蘆洲區"
"235013","251-BX","2019/10/04 14:09:31","新北市中和區景新街235號","121.508071666667","24.9945066666667","6500300","中和區"
"207002","749-BX","2019/10/04 14:09:26","新北市萬里區溪底里瑞泉路21號","121.604516666667","25.1488533333333","6502800","萬里區"
"207001","662-BX","2019/10/04 14:09:35","新北市萬里區磺潭里清水18號","121.637785","25.1975933333333","6502800","萬里區"
"236040","KED-0685","2019/10/04 14:09:21","新北市土城區中央路一段287號","121.444461666667","24.9844283333333","6501300","土城區"
"236077","166-UM","2019/10/04 14:09:41","新北市土城區永寧路29號","121.430451666667","24.9632833333333","6501300","土城區"
"236029","253-BX","2019/10/04 14:09:38","新北市土城區中央路二段263號","121.439801666667","24.97079","6501300","土城區"
"236024","269-VK","2019/10/04 14:09:26","新北市土城區承天路18號","121.439271666667","24.9635183333333","6501300","土城區"
"236013","270-VK","2019/10/04 14:09:36","新北市土城區學成路1號","121.453353333333","24.9862066666667","6501300","土城區"
"236032","271-VK","2019/10/04 14:09:30","新北市土城區明德路一段355-5號","121.456845","24.977595","6501300","土城區"
"247011","KED-0683","2019/10/04 14:09:28","新北市蘆洲區信義路329號","121.478235","25.08668","6501400","蘆洲區"
"236067","KEA-2877","2019/10/04 14:09:35","新北市土城區金城路二段36號","121.451008333333","24.9786383333333","6501300","土城區"
"236016","401-BY","2019/10/04 14:09:33","新北市土城區員福街38號","121.440958333333","24.9789066666667","6501300","土城區"
"236057","912-UM","2019/10/04 14:09:41","新北市土城區中央路四段208號","121.415761666667","24.9573316666667","6501300","土城區"
"236045","913-UM","2019/10/04 14:09:24","新北市土城區明德路一段365-1號","121.453531666667","24.9790683333333","6501300","土城區"
"236060","915-UM","2019/10/04 14:09:32","新北市土城區員福街34號","121.441116666667","24.9788","6501300","土城區"
"236054","AAC-216","2019/10/04 14:09:40","新北市土城區中華路二段80號","121.438653333333","24.97564","6501300","土城區"
"220027","145-BY","2019/10/04 14:09:41","新北市板橋區中正路12巷135弄13號","121.456738333333","25.0122816666667","6500100","板橋區"
"220030","610-BX","2019/10/04 14:09:29","新北市板橋區溪崑二街25號","121.428608333333","24.9913383333333","6500100","板橋區"
"220013","256-TC","2019/10/04 14:09:39","新北市板橋區民族路219巷1號","121.469503333333","25.0076483333333","6500100","板橋區"
"220040","267-BY","2019/10/04 14:09:31","新北市板橋區三民路一段1巷49-1號","121.480783333333","25.02497","6500100","板橋區"
"220004","276-BY","2019/10/04 14:09:40","新北市板橋區信義路215號","121.459503333333","24.9914783333333","6500100","板橋區"
"220020","277-BY","2019/10/04 14:09:38","新北市板橋區金門街372巷33號","121.427363333333","24.9849916666667","6500100","板橋區"
"220050","280-UM","2019/10/04 14:09:27","新北市板橋區莊敬路25巷13-1號","121.474341666667","25.027565","6500100","板橋區"
"220019","283-VK","2019/10/04 14:09:27","新北市板橋區和平路237號","121.465288333333","24.998545","6500100","板橋區"
"220043","285-UM","2019/10/04 14:09:28","新北市板橋區吳鳳路19巷18號","121.466823333333","25.0308216666667","6500100","板橋區"
"220031","286-VK","2019/10/04 14:09:39","新北市板橋區大觀路二段174巷173弄7號","121.441461666667","25.0037466666667","6500100","板橋區"
"220029","287-VK","2019/10/04 14:09:31","新北市板橋區南雅西路二段20號","121.45294","25.0094533333333","6500100","板橋區"
"220039","288-VK","2019/10/04 14:09:44","新北市板橋區裕民街92號","121.460206666667","25.028155","6500100","板橋區"
"220009","293-UM","2019/10/04 14:09:25","新北市板橋區中山路二段320號","121.48103","25.0194533333333","6500100","板橋區"
"220032","296-UM","2019/10/04 14:09:32","新北市板橋區溪崑二街56巷3號","121.427945","24.9913516666667","6500100","板橋區"
"220001","299-UM","2019/10/04 14:09:40","新北市板橋區懷仁街35巷13號","121.477148333333","25.0198833333333","6500100","板橋區"
"220023","303-R5","2019/10/04 14:09:41","新北市板橋區大智街34號","121.45522","25.015045","6500100","板橋區"
"220010","305-R5","2019/10/04 14:09:42","新北市板橋區三民路二段居仁巷2弄1號","121.479356666667","25.0129216666667","6500100","板橋區"
"220041","307-R5","2019/10/04 14:09:23","新北市板橋區文化路二段225巷31號","121.469566666667","25.0280766666667","6500100","板橋區"
"220047","317-R6","2019/10/04 14:09:39","新北市板橋區民有街13號","121.466325","25.0247383333333","6500100","板橋區"
"220028","461-BY","2019/10/04 14:09:44","新北市板橋區大觀路二段9號","121.446955","25.0035616666667","6500100","板橋區"
"220038","487-VK","2019/10/04 14:09:43","新北市板橋區文化路一段263號","121.464538333333","25.0181583333333","6500100","板橋區"
"220037","491-VK","2019/10/04 14:09:32","新北市板橋區文化路二段182巷1弄23號","121.47144","25.02817","6500100","板橋區"
"220104","560-BX","2019/10/04 14:09:44","新北市板橋區中正路379巷18號","121.453648333333","25.021805","6500100","板橋區"
"220103","561-BX","2019/10/04 14:09:41","新北市板橋區文化路一段266號","121.467206666667","25.0205633333333","6500100","板橋區"
"220011","609-BX","2019/10/04 14:09:30","新北市板橋區三民路二段241號","121.479051666667","25.012605","6500100","板橋區"
"220005","686-BX","2019/10/04 14:09:30","新北市板橋區國慶路182巷20號","121.463025","24.9958783333333","6500100","板橋區"
"220025","687-BX","2019/10/04 14:09:43","新北市板橋區龍興街69號","121.443606666667","25.0015516666667","6500100","板橋區"
"220042","689-BX","2019/10/04 14:09:45","新北市板橋區漢生西路130號","121.46277","25.0202766666667","6500100","板橋區"
"220002","741-BX","2019/10/04 14:09:37","新北市板橋區重慶路69巷20號","121.462838333333","25.0069883333333","6500100","板橋區"
"220051","KEA-2699","2019/10/04 14:09:41","新北市板橋區田單街28號","121.482438333333","25.0283833333333","6500100","板橋區"
"220003","827-TW","2019/10/04 14:09:27","新北市板橋區新民街7巷3號","121.46369","25.0098766666667","6500100","板橋區"
"220016","830-TW","2019/10/04 14:09:42","新北市板橋區翠華街6巷29號","121.48138","25.024475","6500100","板橋區"
"220014","831-TW","2019/10/04 14:09:21","新北市板橋區民享街116巷16號","121.478661666667","25.0153516666667","6500100","板橋區"
"220022","895-R6","2019/10/04 14:09:41","新北市板橋區林園街4號","121.454071666667","25.0093483333333","6500100","板橋區"
"220021","985-R7","2019/10/04 14:09:37","新北市板橋區中正路146號","121.456945","25.0161466666667","6500100","板橋區"
"220046","AAC-210","2019/10/04 14:09:42","新北市板橋區幸福路60巷24號","121.460405","25.0213416666667","6500100","板橋區"
"220012","AAC-253","2019/10/04 14:09:25","新北市板橋區漢生東路83巷2號","121.466886666667","25.0157933333333","6500100","板橋區"
"235032","KEA-2873","2019/10/04 14:09:23","新北市中和區圓通路2號","121.501893333333","24.9980466666667","6500300","中和區"
"235025","KEA-2875","2019/10/04 14:09:37","新北市中和區民利街69號","121.478716666667","24.9983466666667","6500300","中和區"
"235026","KEA-2876","2019/10/04 14:09:23","新北市中和區中山路二段526巷22號","121.485886666667","25.0057033333333","6500300","中和區"
