"lineid","car","time","location","longitude","latitude","cityid","cityname"
"234025","9371-KE","2019/10/04 14:49:38","新北市永和區雙和街52巷2號","121.508865","25.003175","6500400","永和區"
"244004","248-BX","2019/10/04 14:49:34","新北市林口區文化北路二段388號","121.375361666667","25.08896","6501700","林口區"
"231030","002-UM","2019/10/04 14:49:45","新北市新店區安民街315號","121.517516666667","24.9742033333333","6500600","新店區"
"231005","046-UY","2019/10/04 14:49:27","新北市新店區復興路2號","121.532495","24.9882733333333","6500600","新店區"
"231029","106-UY","2019/10/04 14:49:39","新北市新店區安康路三段578-1號","121.48109","24.9486866666667","6500600","新店區"
"231018","107-UY","2019/10/04 14:49:41","新北市新店區中央路192號","121.53081","24.9747316666667","6500600","新店區"
"231013","108-UY","2019/10/04 14:49:28","新北市新店區北新路二段59巷11號","121.542558333333","24.9733916666667","6500600","新店區"
"231036","110-UY","2019/10/04 14:49:38","新北市新店區安祥路106巷78號","121.474781666667","24.9600766666667","6500600","新店區"
"231039","187-VK","2019/10/04 14:49:27","新北市新店區安一路一段1-1號","121.519543333333","24.96135","6500600","新店區"
"231023","260-TV","2019/10/04 14:49:24","新北市新店區檳榔路123號","121.544646666667","24.9615383333333","6500600","新店區"
"231003","268-BY","2019/10/04 14:49:38","新北市新店區中興路二段55號","121.546493333333","24.9702533333333","6500600","新店區"
"231035","278-BY","2019/10/04 14:49:36","新北市新店區安利街32號","121.518975","24.97494","6500600","新店區"
"231016","AAD-862","2019/10/04 14:49:31","新北市新店區北宜路三段331號","121.609311666667","24.95685","6500600","新店區"
"231006","355-BY","2019/10/04 14:49:35","新北市新店區北宜路二段2號","121.547615","24.9519383333333","6500600","新店區"
"231038","3712-VJ","2019/10/04 14:49:30","新北市新店區安華路28-1號","121.51995","24.9609983333333","6500600","新店區"
"231027","3713-VJ","2019/10/04 14:49:31","新北市新店區中正路222號","121.540273333333","24.9726983333333","6500600","新店區"
"231025","4715-K9","2019/10/04 14:49:39","新北市新店區建國路198巷2號","121.538113333333","24.980325","6500600","新店區"
"231022","515-UM","2019/10/04 14:49:35","新北市新店區桂山路81巷12號","121.567418333333","24.8955566666667","6500600","新店區"
"231002","619-UM","2019/10/04 14:49:34","新北市新店區民權路42號","121.540416666667","24.9829883333333","6500600","新店區"
"231034","641-BX","2019/10/04 14:49:29","新北市新店區安康路二段385號","121.494831666667","24.9545383333333","6500600","新店區"
"231012","KED-0819","2019/10/04 14:49:31","新北市新店區永華街32號","121.54457","24.9755983333333","6500600","新店區"
"231026","720-UM","2019/10/04 14:49:34","新北市新店區安一路一段1-1號","121.519871666667","24.961715","6500600","新店區"
"231028","897-TW","2019/10/04 14:49:31","新北市新店區安德街116巷36號","121.508593333333","24.961185","6500600","新店區"
"231001","898-TW","2019/10/04 14:46:56","新北市新店區中正路148號","121.54169","24.971635","6500600","新店區"
"231004","899-TW","2019/10/04 14:49:33","新北市新店區建國路133號","121.539311666667","24.9782366666667","6500600","新店區"
"231037","AKT-0513","2019/10/04 14:49:27","新北市新店區柴埕路60巷34號","121.50583","24.9684366666667","6500600","新店區"
"235030","003-UY","2019/10/04 14:49:36","新北市中和區中和路172號","121.504505","24.9994316666667","6500300","中和區"
"235020","096-UM","2019/10/04 14:49:41","新北市中和區中山路三段114巷41號","121.475508333333","25.0083316666667","6500300","中和區"
"235003","097-UM","2019/10/04 14:49:40","新北市中和區安樂路143巷2弄2號","121.514255","24.9971466666667","6500300","中和區"
"235029","098-UM","2019/10/04 14:49:38","新北市中和區永和路128巷47號","121.49771","25.0069216666667","6500300","中和區"
"235004","150-BY","2019/10/04 14:49:42","新北市中和區安平路59號","121.509645","24.9949716666667","6500300","中和區"
"235002","185-VK","2019/10/04 14:49:34","新北市永和區民族街81巷62號","121.520496666667","24.9963416666667","6500300","中和區"
"235031","255-BX","2019/10/04 14:49:32","新北市中和區中正路803號","121.484858333333","25.0009816666667","6500300","中和區"
"235008","293-VK","2019/10/04 14:49:37","新北市中和區南山路146巷29號","121.502835","24.9924233333333","6500300","中和區"
"235036","301-VK","2019/10/04 14:49:40","新北市中和區中山路二段3巷22弄1號","121.506391666667","25.0053616666667","6500300","中和區"
"235007","352-BY","2019/10/04 14:49:39","新北市中和區景平路183號","121.511805","24.9924733333333","6500300","中和區"
"235006","KEA-2878","2019/10/04 14:49:28","新北市中和區成功路137號","121.526426666667","24.9900683333333","6500300","中和區"
"235014","4979-A6","2019/10/04 14:49:27","新北市中和區景平路241巷72號","121.50754","24.9921633333333","6500300","中和區"
"235034","558-UM","2019/10/04 14:49:36","新北市中和區圓通路113號","121.499358333333","24.9964833333333","6500300","中和區"
"235009","565-BX","2019/10/04 14:49:26","新北市中和區中正路571巷2弄7號","121.486283333333","24.9937816666667","6500300","中和區"
"235018","640-BX","2019/10/04 14:49:44","新北市中和區民享街97巷15號","121.475433333333","24.999935","6500300","中和區"
"235035","783-BX","2019/10/04 14:49:28","新北市中和區建一路148號","121.488161666667","24.998735","6500300","中和區"
"235016","805-TS","2019/10/04 14:49:36","新北市中和區華新街192巷22弄9號","121.506621666667","24.983235","6500300","中和區"
"235012","896-TW","2019/10/04 14:49:40","新北市中和區忠孝街1巷2-1號","121.509168333333","24.9831666666667","6500300","中和區"
"235017","900-TW","2019/10/04 14:49:40","新北市中和區民享街482號","121.46933","24.992475","6500300","中和區"
"235015","157-BY","2019/10/04 14:49:34","新北市中和區景安路220巷6-1號","121.50311","24.9911366666667","6500300","中和區"
"235001","AAC-213","2019/10/04 14:49:27","新北市中和區自立路99巷24號","121.523406666667","24.99466","6500300","中和區"
"235023","AAC-215","2019/10/04 14:49:45","新北市中和區圓通路367巷6號","121.491656666667","24.98936","6500300","中和區"
"220034","073-UY","2019/10/04 14:49:37","新北市板橋區漢生西路89巷4弄8號","121.460943333333","25.0188566666667","6500100","板橋區"
"220105","075-UY","2019/10/04 14:49:38","新北市板橋區文聖街5號","121.475568333333","25.032505","6500100","板橋區"
"220017","AAD-861","2019/10/04 14:49:37","新北市板橋區大明街26號","121.458393333333","25.0026016666667","6500100","板橋區"
"247013","056-VK","2019/10/04 14:49:35","新北市蘆洲區中央路54號","121.473335","25.0835416666667","6501400","蘆洲區"
"247001","001-UY","2019/10/04 14:49:31","新北市蘆洲區永康街56號","121.45905","25.086005","6501400","蘆洲區"
"235013","251-BX","2019/10/04 14:49:31","新北市中和區景平路522號","121.503265","24.9940833333333","6500300","中和區"
"207002","749-BX","2019/10/04 14:49:27","新北市萬里區崁腳里崁腳路73號","121.647628333333","25.1595933333333","6502800","萬里區"
"207001","662-BX","2019/10/04 14:49:37","新北市萬里區雙興里豐稟路32號","121.645743333333","25.1803816666667","6502800","萬里區"
"236040","KED-0685","2019/10/04 14:49:41","新北市土城區學府路一段256巷21號","121.450623333333","24.985055","6501300","土城區"
"236077","166-UM","2019/10/04 14:49:41","新北市土城區中央路四段67巷6號","121.41769","24.9574633333333","6501300","土城區"
"236029","253-BX","2019/10/04 14:49:43","新北市土城區忠義路34號","121.440383333333","24.9698333333333","6501300","土城區"
"236024","269-VK","2019/10/04 14:49:26","新北市土城區慶安街80號","121.440668333333","24.9727566666667","6501300","土城區"
"236013","270-VK","2019/10/04 14:49:36","新北市土城區金城路二段360-2號","121.461736666667","24.9850633333333","6501300","土城區"
"236032","271-VK","2019/10/04 14:49:44","新北市土城區仁愛路48號","121.461801666667","24.9792266666667","6501300","土城區"
"236067","KEA-2877","2019/10/04 14:49:35","新北市土城區明德路一段365-1號","121.453638333333","24.9790583333333","6501300","土城區"
"236016","401-BY","2019/10/04 14:49:33","新北市土城區延安街6號","121.467266666667","24.986085","6501300","土城區"
"236057","912-UM","2019/10/04 14:49:31","新北市土城區金城路二段8-1號","121.44901","24.9771216666667","6501300","土城區"
"236045","913-UM","2019/10/04 14:49:24","新北市土城區青雲路35號","121.460051666667","24.9884916666667","6501300","土城區"
"236060","915-UM","2019/10/04 14:49:32","新北市土城區延壽路2號","121.471536666667","24.9901566666667","6501300","土城區"
"236054","AAC-216","2019/10/04 14:49:40","新北市土城區裕民路130號","121.451428333333","24.9863716666667","6501300","土城區"
"220027","145-BY","2019/10/04 14:49:41","新北市板橋區公館街110號","121.46095","25.0167616666667","6500100","板橋區"
"220030","610-BX","2019/10/04 14:49:31","新北市板橋區篤行路一段28號","121.43149","24.9942383333333","6500100","板橋區"
"220013","256-TC","2019/10/04 14:49:38","新北市板橋區國泰街39巷7弄13號","121.468963333333","25.0057266666667","6500100","板橋區"
"220040","267-BY","2019/10/04 14:49:31","新北市板橋區懷德街133號","121.479163333333","25.0304716666667","6500100","板橋區"
"220004","276-BY","2019/10/04 14:49:43","新北市板橋區信義路1巷26弄34號","121.458621666667","24.9964816666667","6500100","板橋區"
"220020","277-BY","2019/10/04 14:49:38","新北市板橋區篤行路二段77巷18號","121.432641666667","24.9916983333333","6500100","板橋區"
"220050","280-UM","2019/10/04 14:49:27","新北市板橋區萬板路128號","121.475023333333","25.0233916666667","6500100","板橋區"
"220019","283-VK","2019/10/04 14:49:42","新北市板橋區廣權路85號","121.4641","24.99247","6500100","板橋區"
"220043","285-UM","2019/10/04 14:49:28","新北市板橋區雨農路15號","121.462203333333","25.0245816666667","6500100","板橋區"
"220031","286-VK","2019/10/04 14:49:34","新北市板橋區僑中二街8巷32號","121.445776666667","25.0114833333333","6500100","板橋區"
"220029","287-VK","2019/10/04 14:49:31","新北市板橋區大觀路一段28巷113號","121.449811666667","25.0123416666667","6500100","板橋區"
"220039","288-VK","2019/10/04 14:49:39","新北市板橋區新海路72巷7號","121.462271666667","25.0220116666667","6500100","板橋區"
"220009","293-UM","2019/10/04 14:49:25","新北市板橋區中山路一段161號","121.4654","25.011905","6500100","板橋區"
"220032","296-UM","2019/10/04 14:49:36","新北市板橋區溪崑二街112巷2號","121.426403333333","24.988845","6500100","板橋區"
"220001","299-UM","2019/10/04 14:49:30","新北市板橋區中山路二段60巷1弄15號","121.474778333333","25.0156083333333","6500100","板橋區"
"220023","303-R5","2019/10/04 14:49:41","新北市板橋區大仁街110巷22號","121.452635","25.0165483333333","6500100","板橋區"
"220010","305-R5","2019/10/04 14:49:42","新北市板橋區光復街33巷17號","121.482056666667","25.0190266666667","6500100","板橋區"
"220041","307-R5","2019/10/04 14:49:23","新北市板橋區新海路109巷1弄1號","121.461026666667","25.022545","6500100","板橋區"
"220047","317-R6","2019/10/04 14:49:39","新北市板橋區裕民街75巷2弄15號","121.460588333333","25.0276066666667","6500100","板橋區"
"220028","461-BY","2019/10/04 14:49:32","新北市板橋區大觀路二段163巷15號","121.446283333333","25.00021","6500100","板橋區"
"220038","487-VK","2019/10/04 14:49:37","新北市板橋區互助街96號","121.46012","25.0262066666667","6500100","板橋區"
"220037","491-VK","2019/10/04 14:49:41","新北市板橋區文聖街155號","121.47879","25.0278583333333","6500100","板橋區"
"220104","560-BX","2019/10/04 14:49:24","新北市板橋區金華街109號","121.45898","25.0209133333333","6500100","板橋區"
"220052","561-BX","2019/10/04 14:49:40","新北市板橋區陽明街267號","121.462355","25.0258116666667","6500100","板橋區"
"220011","609-BX","2019/10/04 14:49:42","新北市板橋區三民路一段140號","121.479085","25.02012","6500100","板橋區"
"220005","686-BX","2019/10/04 14:49:29","新北市板橋區四川路一段338號","121.456733333333","24.9967533333333","6500100","板橋區"
"220025","687-BX","2019/10/04 14:49:43","新北市板橋區僑中二街116巷1號","121.445665","25.0063016666667","6500100","板橋區"
"220042","689-BX","2019/10/04 14:49:25","新北市板橋區文化路二段503號","121.476165","25.0344633333333","6500100","板橋區"
"220002","741-BX","2019/10/04 14:49:37","新北市板橋區忠孝路忠義巷16弄1號","121.466001666667","25.00372","6500100","板橋區"
"220051","KEA-2699","2019/10/04 14:49:41","新北市板橋區莊敬路109號","121.472318333333","25.0258983333333","6500100","板橋區"
"220003","827-TW","2019/10/04 14:49:18","新北市板橋區國慶路149巷31號","121.460945","24.997765","6500100","板橋區"
"220016","830-TW","2019/10/04 14:48:19","新北市板橋區光復街88號","121.483755","25.0164166666667","6500100","板橋區"
"220014","831-TW","2019/10/04 14:49:41","新北市板橋區長安街331巷19弄13號","121.473465","25.012225","6500100","板橋區"
"220022","895-R6","2019/10/04 14:49:41","新北市板橋區府中路29-2號","121.458671666667","25.0079233333333","6500100","板橋區"
"220021","985-R7","2019/10/04 14:49:41","新北市板橋區大仁街57-1號","121.454423333333","25.0164133333333","6500100","板橋區"
"220046","AAC-210","2019/10/04 14:49:44","新北市板橋區光正街9巷22弄12號","121.462076666667","25.0167233333333","6500100","板橋區"
"220012","AAC-253","2019/10/04 14:49:25","新北市板橋區實踐路38號","121.463655","25.006835","6500100","板橋區"
"235032","KEA-2873","2019/10/04 14:49:23","新北市中和區永和路39巷2號","121.498","25.004915","6500300","中和區"
