"lineid","car","time","location","longitude","latitude","cityid","cityname"
"249005","172-UM","2019/10/04 17:19:43","新北市八里區荖阡坑路50號","121.413666666667","25.1229633333333","6502300","八里區"
"249001","173-UM","2019/10/04 17:19:38","新北市八里區中華路二段165巷3號","121.407668333333","25.15082","6502300","八里區"
"249004","303-UY","2019/10/04 17:19:27","新北市八里區賢三街86號","121.41745","25.1579133333333","6502300","八里區"
"249002","305-UY","2019/10/04 17:19:36","新北市八里區龍米路二段117巷3號","121.446766666667","25.142935","6502300","八里區"
"249003","593-UM","2019/10/04 17:19:34","新北市八里區中山路二段417號","121.397215","25.1462866666667","6502300","八里區"
"244007","080-UY","2019/10/04 17:19:25","新北市林口區湖子10-1號","121.387151666667","25.0905016666667","6501700","林口區"
"244013","KEA-2802","2019/10/04 17:19:42","新北市林口區粉寮69號","121.404808333333","25.0907633333333","6501700","林口區"
"244023","483-VK","2019/10/04 17:19:37","新北市林口區隆林街96號","121.385673333333","25.0751083333333","6501700","林口區"
"244017","485-VK","2019/10/04 17:19:41","新北市林口區粉寮路一段105號","121.39812","25.08048","6501700","林口區"
"244009","656-BX","2019/10/04 17:19:28","新北市林口區中北一街46號","121.38592","25.0877683333333","6501700","林口區"
"244011","701-TV","2019/10/04 17:19:25","新北市林口區仁愛路一段641號","121.38891","25.0766666666667","6501700","林口區"
"244025","837-TS","2019/10/04 17:19:38","新北市林口區民族路151號","121.366496666667","25.075935","6501700","林口區"
"244021","838-TS","2019/10/04 17:19:43","新北市林口區粉寮路一段105號","121.398065","25.0804166666667","6501700","林口區"
"231046","719-UM","2019/10/04 17:12:24","新北市新店區直潭路85號","121.531915","24.9420733333333","6500600","新店區"
"241011","013-R5","2019/10/04 17:19:23","新北市三重區河邊北街110巷10號","121.503416666667","25.0706616666667","6500200","三重區"
"241028","022-UY","2019/10/04 17:19:25","新北市三重區重新路三段82號","121.493218333333","25.06095","6500200","三重區"
"241008","059-VK","2019/10/04 17:19:27","新北市三重區下竹圍街4號","121.480751666667","25.0761","6500200","三重區"
"241015","062-VK","2019/10/04 17:19:26","新北市三重區福德北路82號","121.501701666667","25.0662783333333","6500200","三重區"
"241017","063-VK","2019/10/04 17:19:41","新北市三重區大同北路52號","121.495043333333","25.0631216666667","6500200","三重區"
"241024","065-VK","2019/10/04 17:19:37","新北市三重區中正北路193巷21弄42號","121.478651666667","25.0709866666667","6500200","三重區"
"241007","066-VK","2019/10/04 17:19:28","新北市三重區慈愛街10號","121.484545","25.07842","6500200","三重區"
"241002","090-VK","2019/10/04 17:19:41","新北市三重區進安街196號","121.493665","25.0862616666667","6500200","三重區"
"241003","091-VK","2019/10/04 17:19:31","新北市三重區富福街25號","121.490666666667","25.0835266666667","6500200","三重區"
"241016","266-UM","2019/10/04 17:19:34","新北市三重區大同北路97-3號","121.494388333333","25.06358","6500200","三重區"
"241009","267-UM","2019/10/04 17:19:36","新北市三重區力行路二段136巷23弄35號","121.481358333333","25.0764383333333","6500200","三重區"
"241018","268-UM","2019/10/04 17:19:42","新北市三重區安慶街190號","121.493445","25.068385","6500200","三重區"
"241032","269-UM","2019/10/04 17:19:37","新北市三重區新北大道一段133巷10號","121.482576666667","25.0608316666667","6500200","三重區"
"241013","270-UM","2019/10/04 17:19:41","新北市三重區仁愛街80號","121.495645","25.0735966666667","6500200","三重區"
"241025","271-UM","2019/10/04 17:19:24","新北市三重區中正北路213號","121.476348333333","25.0700883333333","6500200","三重區"
"241030","KED-0822","2019/10/04 17:19:28","新北市三重區集美街127號","121.490533333333","25.0531316666667","6500200","三重區"
"241004","475-VK","2019/10/04 17:19:22","新北市三重區五華街141巷57號","121.493503333333","25.0864366666667","6500200","三重區"
"241020","478-VK","2019/10/04 17:19:30","新北市三重區忠孝路一段129號","121.488665","25.0719816666667","6500200","三重區"
"241026","480-VK","2019/10/04 17:19:37","新北市三重區正義南路20號","121.49813","25.0614116666667","6500200","三重區"
"241014","543-UM","2019/10/04 17:19:42","新北市三重區長榮路3號","121.500215","25.0683616666667","6500200","三重區"
"241023","545-UM","2019/10/04 17:19:38","新北市三重區三民街148號","121.482518333333","25.065325","6500200","三重區"
"241019","KEA-2593","2019/10/04 17:19:28","新北市三重區自強路二段26巷38號","121.488431666667","25.0688816666667","6500200","三重區"
"241005","AAD-863","2019/10/04 17:19:27","新北市三重區碧華街1號","121.483493333333","25.0810316666667","6500200","三重區"
"241012","743-BX","2019/10/04 17:19:24","新北市三重區仁福街64巷2號","121.497813333333","25.07473","6500200","三重區"
"241022","KED-0820","2019/10/04 17:19:23","新北市三重區重陽路二段34巷14號","121.486551666667","25.06324","6500200","三重區"
"241006","887-TS","2019/10/04 17:19:27","新北市三重區永福街125巷7號","121.478426666667","25.0771916666667","6500200","三重區"
"241033","AAC-255","2019/10/04 17:19:26","新北市三重區中興北街191號","121.469036666667","25.0565233333333","6500200","三重區"
"247016","KEA-2869","2019/10/04 17:19:32","新北市蘆洲區正和街96巷14號","121.467871666667","25.0810333333333","6501400","蘆洲區"
"247010","KED-0682","2019/10/04 17:19:39","新北市蘆洲區中山一路122巷30號","121.476696666667","25.0822783333333","6501400","蘆洲區"
"247006","893-R6","2019/10/04 17:19:35","新北市蘆洲區長安街73巷13號","121.462236666667","25.0795416666667","6501400","蘆洲區"
"247020","546-UM","2019/10/04 17:19:40","新北市蘆洲區仁愛街20號","121.472253333333","25.0928666666667","6501400","蘆洲區"
"247004","336-TH","2019/10/04 17:19:41","新北市蘆洲區中原路72號","121.45838","25.0819983333333","6501400","蘆洲區"
"247024","057-VK","2019/10/04 17:19:40","新北市蘆洲區長榮路498號","121.459511666667","25.0894716666667","6501400","蘆洲區"
"247014","056-VK","2019/10/04 17:19:35","新北市蘆洲區光華路1號","121.469988333333","25.0835283333333","6501400","蘆洲區"
"247018","053-VK","2019/10/04 17:19:22","新北市蘆洲區民權路96巷5弄1號","121.474685","25.08857","6501400","蘆洲區"
"247022","007-UY","2019/10/04 17:19:42","新北市蘆洲區民義街9巷2號","121.471183333333","25.0887966666667","6501400","蘆洲區"
"247008","002-UY","2019/10/04 17:19:35","新北市蘆洲區永安北路一段72巷58號","121.475976666667","25.0768716666667","6501400","蘆洲區"
"247002","001-UY","2019/10/04 17:19:32","新北市蘆洲區永樂街38巷37號","121.458201666667","25.08942","6501400","蘆洲區"
"228002","663-BX","2019/10/04 17:19:27","新北市貢寮區雙玉里下雙溪街24號","121.921281666667","25.009875","6502600","貢寮區"
"228001","670-TC","2019/10/04 17:19:32","新北市貢寮區仁理村尖山腳街18-3號","121.925516666667","25.0483233333333","6502600","貢寮區"
"228003","828-UM","2019/10/04 17:19:29","新北市貢寮區福隆里興隆街24-1號","121.944425","25.0166866666667","6502600","貢寮區"
"224006","676-BX","2019/10/04 17:19:42","新北市瑞芳區大寮路37號","121.782288333333","25.09854","6501200","瑞芳區"
"224009","275-VK","2019/10/04 17:19:33","新北市瑞芳區石崁巷49號","121.837631666667","25.1096033333333","6501200","瑞芳區"
"224008","273-VK","2019/10/04 17:19:41","新北市瑞芳區侯硐路160號","121.828265","25.085705","6501200","瑞芳區"
"224005","271-BY","2019/10/04 17:19:24","新北市瑞芳區鼻頭路247號","121.907603333333","25.12131","6501200","瑞芳區"
"227002","642-TC","2019/10/04 17:19:28","新北市雙溪區雙溪里大同街10號","121.864885","25.0349133333333","6502500","雙溪區"
"251005","010-UM","2019/10/04 17:19:26","新北市淡水區鄧公路23巷2號","121.451336666667","25.1700633333333","6501000","淡水區"
"251004","180-VK","2019/10/04 17:19:07","新北市淡水區中正東路二段88巷15號","121.459061666667","25.1505083333333","6501000","淡水區"
"251008","181-VK","2019/10/04 17:19:35","新北市淡水區大同路285號","121.467958333333","25.1425416666667","6501000","淡水區"
"251010","413-VK","2019/10/04 17:19:28","新北市淡水區沙崙路149號","121.423726666667","25.1832866666667","6501000","淡水區"
"251007","442-VK","2019/10/04 17:19:22","新北市淡水區民生路47-4號","121.462071666667","25.1379666666667","6501000","淡水區"
"251012","443-VK","2019/10/04 17:19:24","新北市淡水區中山北路一段158號","121.444335","25.177925","6501000","淡水區"
"251006","561-UM","2019/10/04 17:19:25","新北市淡水區新生街122-2號","121.440836666667","25.17466","6501000","淡水區"
"251009","575-R6","2019/10/04 17:19:34","新北市淡水區三民街22號","121.439041666667","25.171805","6501000","淡水區"
"251011","650-BX","2019/10/04 17:19:43","新北市淡水區坪頂路70巷1號","121.459901666667","25.1630716666667","6501000","淡水區"
"251003","766-UM","2019/10/04 17:19:43","新北市淡水區中正路二段22巷3號","121.4199","25.1815416666667","6501000","淡水區"
"207003","550-UM","2019/10/04 17:19:26","新北市萬里區萬里里獅頭路23號","121.693471666667","25.1782233333333","6502800","萬里區"
"252002","178-VK","2019/10/04 17:19:41","新北市三芝區忠孝街1-14號","121.505556666667","25.2539516666667","6502100","三芝區"
"233002","762-BX","2019/10/04 17:19:25","新北市烏來區環山路82巷60號","121.547301666667","24.8638733333333","6502900","烏來區"
"252001","KED-0821","2019/10/04 17:19:42","新北市三芝區長安街119號","121.497993333333","25.25969","6502100","三芝區"
"242005","751-BX","2019/10/04 17:19:44","新北市新莊區新泰路500號","121.442441666667","25.0459316666667","6500500","新莊區"
"242029","615-BX","2019/10/04 17:19:33","新北市新莊區幸福路604號","121.451985","25.0492566666667","6500500","新莊區"
"242027","613-BX","2019/10/04 17:19:25","新北市新莊區中港路314號","121.452395","25.045285","6500500","新莊區"
"242058","612-BX","2019/10/04 17:19:28","新北市新莊區新泰路255巷83號","121.442148333333","25.03902","6500500","新莊區"
"242054","497-BY","2019/10/04 17:19:30","新北市新莊區環河路462號","121.44014","25.0197783333333","6500500","新莊區"
"242048","442-UM","2019/10/04 17:19:26","新北市新莊區龍安路249巷1號","121.41917","25.0213183333333","6500500","新莊區"
"242002","441-UM","2019/10/04 17:19:44","新北市新莊區瓊林路46-4號","121.4473","25.0293733333333","6500500","新莊區"
"242007","440-UM","2019/10/04 17:19:26","新北市新莊區新泰路486號","121.442485","25.0456866666667","6500500","新莊區"
"242044","415-TV","2019/10/04 17:19:38","新北市新莊區福營路361號","121.42411","25.027935","6500500","新莊區"
"242013","413-TV","2019/10/04 17:19:41","新北市新莊區中和街108巷1號","121.447635","25.046915","6500500","新莊區"
"242050","400-BY","2019/10/04 17:19:25","新北市新莊區瓊林路63號","121.438956666667","25.0207216666667","6500500","新莊區"
"242025","362-BY","2019/10/04 17:19:27","新北市新莊區中平路107號","121.44475","25.0463416666667","6500500","新莊區"
"242023","353-BY","2019/10/04 17:19:35","新北市新莊區新泰路502巷57號","121.444505","25.0465","6500500","新莊區"
"242015","132-UY","2019/10/04 17:19:32","新北市新莊區新泰路268號","121.446135","25.04023","6500500","新莊區"
"242039","135-UY","2019/10/04 17:19:43","新北市新莊區新樹路207-7號","121.435806666667","25.0239","6500500","新莊區"
"242056","172-VK","2019/10/04 17:19:34","新北市新莊區新莊路765號","121.442411666667","25.0325816666667","6500500","新莊區"
"242017","173-VK","2019/10/04 17:19:39","新北市新莊區三和路12-21號","121.442026666667","25.038715","6500500","新莊區"
"242032","175-VK","2019/10/04 17:19:43","新北市新莊區新泰路500號","121.442575","25.0459883333333","6500500","新莊區"
"242021","KED-0687","2019/10/04 17:19:30","新北市新莊區新泰路275號","121.445726666667","25.0404183333333","6500500","新莊區"
"242011","346-TH","2019/10/04 17:19:38","新北市新莊區新泰路496號","121.442625","25.0461916666667","6500500","新莊區"
"242037","348-TH","2019/10/04 17:19:25","新北市新莊區新樹路157號","121.436673333333","25.0254633333333","6500500","新莊區"
"242009","349-TH","2019/10/04 17:19:35","新北市新莊區新泰路484號","121.442495","25.0456433333333","6500500","新莊區"
"242034","350-TH","2019/10/04 17:19:32","新北市新莊區瓊林路58號","121.445498333333","25.0286483333333","6500500","新莊區"
"242019","351-TH","2019/10/04 17:19:36","新北市新莊區新泰路221號","121.446576666667","25.0390966666667","6500500","新莊區"
"238023","601-UM","2019/10/04 17:19:31","新北市樹林區中正路439-1號","121.415056666667","25.0087116666667","6500700","樹林區"
"238019","599-UM","2019/10/04 17:19:41","新北市樹林區太平路269號","121.419458333333","24.973235","6500700","樹林區"
"238024","5061-A6","2019/10/04 17:19:42","新北市樹林區保安二街40巷49號","121.426338333333","24.9951","6500700","樹林區"
"238018","KEA-2217","2019/10/04 17:19:35","新北市板橋區篤行路三段98-1號","121.425628333333","24.985135","6500700","樹林區"
"238009","KEA-2213","2019/10/04 17:19:33","新北市樹林區仁愛街81號","121.42391","24.9829266666667","6500700","樹林區"
"238021","KEA-2539","2019/10/04 17:19:45","新北市樹林區西圳街一段65號","121.40048","24.962805","6500700","樹林區"
"238025","303-VK","2019/10/04 17:19:43","新北市樹林區保安二街40號","121.42464","24.9950283333333","6500700","樹林區"
"238017","283-BY","2019/10/04 17:19:36","新北市樹林區光武街34號","121.416656666667","25.0065566666667","6500700","樹林區"
"238014","282-BY","2019/10/04 17:19:28","新北市樹林區長壽街70巷1弄4號","121.421015","24.994765","6500700","樹林區"
"238020","268-VK","2019/10/04 17:19:29","新北市樹林區千歲街101號","121.428521666667","25.0008766666667","6500700","樹林區"
"238026","172-UY","2019/10/04 17:19:35","新北市樹林區東順街86號","121.408445","24.9756866666667","6500700","樹林區"
"238016","169-UY","2019/10/04 17:19:22","新北市樹林區中山路二段4號","121.417725","24.9851666666667","6500700","樹林區"
"239007","AAC-297","2019/10/04 17:19:39","新北市鶯歌區光復街15號","121.351578333333","24.95536","6500800","鶯歌區"
"239006","891-R6","2019/10/04 17:19:30","新北市鶯歌區福昌街26號","121.33291","24.9609816666667","6500800","鶯歌區"
"239008","527-UM","2019/10/04 17:19:40","新北市鶯歌區西湖街45巷13號","121.340016666667","24.958955","6500800","鶯歌區"
"239005","526-UM","2019/10/04 17:19:30","新北市鶯歌區福德四街14號","121.329516666667","24.9677716666667","6500800","鶯歌區"
"239001","417-VK","2019/10/04 17:19:39","新北市鶯歌區尖山路234號","121.34308","24.94677","6500800","鶯歌區"
"239003","360-BY","2019/10/04 17:19:22","新北市鶯歌區德昌二街71號","121.333388333333","24.9582783333333","6500800","鶯歌區"
"239002","359-BY","2019/10/04 17:19:31","新北市鶯歌區建國路258號","121.347581666667","24.953465","6500800","鶯歌區"
"239004","193-VK","2019/10/04 17:19:29","新北市鶯歌區文化路417-5號","121.352996666667","24.9488216666667","6500800","鶯歌區"
"244019","KED-0667","2019/10/04 17:19:39","新北市林口區公園路173號","121.371328333333","25.0719466666667","6501700","林口區"
"235062","KEA-2876","2019/10/04 17:19:38","新北市中和區員山路36巷16-3號","121.485146666667","24.9913566666667","6500300","中和區"
