"lineid","car","time","location","longitude","latitude","cityid","cityname"
"234026","9371-KE","2019/10/04 17:49:41","新北市永和區和平街109巷4號","121.510815","25.0097016666667","6500400","永和區"
"234011","9373-KE","2019/10/04 17:47:52","新北市永和區福和路1號","121.525533333333","25.00937","6500400","永和區"
"249005","172-UM","2019/10/04 17:49:35","新北市八里區荖阡坑路34-3號","121.402305","25.13165","6502300","八里區"
"249001","173-UM","2019/10/04 17:49:38","新北市八里區龍米路二段147巷7號","121.442541666667","25.1509666666667","6502300","八里區"
"249004","303-UY","2019/10/04 17:49:27","新北市八里區中華路一段259號","121.418673333333","25.156485","6502300","八里區"
"249002","305-UY","2019/10/04 17:49:35","新北市八里區龍形二街2號","121.450696666667","25.1312533333333","6502300","八里區"
"249003","593-UM","2019/10/04 17:49:34","新北市八里區文昌一街16號","121.410358333333","25.156385","6502300","八里區"
"248008","KED-0815","2019/10/04 17:49:33","新北市五股區中興路二段57-6號","121.4604","25.07538","6501500","五股區"
"248004","677-BX","2019/10/04 17:49:39","新北市五股區中興路二段37巷26號","121.460358333333","25.0749933333333","6501500","五股區"
"248002","678-BX","2019/10/04 17:49:26","新北市五股區中興路二段83巷26-3號","121.460148333333","25.07545","6501500","五股區"
"232011","375-UM","2019/10/04 17:49:42","新北市坪林區北宜路八段157號","121.707236666667","24.9344666666667","6502000","坪林區"
"244007","080-UY","2019/10/04 17:49:25","新北市林口區竹林路153號","121.388675","25.07975","6501700","林口區"
"244013","KEA-2802","2019/10/04 17:49:42","新北市林口區中山路71-3號","121.391565","25.0785916666667","6501700","林口區"
"244023","483-VK","2019/10/04 17:49:37","新北市林口區興林路48-6號","121.388935","25.07469","6501700","林口區"
"244017","485-VK","2019/10/04 17:49:41","新北市林口區文化二路一段260巷4號","121.371146666667","25.0732933333333","6501700","林口區"
"244009","656-BX","2019/10/04 17:49:28","新北市林口區竹林路564號","121.386745","25.0837383333333","6501700","林口區"
"244011","701-TV","2019/10/04 17:49:25","新北市林口區中正路150號","121.392568333333","25.0773483333333","6501700","林口區"
"244025","837-TS","2019/10/04 17:49:38","新北市林口區忠孝三路一段118號","121.359318333333","25.0712566666667","6501700","林口區"
"244021","838-TS","2019/10/04 17:49:43","新北市林口區新寮38號","121.400823333333","25.0658933333333","6501700","林口區"
"222003","436-BY","2019/10/04 17:49:34","新北市深坑區阿柔洋60-1號","121.608611666667","24.9985333333333","6501800","深坑區"
"222002","659-BX","2019/10/04 17:49:38","新北市深坑區平埔街22巷8號","121.614948333333","25.0008666666667","6501800","深坑區"
"241024","065-VK","2019/10/04 17:49:37","新北市三重區力行路二段9巷2號","121.482296666667","25.072245","6500200","三重區"
"241016","266-UM","2019/10/04 17:49:34","新北市三重區新北大道一段56號","121.487418333333","25.061435","6500200","三重區"
"241033","AAC-255","2019/10/04 17:49:26","新北市三重區重新路五段559號","121.470453333333","25.046035","6500200","三重區"
"235063","006-UY","2019/10/04 17:49:34","新北市中和區員山路36巷16-3號","121.484943333333","24.9912383333333","6500300","中和區"
"235065","098-UM","2019/10/04 17:49:38","新北市中和區中正路637巷52弄11號","121.484908333333","24.99372","6500300","中和區"
"235058","151-BY","2019/10/04 17:49:42","新北市中和區員山路36巷16-2號","121.485271666667","24.9916733333333","6500300","中和區"
"247016","KEA-2869","2019/10/04 17:49:32","新北市蘆洲區中正路185巷23弄24號","121.467516666667","25.0840383333333","6501400","蘆洲區"
"247010","KED-0682","2019/10/04 17:49:31","新北市蘆洲區信義路271巷16號","121.478191666667","25.0848516666667","6501400","蘆洲區"
"235045","565-BX","2019/10/04 17:49:32","新北市中和區員山路36巷13號","121.484236666667","24.9909783333333","6500300","中和區"
"235054","640-BX","2019/10/04 17:49:34","新北市中和區員山路36巷16-2號","121.485255","24.99159","6500300","中和區"
"235057","801-TS","2019/10/04 17:49:43","新北市中和區員山路36巷16-2號","121.485151666667","24.991585","6500300","中和區"
"235064","911-UM","2019/10/04 17:49:39","新北市中和區員山路36巷16-3號","121.485055","24.9914066666667","6500300","中和區"
"235037","AAC-213","2019/10/04 17:49:24","新北市中和區錦和路350-1號","121.490225","24.9935683333333","6500300","中和區"
"247006","893-R6","2019/10/04 17:49:35","新北市蘆洲區九芎街90巷10號","121.4656","25.0803166666667","6501400","蘆洲區"
"247020","546-UM","2019/10/04 17:49:40","新北市蘆洲區民權路188-3號","121.471498333333","25.0908316666667","6501400","蘆洲區"
"247004","336-TH","2019/10/04 17:49:41","新北市蘆洲區長榮路134號","121.461331666667","25.0845933333333","6501400","蘆洲區"
"247024","057-VK","2019/10/04 17:49:40","新北市蘆洲區光榮路63號","121.461105","25.0884533333333","6501400","蘆洲區"
"247014","056-VK","2019/10/04 17:49:35","新北市蘆洲區保和街50-9號","121.470135","25.0864","6501400","蘆洲區"
"247018","053-VK","2019/10/04 17:49:42","新北市蘆洲區復興路227巷2弄6號","121.480288333333","25.0901383333333","6501400","蘆洲區"
"247022","007-UY","2019/10/04 17:49:41","新北市蘆洲區中正路470號","121.462395","25.0952416666667","6501400","蘆洲區"
"247008","002-UY","2019/10/04 17:49:35","新北市蘆洲區中山一路200號","121.473633333333","25.0808066666667","6501400","蘆洲區"
"247002","001-UY","2019/10/04 17:49:32","新北市蘆洲區永平街32巷33弄8號","121.459095","25.0922233333333","6501400","蘆洲區"
"228002","663-BX","2019/10/04 17:49:27","新北市貢寮區福隆里外隆林街15-3號","121.958623333333","25.0038333333333","6502600","貢寮區"
"228001","670-TC","2019/10/04 17:49:31","新北市貢寮區真理里新港街26巷28-6號","121.927856666667","25.055405","6502600","貢寮區"
"228003","828-UM","2019/10/04 17:49:29","新北市貢寮區真理里美艷山街6-2號","121.928841666667","25.0607466666667","6502600","貢寮區"
"224006","676-BX","2019/10/04 17:49:26","新北市瑞芳區傑魚坑路183號","121.788471666667","25.108285","6501200","瑞芳區"
"224009","275-VK","2019/10/04 17:49:33","新北市瑞芳區新山路26號","121.852426666667","25.1094966666667","6501200","瑞芳區"
"224008","273-VK","2019/10/04 17:49:39","新北市瑞芳區明燈路一段131號","121.820051666667","25.10709","6501200","瑞芳區"
"224005","271-BY","2019/10/04 17:49:45","新北市瑞芳區建基路一段60號","121.817186666667","25.1275383333333","6501200","瑞芳區"
"227002","642-TC","2019/10/04 17:21:52","新北市雙溪區共和里東榮街52號","121.866335","25.0336866666667","6502500","雙溪區"
"227001","400-TW","2019/10/04 17:49:36","新北市雙溪區三貂里定福路1-2號","121.850705","25.0633916666667","6502500","雙溪區"
"253006","295-VK","2019/10/04 17:49:28","新北市石門區大丘田6號","121.547243333333","25.285225","6502200","石門區"
"251005","010-UM","2019/10/04 17:49:26","新北市淡水區學府路102巷2號","121.450395","25.1719866666667","6501000","淡水區"
"251002","012-UM","2019/10/04 17:49:35","新北市淡水區中山路93號","121.442361666667","25.1705483333333","6501000","淡水區"
"251004","180-VK","2019/10/04 17:49:27","新北市淡水區民權一街17巷2號","121.458701666667","25.1364966666667","6501000","淡水區"
"251008","181-VK","2019/10/04 17:49:35","新北市淡水區八勢路一段156號","121.468133333333","25.1564483333333","6501000","淡水區"
"251010","413-VK","2019/10/04 17:49:28","新北市淡水區中正路二段12號","121.420508333333","25.1806883333333","6501000","淡水區"
"251007","442-VK","2019/10/04 17:49:42","新北市淡水區民生路16巷3號","121.461098333333","25.1375533333333","6501000","淡水區"
"251012","443-VK","2019/10/04 17:49:24","新北市淡水區北新路一段403號","121.468263333333","25.182905","6501000","淡水區"
"251006","561-UM","2019/10/04 17:49:25","新北市淡水區大信街1巷16號","121.440233333333","25.1768116666667","6501000","淡水區"
"251009","575-R6","2019/10/04 17:49:40","新北市淡水區長興街16-3號","121.443908333333","25.1708883333333","6501000","淡水區"
"251011","650-BX","2019/10/04 17:49:42","新北市淡水區小坪頂13-3號","121.486606666667","25.1561833333333","6501000","淡水區"
"251003","766-UM","2019/10/04 17:49:43","新北市淡水區大忠街5巷2號","121.443143333333","25.1763666666667","6501000","淡水區"
"207003","550-UM","2019/10/04 17:49:25","新北市萬里區野柳里東澳路66號","121.692813333333","25.2009566666667","6502800","萬里區"
"207004","291-VK","2019/10/04 17:49:39","新北市萬里區萬里里瑪鋉路79號","121.688406666667","25.176585","6502800","萬里區"
"252002","178-VK","2019/10/04 17:49:41","新北市三芝區智成街10號","121.502998333333","25.2567366666667","6502100","三芝區"
"237009","210-TH","2019/10/04 17:49:35","新北市三峽區大勇路3巷23號","121.367883333333","24.9367816666667","6500900","三峽區"
"237013","252-BX","2019/10/04 17:49:37","新北市三峽區介壽路一段69號","121.37571","24.9325","6500900","三峽區"
"237012","275-BY","2019/10/04 17:49:30","新北市三峽區復興路1號","121.374473333333","24.9357916666667","6500900","三峽區"
"237008","302-VK","2019/10/04 17:49:32","新北市三峽區中園街237-1號","121.366811666667","24.9194966666667","6500900","三峽區"
"237014","433-BY","2019/10/04 17:49:34","新北市三峽區和平街36巷19號","121.371303333333","24.9370216666667","6500900","三峽區"
"237006","5529-G3","2019/10/04 17:49:25","新北市三峽區介壽路二段2號","121.389713333333","24.9347016666667","6500900","三峽區"
"237011","KEA-2596","2019/10/04 17:49:41","新北市三峽區民權街132號","121.368536666667","24.932005","6500900","三峽區"
"237010","706-TV","2019/10/04 17:49:26","新北市三峽區復興路235號","121.368241666667","24.938685","6500900","三峽區"
"237005","AKY-6261","2019/10/04 17:49:40","新北市三峽區中山路365-1號","121.358008333333","24.9367066666667","6500900","三峽區"
"236042","KED-0685","2019/10/04 17:49:42","新北市土城區城林路6巷80號","121.438503333333","24.9795866666667","6501300","土城區"
"233002","762-BX","2019/10/04 17:49:25","新北市烏來區烏來街6號","121.5514","24.8651","6502900","烏來區"
"236079","166-UM","2019/10/04 17:49:41","新北市土城區中央路三段180號","121.430775","24.9650566666667","6501300","土城區"
"236030","253-BX","2019/10/04 17:49:26","新北市土城區城林路6巷80號","121.438653333333","24.9796666666667","6501300","土城區"
"236014","270-VK","2019/10/04 17:49:35","新北市土城區城林路6巷80號","121.438421666667","24.9795483333333","6501300","土城區"
"236039","271-VK","2019/10/04 17:49:39","新北市土城區城林路6巷80號","121.438426666667","24.9797416666667","6501300","土城區"
"247012","KED-0683","2019/10/04 17:49:30","新北市蘆洲區復興路109號","121.477105","25.0879433333333","6501400","蘆洲區"
"236069","KEA-2877","2019/10/04 17:49:32","新北市土城區城林路6巷80號","121.438506666667","24.9797783333333","6501300","土城區"
"252001","KED-0821","2019/10/04 17:49:22","新北市三芝區中興街一段28號","121.49766","25.25788","6502100","三芝區"
"236020","401-BY","2019/10/04 17:49:35","新北市土城區城林路6巷80號","121.43855","24.979745","6501300","土城區"
"236059","912-UM","2019/10/04 17:49:41","新北市土城區中華路二段257號","121.437503333333","24.97106","6501300","土城區"
"236048","913-UM","2019/10/04 17:49:36","新北市土城區城林路6巷80號","121.438566666667","24.9797083333333","6501300","土城區"
"236063","915-UM","2019/10/04 17:49:32","新北市土城區城林路6巷80號","121.438475","24.979785","6501300","土城區"
"236055","AAC-216","2019/10/04 17:49:28","新北市土城區中華路二段62號","121.43901","24.9768016666667","6501300","土城區"
"242041","AAC-296","2019/10/04 17:49:22","新北市泰山區貴陽街29號","121.422315","25.03324","6500500","新莊區"
"242060","986-R7","2019/10/04 17:49:30","新北市新莊區瓊林南路118-43號","121.434246666667","25.009855","6500500","新莊區"
"242005","751-BX","2019/10/04 17:49:44","新北市新莊區自立街246號","121.458715","25.0455133333333","6500500","新莊區"
"242029","615-BX","2019/10/04 17:49:32","新北市新莊區新泰路316號","121.44522","25.0415733333333","6500500","新莊區"
"242027","613-BX","2019/10/04 17:49:25","新北市新莊區福壽街139號","121.457973333333","25.052655","6500500","新莊區"
"242058","612-BX","2019/10/04 17:49:41","新北市新莊區中正路700-21號","121.417971666667","25.0270483333333","6500500","新莊區"
"242054","497-BY","2019/10/04 17:49:30","新北市新莊區新樹路585號","121.432918333333","25.0067483333333","6500500","新莊區"
"242048","442-UM","2019/10/04 17:49:26","新北市新莊區萬安街60巷3號","121.420693333333","25.0235416666667","6500500","新莊區"
"242002","441-UM","2019/10/04 17:49:24","新北市新莊區新莊路447號","121.4498","25.033435","6500500","新莊區"
"242007","440-UM","2019/10/04 17:49:26","新北市新莊區福樂街106號","121.457468333333","25.04774","6500500","新莊區"
"242044","415-TV","2019/10/04 17:49:38","新北市新莊區富國路87號","121.420391666667","25.02584","6500500","新莊區"
"242013","413-TV","2019/10/04 17:49:41","新北市新莊區中泰街104巷5弄8號","121.44827","25.04697","6500500","新莊區"
"242050","400-BY","2019/10/04 17:49:45","新北市新莊區西盛街245巷21號","121.428921666667","25.0161316666667","6500500","新莊區"
"242025","362-BY","2019/10/04 17:49:27","新北市新莊區新北大道二段231號","121.461611666667","25.0604966666667","6500500","新莊區"
"242023","353-BY","2019/10/04 17:49:35","新北市新莊區福樂街76號","121.45766","25.0466766666667","6500500","新莊區"
"242015","132-UY","2019/10/04 17:49:32","新北市新莊區新泰路486號","121.442616666667","25.04577","6500500","新莊區"
"242039","135-UY","2019/10/04 17:49:23","新北市新莊區民安路144巷1號","121.424491666667","25.0250833333333","6500500","新莊區"
"242056","172-VK","2019/10/04 17:49:42","新北市新莊區瓊林路42-1號","121.44748","25.0295816666667","6500500","新莊區"
"242017","173-VK","2019/10/04 17:49:39","新北市新莊區永安街56號","121.45127","25.04474","6500500","新莊區"
"242032","175-VK","2019/10/04 17:49:31","新北市新莊區新泰路357巷1弄1號","121.44285","25.0412716666667","6500500","新莊區"
"242021","KED-0687","2019/10/04 17:49:30","新北市新莊區公園路184號","121.454178333333","25.040225","6500500","新莊區"
"242011","346-TH","2019/10/04 17:49:39","新北市新莊區中港路699號","121.450661666667","25.0570533333333","6500500","新莊區"
"242037","348-TH","2019/10/04 17:49:25","新北市新莊區後港一路89號","121.427693333333","25.026815","6500500","新莊區"
"242009","349-TH","2019/10/04 17:49:35","新北市新莊區昌明街42號","121.456316666667","25.0522216666667","6500500","新莊區"
"242034","350-TH","2019/10/04 17:49:32","新北市新莊區新樹路13號","121.440705","25.032925","6500500","新莊區"
"242019","351-TH","2019/10/04 17:49:36","新北市新莊區民樂街53號","121.457966666667","25.0414083333333","6500500","新莊區"
"238015","755-BX","2019/10/04 17:49:39","新北市樹林區復興路143號","121.421281666667","24.9925766666667","6500700","樹林區"
"238023","601-UM","2019/10/04 17:49:31","新北市樹林區龍興街32巷36號","121.401611666667","25.0156233333333","6500700","樹林區"
"238019","599-UM","2019/10/04 17:49:41","新北市樹林區太平路127巷6弄1號","121.419753333333","24.9805283333333","6500700","樹林區"
"238018","KEA-2217","2019/10/04 17:49:35","新北市樹林區博愛街139號","121.425796666667","24.990415","6500700","樹林區"
"238022","KEA-2213","2019/10/04 17:49:33","新北市樹林區太順街62巷3弄9號","121.417311666667","24.979545","6500700","樹林區"
"238021","KEA-2539","2019/10/04 17:49:45","新北市樹林區柑園街一段1-9號","121.405716666667","24.9617533333333","6500700","樹林區"
"238025","303-VK","2019/10/04 17:49:42","新北市樹林區三俊街172號","121.417738333333","25.015495","6500700","樹林區"
"238017","283-BY","2019/10/04 17:49:36","新北市樹林區俊德街40號","121.415236666667","25.01394","6500700","樹林區"
"238014","282-BY","2019/10/04 17:49:37","新北市樹林區大安路125巷19號","121.423061666667","24.9969666666667","6500700","樹林區"
"238020","268-VK","2019/10/04 17:49:29","新北市樹林區俊英街252號","121.424495","25.011025","6500700","樹林區"
"238026","172-UY","2019/10/04 17:49:35","新北市樹林區八德街502號","121.399731666667","24.97024","6500700","樹林區"
"238016","169-UY","2019/10/04 17:49:42","新北市樹林區復興路288號","121.417576666667","24.9876916666667","6500700","樹林區"
"239007","AAC-297","2019/10/04 17:49:39","新北市鶯歌區永利街36號","121.339456666667","24.9545866666667","6500800","鶯歌區"
"239006","891-R6","2019/10/04 17:49:30","新北市鶯歌區鳳鳴路160號","121.334663333333","24.967625","6500800","鶯歌區"
"239008","527-UM","2019/10/04 17:49:40","新北市鶯歌區大湖路718號","121.332951666667","24.97634","6500800","鶯歌區"
"239005","526-UM","2019/10/04 17:49:30","新北市鶯歌區鳳吉四街49號","121.327486666667","24.9732833333333","6500800","鶯歌區"
"239001","417-VK","2019/10/04 17:49:19","新北市鶯歌區中正三路328號","121.327803333333","24.9350566666667","6500800","鶯歌區"
"239003","360-BY","2019/10/04 17:49:42","新北市鶯歌區鶯桃路285巷2-5號","121.334353333333","24.959105","6500800","鶯歌區"
"239002","359-BY","2019/10/04 17:49:31","新北市鶯歌區育賢街2號","121.344898333333","24.954635","6500800","鶯歌區"
"239004","193-VK","2019/10/04 17:49:29","新北市鶯歌區文化路393巷2弄2號","121.352828333333","24.950665","6500800","鶯歌區"
"221008","489-VK","2019/10/04 17:49:28","新北市汐止區康寧街901號","121.651496666667","25.0750533333333","6501100","汐止區"
"244019","KED-0667","2019/10/04 17:49:39","新北市林口區忠孝路528號","121.372298333333","25.0684033333333","6501700","林口區"
"221010","269-BY","2019/10/04 17:49:37","新北市汐止區汐萬路二段101號","121.648353333333","25.0833783333333","6501100","汐止區"
"221015","279-VK","2019/10/04 17:49:31","新北市汐止區康寧街753巷1-1號","121.63908","25.0737416666667","6501100","汐止區"
"221029","298-VK","2019/10/04 17:49:37","新北市汐止區康寧街901號","121.651608333333","25.0748916666667","6501100","汐止區"
"221031","353-TW","2019/10/04 17:49:29","新北市汐止區連峰街1巷1號","121.646343333333","25.07606","6501100","汐止區"
"242046","281-VK","2019/10/04 17:49:26","新北市新莊區建國一路49號","121.434445","25.0305333333333","6500500","新莊區"
"235061","KEA-2875","2019/10/04 17:22:44","新北市中和區員山路36巷16-2號","121.485286666667","24.991695","6500300","中和區"
"235062","KEA-2876","2019/10/04 17:49:30","新北市中和區員山路36巷16-3號","121.48501","24.99149","6500300","中和區"
