"lineid","car","time","location","longitude","latitude","cityid","cityname"
"234081","298-R6","2019/10/04 18:19:28","新北市永和區福和路1號","121.526506666667","25.00998","6500400","永和區"
"234007","KED-0605","2019/10/04 18:19:30","新北市永和區環河西路二段219號","121.50125","25.0102066666667","6500400","永和區"
"234026","9371-KE","2019/10/04 18:19:40","新北市永和區豫溪街42巷3號","121.515531666667","25.0096383333333","6500400","永和區"
"234011","9373-KE","2019/10/04 18:19:30","新北市永和區環河東路二段92號","121.524321666667","25.0106","6500400","永和區"
"249005","172-UM","2019/10/04 18:19:35","新北市八里區荖阡坑路15-22號","121.400045","25.1407116666667","6502300","八里區"
"249001","173-UM","2019/10/04 18:19:38","新北市八里區龍米路一段125號","121.452306666667","25.1265983333333","6502300","八里區"
"249004","303-UY","2019/10/04 18:19:27","新北市八里區龍米路二段232巷3號","121.431556666667","25.1589733333333","6502300","八里區"
"249002","305-UY","2019/10/04 18:19:35","新北市八里區龍形二街37號","121.450316666667","25.1329283333333","6502300","八里區"
"249003","593-UM","2019/10/04 18:19:34","新北市八里區文昌路101號","121.408656666667","25.1588966666667","6502300","八里區"
"248016","026-BX","2019/10/04 18:19:38","新北市五股區成泰路三段477巷18號","121.4499","25.098905","6501500","五股區"
"248006","077-UY","2019/10/04 18:19:30","新北市五股區四維路91號","121.46696","25.0730783333333","6501500","五股區"
"248008","KED-0815","2019/10/04 18:19:33","新北市五股區更洲路32巷8弄14號","121.45924","25.079625","6501500","五股區"
"248018","KED-0813","2019/10/04 18:19:25","新北市五股區御史路205-1號","121.431378333333","25.1006183333333","6501500","五股區"
"248012","247-BX","2019/10/04 18:19:32","新北市五股區御史路1巷101弄2號","121.440896666667","25.0912166666667","6501500","五股區"
"248014","261-SL","2019/10/04 18:19:31","新北市五股區成泰路一段171巷13號","121.434391666667","25.074385","6501500","五股區"
"248004","677-BX","2019/10/04 18:19:39","新北市五股區工商路84-1號","121.437971666667","25.0851333333333","6501500","五股區"
"248002","678-BX","2019/10/04 18:19:26","新北市五股區西雲路46號","121.443466666667","25.090875","6501500","五股區"
"248010","682-TV","2019/10/04 18:19:32","新北市五股區成泰路一段175號","121.435043333333","25.07551","6501500","五股區"
"232011","375-UM","2019/10/04 18:19:42","新北市坪林區坪雙路一段43號","121.711791666667","24.942515","6502000","坪林區"
"244007","080-UY","2019/10/04 18:19:25","新北市林口區後湖11-63號","121.387046666667","25.0976066666667","6501700","林口區"
"244013","KEA-2802","2019/10/04 18:19:42","新北市林口區信義路58-6號","121.382481666667","25.0787583333333","6501700","林口區"
"244023","483-VK","2019/10/04 18:19:37","新北市林口區仁愛路二段145號","121.382641666667","25.0742466666667","6501700","林口區"
"244017","485-VK","2019/10/04 18:19:41","新北市林口區公園路41號","121.367241666667","25.0682316666667","6501700","林口區"
"244009","656-BX","2019/10/04 18:19:28","新北市林口區文林一街115巷22號","121.378881666667","25.087735","6501700","林口區"
"244011","701-TV","2019/10/04 18:19:25","新北市林口區中正路122號","121.393355","25.0772916666667","6501700","林口區"
"244025","837-TS","2019/10/04 18:19:38","新北市林口區南勢七街51號","121.355646666667","25.0690516666667","6501700","林口區"
"244021","838-TS","2019/10/04 18:19:43","新北市林口區自強三街7號","121.3974","25.077915","6501700","林口區"
"243013","646-TV","2019/10/04 18:19:33","新北市泰山區南林路99巷1-1號","121.415338333333","25.0511","6501600","泰山區"
"222003","436-BY","2019/10/04 18:19:34","新北市深坑區旺耽路67號","121.626186666667","25.002975","6501800","深坑區"
"222002","659-BX","2019/10/04 18:19:38","新北市深坑區雲鄉路59號","121.621383333333","24.9990933333333","6501800","深坑區"
"231061","002-UM","2019/10/04 18:19:38","新北市新店區安華路28-1號","121.519678333333","24.9605283333333","6500600","新店區"
"231058","0293-UT","2019/10/04 18:19:22","新北市新店區安康路一段50號","121.530243333333","24.9611266666667","6500600","新店區"
"231044","046-UY","2019/10/04 18:19:26","新北市新店區安華路28-1號","121.519396666667","24.9609","6500600","新店區"
"231060","106-UY","2019/10/04 18:19:29","新北市新店區安華路28-1號","121.519606666667","24.9608133333333","6500600","新店區"
"231051","107-UY","2019/10/04 18:19:43","新北市新店區安一路一段1-1號","121.519718333333","24.96111","6500600","新店區"
"231042","268-BY","2019/10/04 18:19:30","新北市新店區安一路一段1-1號","121.519706666667","24.9613616666667","6500600","新店區"
"231064","278-BY","2019/10/04 18:19:42","新北市新店區安一路一段1-1號","121.519701666667","24.96118","6500600","新店區"
"231050","AAD-862","2019/10/04 18:19:43","新北市新店區安一路一段1-1號","121.51982","24.9610716666667","6500600","新店區"
"231045","355-BY","2019/10/04 18:19:25","新北市新店區安華路28-1號","121.519233333333","24.9609166666667","6500600","新店區"
"231055","4716-K9","2019/10/04 18:19:29","新北市新店區安康路一段35-1號","121.532045","24.96065","6500600","新店區"
"231056","4715-K9","2019/10/04 18:19:44","新北市新店區中央路230號","121.529503333333","24.9727033333333","6500600","新店區"
"231053","515-UM","2019/10/04 18:19:43","新北市新店區安康路一段11號","121.53327","24.9603966666667","6500600","新店區"
"231041","619-UM","2019/10/04 18:19:34","新北市新店區安一路一段1-1號","121.519556666667","24.96107","6500600","新店區"
"231046","719-UM","2019/10/04 17:51:04","新北市新店區下石厝路19-1號","121.532231666667","24.9274183333333","6500600","新店區"
"231057","720-UM","2019/10/04 18:19:26","新北市新店區安一路一段1-1號","121.519303333333","24.9611983333333","6500600","新店區"
"231059","897-TW","2019/10/04 18:19:38","新北市新店區安華路28-1號","121.519568333333","24.960755","6500600","新店區"
"231040","898-TW","2019/10/04 18:19:25","新北市新店區安華路28-1號","121.519445","24.9609666666667","6500600","新店區"
"231043","899-TW","2019/10/04 18:19:26","新北市新店區安華路28-1號","121.519283333333","24.9608483333333","6500600","新店區"
"231066","AKT-0513","2019/10/04 18:19:36","新北市新店區安華路28-1號","121.519345","24.960595","6500600","新店區"
"241033","AAC-255","2019/10/04 18:19:26","新北市三重區光復路一段49號","121.472251666667","25.04879","6500200","三重區"
"235066","003-UY","2019/10/04 18:19:31","新北市中和區景平路517號","121.499215","24.998735","6500300","中和區"
"235063","006-UY","2019/10/04 18:19:34","新北市中和區連城路347巷16弄6號","121.48809","24.995105","6500300","中和區"
"235056","096-UM","2019/10/04 18:19:32","新北市中和區員山路611巷5弄1號","121.477931666667","25.01118","6500300","中和區"
"235065","098-UM","2019/10/04 18:19:38","新北市中和區莊敬路49巷18號","121.501646666667","25.0061933333333","6500300","中和區"
"235040","150-BY","2019/10/04 18:19:40","新北市中和區安平路59號","121.509558333333","24.99515","6500300","中和區"
"235058","151-BY","2019/10/04 18:19:22","新北市中和區圓通路369巷35號","121.489446666667","24.9866183333333","6500300","中和區"
"235055","183-VK","2019/10/04 18:19:37","新北市土城區金城路三段269號","121.47264","24.9902166666667","6500300","中和區"
"235038","185-VK","2019/10/04 18:19:33","新北市中和區自立路46號","121.523031666667","24.992245","6500300","中和區"
"235072","301-VK","2019/10/04 18:19:44","新北市中和區連城路237-1號","121.493736666667","24.997255","6500300","中和區"
"235043","352-BY","2019/10/04 18:19:29","新北市中和區景平路502-1號","121.504026666667","24.99359","6500300","中和區"
"235042","KEA-2878","2019/10/04 18:19:29","新北市中和區景平路280號","121.513696666667","24.9925833333333","6500300","中和區"
"235050","4979-A6","2019/10/04 18:19:43","新北市中和區捷運路6號","121.510008333333","24.98946","6500300","中和區"
"235069","4980-A6","2019/10/04 18:19:42","新北市中和區連城路144巷2號","121.495546666667","24.998635","6500300","中和區"
"235070","558-UM","2019/10/04 18:19:37","新北市中和區景平路566號","121.501983333333","24.9954233333333","6500300","中和區"
"235045","565-BX","2019/10/04 18:19:43","新北市中和區南山路236巷22弄14號","121.505251666667","24.9892316666667","6500300","中和區"
"235060","KED-0823","2019/10/04 18:19:34","新北市中和區員山路395號","121.481195","25.0030916666667","6500300","中和區"
"235054","640-BX","2019/10/04 18:19:34","新北市中和區民享街112號","121.4746","24.9992316666667","6500300","中和區"
"235047","732-UM","2019/10/04 18:19:36","新北市中和區復興路303號","121.501501666667","24.9902833333333","6500300","中和區"
"235057","801-TS","2019/10/04 18:19:23","新北市中和區民安街49號","121.479628333333","25.0001","6500300","中和區"
"235041","802-TS","2019/10/04 18:19:32","新北市中和區板南路218號","121.49805","24.9938833333333","6500300","中和區"
"235052","805-TS","2019/10/04 18:19:25","新北市中和區興南路二段44號","121.50678","24.985165","6500300","中和區"
"235048","896-TW","2019/10/04 18:19:34","新北市中和區中正路273號","121.495593333333","24.9937933333333","6500300","中和區"
"235053","900-TW","2019/10/04 18:19:26","新北市中和區員山路72號","121.480935","24.99356","6500300","中和區"
"235064","911-UM","2019/10/04 18:19:39","新北市中和區圓通路122號","121.498885","24.9958183333333","6500300","中和區"
"235051","157-BY","2019/10/04 18:19:42","新北市中和區興南路二段142巷17弄32號","121.502718333333","24.9827383333333","6500300","中和區"
"235037","AAC-213","2019/10/04 18:19:24","新北市中和區景德街95號","121.515711666667","24.99132","6500300","中和區"
"235059","AAC-215","2019/10/04 18:19:26","新北市中和區員山路36巷16-3號","121.485085","24.9913883333333","6500300","中和區"
"220065","072-UY","2019/10/04 18:19:23","新北市板橋區華東街1-9號","121.448205","24.9949883333333","6500100","板橋區"
"226004","312-R5","2019/10/04 18:19:43","新北市平溪區薯榔里一坑路26號","121.713601666667","25.021825","6502400","平溪區"
"235049","251-BX","2019/10/04 18:19:39","新北市中和區中正路637巷52弄1號","121.485463333333","24.99345","6500300","中和區"
"228002","663-BX","2019/10/04 18:19:47","新北市貢寮區福連里馬崗街2-7號","121.999295","25.0160033333333","6502600","貢寮區"
"228001","670-TC","2019/10/04 18:19:31","新北市貢寮區真理里新港街26巷55弄2-1號","121.927353333333","25.0528683333333","6502600","貢寮區"
"228003","828-UM","2019/10/04 18:19:29","新北市貢寮區真理里美艷山街64-2號","121.920215","25.072275","6502600","貢寮區"
"224010","AGQ-8101","2019/10/04 18:19:38","新北市瑞芳區崙頂路25-1號","121.84535","25.106695","6501200","瑞芳區"
"224006","676-BX","2019/10/04 18:19:46","新北市瑞芳區三爪子坑路32巷126號","121.809126666667","25.106235","6501200","瑞芳區"
"224007","285-BY","2019/10/04 18:19:27","新北市瑞芳區大埔路國宅新村1號","121.76488","25.10084","6501200","瑞芳區"
"224009","275-VK","2019/10/04 18:19:33","新北市瑞芳區祈堂路183號","121.857301666667","25.10951","6501200","瑞芳區"
"224008","273-VK","2019/10/04 18:19:39","新北市瑞芳區逢甲路66號","121.811165","25.10835","6501200","瑞芳區"
"224005","271-BY","2019/10/04 18:19:24","新北市瑞芳區台電新村1-2號","121.81411","25.12926","6501200","瑞芳區"
"227002","642-TC","2019/10/04 18:19:42","新北市雙溪區共和里中山路2號","121.863795","25.033765","6502500","雙溪區"
"227001","400-TW","2019/10/04 18:19:36","新北市雙溪區牡丹里牡丹73號","121.851713333333","25.0593683333333","6502500","雙溪區"
"253005","032-BX","2019/10/04 18:19:36","新北市石門區中央路46號","121.567983333333","25.29295","6502200","石門區"
"253006","295-VK","2019/10/04 18:19:28","新北市石門區老梅路63號","121.545811666667","25.2892483333333","6502200","石門區"
"222001","KEA-2212","2019/10/04 18:19:32","新北市深坑區北深路二段56號","121.619193333333","25.0042566666667","6501800","深坑區"
"208002","KEA-2872","2019/10/04 18:19:33","新北市金山區清泉里清水路60巷20號","121.634491666667","25.2319466666667","6502700","金山區"
"208003","665-BX","2019/10/04 18:19:38","新北市金山區中山路116號","121.639366666667","25.2199216666667","6502700","金山區"
"251005","010-UM","2019/10/04 18:19:26","新北市淡水區水源街一段122巷35號","121.447143333333","25.1707283333333","6501000","淡水區"
"251001","011-UM","2019/10/04 18:19:27","新北市淡水區自強路108-19號","121.461601666667","25.1313916666667","6501000","淡水區"
"251002","012-UM","2019/10/04 18:19:35","新北市淡水區中正東路一段125號","121.45525","25.1594633333333","6501000","淡水區"
"251004","180-VK","2019/10/04 18:19:27","新北市淡水區民族路152號","121.462618333333","25.133795","6501000","淡水區"
"251008","181-VK","2019/10/04 18:19:35","新北市淡水區淡金路10-1號","121.457603333333","25.16007","6501000","淡水區"
"251010","413-VK","2019/10/04 18:19:28","新北市淡水區淡海路180巷12-3號","121.420438333333","25.1846883333333","6501000","淡水區"
"251012","443-VK","2019/10/04 18:19:44","新北市淡水區北新路三段10號","121.482638333333","25.1853616666667","6501000","淡水區"
"251006","561-UM","2019/10/04 18:19:25","新北市淡水區新民街76巷36弄1號","121.439431666667","25.1779816666667","6501000","淡水區"
"251011","650-BX","2019/10/04 18:19:23","新北市淡水區三空泉9-1號","121.474711666667","25.1629116666667","6501000","淡水區"
"251003","766-UM","2019/10/04 18:19:43","新北市淡水區北新路180號","121.449453333333","25.1786716666667","6501000","淡水區"
"207003","550-UM","2019/10/04 18:19:36","新北市萬里區野柳里港西路74號","121.68565","25.204965","6502800","萬里區"
"207004","291-VK","2019/10/04 18:19:41","新北市萬里區中幅里中福路197號","121.672763333333","25.1651033333333","6502800","萬里區"
"252002","178-VK","2019/10/04 18:19:41","新北市三芝區中山路二段39號","121.5029","25.25509","6502100","三芝區"
"252003","249-BX","2019/10/04 18:19:38","新北市三芝區錫板里南勢崗5-1號","121.480216666667","25.2627483333333","6502100","三芝區"
"208001","170-UY","2019/10/04 18:19:40","新北市金山區自強路22號","121.640338333333","25.2167733333333","6502700","金山區"
"237004","KEA-2597","2019/10/04 18:19:36","新北市三峽區五寮30-1號","121.37423","24.8701416666667","6500900","三峽區"
"237007","153-BY","2019/10/04 18:19:25","新北市三峽區中正路二段582號","121.359348333333","24.905895","6500900","三峽區"
"237009","210-TH","2019/10/04 18:19:28","新北市三峽區中山路154號","121.364978333333","24.9365033333333","6500900","三峽區"
"237013","252-BX","2019/10/04 18:19:37","新北市三峽區永安街43號","121.376191666667","24.930145","6500900","三峽區"
"237012","275-BY","2019/10/04 18:19:45","新北市三峽區三樹路100號","121.378248333333","24.9389183333333","6500900","三峽區"
"237008","302-VK","2019/10/04 18:19:32","新北市三峽區白雞68-177號","121.391645","24.90772","6500900","三峽區"
"237014","433-BY","2019/10/04 18:19:34","新北市三峽區復興路59號","121.373196666667","24.937175","6500900","三峽區"
"237006","5529-G3","2019/10/04 18:19:45","新北市三峽區溪東路235號","121.406678333333","24.93261","6500900","三峽區"
"237011","KEA-2596","2019/10/04 18:19:41","新北市三峽區溪東路107號","121.402035","24.9344533333333","6500900","三峽區"
"237015","649-BX","2019/10/04 18:19:41","新北市三峽區竹崙路24號","121.427788333333","24.9224966666667","6500900","三峽區"
"237010","706-TV","2019/10/04 18:19:25","新北市三峽區民權街147號","121.368871666667","24.93164","6500900","三峽區"
"237005","AKY-6261","2019/10/04 18:19:40","新北市三峽區長福街12號","121.370341666667","24.9336483333333","6500900","三峽區"
"236042","KED-0685","2019/10/04 18:19:42","新北市土城區裕生路34號","121.448018333333","24.987085","6501300","土城區"
"236079","166-UM","2019/10/04 18:19:41","新北市土城區永平街21號","121.428308333333","24.9625016666667","6501300","土城區"
"236030","253-BX","2019/10/04 18:19:34","新北市土城區順風路63號","121.44015","24.9772833333333","6501300","土城區"
"236026","269-VK","2019/10/04 18:19:28","新北市土城區承天路67號","121.439413333333","24.9637","6501300","土城區"
"236014","270-VK","2019/10/04 18:19:35","新北市土城區青雲路39巷7號","121.460303333333","24.987405","6501300","土城區"
"236039","271-VK","2019/10/04 18:19:39","新北市土城區青雲路483巷9號","121.459385","24.9735983333333","6501300","土城區"
"236069","KEA-2877","2019/10/04 18:19:31","新北市土城區永豐路202巷14號","121.466453333333","24.9835233333333","6501300","土城區"
"252001","KED-0821","2019/10/04 18:19:42","新北市三芝區中興街二段2號","121.498391666667","25.256695","6502100","三芝區"
"236020","401-BY","2019/10/04 18:19:34","新北市土城區明德路一段295號","121.460023333333","24.977255","6501300","土城區"
"236059","912-UM","2019/10/04 18:19:41","新北市土城區中央路四段466號","121.409993333333","24.9505866666667","6501300","土城區"
"236048","913-UM","2019/10/04 18:19:37","新北市土城區明德路一段375-3號","121.454398333333","24.9783533333333","6501300","土城區"
"236063","915-UM","2019/10/04 18:19:32","新北市土城區金城路三段202-3號","121.469566666667","24.9886233333333","6501300","土城區"
"236055","AAC-216","2019/10/04 18:19:35","新北市土城區中華路二段174號","121.437403333333","24.9719633333333","6501300","土城區"
"242041","AAC-296","2019/10/04 18:19:42","新北市新莊區天祥街84號","121.41558","25.0293866666667","6500500","新莊區"
"242060","986-R7","2019/10/04 18:19:32","新北市新莊區新樹路207-7號","121.435858333333","25.0239233333333","6500500","新莊區"
"242005","751-BX","2019/10/04 18:19:44","新北市新莊區新泰路357巷2-2號","121.442055","25.0413966666667","6500500","新莊區"
"242027","613-BX","2019/10/04 18:19:25","新北市新莊區幸福路815號","121.445571666667","25.0490833333333","6500500","新莊區"
"242058","612-BX","2019/10/04 18:19:28","新北市新莊區新北大道七段626號","121.412108333333","25.0284","6500500","新莊區"
"242054","497-BY","2019/10/04 18:19:30","新北市新莊區民安西路392-7號","121.428568333333","25.0097116666667","6500500","新莊區"
"242002","441-UM","2019/10/04 18:19:24","新北市新莊區碧江街18-7號","121.455428333333","25.0346366666667","6500500","新莊區"
"242007","440-UM","2019/10/04 18:19:26","新北市新莊區自治街42號","121.454258333333","25.0479116666667","6500500","新莊區"
"242044","415-TV","2019/10/04 18:19:38","新北市新莊區天泉二街1號","121.41531","25.0245966666667","6500500","新莊區"
"242050","400-BY","2019/10/04 18:19:45","新北市新莊區民本街3號","121.427611666667","25.0199916666667","6500500","新莊區"
"242025","362-BY","2019/10/04 18:19:39","新北市新莊區五工三路94巷2號","121.458333333333","25.065535","6500500","新莊區"
"242015","132-UY","2019/10/04 18:19:33","新北市新莊區中和街122號","121.447475","25.047755","6500500","新莊區"
"242056","172-VK","2019/10/04 18:19:34","新北市新莊區中環路一段8號","121.442695","25.0262283333333","6500500","新莊區"
"242032","175-VK","2019/10/04 18:19:43","新北市新莊區新泰路255巷82號","121.442816666667","25.0396","6500500","新莊區"
"242021","KED-0687","2019/10/04 18:19:10","新北市新莊區中正路225號","121.45067","25.0357583333333","6500500","新莊區"
"242011","346-TH","2019/10/04 18:19:38","新北市新莊區中港路591巷23號","121.44991","25.0523166666667","6500500","新莊區"
"242009","349-TH","2019/10/04 18:19:41","新北市新莊區昌盛街15號","121.453221666667","25.0500816666667","6500500","新莊區"
"238015","755-BX","2019/10/04 18:19:39","新北市樹林區文化街90號","121.41687","24.9891916666667","6500700","樹林區"
"238023","601-UM","2019/10/04 18:19:30","新北市樹林區中正路815號","121.40936","25.0170333333333","6500700","樹林區"
"238019","599-UM","2019/10/04 18:19:41","新北市樹林區水源街42號","121.42564","24.98135","6500700","樹林區"
"238024","5061-A6","2019/10/04 18:19:42","新北市樹林區保安街一段128號","121.423098333333","24.9950333333333","6500700","樹林區"
"238018","KEA-2217","2019/10/04 18:19:39","新北市樹林區保安街一段20巷11號","121.427725","24.9938","6500700","樹林區"
"238025","303-VK","2019/10/04 18:19:40","新北市樹林區保安街一段247號","121.419853333333","24.9967233333333","6500700","樹林區"
"238017","283-BY","2019/10/04 18:19:36","新北市樹林區保安街二段337巷2號","121.41201","25.00807","6500700","樹林區"
"238014","282-BY","2019/10/04 18:19:28","新北市樹林區大安路111巷25號","121.42324","24.9976216666667","6500700","樹林區"
"238020","268-VK","2019/10/04 18:19:28","新北市樹林區三俊街65巷42號","121.413535","25.0178516666667","6500700","樹林區"
"238026","172-UY","2019/10/04 18:19:35","新北市樹林區佳園路一段75巷14弄22號","121.395248333333","24.96986","6500700","樹林區"
"238016","169-UY","2019/10/04 18:19:42","新北市樹林區中山路二段34號","121.417275","24.9850233333333","6500700","樹林區"
"239007","AAC-297","2019/10/04 18:19:39","新北市鶯歌區重慶街86號","121.348578333333","24.9521033333333","6500800","鶯歌區"
"239006","891-R6","2019/10/04 18:19:30","新北市鶯歌區德昌街140巷36號","121.332435","24.9619266666667","6500800","鶯歌區"
"239008","527-UM","2019/10/04 18:19:40","新北市鶯歌區朝陽街4號","121.336251666667","24.976605","6500800","鶯歌區"
"239005","526-UM","2019/10/04 18:19:30","新北市鶯歌區鶯桃路668巷73號","121.329943333333","24.9717933333333","6500800","鶯歌區"
"239001","417-VK","2019/10/04 18:19:39","新北市鶯歌區中正三路福德巷23-1號","121.339791666667","24.9407166666667","6500800","鶯歌區"
"239003","360-BY","2019/10/04 18:19:42","新北市鶯歌區福安街58號","121.335591666667","24.9652083333333","6500800","鶯歌區"
"239002","359-BY","2019/10/04 18:19:31","新北市鶯歌區中正一路478號","121.366436666667","24.95684","6500800","鶯歌區"
"239004","193-VK","2019/10/04 18:19:37","新北市鶯歌區尖山路166巷6-1號","121.345378333333","24.9483066666667","6500800","鶯歌區"
"221036","130-UY","2019/10/04 18:19:29","新北市汐止區長安路144號","121.670991666667","25.077385","6501100","汐止區"
"221015","131-UY","2019/10/04 18:19:31","新北市汐止區長江街367-1號","121.668096666667","25.0824466666667","6501100","汐止區"
"244019","KED-0667","2019/10/04 18:19:39","新北市林口區忠孝路569巷57號","121.374743333333","25.0688983333333","6501700","林口區"
"221010","269-BY","2019/10/04 18:19:32","新北市汐止區祥雲街18巷21號","121.647118333333","25.0894416666667","6501100","汐止區"
"221012","278-VK","2019/10/04 18:19:09","新北市汐止區保一街47-2號","121.674593333333","25.0802866666667","6501100","汐止區"
"221023","279-VK","2019/10/04 18:19:31","新北市汐止區中興路201號","121.62921","25.068465","6501100","汐止區"
"221032","280-BY","2019/10/04 18:19:33","新北市汐止區力行街45號","121.616776666667","25.049865","6501100","汐止區"
"221021","299-VK","2019/10/04 18:19:30","新北市汐止區連興街71號","121.654346666667","25.0629366666667","6501100","汐止區"
"221031","353-TW","2019/10/04 18:19:29","新北市汐止區中興路194號","121.631541666667","25.0657866666667","6501100","汐止區"
"221035","622-UM","2019/10/04 18:19:34","新北市汐止區汐萬路一段39號","121.655141666667","25.0690083333333","6501100","汐止區"
"221025","623-UM","2019/10/04 18:19:22","新北市汐止區勤進路12巷37號","121.659146666667","25.0626033333333","6501100","汐止區"
"221038","646-BX","2019/10/04 18:17:59","新北市汐止區仁愛路199號","121.664775","25.0658733333333","6501100","汐止區"
"221033","647-BX","2019/10/04 18:19:41","新北市汐止區宜興街53號","121.622605","25.0426566666667","6501100","汐止區"
"221002","707-TV","2019/10/04 18:19:41","新北市汐止區福德一路201巷29號","121.63581","25.0646633333333","6501100","汐止區"
"221018","753-BX","2019/10/04 18:19:25","新北市汐止區茄苳路72巷9號","121.66668","25.07004","6501100","汐止區"
"220082","610-BX","2019/10/04 18:19:37","新北市板橋區華東街1-9號","121.448258333333","24.9949183333333","6500100","板橋區"
"224002","257-TC","2019/10/04 18:19:32","新北市瑞芳區三爪子坑路91巷1號","121.811608333333","25.107275","6501200","瑞芳區"
"242046","281-VK","2019/10/04 18:19:26","新北市新莊區福營路338號","121.421638333333","25.026755","6500500","新莊區"
"220073","985-R7","2019/10/04 18:19:43","新北市板橋區華東街1-10號","121.44832","24.9949333333333","6500100","板橋區"
"220064","AAC-253","2019/10/04 18:19:35","新北市板橋區華東街1-10號","121.448378333333","24.9949433333333","6500100","板橋區"
"235068","KEA-2873","2019/10/04 18:19:32","新北市中和區錦和路350-1號","121.490113333333","24.99352","6500300","中和區"
"235061","KEA-2875","2019/10/04 18:19:28","新北市中和區民享街98號","121.474703333333","24.9996766666667","6500300","中和區"
"235062","KEA-2876","2019/10/04 18:19:31","新北市中和區景平路713號","121.496498333333","25.003815","6500300","中和區"
