"lineid","car","time","location","longitude","latitude","cityid","cityname"
"234046","148-BY","2019/10/04 18:29:29","新北市永和區福和路1號","121.525621666667","25.00943","6500400","永和區"
"234081","298-R6","2019/10/04 18:29:28","新北市永和區福和路8巷3號","121.524975","25.0091816666667","6500400","永和區"
"234038","336-UY","2019/10/04 18:29:25","新北市永和區福和路1號","121.526626666667","25.0098266666667","6500400","永和區"
"234086","338-UY","2019/10/04 18:29:22","新北市永和區福和路1號","121.526395","25.0098883333333","6500400","永和區"
"234017","745-BX","2019/10/04 18:29:38","新北市永和區福和路1號","121.526465","25.0096483333333","6500400","永和區"
"234007","KED-0605","2019/10/04 18:29:30","新北市永和區環河西路二段185號","121.502383333333","25.0111966666667","6500400","永和區"
"234013","KEA-2591","2019/10/04 18:29:35","新北市永和區福和路1號","121.526218333333","25.0096933333333","6500400","永和區"
"234026","9371-KE","2019/10/04 18:29:40","新北市永和區中山路一段24號","121.513755","25.0105116666667","6500400","永和區"
"234011","9373-KE","2019/10/04 18:29:30","新北市永和區保福路二段158巷1號","121.509083333333","25.015025","6500400","永和區"
"249005","172-UM","2019/10/04 18:29:35","新北市八里區長坑口47-1號","121.389208333333","25.13397","6502300","八里區"
"249001","173-UM","2019/10/04 18:29:38","新北市八里區龍米路一段122號","121.453071666667","25.1252733333333","6502300","八里區"
"249004","303-UY","2019/10/04 18:29:27","新北市八里區忠孝路86號","121.42604","25.160425","6502300","八里區"
"249002","305-UY","2019/10/04 18:29:35","新北市八里區龍形三街6巷11號","121.449701666667","25.1326","6502300","八里區"
"249003","593-UM","2019/10/04 18:23:02","新北市八里區博物館路10-1號","121.415136666667","25.1640066666667","6502300","八里區"
"248016","026-BX","2019/10/04 18:29:38","新北市五股區凌雲路一段83巷16號","121.450293333333","25.100685","6501500","五股區"
"248008","KED-0815","2019/10/04 18:29:33","新北市蘆洲區永安南路二段150號","121.461958333333","25.0784033333333","6501500","五股區"
"248018","KED-0813","2019/10/04 18:29:25","新北市五股區御史路300號","121.417201666667","25.1085283333333","6501500","五股區"
"248012","247-BX","2019/10/04 18:29:32","新北市五股區御史路27號","121.441975","25.0913483333333","6501500","五股區"
"248014","261-SL","2019/10/04 18:29:34","新北市五股區自強路90巷57號","121.431518333333","25.0711633333333","6501500","五股區"
"248004","677-BX","2019/10/04 18:29:39","新北市五股區六合街19號","121.431135","25.0886383333333","6501500","五股區"
"248002","678-BX","2019/10/04 18:29:26","新北市五股區西雲路116-6號","121.444716666667","25.0936333333333","6501500","五股區"
"248010","682-TV","2019/10/04 18:29:32","新北市五股區水碓路3-1號","121.43384","25.0722533333333","6501500","五股區"
"234077","969-R7","2019/10/04 18:29:42","新北市永和區福和路1號","121.526378333333","25.0096616666667","6500400","永和區"
"234067","AAC-212","2019/10/04 18:29:32","新北市永和區福和路1號","121.526466666667","25.009675","6500400","永和區"
"232011","375-UM","2019/10/04 18:29:22","新北市坪林區坪雙路一段43號","121.711741666667","24.9424916666667","6502000","坪林區"
"244007","080-UY","2019/10/04 18:29:40","新北市林口區中湖55-1號","121.385101666667","25.100575","6501700","林口區"
"244013","KEA-2802","2019/10/04 18:29:42","新北市林口區信義路58-5號","121.382423333333","25.0783733333333","6501700","林口區"
"244023","483-VK","2019/10/04 18:29:37","新北市林口區佳林路221號","121.384045","25.0767366666667","6501700","林口區"
"244017","485-VK","2019/10/04 18:29:41","新北市林口區文化二路一段2-1號","121.364078333333","25.065895","6501700","林口區"
"244009","656-BX","2019/10/04 18:29:28","新北市林口區寶林路269號","121.384516666667","25.0847616666667","6501700","林口區"
"244011","701-TV","2019/10/04 18:29:25","新北市林口區興林路17巷5弄2號","121.390623333333","25.0770016666667","6501700","林口區"
"244025","837-TS","2019/10/04 18:29:38","新北市林口區南勢六街30巷27號","121.356956666667","25.071795","6501700","林口區"
"244021","838-TS","2019/10/04 18:29:43","新北市林口區自強二街21號","121.398193333333","25.0778983333333","6501700","林口區"
"243010","297-R6","2019/10/04 18:29:30","新北市泰山區黎明路25號","121.421813333333","25.06082","6501600","泰山區"
"222003","436-BY","2019/10/04 18:29:34","新北市深坑區北深路一段288號","121.628116666667","25.0076716666667","6501800","深坑區"
"222002","659-BX","2019/10/04 18:29:38","新北市深坑區雲鄉路103號","121.623195","24.99842","6501800","深坑區"
"231061","002-UM","2019/10/04 18:29:38","新北市新店區安華路28-1號","121.519736666667","24.9609483333333","6500600","新店區"
"231058","0293-UT","2019/10/04 18:29:42","新北市新店區國校路21號","121.537966666667","24.9563283333333","6500600","新店區"
"231044","046-UY","2019/10/04 18:29:26","新北市新店區安華路28-1號","121.519413333333","24.96094","6500600","新店區"
"231060","106-UY","2019/10/04 18:29:29","新北市新店區安華路28-1號","121.519613333333","24.9608583333333","6500600","新店區"
"231051","107-UY","2019/10/04 18:29:23","新北市新店區安一路一段1-1號","121.519678333333","24.96109","6500600","新店區"
"231062","256-BX","2019/10/04 18:29:33","新北市新店區安一路一段1-1號","121.519676666667","24.961045","6500600","新店區"
"231042","268-BY","2019/10/04 18:29:30","新北市新店區安一路一段1-1號","121.519633333333","24.96135","6500600","新店區"
"231064","278-BY","2019/10/04 18:29:42","新北市新店區安一路一段1-1號","121.519855","24.96124","6500600","新店區"
"231050","AAD-862","2019/10/04 18:29:43","新北市新店區安華路28-1號","121.519668333333","24.9609016666667","6500600","新店區"
"231045","355-BY","2019/10/04 18:29:45","新北市新店區安華路28-1號","121.519275","24.960925","6500600","新店區"
"231055","4716-K9","2019/10/04 18:29:29","新北市新店區北新路二段29巷1弄20號","121.542021666667","24.9722833333333","6500600","新店區"
"231056","4715-K9","2019/10/04 18:29:44","新北市新店區二十張路129巷3弄2號","121.536358333333","24.978815","6500600","新店區"
"231053","515-UM","2019/10/04 18:29:43","新北市新店區北宜路一段254號","121.545475","24.952815","6500600","新店區"
"231041","619-UM","2019/10/04 18:29:34","新北市新店區安華路28-1號","121.519525","24.96059","6500600","新店區"
"231063","641-BX","2019/10/04 18:29:30","新北市新店區安華路28-1號","121.519443333333","24.9606716666667","6500600","新店區"
"231048","KED-0819","2019/10/04 18:29:40","新北市新店區安一路一段1-1號","121.519855","24.9611833333333","6500600","新店區"
"231057","720-UM","2019/10/04 18:29:26","新北市新店區安一路一段1-1號","121.519271666667","24.961295","6500600","新店區"
"231059","897-TW","2019/10/04 18:29:38","新北市新店區安華路28-1號","121.519585","24.9606766666667","6500600","新店區"
"231040","898-TW","2019/10/04 18:29:25","新北市新店區安一路一段1-1號","121.51953","24.9610883333333","6500600","新店區"
"231043","899-TW","2019/10/04 18:29:26","新北市新店區安一路一段1-1號","121.51927","24.9609966666667","6500600","新店區"
"231066","AKT-0513","2019/10/04 18:29:36","新北市新店區安華路28-1號","121.519398333333","24.9606266666667","6500600","新店區"
"235066","003-UY","2019/10/04 18:29:31","新北市中和區中山路二段120號","121.502735","25.00379","6500300","中和區"
"235063","006-UY","2019/10/04 18:29:34","新北市中和區連城路347巷1弄1號","121.48826","24.9957216666667","6500300","中和區"
"235056","096-UM","2019/10/04 18:29:32","新北市中和區員山路611巷5弄3號","121.477995","25.0111833333333","6500300","中和區"
"235065","098-UM","2019/10/04 18:29:38","新北市中和區中山路二段64巷14弄2號","121.503518333333","25.0054666666667","6500300","中和區"
"235040","150-BY","2019/10/04 18:29:41","新北市中和區安平路59號","121.509531666667","24.99515","6500300","中和區"
"235058","151-BY","2019/10/04 18:29:42","新北市中和區圓通路369巷30弄48號","121.488715","24.9843866666667","6500300","中和區"
"235055","183-VK","2019/10/04 18:29:38","新北市中和區民生街41號","121.47009","25.00534","6500300","中和區"
"235038","185-VK","2019/10/04 18:29:33","新北市中和區立人街1號","121.521935","24.99387","6500300","中和區"
"235067","255-BX","2019/10/04 18:29:40","新北市中和區中山路二段449號","121.483921666667","25.0049783333333","6500300","中和區"
"235044","293-VK","2019/10/04 18:29:31","新北市中和區復興路309號","121.501236666667","24.99028","6500300","中和區"
"235072","301-VK","2019/10/04 18:29:34","新北市中和區連城路87號","121.496826666667","25.0003383333333","6500300","中和區"
"235043","352-BY","2019/10/04 18:29:29","新北市中和區景平路239巷3-1號","121.509933333333","24.9925483333333","6500300","中和區"
"235042","KEA-2878","2019/10/04 18:29:29","新北市中和區自立路64巷10號","121.52334","24.9910766666667","6500300","中和區"
"235050","4979-A6","2019/10/04 18:29:23","新北市中和區景新街418巷16弄2號","121.512118333333","24.9888466666667","6500300","中和區"
"235069","4980-A6","2019/10/04 18:29:42","新北市中和區連城路127巷19號","121.496718333333","24.9981883333333","6500300","中和區"
"235070","558-UM","2019/10/04 18:29:37","新北市中和區南華路42號","121.503643333333","24.99644","6500300","中和區"
"235045","565-BX","2019/10/04 18:29:32","新北市中和區復興路2號","121.506386666667","24.9898116666667","6500300","中和區"
"235060","KED-0823","2019/10/04 18:29:34","新北市中和區中山路二段579號","121.480345","25.0057183333333","6500300","中和區"
"235054","640-BX","2019/10/04 18:29:35","新北市中和區民享街86巷27號","121.473046666667","25.0004416666667","6500300","中和區"
"235047","732-UM","2019/10/04 18:29:36","新北市中和區南山路479號","121.5079","24.9882216666667","6500300","中和區"
"235057","801-TS","2019/10/04 18:29:23","新北市中和區民安街4號","121.48093","25.0010716666667","6500300","中和區"
"235041","802-TS","2019/10/04 18:29:32","新北市中和區景安路32號","121.507125","24.9984716666667","6500300","中和區"
"235052","805-TS","2019/10/04 18:29:25","新北市中和區興南路二段124號","121.504395","24.9836683333333","6500300","中和區"
"235048","896-TW","2019/10/04 18:29:34","新北市中和區中正路33號","121.50209","24.99345","6500300","中和區"
"235053","900-TW","2019/10/04 18:29:46","新北市土城區金城路三段255號","121.47176","24.9900466666667","6500300","中和區"
"235064","911-UM","2019/10/04 18:29:39","新北市中和區連城路127巷9-2號","121.496703333333","24.998705","6500300","中和區"
"235051","157-BY","2019/10/04 18:29:37","新北市中和區興南路二段114巷10弄12號","121.504031666667","24.9848466666667","6500300","中和區"
"235037","AAC-213","2019/10/04 18:29:24","新北市中和區景平路87號","121.517791666667","24.9916333333333","6500300","中和區"
"235059","AAC-215","2019/10/04 18:29:26","新北市中和區員山路36巷16-3號","121.485038333333","24.991275","6500300","中和區"
"220065","072-UY","2019/10/04 18:29:43","新北市板橋區南雅南路二段66號","121.45381","25.00213","6500100","板橋區"
"220069","AAD-861","2019/10/04 18:29:46","新北市板橋區四川路二段130巷27號","121.44927","24.9943183333333","6500100","板橋區"
"226004","312-R5","2019/10/04 18:29:43","新北市平溪區靜安路二段300號","121.735756666667","25.023855","6502400","平溪區"
"235049","251-BX","2019/10/04 18:29:39","新北市中和區景安路116號","121.505353333333","24.995065","6500300","中和區"
"228002","663-BX","2019/10/04 18:29:27","新北市貢寮區福連里福連街5號","121.988188333333","25.0148483333333","6502600","貢寮區"
"228001","670-TC","2019/10/04 18:29:31","新北市貢寮區仁理村仁義街6號","121.923735","25.0521116666667","6502600","貢寮區"
"228003","828-UM","2019/10/04 18:29:29","新北市貢寮區和美里和美街37號","121.912286666667","25.0878566666667","6502600","貢寮區"
"224010","AGQ-8101","2019/10/04 18:29:32","新北市瑞芳區烏勢巷121號","121.846356666667","25.1082233333333","6501200","瑞芳區"
"224006","676-BX","2019/10/04 18:29:26","新北市瑞芳區明燈路二段38號","121.810208333333","25.1077333333333","6501200","瑞芳區"
"224007","285-BY","2019/10/04 18:29:34","新北市瑞芳區大埔路吉慶公園城37號","121.764356666667","25.0995516666667","6501200","瑞芳區"
"224009","275-VK","2019/10/04 18:29:33","新北市瑞芳區五號路308號","121.856791666667","25.11152","6501200","瑞芳區"
"224008","273-VK","2019/10/04 18:29:39","新北市瑞芳區岳王路1巷9號","121.806353333333","25.1104333333333","6501200","瑞芳區"
"224005","271-BY","2019/10/04 18:29:29","新北市瑞芳區瑞濱路147-14號","121.8182","25.1183883333333","6501200","瑞芳區"
"227002","642-TC","2019/10/04 18:29:42","新北市雙溪區魚行里坤溪25號","121.870431666667","25.02959","6502500","雙溪區"
"227001","400-TW","2019/10/04 18:29:36","新北市雙溪區牡丹里牡丹133號","121.850995","25.059075","6502500","雙溪區"
"253005","032-BX","2019/10/04 18:29:36","新北市石門區老崩山10-7號","121.552556666667","25.2909716666667","6502200","石門區"
"253006","295-VK","2019/10/04 18:29:28","新北市石門區公地47-1號","121.545568333333","25.2901833333333","6502200","石門區"
"222001","KEA-2212","2019/10/04 18:29:32","新北市深坑區北深路一段175號","121.633053333333","25.0109083333333","6501800","深坑區"
"208002","KEA-2872","2019/10/04 18:29:33","新北市金山區磺清路135號","121.639378333333","25.2273216666667","6502700","金山區"
"208003","665-BX","2019/10/04 18:29:38","新北市金山區中山路256號","121.635583333333","25.2239066666667","6502700","金山區"
"251005","010-UM","2019/10/04 18:29:27","新北市淡水區中正東路35巷9號","121.446398333333","25.1686116666667","6501000","淡水區"
"251001","011-UM","2019/10/04 18:29:27","新北市淡水區自強路371號","121.464443333333","25.1332233333333","6501000","淡水區"
"251002","012-UM","2019/10/04 18:29:35","新北市淡水區竿蓁二街65號","121.454863333333","25.1633433333333","6501000","淡水區"
"251004","180-VK","2019/10/04 18:29:27","新北市淡水區民族路31巷36號","121.462416666667","25.1364916666667","6501000","淡水區"
"251008","181-VK","2019/10/04 18:29:35","新北市淡水區北投子87-2號","121.468061666667","25.1784533333333","6501000","淡水區"
"251010","413-VK","2019/10/04 18:29:28","新北市淡水區沙崙路181巷1號","121.424148333333","25.184235","6501000","淡水區"
"251012","443-VK","2019/10/04 18:29:24","新北市淡水區北新路一段275號","121.462358333333","25.18227","6501000","淡水區"
"251006","561-UM","2019/10/04 18:29:25","新北市淡水區新生街51巷26號","121.440698333333","25.1756716666667","6501000","淡水區"
"251011","650-BX","2019/10/04 18:29:23","新北市淡水區坪頂路52巷16號","121.457758333333","25.1623716666667","6501000","淡水區"
"251003","766-UM","2019/10/04 18:29:43","新北市淡水區北新路169巷14號","121.449695","25.1800866666667","6501000","淡水區"
"207003","550-UM","2019/10/04 18:29:39","新北市萬里區野柳里港東路6-1號","121.686551666667","25.2032116666667","6502800","萬里區"
"207004","291-VK","2019/10/04 18:29:39","新北市萬里區萬里里瑪鋉路12-2號","121.68761","25.1754883333333","6502800","萬里區"
"252002","178-VK","2019/10/04 18:29:41","新北市三芝區中山路二段39號","121.502918333333","25.2551","6502100","三芝區"
"252003","249-BX","2019/10/04 18:29:38","新北市三芝區後厝里北勢子43號","121.47186","25.2525383333333","6502100","三芝區"
"208001","170-UY","2019/10/04 18:29:40","新北市金山區文化二路6號","121.63683","25.2246066666667","6502700","金山區"
"237004","KEA-2597","2019/10/04 18:29:36","新北市三峽區五寮48號","121.36968","24.8661283333333","6500900","三峽區"
"237007","153-BY","2019/10/04 18:29:25","新北市三峽區中正路三段170巷34號","121.35269","24.90461","6500900","三峽區"
"237009","210-TH","2019/10/04 18:29:28","新北市三峽區大同路277號","121.366073333333","24.925425","6500900","三峽區"
"237013","252-BX","2019/10/04 18:29:37","新北市三峽區光明路69巷25號","121.376723333333","24.9292633333333","6500900","三峽區"
"237012","275-BY","2019/10/04 18:29:28","新北市三峽區三樹路322號","121.381578333333","24.9440833333333","6500900","三峽區"
"237008","302-VK","2019/10/04 18:29:32","新北市三峽區白雞89號","121.402176666667","24.90839","6500900","三峽區"
"237014","433-BY","2019/10/04 18:29:34","新北市三峽區文化路109號","121.370518333333","24.936085","6500900","三峽區"
"237006","5529-G3","2019/10/04 18:29:25","新北市三峽區溪東路473巷68號","121.415375","24.9291066666667","6500900","三峽區"
"237011","KEA-2596","2019/10/04 18:29:41","新北市三峽區溪東路218巷25號","121.407078333333","24.9304166666667","6500900","三峽區"
"237015","649-BX","2019/10/04 18:29:40","新北市三峽區竹崙路116號","121.433985","24.9108466666667","6500900","三峽區"
"237010","706-TV","2019/10/04 18:29:26","新北市三峽區復興路489號","121.361218333333","24.9384266666667","6500900","三峽區"
"237005","AKY-6261","2019/10/04 18:29:40","新北市三峽區清水街341號","121.370981666667","24.9337366666667","6500900","三峽區"
"236042","KED-0685","2019/10/04 18:29:42","新北市土城區裕民路61巷10號","121.449536666667","24.9882333333333","6501300","土城區"
"236079","166-UM","2019/10/04 18:29:41","新北市土城區中央路四段27巷1號","121.42447","24.9623166666667","6501300","土城區"
"236030","253-BX","2019/10/04 18:29:26","新北市土城區順風路8號","121.440161666667","24.9762333333333","6501300","土城區"
"236026","269-VK","2019/10/04 18:29:28","新北市土城區南天母路135巷24號","121.449311666667","24.954735","6501300","土城區"
"236014","270-VK","2019/10/04 18:29:35","新北市土城區青雲路39巷7號","121.46033","24.987465","6501300","土城區"
"236039","271-VK","2019/10/04 18:29:39","新北市土城區青雲路453號","121.458861666667","24.9746","6501300","土城區"
"236069","KEA-2877","2019/10/04 18:29:31","新北市土城區永豐路255巷35-1號","121.475615","24.97294","6501300","土城區"
"252001","KED-0821","2019/10/04 18:29:42","新北市三芝區中興街二段6號","121.49852","25.2564416666667","6502100","三芝區"
"236020","401-BY","2019/10/04 18:29:35","新北市土城區永豐路202巷14號","121.466373333333","24.98341","6501300","土城區"
"236059","912-UM","2019/10/04 18:29:41","新北市土城區中央路四段29-1號","121.423763333333","24.9621333333333","6501300","土城區"
"236048","913-UM","2019/10/04 18:29:38","新北市土城區青雲路463號","121.45863","24.974345","6501300","土城區"
"236063","915-UM","2019/10/04 18:29:31","新北市土城區延壽路118-3號","121.46915","24.994145","6501300","土城區"
"236055","AAC-216","2019/10/04 18:29:28","新北市土城區中華路一段245號","121.441063333333","24.98192","6501300","土城區"
"242041","AAC-296","2019/10/04 18:29:41","新北市新莊區天祥街92巷29號","121.415483333333","25.030375","6500500","新莊區"
"242060","986-R7","2019/10/04 18:29:30","新北市新莊區民安路421號","121.433455","25.02271","6500500","新莊區"
"242058","612-BX","2019/10/04 18:29:28","新北市新莊區新北大道七段838號","121.413575","25.0238233333333","6500500","新莊區"
"242054","497-BY","2019/10/04 18:29:30","新北市新莊區大安路12號","121.431881666667","25.0057433333333","6500500","新莊區"
"242002","441-UM","2019/10/04 18:29:44","新北市新莊區瓊林路13-3號","121.448786666667","25.0309216666667","6500500","新莊區"
"242044","415-TV","2019/10/04 18:29:38","新北市新莊區新北大道七段850號","121.413863333333","25.023495","6500500","新莊區"
"242011","346-TH","2019/10/04 18:29:38","新北市新莊區中榮街132號","121.445903333333","25.05281","6500500","新莊區"
"242009","349-TH","2019/10/04 18:29:35","新北市新莊區中港路216號","121.45452","25.0426466666667","6500500","新莊區"
"238015","755-BX","2019/10/04 18:29:39","新北市樹林區備內街42號","121.412355","24.9873983333333","6500700","樹林區"
"238023","601-UM","2019/10/04 18:29:30","新北市樹林區三福街114號","121.406396666667","25.01624","6500700","樹林區"
"238019","599-UM","2019/10/04 18:29:41","新北市樹林區國凱街140巷21號","121.424273333333","24.9799016666667","6500700","樹林區"
"238024","5061-A6","2019/10/04 18:29:42","新北市樹林區育英街2巷52號","121.423675","24.990705","6500700","樹林區"
"238018","KEA-2217","2019/10/04 18:29:35","新北市樹林區樹新路91號","121.427915","24.9954","6500700","樹林區"
"238017","283-BY","2019/10/04 18:29:36","新北市樹林區光榮街79號","121.412056666667","25.0029783333333","6500700","樹林區"
"238014","282-BY","2019/10/04 18:29:28","新北市樹林區大安路111巷25號","121.423216666667","24.9976166666667","6500700","樹林區"
"238020","268-VK","2019/10/04 18:29:28","新北市樹林區中正路642巷19號","121.411563333333","25.0176166666667","6500700","樹林區"
"238026","172-UY","2019/10/04 18:29:35","新北市樹林區八德街1082號","121.390925","24.968825","6500700","樹林區"
"238016","169-UY","2019/10/04 18:29:42","新北市樹林區中山路一段412號","121.417411666667","24.9851733333333","6500700","樹林區"
"239007","AAC-297","2019/10/04 18:29:39","新北市鶯歌區中正一路478號","121.366508333333","24.95683","6500800","鶯歌區"
"239006","891-R6","2019/10/04 18:29:30","新北市鶯歌區鶯桃路296巷53號","121.33584","24.9613583333333","6500800","鶯歌區"
"239008","527-UM","2019/10/04 18:29:40","新北市鶯歌區朝陽街2號","121.336233333333","24.9765983333333","6500800","鶯歌區"
"239005","526-UM","2019/10/04 18:29:30","新北市鶯歌區鶯桃路668巷73號","121.329938333333","24.971795","6500800","鶯歌區"
"239001","417-VK","2019/10/04 18:29:39","新北市鶯歌區國中街178號","121.338233333333","24.9392083333333","6500800","鶯歌區"
"239003","360-BY","2019/10/04 18:29:22","新北市鶯歌區福安街58號","121.335595","24.965235","6500800","鶯歌區"
"239002","359-BY","2019/10/04 18:29:31","新北市鶯歌區中山路134號","121.350141666667","24.9570783333333","6500800","鶯歌區"
"239004","193-VK","2019/10/04 18:29:33","新北市鶯歌區尖山路173巷31號","121.345358333333","24.9468733333333","6500800","鶯歌區"
"221036","130-UY","2019/10/04 18:29:29","新北市汐止區大同路三段141號","121.669335","25.0777566666667","6501100","汐止區"
"221015","131-UY","2019/10/04 18:29:31","新北市汐止區鄉長路二段23巷5號","121.667353333333","25.0826016666667","6501100","汐止區"
"244019","KED-0667","2019/10/04 18:29:39","新北市林口區麗園二街12巷4-2號","121.378388333333","25.06846","6501700","林口區"
"221010","269-BY","2019/10/04 18:29:32","新北市汐止區汐萬路三段31巷1號","121.643531666667","25.0923616666667","6501100","汐止區"
"221012","278-VK","2019/10/04 18:29:29","新北市汐止區保長路35巷13號","121.6732","25.0800033333333","6501100","汐止區"
"221023","279-VK","2019/10/04 18:29:31","新北市汐止區康寧街474巷7-2號","121.632266666667","25.0678766666667","6501100","汐止區"
"221032","280-BY","2019/10/04 18:29:33","新北市汐止區民權街二段109巷6弄1號","121.619131666667","25.04677","6501100","汐止區"
"221027","281-BY","2019/10/04 18:29:44","新北市汐止區和平街69號","121.661423333333","25.0707183333333","6501100","汐止區"
"221021","299-VK","2019/10/04 18:29:10","新北市汐止區連興街120號","121.653686666667","25.06236","6501100","汐止區"
"221031","353-TW","2019/10/04 18:29:28","新北市汐止區大同路一段209號","121.633688333333","25.0573683333333","6501100","汐止區"
"221035","622-UM","2019/10/04 18:29:34","新北市汐止區大同路二段187巷2弄1號","121.652185","25.0649633333333","6501100","汐止區"
"221025","623-UM","2019/10/04 18:29:42","新北市汐止區仁愛路122巷4號","121.663066666667","25.06359","6501100","汐止區"
"221038","646-BX","2019/10/04 18:29:39","新北市汐止區忠孝東路200-5號","121.661688333333","25.0661883333333","6501100","汐止區"
"221033","647-BX","2019/10/04 18:29:26","新北市汐止區宜興街36號","121.621848333333","25.04193","6501100","汐止區"
"221002","707-TV","2019/10/04 18:29:41","新北市汐止區福德一路163號","121.636236666667","25.066345","6501100","汐止區"
"221018","753-BX","2019/10/04 18:29:46","新北市汐止區茄苳路196號","121.670236666667","25.0691083333333","6501100","汐止區"
"220079","145-BY","2019/10/04 18:29:36","新北市板橋區華東街1-10號","121.448323333333","24.9950666666667","6500100","板橋區"
"220082","610-BX","2019/10/04 18:29:37","新北市板橋區華東街1-9號","121.448255","24.994925","6500100","板橋區"
"224002","257-TC","2019/10/04 18:29:32","新北市瑞芳區三爪子坑路29巷60號","121.813931666667","25.1061683333333","6501200","瑞芳區"
"220056","276-BY","2019/10/04 18:29:32","新北市板橋區華東街1-9號","121.448108333333","24.9949283333333","6500100","板橋區"
"220094","285-UM","2019/10/04 18:29:33","新北市板橋區莊敬路208巷8弄9號","121.470698333333","25.020385","6500100","板橋區"
"220081","287-VK","2019/10/04 18:29:28","新北市板橋區華東街1-10號","121.448245","24.9950233333333","6500100","板橋區"
"220084","296-UM","2019/10/04 18:29:33","新北市板橋區華東街1-9號","121.448121666667","24.9949883333333","6500100","板橋區"
"242046","281-VK","2019/10/04 18:29:26","新北市新莊區中正路803巷42號","121.421721666667","25.0277733333333","6500500","新莊區"
"220080","461-BY","2019/10/04 18:29:29","新北市板橋區華東街1-9號","121.448158333333","24.9949133333333","6500100","板橋區"
"220035","560-BX","2019/10/04 18:29:38","新北市板橋區南雅西路一段21巷7-1號","121.453623333333","25.0038466666667","6500100","板橋區"
"220057","686-BX","2019/10/04 18:29:33","新北市板橋區華東街1-10號","121.448696666667","24.9947666666667","6500100","板橋區"
"220077","687-BX","2019/10/04 18:29:40","新北市板橋區華東街1-10號","121.44834","24.994975","6500100","板橋區"
"220054","741-BX","2019/10/04 18:29:35","新北市板橋區華東街1-9號","121.448091666667","24.9949616666667","6500100","板橋區"
"220055","827-TW","2019/10/04 18:29:41","新北市板橋區四川路二段140巷2號","121.449785","24.9930633333333","6500100","板橋區"
"220073","985-R7","2019/10/04 18:29:23","新北市板橋區四川路二段140巷20號","121.448915","24.9935166666667","6500100","板橋區"
"220097","AAC-210","2019/10/04 18:29:34","新北市板橋區民生路二段120號","121.470375","25.01965","6500100","板橋區"
"220064","AAC-253","2019/10/04 18:29:35","新北市板橋區華東街330號","121.453088333333","25.00365","6500100","板橋區"
"235068","KEA-2873","2019/10/04 18:29:32","新北市中和區中正路140號","121.499135","24.9937466666667","6500300","中和區"
"235061","KEA-2875","2019/10/04 18:29:28","新北市中和區民享街114巷25號","121.473586666667","24.999515","6500300","中和區"
"235062","KEA-2876","2019/10/04 18:29:30","新北市中和區中山路二段312巷33弄17號","121.494836666667","25.0038783333333","6500300","中和區"
