"lineid","car","time","location","longitude","latitude","cityid","cityname"
"234046","148-BY","2019/10/04 19:09:29","新北市永和區永元路18巷31號","121.523723333333","25.00021","6500400","永和區"
"234081","298-R6","2019/10/04 19:09:28","新北市永和區永貞路42號","121.520886666667","25.0064533333333","6500400","永和區"
"234038","336-UY","2019/10/04 19:09:25","新北市永和區民樂街92巷1號","121.527286666667","24.997215","6500400","永和區"
"234064","337-UY","2019/10/04 19:09:26","新北市永和區秀朗路二段45號","121.521595","25.0023366666667","6500400","永和區"
"234086","338-UY","2019/10/04 19:09:42","新北市永和區永貞路75號","121.518748333333","25.0043466666667","6500400","永和區"
"234070","552-UM","2019/10/04 19:09:33","新北市永和區豫溪街137巷1弄24號","121.518318333333","25.0104766666667","6500400","永和區"
"234017","745-BX","2019/10/04 19:09:19","新北市永和區文化路90巷15號","121.513755","25.01602","6500400","永和區"
"234030","746-BX","2019/10/04 19:09:27","新北市永和區民生路23號","121.522893333333","24.9988383333333","6500400","永和區"
"234054","KEA-2590","2019/10/04 19:09:33","新北市永和區中興街143號","121.518981666667","25.012385","6500400","永和區"
"234007","KED-0605","2019/10/04 19:09:30","新北市永和區中山路一段238號","121.507511666667","25.0076616666667","6500400","永和區"
"234013","KEA-2591","2019/10/04 19:09:35","新北市永和區中山路一段93號","121.511416666667","25.0106883333333","6500400","永和區"
"234061","AAD-866","2019/10/04 19:09:39","新北市永和區安樂路477號","121.514361666667","25.0056983333333","6500400","永和區"
"234042","862-TW","2019/10/04 19:09:37","新北市永和區保平路111巷2弄12號","121.510593333333","25.006125","6500400","永和區"
"234050","863-TW","2019/10/04 19:09:39","新北市永和區文化路135巷28號","121.510726666667","25.0142883333333","6500400","永和區"
"234026","9371-KE","2019/10/04 19:09:40","新北市永和區安樂路272巷9弄7號","121.515036666667","25.0046016666667","6500400","永和區"
"234011","9373-KE","2019/10/04 19:09:37","新北市永和區仁愛路141巷15號","121.512118333333","25.0115433333333","6500400","永和區"
"249005","172-UM","2019/10/04 19:09:35","新北市八里區中華路三段43號","121.396021666667","25.1424516666667","6502300","八里區"
"249001","173-UM","2019/10/04 19:09:38","新北市八里區龍米路二段230-1號","121.431836666667","25.158515","6502300","八里區"
"249003","593-UM","2019/10/04 19:09:26","新北市八里區博物館路29號","121.414381666667","25.1630383333333","6502300","八里區"
"248016","026-BX","2019/10/04 19:09:38","新北市五股區成泰路三段543巷41-1號","121.449601666667","25.1030383333333","6501500","五股區"
"248008","KED-0815","2019/10/04 19:09:33","新北市五股區中興路二段83巷26-6號","121.459755","25.0752416666667","6501500","五股區"
"248018","KED-0813","2019/10/04 19:09:25","新北市五股區民義路一段255-6號","121.426073333333","25.0914233333333","6501500","五股區"
"248012","247-BX","2019/10/04 19:09:32","新北市五股區中興路四段48巷16號","121.438616666667","25.083395","6501500","五股區"
"248004","677-BX","2019/10/04 19:09:39","新北市五股區五福路40號","121.433856666667","25.0893166666667","6501500","五股區"
"248002","678-BX","2019/10/04 19:09:26","新北市五股區凌雲路一段158巷6號","121.447786666667","25.1029666666667","6501500","五股區"
"234023","9380-KE","2019/10/04 19:09:38","新北市永和區中興街10巷27號","121.516383333333","25.0110916666667","6500400","永和區"
"234077","969-R7","2019/10/04 19:09:23","新北市永和區民族街46號","121.518433333333","24.998625","6500400","永和區"
"234074","AAC-211","2019/10/04 19:09:34","新北市永和區福和路137號","121.521111666667","25.0077666666667","6500400","永和區"
"234067","AAC-212","2019/10/04 19:09:32","新北市永和區保平路5號","121.513101666667","25.00758","6500400","永和區"
"234003","AAC-295","2019/10/04 19:09:26","新北市永和區永平路152巷4號","121.511546666667","25.0089816666667","6500400","永和區"
"244023","483-VK","2019/10/04 19:09:37","新北市林口區民權路24號","121.37168","25.08049","6501700","林口區"
"244011","701-TV","2019/10/04 19:09:25","新北市林口區中正路264巷11號","121.388985","25.078125","6501700","林口區"
"244025","837-TS","2019/10/04 19:09:39","新北市林口區民族路67-1號","121.365788333333","25.0753116666667","6501700","林口區"
"243011","267-VK","2019/10/04 19:09:28","新北市泰山區明志路二段323號","121.42637","25.0459716666667","6501600","泰山區"
"243012","AAD-798","2019/10/04 19:09:35","新北市泰山區辭修路34巷1號","121.428781666667","25.0580516666667","6501600","泰山區"
"243010","297-R6","2019/10/04 19:09:30","新北市泰山區明志路一段481號","121.431083333333","25.0553916666667","6501600","泰山區"
"243014","KEA-2801","2019/10/04 19:09:22","新北市泰山區泰林路二段440號","121.426425","25.064165","6501600","泰山區"
"243016","421-VK","2019/10/04 19:09:25","新北市泰山區明志路二段373號","121.425181666667","25.043975","6501600","泰山區"
"243009","KEA-2215","2019/10/04 19:09:37","新北市泰山區福德街39號","121.432251666667","25.0634033333333","6501600","泰山區"
"243013","646-TV","2019/10/04 19:09:34","新北市泰山區漢口街1號","121.423238333333","25.0367316666667","6501600","泰山區"
"243015","680-BX","2019/10/04 19:09:38","新北市泰山區明志路一段325號","121.431298333333","25.0588483333333","6501600","泰山區"
"222003","436-BY","2019/10/04 19:09:34","新北市深坑區深南路162號","121.626091666667","25.0149716666667","6501800","深坑區"
"222002","659-BX","2019/10/04 19:09:38","新北市深坑區北深路一段185號","121.63203","25.0105516666667","6501800","深坑區"
"231061","002-UM","2019/10/04 19:09:38","新北市新店區安康路一段285號","121.523278333333","24.9635666666667","6500600","新店區"
"231058","0293-UT","2019/10/04 19:09:42","新北市新店區光明街94號","121.538916666667","24.9603816666667","6500600","新店區"
"231044","046-UY","2019/10/04 19:09:26","新北市新店區中興路三段216號","121.543548333333","24.9825016666667","6500600","新店區"
"231060","106-UY","2019/10/04 19:09:29","新北市新店區安康路二段316號","121.50546","24.95804","6500600","新店區"
"231051","107-UY","2019/10/04 19:09:23","新北市新店區中正路382巷22號","121.53539","24.9777266666667","6500600","新店區"
"231049","108-UY","2019/10/04 19:09:32","新北市新店區二十張路25巷18弄27號","121.539305","24.98134","6500600","新店區"
"231065","110-UY","2019/10/04 19:09:26","新北市新店區安祥路143號","121.474456666667","24.95586","6500600","新店區"
"231062","256-BX","2019/10/04 19:09:33","新北市新店區安平路35巷8號","121.520918333333","24.9673966666667","6500600","新店區"
"231054","260-TV","2019/10/04 19:09:32","新北市新店區新店路135號","121.537078333333","24.9545333333333","6500600","新店區"
"231042","268-BY","2019/10/04 19:09:30","新北市新店區中興路一段167號","121.542691666667","24.9643966666667","6500600","新店區"
"231064","278-BY","2019/10/04 19:09:42","新北市新店區安忠路102巷1號","121.510665","24.9561733333333","6500600","新店區"
"231050","AAD-862","2019/10/04 19:09:43","新北市新店區竹林路2巷31號","121.550401666667","24.9501816666667","6500600","新店區"
"231045","355-BY","2019/10/04 19:09:25","新北市新店區北宜路一段66號","121.538498333333","24.9559366666667","6500600","新店區"
"231055","4716-K9","2019/10/04 19:09:29","新北市新店區安和路三段4巷3號","121.520318333333","24.9808783333333","6500600","新店區"
"231056","4715-K9","2019/10/04 19:09:24","新北市新店區民生路149巷16號","121.529175","24.979905","6500600","新店區"
"231067","4772-VM","2019/10/04 19:09:28","新北市新店區安康路一段263巷29號","121.523978333333","24.9614116666667","6500600","新店區"
"231053","515-UM","2019/10/04 19:09:23","新北市新店區自強路36號","121.546171666667","24.9258583333333","6500600","新店區"
"231041","619-UM","2019/10/04 19:09:34","新北市新店區中央一街45號","121.526851666667","24.973985","6500600","新店區"
"231063","641-BX","2019/10/04 19:09:30","新北市新店區車子路134號","121.505201666667","24.9493683333333","6500600","新店區"
"231048","KED-0819","2019/10/04 19:09:40","新北市新店區德正街27巷29弄123號","121.54575","24.972945","6500600","新店區"
"231046","719-UM","2019/10/04 19:09:44","新北市新店區華城路12-1號","121.529213333333","24.9578533333333","6500600","新店區"
"231057","720-UM","2019/10/04 19:09:26","新北市新店區百齡一路12號","121.553056666667","24.9324883333333","6500600","新店區"
"231059","897-TW","2019/10/04 19:09:38","新北市新店區安康路一段351-1號","121.519395","24.9640566666667","6500600","新店區"
"231040","898-TW","2019/10/04 19:09:25","新北市新店區三民路98-3號","121.533906666667","24.9734266666667","6500600","新店區"
"231043","899-TW","2019/10/04 19:09:26","新北市新店區中興路二段252號","121.547496666667","24.9759683333333","6500600","新店區"
"231066","AKT-0513","2019/10/04 19:09:36","新北市新店區安祥路35-1號","121.491855","24.95543","6500600","新店區"
"241035","462-BY","2019/10/04 19:09:44","新北市三重區大仁街55號","121.493513333333","25.065945","6500200","三重區"
"241026","480-VK","2019/10/04 19:09:41","新北市三重區泉州街84巷18號","121.49566","25.0542916666667","6500200","三重區"
"241022","KED-0820","2019/10/04 19:09:43","新北市三重區三民街155巷5號","121.484296666667","25.064575","6500200","三重區"
"241029","942-UM","2019/10/04 19:09:43","新北市三重區重安街83號","121.492533333333","25.0558166666667","6500200","三重區"
"235066","003-UY","2019/10/04 19:09:30","新北市中和區廣福路61號","121.502553333333","25.0012866666667","6500300","中和區"
"235063","006-UY","2019/10/04 19:09:34","新北市中和區連城路249巷5號","121.493716666667","24.996775","6500300","中和區"
"235056","096-UM","2019/10/04 19:09:32","新北市中和區中正路1161號","121.482056666667","25.0087183333333","6500300","中和區"
"235039","097-UM","2019/10/04 19:09:27","新北市中和區景平路3號","121.523635","24.9902266666667","6500300","中和區"
"235065","098-UM","2019/10/04 19:09:38","新北市中和區中山路二段136巷40號","121.501193333333","25.0044633333333","6500300","中和區"
"235040","150-BY","2019/10/04 19:09:41","新北市中和區保健路69號","121.50985","24.9971","6500300","中和區"
"235058","151-BY","2019/10/04 19:09:42","新北市中和區連城路469巷22弄5號","121.48324","24.9951383333333","6500300","中和區"
"235055","183-VK","2019/10/04 19:09:43","新北市中和區德光路59號","121.469873333333","25.0038816666667","6500300","中和區"
"235038","185-VK","2019/10/04 19:09:33","新北市中和區大仁街10巷27弄4號","121.519198333333","24.992725","6500300","中和區"
"235067","255-BX","2019/10/04 19:09:40","新北市中和區中正路803號","121.48483","25.001","6500300","中和區"
"235044","293-VK","2019/10/04 19:09:30","新北市中和區中興街263巷4號","121.500265","24.9889266666667","6500300","中和區"
"235072","301-VK","2019/10/04 19:09:44","新北市中和區連城路144巷4弄11號","121.495705","24.9988783333333","6500300","中和區"
"235043","352-BY","2019/10/04 19:09:29","新北市中和區景平路266號","121.514588333333","24.9926333333333","6500300","中和區"
"235042","KEA-2878","2019/10/04 19:09:29","新北市中和區自強路5號","121.519986666667","24.9936933333333","6500300","中和區"
"235050","4979-A6","2019/10/04 19:09:32","新北市中和區復興路280巷18弄2號","121.502503333333","24.9915483333333","6500300","中和區"
"235069","4980-A6","2019/10/04 19:09:22","新北市中和區中和路217巷16號","121.504681666667","25.0002766666667","6500300","中和區"
"235070","558-UM","2019/10/04 19:09:43","新北市中和區連城路61號","121.49756","25.0015033333333","6500300","中和區"
"235045","565-BX","2019/10/04 19:09:32","新北市中和區景新街437巷27號","121.514541666667","24.98942","6500300","中和區"
"235060","KED-0823","2019/10/04 19:09:33","新北市中和區中山路三段89號","121.475495","25.0058016666667","6500300","中和區"
"235054","640-BX","2019/10/04 19:09:34","新北市中和區國光街112巷16弄2號","121.469756666667","25.001395","6500300","中和區"
"235047","732-UM","2019/10/04 19:09:36","新北市中和區和平街38巷7號","121.509345","24.9909133333333","6500300","中和區"
"235071","783-BX","2019/10/04 19:09:43","新北市中和區連城路519號","121.48202","24.995355","6500300","中和區"
"235057","801-TS","2019/10/04 19:09:23","新北市中和區員山路423巷7號","121.480513333333","25.003155","6500300","中和區"
"235041","802-TS","2019/10/04 19:09:32","新北市永和區中和路373號","121.508311666667","24.9996366666667","6500300","中和區"
"235052","805-TS","2019/10/04 19:09:25","新北市中和區興南路二段142巷31弄61號","121.501783333333","24.9835116666667","6500300","中和區"
"235048","896-TW","2019/10/04 19:09:34","新北市中和區忠孝街60巷2弄2號","121.511673333333","24.983725","6500300","中和區"
"235053","900-TW","2019/10/04 19:09:26","新北市中和區華福街71巷18號","121.467306666667","24.9969783333333","6500300","中和區"
"235064","911-UM","2019/10/04 19:09:39","新北市中和區中和路51號","121.500318333333","25.0012683333333","6500300","中和區"
"235051","157-BY","2019/10/04 19:09:36","新北市中和區興南路一段67號","121.510296666667","24.9895083333333","6500300","中和區"
"235037","AAC-213","2019/10/04 19:09:24","新北市中和區自立路15巷8號","121.522905","24.9959483333333","6500300","中和區"
"235059","AAC-215","2019/10/04 19:09:26","新北市中和區圓通路294巷17-5號","121.48862","24.9904483333333","6500300","中和區"
"220065","072-UY","2019/10/04 19:09:43","新北市板橋區民族路223號","121.469636666667","25.007235","6500100","板橋區"
"220086","073-UY","2019/10/04 19:09:28","新北市板橋區中正路250巷40號","121.457035","25.0194533333333","6500100","板橋區"
"220106","075-UY","2019/10/04 19:09:33","新北市板橋區長江路三段24巷5號","121.47263","25.033255","6500100","板橋區"
"220069","AAD-861","2019/10/04 19:09:33","新北市板橋區貴興路35號","121.457531666667","25.0038933333333","6500100","板橋區"
"226004","312-R5","2019/10/04 19:09:43","新北市平溪區靜安路三段10號","121.75227","25.0266916666667","6502400","平溪區"
"235049","251-BX","2019/10/04 19:09:38","新北市中和區景新街205-15號","121.507356666667","24.9950583333333","6500300","中和區"
"228002","663-BX","2019/10/04 19:09:47","新北市貢寮區福隆里福隆街36號","121.9451","25.017455","6502600","貢寮區"
"228001","670-TC","2019/10/04 19:09:31","新北市貢寮區真理里新港街10號","121.925471666667","25.0543266666667","6502600","貢寮區"
"228003","828-UM","2019/10/04 19:09:29","新北市貢寮區和美里和美街32-7號","121.912515","25.08497","6502600","貢寮區"
"224006","676-BX","2019/10/04 19:09:26","新北市瑞芳區靜安路四段35巷1號","121.795958333333","25.0973033333333","6501200","瑞芳區"
"224009","275-VK","2019/10/04 19:09:33","新北市瑞芳區洞頂路27號","121.861651666667","25.1200783333333","6501200","瑞芳區"
"224008","273-VK","2019/10/04 19:09:38","新北市瑞芳區瑞芳街82-1號","121.803135","25.1099733333333","6501200","瑞芳區"
"227002","642-TC","2019/10/04 19:09:42","新北市雙溪區平林里外平林9-5號","121.859171666667","25.0379866666667","6502500","雙溪區"
"227001","400-TW","2019/10/04 19:09:36","新北市雙溪區牡丹里中正路26號","121.864693333333","25.0377716666667","6502500","雙溪區"
"253005","032-BX","2019/10/04 19:09:35","新北市石門區小坑14-3號","121.60036","25.2873733333333","6502200","石門區"
"253006","295-VK","2019/10/04 19:09:28","新北市石門區崁子腳58-53號","121.530498333333","25.28659","6502200","石門區"
"222001","KEA-2212","2019/10/04 19:09:32","新北市深坑區北深路一段300號","121.624165","25.005755","6501800","深坑區"
"208002","KEA-2872","2019/10/04 19:09:33","新北市金山區中正路67號","121.633858333333","25.221725","6502700","金山區"
"208003","665-BX","2019/10/04 19:09:39","新北市金山區中正路13號","121.636508333333","25.222355","6502700","金山區"
"251005","010-UM","2019/10/04 19:09:26","新北市淡水區原德路11號","121.442038333333","25.1712683333333","6501000","淡水區"
"251001","011-UM","2019/10/04 19:09:27","新北市淡水區自強路201巷39號","121.462158333333","25.1267666666667","6501000","淡水區"
"251002","012-UM","2019/10/04 19:09:35","新北市淡水區中山路50號","121.443978333333","25.1703333333333","6501000","淡水區"
"251010","413-VK","2019/10/04 19:09:28","新北市淡水區中正路一段156巷3號","121.421181666667","25.1803483333333","6501000","淡水區"
"251007","442-VK","2019/10/04 19:09:22","新北市淡水區民生路135巷30號","121.466618333333","25.1391433333333","6501000","淡水區"
"251009","575-R6","2019/10/04 19:09:33","新北市淡水區重建街36號","121.43992","25.1712516666667","6501000","淡水區"
"251003","766-UM","2019/10/04 19:09:23","新北市淡水區中山北路一段129號","121.442866666667","25.17699","6501000","淡水區"
"207003","550-UM","2019/10/04 19:09:25","新北市萬里區大鵬里頂社24-1號","121.657378333333","25.2103633333333","6502800","萬里區"
"207004","291-VK","2019/10/04 19:09:39","新北市萬里區萬里里瑪鋉下街50號","121.691546666667","25.1795066666667","6502800","萬里區"
"252002","178-VK","2019/10/04 19:09:41","新北市三芝區中正路一段68號","121.503656666667","25.2578316666667","6502100","三芝區"
"252003","249-BX","2019/10/04 19:09:38","新北市三芝區錫板里南勢崗6號","121.479565","25.2619233333333","6502100","三芝區"
"208001","170-UY","2019/10/04 19:09:39","新北市金山區金包里街42號","121.639493333333","25.2210183333333","6502700","金山區"
"237004","KEA-2597","2019/10/04 19:09:36","新北市三峽區有木205-1號","121.439036666667","24.851625","6500900","三峽區"
"237007","153-BY","2019/10/04 19:09:25","新北市三峽區中正路二段42巷50號","121.364366666667","24.9206033333333","6500900","三峽區"
"237013","252-BX","2019/10/04 19:09:37","新北市三峽區光明路69巷25號","121.376598333333","24.9291916666667","6500900","三峽區"
"237012","275-BY","2019/10/04 19:09:28","新北市三峽區三樹路222巷254弄79號","121.39369","24.944485","6500900","三峽區"
"237008","302-VK","2019/10/04 19:09:32","新北市三峽區光明路106巷74號","121.3748","24.9265766666667","6500900","三峽區"
"237014","433-BY","2019/10/04 19:09:34","新北市三峽區復興路375號","121.363053333333","24.93855","6500900","三峽區"
"237006","5529-G3","2019/10/04 19:09:25","新北市三峽區溪北街109號","121.398353333333","24.9354783333333","6500900","三峽區"
"237011","KEA-2596","2019/10/04 19:09:41","新北市三峽區介壽路三段107號","121.395478333333","24.9392866666667","6500900","三峽區"
"237015","649-BX","2019/10/04 19:09:40","新北市三峽區安坑41-6號","121.45351","24.9315066666667","6500900","三峽區"
"237010","706-TV","2019/10/04 19:09:29","新北市三峽區國光街157號","121.371666666667","24.93944","6500900","三峽區"
"237005","AKY-6261","2019/10/04 19:09:40","新北市三峽區中山路459巷131號","121.350886666667","24.9345216666667","6500900","三峽區"
"236079","166-UM","2019/10/04 19:09:41","新北市土城區龍泉路38-1號","121.412061666667","24.9459133333333","6501300","土城區"
"236026","269-VK","2019/10/04 19:09:28","新北市土城區中正路74巷2弄1號","121.444655","24.975025","6501300","土城區"
"236014","270-VK","2019/10/04 19:09:41","新北市土城區學府路一段75巷16弄16號","121.456648333333","24.98721","6501300","土城區"
"236069","KEA-2877","2019/10/04 19:09:32","新北市土城區裕生路65-1號","121.447411666667","24.9855733333333","6501300","土城區"
"252001","KED-0821","2019/10/04 19:09:42","新北市三芝區長勤街84號","121.500211666667","25.255055","6502100","三芝區"
"236020","401-BY","2019/10/04 19:09:44","新北市土城區延峰街23號","121.46906","24.985855","6501300","土城區"
"236059","912-UM","2019/10/04 19:09:41","新北市土城區金城路一段72號","121.443733333333","24.9726166666667","6501300","土城區"
"236048","913-UM","2019/10/04 19:09:35","新北市土城區明德路一段365-1號","121.453665","24.97909","6501300","土城區"
"238015","755-BX","2019/10/04 19:09:32","新北市樹林區備內街121號","121.405955","24.98941","6500700","樹林區"
"238023","601-UM","2019/10/04 19:09:33","新北市樹林區三興路66號","121.39371","25.01458","6500700","樹林區"
"238019","599-UM","2019/10/04 19:09:37","新北市樹林區東榮街180號","121.414376666667","24.98197","6500700","樹林區"
"238022","KEA-2213","2019/10/04 19:09:33","新北市樹林區東興街16巷6弄1號","121.408986666667","24.9781133333333","6500700","樹林區"
"238021","KEA-2539","2019/10/04 19:09:40","新北市樹林區柑園街二段476-1號","121.361735","24.94559","6500700","樹林區"
"238025","303-VK","2019/10/04 19:08:42","新北市樹林區民和街77號","121.380463333333","24.971965","6500700","樹林區"
"238017","283-BY","2019/10/04 19:09:36","新北市樹林區光興街50號","121.40985","25.002705","6500700","樹林區"
"238014","282-BY","2019/10/04 19:09:28","新北市樹林區千歲街92巷7弄5號","121.427245","24.99771","6500700","樹林區"
"238020","268-VK","2019/10/04 19:09:40","新北市樹林區俊英街155巷9弄4號","121.423631666667","25.0118833333333","6500700","樹林區"
"238026","172-UY","2019/10/04 19:09:34","新北市樹林區佳園路一段41巷28弄2號","121.394493333333","24.9709016666667","6500700","樹林區"
"238016","169-UY","2019/10/04 19:09:42","新北市樹林區文化街25巷24號","121.418235","24.986745","6500700","樹林區"
"239007","AAC-297","2019/10/04 19:09:39","新北市鶯歌區中山路138巷3-10號","121.349615","24.958535","6500800","鶯歌區"
"239006","891-R6","2019/10/04 19:09:29","新北市鶯歌區鶯桃路91巷43號","121.337716666667","24.9520133333333","6500800","鶯歌區"
"239008","527-UM","2019/10/04 19:09:40","新北市鶯歌區國際二路18巷35號","121.338058333333","24.9757183333333","6500800","鶯歌區"
"239005","526-UM","2019/10/04 19:09:30","新北市鶯歌區大湖路361巷24弄18號","121.329998333333","24.9778583333333","6500800","鶯歌區"
"239001","417-VK","2019/10/04 19:09:39","新北市鶯歌區永明街66號","121.340771666667","24.9559083333333","6500800","鶯歌區"
"239003","360-BY","2019/10/04 19:09:42","新北市鶯歌區鶯桃路431號","121.332588333333","24.9650966666667","6500800","鶯歌區"
"239002","359-BY","2019/10/04 19:09:31","新北市鶯歌區中正一路280號","121.355491666667","24.9570566666667","6500800","鶯歌區"
"239004","193-VK","2019/10/04 19:09:29","新北市鶯歌區中正三路318巷39號","121.327223333333","24.9364833333333","6500800","鶯歌區"
"221008","489-VK","2019/10/04 19:09:28","新北市汐止區康寧街418-1號","121.630436666667","25.068035","6501100","汐止區"
"221036","130-UY","2019/10/04 19:09:29","新北市汐止區南昌街9號","121.663453333333","25.06976","6501100","汐止區"
"244019","KED-0667","2019/10/04 19:09:39","新北市林口區文化二路一段490-4號","121.376048333333","25.0783266666667","6501700","林口區"
"221032","280-BY","2019/10/04 19:09:33","新北市汐止區橫科路241-6號","121.6225","25.0486966666667","6501100","汐止區"
"221031","353-TW","2019/10/04 19:09:28","新北市汐止區中興路226-5號","121.630866666667","25.0669833333333","6501100","汐止區"
"221035","622-UM","2019/10/04 19:09:34","新北市汐止區汐萬路一段2號","121.656313333333","25.0671533333333","6501100","汐止區"
"221002","707-TV","2019/10/04 19:09:41","新北市汐止區大同路一段99號","121.628218333333","25.0537833333333","6501100","汐止區"
"220079","145-BY","2019/10/04 19:09:35","新北市板橋區公館街18號","121.456863333333","25.0123116666667","6500100","板橋區"
"220082","610-BX","2019/10/04 19:09:38","新北市板橋區溪崑二街75號","121.42796","24.990295","6500100","板橋區"
"220091","267-BY","2019/10/04 19:09:36","新北市板橋區縣民大道三段203號","121.479955","25.0250216666667","6500100","板橋區"
"220056","276-BY","2019/10/04 19:09:32","新北市板橋區信義路74巷1弄1號","121.457326666667","24.993165","6500100","板橋區"
"220072","277-BY","2019/10/04 19:09:42","新北市板橋區金門街222號","121.430976666667","24.9880466666667","6500100","板橋區"
"220101","280-UM","2019/10/04 19:09:24","新北市板橋區莊敬路61號","121.473996666667","25.0269433333333","6500100","板橋區"
"220071","283-VK","2019/10/04 19:09:39","新北市板橋區忠孝路154巷42號","121.464176666667","25.001475","6500100","板橋區"
"220094","285-UM","2019/10/04 19:09:32","新北市板橋區吳鳳路21巷2號","121.466948333333","25.0312383333333","6500100","板橋區"
"220083","286-VK","2019/10/04 19:09:32","新北市板橋區大觀路二段174巷176弄15號","121.442915","25.0032383333333","6500100","板橋區"
"220081","287-VK","2019/10/04 19:09:41","新北市板橋區南雅西路二段152號","121.452003333333","25.0133283333333","6500100","板橋區"
"220090","288-VK","2019/10/04 19:09:40","新北市板橋區長江路一段106巷11號","121.460001666667","25.029055","6500100","板橋區"
"220061","293-UM","2019/10/04 19:09:31","新北市板橋區中山路二段318巷20弄41號","121.48126","25.0189183333333","6500100","板橋區"
"220084","296-UM","2019/10/04 19:09:36","新北市板橋區溪崑二街16號","121.428655","24.9917166666667","6500100","板橋區"
"220053","299-UM","2019/10/04 19:09:38","新北市板橋區永豐街130號","121.47762","25.0212266666667","6500100","板橋區"
"220075","303-R5","2019/10/04 19:09:40","新北市板橋區館前西路159號","121.455943333333","25.0079233333333","6500100","板橋區"
"220062","305-R5","2019/10/04 19:09:42","新北市板橋區三民路二段245巷69弄13號","121.48105","25.0131333333333","6500100","板橋區"
"220092","307-R5","2019/10/04 19:09:35","新北市板橋區松江街72巷12號","121.469211666667","25.0278233333333","6500100","板橋區"
"220098","317-R6","2019/10/04 19:09:37","新北市板橋區民有街49號","121.46549","25.0260316666667","6500100","板橋區"
"220080","461-BY","2019/10/04 19:09:29","新北市板橋區大觀路二段7巷1號","121.447226666667","25.0035633333333","6500100","板橋區"
"220089","487-VK","2019/10/04 19:09:41","新北市板橋區文化路一段241號","121.464115","25.0178483333333","6500100","板橋區"
"220088","491-VK","2019/10/04 19:09:41","新北市板橋區雙十路一段25號","121.477548333333","25.0245283333333","6500100","板橋區"
"220035","560-BX","2019/10/04 19:09:38","新北市板橋區中正路379巷20號","121.453613333333","25.0218283333333","6500100","板橋區"
"220103","561-BX","2019/10/04 19:09:35","新北市板橋區文化路一段270巷2號","121.467326666667","25.0204716666667","6500100","板橋區"
"220063","609-BX","2019/10/04 19:09:27","新北市板橋區三民路二段202-5號","121.478951666667","25.0144766666667","6500100","板橋區"
"220057","686-BX","2019/10/04 19:09:33","新北市板橋區重慶路349-3號","121.464143333333","24.997875","6500100","板橋區"
"220077","687-BX","2019/10/04 19:09:40","新北市板橋區大觀路二段108號","121.444196666667","24.999415","6500100","板橋區"
"220093","689-BX","2019/10/04 19:09:38","新北市板橋區漢生西路17號","121.463596666667","25.018145","6500100","板橋區"
"220054","741-BX","2019/10/04 19:09:44","新北市板橋區重慶路71-2號","121.46202","25.0068483333333","6500100","板橋區"
"220102","KEA-2699","2019/10/04 19:09:27","新北市板橋區田單街2巷38號","121.481718333333","25.02756","6500100","板橋區"
"220055","827-TW","2019/10/04 19:09:41","新北市板橋區新民街9號","121.463836666667","25.0097466666667","6500100","板橋區"
"220068","830-TW","2019/10/04 19:09:28","新北市板橋區中山路二段443巷34號","121.480903333333","25.0210983333333","6500100","板橋區"
"220067","831-TW","2019/10/04 19:09:30","新北市板橋區長安街230-3號","121.475076666667","25.0123666666667","6500100","板橋區"
"220074","895-R6","2019/10/04 19:09:37","新北市板橋區中正路自強新村5號","121.455268333333","25.0139533333333","6500100","板橋區"
"220073","985-R7","2019/10/04 19:09:23","新北市板橋區中正路294號","121.454955","25.0203016666667","6500100","板橋區"
"220097","AAC-210","2019/10/04 19:09:34","新北市板橋區幸福路60巷36號","121.460206666667","25.0217166666667","6500100","板橋區"
"220064","AAC-253","2019/10/04 19:09:35","新北市板橋區板新路238號","121.46821","25.0160416666667","6500100","板橋區"
"235068","KEA-2873","2019/10/04 19:09:32","新北市中和區連勝街21號","121.498563333333","24.99806","6500300","中和區"
"235061","KEA-2875","2019/10/04 19:09:38","新北市中和區連城路456巷2弄2號","121.478876666667","24.9948816666667","6500300","中和區"
