"lineid","car","time","location","longitude","latitude","cityid","cityname"
"234046","148-BY","2019/10/04 20:09:29","新北市永和區得和路381號","121.524893333333","24.9993683333333","6500400","永和區"
"234081","298-R6","2019/10/04 20:09:28","新北市永和區國中路86巷1號","121.524643333333","25.0060966666667","6500400","永和區"
"234038","336-UY","2019/10/04 20:09:34","新北市永和區成功路二段6號","121.526736666667","25.000915","6500400","永和區"
"234064","337-UY","2019/10/04 20:09:25","新北市永和區秀朗路二段43號","121.521616666667","25.0024216666667","6500400","永和區"
"234086","338-UY","2019/10/04 20:09:42","新北市永和區中正路628號","121.51691","25.0080016666667","6500400","永和區"
"234070","552-UM","2019/10/04 20:09:33","新北市永和區中正路553號","121.516756666667","25.008185","6500400","永和區"
"234017","745-BX","2019/10/04 20:09:38","新北市永和區文化路36號","121.514955","25.01509","6500400","永和區"
"234030","746-BX","2019/10/04 20:09:27","新北市永和區民有街75巷10弄9號","121.518566666667","24.9961483333333","6500400","永和區"
"234054","KEA-2590","2019/10/04 20:09:33","新北市永和區博愛街18巷1號","121.517675","25.0158033333333","6500400","永和區"
"234007","KED-0605","2019/10/04 20:09:30","新北市永和區仁愛路306巷77號","121.501958333333","25.0093266666667","6500400","永和區"
"234013","KEA-2591","2019/10/04 20:09:35","新北市永和區永貞路415號","121.507441666667","25.00932","6500400","永和區"
"234061","AAD-866","2019/10/04 20:09:39","新北市永和區安樂路72巷4號","121.51497","24.9984883333333","6500400","永和區"
"234042","862-TW","2019/10/04 20:09:37","新北市永和區雙和街23號","121.509216666667","25.0021166666667","6500400","永和區"
"234050","863-TW","2019/10/04 20:09:39","新北市永和區新生路186號","121.505986666667","25.01368","6500400","永和區"
"249005","172-UM","2019/10/04 20:09:35","新北市八里區下罟子58-11號","121.387635","25.13724","6502300","八里區"
"249001","173-UM","2019/10/04 20:09:33","新北市八里區中華路二段305-7號","121.40358","25.1479666666667","6502300","八里區"
"249004","303-UY","2019/10/04 20:09:41","新北市八里區中山路一段195號","121.411813333333","25.1581666666667","6502300","八里區"
"249002","305-UY","2019/10/04 20:09:35","新北市八里區龍米路一段2-1號","121.458048333333","25.1149083333333","6502300","八里區"
"249003","593-UM","2019/10/04 20:09:46","新北市八里區中山路二段540巷9弄27號","121.396541666667","25.1465466666667","6502300","八里區"
"248016","026-BX","2019/10/04 20:09:38","新北市五股區成泰路三段577巷80弄72號","121.448906666667","25.1047466666667","6501500","五股區"
"248018","KED-0813","2019/10/04 20:09:25","新北市五股區自強路137號","121.43219","25.0697","6501500","五股區"
"248004","677-BX","2019/10/04 20:09:39","新北市五股區成泰路一段106-1號","121.435688333333","25.0719766666667","6501500","五股區"
"248002","678-BX","2019/10/04 20:09:32","新北市五股區成泰路三段361號","121.448645","25.09584","6501500","五股區"
"248010","682-TV","2019/10/04 20:09:40","新北市五股區成泰路一段7巷38-1號","121.432538333333","25.0674016666667","6501500","五股區"
"234023","9380-KE","2019/10/04 20:09:37","新北市永和區中正路654巷16號","121.517343333333","25.0085616666667","6500400","永和區"
"234077","969-R7","2019/10/04 20:09:42","新北市永和區民享街23巷5弄8號","121.516118333333","24.99569","6500400","永和區"
"234074","AAC-211","2019/10/04 20:09:34","新北市永和區豫溪街159-1號","121.521345","25.010405","6500400","永和區"
"234067","AAC-212","2019/10/04 20:09:32","新北市永和區保平路214巷3弄2號","121.509235","25.006395","6500400","永和區"
"234003","AAC-295","2019/10/04 20:09:27","新北市永和區自強街47號","121.516066666667","25.0079433333333","6500400","永和區"
"244017","485-VK","2019/10/04 20:09:41","新北市林口區粉寮69號","121.405065","25.0908133333333","6501700","林口區"
"243011","267-VK","2019/10/04 20:09:33","新北市泰山區明志路三段531巷2號","121.421396666667","25.02972","6501600","泰山區"
"243012","AAD-798","2019/10/04 20:09:35","新北市泰山區楓江路23-1號","121.434133333333","25.0624266666667","6501600","泰山區"
"243014","KEA-2801","2019/10/04 20:09:42","新北市泰山區明志路一段34號","121.433471666667","25.0653816666667","6501600","泰山區"
"243016","421-VK","2019/10/04 20:09:45","新北市泰山區明志路三段405號","121.421311666667","25.0340116666667","6501600","泰山區"
"243009","KEA-2215","2019/10/04 20:09:34","新北市泰山區泰林路二段116巷4弄1號","121.435215","25.0595733333333","6501600","泰山區"
"243015","680-BX","2019/10/04 20:09:38","新北市泰山區明志路二段62號","121.429073333333","25.0527716666667","6501600","泰山區"
"222003","436-BY","2019/10/04 20:09:34","新北市深坑區埔新街56號","121.620286666667","25.0024866666667","6501800","深坑區"
"222002","659-BX","2019/10/04 20:09:38","新北市深坑區北深路三段158巷28號","121.60189","25.0041966666667","6501800","深坑區"
"231061","002-UM","2019/10/04 20:09:38","新北市新店區安興路32號","121.515806666667","24.9703566666667","6500600","新店區"
"231044","046-UY","2019/10/04 20:09:26","新北市新店區寶元路一段15巷20號","121.541943333333","24.9869166666667","6500600","新店區"
"231060","106-UY","2019/10/04 20:09:29","新北市新店區安康路三段191號","121.488121666667","24.9517316666667","6500600","新店區"
"231051","107-UY","2019/10/04 20:09:42","新北市新店區中央路111號","121.530988333333","24.9746033333333","6500600","新店區"
"231049","108-UY","2019/10/04 20:09:32","新北市新店區北新路二段121巷1-2號","121.542233333333","24.974875","6500600","新店區"
"231065","110-UY","2019/10/04 20:09:26","新北市新店區安祥路106巷133號","121.473286666667","24.9585216666667","6500600","新店區"
"231068","187-VK","2019/10/04 20:09:27","新北市新店區中興路三段200號","121.543903333333","24.98192","6500600","新店區"
"231062","256-BX","2019/10/04 20:09:33","新北市新店區安康路二段109號","121.512598333333","24.9618783333333","6500600","新店區"
"231054","260-TV","2019/10/04 20:09:32","新北市新店區檳榔路43巷2號","121.543046666667","24.9630083333333","6500600","新店區"
"231042","268-BY","2019/10/04 20:09:30","新北市新店區中興路二段55號","121.546416666667","24.9702366666667","6500600","新店區"
"231064","278-BY","2019/10/04 20:09:41","新北市新店區安德街20號","121.512381666667","24.96294","6500600","新店區"
"231050","AAD-862","2019/10/04 20:09:43","新北市新店區北新路一段335號","121.541815","24.9686116666667","6500600","新店區"
"231045","355-BY","2019/10/04 20:09:39","新北市新店區北宜路一段312號","121.547365","24.9521683333333","6500600","新店區"
"231055","4716-K9","2019/10/04 20:09:29","新北市新店區中華路42巷40號","121.541438333333","24.9692583333333","6500600","新店區"
"231056","4715-K9","2019/10/04 20:09:24","新北市新店區中正路328巷2號","121.537095","24.9751","6500600","新店區"
"231067","4772-VM","2019/10/04 20:09:42","新北市新店區安康路一段3-1號","121.534015","24.9605283333333","6500600","新店區"
"231053","515-UM","2019/10/04 20:09:43","新北市新店區新烏路三段寶島巷4號","121.551495","24.89941","6500600","新店區"
"231041","619-UM","2019/10/04 20:09:33","新北市新店區中正路460號","121.533958333333","24.9793133333333","6500600","新店區"
"231063","641-BX","2019/10/04 20:09:30","新北市新店區黎明路52巷1號","121.502321666667","24.9485983333333","6500600","新店區"
"231048","KED-0819","2019/10/04 20:09:40","新北市新店區寶橋路59-1號","121.545115","24.975015","6500600","新店區"
"231057","720-UM","2019/10/04 20:09:26","新北市新店區百齡一路12號","121.553053333333","24.9324366666667","6500600","新店區"
"231059","897-TW","2019/10/04 20:09:38","新北市新店區安成街31號","121.50982","24.96095","6500600","新店區"
"231040","898-TW","2019/10/04 20:09:37","新北市新店區中正路70號","121.54409","24.9701866666667","6500600","新店區"
"231043","899-TW","2019/10/04 20:09:46","新北市新店區民族路178號","121.537075","24.9762333333333","6500600","新店區"
"231066","AKT-0513","2019/10/04 20:09:36","新北市新店區安興路20號","121.515036666667","24.9659133333333","6500600","新店區"
"241011","013-R5","2019/10/04 20:09:28","新北市三重區仁愛街34號","121.496468333333","25.0719366666667","6500200","三重區"
"241028","022-UY","2019/10/04 20:09:25","新北市三重區大同南路182號","121.496806666667","25.056985","6500200","三重區"
"241008","059-VK","2019/10/04 20:09:29","新北市三重區永福街197巷4號","121.479193333333","25.0745216666667","6500200","三重區"
"241031","061-VK","2019/10/04 20:09:39","新北市三重區過圳街9-1號","121.488713333333","25.060115","6500200","三重區"
"241015","062-VK","2019/10/04 20:09:35","新北市三重區福德北路26-3號","121.502176666667","25.0649383333333","6500200","三重區"
"241017","063-VK","2019/10/04 20:09:41","新北市三重區大同北路221巷70號","121.493031666667","25.0667533333333","6500200","三重區"
"241024","065-VK","2019/10/04 20:09:37","新北市三重區中正北路280號","121.480591666667","25.0686033333333","6500200","三重區"
"241007","066-VK","2019/10/04 20:09:36","新北市三重區三和路四段111-8號","121.486361666667","25.0775816666667","6500200","三重區"
"241002","090-VK","2019/10/04 20:09:41","新北市三重區仁義街210號","121.496321666667","25.082255","6500200","三重區"
"241003","091-VK","2019/10/04 20:09:36","新北市三重區富華街2號","121.489298333333","25.0822833333333","6500200","三重區"
"241016","266-UM","2019/10/04 20:09:34","新北市三重區大同北路54巷2號","121.494118333333","25.0634766666667","6500200","三重區"
"241009","267-UM","2019/10/04 20:09:35","新北市三重區三和路四段382巷92弄2號","121.47982","25.078115","6500200","三重區"
"241018","268-UM","2019/10/04 20:09:32","新北市三重區正義北路256巷102號","121.493836666667","25.06791","6500200","三重區"
"241032","269-UM","2019/10/04 20:09:35","新北市三重區捷運路65號","121.483418333333","25.05562","6500200","三重區"
"241013","270-UM","2019/10/04 20:09:29","新北市三重區三和路三段151巷9號","121.492476666667","25.0739166666667","6500200","三重區"
"241025","271-UM","2019/10/04 20:09:33","新北市三重區中正北路193巷39號","121.475728333333","25.0709366666667","6500200","三重區"
"241030","KED-0822","2019/10/04 20:09:28","新北市三重區集美街75巷12號","121.488196666667","25.05307","6500200","三重區"
"241035","462-BY","2019/10/04 20:09:23","新北市三重區中央北路18巷41號","121.499498333333","25.0638433333333","6500200","三重區"
"241004","475-VK","2019/10/04 20:09:41","新北市三重區仁愛街425巷7號","121.49076","25.0817833333333","6500200","三重區"
"241020","478-VK","2019/10/04 20:09:30","新北市三重區三和路三段186-2號","121.49194","25.07345","6500200","三重區"
"241026","480-VK","2019/10/04 20:09:41","新北市三重區福德南路65巷2號","121.5023","25.06045","6500200","三重區"
"241014","543-UM","2019/10/04 20:09:42","新北市三重區長壽街120巷22號","121.501928333333","25.0695783333333","6500200","三重區"
"241023","545-UM","2019/10/04 20:09:31","新北市三重區三民街310號","121.477131666667","25.0689566666667","6500200","三重區"
"241001","547-UM","2019/10/04 20:09:25","新北市三重區溪尾街24號","121.490706666667","25.07621","6500200","三重區"
"241005","AAD-863","2019/10/04 20:09:27","新北市三重區碧華街348號","121.490521666667","25.0839683333333","6500200","三重區"
"241012","743-BX","2019/10/04 20:09:44","新北市三重區仁愛街125巷93號","121.498255","25.0761166666667","6500200","三重區"
"241022","KED-0820","2019/10/04 20:09:40","新北市三重區重陽路二段8號","121.486821666667","25.0619766666667","6500200","三重區"
"241006","887-TS","2019/10/04 20:09:27","新北市三重區力行路二段125號","121.483091666667","25.0766866666667","6500200","三重區"
"241029","942-UM","2019/10/04 20:09:43","新北市三重區光明路32巷28號","121.491995","25.0587033333333","6500200","三重區"
"241033","AAC-255","2019/10/04 20:09:30","新北市三重區光復路一段61巷23號","121.47346","25.0491983333333","6500200","三重區"
"235066","003-UY","2019/10/04 20:09:30","新北市中和區水源路117號","121.508125","25.003615","6500300","中和區"
"235039","097-UM","2019/10/04 20:09:46","新北市中和區自強路20號","121.520076666667","24.99542","6500300","中和區"
"235065","098-UM","2019/10/04 20:09:38","新北市中和區永和路128巷47號","121.497716666667","25.0068733333333","6500300","中和區"
"235040","150-BY","2019/10/04 20:09:40","新北市中和區保健路33巷5號","121.508961666667","24.9979716666667","6500300","中和區"
"235055","183-VK","2019/10/04 20:09:37","新北市三重區疏洪西路400號","121.468816666667","25.0639733333333","6500300","中和區"
"247016","KEA-2869","2019/10/04 20:09:41","新北市蘆洲區光華路151號","121.465603333333","25.08208","6501400","蘆洲區"
"247010","KED-0682","2019/10/04 20:09:28","新北市蘆洲區信義路158號","121.479283333333","25.083495","6501400","蘆洲區"
"235050","4979-A6","2019/10/04 20:09:37","新北市中和區景新街272號","121.510665","24.992345","6500300","中和區"
"235069","4980-A6","2019/10/04 20:09:42","新北市中和區景新街34巷2弄5號","121.502943333333","24.999105","6500300","中和區"
"235051","157-BY","2019/10/04 20:09:36","新北市中和區捷運路85號","121.508321666667","24.9901733333333","6500300","中和區"
"235037","AAC-213","2019/10/04 20:09:44","新北市板橋區長江路二段311巷18-1號","121.470536666667","25.0361566666667","6500300","中和區"
"235059","AAC-215","2019/10/04 20:09:46","新北市中和區圓通路335巷33弄11號","121.493193333333","24.9892116666667","6500300","中和區"
"220065","072-UY","2019/10/04 20:09:23","新北市板橋區新民街6巷20號","121.465376666667","25.01014","6500100","板橋區"
"247006","893-R6","2019/10/04 20:09:33","新北市蘆洲區中山二路309號","121.468735","25.0773766666667","6501400","蘆洲區"
"247020","546-UM","2019/10/04 20:09:40","新北市蘆洲區民義街68巷8號","121.473255","25.0897133333333","6501400","蘆洲區"
"247004","336-TH","2019/10/04 20:09:40","新北市蘆洲區長安街285巷23號","121.457466666667","25.0840983333333","6501400","蘆洲區"
"247024","057-VK","2019/10/04 20:09:41","新北市蘆洲區光復路77巷16號","121.463958333333","25.0859683333333","6501400","蘆洲區"
"247014","056-VK","2019/10/04 20:09:40","新北市蘆洲區中山二路265巷8號","121.470221666667","25.079515","6501400","蘆洲區"
"247018","053-VK","2019/10/04 20:09:28","新北市蘆洲區民族路314巷11-2號","121.478033333333","25.090565","6501400","蘆洲區"
"247022","007-UY","2019/10/04 20:09:30","新北市蘆洲區保和街50-1號","121.469646666667","25.0862333333333","6501400","蘆洲區"
"247002","001-UY","2019/10/04 20:09:42","新北市蘆洲區永康街2巷2號","121.459408333333","25.08611","6501400","蘆洲區"
"226004","312-R5","2019/10/04 20:09:43","新北市平溪區靜安路二段430號","121.739861666667","25.0247883333333","6502400","平溪區"
"224010","AGQ-8101","2019/10/04 20:09:26","新北市瑞芳區輕便路129號","121.843801666667","25.1091833333333","6501200","瑞芳區"
"224009","275-VK","2019/10/04 20:09:33","新北市瑞芳區民權街3-1號","121.809295","25.1082866666667","6501200","瑞芳區"
"222001","KEA-2212","2019/10/04 20:09:32","新北市深坑區北深路三段197號","121.601026666667","25.0037316666667","6501800","深坑區"
"251001","011-UM","2019/10/04 20:09:27","新北市淡水區淡金路二段15號","121.44613","25.189205","6501000","淡水區"
"251002","012-UM","2019/10/04 20:09:35","新北市淡水區中正路334號","121.435823333333","25.1731366666667","6501000","淡水區"
"251004","180-VK","2019/10/04 20:09:27","新北市淡水區民族路29巷56號","121.461835","25.1367833333333","6501000","淡水區"
"251008","181-VK","2019/10/04 20:09:35","新北市淡水區淡海路72巷28弄4號","121.424633333333","25.1821483333333","6501000","淡水區"
"251010","413-VK","2019/10/04 20:09:28","新北市淡水區濱海路三段150號","121.424753333333","25.1919116666667","6501000","淡水區"
"251007","442-VK","2019/10/04 20:09:42","新北市淡水區中正東路一段111巷1號","121.453726666667","25.1601166666667","6501000","淡水區"
"251012","443-VK","2019/10/04 20:09:33","新北市淡水區淡金路三段224號","121.448931666667","25.2048516666667","6501000","淡水區"
"251006","561-UM","2019/10/04 20:09:25","新北市淡水區北新路141巷3號","121.449246666667","25.17917","6501000","淡水區"
"251009","575-R6","2019/10/04 20:09:33","新北市淡水區博愛街14號","121.446025","25.1699133333333","6501000","淡水區"
"251011","650-BX","2019/10/04 20:09:38","新北市淡水區崁頂51-2號","121.441988333333","25.1974166666667","6501000","淡水區"
"251003","766-UM","2019/10/04 20:09:43","新北市淡水區中山北路二段2號","121.444571666667","25.18295","6501000","淡水區"
"207003","550-UM","2019/10/04 20:09:25","新北市萬里區大鵬里萬里加投180號","121.642933333333","25.215735","6502800","萬里區"
"207004","291-VK","2019/10/04 20:09:39","新北市萬里區北基里愛二街2號","121.68233","25.1767233333333","6502800","萬里區"
"252002","178-VK","2019/10/04 20:09:41","新北市三芝區中正路一段72號","121.503961666667","25.2576683333333","6502100","三芝區"
"237012","275-BY","2019/10/04 20:09:28","新北市三峽區中華路74-5號","121.371531666667","24.9291466666667","6500900","三峽區"
"237006","5529-G3","2019/10/04 20:09:37","新北市三峽區嘉添181號","121.370031666667","24.911435","6500900","三峽區"
"237015","649-BX","2019/10/04 20:09:40","新北市三峽區介壽路二段138巷1弄98-3號","121.39869","24.9323333333333","6500900","三峽區"
"237005","AKY-6261","2019/10/04 20:09:40","新北市三峽區三樹路98巷119號","121.382293333333","24.9390516666667","6500900","三峽區"
"236042","KED-0685","2019/10/04 20:09:44","新北市土城區學享街66號","121.452533333333","24.9862183333333","6501300","土城區"
"236079","166-UM","2019/10/04 20:09:45","新北市土城區福安街14號","121.420038333333","24.96509","6501300","土城區"
"236030","253-BX","2019/10/04 20:09:35","新北市土城區中央路一段145號","121.44672","24.987965","6501300","土城區"
"236026","269-VK","2019/10/04 20:09:39","新北市土城區明德路二段118號","121.44485","24.984275","6501300","土城區"
"236014","270-VK","2019/10/04 20:09:35","新北市土城區德興街115號","121.454556666667","24.992145","6501300","土城區"
"236039","271-VK","2019/10/04 20:09:38","新北市土城區延吉街296巷1弄2號","121.464371666667","24.984535","6501300","土城區"
"247012","KED-0683","2019/10/04 20:09:43","新北市蘆洲區民族路250巷11號","121.47993","25.0890066666667","6501400","蘆洲區"
"236069","KEA-2877","2019/10/04 20:09:31","新北市土城區中央路三段141-6號","121.433241666667","24.965495","6501300","土城區"
"252001","KED-0821","2019/10/04 20:09:42","新北市三芝區公正街22號","121.49968","25.25796","6502100","三芝區"
"236020","401-BY","2019/10/04 20:09:39","新北市土城區延吉街137巷25弄8號","121.47153","24.9849916666667","6501300","土城區"
"236059","912-UM","2019/10/04 20:09:36","新北市土城區中央路三段32號","121.438475","24.9689833333333","6501300","土城區"
"236048","913-UM","2019/10/04 20:09:35","新北市土城區清水路117號","121.457441666667","24.9816533333333","6501300","土城區"
"242041","AAC-296","2019/10/04 20:09:37","新北市新莊區壽山路55-3號","121.412283333333","25.031665","6500500","新莊區"
"242060","986-R7","2019/10/04 20:09:35","新北市新莊區瓊林路瓊英巷4弄2號","121.443618333333","25.0274283333333","6500500","新莊區"
"242005","751-BX","2019/10/04 20:09:25","新北市新莊區化成路372號","121.465843333333","25.0497483333333","6500500","新莊區"
"242029","615-BX","2019/10/04 20:09:33","新北市新莊區中原路355號","121.444816666667","25.05428","6500500","新莊區"
"242027","613-BX","2019/10/04 20:09:40","新北市新莊區幸福路902號","121.443095","25.0493616666667","6500500","新莊區"
"242058","612-BX","2019/10/04 20:09:30","新北市新莊區龍安路333號","121.422415","25.01923","6500500","新莊區"
"242054","497-BY","2019/10/04 20:09:30","新北市新莊區西盛街410號","121.427415","25.0124033333333","6500500","新莊區"
"242048","442-UM","2019/10/04 20:09:26","新北市新莊區四維路152巷35號","121.421965","25.022335","6500500","新莊區"
"242002","441-UM","2019/10/04 20:09:44","新北市新莊區中正路33號","121.463933333333","25.04095","6500500","新莊區"
"242007","440-UM","2019/10/04 20:09:37","新北市新莊區福壽街164巷19號","121.459271666667","25.0529716666667","6500500","新莊區"
"242044","415-TV","2019/10/04 20:09:43","新北市新莊區中正路929巷7弄10號","121.411338333333","25.020465","6500500","新莊區"
"242013","413-TV","2019/10/04 20:09:41","新北市新莊區中港路398號","121.452268333333","25.0497866666667","6500500","新莊區"
"242050","400-BY","2019/10/04 20:09:36","新北市新莊區民安西路172巷7號","121.425463333333","25.01602","6500500","新莊區"
"242025","362-BY","2019/10/04 20:09:36","新北市新莊區五權一路12巷25弄14號","121.458356666667","25.0643233333333","6500500","新莊區"
"242023","353-BY","2019/10/04 20:09:41","新北市新莊區化成路540-1號","121.466318333333","25.05333","6500500","新莊區"
"242015","132-UY","2019/10/04 20:09:35","新北市新莊區中平路26巷44號","121.446781666667","25.0432616666667","6500500","新莊區"
"242039","135-UY","2019/10/04 20:09:42","新北市新莊區龍安路497號","121.425978333333","25.0180183333333","6500500","新莊區"
"242056","172-VK","2019/10/04 20:09:34","新北市新莊區豐年街50巷3號","121.446103333333","25.031815","6500500","新莊區"
"242017","173-VK","2019/10/04 20:09:39","新北市新莊區中安街14號","121.453163333333","25.0456366666667","6500500","新莊區"
"242032","175-VK","2019/10/04 20:09:42","新北市新莊區中正路449號","121.443136666667","25.0340966666667","6500500","新莊區"
"242021","KED-0687","2019/10/04 20:09:34","新北市新莊區中正路200號","121.449381666667","25.035765","6500500","新莊區"
"242011","346-TH","2019/10/04 20:09:42","新北市新莊區中信街61號","121.449271666667","25.0508183333333","6500500","新莊區"
"242037","348-TH","2019/10/04 20:09:28","新北市新莊區建安街75號","121.427725","25.0248633333333","6500500","新莊區"
"242009","349-TH","2019/10/04 20:09:35","新北市新莊區昌盛街35巷1弄2號","121.454085","25.05035","6500500","新莊區"
"242034","350-TH","2019/10/04 20:09:33","新北市新莊區中正路316號","121.446291666667","25.0350216666667","6500500","新莊區"
"242019","351-TH","2019/10/04 20:09:30","新北市新莊區思源路137號","121.45967","25.0437583333333","6500500","新莊區"
"238021","KEA-2539","2019/10/04 20:09:00","新北市樹林區中山路三段214號","121.379913333333","24.9677533333333","6500700","樹林區"
"221008","489-VK","2019/10/04 20:09:28","新北市汐止區忠一街9巷7號","121.620486666667","25.073205","6501100","汐止區"
"221036","130-UY","2019/10/04 20:09:34","新北市汐止區新台五路二段41巷1號","121.66298","25.066565","6501100","汐止區"
"221015","131-UY","2019/10/04 20:09:30","新北市汐止區建成路17號","121.66449","25.072595","6501100","汐止區"
"221010","269-BY","2019/10/04 20:09:32","新北市汐止區連峰街227號","121.64506","25.0813083333333","6501100","汐止區"
"221012","278-VK","2019/10/04 20:09:29","新北市汐止區大同路三段451號","121.678645","25.0712833333333","6501100","汐止區"
"221023","279-VK","2019/10/04 20:09:26","新北市汐止區明峰街216號","121.627196666667","25.0689916666667","6501100","汐止區"
"221032","280-BY","2019/10/04 20:09:33","新北市汐止區力行街59巷9弄2號","121.617306666667","25.0496316666667","6501100","汐止區"
"221027","281-BY","2019/10/04 20:09:24","新北市汐止區光明街28號","121.660195","25.0686","6501100","汐止區"
"221029","298-VK","2019/10/04 20:09:37","新北市汐止區樟樹一路123巷19號","121.641296666667","25.06455","6501100","汐止區"
"221021","299-VK","2019/10/04 20:09:39","新北市汐止區水源路一段233號","121.654291666667","25.0605716666667","6501100","汐止區"
"221031","353-TW","2019/10/04 20:09:35","新北市汐止區福德一路260號","121.633091666667","25.0643516666667","6501100","汐止區"
"221035","622-UM","2019/10/04 20:09:34","新北市汐止區長江街39巷21號","121.655276666667","25.07208","6501100","汐止區"
"221025","623-UM","2019/10/04 20:09:42","新北市汐止區秀峰路64-1號","121.659755","25.06459","6501100","汐止區"
"221038","646-BX","2019/10/04 20:09:30","新北市汐止區橋東街5巷2號","121.66705","25.0759083333333","6501100","汐止區"
"221033","647-BX","2019/10/04 20:09:26","新北市汐止區東勢街201巷104號","121.633533333333","25.04288","6501100","汐止區"
"221018","753-BX","2019/10/04 20:09:25","新北市汐止區茄苳路322號","121.673643333333","25.0664983333333","6501100","汐止區"
"220079","145-BY","2019/10/04 20:09:35","新北市板橋區建國街99號","121.459788333333","25.0173916666667","6500100","板橋區"
"220082","610-BX","2019/10/04 20:09:37","新北市板橋區大觀路三段201號","121.431738333333","24.99326","6500100","板橋區"
"224002","257-TC","2019/10/04 20:09:32","新北市瑞芳區員山子路3-9號","121.820208333333","25.1038666666667","6501200","瑞芳區"
"220083","286-VK","2019/10/04 20:09:31","新北市板橋區僑中二街88巷26號","121.445046666667","25.00962","6500100","板橋區"
"220081","287-VK","2019/10/04 20:09:37","新北市板橋區僑中一街124巷18弄26-1號","121.447191666667","25.0136166666667","6500100","板橋區"
"220061","293-UM","2019/10/04 20:09:31","新北市板橋區四川路一段316號","121.458425","25.0002083333333","6500100","板橋區"
"242046","281-VK","2019/10/04 20:09:26","新北市新莊區裕民街103巷16號","121.419011666667","25.02287","6500500","新莊區"
"220075","303-R5","2019/10/04 20:09:40","新北市板橋區金華街10巷124號","121.45954","25.0205633333333","6500100","板橋區"
"220062","305-R5","2019/10/04 20:09:38","新北市板橋區中山路二段617巷1弄2號","121.485341666667","25.0226183333333","6500100","板橋區"
"220080","461-BY","2019/10/04 20:09:29","新北市板橋區大觀路二段108號","121.4441","24.9994466666667","6500100","板橋區"
"220035","560-BX","2019/10/04 20:09:38","新北市板橋區新生街23巷1弄1號","121.456121666667","25.02143","6500100","板橋區"
"220103","561-BX","2019/10/04 20:09:34","新北市板橋區漢生東路43巷26號","121.466496666667","25.0174933333333","6500100","板橋區"
"220077","687-BX","2019/10/04 20:09:40","新北市板橋區僑中一街124巷18弄1號","121.446156666667","25.0138","6500100","板橋區"
"220054","741-BX","2019/10/04 20:09:34","新北市板橋區忠孝路忠義巷14弄2號","121.465478333333","25.0035533333333","6500100","板橋區"
"220102","KEA-2699","2019/10/04 20:09:27","新北市板橋區莒光路158-2號","121.473963333333","25.0240416666667","6500100","板橋區"
"220055","827-TW","2019/10/04 20:09:41","新北市板橋區忠孝路48巷11弄6號","121.461663333333","24.9998083333333","6500100","板橋區"
"220067","831-TW","2019/10/04 20:09:30","新北市板橋區中山路一段279號","121.469635","25.0137283333333","6500100","板橋區"
"220074","895-R6","2019/10/04 20:09:37","新北市板橋區縣民大道一段287號","121.46068","25.0102266666667","6500100","板橋區"
"220073","985-R7","2019/10/04 20:09:43","新北市板橋區南雅東路89號","121.453176666667","25.0086366666667","6500100","板橋區"
"220064","AAC-253","2019/10/04 20:09:39","新北市板橋區長安街331巷17號","121.473953333333","25.0125083333333","6500100","板橋區"
"235068","KEA-2873","2019/10/04 20:09:32","新北市中和區勝利路35巷1弄32號","121.500176666667","25.0078016666667","6500300","中和區"
"235026","KEA-2876","2019/10/04 19:59:02","新北市中和區員山路36巷16-3號","121.485033333333","24.9914016666667","6500300","中和區"
