"lineid","car","time","location","longitude","latitude","cityid","cityname"
"234081","298-R6","2019/10/04 20:19:28","新北市永和區福和路19巷1弄3號","121.524305","25.0078316666667","6500400","永和區"
"234038","336-UY","2019/10/04 20:19:25","新北市永和區成功路一段93巷23弄13號","121.528513333333","25.0034033333333","6500400","永和區"
"234064","337-UY","2019/10/04 20:19:25","新北市永和區得和路120號","121.518645","25.0001233333333","6500400","永和區"
"234086","338-UY","2019/10/04 20:19:42","新北市永和區永和路二段207號","121.515445","25.0136783333333","6500400","永和區"
"234070","552-UM","2019/10/04 20:19:33","新北市永和區永寧街113號","121.518201666667","25.0061683333333","6500400","永和區"
"234017","745-BX","2019/10/04 20:19:38","新北市永和區仁愛路71號","121.513211666667","25.0132466666667","6500400","永和區"
"234030","746-BX","2019/10/04 20:19:27","新北市中和區大仁街112號","121.520686666667","24.9924316666667","6500400","永和區"
"234054","KEA-2590","2019/10/04 20:19:33","新北市永和區光復街2巷33號","121.517428333333","25.0166566666667","6500400","永和區"
"234013","KEA-2591","2019/10/04 20:19:35","新北市永和區仁愛路295號","121.504861666667","25.009075","6500400","永和區"
"234061","AAD-866","2019/10/04 20:19:39","新北市永和區得和路51-4號","121.516931666667","25.0001183333333","6500400","永和區"
"234042","862-TW","2019/10/04 20:19:37","新北市中和區中安街172號","121.51088","24.99982","6500400","永和區"
"234050","863-TW","2019/10/04 20:19:40","新北市永和區文化路210號","121.510061666667","25.0166816666667","6500400","永和區"
"249005","172-UM","2019/10/04 20:19:35","新北市八里區下罟子1-15號","121.389178333333","25.1419466666667","6502300","八里區"
"249001","173-UM","2019/10/04 20:19:31","新北市八里區中華路二段536號","121.399271666667","25.1453016666667","6502300","八里區"
"249004","303-UY","2019/10/04 20:19:41","新北市八里區中山路一段326號","121.412896666667","25.1590933333333","6502300","八里區"
"249002","305-UY","2019/10/04 20:19:35","新北市八里區龍米路一段398-1號","121.451275","25.133155","6502300","八里區"
"249003","593-UM","2019/10/04 20:19:46","新北市八里區訊塘路66號","121.397703333333","25.145835","6502300","八里區"
"248016","026-BX","2019/10/04 20:19:38","新北市五股區凌雲路一段158巷37號","121.447025","25.1038066666667","6501500","五股區"
"248004","677-BX","2019/10/04 20:19:39","新北市五股區成泰路二段102號","121.437613333333","25.0828533333333","6501500","五股區"
"248002","678-BX","2019/10/04 20:19:26","新北市五股區成泰路三段155號","121.444936666667","25.0915316666667","6501500","五股區"
"234023","9380-KE","2019/10/04 20:19:37","新北市永和區勵行街31號","121.516436666667","25.013925","6500400","永和區"
"234077","969-R7","2019/10/04 20:19:42","新北市永和區中正路26號","121.512723333333","24.99406","6500400","永和區"
"234074","AAC-211","2019/10/04 20:19:34","新北市永和區豫溪街160巷4號","121.523288333333","25.009525","6500400","永和區"
"234067","AAC-212","2019/10/04 20:19:32","新北市永和區保平路268巷19號","121.508148333333","25.0056383333333","6500400","永和區"
"234003","AAC-295","2019/10/04 20:19:36","新北市永和區大新街47號","121.515623333333","25.008435","6500400","永和區"
"243011","267-VK","2019/10/04 20:19:40","新北市泰山區德安街26-1號","121.418443333333","25.03137","6501600","泰山區"
"243012","AAD-798","2019/10/04 20:19:35","新北市泰山區楓江路175-1號","121.44016","25.0665633333333","6501600","泰山區"
"243014","KEA-2801","2019/10/04 20:19:42","新北市泰山區泰林路二段280巷2號","121.431551666667","25.0623416666667","6501600","泰山區"
"243016","421-VK","2019/10/04 20:19:31","新北市泰山區明志路二段346號","121.426013333333","25.0452883333333","6501600","泰山區"
"243009","KEA-2215","2019/10/04 20:19:34","新北市泰山區福泰街18號","121.43295","25.060055","6501600","泰山區"
"243013","646-TV","2019/10/04 20:19:38","新北市泰山區民國街56號","121.425995","25.0437083333333","6501600","泰山區"
"243015","680-BX","2019/10/04 20:19:38","新北市泰山區泰林路二段146號","121.434145","25.0599433333333","6501600","泰山區"
"222003","436-BY","2019/10/04 20:19:41","新北市深坑區深坑街8號","121.616263333333","25.0025033333333","6501800","深坑區"
"222002","659-BX","2019/10/04 20:19:38","新北市深坑區萬福路75巷38號","121.598566666667","25.0097466666667","6501800","深坑區"
"231061","002-UM","2019/10/04 20:19:38","新北市新店區安興路32號","121.515803333333","24.9703516666667","6500600","新店區"
"231058","0293-UT","2019/10/04 20:19:22","新北市新店區薏仁坑路2-1號","121.500513333333","24.957845","6500600","新店區"
"231044","046-UY","2019/10/04 20:19:26","新北市新店區北新路三段152號","121.54142","24.9825233333333","6500600","新店區"
"231060","106-UY","2019/10/04 20:19:29","新北市新店區安康路三段578-1號","121.481081666667","24.94867","6500600","新店區"
"231051","107-UY","2019/10/04 20:19:42","新北市新店區中央六街105號","121.525665","24.977185","6500600","新店區"
"231049","108-UY","2019/10/04 20:19:32","新北市新店區光明街173號","121.539576666667","24.9627733333333","6500600","新店區"
"231065","110-UY","2019/10/04 20:19:46","新北市新店區安祥路102巷28號","121.484095","24.9639333333333","6500600","新店區"
"231068","187-VK","2019/10/04 20:19:27","新北市新店區寶安街30號","121.542005","24.9823533333333","6500600","新店區"
"231062","256-BX","2019/10/04 20:19:33","新北市新店區安泰路7巷16號","121.485686666667","24.9509416666667","6500600","新店區"
"231054","260-TV","2019/10/04 20:19:32","新北市新店區檳榔路113號","121.544438333333","24.96142","6500600","新店區"
"231042","268-BY","2019/10/04 20:19:30","新北市新店區中興路二段226號","121.54798","24.97519","6500600","新店區"
"231064","278-BY","2019/10/04 20:19:41","新北市新店區安民街389號","121.515933333333","24.9771866666667","6500600","新店區"
"231050","AAD-862","2019/10/04 20:19:43","新北市新店區博愛街21號","121.541283333333","24.9735816666667","6500600","新店區"
"231045","355-BY","2019/10/04 20:19:45","新北市新店區新坡一街80-3號","121.547051666667","24.9642983333333","6500600","新店區"
"231055","4716-K9","2019/10/04 20:19:35","新北市新店區新明街26巷4號","121.540993333333","24.9686466666667","6500600","新店區"
"231056","4715-K9","2019/10/04 20:19:44","新北市新店區中正路446號","121.534043333333","24.97859","6500600","新店區"
"231067","4772-VM","2019/10/04 20:19:28","新北市新店區安康路一段70號","121.528365","24.96185","6500600","新店區"
"231053","515-UM","2019/10/04 20:19:43","新北市新店區松林路4號","121.546886666667","24.9109583333333","6500600","新店區"
"231041","619-UM","2019/10/04 20:19:33","新北市新店區民權路42號","121.540451666667","24.982915","6500600","新店區"
"231063","641-BX","2019/10/04 20:19:30","新北市新店區薏仁坑路23號","121.498085","24.958945","6500600","新店區"
"231048","KED-0819","2019/10/04 20:19:40","新北市新店區寶橋路85巷5弄3號","121.545716666667","24.9758383333333","6500600","新店區"
"231057","720-UM","2019/10/04 20:19:42","新北市新店區花園十路二段7-6號","121.554261666667","24.9345016666667","6500600","新店區"
"231059","897-TW","2019/10/04 20:19:38","新北市新店區安德街90號","121.509616666667","24.9610816666667","6500600","新店區"
"231040","898-TW","2019/10/04 20:19:44","新北市新店區中正路106號","121.543131666667","24.970655","6500600","新店區"
"231043","899-TW","2019/10/04 20:19:26","新北市新店區建國路133號","121.53939","24.97826","6500600","新店區"
"231066","AKT-0513","2019/10/04 20:19:36","新北市新店區安德街60巷35號","121.510545","24.9634483333333","6500600","新店區"
"241011","013-R5","2019/10/04 20:19:28","新北市三重區龍門路183號","121.499386666667","25.0732633333333","6500200","三重區"
"241028","022-UY","2019/10/04 20:19:45","新北市三重區光興街43號","121.499343333333","25.0602483333333","6500200","三重區"
"241008","059-VK","2019/10/04 20:19:29","新北市三重區永福街164號","121.48061","25.07442","6500200","三重區"
"241031","061-VK","2019/10/04 20:19:39","新北市三重區三寧街15號","121.489478333333","25.0598","6500200","三重區"
"241015","062-VK","2019/10/04 20:19:35","新北市三重區重新路一段122號","121.500391666667","25.06289","6500200","三重區"
"241017","063-VK","2019/10/04 20:19:41","新北市三重區自強路一段236號","121.493316666667","25.0671266666667","6500200","三重區"
"241024","065-VK","2019/10/04 20:19:44","新北市三重區忠孝路三段13號","121.481706666667","25.067365","6500200","三重區"
"241007","066-VK","2019/10/04 20:19:36","新北市三重區溪尾街108巷59號","121.487495","25.0782466666667","6500200","三重區"
"241002","090-VK","2019/10/04 20:19:41","新北市三重區仁義街143巷2號","121.497448333333","25.0804233333333","6500200","三重區"
"241003","091-VK","2019/10/04 20:19:36","新北市三重區富華街61號","121.491293333333","25.08356","6500200","三重區"
"241016","266-UM","2019/10/04 20:19:34","新北市三重區大同北路97-3號","121.494365","25.0636583333333","6500200","三重區"
"241009","267-UM","2019/10/04 20:19:35","新北市三重區永福街11號","121.482338333333","25.078165","6500200","三重區"
"241018","268-UM","2019/10/04 20:19:32","新北市三重區雙園街97號","121.493833333333","25.0673083333333","6500200","三重區"
"241032","269-UM","2019/10/04 20:19:35","新北市三重區捷運路19巷6弄4號","121.484858333333","25.0569516666667","6500200","三重區"
"241013","270-UM","2019/10/04 20:19:29","新北市三重區溪尾街5巷49號","121.493526666667","25.074945","6500200","三重區"
"241025","271-UM","2019/10/04 20:19:33","新北市三重區頂崁街210巷1號","121.476946666667","25.0676","6500200","三重區"
"241030","KED-0822","2019/10/04 20:19:28","新北市三重區集美街75巷45號","121.487498333333","25.0524816666667","6500200","三重區"
"241035","462-BY","2019/10/04 20:19:44","新北市三重區正義北路33巷48號","121.499021666667","25.0639133333333","6500200","三重區"
"241004","475-VK","2019/10/04 20:19:41","新北市三重區仁愛街390號","121.490895","25.0807833333333","6500200","三重區"
"241020","478-VK","2019/10/04 20:19:30","新北市三重區三和路三段170巷19號","121.491963333333","25.0728666666667","6500200","三重區"
"241026","480-VK","2019/10/04 20:19:41","新北市三重區重新路一段12號","121.504031666667","25.0636733333333","6500200","三重區"
"241014","543-UM","2019/10/04 20:19:42","新北市三重區龍門路238號","121.500691666667","25.07368","6500200","三重區"
"241023","545-UM","2019/10/04 20:19:31","新北市三重區忠孝路三段84巷5號","121.480223333333","25.0644383333333","6500200","三重區"
"241001","547-UM","2019/10/04 20:19:25","新北市三重區溪尾街34號","121.490676666667","25.076665","6500200","三重區"
"241005","AAD-863","2019/10/04 20:19:27","新北市三重區五華街141巷57號","121.493466666667","25.086475","6500200","三重區"
"241012","743-BX","2019/10/04 20:19:44","新北市三重區河邊北街262號","121.50165","25.0764616666667","6500200","三重區"
"241022","KED-0820","2019/10/04 20:19:43","新北市三重區新北大道一段50號","121.487656666667","25.0614516666667","6500200","三重區"
"241006","887-TS","2019/10/04 20:19:27","新北市三重區力行路二段125號","121.483093333333","25.076675","6500200","三重區"
"241029","942-UM","2019/10/04 20:19:43","新北市三重區集美街225號","121.491936666667","25.0551266666667","6500200","三重區"
"241033","AAC-255","2019/10/04 20:19:30","新北市三重區五谷王北街50巷100號","121.474105","25.0513316666667","6500200","三重區"
"235066","003-UY","2019/10/04 20:19:30","新北市中和區保平路326巷1號","121.507095","25.004295","6500300","中和區"
"235039","097-UM","2019/10/04 20:19:26","新北市中和區景平路278巷14弄1號","121.513915","24.9931316666667","6500300","中和區"
"235055","183-VK","2019/10/04 20:19:37","新北市八里區荖阡坑路4-31號","121.398385","25.1424","6500300","中和區"
"247016","KEA-2869","2019/10/04 20:19:41","新北市蘆洲區中正路185巷45弄2號","121.465853333333","25.0837266666667","6501400","蘆洲區"
"247010","KED-0682","2019/10/04 20:19:28","新北市蘆洲區信義路222巷6號","121.479435","25.08533","6501400","蘆洲區"
"235050","4979-A6","2019/10/04 20:19:43","新北市中和區景安路82巷6弄2號","121.505181666667","24.99621","6500300","中和區"
"235069","4980-A6","2019/10/04 20:19:42","新北市中和區南山路127巷27弄16號","121.503408333333","24.9979666666667","6500300","中和區"
"235059","AAC-215","2019/10/04 20:19:46","新北市中和區員山路30-1號","121.483278333333","24.9878933333333","6500300","中和區"
"247006","893-R6","2019/10/04 20:19:33","新北市蘆洲區九芎街140號","121.464921666667","25.07896","6501400","蘆洲區"
"247004","336-TH","2019/10/04 20:19:40","新北市蘆洲區長安街297號","121.457853333333","25.084715","6501400","蘆洲區"
"247024","057-VK","2019/10/04 20:19:41","新北市蘆洲區光榮路120巷8弄41號","121.464531666667","25.087915","6501400","蘆洲區"
"247014","056-VK","2019/10/04 20:19:40","新北市蘆洲區成功路58號","121.472555","25.0802866666667","6501400","蘆洲區"
"247018","053-VK","2019/10/04 20:19:33","新北市蘆洲區民族路257巷2號","121.47667","25.0904733333333","6501400","蘆洲區"
"247022","007-UY","2019/10/04 20:19:30","新北市蘆洲區三民路222號","121.468758333333","25.0892366666667","6501400","蘆洲區"
"247002","001-UY","2019/10/04 20:19:42","新北市蘆洲區長安街313巷6弄11號","121.456605","25.08659","6501400","蘆洲區"
"224009","275-VK","2019/10/04 20:11:11","新北市瑞芳區民權街3-1號","121.809183333333","25.1083183333333","6501200","瑞芳區"
"222001","KEA-2212","2019/10/04 20:19:32","新北市深坑區北深路三段245號","121.599438333333","25.0040916666667","6501800","深坑區"
"251001","011-UM","2019/10/04 20:19:27","新北市淡水區淡金路二段15號","121.446125","25.1891816666667","6501000","淡水區"
"251002","012-UM","2019/10/04 20:19:35","新北市淡水區中正路135-1號","121.439206666667","25.170515","6501000","淡水區"
"251008","181-VK","2019/10/04 20:19:42","新北市淡水區淡海路184巷20號","121.421163333333","25.185065","6501000","淡水區"
"251010","413-VK","2019/10/04 20:19:28","新北市淡水區新民街一段134號","121.427558333333","25.1889633333333","6501000","淡水區"
"251007","442-VK","2019/10/04 20:19:42","新北市淡水區中正東路一段3巷43號","121.452245","25.1656166666667","6501000","淡水區"
"251012","443-VK","2019/10/04 20:19:33","新北市淡水區淡金路三段374號","121.449798333333","25.209985","6501000","淡水區"
"251006","561-UM","2019/10/04 20:19:25","新北市淡水區北新路169巷69弄22號","121.447661666667","25.179995","6501000","淡水區"
"251009","575-R6","2019/10/04 20:19:33","新北市淡水區中山路143-5號","121.440521666667","25.1720366666667","6501000","淡水區"
"251003","766-UM","2019/10/04 20:19:43","新北市淡水區中山北路一段188-5號","121.44448","25.179195","6501000","淡水區"
"207003","550-UM","2019/10/04 20:19:25","新北市萬里區野柳里八斗60號","121.667196666667","25.204065","6502800","萬里區"
"207004","291-VK","2019/10/04 20:19:39","新北市萬里區北基里大仁路5號","121.682111666667","25.17525","6502800","萬里區"
"252002","178-VK","2019/10/04 20:19:41","新北市三芝區中正路一段49號","121.503336666667","25.2580833333333","6502100","三芝區"
"237006","5529-G3","2019/10/04 20:19:25","新北市三峽區中園街86巷8號","121.367316666667","24.925105","6500900","三峽區"
"236030","253-BX","2019/10/04 20:19:26","新北市土城區學成路128巷11號","121.449538333333","24.9900766666667","6501300","土城區"
"236026","269-VK","2019/10/04 20:19:28","新北市土城區裕生路71號","121.44718","24.9846483333333","6501300","土城區"
"236014","270-VK","2019/10/04 20:19:35","新北市板橋區四川路二段14號","121.45618","24.9961266666667","6501300","土城區"
"236069","KEA-2877","2019/10/04 20:19:31","新北市土城區大安路142號","121.433486666667","24.9708333333333","6501300","土城區"
"252001","KED-0821","2019/10/04 20:19:42","新北市三芝區中山路一段31號","121.500615","25.2580966666667","6502100","三芝區"
"242041","AAC-296","2019/10/04 20:19:37","新北市新莊區壽山路55-3號","121.412386666667","25.0315266666667","6500500","新莊區"
"242060","986-R7","2019/10/04 20:19:35","新北市新莊區新樹路172-13號","121.43456","25.0216783333333","6500500","新莊區"
"242005","751-BX","2019/10/04 20:19:25","新北市新莊區化成路554巷18號","121.467128333333","25.0539116666667","6500500","新莊區"
"242029","615-BX","2019/10/04 20:19:32","新北市新莊區中原路114號","121.450445","25.0543966666667","6500500","新莊區"
"242027","613-BX","2019/10/04 20:19:40","新北市新莊區中平路298號","121.444753333333","25.051635","6500500","新莊區"
"242058","612-BX","2019/10/04 20:19:30","新北市新莊區四維路205-3號","121.421791666667","25.0202116666667","6500500","新莊區"
"242054","497-BY","2019/10/04 20:19:40","新北市新莊區西盛街375號","121.428048333333","25.01342","6500500","新莊區"
"242048","442-UM","2019/10/04 20:19:26","新北市新莊區龍安路277號","121.420416666667","25.0198833333333","6500500","新莊區"
"242002","441-UM","2019/10/04 20:19:44","新北市新莊區化成路82號","121.465118333333","25.043845","6500500","新莊區"
"242007","440-UM","2019/10/04 20:19:37","新北市新莊區福壽街136巷38號","121.459185","25.0515266666667","6500500","新莊區"
"242044","415-TV","2019/10/04 20:19:43","新北市新莊區中正路新建巷28弄75號","121.413416666667","25.020955","6500500","新莊區"
"242013","413-TV","2019/10/04 20:19:41","新北市新莊區中信街63巷4弄1號","121.449055","25.0502266666667","6500500","新莊區"
"242050","400-BY","2019/10/04 20:19:36","新北市新莊區民安西路212巷2弄2號","121.425683333333","25.0148683333333","6500500","新莊區"
"242025","362-BY","2019/10/04 20:19:36","新北市新莊區五工一路80巷23號","121.46125","25.0667083333333","6500500","新莊區"
"242023","353-BY","2019/10/04 20:19:41","新北市新莊區化成路750-2號","121.465471666667","25.0578566666667","6500500","新莊區"
"242015","132-UY","2019/10/04 20:19:35","新北市新莊區永樂街194號","121.44759","25.0445216666667","6500500","新莊區"
"242039","135-UY","2019/10/04 20:19:23","新北市新莊區成功街71號","121.424778333333","25.02001","6500500","新莊區"
"242056","172-VK","2019/10/04 20:19:38","新北市新莊區新莊路713巷5弄15號","121.444265","25.032145","6500500","新莊區"
"242017","173-VK","2019/10/04 20:19:39","新北市新莊區中港一街22號","121.451356666667","25.0456416666667","6500500","新莊區"
"242032","175-VK","2019/10/04 20:19:42","新北市新莊區中正路418號","121.441015","25.0337666666667","6500500","新莊區"
"242021","KED-0687","2019/10/04 20:19:34","新北市新莊區和興街35號","121.447076666667","25.0397416666667","6500500","新莊區"
"242011","346-TH","2019/10/04 20:19:42","新北市新莊區中信街21號","121.450958333333","25.05068","6500500","新莊區"
"242037","348-TH","2019/10/04 20:19:28","新北市新莊區建安街40巷7號","121.427465","25.0252483333333","6500500","新莊區"
"242009","349-TH","2019/10/04 20:19:35","新北市新莊區昌平街1號","121.455048333333","25.0512266666667","6500500","新莊區"
"242034","350-TH","2019/10/04 20:19:39","新北市新莊區建中街90巷3弄18號","121.445901666667","25.0370916666667","6500500","新莊區"
"242019","351-TH","2019/10/04 20:19:31","新北市新莊區博愛路9巷1號","121.456048333333","25.0440616666667","6500500","新莊區"
"221008","489-VK","2019/10/04 20:19:28","台北市內湖區康樂街206-3號","121.623576666667","25.0790516666667","6501100","汐止區"
"221036","130-UY","2019/10/04 20:19:34","新北市汐止區福安街59巷4號","121.664208333333","25.0635816666667","6501100","汐止區"
"221015","131-UY","2019/10/04 20:19:30","新北市汐止區建成路142巷19弄15號","121.66186","25.0738833333333","6501100","汐止區"
"221010","269-BY","2019/10/04 20:19:32","新北市汐止區八連路一段203號","121.64097","25.0810566666667","6501100","汐止區"
"221012","278-VK","2019/10/04 20:19:29","新北市汐止區汐平路一段59號","121.6825","25.0704633333333","6501100","汐止區"
"221023","279-VK","2019/10/04 20:19:46","新北市汐止區明峰街298巷7弄2號","121.62484","25.069065","6501100","汐止區"
"221032","280-BY","2019/10/04 20:19:33","新北市汐止區弘道街45號","121.618166666667","25.0485633333333","6501100","汐止區"
"221029","298-VK","2019/10/04 20:19:37","新北市汐止區樟樹一路99巷7弄2號","121.640981666667","25.0637066666667","6501100","汐止區"
"221021","299-VK","2019/10/04 20:19:30","新北市汐止區水源路一段282巷4號","121.653993333333","25.0583133333333","6501100","汐止區"
"221031","353-TW","2019/10/04 20:19:37","新北市汐止區原興路72號","121.632348333333","25.0659666666667","6501100","汐止區"
"221035","622-UM","2019/10/04 20:19:34","新北市汐止區長江街57巷22號","121.655933333333","25.0722516666667","6501100","汐止區"
"221025","623-UM","2019/10/04 20:19:42","新北市汐止區水源路二段30號","121.654778333333","25.05731","6501100","汐止區"
"221038","646-BX","2019/10/04 20:19:30","新北市汐止區忠孝東路414號","121.665901666667","25.0712533333333","6501100","汐止區"
"221033","647-BX","2019/10/04 20:19:26","新北市汐止區東勢街215巷3弄3號","121.634103333333","25.0428183333333","6501100","汐止區"
"221002","707-TV","2019/10/04 20:19:41","新北市汐止區福德三路67號","121.636908333333","25.0692683333333","6501100","汐止區"
"221018","753-BX","2019/10/04 20:19:25","新北市汐止區茄苳路274號","121.672165","25.0679816666667","6501100","汐止區"
"220079","145-BY","2019/10/04 20:19:35","新北市板橋區公館街18號","121.457483333333","25.0126733333333","6500100","板橋區"
"224002","257-TC","2019/10/04 20:19:32","新北市瑞芳區明燈路二段42號","121.809898333333","25.10783","6501200","瑞芳區"
"220083","286-VK","2019/10/04 20:19:31","新北市板橋區大觀路一段38巷156弄147號","121.443828333333","25.008975","6500100","板橋區"
"220081","287-VK","2019/10/04 20:19:28","新北市板橋區僑中一街80巷6弄2號","121.447661666667","25.0118916666667","6500100","板橋區"
"242046","281-VK","2019/10/04 20:19:38","新北市新莊區中正路新生巷11號","121.417026666667","25.0239666666667","6500500","新莊區"
"220054","741-BX","2019/10/04 20:19:34","新北市板橋區四川路一段102號","121.459566666667","25.00473","6500100","板橋區"
"220055","827-TW","2019/10/04 20:19:41","新北市板橋區仁愛路23號","121.458943333333","24.99943","6500100","板橋區"
"220074","895-R6","2019/10/04 20:19:37","新北市板橋區南雅南路一段7巷22弄7號","121.455848333333","25.0046933333333","6500100","板橋區"
"235026","KEA-2876","2019/10/04 19:59:02","新北市中和區員山路36巷16-3號","121.485033333333","24.9914016666667","6500300","中和區"
