"lineid","car","time","location","longitude","latitude","cityid","cityname"
"249004","303-UY","2019/10/04 20:49:41","新北市八里區中山路一段63號","121.418445","25.1595366666667","6502300","八里區"
"234074","AAC-211","2019/10/04 20:49:34","新北市永和區環河東路二段20號","121.522288333333","25.0131283333333","6500400","永和區"
"222003","436-BY","2019/10/04 20:49:34","新北市深坑區文山路三段48-1號","121.60995","24.998525","6501800","深坑區"
"222002","659-BX","2019/10/04 20:49:42","新北市深坑區北深路三段93巷29號","121.604993333333","25.0002233333333","6501800","深坑區"
"231061","002-UM","2019/10/04 20:49:38","新北市新店區新和街93巷10號","121.520878333333","24.986775","6500600","新店區"
"231058","0293-UT","2019/10/04 20:49:42","新北市新店區平等街89號","121.535425","24.9723716666667","6500600","新店區"
"231044","046-UY","2019/10/04 20:49:26","新北市新店區民生路149巷16號","121.529133333333","24.979875","6500600","新店區"
"231060","106-UY","2019/10/04 20:49:29","新北市新店區安康路三段738號","121.473835","24.941975","6500600","新店區"
"231051","107-UY","2019/10/04 20:49:42","新北市新店區復興路131-2號","121.531548333333","24.9887733333333","6500600","新店區"
"231049","108-UY","2019/10/04 20:49:32","新北市新店區華城路10巷2-2號","121.52935","24.9588416666667","6500600","新店區"
"231065","110-UY","2019/10/04 20:49:46","新北市新店區安祥路69巷17號","121.481933333333","24.9613583333333","6500600","新店區"
"231068","187-VK","2019/10/04 20:49:36","新北市新店區中興路三段228巷28號","121.54475","24.9835116666667","6500600","新店區"
"231062","256-BX","2019/10/04 20:49:33","新北市新店區和成街19巷30號","121.487871666667","24.946025","6500600","新店區"
"231054","260-TV","2019/10/04 20:49:32","新北市新店區五峰路26號","121.543713333333","24.9689683333333","6500600","新店區"
"231042","268-BY","2019/10/04 20:49:30","新北市新店區寶興路49號","121.54924","24.9732516666667","6500600","新店區"
"231064","278-BY","2019/10/04 20:49:41","新北市新店區安民街322巷12號","121.5183","24.9741316666667","6500600","新店區"
"231050","AAD-862","2019/10/04 20:49:24","新北市新店區三民路115號","121.53481","24.9720633333333","6500600","新店區"
"231056","4715-K9","2019/10/04 20:49:24","新北市新店區安德街148巷31號","121.505806666667","24.9603266666667","6500600","新店區"
"231067","4772-VM","2019/10/04 20:49:28","新北市新店區安德街73號","121.510203333333","24.9614733333333","6500600","新店區"
"231053","515-UM","2019/10/04 20:49:43","新北市新店區新烏路二段50巷1號","121.547625","24.9283983333333","6500600","新店區"
"231041","619-UM","2019/10/04 20:49:33","新北市新店區中正路707號","121.533645","24.9910333333333","6500600","新店區"
"231063","641-BX","2019/10/04 20:49:30","新北市新店區如意街15號","121.4948","24.9480933333333","6500600","新店區"
"231048","KED-0819","2019/10/04 20:49:40","新北市新店區文化路67號","121.544678333333","24.9817833333333","6500600","新店區"
"231057","720-UM","2019/10/04 20:49:26","新北市新店區新烏路一段9-1號","121.547123333333","24.951595","6500600","新店區"
"231059","897-TW","2019/10/04 20:49:38","新北市新店區僑愛五路13號","121.499468333333","24.9440883333333","6500600","新店區"
"231040","898-TW","2019/10/04 20:49:44","新北市新店區中正路270號","121.538961666667","24.9736166666667","6500600","新店區"
"231043","899-TW","2019/10/04 20:49:25","新北市新店區建國路125號","121.539676666667","24.9779383333333","6500600","新店區"
"231066","AKT-0513","2019/10/04 20:49:36","新北市新店區安民街65巷11號","121.515455","24.9663933333333","6500600","新店區"
"241011","013-R5","2019/10/04 20:49:28","新北市三重區龍濱路249號","121.501506666667","25.0724716666667","6500200","三重區"
"241028","022-UY","2019/10/04 20:49:25","新北市三重區新北大道一段7號","121.489678333333","25.061315","6500200","三重區"
"241008","059-VK","2019/10/04 20:49:29","新北市三重區永福街72巷11號","121.479463333333","25.076785","6500200","三重區"
"241031","061-VK","2019/10/04 20:49:39","新北市三重區重陽路一段113巷2弄2號","121.487496666667","25.0599283333333","6500200","三重區"
"241015","062-VK","2019/10/04 20:49:35","新北市三重區自強路一段12號","121.498855","25.0681966666667","6500200","三重區"
"241017","063-VK","2019/10/04 20:49:41","新北市三重區自強路一段179號","121.49237","25.0677333333333","6500200","三重區"
"241024","065-VK","2019/10/04 20:49:37","新北市三重區中正北路193巷35弄20號","121.476626666667","25.0709716666667","6500200","三重區"
"241007","066-VK","2019/10/04 20:49:36","新北市三重區三和路四段143-1號","121.48438","25.0783133333333","6500200","三重區"
"241002","090-VK","2019/10/04 20:49:41","新北市三重區仁義街157巷31號","121.498018333333","25.0813866666667","6500200","三重區"
"241003","091-VK","2019/10/04 20:49:36","新北市三重區五華街141巷58號","121.493523333333","25.0867016666667","6500200","三重區"
"241016","266-UM","2019/10/04 20:49:34","新北市三重區自強路一段162號","121.495386666667","25.0663716666667","6500200","三重區"
"241009","267-UM","2019/10/04 20:49:35","新北市三重區三和路四段197號","121.48213","25.0792083333333","6500200","三重區"
"241018","268-UM","2019/10/04 20:49:32","新北市三重區自強路一段157號","121.493456666667","25.0670983333333","6500200","三重區"
"241032","269-UM","2019/10/04 20:49:35","新北市三重區重陽路一段120巷44號","121.485118333333","25.060145","6500200","三重區"
"241013","270-UM","2019/10/04 20:49:29","新北市三重區仁賢街12-1號","121.49566","25.0749166666667","6500200","三重區"
"241025","271-UM","2019/10/04 20:49:33","新北市三重區貴陽街18號","121.48412","25.06185","6500200","三重區"
"241030","KED-0822","2019/10/04 20:49:28","新北市三重區昌隆街26號","121.491985","25.0522366666667","6500200","三重區"
"241035","462-BY","2019/10/04 20:49:43","新北市三重區正義北路133-1號","121.49699","25.0664316666667","6500200","三重區"
"241004","475-VK","2019/10/04 20:49:41","新北市三重區分子尾街36-1號","121.489391666667","25.0809516666667","6500200","三重區"
"241020","478-VK","2019/10/04 20:49:30","新北市三重區忠孝路一段121號","121.488868333333","25.07203","6500200","三重區"
"241026","480-VK","2019/10/04 20:49:41","新北市三重區文化南路45號","121.500276666667","25.0613433333333","6500200","三重區"
"241014","543-UM","2019/10/04 20:49:42","新北市三重區萬全街86號","121.501803333333","25.0703333333333","6500200","三重區"
"241023","545-UM","2019/10/04 20:49:31","新北市三重區忠孝路三段84巷1號","121.480335","25.064705","6500200","三重區"
"241001","547-UM","2019/10/04 20:49:25","新北市三重區三和路四段124號","121.48924","25.075175","6500200","三重區"
"241005","AAD-863","2019/10/04 20:49:26","新北市三重區五華街180巷19號","121.488178333333","25.085885","6500200","三重區"
"241012","743-BX","2019/10/04 20:49:24","新北市三重區龍門路274巷45號","121.501221666667","25.0755233333333","6500200","三重區"
"241022","KED-0820","2019/10/04 20:49:23","新北市三重區過圳街27-5號","121.487995","25.0624166666667","6500200","三重區"
"241006","887-TS","2019/10/04 20:49:27","新北市三重區力行路二段125號","121.483073333333","25.0767283333333","6500200","三重區"
"241029","942-UM","2019/10/04 20:49:43","新北市三重區重安街22號","121.49042","25.0580816666667","6500200","三重區"
"241033","AAC-255","2019/10/04 20:49:30","新北市三重區光復路二段1號","121.472266666667","25.053285","6500200","三重區"
"235055","183-VK","2019/10/04 20:49:37","新北市板橋區文化路二段656號","121.480365","25.04027","6500300","中和區"
"247016","KEA-2869","2019/10/04 20:49:41","新北市蘆洲區得勝街183號","121.471","25.0825733333333","6501400","蘆洲區"
"247010","KED-0682","2019/10/04 20:49:28","新北市蘆洲區鷺江街91號","121.476916666667","25.0837633333333","6501400","蘆洲區"
"235069","4980-A6","2019/10/04 20:49:42","新北市中和區員山路379號","121.481073333333","25.0023883333333","6500300","中和區"
"235009","565-BX","2019/10/04 20:30:50","新北市中和區員山路36巷13號","121.484185","24.9910733333333","6500300","中和區"
"247006","893-R6","2019/10/04 20:49:33","新北市蘆洲區永安南路二段16巷5號","121.467705","25.07718","6501400","蘆洲區"
"247020","546-UM","2019/10/04 20:49:40","新北市蘆洲區仁愛街77號","121.471321666667","25.093725","6501400","蘆洲區"
"247004","336-TH","2019/10/04 20:49:40","新北市蘆洲區長安街100號","121.461591666667","25.0809666666667","6501400","蘆洲區"
"247024","057-VK","2019/10/04 20:49:41","新北市蘆洲區長樂路140號","121.462143333333","25.0902466666667","6501400","蘆洲區"
"247014","056-VK","2019/10/04 20:49:40","新北市蘆洲區三民路38-1號","121.4755","25.0830316666667","6501400","蘆洲區"
"247008","002-UY","2019/10/04 20:49:32","新北市蘆洲區永安北路二段44號","121.482491666667","25.083305","6501400","蘆洲區"
"247002","001-UY","2019/10/04 20:49:39","新北市蘆洲區長安街240號","121.457666666667","25.0856816666667","6501400","蘆洲區"
"222001","KEA-2212","2019/10/04 20:49:32","新北市深坑區北深路三段63號","121.60713","25.0015016666667","6501800","深坑區"
"251001","011-UM","2019/10/04 20:49:27","新北市淡水區淡金路一段20號","121.460451666667","25.17045","6501000","淡水區"
"251002","012-UM","2019/10/04 20:49:35","新北市淡水區鼻頭街18-5號","121.446766666667","25.1666966666667","6501000","淡水區"
"251010","413-VK","2019/10/04 20:49:28","新北市淡水區沙崙路145號","121.423455","25.1830066666667","6501000","淡水區"
"251007","442-VK","2019/10/04 20:49:22","新北市淡水區鄧公路29巷24號","121.452696666667","25.1701883333333","6501000","淡水區"
"251012","443-VK","2019/10/04 20:49:33","新北市淡水區興仁路162號","121.451581666667","25.2206583333333","6501000","淡水區"
"251006","561-UM","2019/10/04 20:49:25","新北市淡水區新市一路一段109號","121.431338333333","25.186805","6501000","淡水區"
"251011","650-BX","2019/10/04 20:49:37","新北市淡水區新市一路一段281巷2號","121.434158333333","25.1864116666667","6501000","淡水區"
"251003","766-UM","2019/10/04 20:49:43","新北市淡水區中山北路一段207巷52號","121.442378333333","25.1792683333333","6501000","淡水區"
"247012","KED-0683","2019/10/04 20:49:23","新北市三重區集賢路186號","121.484161666667","25.0883816666667","6501400","蘆洲區"
"242041","AAC-296","2019/10/04 20:49:37","新北市新莊區天祥街8號","121.417226666667","25.0270433333333","6500500","新莊區"
"242005","751-BX","2019/10/04 20:49:45","新北市三重區光復路二段178-1號","121.47209","25.0622183333333","6500500","新莊區"
"242027","613-BX","2019/10/04 20:49:40","新北市新莊區環河路116-1號","121.460556666667","25.0380983333333","6500500","新莊區"
"242058","612-BX","2019/10/04 20:49:30","新北市新莊區新莊路682-6號","121.440916666667","25.03284","6500500","新莊區"
"242048","442-UM","2019/10/04 20:49:26","新北市新莊區中正路517-2號","121.439866666667","25.0334566666667","6500500","新莊區"
"242002","441-UM","2019/10/04 20:49:24","新北市新莊區中港路五守新村8號","121.454881666667","25.0387166666667","6500500","新莊區"
"242007","440-UM","2019/10/04 20:49:37","新北市新莊區思源路120號","121.460158333333","25.0474083333333","6500500","新莊區"
"242013","413-TV","2019/10/04 20:49:41","新北市新莊區新北大道四段209號","121.44463","25.0561583333333","6500500","新莊區"
"242050","400-BY","2019/10/04 20:49:36","新北市新莊區民安西路52號","121.427425","25.0206133333333","6500500","新莊區"
"242025","362-BY","2019/10/04 20:49:36","新北市五股區中直路11-21號","121.426765","25.109665","6500500","新莊區"
"242023","353-BY","2019/10/04 20:49:41","新北市新莊區復興路三段48號","121.46169","25.0444433333333","6500500","新莊區"
"242011","346-TH","2019/10/04 20:49:22","新北市泰山區楓江路119號","121.43875","25.0648033333333","6500500","新莊區"
"242037","348-TH","2019/10/04 20:49:34","新北市新莊區中正路455號","121.442753333333","25.033945","6500500","新莊區"
"242009","349-TH","2019/10/04 20:49:35","新北市新莊區幸福路4號","121.459413333333","25.049495","6500500","新莊區"
"242034","350-TH","2019/10/04 20:49:35","新北市新莊區新泰路47號","121.449503333333","25.0336433333333","6500500","新莊區"
"221036","130-UY","2019/10/04 20:49:34","新北市汐止區新昌路88號","121.66389","25.0690483333333","6501100","汐止區"
"221015","131-UY","2019/10/04 20:49:34","新北市汐止區大同路二段609號","121.664138333333","25.0707283333333","6501100","汐止區"
"221012","278-VK","2019/10/04 20:49:29","新北市汐止區保新街19號","121.68413","25.073185","6501100","汐止區"
"221023","279-VK","2019/10/04 20:49:26","新北市汐止區民族二街30巷1號","121.63492","25.0718383333333","6501100","汐止區"
"221021","299-VK","2019/10/04 20:49:30","新北市汐止區莊敬街115號","121.655245","25.0609766666667","6501100","汐止區"
"221035","622-UM","2019/10/04 20:49:34","新北市汐止區長江街101-5號","121.658723333333","25.0731366666667","6501100","汐止區"
"221033","647-BX","2019/10/04 20:49:46","新北市汐止區合順街18巷8弄5號","121.620353333333","25.0419233333333","6501100","汐止區"
"242046","281-VK","2019/10/04 20:49:26","新北市泰山區中山路一段537號","121.439585","25.05312","6500500","新莊區"
