"lineid","car","time","location","longitude","latitude","cityid","cityname"
"251004","180-VK","2019/10/04 22:19:34","新北市淡水區民族路33號","121.462311666667","25.1358383333333","6501000","淡水區"
"251008","181-VK","2019/10/04 22:19:34","新北市淡水區學府路104號","121.449865","25.17177","6501000","淡水區"
"251010","413-VK","2019/10/04 22:19:28","新北市淡水區沙崙路200號","121.424678333333","25.1838866666667","6501000","淡水區"
"251007","442-VK","2019/10/04 22:19:42","新北市淡水區北新路180號","121.4495","25.1786833333333","6501000","淡水區"
"251011","650-BX","2019/10/04 22:19:37","新北市淡水區水碓街7號","121.44317","25.1770733333333","6501000","淡水區"
