"lineid","car","time","location","longitude","latitude","cityid","cityname"
"234048","863-TW","2019/10/05 07:49:14","新北市鶯歌區鶯桃路36號","121.34176","24.9526633333333","6500400","永和區"
"232010","375-UM","2019/10/05 07:49:26","新北市坪林區厚德岡坑3號","121.73121","24.9403783333333","6502000","坪林區"
"244005","248-BX","2019/10/05 07:49:26","新北市林口區下福里12-1號","121.315021666667","25.109805","6501700","林口區"
"222007","289-BY","2019/10/05 07:49:23","新北市深坑區文化街68號","121.618531666667","25.0018433333333","6501800","深坑區"
"231008","192-VK","2019/10/05 07:49:14","新北市新店區環河路29巷1-1號","121.535853333333","24.9610133333333","6500600","新店區"
"226005","5620-A6","2019/10/05 07:49:13","新北市平溪區嶺腳里中華街52號","121.739195","25.024825","6502400","平溪區"
"226007","APG-9813","2019/10/05 07:49:07","新北市平溪區平湖里坑頭3號","121.78337","25.025805","6502400","平溪區"
"226003","AGD-0702","2019/10/05 07:49:18","新北市平溪區新寮里頂寮子62-1號","121.774653333333","25.0510483333333","6502400","平溪區"
"223003","205-TH","2019/10/05 07:49:22","新北市石碇區四分子3號","121.66399","24.964185","6501900","石碇區"
"223008","406-TH","2019/10/05 07:35:13","新北市石碇區靜安路一段337號","121.698785","25.01461","6501900","石碇區"
"223004","437-BY","2019/10/05 07:49:27","新北市石碇區靜安路一段29號","121.642418333333","25.0116216666667","6501900","石碇區"
"223001","592-UM","2019/10/05 07:49:19","新北市石碇區四分子5號","121.664483333333","24.9626983333333","6501900","石碇區"
"223007","661-BX","2019/10/05 07:40:35","新北市石碇區靜安路一段337號","121.698913333333","25.0145083333333","6501900","石碇區"
"227004","282-VK","2019/10/05 07:49:17","新北市雙溪區雙溪里太平路54號","121.864746666667","25.0354216666667","6502500","雙溪區"
"252004","249-BX","2019/10/05 07:48:04","新北市三芝區店子里菜公坑99-3號","121.512623333333","25.2058933333333","6502100","三芝區"
"252007","AAC-283","2019/10/05 07:49:10","新北市三芝區海景一街44號","121.475491666667","25.2466383333333","6502100","三芝區"
