"lineid","car","time","location","longitude","latitude","cityid","cityname"
"222007","289-BY","2019/11/23 09:43:40","新北市深坑區阿柔洋64號","121.60683","24.9985233333333","6501800","深坑區"
"231007","189-VK","2019/11/23 09:43:38","新北市新店區新潭路三段215巷25號","121.508111666667","24.904125","6500600","新店區"
"231008","192-VK","2019/11/23 09:43:44","新北市新店區小坑一路21-1號","121.532695","24.912295","6500600","新店區"
"227004","282-VK","2019/11/23 09:43:52","新北市雙溪區長源里柑腳52-1號","121.79485","25.0085033333333","6502500","雙溪區"
"252004","292-VK","2019/11/23 09:39:30","新北市三芝區圓山里石曹子坑44號","121.518326666667","25.2146733333333","6502100","三芝區"
"252007","AAC-283","2019/11/23 09:43:31","新北市三芝區新庄里新庄子95-29號","121.513536666667","25.272125","6502100","三芝區"
