"lineid","car","time","location","longitude","latitude","cityid","cityname"
"222007","289-BY","2019/11/23 09:59:40","新北市深坑區風格街31巷21號","121.627066666667","25.0176716666667","6501800","深坑區"
"231007","189-VK","2019/11/23 09:59:58","新北市新店區新潭路三段115號","121.507668333333","24.9116283333333","6500600","新店區"
"231008","192-VK","2019/11/23 09:59:44","新北市新店區小坑一路22號","121.531648333333","24.9138533333333","6500600","新店區"
"227004","282-VK","2019/11/23 09:59:52","新北市雙溪區長源里盤山坑13號","121.772795","24.9961","6502500","雙溪區"
"252004","292-VK","2019/11/23 09:59:50","新北市三芝區福德里土地公埔39號","121.510151666667","25.2354266666667","6502100","三芝區"
"252007","AAC-283","2019/11/23 09:59:51","新北市三芝區新庄里新庄子51-25號","121.507501666667","25.2780966666667","6502100","三芝區"
