"lineid","car","time","location","longitude","latitude","cityid","cityname"
"234046","148-BY","2019/11/23 18:43:51","新北市永和區永元路40巷46弄1號","121.523778333333","25.00058","6500400","永和區"
"234081","298-R6","2019/11/23 18:43:56","新北市永和區林森路81號","121.523875","25.0039333333333","6500400","永和區"
"234038","336-UY","2019/11/23 18:43:42","新北市永和區福和路1號","121.526563333333","25.0100983333333","6500400","永和區"
"234086","338-UY","2019/11/23 18:43:57","新北市中和區安樂路77號","121.512646666667","24.99424","6500400","永和區"
"234070","552-UM","2019/11/23 18:43:54","新北市永和區福和路1號","121.526503333333","25.0101433333333","6500400","永和區"
"234017","745-BX","2019/11/23 18:43:45","新北市永和區環河西路一段1號","121.51531","25.0180333333333","6500400","永和區"
"234030","746-BX","2019/11/23 18:43:50","新北市永和區秀朗路二段259號","121.526365","24.999075","6500400","永和區"
"234007","KED-0605","2019/11/23 18:43:48","新北市永和區文化路170號","121.511783333333","25.01556","6500400","永和區"
"234013","KEA-2591","2019/11/23 18:43:49","新北市永和區保福路二段105號","121.510166666667","25.013275","6500400","永和區"
"234061","AAD-866","2019/11/23 18:43:57","新北市永和區福和路97號","121.521963333333","25.007825","6500400","永和區"
"234042","862-TW","2019/11/23 18:43:57","新北市永和區永貞路308號","121.511868333333","25.0048666666667","6500400","永和區"
"234023","9381-KE","2019/11/23 18:43:50","新北市永和區竹林路201巷24弄4號","121.522213333333","25.0096316666667","6500400","永和區"
"234011","9373-KE","2019/11/23 18:43:40","新北市永和區仁愛路73巷2弄1號","121.513383333333","25.01285","6500400","永和區"
"249001","173-UM","2019/11/23 18:43:42","新北市八里區龍米路一段470號","121.450176666667","25.1354516666667","6502300","八里區"
"249004","303-UY","2019/11/23 18:43:54","新北市八里區中山路一段33-2號","121.420293333333","25.1596366666667","6502300","八里區"
"249002","305-UY","2019/11/23 18:43:45","新北市八里區頂寮二街138號","121.449333333333","25.1294366666667","6502300","八里區"
"249003","593-UM","2019/11/23 18:15:53","新北市八里區博物館路10-1號","121.415113333333","25.1639816666667","6502300","八里區"
"249005","759-BX","2019/11/23 18:43:57","新北市八里區長道坑7-3號","121.392948333333","25.12429","6502300","八里區"
"248016","026-BX","2019/11/23 18:43:57","新北市五股區凌雲路一段149巷42號","121.448568333333","25.10091","6501500","五股區"
"248008","KED-0815","2019/11/23 18:43:45","新北市五股區中興路一段151巷72號","121.465143333333","25.07188","6501500","五股區"
"248020","KED-0813","2019/11/23 18:43:43","新北市五股區凌雲路三段田埔巷19號","121.433605","25.1220433333333","6501500","五股區"
"248012","247-BX","2019/11/23 18:43:48","新北市五股區成泰路三段2巷1-20號","121.441098333333","25.08658","6501500","五股區"
"248014","261-SL","2019/11/23 18:43:44","新北市五股區成泰路二段252號","121.440586666667","25.0872566666667","6501500","五股區"
"248010","272-BY","2019/11/23 18:43:40","新北市五股區水碓五路117號","121.43094","25.072745","6501500","五股區"
"248004","677-BX","2019/11/23 18:43:47","新北市五股區民義路二段22巷2號","121.420073333333","25.096925","6501500","五股區"
"248002","678-BX","2019/11/23 18:43:42","新北市五股區西雲路245號","121.449225","25.0977916666667","6501500","五股區"
"234077","969-R7","2019/11/23 18:43:43","新北市中和區安樂路101-3號","121.51349","24.9950366666667","6500400","永和區"
"234067","AAC-212","2019/11/23 18:43:48","新北市中和區永貞路229號","121.513295","25.0037083333333","6500400","永和區"
"234003","AAC-295","2019/11/23 18:43:39","新北市永和區福和路79號","121.52254","25.007855","6500400","永和區"
"232011","375-UM","2019/11/23 18:43:34","新北市坪林區坪雙路一段41號","121.711748333333","24.9424366666667","6502000","坪林區"
"244007","080-UY","2019/11/23 18:43:49","新北市林口區太平里4鄰20號","121.377626666667","25.1161016666667","6501700","林口區"
"244019","403-UM","2019/11/23 18:43:44","新北市林口區麗園二街3巷1-2號","121.378088333333","25.069545","6501700","林口區"
"244013","KEA-2802","2019/11/23 18:43:40","新北市林口區麗園路6號","121.375413333333","25.0698283333333","6501700","林口區"
"244023","483-VK","2019/11/23 18:43:41","新北市林口區文化二路二段88巷13號","121.379558333333","25.0808116666667","6501700","林口區"
"244017","485-VK","2019/11/23 18:43:54","新北市林口區文化二路一段68巷18-2號","121.366166666667","25.0678716666667","6501700","林口區"
"244009","656-BX","2019/11/23 18:43:57","新北市林口區竹林路350號","121.39146","25.084025","6501700","林口區"
"244011","657-BX","2019/11/23 18:43:53","新北市林口區新寮1-65號","121.392778333333","25.0765","6501700","林口區"
"244025","837-TS","2019/11/23 18:43:38","新北市林口區南勢六街242號","121.355683333333","25.0748016666667","6501700","林口區"
"244021","838-TS","2019/11/23 18:43:49","新北市林口區工六路62-2號","121.399628333333","25.0778383333333","6501700","林口區"
"243012","AAD-798","2019/11/23 18:43:58","新北市泰山區福興三街13號","121.434448333333","25.05778","6501600","泰山區"
"243016","421-VK","2019/11/23 18:43:56","新北市泰山區泰林路二段282號","121.431261666667","25.0624783333333","6501600","泰山區"
"243015","680-BX","2019/11/23 18:43:44","新北市泰山區美寧街57巷36號","121.429163333333","25.0652216666667","6501600","泰山區"
"222003","436-BY","2019/11/23 18:43:46","新北市深坑區翠谷街17巷26號","121.626003333333","25.0096783333333","6501800","深坑區"
"222002","659-BX","2019/11/23 18:43:53","新北市深坑區文山路一段64號","121.623543333333","25.00075","6501800","深坑區"
"231045","001-UM","2019/11/23 18:43:55","新北市新店區安華路28-1號","121.519368333333","24.960855","6500600","新店區"
"231055","0291-UT","2019/11/23 18:43:47","新北市新店區中華路83巷67號","121.538253333333","24.9671566666667","6500600","新店區"
"231060","106-UY","2019/11/23 18:43:43","新北市新店區安華路28-1號","121.519505","24.9607016666667","6500600","新店區"
"231051","107-UY","2019/11/23 18:43:51","新北市新店區中央路59號","121.532673333333","24.9773866666667","6500600","新店區"
"231049","108-UY","2019/11/23 18:43:50","新北市新店區安康路一段94-2號","121.527745","24.96205","6500600","新店區"
"231065","110-UY","2019/11/23 18:43:41","新北市新店區車子路10-4號","121.504996666667","24.9545833333333","6500600","新店區"
"231062","256-BX","2019/11/23 18:43:55","新北市新店區安一路一段1-1號","121.519733333333","24.961115","6500600","新店區"
"231054","260-TV","2019/11/23 18:43:50","新北市新店區安一路一段1-1號","121.519073333333","24.9610833333333","6500600","新店區"
"231042","268-BY","2019/11/23 18:43:51","新北市新店區安一路一段1-1號","121.519768333333","24.961825","6500600","新店區"
"231064","278-BY","2019/11/23 18:43:40","新北市新店區安華路28-1號","121.519945","24.96094","6500600","新店區"
"231050","AAD-862","2019/11/23 18:43:52","新北市新店區安華路28-1號","121.519985","24.9606416666667","6500600","新店區"
"231058","3713-VJ","2019/11/23 18:43:42","新北市新店區國校路76-1號","121.538595","24.9530983333333","6500600","新店區"
"231056","4715-K9","2019/11/23 18:43:43","新北市新店區大同街34號","121.538833333333","24.980595","6500600","新店區"
"231067","4772-VM","2019/11/23 18:43:47","新北市新店區安華路3號","121.51901","24.96051","6500600","新店區"
"231052","513-UM","2019/11/23 18:43:43","新北市新店區永興路34號","121.543583333333","24.9388","6500600","新店區"
"231063","641-BX","2019/11/23 18:43:51","新北市新店區安華路1-1號","121.51951","24.96037","6500600","新店區"
"231048","KED-0819","2019/11/23 18:43:56","新北市新店區安康路一段285號","121.523263333333","24.9636016666667","6500600","新店區"
"231046","719-UM","2019/11/23 18:43:37","新北市新店區直潭二街1號","121.53541","24.9431416666667","6500600","新店區"
"231057","720-UM","2019/11/23 18:43:45","新北市新店區新烏路一段193號","121.547383333333","24.9315516666667","6500600","新店區"
"231059","897-TW","2019/11/23 18:43:58","新北市新店區安華路28-1號","121.519591666667","24.9607166666667","6500600","新店區"
"231040","898-TW","2019/11/23 18:43:45","新北市新店區安華路28-1號","121.519358333333","24.9608283333333","6500600","新店區"
"231043","899-TW","2019/11/23 18:43:58","新北市新店區安華路28-1號","121.519306666667","24.9608116666667","6500600","新店區"
"231066","AKT-0513","2019/11/23 18:43:52","新北市新店區安華路1-1號","121.51937","24.9604516666667","6500600","新店區"
"235066","003-UY","2019/11/23 18:43:54","新北市中和區廣福路8號","121.505913333333","25.0030283333333","6500300","中和區"
"235064","005-UY","2019/11/23 18:43:42","新北市中和區連城路87號","121.496901666667","25.000385","6500300","中和區"
"235063","006-UY","2019/11/23 18:43:46","新北市中和區錦和路196巷6號","121.489705","24.9949716666667","6500300","中和區"
"235056","096-UM","2019/11/23 18:43:56","新北市中和區員山路470號","121.479883333333","25.0065966666667","6500300","中和區"
"235039","097-UM","2019/11/23 18:43:44","新北市中和區宜安路39號","121.512128333333","24.99656","6500300","中和區"
"235065","098-UM","2019/11/23 18:43:40","新北市中和區中山路二段2巷57號","121.501836666667","25.0072616666667","6500300","中和區"
"235040","150-BY","2019/11/23 18:43:56","新北市中和區保健路106巷12弄13號","121.511003333333","24.9956216666667","6500300","中和區"
"235058","151-BY","2019/11/23 18:43:52","新北市中和區連城路591號","121.478491666667","24.9939416666667","6500300","中和區"
"235055","183-VK","2019/11/23 18:43:49","新北市中和區民生街70號","121.468811666667","25.0048566666667","6500300","中和區"
"235038","185-VK","2019/11/23 18:43:40","新北市中和區自強路60號","121.519866666667","24.994455","6500300","中和區"
"235067","255-BX","2019/11/23 18:43:43","新北市中和區新生街41號","121.483376666667","25.0032983333333","6500300","中和區"
"235044","293-VK","2019/11/23 18:43:38","新北市中和區中興街113號","121.500023333333","24.9921133333333","6500300","中和區"
"235072","301-VK","2019/11/23 18:43:54","新北市中和區中山路二段57號","121.50426","25.00486","6500300","中和區"
"235043","352-BY","2019/11/23 18:43:46","新北市中和區成功路139號","121.525748333333","24.99013","6500300","中和區"
"235050","4979-A6","2019/11/23 18:43:41","新北市中和區景新街496巷30弄27號","121.512715","24.9855833333333","6500300","中和區"
"235069","4980-A6","2019/11/23 18:43:44","新北市中和區南山路81巷8弄12號","121.50257","24.9977433333333","6500300","中和區"
"235070","558-UM","2019/11/23 18:43:49","新北市中和區南山路13號","121.502145","24.9992733333333","6500300","中和區"
"235045","565-BX","2019/11/23 18:43:47","新北市中和區捷運路6號","121.510053333333","24.9894066666667","6500300","中和區"
"235060","KED-0823","2019/11/23 18:43:48","新北市中和區中山路三段148號","121.473633333333","25.0062316666667","6500300","中和區"
"235054","640-BX","2019/11/23 18:43:52","新北市中和區民享街35巷11號","121.474816666667","25.0040466666667","6500300","中和區"
"235047","732-UM","2019/11/23 18:43:48","新北市中和區興南路二段74巷8號","121.505238333333","24.9847066666667","6500300","中和區"
"235046","733-UM","2019/11/23 18:43:46","新北市中和區仁愛街36巷28號","121.511031666667","24.9870283333333","6500300","中和區"
"235062","800-TS","2019/11/23 18:43:44","新北市中和區中山路二段346號","121.493233333333","25.0024083333333","6500300","中和區"
"235057","801-TS","2019/11/23 18:43:41","新北市中和區民利街24號","121.480133333333","24.9991083333333","6500300","中和區"
"235041","802-TS","2019/11/23 18:43:45","新北市中和區中安街232號","121.51235","24.9986583333333","6500300","中和區"
"235052","805-TS","2019/11/23 18:43:48","新北市中和區興南路三段42-3號","121.49581","24.9772583333333","6500300","中和區"
"235048","896-TW","2019/11/23 18:43:42","新北市中和區南山路300號","121.507931666667","24.987105","6500300","中和區"
"235053","900-TW","2019/11/23 18:43:50","新北市中和區華順街105號","121.465303333333","24.9973783333333","6500300","中和區"
"235051","157-BY","2019/11/23 18:43:39","新北市中和區忠孝街22號","121.510426666667","24.9829066666667","6500300","中和區"
"235037","AAC-213","2019/11/23 18:43:51","新北市中和區秀朗路三段128巷25弄5號","121.524031666667","24.9938566666667","6500300","中和區"
"235059","AAC-215","2019/11/23 18:43:39","新北市中和區錦和路408號","121.491118333333","24.9896983333333","6500300","中和區"
"220065","072-UY","2019/11/23 18:43:50","新北市板橋區成都街18號","121.460721666667","25.004745","6500100","板橋區"
"220086","073-UY","2019/11/23 18:43:51","新北市板橋區南雅西路二段7巷27號","121.451828333333","25.00937","6500100","板橋區"
"220106","075-UY","2019/11/23 18:43:41","新北市板橋區文化路二段16-2號","121.4688","25.0242483333333","6500100","板橋區"
"220069","AAD-861","2019/11/23 18:43:53","新北市板橋區大華街108號","121.459353333333","25.0053616666667","6500100","板橋區"
"226004","312-R5","2019/11/23 18:43:59","新北市平溪區平溪里三坑路49-1號","121.73142","25.032605","6502400","平溪區"
"235049","251-BX","2019/11/23 18:43:56","新北市中和區景安路130號","121.505213333333","24.9944383333333","6500300","中和區"
"228003","097-TW","2019/11/23 18:43:49","新北市貢寮區和美里龍洞街1-5號","121.919231666667","25.1124066666667","6502600","貢寮區"
"228001","212-TW","2019/11/23 18:43:45","新北市貢寮區仁理村研海街12-1號","121.923761666667","25.0516366666667","6502600","貢寮區"
"228002","663-BX","2019/11/23 18:43:55","新北市貢寮區福隆里東興街6-11號","121.950768333333","25.0210683333333","6502600","貢寮區"
"224010","AGQ-8101","2019/11/23 18:43:45","新北市瑞芳區基山街41-2號","121.845496666667","25.1091","6501200","瑞芳區"
"224006","676-BX","2019/11/23 18:43:45","新北市瑞芳區明燈路三段105號","121.803835","25.10864","6501200","瑞芳區"
"224007","285-BY","2019/11/23 18:43:53","新北市瑞芳區大埔路255號","121.76234","25.101145","6501200","瑞芳區"
"224009","275-VK","2019/11/23 18:43:36","新北市瑞芳區祈堂路53-1號","121.859588333333","25.1104816666667","6501200","瑞芳區"
"224008","273-VK","2019/11/23 18:43:55","新北市瑞芳區逢甲路272號","121.804843333333","25.1108616666667","6501200","瑞芳區"
"224005","271-BY","2019/11/23 18:43:44","新北市瑞芳區瑞濱路139號","121.819751666667","25.1198633333333","6501200","瑞芳區"
"227001","642-TC","2019/11/23 18:43:58","新北市雙溪區牡丹里下坑11號","121.851015","25.0561683333333","6502500","雙溪區"
"227002","400-TW","2019/11/23 18:43:57","新北市雙溪區魚行里坤溪3-5號","121.876196666667","25.020835","6502500","雙溪區"
"253005","032-BX","2019/11/23 18:43:41","新北市石門區中山路28-3號","121.565833333333","25.28992","6502200","石門區"
"253006","295-VK","2019/11/23 18:43:47","新北市石門區下員坑39號","121.5204","25.2830733333333","6502200","石門區"
"222001","KEA-2212","2019/11/23 18:43:39","新北市深坑區松柏街54巷2號","121.638815","25.0120316666667","6501800","深坑區"
"208002","KEA-2872","2019/11/23 18:43:52","新北市金山區仁愛路35號","121.636521666667","25.2193883333333","6502700","金山區"
"208003","665-BX","2019/11/23 18:43:48","新北市金山區中山路395號","121.633313333333","25.2252666666667","6502700","金山區"
"251004","009-UM","2019/11/23 18:43:44","新北市淡水區民權路41號","121.459946666667","25.140305","6501000","淡水區"
"251002","012-UM","2019/11/23 18:43:54","新北市淡水區中正東路71-4號","121.447398333333","25.1675533333333","6501000","淡水區"
"251015","KEA-2871","2019/11/23 18:43:51","新北市淡水區興福寮66巷42號","121.486921666667","25.162755","6501000","淡水區"
"251016","180-VK","2019/11/23 18:43:58","新北市淡水區下圭柔山76-3號","121.444143333333","25.2068916666667","6501000","淡水區"
"251008","181-VK","2019/11/23 18:43:40","新北市淡水區北投子99號","121.465623333333","25.178715","6501000","淡水區"
"251013","182-VK","2019/11/23 18:43:44","新北市淡水區雲廣坑5號","121.475268333333","25.2131783333333","6501000","淡水區"
"251010","413-VK","2019/11/23 18:43:59","新北市淡水區沙崙路129號","121.422708333333","25.1824366666667","6501000","淡水區"
"251012","441-VK","2019/11/23 18:43:47","新北市淡水區北新路121號","121.448956666667","25.17865","6501000","淡水區"
"251001","559-UM","2019/11/23 18:43:57","新北市淡水區自強路166號","121.465628333333","25.1340866666667","6501000","淡水區"
"251006","561-UM","2019/11/23 18:43:53","新北市淡水區崁頂64號","121.438848333333","25.2008666666667","6501000","淡水區"
"251014","577-R6","2019/11/23 18:43:39","新北市淡水區崙頂12-8號","121.495553333333","25.2171983333333","6501000","淡水區"
"251011","650-BX","2019/11/23 18:44:00","新北市淡水區學府路32巷29號","121.448425","25.168265","6501000","淡水區"
"251003","766-UM","2019/11/23 18:43:43","新北市淡水區北新路69巷26號","121.446703333333","25.1801366666667","6501000","淡水區"
"207003","681-TV","2019/11/23 18:43:39","新北市萬里區野柳里港東路73號","121.68836","25.2050366666667","6502800","萬里區"
"207004","291-VK","2019/11/23 18:43:45","新北市萬里區萬里里獅頭路10-1號","121.692135","25.1788316666667","6502800","萬里區"
"252003","249-BX","2019/11/23 18:43:55","新北市三芝區後厝里大片頭81-1號","121.458935","25.2446733333333","6502100","三芝區"
"252001","292-VK","2019/11/23 18:43:56","新北市三芝區埔頭里埔頭11號","121.50191","25.2520016666667","6502100","三芝區"
"208001","170-UY","2019/11/23 18:43:38","新北市金山區文化三路42-2號","121.635241666667","25.2249583333333","6502700","金山區"
"237004","KEA-2597","2019/11/23 18:43:44","新北市三峽區插角219-3號","121.416151666667","24.8659616666667","6500900","三峽區"
"237007","153-BY","2019/11/23 18:43:45","新北市三峽區柑樹路2巷3號","121.362288333333","24.9056066666667","6500900","三峽區"
"237009","210-TH","2019/11/23 18:43:54","新北市三峽區民權街199號","121.367711666667","24.9288383333333","6500900","三峽區"
"237013","252-BX","2019/11/23 18:43:44","新北市三峽區光明路69巷25號","121.376566666667","24.9291216666667","6500900","三峽區"
"237012","275-BY","2019/11/23 18:43:39","新北市三峽區三樹路340號","121.38397","24.9433316666667","6500900","三峽區"
"237008","302-VK","2019/11/23 18:43:55","新北市三峽區白雞33-61號","121.370913333333","24.9131016666667","6500900","三峽區"
"237014","433-BY","2019/11/23 18:43:53","新北市三峽區隆恩街158巷42號","121.366498333333","24.94433","6500900","三峽區"
"237006","5529-G3","2019/11/23 18:43:55","新北市三峽區溪東路315巷3弄2號","121.410886666667","24.9309366666667","6500900","三峽區"
"237011","KEA-2596","2019/11/23 18:43:58","新北市三峽區溪東路295號","121.409353333333","24.9311583333333","6500900","三峽區"
"237015","649-BX","2019/11/23 18:43:40","新北市三峽區安坑1-6號","121.436153333333","24.924935","6500900","三峽區"
"237010","706-TV","2019/11/23 18:43:54","新北市三峽區復興路489號","121.36123","24.938425","6500900","三峽區"
"237005","AKY-6261","2019/11/23 18:43:51","新北市三峽區民生街120號","121.372815","24.93526","6500900","三峽區"
"236042","KED-0685","2019/11/23 18:43:59","新北市土城區裕民路92巷23弄2號","121.449655","24.9861716666667","6501300","土城區"
"233002","762-BX","2019/11/23 18:43:49","新北市新店區新烏路一段50-20號","121.54607","24.9478716666667","6502900","烏來區"
"236079","166-UM","2019/11/23 18:43:58","新北市土城區中央路四段125巷2弄11號","121.416526666667","24.9569916666667","6501300","土城區"
"236030","253-BX","2019/11/23 18:43:50","新北市土城區中華路二段183號","121.438466666667","24.9747983333333","6501300","土城區"
"236026","269-VK","2019/11/23 18:43:56","新北市土城區和平路51-1號","121.443685","24.9718016666667","6501300","土城區"
"236014","270-VK","2019/11/23 18:43:51","新北市土城區清水路278巷28弄16號","121.462503333333","24.98248","6501300","土城區"
"236038","271-VK","2019/11/23 18:43:56","新北市土城區明德路一段245號","121.462646666667","24.9780216666667","6501300","土城區"
"236070","KEA-2877","2019/11/23 18:43:47","新北市土城區明德路一段33號","121.46506","24.98538","6501300","土城區"
"252002","KED-0821","2019/11/23 18:43:51","新北市三芝區民生街17號","121.503653333333","25.2570633333333","6502100","三芝區"
"236021","401-BY","2019/11/23 18:43:42","新北市土城區延吉街253巷31號","121.468065","24.983675","6501300","土城區"
"236049","752-BX","2019/11/23 18:43:43","新北市土城區青雲路107-1號","121.459113333333","24.9854883333333","6501300","土城區"
"236059","912-UM","2019/11/23 18:43:54","新北市土城區承天路2號","121.435353333333","24.96599","6501300","土城區"
"236063","915-UM","2019/11/23 18:43:54","新北市土城區延壽路55巷9弄2號","121.469478333333","24.9916533333333","6501300","土城區"
"236055","AAC-216","2019/11/23 18:43:53","新北市土城區裕民路145-1號","121.451756666667","24.9861766666667","6501300","土城區"
"242061","986-R7","2019/11/23 18:43:54","新北市新莊區民安路188巷1弄2號","121.42525","25.02353","6500500","新莊區"
"242002","441-UM","2019/11/23 18:43:36","新北市樹林區中山路三段206-1號","121.384118333333","24.9671766666667","6500500","新莊區"
"242044","415-TV","2019/11/23 18:43:48","新北市新莊區中正路887-19號","121.415918333333","25.0240916666667","6500500","新莊區"
"242009","349-TH","2019/11/23 18:43:44","新北市新莊區新莊路88號","121.456611666667","25.0364216666667","6500500","新莊區"
"238015","755-BX","2019/11/23 18:40:49","新北市樹林區備內街121號","121.406028333333","24.98943","6500700","樹林區"
"238023","601-UM","2019/11/23 18:43:51","新北市樹林區三福街114號","121.406366666667","25.016285","6500700","樹林區"
"238024","5061-A6","2019/11/23 18:43:52","新北市樹林區太順街79巷2號","121.416576666667","24.97823","6500700","樹林區"
"238018","KEA-2217","2019/11/23 18:43:47","新北市樹林區樹新路40號","121.427356666667","24.99491","6500700","樹林區"
"238017","283-BY","2019/11/23 18:43:49","新北市樹林區光興街83-3號","121.409876666667","25.0026716666667","6500700","樹林區"
"238014","282-BY","2019/11/23 18:43:48","新北市樹林區大安路111巷41號","121.42326","24.9975416666667","6500700","樹林區"
"238020","268-VK","2019/11/23 18:43:44","新北市樹林區三俊街250號","121.421386666667","25.0148533333333","6500700","樹林區"
"238026","172-UY","2019/11/23 18:43:53","新北市樹林區育德街78-1號","121.388066666667","24.9680883333333","6500700","樹林區"
"239007","AAC-297","2019/11/23 18:43:48","新北市鶯歌區中正一路460號","121.364441666667","24.9565966666667","6500800","鶯歌區"
"239006","891-R6","2019/11/23 18:43:38","新北市鶯歌區鶯桃路285巷6號","121.334543333333","24.9592533333333","6500800","鶯歌區"
"239008","527-UM","2019/11/23 18:43:49","新北市鶯歌區朝陽街4號","121.336253333333","24.9765816666667","6500800","鶯歌區"
"239005","526-UM","2019/11/23 18:43:44","新北市鶯歌區鳳吉三街15號","121.326661666667","24.97341","6500800","鶯歌區"
"239001","417-VK","2019/11/23 18:43:47","新北市鶯歌區國中街209號","121.33782","24.9387933333333","6500800","鶯歌區"
"239003","360-BY","2019/11/23 18:43:54","新北市鶯歌區福安街13巷1號","121.335508333333","24.965325","6500800","鶯歌區"
"239002","359-BY","2019/11/23 18:43:52","新北市鶯歌區文化路307號","121.352513333333","24.95242","6500800","鶯歌區"
"239004","193-VK","2019/11/23 18:43:41","新北市鶯歌區尖山路293巷13號","121.341571666667","24.94425","6500800","鶯歌區"
"221036","130-UY","2019/11/23 18:43:54","新北市汐止區長興街一段47號","121.670176666667","25.079085","6501100","汐止區"
"221010","269-BY","2019/11/23 18:43:59","新北市汐止區夢湖路一段2巷5號","121.642006666667","25.1080833333333","6501100","汐止區"
"221012","278-VK","2019/11/23 18:43:53","新北市汐止區保長路147巷2號","121.677018333333","25.07661","6501100","汐止區"
"221032","280-BY","2019/11/23 18:43:43","新北市汐止區民權街二段79號","121.619138333333","25.0479633333333","6501100","汐止區"
"221021","299-VK","2019/11/23 18:43:51","新北市汐止區新興路83-1號","121.657748333333","25.0620783333333","6501100","汐止區"
"221031","353-TW","2019/11/23 18:43:50","新北市汐止區大同路一段312號","121.637291666667","25.0587833333333","6501100","汐止區"
"221029","645-BX","2019/11/23 18:43:37","新北市汐止區樟樹一路131號","121.642206666667","25.0649916666667","6501100","汐止區"
"221015","567-BX","2019/11/23 18:43:45","新北市汐止區鄉友街54號","121.669588333333","25.0820583333333","6501100","汐止區"
"221035","622-UM","2019/11/23 18:43:40","新北市汐止區大同路二段103巷2號","121.649273333333","25.06379","6501100","汐止區"
"221025","623-UM","2019/11/23 18:43:43","新北市汐止區仁愛路119巷11號","121.662353333333","25.0639883333333","6501100","汐止區"
"221033","647-BX","2019/11/23 18:43:43","新北市汐止區南勢街3號","121.627068333333","25.0374016666667","6501100","汐止區"
"221002","707-TV","2019/11/23 18:43:51","新北市汐止區大同路一段215-1號","121.633896666667","25.0574633333333","6501100","汐止區"
"221018","753-BX","2019/11/23 18:43:55","新北市汐止區茄苳路250巷7號","121.671343333333","25.0679883333333","6501100","汐止區"
"220080","200-UY","2019/11/23 18:43:54","新北市板橋區大觀路二段265巷76弄31號","121.441336666667","24.996705","6500100","板橋區"
"220082","610-BX","2019/11/23 18:43:54","新北市板橋區篤行路二段113號","121.43139","24.9910133333333","6500100","板橋區"
"220101","245-BX","2019/11/23 18:43:42","新北市板橋區文化路二段26號","121.469006666667","25.0245566666667","6500100","板橋區"
"220054","256-TC","2019/11/23 18:43:46","新北市板橋區館前東路15號","121.46007","25.0072883333333","6500100","板橋區"
"224002","257-TC","2019/11/23 18:43:44","新北市瑞芳區明燈路二段56-1號","121.809755","25.1075683333333","6501200","瑞芳區"
"220056","276-BY","2019/11/23 18:43:53","新北市板橋區四川路一段205號","121.460051666667","25.0035383333333","6500100","板橋區"
"220072","277-BY","2019/11/23 18:43:39","新北市板橋區金門街29號","121.43341","24.993965","6500100","板橋區"
"220094","283-UM","2019/11/23 18:43:54","新北市板橋區民生路二段120號","121.470781666667","25.0193683333333","6500100","板橋區"
"220071","283-VK","2019/11/23 18:43:46","新北市板橋區四川路一段387號","121.458071666667","24.9992833333333","6500100","板橋區"
"220053","285-VK","2019/11/23 18:43:56","新北市板橋區永豐街55巷48號","121.471996666667","25.018495","6500100","板橋區"
"220083","286-VK","2019/11/23 18:43:46","新北市板橋區大觀路二段5-3號","121.446928333333","25.0037366666667","6500100","板橋區"
"220081","287-VK","2019/11/23 18:43:41","新北市板橋區館前西路162號","121.452821666667","25.0085833333333","6500100","板橋區"
"220090","288-VK","2019/11/23 18:43:49","新北市板橋區民生路三段105號","121.466473333333","25.0250783333333","6500100","板橋區"
"220061","293-UM","2019/11/23 18:43:48","新北市板橋區縣民大道三段32號","121.471585","25.0187416666667","6500100","板橋區"
"220084","296-UM","2019/11/23 18:43:50","新北市板橋區大觀路二段148巷30號","121.442005","24.999915","6500100","板橋區"
"220075","303-R5","2019/11/23 18:43:57","新北市板橋區南雅西路二段7巷25號","121.451806666667","25.0096366666667","6500100","板橋區"
"220062","305-R5","2019/11/23 18:43:46","新北市板橋區民生路二段17號","121.472423333333","25.0163983333333","6500100","板橋區"
"220092","307-R5","2019/11/23 18:43:39","新北市板橋區漢生東路25號","121.465216666667","25.01712","6500100","板橋區"
"220098","317-R6","2019/11/23 18:43:47","新北市板橋區民生路二段226巷4號","121.469513333333","25.0218416666667","6500100","板橋區"
"220089","487-VK","2019/11/23 18:43:39","新北市板橋區文化路二段22號","121.468851666667","25.0244816666667","6500100","板橋區"
"220088","491-VK","2019/11/23 18:43:52","新北市板橋區民生路二段120號","121.47095","25.01935","6500100","板橋區"
"220035","560-BX","2019/11/23 18:43:41","新北市板橋區南雅西路二段164號","121.451655","25.0136233333333","6500100","板橋區"
"220103","561-BX","2019/11/23 18:43:49","新北市板橋區文化路二段182巷5弄3號","121.471728333333","25.0271483333333","6500100","板橋區"
"220079","568-UM","2019/11/23 18:43:41","新北市板橋區南雅西路二段135號","121.452331666667","25.0113966666667","6500100","板橋區"
"220063","609-BX","2019/11/23 18:43:51","新北市板橋區民生路一段129號","121.473708333333","25.0148716666667","6500100","板橋區"
"220057","686-BX","2019/11/23 18:43:52","新北市板橋區重慶路38號","121.461335","25.0075266666667","6500100","板橋區"
"220077","687-BX","2019/11/23 18:43:55","新北市板橋區大觀路二段174巷137號","121.441156666667","25.002025","6500100","板橋區"
"220093","689-BX","2019/11/23 18:43:55","新北市板橋區民生路二段161巷1號","121.470246666667","25.0200066666667","6500100","板橋區"
"220102","KEA-2699","2019/11/23 18:43:52","新北市板橋區民生路二段89-6號","121.470641666667","25.0193716666667","6500100","板橋區"
"220055","827-TW","2019/11/23 18:43:54","新北市板橋區忠孝路148號","121.463925","25.002415","6500100","板橋區"
"220068","830-TW","2019/11/23 18:43:47","新北市板橋區萬板路155號","121.47386","25.0234166666667","6500100","板橋區"
"220067","831-TW","2019/11/23 18:43:59","新北市板橋區民生路一段57號","121.475516666667","25.013265","6500100","板橋區"
"220074","895-R6","2019/11/23 18:43:48","新北市板橋區南門街39號","121.457321666667","25.00881","6500100","板橋區"
"220073","985-R7","2019/11/23 18:43:54","新北市板橋區貴興路3號","121.457821666667","25.00455","6500100","板橋區"
"220097","AAC-210","2019/11/23 18:43:48","新北市板橋區民生路三段107號","121.466511666667","25.0252366666667","6500100","板橋區"
"220064","AAC-253","2019/11/23 18:43:53","新北市板橋區中山路二段37號","121.472998333333","25.0154116666667","6500100","板橋區"
"235068","KEA-2873","2019/11/23 18:43:33","新北市中和區中正路211巷13弄8號","121.497218333333","24.9931333333333","6500300","中和區"
"235061","KEA-2875","2019/11/23 18:43:52","新北市中和區民享街30巷1號","121.473851666667","25.0034733333333","6500300","中和區"
