"lineid","car","time","location","longitude","latitude","cityid","cityname"
"234046","148-BY","2019/11/23 19:13:51","新北市永和區秀朗路二段148巷5弄1號","121.525395","25.0008883333333","6500400","永和區"
"234081","298-R6","2019/11/23 19:13:56","新北市永和區永貞路37號","121.521295","25.006505","6500400","永和區"
"234038","336-UY","2019/11/23 19:13:42","新北市永和區民樂街69巷11號","121.527738333333","24.997765","6500400","永和區"
"234064","337-UY","2019/11/23 19:13:53","新北市永和區永元路48號","121.522203333333","25.00093","6500400","永和區"
"234086","338-UY","2019/11/23 19:13:57","新北市永和區中正路556號","121.517346666667","25.0057566666667","6500400","永和區"
"234070","552-UM","2019/11/23 19:13:54","新北市永和區豫溪街135號","121.519673333333","25.0101766666667","6500400","永和區"
"234017","745-BX","2019/11/23 19:13:44","新北市永和區文化路90巷34號","121.513475","25.0163683333333","6500400","永和區"
"234030","746-BX","2019/11/23 19:13:50","新北市永和區厚德街89號","121.524","24.9988283333333","6500400","永和區"
"234054","KEA-2590","2019/11/23 19:13:47","新北市永和區中興街80號","121.517856666667","25.01198","6500400","永和區"
"234007","KED-0605","2019/11/23 19:13:48","新北市永和區中山路一段307號","121.506533333333","25.006665","6500400","永和區"
"234013","KEA-2591","2019/11/23 19:13:49","新北市永和區保福路二段67號","121.510718333333","25.0125033333333","6500400","永和區"
"234061","AAD-866","2019/11/23 19:13:57","新北市永和區秀朗路一段96巷1號","121.516301666667","25.0045716666667","6500400","永和區"
"234042","862-TW","2019/11/23 19:13:37","新北市永和區保平路195號","121.508988333333","25.0051666666667","6500400","永和區"
"234050","863-TW","2019/11/23 19:13:42","新北市永和區保福路二段78號","121.510473333333","25.0133666666667","6500400","永和區"
"234026","9372-KE","2019/11/23 19:13:51","新北市永和區安樂路198號","121.515221666667","25.0016183333333","6500400","永和區"
"234023","9381-KE","2019/11/23 19:13:50","新北市永和區豫溪街57巷10弄11號","121.517688333333","25.01111","6500400","永和區"
"234011","9373-KE","2019/11/23 19:14:00","新北市永和區保福路二段9巷15弄5號","121.510408333333","25.010855","6500400","永和區"
"249001","173-UM","2019/11/23 19:13:50","新北市八里區龍米路三段58號","121.424505","25.1591433333333","6502300","八里區"
"249003","593-UM","2019/11/23 19:13:46","新北市八里區中山路二段356巷56號","121.39915","25.1513066666667","6502300","八里區"
"249005","759-BX","2019/11/23 19:13:37","新北市八里區商港路2號","121.397745","25.143925","6502300","八里區"
"248008","KED-0815","2019/11/23 19:13:45","新北市五股區中興路二段83巷26-6號","121.460035","25.0752966666667","6501500","五股區"
"248020","KED-0813","2019/11/23 19:13:43","新北市五股區凌雲路三段57號","121.425291666667","25.1249933333333","6501500","五股區"
"248010","272-BY","2019/11/23 19:13:39","新北市五股區水碓一路23號","121.43062","25.0712633333333","6501500","五股區"
"248004","677-BX","2019/11/23 19:13:47","新北市五股區五福路16號","121.434296666667","25.0886616666667","6501500","五股區"
"248002","678-BX","2019/11/23 19:13:42","新北市五股區凌雲路一段158巷6號","121.4478","25.1029666666667","6501500","五股區"
"234077","969-R7","2019/11/23 19:13:43","新北市永和區民權路36巷6號","121.519673333333","24.9989316666667","6500400","永和區"
"234074","AAC-211","2019/11/23 19:13:51","新北市永和區竹林路150號","121.520175","25.0107566666667","6500400","永和區"
"234067","AAC-212","2019/11/23 19:13:48","新北市永和區保平路18巷3號","121.512255","25.0077633333333","6500400","永和區"
"234003","AAC-295","2019/11/23 19:13:41","新北市永和區保福路一段47巷15號","121.512113333333","25.0091733333333","6500400","永和區"
"244023","483-VK","2019/11/23 19:13:41","新北市林口區文林六街13巷18號","121.370313333333","25.0807566666667","6501700","林口區"
"244011","657-BX","2019/11/23 19:13:53","新北市林口區中山路123巷6號","121.388658333333","25.0783","6501700","林口區"
"244025","837-TS","2019/11/23 19:13:58","新北市林口區仁愛二路101-1號","121.367836666667","25.0751833333333","6501700","林口區"
"243012","AAD-798","2019/11/23 19:13:38","新北市泰山區辭修路36巷8弄5號","121.4279","25.0585783333333","6501600","泰山區"
"243010","297-R6","2019/11/23 19:13:37","新北市泰山區明志路一段458巷11號","121.429996666667","25.0557933333333","6501600","泰山區"
"243014","KEA-2801","2019/11/23 19:13:50","新北市泰山區泰林路二段300號","121.430905","25.062775","6501600","泰山區"
"243016","421-VK","2019/11/23 19:13:56","新北市泰山區明志路三段45號","121.42496","25.042425","6501600","泰山區"
"243009","KEA-2215","2019/11/23 19:13:43","新北市泰山區楓樹街15巷3-1號","121.434863333333","25.0630516666667","6501600","泰山區"
"243011","KEA-2216","2019/11/23 19:13:46","新北市泰山區明志路二段368號","121.425613333333","25.04488","6501600","泰山區"
"243013","646-TV","2019/11/23 19:13:54","新北市泰山區台麗街13巷1號","121.42452","25.0382433333333","6501600","泰山區"
"243015","680-BX","2019/11/23 19:13:43","新北市泰山區明志路一段509號","121.430625","25.0544066666667","6501600","泰山區"
"222003","436-BY","2019/11/23 19:13:45","新北市深坑區深南路204號","121.62665","25.0160833333333","6501800","深坑區"
"222002","659-BX","2019/11/23 19:13:53","新北市深坑區紅葉街23號","121.633055","25.0124733333333","6501800","深坑區"
"231045","001-UM","2019/11/23 19:13:55","新北市新店區北宜路一段164號","121.540436666667","24.9533816666667","6500600","新店區"
"231061","002-UM","2019/11/23 19:13:47","新北市新店區安康路一段198號","121.524353333333","24.9634216666667","6500600","新店區"
"231055","0291-UT","2019/11/23 19:13:47","新北市新店區安和路三段3號","121.517983333333","24.9802283333333","6500600","新店區"
"231044","046-UY","2019/11/23 19:13:54","新北市新店區中興路三段214號","121.543676666667","24.9824333333333","6500600","新店區"
"231060","106-UY","2019/11/23 19:13:43","新北市新店區安康路二段167號","121.509906666667","24.9593283333333","6500600","新店區"
"231051","107-UY","2019/11/23 19:13:51","新北市新店區中正路400巷4號","121.53488","24.9776333333333","6500600","新店區"
"231049","108-UY","2019/11/23 19:13:50","新北市新店區北新路三段65巷11號","121.541076666667","24.9810166666667","6500600","新店區"
"231065","110-UY","2019/11/23 19:13:41","新北市新店區安祥路108巷53號","121.474398333333","24.9570683333333","6500600","新店區"
"231062","256-BX","2019/11/23 19:13:55","新北市新店區安平路35巷2-1號","121.521293333333","24.967855","6500600","新店區"
"231054","260-TV","2019/11/23 19:13:50","新北市新店區新店路228號","121.537161666667","24.9568","6500600","新店區"
"231042","268-BY","2019/11/23 19:13:51","新北市新店區中興路一段115號","121.54152","24.9627766666667","6500600","新店區"
"231064","278-BY","2019/11/23 19:13:40","新北市新店區安忠路65巷2號","121.511383333333","24.957735","6500600","新店區"
"231050","AAD-862","2019/11/23 19:13:56","新北市新店區竹林路28號","121.552035","24.9513516666667","6500600","新店區"
"231058","3713-VJ","2019/11/23 19:13:42","新北市新店區光明街138巷13弄5號","121.54023","24.9614533333333","6500600","新店區"
"231067","4772-VM","2019/11/23 19:13:47","新北市新店區安康路一段207巷6弄8號","121.525523333333","24.96269","6500600","新店區"
"231052","513-UM","2019/11/23 19:13:43","新北市新店區屈尺路121號","121.545261666667","24.9234666666667","6500600","新店區"
"231041","619-UM","2019/11/23 19:13:58","新北市新店區溪園路255巷9弄21號","121.523843333333","24.98094","6500600","新店區"
"231063","641-BX","2019/11/23 19:13:51","新北市新店區黎明路67巷25號","121.50425","24.9453366666667","6500600","新店區"
"231048","KED-0819","2019/11/23 19:13:36","新北市新店區德正街27巷29弄19號","121.54487","24.9718683333333","6500600","新店區"
"231046","719-UM","2019/11/23 19:13:58","新北市新店區華城路12-1號","121.529201666667","24.9578566666667","6500600","新店區"
"231057","720-UM","2019/11/23 19:13:45","新北市新店區百齡一路12號","121.553068333333","24.9324283333333","6500600","新店區"
"231059","897-TW","2019/11/23 19:13:38","新北市新店區安和路一段52巷2-1號","121.517665","24.9663516666667","6500600","新店區"
"231040","898-TW","2019/11/23 19:13:45","新北市新店區三民路98-4號","121.533916666667","24.9733883333333","6500600","新店區"
"231043","899-TW","2019/11/23 19:13:37","新北市新店區寶橋路43號","121.544671666667","24.974515","6500600","新店區"
"231066","AKT-0513","2019/11/23 19:13:52","新北市新店區安祥路35-2號","121.490781666667","24.9567183333333","6500600","新店區"
"241031","061-VK","2019/11/23 19:13:31","新北市三重區重新路四段85巷20號","121.485335","25.0555133333333","6500200","三重區"
"241035","KEA-2210","2019/11/23 19:13:41","新北市三重區信義西街138號","121.49556","25.06428","6500200","三重區"
"241020","478-VK","2019/11/23 19:13:41","新北市三重區後竹圍街132號","121.48805","25.072645","6500200","三重區"
"241026","480-VK","2019/11/23 19:13:45","新北市三重區中正南路223號","121.493256666667","25.053985","6500200","三重區"
"241022","KED-0820","2019/11/23 19:13:53","新北市三重區中正北路111-2號","121.485081666667","25.065635","6500200","三重區"
"241029","942-UM","2019/11/23 19:13:49","新北市三重區中正南路199號","121.493421666667","25.0544816666667","6500200","三重區"
"235066","003-UY","2019/11/23 19:13:54","新北市中和區廣福路116號","121.502008333333","25.0010333333333","6500300","中和區"
"235064","005-UY","2019/11/23 19:13:42","新北市中和區泰和街1號","121.500028333333","25.0009983333333","6500300","中和區"
"235063","006-UY","2019/11/23 19:13:46","新北市中和區連勝街115號","121.495015","24.9951683333333","6500300","中和區"
"235056","096-UM","2019/11/23 19:13:56","新北市中和區員山路502-1號","121.479718333333","25.0074466666667","6500300","中和區"
"235039","097-UM","2019/11/23 19:13:59","新北市中和區景平路3號","121.523656666667","24.9902416666667","6500300","中和區"
"235065","098-UM","2019/11/23 19:13:40","新北市中和區中山路二段116巷5弄5號","121.502211666667","25.0043883333333","6500300","中和區"
"235040","150-BY","2019/11/23 19:13:56","新北市中和區保健路48巷3號","121.510003333333","24.996925","6500300","中和區"
"235058","151-BY","2019/11/23 19:13:39","新北市中和區連城路523巷13弄21號","121.482165","24.993825","6500300","中和區"
"235055","183-VK","2019/11/23 19:13:49","新北市中和區莒光路101號","121.472355","25.0028916666667","6500300","中和區"
"235038","185-VK","2019/11/23 19:13:40","新北市中和區大仁街10巷7號","121.518165","24.9926183333333","6500300","中和區"
"235067","255-BX","2019/11/23 19:13:43","新北市中和區民樂路36號","121.482978333333","25.001265","6500300","中和區"
"235044","293-VK","2019/11/23 19:13:38","新北市中和區復興路311號","121.501185","24.9902783333333","6500300","中和區"
"235072","301-VK","2019/11/23 19:13:54","新北市中和區連城路237-1號","121.49367","24.9973133333333","6500300","中和區"
"235043","352-BY","2019/11/23 19:13:46","新北市中和區景平路404號","121.509073333333","24.9931183333333","6500300","中和區"
"235042","KEA-2878","2019/11/23 19:13:42","新北市中和區大勇街60巷8號","121.518666666667","24.9946883333333","6500300","中和區"
"235050","4979-A6","2019/11/23 19:13:41","新北市中和區復興路280巷18弄20號","121.501701666667","24.99216","6500300","中和區"
"235069","4980-A6","2019/11/23 19:13:44","新北市中和區莊敬路33巷4號","121.500516666667","25.0050816666667","6500300","中和區"
"235070","558-UM","2019/11/23 19:13:49","新北市中和區中山路二段228-1號","121.498793333333","25.0027533333333","6500300","中和區"
"235045","565-BX","2019/11/23 19:13:47","新北市中和區景新街423巷33弄12號","121.513743333333","24.9902416666667","6500300","中和區"
"235060","KED-0823","2019/11/23 19:13:48","新北市中和區員山路268巷9弄8號","121.482081666667","25.0023283333333","6500300","中和區"
"235054","640-BX","2019/11/23 19:13:52","新北市中和區國光街112巷11弄1號","121.46972","25.0015533333333","6500300","中和區"
"235071","647-TV","2019/11/23 19:13:48","新北市中和區連城路475號","121.48326","24.9958383333333","6500300","中和區"
"235047","732-UM","2019/11/23 19:13:50","新北市中和區和平街56號","121.508548333333","24.9907383333333","6500300","中和區"
"235046","733-UM","2019/11/23 19:13:46","新北市中和區忠孝街2號","121.5088","24.9829233333333","6500300","中和區"
"235057","801-TS","2019/11/23 19:13:41","新北市中和區員山路423巷16號","121.480305","25.002705","6500300","中和區"
"235041","802-TS","2019/11/23 19:13:45","新北市永和區中和路381號","121.508533333333","24.999885","6500300","中和區"
"235052","805-TS","2019/11/23 19:13:48","新北市中和區興南路二段142巷31弄83號","121.501585","24.9836816666667","6500300","中和區"
"235048","896-TW","2019/11/23 19:13:47","新北市中和區忠孝街74號","121.51202","24.9841616666667","6500300","中和區"
"235053","900-TW","2019/11/23 19:13:50","新北市中和區華安街30巷2號","121.466991666667","24.9977066666667","6500300","中和區"
"235051","157-BY","2019/11/23 19:13:34","新北市中和區和平街24巷4號","121.510005","24.9904","6500300","中和區"
"235037","AAC-213","2019/11/23 19:13:52","新北市永和區民生路83號","121.522808333333","24.9967383333333","6500300","中和區"
"235059","AAC-215","2019/11/23 19:13:39","新北市中和區圓通路294巷3號","121.488871666667","24.98976","6500300","中和區"
"220065","072-UY","2019/11/23 19:13:46","新北市板橋區民族路219巷96-1號","121.469533333333","25.0091366666667","6500100","板橋區"
"220086","073-UY","2019/11/23 19:13:51","新北市板橋區幸福路70巷1號","121.460618333333","25.0199366666667","6500100","板橋區"
"220106","075-UY","2019/11/23 19:13:41","新北市板橋區江寧路三段119號","121.47332","25.0331666666667","6500100","板橋區"
"220069","AAD-861","2019/11/23 19:13:54","新北市板橋區大明街20巷29弄4號","121.45805","25.0035333333333","6500100","板橋區"
"247022","336-TH","2019/11/23 19:13:46","新北市蘆洲區三民路591號","121.461178333333","25.09343","6501400","蘆洲區"
"226004","312-R5","2019/11/23 19:13:59","新北市平溪區望古里灰3號","121.76061","25.0312616666667","6502400","平溪區"
"235049","251-BX","2019/11/23 19:13:56","新北市中和區景新街235號","121.508103333333","24.9944983333333","6500300","中和區"
"228003","097-TW","2019/11/23 19:13:49","新北市貢寮區和美里和美街21-1號","121.91244","25.0825533333333","6502600","貢寮區"
"228001","212-TW","2019/11/23 19:13:45","新北市貢寮區真理里新港街10號","121.925546666667","25.0543733333333","6502600","貢寮區"
"228002","663-BX","2019/11/23 19:13:55","新北市貢寮區福隆里興隆街36號","121.941053333333","25.01752","6502600","貢寮區"
"224010","AGQ-8101","2019/11/23 19:13:45","新北市瑞芳區基山街117號","121.844258333333","25.1086683333333","6501200","瑞芳區"
"224006","676-BX","2019/11/23 19:13:45","新北市瑞芳區靜安路四段12巷3號","121.797325","25.0866216666667","6501200","瑞芳區"
"224009","275-VK","2019/11/23 19:13:56","新北市瑞芳區洞頂路8-1號","121.862286666667","25.1215683333333","6501200","瑞芳區"
"224008","273-VK","2019/11/23 19:13:55","新北市瑞芳區瑞芳街82-1號","121.802983333333","25.10996","6501200","瑞芳區"
"227001","642-TC","2019/11/23 19:13:38","新北市雙溪區牡丹里自強路18號","121.865298333333","25.0393366666667","6502500","雙溪區"
"227002","400-TW","2019/11/23 19:13:57","新北市雙溪區平林里梅竹蹊56-4號","121.860703333333","25.0366633333333","6502500","雙溪區"
"253005","032-BX","2019/11/23 19:13:41","新北市石門區阿里荖28-1號","121.607211666667","25.28068","6502200","石門區"
"253006","295-VK","2019/11/23 19:13:47","新北市石門區崁子腳46號","121.533956666667","25.2885266666667","6502200","石門區"
"222001","KEA-2212","2019/11/23 19:13:39","新北市深坑區北深路二段52號","121.619375","25.0041916666667","6501800","深坑區"
"208002","KEA-2872","2019/11/23 19:13:52","新北市金山區中正路136號","121.631683333333","25.2216133333333","6502700","金山區"
"208003","665-BX","2019/11/23 19:13:48","新北市金山區中山路159號","121.63879","25.2204766666667","6502700","金山區"
"251009","008-UM","2019/11/23 19:13:42","新北市淡水區清水街216號","121.440306666667","25.171335","6501000","淡水區"
"251005","010-UM","2019/11/23 19:13:54","新北市淡水區水源街一段29號","121.443208333333","25.17233","6501000","淡水區"
"251002","012-UM","2019/11/23 19:13:54","新北市淡水區中山路87巷1號","121.442595","25.1704933333333","6501000","淡水區"
"251015","KEA-2871","2019/11/23 19:13:51","新北市淡水區南勢埔20-1號","121.481618333333","25.1788266666667","6501000","淡水區"
"251016","180-VK","2019/11/23 19:13:38","新北市淡水區下圭柔山119-51號","121.450738333333","25.2084533333333","6501000","淡水區"
"251008","181-VK","2019/11/23 19:13:41","新北市淡水區崁頂78-5號","121.429451666667","25.2069966666667","6501000","淡水區"
"251013","182-VK","2019/11/23 19:13:43","新北市淡水區安子內12-1號","121.481513333333","25.219095","6501000","淡水區"
"251010","413-VK","2019/11/23 19:13:54","新北市淡水區沙崙路23號","121.421358333333","25.181435","6501000","淡水區"
"251007","442-VK","2019/11/23 19:13:46","新北市淡水區民生路145巷33號","121.466703333333","25.1390283333333","6501000","淡水區"
"251001","559-UM","2019/11/23 19:13:37","新北市淡水區自強路201巷39號","121.462113333333","25.1268133333333","6501000","淡水區"
"251014","577-R6","2019/11/23 19:13:39","新北市淡水區小中寮19-7號","121.484718333333","25.2296616666667","6501000","淡水區"
"251003","766-UM","2019/11/23 19:13:48","新北市淡水區中山路189號","121.441371666667","25.1743383333333","6501000","淡水區"
"207003","681-TV","2019/11/23 19:13:59","新北市萬里區大鵬里頂社67號","121.65581","25.209585","6502800","萬里區"
"207004","291-VK","2019/11/23 19:13:45","新北市萬里區萬里里瑪鋉路30巷1弄13號","121.689981666667","25.1766183333333","6502800","萬里區"
"252001","292-VK","2019/11/23 19:13:56","新北市三芝區長勤街14號","121.501321666667","25.2557866666667","6502100","三芝區"
"208001","170-UY","2019/11/23 19:13:58","新北市金山區金包里街58號","121.639221666667","25.22124","6502700","金山區"
"237004","KEA-2597","2019/11/23 19:13:44","新北市三峽區有木206號","121.439078333333","24.8515683333333","6500900","三峽區"
"237007","153-BY","2019/11/23 19:13:45","新北市三峽區麻園14-1號","121.362895","24.9147783333333","6500900","三峽區"
"237009","210-TH","2019/11/23 19:13:54","新北市三峽區民生街121號","121.373336666667","24.9351783333333","6500900","三峽區"
"237013","252-BX","2019/11/23 19:13:44","新北市三峽區大同路5巷33號","121.378466666667","24.9279183333333","6500900","三峽區"
"237012","275-BY","2019/11/23 19:13:38","新北市三峽區三樹路222巷236弄23號","121.391383333333","24.94307","6500900","三峽區"
"237008","302-VK","2019/11/23 19:13:35","新北市三峽區大同路119巷8號","121.374278333333","24.9264666666667","6500900","三峽區"
"237014","433-BY","2019/11/23 19:13:53","新北市三峽區中山路257巷3號","121.362378333333","24.9371016666667","6500900","三峽區"
"237006","5529-G3","2019/11/23 19:13:55","新北市三峽區介壽路二段167號","121.394826666667","24.93609","6500900","三峽區"
"237011","KEA-2596","2019/11/23 19:13:58","新北市三峽區介壽路三段107號","121.395493333333","24.9392616666667","6500900","三峽區"
"237015","649-BX","2019/11/23 19:13:41","新北市三峽區安坑38號","121.454591666667","24.9320583333333","6500900","三峽區"
"237010","706-TV","2019/11/23 19:13:54","新北市三峽區國光街54號","121.374511666667","24.9380616666667","6500900","三峽區"
"237005","AKY-6261","2019/11/23 19:13:51","新北市三峽區中山路459巷135號","121.348643333333","24.9329233333333","6500900","三峽區"
"236079","166-UM","2019/11/23 19:13:58","新北市土城區中央路四段321巷32-2號","121.411883333333","24.9511233333333","6501300","土城區"
"236026","269-VK","2019/11/23 19:13:56","新北市土城區中央路二段189巷16號","121.442676666667","24.975755","6501300","土城區"
"236014","270-VK","2019/11/23 19:13:42","新北市土城區學府路一段23巷41號","121.457171666667","24.9864483333333","6501300","土城區"
"236070","KEA-2877","2019/11/23 19:13:46","新北市土城區中華路一段23號","121.446775","24.9891666666667","6501300","土城區"
"252002","KED-0821","2019/11/23 19:13:51","新北市三芝區淡金路二段18-1號","121.502711666667","25.259525","6502100","三芝區"
"236021","401-BY","2019/11/23 19:13:56","新北市土城區延峰街2號","121.468538333333","24.9867633333333","6501300","土城區"
"236059","912-UM","2019/11/23 19:13:54","新北市土城區中央路三段29號","121.439263333333","24.9702116666667","6501300","土城區"
"242009","349-TH","2019/11/23 19:13:44","新北市樹林區中山路三段210-2號","121.381431666667","24.9655816666667","6500500","新莊區"
"238015","755-BX","2019/11/23 19:13:54","新北市樹林區備內街158巷17號","121.407755","24.98993","6500700","樹林區"
"238023","601-UM","2019/11/23 19:13:51","桃園市龜山區萬壽路一段791-2號","121.392096666667","25.013995","6500700","樹林區"
"238019","599-UM","2019/11/23 19:13:41","新北市樹林區東榮街91巷2弄19號","121.415326666667","24.9819433333333","6500700","樹林區"
"238022","KEA-2213","2019/11/23 19:13:37","新北市樹林區中山路二段151巷8弄20號","121.405988333333","24.9776216666667","6500700","樹林區"
"238021","KEA-2539","2019/11/23 19:13:47","新北市樹林區柑園街二段382巷13號","121.367873333333","24.9497933333333","6500700","樹林區"
"238025","303-VK","2019/11/23 19:13:46","新北市樹林區中山路三段198號","121.387103333333","24.9689066666667","6500700","樹林區"
"238017","283-BY","2019/11/23 19:13:49","新北市樹林區光興街62號","121.409515","25.0027816666667","6500700","樹林區"
"238014","282-BY","2019/11/23 19:13:48","新北市樹林區千歲街63-14號","121.427088333333","24.998645","6500700","樹林區"
"238020","268-VK","2019/11/23 19:13:43","新北市樹林區俊英街133巷6號","121.42384","25.0113766666667","6500700","樹林區"
"238026","172-UY","2019/11/23 19:13:53","新北市樹林區佳園路一段41巷14號","121.393636666667","24.9709283333333","6500700","樹林區"
"238016","169-UY","2019/11/23 19:13:52","新北市樹林區中山路一段247號","121.420523333333","24.9865983333333","6500700","樹林區"
"239007","AAC-297","2019/11/23 19:13:48","新北市鶯歌區中正一路255號","121.354736666667","24.957065","6500800","鶯歌區"
"239006","891-R6","2019/11/23 19:13:38","新北市鶯歌區鶯桃路296巷46-1號","121.335766666667","24.96135","6500800","鶯歌區"
"239008","527-UM","2019/11/23 19:13:49","新北市鶯歌區國際二路20巷23號","121.337265","24.9754366666667","6500800","鶯歌區"
"239005","526-UM","2019/11/23 19:13:44","新北市鶯歌區大湖路361巷30號","121.330605","24.9778783333333","6500800","鶯歌區"
"239001","417-VK","2019/11/23 19:13:47","新北市鶯歌區鶯桃路72號","121.340333333333","24.9533783333333","6500800","鶯歌區"
"239003","360-BY","2019/11/23 19:13:54","新北市鶯歌區鶯桃路658巷29號","121.32985","24.969675","6500800","鶯歌區"
"239002","359-BY","2019/11/23 19:13:52","新北市鶯歌區中正一路305號","121.356461666667","24.9570316666667","6500800","鶯歌區"
"239004","193-VK","2019/11/23 19:13:41","新北市鶯歌區中正三路230巷6號","121.330823333333","24.9381816666667","6500800","鶯歌區"
"221008","489-VK","2019/11/23 19:13:51","新北市汐止區康寧街379號","121.628958333333","25.0677366666667","6501100","汐止區"
"221036","130-UY","2019/11/23 19:13:58","新北市汐止區忠孝東路314巷25號","121.66448","25.0681933333333","6501100","汐止區"
"221031","353-TW","2019/11/23 19:13:50","新北市汐止區福德三路137號","121.633143333333","25.0674833333333","6501100","汐止區"
"221035","622-UM","2019/11/23 19:13:58","新北市汐止區汐萬路一段222號","121.651685","25.0728983333333","6501100","汐止區"
"221002","707-TV","2019/11/23 19:13:51","新北市汐止區大同路一段398-1號","121.640131666667","25.059945","6501100","汐止區"
"220080","200-UY","2019/11/23 19:13:52","新北市板橋區大觀路二段7巷41號","121.448273333333","25.0033283333333","6500100","板橋區"
"220082","610-BX","2019/11/23 19:13:53","新北市板橋區溪崑二街108號","121.426566666667","24.9886233333333","6500100","板橋區"
"220101","245-BX","2019/11/23 19:13:42","新北市板橋區縣民大道三段121巷12號","121.47675","25.02312","6500100","板橋區"
"220054","256-TC","2019/11/23 19:13:46","新北市板橋區重慶路67號","121.461978333333","25.0069416666667","6500100","板橋區"
"220091","267-BY","2019/11/23 19:13:53","新北市板橋區萬板路506號","121.480285","25.026245","6500100","板橋區"
"220056","276-BY","2019/11/23 19:13:56","新北市板橋區信義路110巷3號","121.458211666667","24.992005","6500100","板橋區"
"220072","277-BY","2019/11/23 19:13:39","新北市板橋區金門街297號","121.430213333333","24.9866083333333","6500100","板橋區"
"220094","283-UM","2019/11/23 19:13:54","新北市板橋區光武街110巷16號","121.466676666667","25.0296666666667","6500100","板橋區"
"220071","283-VK","2019/11/23 19:13:57","新北市板橋區重慶路269巷63-2號","121.465135","24.9987716666667","6500100","板橋區"
"220053","285-VK","2019/11/23 19:13:56","新北市板橋區永豐街146號","121.478108333333","25.021165","6500100","板橋區"
"220083","286-VK","2019/11/23 19:13:46","新北市板橋區大觀路二段174巷165弄12號","121.441448333333","25.0035066666667","6500100","板橋區"
"220081","287-VK","2019/11/23 19:13:41","新北市板橋區南雅西路二段203號","121.451706666667","25.0133966666667","6500100","板橋區"
"220090","288-VK","2019/11/23 19:13:48","新北市板橋區長江路一段106巷12弄2號","121.45995","25.0290166666667","6500100","板橋區"
"220061","293-UM","2019/11/23 19:13:48","新北市板橋區中山路二段309巷8號","121.478588333333","25.0189366666667","6500100","板橋區"
"220084","296-UM","2019/11/23 19:13:50","新北市板橋區溪崑二街56巷25號","121.427576666667","24.9909316666667","6500100","板橋區"
"220075","303-R5","2019/11/23 19:13:57","新北市板橋區南雅南路一段60-1號","121.455423333333","25.0053683333333","6500100","板橋區"
"220062","305-R5","2019/11/23 19:13:46","新北市板橋區三民路二段居仁巷2弄22號","121.479745","25.0128616666667","6500100","板橋區"
"220092","307-R5","2019/11/23 19:13:39","新北市板橋區光武街2巷45-1號","121.468291666667","25.0259716666667","6500100","板橋區"
"220098","317-R6","2019/11/23 19:13:47","新北市板橋區四維路103巷9號","121.465071666667","25.0242866666667","6500100","板橋區"
"220089","487-VK","2019/11/23 19:13:59","新北市板橋區國光路200號","121.461655","25.01844","6500100","板橋區"
"220088","491-VK","2019/11/23 19:13:55","新北市板橋區雙十路一段9號","121.477841666667","25.0241616666667","6500100","板橋區"
"220035","560-BX","2019/11/23 19:13:41","新北市板橋區中正路326巷4弄1號","121.454791666667","25.0216883333333","6500100","板橋區"
"220103","561-BX","2019/11/23 19:13:54","新北市板橋區文化路一段220號","121.46683","25.0203616666667","6500100","板橋區"
"220079","568-UM","2019/11/23 19:13:41","新北市板橋區民權路117號","121.458495","25.0131733333333","6500100","板橋區"
"220063","609-BX","2019/11/23 19:13:51","新北市板橋區三民路一段107號","121.47949","25.0213466666667","6500100","板橋區"
"220057","686-BX","2019/11/23 19:13:52","新北市板橋區和平路174巷1弄1號","121.464005","24.995085","6500100","板橋區"
"220077","687-BX","2019/11/23 19:13:55","新北市板橋區大觀路二段145號","121.445595","25.0010033333333","6500100","板橋區"
"220093","689-BX","2019/11/23 19:13:56","新北市板橋區漢生西路79巷2號","121.462783333333","25.0192316666667","6500100","板橋區"
"220102","KEA-2699","2019/11/23 19:13:52","新北市板橋區松柏街67號","121.47631","25.0305716666667","6500100","板橋區"
"220055","827-TW","2019/11/23 19:13:54","新北市板橋區新民街6巷20號","121.465251666667","25.010075","6500100","板橋區"
"220068","830-TW","2019/11/23 19:13:47","新北市板橋區翠華街6巷18號","121.481095","25.02427","6500100","板橋區"
"220067","831-TW","2019/11/23 19:13:52","新北市板橋區長安街138巷1弄57號","121.47427","25.0104883333333","6500100","板橋區"
"220074","895-R6","2019/11/23 19:13:47","新北市板橋區中正路自強新村91-1號","121.45488","25.013135","6500100","板橋區"
"220073","985-R7","2019/11/23 19:13:54","新北市板橋區中正路316號","121.454716666667","25.020745","6500100","板橋區"
"220097","AAC-210","2019/11/23 19:13:48","新北市板橋區新海路135巷39號","121.459378333333","25.022475","6500100","板橋區"
"220064","AAC-253","2019/11/23 19:13:53","新北市板橋區板新路96號","121.472406666667","25.0147233333333","6500100","板橋區"
"235068","KEA-2873","2019/11/23 19:13:33","新北市中和區圓通路158巷1弄9號","121.497238333333","24.9960416666667","6500300","中和區"
"235061","KEA-2875","2019/11/23 19:13:34","新北市中和區員山路314巷10號","121.482046666667","25.0027733333333","6500300","中和區"
