"lineid","car","time","location","longitude","latitude","cityid","cityname"
"234046","148-BY","2019/11/23 19:43:51","新北市永和區永亨路205號","121.526066666667","25.0026666666667","6500400","永和區"
"234081","298-R6","2019/11/23 19:43:56","新北市永和區林森路44巷15號","121.52569","25.0059033333333","6500400","永和區"
"234038","336-UY","2019/11/23 19:43:56","新北市永和區民樂街37巷7號","121.528098333333","25.0008133333333","6500400","永和區"
"234064","337-UY","2019/11/23 19:43:53","新北市永和區中正路428巷30弄19號","121.518998333333","25.0022983333333","6500400","永和區"
"234086","338-UY","2019/11/23 19:43:37","新北市永和區國中路2號","121.52414","25.0042","6500400","永和區"
"234070","552-UM","2019/11/23 19:43:54","新北市永和區竹林路21號","121.51714","25.0148","6500400","永和區"
"234017","745-BX","2019/11/23 19:43:44","新北市永和區永和路二段425巷47號","121.513943333333","25.01743","6500400","永和區"
"234030","746-BX","2019/11/23 19:43:50","新北市永和區民生路67巷57號","121.525685","24.9976533333333","6500400","永和區"
"234054","KEA-2590","2019/11/23 19:43:46","新北市永和區竹林路39巷26號","121.5191","25.014775","6500400","永和區"
"234007","KED-0605","2019/11/23 19:43:48","新北市永和區中和路307號","121.506713333333","24.9996633333333","6500400","永和區"
"234013","KEA-2591","2019/11/23 19:43:49","新北市永和區仁愛路247號","121.508628333333","25.0118016666667","6500400","永和區"
"234061","AAD-866","2019/11/23 19:43:57","新北市永和區中正路350號","121.517656666667","25.00049","6500400","永和區"
"234042","862-TW","2019/11/23 19:43:57","新北市永和區中和路305巷10弄1號","121.506953333333","25.0008133333333","6500400","永和區"
"234050","863-TW","2019/11/23 19:43:44","新北市永和區保安路2號","121.510853333333","25.0173983333333","6500400","永和區"
"234026","9372-KE","2019/11/23 19:43:51","新北市永和區雙和街7巷4號","121.509503333333","25.001595","6500400","永和區"
"234011","9373-KE","2019/11/23 19:43:40","新北市永和區仁愛路306巷20號","121.502065","25.0086933333333","6500400","永和區"
"249004","303-UY","2019/11/23 19:43:39","新北市八里區中山路一段276號","121.41403","25.160015","6502300","八里區"
"249002","305-UY","2019/11/23 19:43:45","新北市八里區頂寮二街33-1號","121.450293333333","25.1251583333333","6502300","八里區"
"249003","593-UM","2019/11/23 19:43:46","新北市八里區中華路二段532號","121.399205","25.1456933333333","6502300","八里區"
"248016","026-BX","2019/11/23 19:43:57","新北市五股區成泰路四段82號","121.456515","25.1113033333333","6501500","五股區"
"248008","KED-0815","2019/11/23 19:43:44","新北市五股區四維路155巷2號","121.467825","25.0746583333333","6501500","五股區"
"248020","KED-0813","2019/11/23 19:43:50","新北市五股區中直路27號","121.421111666667","25.114005","6501500","五股區"
"248012","247-BX","2019/11/23 19:43:48","新北市五股區蓬萊路4號","121.435576666667","25.0795516666667","6501500","五股區"
"248014","261-SL","2019/11/23 19:43:46","新北市五股區五福路42巷27號","121.434891666667","25.0901283333333","6501500","五股區"
"248010","272-BY","2019/11/23 19:43:59","新北市五股區登林路74-1號","121.431078333333","25.06939","6501500","五股區"
"248004","677-BX","2019/11/23 19:43:47","新北市五股區成泰路二段38號","121.437081666667","25.081325","6501500","五股區"
"248002","678-BX","2019/11/23 19:43:42","新北市五股區成泰路三段577巷16號","121.451743333333","25.10283","6501500","五股區"
"234077","969-R7","2019/11/23 19:43:56","新北市永和區民權路29巷1號","121.52033","24.9978483333333","6500400","永和區"
"234074","AAC-211","2019/11/23 19:43:51","新北市永和區竹林路213巷11號","121.521545","25.008945","6500400","永和區"
"234067","AAC-212","2019/11/23 19:43:48","新北市永和區永平路173巷14弄2號","121.51016","25.0084433333333","6500400","永和區"
"234003","AAC-295","2019/11/23 19:43:39","新北市永和區永和路一段42號","121.512996666667","25.005625","6500400","永和區"
"244023","483-VK","2019/11/23 19:43:41","新北市林口區文林三街139號","121.374566666667","25.0878566666667","6501700","林口區"
"243012","AAD-798","2019/11/23 19:43:58","新北市泰山區中港西路386號","121.434791666667","25.054885","6501600","泰山區"
"243010","297-R6","2019/11/23 19:22:37","新北市泰山區明志路二段32巷2-1號","121.42938","25.053525","6501600","泰山區"
"243016","421-VK","2019/11/23 19:43:56","新北市泰山區貴鳳街2號","121.421103333333","25.0314483333333","6501600","泰山區"
"243011","KEA-2216","2019/11/23 19:43:46","新北市泰山區明志路三段204巷1號","121.4216","25.038335","6501600","泰山區"
"243015","680-BX","2019/11/23 19:43:43","新北市泰山區明志路二段237巷8號","121.427603333333","25.0480683333333","6501600","泰山區"
"222003","436-BY","2019/11/23 19:43:46","新北市深坑區深南路51-1號","121.621193333333","25.009865","6501800","深坑區"
"222002","659-BX","2019/11/23 19:43:53","新北市深坑區北深路一段177號","121.632526666667","25.0108166666667","6501800","深坑區"
"231045","001-UM","2019/11/23 19:43:55","新北市新店區北宜路二段106號","121.555733333333","24.9537633333333","6500600","新店區"
"231061","002-UM","2019/11/23 19:43:50","新北市新店區安民街141號","121.516516666667","24.969535","6500600","新店區"
"231044","046-UY","2019/11/23 19:43:51","新北市新店區北新路三段224號","121.541071666667","24.9846216666667","6500600","新店區"
"231060","106-UY","2019/11/23 19:43:43","新北市新店區安康路二段204號","121.51036","24.959545","6500600","新店區"
"231051","107-UY","2019/11/23 19:43:51","新北市新店區中央五街28號","121.52899","24.9746233333333","6500600","新店區"
"231049","108-UY","2019/11/23 19:43:50","新北市新店區民權路108-4號","121.535986666667","24.983375","6500600","新店區"
"231065","110-UY","2019/11/23 19:43:41","新北市新店區安祥路109巷90弄82號","121.475933333333","24.95835","6500600","新店區"
"221015","KEA-2785","2019/11/23 19:43:46","新北市汐止區康寧街901號","121.65139","25.075","6501100","汐止區"
"231062","256-BX","2019/11/23 19:43:55","新北市新店區太平路10號","121.534095","24.958075","6500600","新店區"
"231054","260-TV","2019/11/23 19:43:49","新北市新店區文中路45號","121.539646666667","24.9566333333333","6500600","新店區"
"231042","268-BY","2019/11/23 19:43:51","新北市新店區中興路一段266號","121.544825","24.96726","6500600","新店區"
"231064","278-BY","2019/11/23 19:43:40","新北市新店區安和路二段115號","121.518635","24.970415","6500600","新店區"
"231050","AAD-862","2019/11/23 19:43:52","新北市新店區郵政路95號","121.554591666667","24.9514116666667","6500600","新店區"
"231058","3713-VJ","2019/11/23 19:43:42","新北市新店區中正路102巷8弄4號","121.543503333333","24.9711066666667","6500600","新店區"
"231056","4715-K9","2019/11/23 19:43:43","新北市新店區民權路42巷59弄3號","121.538328333333","24.9836833333333","6500600","新店區"
"231067","4772-VM","2019/11/23 19:43:47","新北市新店區精忠路10-1號","121.532621666667","24.9591333333333","6500600","新店區"
"231052","513-UM","2019/11/23 19:43:43","新北市新店區新烏路三段141號","121.551213333333","24.901865","6500600","新店區"
"231041","619-UM","2019/11/23 19:43:39","新北市新店區中正路485號","121.533856666667","24.98186","6500600","新店區"
"231063","641-BX","2019/11/23 19:43:51","新北市新店區達觀路12號","121.505068333333","24.9410116666667","6500600","新店區"
"231048","KED-0819","2019/11/23 19:43:56","新北市新店區五峰路63巷26號","121.546515","24.9692383333333","6500600","新店區"
"231046","719-UM","2019/11/23 19:43:37","新北市新店區三民路84巷12號","121.53491","24.973155","6500600","新店區"
"231057","720-UM","2019/11/23 19:43:45","新北市新店區花園二路一段4-5號","121.555891666667","24.9324416666667","6500600","新店區"
"231059","897-TW","2019/11/23 19:43:58","新北市新店區安和路三段57號","121.517955","24.982825","6500600","新店區"
"231040","898-TW","2019/11/23 19:43:45","新北市新店區北新路一段96巷23號","121.543036666667","24.9688433333333","6500600","新店區"
"231043","899-TW","2019/11/23 19:43:38","新北市新店區中正路249號","121.538988333333","24.9733833333333","6500600","新店區"
"231066","AKT-0513","2019/11/23 19:43:52","新北市新店區安康路三段209號","121.4879","24.951715","6500600","新店區"
"241011","013-R5","2019/11/23 19:43:51","新北市三重區仁愛街20號","121.496731666667","25.0713166666667","6500200","三重區"
"241028","022-UY","2019/11/23 19:43:47","新北市三重區中正南路196號","121.493895","25.056015","6500200","三重區"
"241008","059-VK","2019/11/23 19:43:40","新北市三重區永福街111巷11號","121.478955","25.0776716666667","6500200","三重區"
"241031","061-VK","2019/11/23 19:43:51","新北市三重區重新路四段101號","121.485695","25.0544583333333","6500200","三重區"
"241015","062-VK","2019/11/23 19:43:45","新北市三重區三和路一段53號","121.502916666667","25.0653733333333","6500200","三重區"
"241017","063-VK","2019/11/23 19:43:42","新北市三重區大同北路186號","121.4908","25.0663683333333","6500200","三重區"
"241024","065-VK","2019/11/23 19:44:00","新北市三重區忠孝路三段99巷4號","121.480186666667","25.0642483333333","6500200","三重區"
"241007","066-VK","2019/11/23 19:43:59","新北市三重區三和路四段135巷5號","121.485088333333","25.0780983333333","6500200","三重區"
"241006","262-UM","2019/11/23 19:43:51","新北市三重區永福街281-3號","121.482988333333","25.07442","6500200","三重區"
"241009","267-UM","2019/11/23 19:43:40","新北市三重區三和路四段400巷15號","121.480501666667","25.0792566666667","6500200","三重區"
"241032","269-UM","2019/11/23 19:43:39","新北市三重區重陽路一段60巷13號","121.485473333333","25.058305","6500200","三重區"
"241013","270-UM","2019/11/23 19:43:53","新北市三重區仁愛街141巷24號","121.497106666667","25.07592","6500200","三重區"
"241035","KEA-2210","2019/11/23 19:43:41","新北市三重區文化北路35號","121.499076666667","25.0648983333333","6500200","三重區"
"241030","KED-0822","2019/11/23 19:43:52","新北市三重區環河南路254巷2號","121.490898333333","25.050625","6500200","三重區"
"241026","480-VK","2019/11/23 19:43:45","新北市三重區文化南路46號","121.500441666667","25.0600266666667","6500200","三重區"
"241014","543-UM","2019/11/23 19:43:48","新北市三重區龍濱路21號","121.503191666667","25.0679216666667","6500200","三重區"
"241023","545-UM","2019/11/23 19:43:56","新北市三重區頂崁街168號","121.477613333333","25.065905","6500200","三重區"
"241001","547-UM","2019/11/23 19:43:47","新北市三重區仁愛街327巷63號","121.493651666667","25.0803583333333","6500200","三重區"
"241019","KEA-2593","2019/11/23 19:43:57","新北市三重區六張街255巷17弄1號","121.487253333333","25.0690483333333","6500200","三重區"
"241005","AAD-863","2019/11/23 19:43:36","新北市三重區溪尾街325巷18號","121.488593333333","25.08387","6500200","三重區"
"241012","743-BX","2019/11/23 19:43:40","新北市三重區仁義街8號","121.499963333333","25.0757716666667","6500200","三重區"
"241025","KED-0670","2019/11/23 19:43:52","新北市三重區忠孝路三段52號","121.480673333333","25.0656266666667","6500200","三重區"
"241029","942-UM","2019/11/23 19:43:48","新北市三重區重安街70-20號","121.492041666667","25.0569133333333","6500200","三重區"
"235066","003-UY","2019/11/23 19:43:54","新北市中和區景新街73巷20號","121.505611666667","24.9987633333333","6500300","中和區"
"235056","096-UM","2019/11/23 19:43:56","新北市中和區中山路三段114巷1號","121.475576666667","25.0075233333333","6500300","中和區"
"235039","097-UM","2019/11/23 19:43:58","新北市中和區景平路148號","121.518133333333","24.9919383333333","6500300","中和區"
"235065","098-UM","2019/11/23 19:43:43","新北市中和區福祥路126號","121.498996666667","25.0066566666667","6500300","中和區"
"235040","150-BY","2019/11/23 19:43:56","新北市中和區安和路39號","121.509656666667","24.9948983333333","6500300","中和區"
"235058","151-BY","2019/11/23 19:43:59","新北市中和區員山路189號","121.481236666667","24.9972583333333","6500300","中和區"
"235055","183-VK","2019/11/23 19:43:49","新北市中和區德光路18號","121.471118333333","25.0044316666667","6500300","中和區"
"235038","185-VK","2019/11/23 19:43:40","新北市中和區自強路21號","121.520535","24.9932083333333","6500300","中和區"
"235067","255-BX","2019/11/23 19:43:43","新北市中和區新生街242巷1弄9號","121.48339","24.997475","6500300","中和區"
"235044","293-VK","2019/11/23 19:43:57","新北市中和區板南路126號","121.502831666667","24.9925433333333","6500300","中和區"
"235072","301-VK","2019/11/23 19:43:54","新北市中和區中正路432巷34號","121.490946666667","24.995925","6500300","中和區"
"235043","352-BY","2019/11/23 19:43:46","新北市中和區華新街232巷8號","121.50582","24.9820416666667","6500300","中和區"
"235042","KEA-2878","2019/11/23 19:43:42","新北市中和區宜安路171號","121.508401666667","24.9991033333333","6500300","中和區"
"235070","558-UM","2019/11/23 19:43:49","新北市中和區圓通路118號","121.499196666667","24.9961916666667","6500300","中和區"
"235054","640-BX","2019/11/23 19:43:52","新北市中和區莒光路11號","121.471948333333","25.0057416666667","6500300","中和區"
"235071","647-TV","2019/11/23 19:43:48","新北市中和區中山路二段437號","121.48473","25.0049083333333","6500300","中和區"
"235047","732-UM","2019/11/23 19:43:48","新北市中和區興南路一段86號","121.50982","24.9894333333333","6500300","中和區"
"235046","733-UM","2019/11/23 19:43:46","新北市中和區仁愛街82號","121.51143","24.9875183333333","6500300","中和區"
"235041","802-TS","2019/11/23 19:43:45","新北市中和區永貞路239巷17號","121.512575","25.0031233333333","6500300","中和區"
"235052","805-TS","2019/11/23 19:43:48","新北市中和區華新街192巷4-1號","121.506716666667","24.9824583333333","6500300","中和區"
"235048","896-TW","2019/11/23 19:43:42","新北市中和區興南路二段2號","121.507926666667","24.9863166666667","6500300","中和區"
"235053","900-TW","2019/11/23 19:43:50","新北市中和區國光街189巷29號","121.467683333333","25.0005566666667","6500300","中和區"
"235051","157-BY","2019/11/23 19:43:39","新北市中和區中興街136號","121.499501666667","24.9920816666667","6500300","中和區"
"235037","AAC-213","2019/11/23 19:43:51","新北市中和區自立路175號","121.523278333333","24.9921","6500300","中和區"
"235059","AAC-215","2019/11/23 19:43:39","新北市中和區圓通路331-5號","121.492201666667","24.9907","6500300","中和區"
"220065","072-UY","2019/11/23 19:43:57","新北市板橋區國泰街39巷2弄1號","121.468461666667","25.0062733333333","6500100","板橋區"
"220086","073-UY","2019/11/23 19:43:51","新北市板橋區中正路236巷93號","121.459503333333","25.0196916666667","6500100","板橋區"
"220106","075-UY","2019/11/23 19:43:50","新北市板橋區民治街71巷36號","121.480563333333","25.03277","6500100","板橋區"
"220069","AAD-861","2019/11/23 19:43:52","新北市板橋區貴興路119巷1弄1號","121.455796666667","25.0022516666667","6500100","板橋區"
"247004","336-TH","2019/11/23 19:43:46","新北市蘆洲區中原路21巷7弄24號","121.461183333333","25.0824833333333","6501400","蘆洲區"
"247014","056-VK","2019/11/23 19:43:48","新北市蘆洲區中央路153號","121.472433333333","25.0845266666667","6501400","蘆洲區"
"247002","001-UY","2019/11/23 19:43:51","新北市蘆洲區長榮路665號","121.460141666667","25.0915083333333","6501400","蘆洲區"
"226004","312-R5","2019/11/23 19:43:39","新北市平溪區十分里十分街94號","121.77658","25.0425083333333","6502400","平溪區"
"235049","251-BX","2019/11/23 19:43:56","新北市中和區中正路38號","121.502235","24.9936","6500300","中和區"
"228003","097-TW","2019/11/23 19:43:49","新北市貢寮區真理里美艷山街15-3號","121.92376","25.0680166666667","6502600","貢寮區"
"228001","212-TW","2019/11/23 19:43:45","新北市貢寮區真理里新港街46號","121.926211666667","25.055705","6502600","貢寮區"
"227001","642-TC","2019/11/23 19:43:58","新北市雙溪區新基里中華路40號","121.86596","25.0373433333333","6502500","雙溪區"
"227002","400-TW","2019/11/23 19:43:57","新北市雙溪區雙溪里內挖路47號","121.863238333333","25.0366766666667","6502500","雙溪區"
"222001","KEA-2212","2019/11/23 19:43:39","新北市深坑區北深路三段22號","121.609248333333","25.0011133333333","6501800","深坑區"
"208002","KEA-2872","2019/11/23 19:43:52","新北市金山區中華路366-1號","121.633241666667","25.2245666666667","6502700","金山區"
"208003","665-BX","2019/11/23 19:43:52","新北市金山區海興路22號","121.630425","25.2377066666667","6502700","金山區"
"251009","008-UM","2019/11/23 19:43:42","新北市淡水區中山北路一段198巷6號","121.445168333333","25.17926","6501000","淡水區"
"251004","009-UM","2019/11/23 19:43:43","新北市淡水區民權路177巷53號","121.460475","25.133825","6501000","淡水區"
"251005","010-UM","2019/11/23 19:43:54","新北市淡水區原德路75號","121.44242","25.17245","6501000","淡水區"
"251002","012-UM","2019/11/23 19:43:54","新北市淡水區下圭柔山90-2號","121.431653333333","25.2117583333333","6501000","淡水區"
"251015","KEA-2871","2019/11/23 19:43:51","新北市淡水區山子頂24-1號","121.491386666667","25.1871916666667","6501000","淡水區"
"251016","180-VK","2019/11/23 19:43:38","新北市淡水區三塊厝3-3號","121.456433333333","25.2095733333333","6501000","淡水區"
"251008","181-VK","2019/11/23 19:43:40","新北市淡水區中正路一段62巷2號","121.425608333333","25.1771833333333","6501000","淡水區"
"251013","182-VK","2019/11/23 19:43:43","新北市淡水區頂田寮10-3號","121.462376666667","25.2148533333333","6501000","淡水區"
"251010","413-VK","2019/11/23 19:43:38","新北市淡水區崁頂93-2號","121.427391666667","25.202525","6501000","淡水區"
"251007","442-VK","2019/11/23 19:43:46","新北市淡水區中正東路一段111巷33號","121.455573333333","25.16141","6501000","淡水區"
"251001","559-UM","2019/11/23 19:43:53","新北市淡水區中正東路二段81號","121.459493333333","25.1535316666667","6501000","淡水區"
"251006","561-UM","2019/11/23 19:43:53","新北市淡水區中山北路一段247巷118號","121.441683333333","25.1795616666667","6501000","淡水區"
"251014","577-R6","2019/11/23 19:43:59","新北市淡水區小中寮1-1號","121.476783333333","25.2343483333333","6501000","淡水區"
"251011","650-BX","2019/11/23 19:43:48","新北市淡水區八勢路50巷19弄1號","121.462733333333","25.1505683333333","6501000","淡水區"
"207003","681-TV","2019/11/23 19:43:39","新北市萬里區大鵬里下社17-4號","121.648198333333","25.2177166666667","6502800","萬里區"
"207004","291-VK","2019/11/23 19:43:45","新北市萬里區萬里里瑪鋉路71號","121.68825","25.1763383333333","6502800","萬里區"
"252001","292-VK","2019/11/23 19:43:36","新北市三芝區公正街66號","121.49979","25.2574516666667","6502100","三芝區"
"208001","170-UY","2019/11/23 19:43:58","新北市金山區重和里六股林口13號","121.605238333333","25.2219533333333","6502700","金山區"
"237004","KEA-2597","2019/11/23 19:43:44","新北市三峽區金敏3號","121.38415","24.8751166666667","6500900","三峽區"
"237007","153-BY","2019/11/23 19:43:45","新北市三峽區二鬮路136巷24弄1號","121.356058333333","24.9099916666667","6500900","三峽區"
"237009","210-TH","2019/11/23 19:43:54","新北市三峽區中園街91號","121.367871666667","24.9249533333333","6500900","三峽區"
"237013","252-BX","2019/11/23 19:43:44","新北市三峽區溪北街99號","121.397976666667","24.935495","6500900","三峽區"
"237012","275-BY","2019/11/23 19:43:39","新北市三峽區光明路38號","121.373846666667","24.9305466666667","6500900","三峽區"
"237008","302-VK","2019/11/23 19:43:55","新北市三峽區中正路一段292巷19弄11號","121.370706666667","24.9258366666667","6500900","三峽區"
"237014","433-BY","2019/11/23 19:43:54","新北市三峽區添福2號","121.371925","24.9061333333333","6500900","三峽區"
"237006","5529-G3","2019/11/23 19:43:55","新北市三峽區中正路一段336巷15弄2號","121.369971666667","24.9249633333333","6500900","三峽區"
"237011","KEA-2596","2019/11/23 19:43:38","新北市三峽區中正路一段500號","121.370128333333","24.920495","6500900","三峽區"
"237015","649-BX","2019/11/23 19:43:40","新北市三峽區成福路3號","121.416665","24.9281033333333","6500900","三峽區"
"237005","AKY-6261","2019/11/23 19:43:51","新北市三峽區文化路42號","121.372986666667","24.93615","6500900","三峽區"
"236042","KED-0685","2019/11/23 19:43:44","新北市土城區裕民路233巷1號","121.454953333333","24.9835683333333","6501300","土城區"
"236079","166-UM","2019/11/23 19:43:58","新北市土城區溪頭路57號","121.41169","24.9547633333333","6501300","土城區"
"236030","253-BX","2019/11/23 19:43:54","新北市土城區中央路一段318巷4弄12號","121.4431","24.9823816666667","6501300","土城區"
"236070","KEA-2877","2019/11/23 19:43:46","新北市土城區光明街18號","121.442045","24.9742116666667","6501300","土城區"
"252002","KED-0821","2019/11/23 19:43:51","新北市三芝區三民街33-1號","121.504616666667","25.2585916666667","6502100","三芝區"
"236021","401-BY","2019/11/23 19:43:47","新北市土城區延吉街137巷2弄25號","121.470158333333","24.985515","6501300","土城區"
"236049","752-BX","2019/11/23 19:43:17","新北市土城區明德路一段166號","121.462898333333","24.97839","6501300","土城區"
"236059","912-UM","2019/11/23 19:43:45","新北市土城區中央路一段260-3號","121.444066666667","24.9839083333333","6501300","土城區"
"236063","915-UM","2019/11/23 19:43:50","新北市土城區延平街69巷6號","121.467215","24.9930666666667","6501300","土城區"
"236055","AAC-216","2019/11/23 19:43:53","新北市土城區延和路80號","121.466191666667","24.9893666666667","6501300","土城區"
"242004","751-BX","2019/11/23 19:43:41","新北市新莊區復興路三段59號","121.462056666667","25.0445483333333","6500500","新莊區"
"242013","442-UM","2019/11/23 19:43:45","新北市新莊區中泰街104巷2號","121.449006666667","25.0467516666667","6500500","新莊區"
"242023","353-BY","2019/11/23 19:43:52","新北市新莊區復興路三段115號","121.464283333333","25.044535","6500500","新莊區"
"242056","172-VK","2019/11/23 19:43:39","新北市新莊區瓊林路34號","121.448798333333","25.031045","6500500","新莊區"
"242017","173-VK","2019/11/23 19:43:47","新北市新莊區新泰路361巷23號","121.442323333333","25.0426116666667","6500500","新莊區"
"242031","175-VK","2019/11/23 19:43:52","新北市新莊區公園一路141號","121.446426666667","25.0382716666667","6500500","新莊區"
"242039","176-VK","2019/11/23 19:43:56","新北市新莊區建國二路30號","121.43331","25.0245116666667","6500500","新莊區"
"242048","347-TH","2019/11/23 19:43:51","新北市新莊區民安路37巷3號","121.423863333333","25.0268483333333","6500500","新莊區"
"242036","348-TH","2019/11/23 19:43:52","新北市新莊區建安街101巷2弄2號","121.426801666667","25.0240416666667","6500500","新莊區"
"242034","350-TH","2019/11/23 19:43:40","新北市新莊區中正路346號","121.444198333333","25.034535","6500500","新莊區"
"238015","755-BX","2019/11/23 19:43:54","新北市樹林區日新街90號","121.421458333333","24.9901966666667","6500700","樹林區"
"238023","601-UM","2019/11/23 19:43:51","新北市樹林區三福街121巷11號","121.406075","25.0157483333333","6500700","樹林區"
"238019","599-UM","2019/11/23 19:43:41","新北市樹林區大同街15號","121.418368333333","24.982665","6500700","樹林區"
"238024","5061-A6","2019/11/23 19:43:51","新北市樹林區中山路三段155巷10號","121.395973333333","24.972575","6500700","樹林區"
"238022","KEA-2213","2019/11/23 19:43:50","新北市樹林區國凱街50巷3號","121.420501666667","24.97848","6500700","樹林區"
"238021","KEA-2539","2019/11/23 19:43:47","新北市樹林區佳園路三段111號","121.387081666667","24.9511216666667","6500700","樹林區"
"238025","303-VK","2019/11/23 19:43:46","新北市樹林區中山路一段163號","121.421876666667","24.98871","6500700","樹林區"
"238017","283-BY","2019/11/23 19:43:49","新北市樹林區保安街二段167巷32號","121.413946666667","25.002785","6500700","樹林區"
"238014","282-BY","2019/11/23 19:43:48","新北市樹林區千歲街30巷12號","121.426073333333","24.996245","6500700","樹林區"
"238020","268-VK","2019/11/23 19:43:43","新北市板橋區金門街109巷24-7號","121.435083333333","24.9916516666667","6500700","樹林區"
"238026","172-UY","2019/11/23 19:43:53","新北市樹林區佳園路二段15巷9弄6號","121.394228333333","24.9634283333333","6500700","樹林區"
"239007","AAC-297","2019/11/23 19:43:48","新北市鶯歌區大湖路101號","121.341926666667","24.9634883333333","6500800","鶯歌區"
"239006","891-R6","2019/11/23 19:43:57","新北市鶯歌區尖山埔路155號","121.346218333333","24.9508933333333","6500800","鶯歌區"
"239008","527-UM","2019/11/23 19:43:49","新北市鶯歌區大湖路335號","121.341795","24.97261","6500800","鶯歌區"
"239005","526-UM","2019/11/23 19:43:44","新北市鶯歌區中湖街330號","121.347208333333","24.9779266666667","6500800","鶯歌區"
"239001","417-VK","2019/11/23 19:43:47","新北市鶯歌區鶯桃路97號","121.338965","24.95388","6500800","鶯歌區"
"239003","360-BY","2019/11/23 19:43:54","新北市鶯歌區中正二路28號","121.3514","24.9515616666667","6500800","鶯歌區"
"239002","359-BY","2019/11/23 19:43:52","新北市鶯歌區大湖路185巷22號","121.342683333333","24.970495","6500800","鶯歌區"
"239004","193-VK","2019/11/23 19:43:41","新北市鶯歌區國中街181號","121.338816666667","24.9395466666667","6500800","鶯歌區"
"221008","489-VK","2019/11/23 19:43:59","新北市汐止區康寧街61巷63號","121.619998333333","25.0677883333333","6501100","汐止區"
"221010","269-BY","2019/11/23 19:43:39","新北市汐止區連峰街1巷1號","121.646963333333","25.076105","6501100","汐止區"
"221012","278-VK","2019/11/23 19:43:53","新北市汐止區大同路三段324號","121.679148333333","25.07113","6501100","汐止區"
"221027","281-BY","2019/11/23 19:43:52","新北市汐止區忠孝東路9號","121.658241666667","25.06593","6501100","汐止區"
"221021","299-VK","2019/11/23 19:43:51","新北市汐止區新興路85巷1號","121.657951666667","25.0614883333333","6501100","汐止區"
"221031","353-TW","2019/11/23 19:43:50","新北市汐止區康寧街901號","121.650841666667","25.075285","6501100","汐止區"
"221029","645-BX","2019/11/23 19:43:57","新北市汐止區康寧街901號","121.651506666667","25.0750216666667","6501100","汐止區"
"221025","623-UM","2019/11/23 19:43:43","新北市汐止區福安街20巷17號","121.662286666667","25.0646916666667","6501100","汐止區"
"221038","646-BX","2019/11/23 19:43:49","新北市汐止區忠孝東路388號","121.66559","25.07034","6501100","汐止區"
"221033","647-BX","2019/11/23 19:43:43","新北市汐止區東勢街34號","121.625346666667","25.03873","6501100","汐止區"
"220080","200-UY","2019/11/23 19:43:52","新北市板橋區大觀路二段37巷280號","121.449705","25.0009366666667","6500100","板橋區"
"220082","610-BX","2019/11/23 19:43:53","新北市板橋區大觀路三段160巷38號","121.429861666667","24.9940366666667","6500100","板橋區"
"220101","245-BX","2019/11/23 19:43:52","新北市板橋區縣民大道三段103巷13號","121.475686666667","25.0227766666667","6500100","板橋區"
"220054","256-TC","2019/11/23 19:43:46","新北市板橋區忠孝路136號","121.463635","25.0023983333333","6500100","板橋區"
"224002","257-TC","2019/11/23 19:43:52","新北市瑞芳區三爪子坑路13巷157號","121.815251666667","25.1062383333333","6501200","瑞芳區"
"220091","267-BY","2019/11/23 19:43:44","新北市板橋區懷德街133號","121.479311666667","25.0304316666667","6500100","板橋區"
"220056","276-BY","2019/11/23 19:43:52","新北市板橋區四川路一段485號","121.457378333333","24.9970783333333","6500100","板橋區"
"220072","277-BY","2019/11/23 19:43:59","新北市板橋區金門街151巷25號","121.434055","24.9902033333333","6500100","板橋區"
"220094","283-UM","2019/11/23 19:43:54","新北市板橋區陽明街277號","121.46212","25.0260466666667","6500100","板橋區"
"220071","283-VK","2019/11/23 19:43:46","新北市板橋區信義路16-7號","121.457015","24.9955766666667","6500100","板橋區"
"220053","285-VK","2019/11/23 19:43:56","新北市板橋區中山路二段60巷1弄18號","121.474941666667","25.0155933333333","6500100","板橋區"
"220083","286-VK","2019/11/23 19:43:46","新北市板橋區龍興街65巷33號","121.442686666667","25.001665","6500100","板橋區"
"220081","287-VK","2019/11/23 19:43:40","新北市板橋區大觀路一段29巷131弄2號","121.450505","25.0054016666667","6500100","板橋區"
"220090","288-VK","2019/11/23 19:43:48","新北市板橋區龍泉街72巷4-3號","121.456178333333","25.026235","6500100","板橋區"
"220061","293-UM","2019/11/23 19:43:48","新北市板橋區漢生東路113巷10號","121.46786","25.015355","6500100","板橋區"
"220084","296-UM","2019/11/23 19:43:50","新北市板橋區滿平二街2巷1弄12號","121.425085","24.9865283333333","6500100","板橋區"
"220075","303-R5","2019/11/23 19:43:57","新北市板橋區中正路253巷72號","121.452748333333","25.0172016666667","6500100","板橋區"
"220062","305-R5","2019/11/23 19:43:46","新北市板橋區三民路二段29巷31弄1號","121.481341666667","25.0177083333333","6500100","板橋區"
"220092","307-R5","2019/11/23 19:43:39","新北市板橋區新海路368號","121.459595","25.025445","6500100","板橋區"
"220098","317-R6","2019/11/23 19:43:47","新北市板橋區四維路257號","121.463363333333","25.028105","6500100","板橋區"
"220089","487-VK","2019/11/23 19:43:39","新北市板橋區互助街82號","121.460561666667","25.0263733333333","6500100","板橋區"
"220088","491-VK","2019/11/23 19:43:52","新北市板橋區文聖街151號","121.478551666667","25.0280166666667","6500100","板橋區"
"220035","560-BX","2019/11/23 19:43:41","新北市板橋區中正路413巷2弄2號","121.453965","25.02267","6500100","板橋區"
"220103","561-BX","2019/11/23 19:43:50","新北市板橋區自由路26巷23號","121.466546666667","25.022475","6500100","板橋區"
"220079","568-UM","2019/11/23 19:43:41","新北市板橋區民權路260巷14號","121.458315","25.015305","6500100","板橋區"
"220063","609-BX","2019/11/23 19:43:51","新北市板橋區三民路一段120號","121.479275","25.02074","6500100","板橋區"
"220057","686-BX","2019/11/23 19:44:00","新北市板橋區信義路47號","121.45704","24.9959583333333","6500100","板橋區"
"220077","687-BX","2019/11/23 19:43:55","新北市板橋區僑中二街104巷2號","121.445968333333","25.0080333333333","6500100","板橋區"
"220093","689-BX","2019/11/23 19:43:55","新北市板橋區長江路三段31-1號","121.472876666667","25.033925","6500100","板橋區"
"220102","KEA-2699","2019/11/23 19:43:52","新北市板橋區仁化街48號","121.47528","25.0316966666667","6500100","板橋區"
"220055","827-TW","2019/11/23 19:43:54","新北市板橋區國慶路149巷23號","121.460991666667","24.9975366666667","6500100","板橋區"
"220068","830-TW","2019/11/23 19:43:51","新北市板橋區光復街133巷33號","121.484168333333","25.0195783333333","6500100","板橋區"
"220067","831-TW","2019/11/23 19:43:59","新北市板橋區長安街210號","121.474473333333","25.0120066666667","6500100","板橋區"
"220074","895-R6","2019/11/23 19:43:53","新北市板橋區館前西路140號","121.456333333333","25.0081266666667","6500100","板橋區"
"220073","985-R7","2019/11/23 19:43:54","新北市板橋區國光路67巷14號","121.459053333333","25.0187733333333","6500100","板橋區"
"220097","AAC-210","2019/11/23 19:43:48","新北市板橋區文化路一段27-1號","121.45994","25.0128583333333","6500100","板橋區"
"220064","AAC-253","2019/11/23 19:43:53","新北市板橋區中山路一段137號","121.462558333333","25.0107616666667","6500100","板橋區"
"235068","KEA-2873","2019/11/23 19:43:47","新北市中和區廟美街5號","121.500703333333","25.0014233333333","6500300","中和區"
"235061","KEA-2875","2019/11/23 19:43:34","新北市中和區員山路226巷5弄2號","121.481678333333","25.0006783333333","6500300","中和區"
