"lineid","car","time","location","longitude","latitude","cityid","cityname"
"251009","008-UM","2019/11/23 21:43:48","新北市淡水區民族路35巷32號","121.464718333333","25.13645","6501000","淡水區"
"251004","009-UM","2019/11/23 21:43:25","新北市淡水區民權路225號","121.458325","25.13156","6501000","淡水區"
"251005","010-UM","2019/11/23 21:43:54","新北市淡水區鄧公路15號","121.448531666667","25.1694716666667","6501000","淡水區"
"251002","012-UM","2019/11/23 21:43:54","新北市淡水區學府路200號","121.447076666667","25.1763333333333","6501000","淡水區"
"251016","180-VK","2019/11/23 21:43:58","新北市淡水區下圭柔山80號","121.437881666667","25.2047266666667","6501000","淡水區"
"251008","181-VK","2019/11/23 21:43:40","新北市淡水區水源街二段62號","121.450966666667","25.1740733333333","6501000","淡水區"
"251010","413-VK","2019/11/23 21:43:40","新北市淡水區沙崙路303號","121.427223333333","25.18697","6501000","淡水區"
"251012","441-VK","2019/11/23 21:43:47","新北市淡水區興仁路103巷33號","121.44979","25.2172166666667","6501000","淡水區"
"251007","442-VK","2019/11/23 21:43:46","新北市淡水區忠愛街4號","121.459785","25.17135","6501000","淡水區"
"251001","559-UM","2019/11/23 21:43:57","新北市淡水區新市二路三段152號","121.435438333333","25.1948566666667","6501000","淡水區"
"251006","561-UM","2019/11/23 21:43:52","新北市淡水區中正路11巷12號","121.438573333333","25.1704016666667","6501000","淡水區"
"251014","577-R6","2019/11/23 21:43:39","新北市淡水區下圭柔山116號","121.448571666667","25.2106","6501000","淡水區"
"251011","650-BX","2019/11/23 21:43:48","新北市淡水區新民街298號","121.435031666667","25.1826116666667","6501000","淡水區"
"251003","766-UM","2019/11/23 21:43:42","新北市淡水區新民街276號","121.435715","25.1811233333333","6501000","淡水區"
