"lineid","car","time","location","longitude","latitude","cityid","cityname"
"251004","009-UM","2019/11/23 22:13:45","新北市淡水區民族路33號","121.462258333333","25.1358183333333","6501000","淡水區"
"251008","181-VK","2019/11/23 22:13:40","新北市淡水區學府路104號","121.44984","25.1718216666667","6501000","淡水區"
"251010","413-VK","2019/11/23 22:13:38","新北市淡水區沙崙路200號","121.424675","25.18388","6501000","淡水區"
"251007","442-VK","2019/11/23 22:13:46","新北市淡水區北新路180號","121.449445","25.1786683333333","6501000","淡水區"
"251011","650-BX","2019/11/23 22:13:48","新北市淡水區水碓街7號","121.443196666667","25.1771016666667","6501000","淡水區"
