"lineid","car","time","location","longitude","latitude","cityid","cityname"
"232017","290-BY","2019/08/19 07:49:19","新北市坪林區乾溪5號","121.741995","24.9728983333333","6502000","坪林區"
"232005","291-BY","2019/08/19 07:49:49","新北市坪林區魚堀49號","121.70148","24.930135","6502000","坪林區"
"232010","375-UM","2019/08/19 07:50:03","新北市坪林區厚德岡坑3號","121.731218333333","24.94037","6502000","坪林區"
"232012","705-BZ","2019/08/19 07:49:52","新北市坪林區金瓜寮13-2號","121.68136","24.9152133333333","6502000","坪林區"
"232001","758-BX","2019/08/19 07:50:00","新北市坪林區下坑子口7號","121.711096666667","24.9443116666667","6502000","坪林區"
"244001","248-BX","2019/08/19 07:50:01","新北市林口區頂福里40號","121.354735","25.0971633333333","6501700","林口區"
"231008","515-UM","2019/08/19 07:49:57","新北市新店區安一路一段1-1號","121.519675","24.9615266666667","6500600","新店區"
"226001","8452-VL","2019/08/19 07:49:44","新北市平溪區平湖里大厝6號","121.779206666667","25.03698","6502400","平溪區"
"226003","AGD-0702","2019/08/19 07:49:48","新北市平溪區新寮里頂寮子3-10號","121.773681666667","25.051735","6502400","平溪區"
"223003","205-TH","2019/08/19 07:49:50","新北市石碇區蛇舌子7號","121.66475","24.9664916666667","6501900","石碇區"
"223008","406-TH","2019/08/19 07:34:54","新北市石碇區靜安路一段337號","121.698776666667","25.0145566666667","6501900","石碇區"
"223001","592-UM","2019/08/19 07:48:52","新北市石碇區蛇舌子3號","121.664931666667","24.9679733333333","6501900","石碇區"
"223004","660-BX","2019/08/19 07:49:51","新北市石碇區靜安路一段28號","121.642426666667","25.0115483333333","6501900","石碇區"
"223007","661-BX","2019/08/19 07:43:28","新北市石碇區靜安路一段337號","121.698858333333","25.014495","6501900","石碇區"
"227003","282-VK","2019/08/19 07:49:45","新北市雙溪區雙溪里太平路54號","121.864756666667","25.035475","6502500","雙溪區"
"252006","073-UM","2019/08/19 07:49:46","新北市三芝區錫板里南勢崗2號","121.481228333333","25.2634566666667","6502100","三芝區"
"252004","249-BX","2019/08/19 07:49:43","新北市三芝區店子里菜公坑99-4號","121.514103333333","25.2066466666667","6502100","三芝區"
"237014","760-BX","2019/08/19 07:49:48","新北市三峽區五寮114號","121.359728333333","24.8606066666667","6500900","三峽區"
"226005","ANY-2373","2019/08/19 07:50:02","新北市平溪區石底里公園街18-3號","121.733281666667","25.0257916666667","6502400","平溪區"
"242038","AAC-296","2019/08/19 07:49:56","新北市新莊區新樹路47號","121.440163333333","25.0320983333333","6500500","新莊區"
"242059","986-R7","2019/08/19 07:49:44","新北市新莊區中正路400號","121.441928333333","25.0345266666667","6500500","新莊區"
"242001","751-BX","2019/08/19 07:49:47","新北市新莊區瓊林路98-1號","121.443643333333","25.02659","6500500","新莊區"
"242028","615-BX","2019/08/19 07:49:48","新北市新莊區幸福路38號","121.458028333333","25.049465","6500500","新莊區"
"242026","613-BX","2019/08/19 07:49:56","新北市新莊區復興路二段20-2號","121.454171666667","25.04399","6500500","新莊區"
"242057","612-BX","2019/08/19 07:49:56","新北市新莊區新泰路255巷83號","121.442123333333","25.0390583333333","6500500","新莊區"
"242045","566-BX","2019/08/19 07:49:58","新北市新莊區中正路384號","121.44198","25.0349216666667","6500500","新莊區"
"242049","497-BY","2019/08/19 07:49:45","新北市新莊區瓊林路190-2號","121.439375","25.0207733333333","6500500","新莊區"
"242043","442-UM","2019/08/19 07:49:47","新北市新莊區中正路685號","121.425965","25.0299916666667","6500500","新莊區"
"242055","441-UM","2019/08/19 07:50:01","新北市新莊區中環路一段281號","121.442233333333","25.031695","6500500","新莊區"
"242003","440-UM","2019/08/19 07:49:58","新北市新莊區復興路一段201號","121.45212","25.043625","6500500","新莊區"
"242040","415-TV","2019/08/19 07:49:50","新北市新莊區中正路400號","121.44183","25.03445","6500500","新莊區"
"242010","413-TV","2019/08/19 07:49:43","新北市新莊區中平路82巷29號","121.446163333333","25.0450083333333","6500500","新莊區"
"242047","400-BY","2019/08/19 07:50:03","新北市新莊區龍安路255號","121.41973","25.020035","6500500","新莊區"
"242024","362-BY","2019/08/19 07:49:56","新北市新莊區中平路82巷29號","121.44613","25.04492","6500500","新莊區"
"242022","353-BY","2019/08/19 07:49:58","新北市新莊區中平路82巷20號","121.445646666667","25.0449083333333","6500500","新莊區"
"242012","132-UY","2019/08/19 07:49:15","新北市新莊區三和路12-21號","121.44225","25.0382266666667","6500500","新莊區"
"242052","172-VK","2019/08/19 07:49:53","新北市新莊區新樹路67巷5號","121.44211","25.0310433333333","6500500","新莊區"
"242014","173-VK","2019/08/19 07:49:57","新北市新莊區三和路12-21號","121.442046666667","25.0387816666667","6500500","新莊區"
"242020","175-VK","2019/08/19 07:49:46","新北市新莊區中港路140號","121.455198333333","25.0409066666667","6500500","新莊區"
"242016","176-VK","2019/08/19 07:49:56","新北市新莊區新泰路502巷51號","121.444256666667","25.0464216666667","6500500","新莊區"
"242018","347-TH","2019/08/19 07:49:59","新北市新莊區新泰路502巷42弄1號","121.4439","25.0464166666667","6500500","新莊區"
"242033","348-TH","2019/08/19 07:49:59","新北市新莊區新樹路67巷5號","121.441988333333","25.03104","6500500","新莊區"
"242006","349-TH","2019/08/19 07:49:44","新北市新莊區新泰路502巷26號","121.443283333333","25.0465033333333","6500500","新莊區"
"242030","350-TH","2019/08/19 07:49:49","新北市新莊區新泰路417-2號","121.44316","25.0447416666667","6500500","新莊區"
"242008","280-VK","2019/08/19 07:49:48","新北市新莊區新泰路255巷83號","121.442323333333","25.0389","6500500","新莊區"
"220002","833-TW","2019/08/19 07:50:00","新北市板橋區華東街1-10號","121.44861","24.9947816666667","6500100","板橋區"
