"lineid","car","time","location","longitude","latitude","cityid","cityname"
"244006","080-UY","2019/11/14 08:59:58","新北市林口區竹林路462號","121.38778","25.084925","6501700","林口區"
"244003","248-BX","2019/11/14 08:57:57","新北市林口區寶斗厝坑79-1號","121.332481666667","25.117405","6501700","林口區"
"244018","402-UM","2019/11/14 08:59:48","新北市林口區文化一路一段120號","121.374145","25.071865","6501700","林口區"
"244012","KEA-2802","2019/11/14 08:59:45","新北市林口區中正路514巷19號","121.381891666667","25.077665","6501700","林口區"
"244022","483-VK","2019/11/14 08:59:52","新北市林口區育林街30號","121.385816666667","25.0736966666667","6501700","林口區"
"244016","485-VK","2019/11/14 08:59:46","新北市林口區公園路14號","121.366403333333","25.0668266666667","6501700","林口區"
"244008","656-BX","2019/11/14 08:59:54","新北市林口區文化三路二段366號","121.37863","25.085805","6501700","林口區"
"244010","701-TV","2019/11/14 08:59:43","新北市林口區興林路17巷3弄2號","121.390288333333","25.0769933333333","6501700","林口區"
"244024","837-TS","2019/11/14 08:59:43","新北市林口區南勢六街238號","121.355715","25.0743266666667","6501700","林口區"
"244020","838-TS","2019/11/14 08:59:47","新北市林口區粉寮路一段84號","121.397336666667","25.0794783333333","6501700","林口區"
"222006","289-BY","2019/11/14 08:59:46","新北市深坑區土庫尖路75-1號","121.631335","25.01818","6501800","深坑區"
"231069","189-VK","2019/11/14 08:59:45","新北市新店區新潭路三段236號","121.501695","24.902925","6500600","新店區"
"231008","192-VK","2019/11/14 08:59:53","新北市新店區廣興路60巷30-3號","121.543711666667","24.9146066666667","6500600","新店區"
"223003","205-TH","2019/11/14 08:59:44","新北市石碇區北宜路六段水底寮巷11-1號","121.66527","24.94491","6501900","石碇區"
"223008","406-TH","2019/11/14 08:58:51","新北市石碇區石汐路7號","121.679933333333","25.0345766666667","6501900","石碇區"
"223004","437-BY","2019/11/14 08:59:41","新北市石碇區磨石坑16-3號","121.686481666667","24.97148","6501900","石碇區"
"223001","592-UM","2019/11/14 08:59:54","新北市石碇區北宜路六段水底寮巷11-1號","121.664818333333","24.945615","6501900","石碇區"
"223007","661-BX","2019/11/14 08:59:51","新北市石碇區碇南路二段鹿窟巷19號","121.667018333333","25.0324183333333","6501900","石碇區"
"223005","677-TV","2019/11/14 08:59:54","新北市石碇區碇坪路二段56號","121.682931666667","24.969605","6501900","石碇區"
"252004","249-BX","2019/11/14 08:59:55","新北市三芝區興華里田心子31號","121.488843333333","25.200425","6502100","三芝區"
"252007","AAC-283","2019/11/14 08:59:58","新北市三芝區樂全街8號","121.487238333333","25.2588116666667","6502100","三芝區"
"237013","760-BX","2019/11/14 08:59:47","新北市三峽區插角211-2號","121.421311666667","24.8706883333333","6500900","三峽區"
"242040","AAC-296","2019/11/14 08:59:45","新北市新莊區青山路一段24號","121.411031666667","25.0276266666667","6500500","新莊區"
"242059","986-R7","2019/11/14 08:59:45","新北市新莊區民安路188巷8弄5號","121.424283333333","25.0236566666667","6500500","新莊區"
"242003","751-BX","2019/11/14 08:59:57","新北市新莊區化成路63巷24弄16號","121.46218","25.0460316666667","6500500","新莊區"
"242022","705-TV","2019/11/14 08:59:49","新北市新莊區化成路315號","121.465983333333","25.055645","6500500","新莊區"
"242028","615-BX","2019/11/14 08:59:55","新北市新莊區中原路122號","121.45005","25.054405","6500500","新莊區"
"242026","613-BX","2019/11/14 08:59:50","新北市新莊區幸福路900號","121.443228333333","25.04932","6500500","新莊區"
"242057","612-BX","2019/11/14 08:59:50","新北市新莊區富國路154號","121.423203333333","25.0248383333333","6500500","新莊區"
"242047","566-BX","2019/11/14 08:59:43","新北市新莊區富國路109巷2號","121.423721666667","25.0249633333333","6500500","新莊區"
"242052","497-BY","2019/11/14 08:59:54","新北市新莊區西盛街395巷37弄1號","121.429075","25.01195","6500500","新莊區"
"242049","442-UM","2019/11/14 08:59:44","新北市新莊區民安西路189巷15號","121.42672","25.0153833333333","6500500","新莊區"
"242001","441-UM","2019/11/14 09:00:01","新北市新莊區中正路48號","121.463993333333","25.0411083333333","6500500","新莊區"
"242043","415-TV","2019/11/14 08:59:58","新北市新莊區中正路新旺巷26號","121.41602","25.0230766666667","6500500","新莊區"
"242024","362-BY","2019/11/14 08:59:40","新北市新莊區五工三路79號","121.45884","25.064995","6500500","新莊區"
"242014","132-UY","2019/11/14 08:59:57","新北市新莊區中和街31巷22號","121.447213333333","25.0438666666667","6500500","新莊區"
"242055","172-VK","2019/11/14 08:59:46","新北市新莊區環漢路二段6號","121.449898333333","25.0321633333333","6500500","新莊區"
"242016","173-VK","2019/11/14 08:59:58","新北市新莊區中港二街43號","121.450603333333","25.0459616666667","6500500","新莊區"
"242030","175-VK","2019/11/14 08:59:51","新北市新莊區新泰路213巷39號","121.444471666667","25.03838","6500500","新莊區"
"242008","176-VK","2019/11/14 08:59:50","新北市新莊區昌盛街101號","121.456111666667","25.0501383333333","6500500","新莊區"
"242020","KED-0687","2019/11/14 08:59:42","新北市新莊區建中街50號","121.448515","25.03732","6500500","新莊區"
"242006","346-TH","2019/11/14 08:59:48","新北市新莊區福壽街94巷24號","121.459166666667","25.050115","6500500","新莊區"
"242038","347-TH","2019/11/14 08:59:49","新北市新莊區民安西路111巷1號","121.42687","25.018265","6500500","新莊區"
"242035","348-TH","2019/11/14 08:59:58","新北市新莊區建安街27號","121.429081666667","25.0260133333333","6500500","新莊區"
"242012","349-TH","2019/11/14 08:59:54","新北市新莊區中和街186巷25號","121.448488333333","25.0498216666667","6500500","新莊區"
"242033","350-TH","2019/11/14 08:59:55","新北市新莊區建中街81巷10弄11號","121.446818333333","25.0361116666667","6500500","新莊區"
"242018","351-TH","2019/11/14 08:59:59","新北市新莊區復興路二段189號","121.459183333333","25.0445783333333","6500500","新莊區"
"233001","KEA-2870","2019/11/14 08:59:54","新北市烏來區李茂岸21-1號","121.502378333333","24.7782583333333","6502900","烏來區"
"242045","281-VK","2019/11/14 08:59:48","新北市新莊區民安路16-9號","121.422826666667","25.02814","6500500","新莊區"
"242010","280-VK","2019/11/14 08:59:45","新北市新莊區中信街48號","121.449535","25.0508683333333","6500500","新莊區"
