"lineid","car","time","location","longitude","latitude","cityid","cityname"
"244006","080-UY","2019/11/14 09:13:58","新北市林口區後湖33號","121.38729","25.0995283333333","6501700","林口區"
"244003","248-BX","2019/11/14 09:13:57","新北市林口區中湖40-9號","121.383176666667","25.0912633333333","6501700","林口區"
"244018","402-UM","2019/11/14 09:13:48","新北市林口區忠孝路581巷6號","121.375088333333","25.0686716666667","6501700","林口區"
"244012","KEA-2802","2019/11/14 09:13:57","新北市林口區麗園一街6巷1-2號","121.376838333333","25.0703183333333","6501700","林口區"
"244022","483-VK","2019/11/14 09:13:52","新北市林口區東湖路107號","121.383741666667","25.0729766666667","6501700","林口區"
"244016","485-VK","2019/11/14 09:13:46","新北市林口區文化二路一段84號","121.366218333333","25.0695266666667","6501700","林口區"
"244008","656-BX","2019/11/14 09:13:54","新北市林口區民生路87號","121.37674","25.0874266666667","6501700","林口區"
"244010","701-TV","2019/11/14 09:13:43","新北市林口區仁愛路一段285巷52號","121.395513333333","25.07459","6501700","林口區"
"244024","837-TS","2019/11/14 09:13:52","新北市林口區文化北路一段406-1號","121.364426666667","25.0760883333333","6501700","林口區"
"222006","289-BY","2019/11/14 09:13:46","新北市深坑區土庫尖路26號","121.640191666667","25.013435","6501800","深坑區"
"231069","189-VK","2019/11/14 09:13:45","新北市新店區新潭路三段215巷25號","121.508075","24.904075","6500600","新店區"
"231008","192-VK","2019/11/14 09:13:53","新北市新店區廣興路96號","121.537831666667","24.9130216666667","6500600","新店區"
"223003","205-TH","2019/11/14 09:13:44","新北市石碇區北宜路五段坑內巷1號","121.63698","24.95326","6501900","石碇區"
"223008","406-TH","2019/11/14 09:13:01","新北市石碇區光明路15號","121.681313333333","25.0334416666667","6501900","石碇區"
"223004","437-BY","2019/11/14 09:14:01","新北市石碇區磨石坑29-1號","121.690755","24.9694533333333","6501900","石碇區"
"223001","592-UM","2019/11/14 09:13:54","新北市石碇區北宜路五段崙尾寮巷1號","121.644426666667","24.9527866666667","6501900","石碇區"
"223007","661-BX","2019/11/14 09:13:31","新北市石碇區光明路17-2號","121.684786666667","25.031925","6501900","石碇區"
"223005","677-TV","2019/11/14 09:13:45","新北市石碇區磨石坑24-5號","121.690541666667","24.9711783333333","6501900","石碇區"
"252004","249-BX","2019/11/14 09:13:55","新北市三芝區興華里田心子20-8號","121.49384","25.2011166666667","6502100","三芝區"
"252007","AAC-283","2019/11/14 09:13:58","新北市三芝區古庄里山豬堀5號","121.495763333333","25.255475","6502100","三芝區"
"237013","760-BX","2019/11/14 09:13:47","新北市三峽區金敏26號","121.392803333333","24.879245","6500900","三峽區"
"242040","AAC-296","2019/11/14 09:13:45","新北市新莊區壽山路55-3號","121.412313333333","25.0316266666667","6500500","新莊區"
"242059","986-R7","2019/11/14 09:13:58","新北市新莊區瓊林路89-32號","121.44328","25.026165","6500500","新莊區"
"242003","751-BX","2019/11/14 09:14:01","新北市新莊區頭興街5巷1號","121.463091666667","25.0535533333333","6500500","新莊區"
"242022","705-TV","2019/11/14 09:13:48","新北市新莊區化成路966號","121.46509","25.063405","6500500","新莊區"
"242028","615-BX","2019/11/14 09:13:54","新北市新莊區昌隆街10號","121.453201666667","25.050935","6500500","新莊區"
"242026","613-BX","2019/11/14 09:14:00","新北市新莊區幸福路566號","121.454433333333","25.0493683333333","6500500","新莊區"
"242057","612-BX","2019/11/14 09:13:50","新北市新莊區八德街162號","121.423473333333","25.0196866666667","6500500","新莊區"
"242047","566-BX","2019/11/14 09:13:43","新北市新莊區萬安街165巷34號","121.421188333333","25.0206266666667","6500500","新莊區"
"242052","497-BY","2019/11/14 09:13:54","新北市新莊區民安西路242號","121.425961666667","25.0140183333333","6500500","新莊區"
"242049","442-UM","2019/11/14 09:13:43","新北市新莊區民安西路60號","121.427353333333","25.0203483333333","6500500","新莊區"
"242001","441-UM","2019/11/14 09:13:41","新北市新莊區化成路5-9號","121.464486666667","25.0421233333333","6500500","新莊區"
"242043","415-TV","2019/11/14 09:13:58","新北市新莊區中正路929巷27號","121.411295","25.0199916666667","6500500","新莊區"
"242024","362-BY","2019/11/14 09:13:40","新北市新莊區五工二路62巷11號","121.460921666667","25.0659466666667","6500500","新莊區"
"242014","132-UY","2019/11/14 09:13:57","新北市新莊區中和街37號","121.448026666667","25.0442233333333","6500500","新莊區"
"242055","172-VK","2019/11/14 09:13:46","新北市新莊區新莊路649巷40號","121.444895","25.031555","6500500","新莊區"
"242016","173-VK","2019/11/14 09:13:58","新北市新莊區中平路82巷25號","121.446358333333","25.04546","6500500","新莊區"
"242030","175-VK","2019/11/14 09:13:51","新北市新莊區中正路372-1號","121.443511666667","25.0345116666667","6500500","新莊區"
"242008","176-VK","2019/11/14 09:13:50","新北市新莊區幸福路4號","121.459445","25.04959","6500500","新莊區"
"242020","KED-0687","2019/11/14 09:13:43","新北市新莊區復興路一段11號","121.44572","25.04165","6500500","新莊區"
"242006","346-TH","2019/11/14 09:13:48","新北市新莊區思源路251號","121.459828333333","25.04719","6500500","新莊區"
"242038","347-TH","2019/11/14 09:13:49","新北市新莊區民安路234號","121.426105","25.0221166666667","6500500","新莊區"
"242035","348-TH","2019/11/14 09:13:58","新北市新莊區建安街76巷1弄2號","121.426328333333","25.024645","6500500","新莊區"
"242012","349-TH","2019/11/14 09:14:01","新北市新莊區中和街155巷24弄77號","121.44611","25.0514233333333","6500500","新莊區"
"242033","350-TH","2019/11/14 09:13:55","新北市新莊區公園一路141號","121.446551666667","25.0383266666667","6500500","新莊區"
"242018","351-TH","2019/11/14 09:13:38","新北市新莊區銘德街138號","121.454728333333","25.043","6500500","新莊區"
"233001","KEA-2870","2019/11/14 09:13:54","新北市烏來區大羅蘭35號","121.500851666667","24.7751416666667","6502900","烏來區"
"242045","281-VK","2019/11/14 09:13:51","新北市新莊區裕民街120號","121.418105","25.0227416666667","6500500","新莊區"
"242010","280-VK","2019/11/14 09:13:45","新北市新莊區中港路483巷26號","121.450953333333","25.049655","6500500","新莊區"
