"lineid","car","time","location","longitude","latitude","cityid","cityname"
"234044","148-BY","2019/11/14 12:29:26","新北市永和區環河東路二段98號","121.524163333333","25.0104333333333","6500400","永和區"
"234078","298-R6","2019/11/14 12:29:28","新北市永和區福和路1號","121.525705","25.009455","6500400","永和區"
"234084","338-UY","2019/11/14 12:29:22","新北市永和區福和路1號","121.526431666667","25.0099466666667","6500400","永和區"
"234068","552-UM","2019/11/14 12:29:29","新北市永和區福和路1號","121.52539","25.00942","6500400","永和區"
"234015","745-BX","2019/11/14 12:29:17","新北市永和區福和路1號","121.526483333333","25.009655","6500400","永和區"
"234012","KEA-2591","2019/11/14 12:29:23","新北市永和區保安路13號","121.510398333333","25.016865","6500400","永和區"
"234010","9373-KE","2019/11/14 12:29:24","新北市永和區保生路55-6號","121.504736666667","25.01214","6500400","永和區"
"234022","9380-KE","2019/11/14 12:29:26","新北市永和區福和路1號","121.526185","25.0097283333333","6500400","永和區"
"234076","969-R7","2019/11/14 12:29:13","新北市永和區環河東路二段90號","121.52431","25.010635","6500400","永和區"
"234066","AAC-212","2019/11/14 12:29:19","新北市永和區福和路1號","121.526446666667","25.009645","6500400","永和區"
"223001","592-UM","2019/11/14 12:29:26","新北市新店區安康路二段320巷15弄18號","121.502393333333","24.959095","6501900","石碇區"
"228005","097-TW","2019/11/14 12:29:17","新北市貢寮區福連里蓬萊街15號","121.98761","24.9977583333333","6502600","貢寮區"
"228004","212-TW","2019/11/14 12:29:30","新北市貢寮區龍崗里嵩陽街2-1號","121.901428333333","25.0158666666667","6502600","貢寮區"
"207002","749-BX","2019/11/14 12:29:29","新北市萬里區中幅里大湖路6號","121.66078","25.1712083333333","6502800","萬里區"
