"lineid","car","time","location","longitude","latitude","cityid","cityname"
"234044","148-BY","2019/11/14 13:13:26","新北市永和區永元路18巷25號","121.52359","25.0002183333333","6500400","永和區"
"234078","298-R6","2019/11/14 13:13:28","新北市永和區福和路57巷11弄2號","121.522993333333","25.0073433333333","6500400","永和區"
"234036","336-UY","2019/11/14 13:13:17","新北市永和區民樂街69巷12號","121.527921666667","24.997685","6500400","永和區"
"234062","337-UY","2019/11/14 13:13:25","新北市永和區永元路93號","121.522356666667","25.001615","6500400","永和區"
"234084","338-UY","2019/11/14 13:13:22","新北市永和區永貞路92號","121.519365","25.0044483333333","6500400","永和區"
"234068","552-UM","2019/11/14 13:13:09","新北市永和區豫溪街137-1號","121.519868333333","25.01045","6500400","永和區"
"234015","745-BX","2019/11/14 13:13:17","新北市永和區文化路90巷27弄1號","121.513313333333","25.0164116666667","6500400","永和區"
"234028","746-BX","2019/11/14 13:13:19","新北市永和區厚德街61-1號","121.525468333333","24.99856","6500400","永和區"
"234052","KEA-2590","2019/11/14 13:13:28","新北市永和區竹林路78號","121.519303333333","25.0127616666667","6500400","永和區"
"234005","KED-0605","2019/11/14 13:13:23","新北市永和區中山路一段199號","121.509061666667","25.0086416666667","6500400","永和區"
"234012","KEA-2591","2019/11/14 13:13:25","新北市永和區仁愛路108號","121.511921666667","25.0133","6500400","永和區"
"234060","AAD-866","2019/11/14 13:13:22","新北市永和區秀朗路一段71號","121.515086666667","25.006665","6500400","永和區"
"234040","862-TW","2019/11/14 13:13:14","新北市永和區保平路198號","121.510121666667","25.0061566666667","6500400","永和區"
"234048","863-TW","2019/11/14 13:13:18","新北市永和區保福路二段94巷3號","121.510405","25.0136866666667","6500400","永和區"
"234025","9371-KE","2019/11/14 13:13:13","新北市永和區豫溪街28巷19號","121.515093333333","25.0090066666667","6500400","永和區"
"234010","9373-KE","2019/11/14 13:13:25","新北市永和區仁愛路68號","121.51315","25.013395","6500400","永和區"
"248013","025-BX","2019/11/14 13:13:29","新北市五股區自強路19巷5-1號","121.434621666667","25.0737533333333","6501500","五股區"
"248015","026-BX","2019/11/14 13:13:14","新北市五股區成泰路三段221巷18號","121.44573","25.0934933333333","6501500","五股區"
"248005","077-UY","2019/11/14 13:13:18","新北市五股區中興路一段181號","121.464371666667","25.07382","6501500","五股區"
"248007","KED-0815","2019/11/14 13:13:18","新北市五股區更洲路32巷8弄14號","121.459263333333","25.07965","6501500","五股區"
"248017","KED-0813","2019/11/14 13:13:27","新北市五股區成泰路三段83號","121.443848333333","25.0901183333333","6501500","五股區"
"248009","272-BY","2019/11/14 13:13:18","新北市五股區成泰路一段189巷22-1號","121.43354","25.077015","6501500","五股區"
"248003","677-BX","2019/11/14 13:13:11","新北市五股區成泰路二段156號","121.438291666667","25.0841083333333","6501500","五股區"
"248001","678-BX","2019/11/14 13:13:16","新北市五股區成泰路三段101-1號","121.443988333333","25.09033","6501500","五股區"
"234022","9380-KE","2019/11/14 13:13:27","新北市永和區竹林路124巷34號","121.518238333333","25.0112383333333","6500400","永和區"
"234076","969-R7","2019/11/14 13:13:13","新北市永和區中正路91號","121.515343333333","24.9972066666667","6500400","永和區"
"234072","AAC-211","2019/11/14 13:13:18","新北市永和區竹林路112-2號","121.519815","25.0117","6500400","永和區"
"234066","AAC-212","2019/11/14 13:13:19","新北市永和區保平路50巷8弄16號","121.51159","25.0078933333333","6500400","永和區"
"234001","AAC-295","2019/11/14 13:13:15","新北市永和區和平街56號","121.512378333333","25.0099883333333","6500400","永和區"
"244003","248-BX","2019/11/14 13:13:22","新北市林口區嘉寶里3-1號","121.364948333333","25.09527","6501700","林口區"
"243005","646-TV","2019/11/14 13:13:23","新北市泰山區南林路99巷1-1號","121.415508333333","25.0510566666667","6501600","泰山區"
"231030","002-UM","2019/11/14 13:13:14","新北市新店區安華路28-1號","121.519931666667","24.9608333333333","6500600","新店區"
"231005","046-UY","2019/11/14 13:13:30","新北市新店區安一路一段1-1號","121.519728333333","24.96154","6500600","新店區"
"231029","106-UY","2019/11/14 13:13:27","新北市新店區安華路28-1號","121.519576666667","24.9607183333333","6500600","新店區"
"231051","107-UY","2019/11/14 13:13:15","新北市新店區安華路30巷1號","121.519563333333","24.9598133333333","6500600","新店區"
"231013","108-UY","2019/11/14 13:13:11","新北市新店區安一路一段1-1號","121.519936666667","24.96122","6500600","新店區"
"231036","110-UY","2019/11/14 13:13:23","新北市新店區建業路15號","121.48256","24.95271","6500600","新店區"
"231031","256-BX","2019/11/14 13:13:13","新北市新店區安一路一段1-1號","121.519656666667","24.961115","6500600","新店區"
"231023","260-TV","2019/11/14 13:13:12","新北市新店區安一路一段1-1號","121.5196","24.9610366666667","6500600","新店區"
"231003","268-BY","2019/11/14 13:13:19","新北市新店區安華路28-1號","121.519445","24.9605583333333","6500600","新店區"
"231035","278-BY","2019/11/14 13:13:23","新北市新店區安一路一段1-1號","121.519703333333","24.9611683333333","6500600","新店區"
"231017","AAD-862","2019/11/14 13:13:13","新北市新店區安一路一段1-1號","121.519873333333","24.9611616666667","6500600","新店區"
"231006","355-BY","2019/11/14 13:13:16","新北市新店區安華路28-1號","121.519343333333","24.9609733333333","6500600","新店區"
"231024","4716-K9","2019/11/14 13:13:19","新北市新店區安華路28-1號","121.519718333333","24.9607266666667","6500600","新店區"
"231025","4715-K9","2019/11/14 13:13:15","新北市新店區安康路一段214號","121.524005","24.9634766666667","6500600","新店區"
"231021","513-UM","2019/11/14 13:13:17","新北市新店區安一路一段1-1號","121.519653333333","24.96116","6500600","新店區"
"231034","641-BX","2019/11/14 13:13:18","新北市新店區安華路28-1號","121.519615","24.9606316666667","6500600","新店區"
"231010","719-UM","2019/11/14 13:13:18","新北市新店區安一路一段1-1號","121.519543333333","24.961235","6500600","新店區"
"231026","720-UM","2019/11/14 13:13:23","新北市新店區安一路一段1-1號","121.519206666667","24.96156","6500600","新店區"
"231028","897-TW","2019/11/14 13:13:24","新北市新店區安華路28-1號","121.519786666667","24.96082","6500600","新店區"
"231001","898-TW","2019/11/14 13:13:23","新北市新店區安華路28-1號","121.519636666667","24.9608183333333","6500600","新店區"
"231004","899-TW","2019/11/14 13:13:17","新北市新店區安華路28-1號","121.519231666667","24.9608466666667","6500600","新店區"
"231037","AKT-0513","2019/11/14 13:13:21","新北市新店區安華路28-1號","121.519585","24.9607833333333","6500600","新店區"
"235030","003-UY","2019/11/14 13:13:13","新北市中和區中正路657號","121.485061666667","24.9962333333333","6500300","中和區"
"235028","005-UY","2019/11/14 13:13:16","新北市中和區圓通路189號","121.497271666667","24.9945333333333","6500300","中和區"
"235027","006-UY","2019/11/14 13:13:19","新北市中和區員山路36巷16-3號","121.485128333333","24.9914316666667","6500300","中和區"
"235020","096-UM","2019/11/14 13:13:13","新北市中和區員山路36巷16-3號","121.48473","24.9913166666667","6500300","中和區"
"235003","097-UM","2019/11/14 13:13:20","新北市中和區景平路406號","121.508741666667","24.9930866666667","6500300","中和區"
"235029","098-UM","2019/11/14 13:13:22","新北市中和區中山路二段64巷26號","121.502871666667","25.0059466666667","6500300","中和區"
"235004","150-BY","2019/11/14 13:13:23","新北市中和區中正路305號","121.492743333333","24.99385","6500300","中和區"
"235022","151-BY","2019/11/14 13:13:31","新北市中和區圓通路367巷29號","121.492045","24.9854866666667","6500300","中和區"
"235019","183-VK","2019/11/14 13:13:32","新北市中和區連城路631-2號","121.475766666667","24.99146","6500300","中和區"
"235002","185-VK","2019/11/14 13:13:15","新北市中和區景平路114號","121.519598333333","24.9917966666667","6500300","中和區"
"235031","255-BX","2019/11/14 13:13:26","新北市中和區新生街195號","121.483965","25.0002116666667","6500300","中和區"
"235036","301-VK","2019/11/14 13:13:18","新北市中和區連城路279號","121.490478333333","24.9963933333333","6500300","中和區"
"235007","352-BY","2019/11/14 13:13:14","新北市中和區景平路504巷2號","121.503833333333","24.9935566666667","6500300","中和區"
"235006","KEA-2878","2019/11/14 13:13:19","新北市中和區景平路159巷29弄3號","121.512948333333","24.9912166666667","6500300","中和區"
"235014","4979-A6","2019/11/14 13:13:19","新北市中和區南山路273號","121.503983333333","24.9924666666667","6500300","中和區"
"235033","4980-A6","2019/11/14 13:13:19","新北市中和區連勝街78號","121.495565","24.996375","6500300","中和區"
"235034","558-UM","2019/11/14 13:13:20","新北市中和區圓通路72號","121.500185","24.9973033333333","6500300","中和區"
"235009","565-BX","2019/11/14 13:13:20","新北市中和區景安路200巷12號","121.503146666667","24.9918816666667","6500300","中和區"
"235024","KED-0823","2019/11/14 13:13:29","新北市中和區員山路485號","121.480011666667","25.00553","6500300","中和區"
"235018","640-BX","2019/11/14 13:13:27","新北市中和區民享街86巷26號","121.473363333333","25.0007833333333","6500300","中和區"
"235035","647-TV","2019/11/14 13:13:18","新北市中和區立德街194號","121.484998333333","25.0093816666667","6500300","中和區"
"235011","732-UM","2019/11/14 13:13:29","新北市中和區中正路752號","121.485478333333","24.9988783333333","6500300","中和區"
"235026","800-TS","2019/11/14 13:13:24","新北市中和區景平路989巷9號","121.495628333333","25.0051833333333","6500300","中和區"
"235021","801-TS","2019/11/14 13:13:22","新北市中和區民享街97巷14號","121.47533","24.9996433333333","6500300","中和區"
"235005","802-TS","2019/11/14 13:13:16","新北市中和區中正路305號","121.492815","24.99391","6500300","中和區"
"235016","805-TS","2019/11/14 13:13:19","新北市中和區興南路二段96號","121.505211666667","24.9842233333333","6500300","中和區"
"235015","157-BY","2019/11/14 13:13:29","新北市中和區信義街7號","121.510873333333","24.9896916666667","6500300","中和區"
"235001","AAC-213","2019/11/14 13:13:19","新北市中和區景平路111巷60弄56號","121.514538333333","24.990905","6500300","中和區"
"220013","072-UY","2019/11/14 13:13:06","新北市板橋區華東街1-10號","121.448311666667","24.9949833333333","6500100","板橋區"
"247013","056-VK","2019/11/14 13:13:25","新北市五股區中興路三段2巷10號","121.449168333333","25.0810133333333","6501400","蘆洲區"
"235013","251-BX","2019/11/14 13:13:32","新北市中和區員山路36巷13號","121.484203333333","24.990945","6500300","中和區"
"223001","592-UM","2019/11/14 13:13:26","新北市石碇區石崁10號","121.655045","24.99579","6501900","石碇區"
"228005","097-TW","2019/11/14 13:13:17","新北市貢寮區仁理村仁和路49巷7號","121.92321","25.05394","6502600","貢寮區"
"228004","212-TW","2019/11/14 13:13:10","新北市貢寮區吉林里內寮街65-5號","121.891531666667","24.9788116666667","6502600","貢寮區"
"253003","6232-TK","2019/11/14 13:13:20","新北市石門區石崩山9號","121.565476666667","25.279765","6502200","石門區"
"253004","6251-TK","2019/11/14 13:13:19","新北市石門區阿里荖48-1號","121.609206666667","25.27683","6502200","石門區"
"253002","637-UY","2019/11/14 13:13:28","新北市石門區大溪墘9-2號","121.551855","25.2755716666667","6502200","石門區"
"253001","KEC-0718","2019/11/14 13:13:25","新北市石門區崁子腳27號","121.535643333333","25.2914616666667","6502200","石門區"
"207002","749-BX","2019/11/14 13:13:09","新北市萬里區崁腳里崁腳路166號","121.645065","25.15577","6502800","萬里區"
"252005","073-UM","2019/11/14 13:13:30","新北市三芝區八賢里八連溪23-5號","121.511143333333","25.2406766666667","6502100","三芝區"
"207001","662-BX","2019/11/14 13:13:22","新北市萬里區龜吼里翡翠路17號","121.6834","25.1866466666667","6502800","萬里區"
"220030","610-BX","2019/11/14 13:13:23","新北市板橋區華東街1-10號","121.448285","24.9949483333333","6500100","板橋區"
"235032","KEA-2873","2019/11/14 13:13:24","新北市中和區員山路36巷16-3號","121.485088333333","24.9913233333333","6500300","中和區"
"235025","KEA-2875","2019/11/14 13:13:19","新北市中和區國光街215巷24弄4號","121.46666","25.000185","6500300","中和區"
