"lineid","car","time","location","longitude","latitude","cityid","cityname"
"234044","148-BY","2019/11/14 13:43:25","新北市永和區秀朗路二段80號","121.523091666667","25.0016216666667","6500400","永和區"
"234078","298-R6","2019/11/14 13:43:28","新北市永和區林森路46巷1號","121.52496","25.0048683333333","6500400","永和區"
"234036","336-UY","2019/11/14 13:43:16","新北市永和區民樂街43巷15號","121.528386666667","24.9997516666667","6500400","永和區"
"234062","337-UY","2019/11/14 13:43:25","新北市永和區秀朗路一段192巷6弄14號","121.51908","25.002275","6500400","永和區"
"234084","338-UY","2019/11/14 13:43:22","新北市永和區永亨路127號","121.524603333333","25.00405","6500400","永和區"
"234068","552-UM","2019/11/14 13:43:29","新北市永和區永和路二段234號","121.515751666667","25.0145666666667","6500400","永和區"
"234015","745-BX","2019/11/14 13:43:32","新北市永和區忠孝街26巷8號","121.515466666667","25.0166933333333","6500400","永和區"
"234028","746-BX","2019/11/14 13:43:19","新北市永和區民生路67巷50號","121.525315","24.9974083333333","6500400","永和區"
"234052","KEA-2590","2019/11/14 13:43:28","新北市永和區竹林路65號","121.51862","25.01379","6500400","永和區"
"234005","KED-0605","2019/11/14 13:43:17","新北市永和區永和路一段93號","121.513458333333","25.0074266666667","6500400","永和區"
"234012","KEA-2591","2019/11/14 13:43:22","新北市永和區仁愛路188號","121.50978","25.012515","6500400","永和區"
"234060","AAD-866","2019/11/14 13:43:22","新北市永和區中正路362號","121.517693333333","25.000755","6500400","永和區"
"234040","862-TW","2019/11/14 13:43:14","新北市永和區中和路305巷2弄1號","121.50663","25.000095","6500400","永和區"
"234048","863-TW","2019/11/14 13:43:18","新北市永和區環河西路一段109號","121.511055","25.0173166666667","6500400","永和區"
"234010","9373-KE","2019/11/14 13:43:25","新北市永和區保福路二段133巷2號","121.509511666667","25.013815","6500400","永和區"
"248015","026-BX","2019/11/14 13:43:14","新北市五股區凌雲路一段133巷27-3號","121.448633333333","25.1008866666667","6501500","五股區"
"248007","KED-0815","2019/11/14 13:43:18","新北市五股區中興路一段153號","121.46511","25.0735816666667","6501500","五股區"
"248017","KED-0813","2019/11/14 13:43:27","新北市五股區民義路二段48巷2-10號","121.415635","25.10184","6501500","五股區"
"248011","247-BX","2019/11/14 13:43:29","新北市五股區成泰路三段2巷1-11號","121.441376666667","25.086805","6501500","五股區"
"248009","272-BY","2019/11/14 13:43:29","新北市五股區水碓三路63號","121.430323333333","25.0716116666667","6501500","五股區"
"248003","677-BX","2019/11/14 13:43:11","新北市五股區民義路二段52-22號","121.409538333333","25.1052","6501500","五股區"
"248001","678-BX","2019/11/14 13:43:16","新北市五股區成泰路三段433號","121.449775","25.0978216666667","6501500","五股區"
"234022","9380-KE","2019/11/14 13:43:27","新北市永和區中正路662巷10號","121.517538333333","25.0087883333333","6500400","永和區"
"234076","969-R7","2019/11/14 13:43:13","新北市永和區民權路3號","121.520285","24.99852","6500400","永和區"
"234072","AAC-211","2019/11/14 13:43:18","新北市永和區竹林路179巷37號","121.522191666667","25.01026","6500400","永和區"
"234066","AAC-212","2019/11/14 13:43:19","新北市永和區中山路一段153號","121.509988333333","25.0093483333333","6500400","永和區"
"234001","AAC-295","2019/11/14 13:43:15","新北市永和區自由街58號","121.513866666667","25.0059566666667","6500400","永和區"
"244003","248-BX","2019/11/14 13:43:22","新北市林口區瑞平里7鄰52號","121.341451666667","25.12446","6501700","林口區"
"243004","AAD-798","2019/11/14 13:43:28","新北市泰山區福興三街13號","121.43442","25.057815","6501600","泰山區"
"243008","421-VK","2019/11/14 13:43:15","新北市泰山區泰林路二段241號","121.43205","25.0621133333333","6501600","泰山區"
"243003","KEA-2216","2019/11/14 13:43:15","新北市泰山區黎明路6號","121.420913333333","25.06202","6501600","泰山區"
"243007","680-BX","2019/11/14 13:43:19","新北市泰山區美寧街54號","121.430516666667","25.0645383333333","6501600","泰山區"
"231030","002-UM","2019/11/14 13:43:14","新北市新店區安康路一段104號","121.527253333333","24.962485","6500600","新店區"
"231005","046-UY","2019/11/14 13:43:30","新北市新店區寶中路85號","121.54787","24.98067","6500600","新店區"
"231029","106-UY","2019/11/14 13:43:27","新北市新店區安康路二段214號","121.509876666667","24.95939","6500600","新店區"
"231018","107-UY","2019/11/14 13:43:15","新北市新店區中央路69號","121.532441666667","24.97682","6500600","新店區"
"231013","108-UY","2019/11/14 13:43:20","新北市新店區二十張路92號","121.536275","24.9798","6500600","新店區"
"231036","110-UY","2019/11/14 13:43:23","新北市新店區安祥路147巷30號","121.475885","24.9564733333333","6500600","新店區"
"231031","256-BX","2019/11/14 13:43:13","新北市新店區莒光路44巷21弄12-1號","121.521893333333","24.9562","6500600","新店區"
"231023","260-TV","2019/11/14 13:43:12","新北市新店區北宜路一段26號","121.537735","24.9569916666667","6500600","新店區"
"231003","268-BY","2019/11/14 13:43:19","新北市新店區中興路一段284號","121.545783333333","24.96894","6500600","新店區"
"231035","278-BY","2019/11/14 13:43:23","新北市新店區安忠路57巷5-1號","121.513458333333","24.9591416666667","6500600","新店區"
"231017","AAD-862","2019/11/14 13:43:13","新北市新店區竹林路2巷27弄11號","121.550983333333","24.950865","6500600","新店區"
"231006","355-BY","2019/11/14 13:43:16","新北市新店區北宜路一段75號","121.538483333333","24.9562683333333","6500600","新店區"
"231038","3712-VJ","2019/11/14 13:43:15","新北市新店區安華路30巷1號","121.519546666667","24.95927","6500600","新店區"
"231027","3713-VJ","2019/11/14 13:43:12","新北市新店區國校路76-1號","121.53857","24.9531166666667","6500600","新店區"
"231024","4716-K9","2019/11/14 13:43:19","新北市新店區華興街15號","121.537815","24.9694216666667","6500600","新店區"
"231025","4715-K9","2019/11/14 13:43:15","新北市新店區中央路208號","121.530133333333","24.9739216666667","6500600","新店區"
"231021","513-UM","2019/11/14 13:43:17","新北市新店區新烏路一段58-5號","121.546138333333","24.94905","6500600","新店區"
"231002","619-UM","2019/11/14 13:43:19","新北市新店區中央三街127號","121.524126666667","24.9768233333333","6500600","新店區"
"231034","641-BX","2019/11/14 13:43:17","新北市新店區達觀路14巷1-3號","121.503971666667","24.94224","6500600","新店區"
"231011","KED-0819","2019/11/14 13:43:22","新北市新店區德正街27巷20號","121.545398333333","24.9714983333333","6500600","新店區"
"231010","719-UM","2019/11/14 13:43:18","新北市新店區平等街46巷2號","121.53631","24.973285","6500600","新店區"
"231026","720-UM","2019/11/14 13:43:23","新北市新店區光明街227號","121.54023","24.9642783333333","6500600","新店區"
"231028","897-TW","2019/11/14 13:43:24","新北市新店區安和路二段68-6號","121.518326666667","24.9682916666667","6500600","新店區"
"231001","898-TW","2019/11/14 13:43:23","新北市新店區中正路397號","121.534516666667","24.9772483333333","6500600","新店區"
"231004","899-TW","2019/11/14 13:43:17","新北市新店區北新路二段68號","121.542945","24.9723566666667","6500600","新店區"
"231037","AKT-0513","2019/11/14 13:43:21","新北市新店區安康路三段359巷12弄16號","121.484056666667","24.949535","6500600","新店區"
"235030","003-UY","2019/11/14 13:43:14","新北市中和區水源路34巷6號","121.50469","25.0031216666667","6500300","中和區"
"235028","005-UY","2019/11/14 13:43:16","新北市中和區連勝街28號","121.498325","24.9979583333333","6500300","中和區"
"235027","006-UY","2019/11/14 13:43:19","新北市中和區連城路315號","121.489298333333","24.9962866666667","6500300","中和區"
"235020","096-UM","2019/11/14 13:43:13","新北市中和區立德街329號","121.481605","25.0104116666667","6500300","中和區"
"235003","097-UM","2019/11/14 13:43:20","新北市中和區大勇街29巷14號","121.515821666667","24.9947383333333","6500300","中和區"
"235029","098-UM","2019/11/14 13:43:22","新北市中和區中山路二段2巷45弄7號","121.502178333333","25.0067483333333","6500300","中和區"
"235004","150-BY","2019/11/14 13:43:23","新北市中和區安平路59號","121.50949","24.9951816666667","6500300","中和區"
"235022","151-BY","2019/11/14 13:43:11","新北市中和區員山路130號","121.48117","24.9962916666667","6500300","中和區"
"235019","183-VK","2019/11/14 13:43:23","新北市中和區德光路77巷19號","121.469921666667","25.0033533333333","6500300","中和區"
"235002","185-VK","2019/11/14 13:43:15","新北市中和區立人街14巷7弄1號","121.519255","24.99485","6500300","中和區"
"235031","255-BX","2019/11/14 13:43:17","新北市中和區新生街242巷1弄3號","121.483353333333","24.9977066666667","6500300","中和區"
"235008","293-VK","2019/11/14 13:43:25","新北市中和區景安路220巷1弄5號","121.50332","24.9905583333333","6500300","中和區"
"235036","301-VK","2019/11/14 13:43:18","新北市中和區連城路10號","121.498978333333","25.002385","6500300","中和區"
"235007","352-BY","2019/11/14 13:43:14","新北市中和區景平路59-15號","121.520961666667","24.99079","6500300","中和區"
"235006","KEA-2878","2019/11/14 13:43:19","新北市中和區秀朗路三段135巷5弄2號","121.525528333333","24.9920683333333","6500300","中和區"
"235014","4979-A6","2019/11/14 13:43:19","新北市中和區景新街496巷30弄7號","121.513173333333","24.985535","6500300","中和區"
"235033","4980-A6","2019/11/14 13:43:19","新北市中和區南山路111巷3號","121.502591666667","24.997765","6500300","中和區"
"235034","558-UM","2019/11/14 13:43:20","新北市中和區南山路6號","121.50199","24.9985983333333","6500300","中和區"
"235009","565-BX","2019/11/14 13:43:20","新北市中和區興南路一段67號","121.51034","24.989375","6500300","中和區"
"235024","KED-0823","2019/11/14 13:43:27","新北市中和區民治街27巷1號","121.47553","25.001565","6500300","中和區"
"235018","640-BX","2019/11/14 13:43:26","新北市中和區民享街29-1號","121.474003333333","25.004315","6500300","中和區"
"235035","647-TV","2019/11/14 13:43:18","新北市中和區光環路二段309號","121.487163333333","25.01382","6500300","中和區"
"235011","732-UM","2019/11/14 13:43:30","新北市中和區興南路二段121號","121.50553","24.9841966666667","6500300","中和區"
"235010","733-UM","2019/11/14 13:43:18","新北市中和區仁愛街36巷24號","121.510973333333","24.9871333333333","6500300","中和區"
"235026","800-TS","2019/11/14 13:43:16","新北市中和區中山路二段340巷36號","121.493478333333","25.00385","6500300","中和區"
"235021","801-TS","2019/11/14 13:43:22","新北市中和區民利街14巷5弄20號","121.479746666667","24.9994133333333","6500300","中和區"
"235005","802-TS","2019/11/14 13:43:16","新北市中和區永貞路249巷8號","121.512668333333","25.003775","6500300","中和區"
"235016","805-TS","2019/11/14 13:43:19","新北市中和區興南路三段94號","121.48914","24.9734783333333","6500300","中和區"
"235012","896-TW","2019/11/14 13:43:20","新北市中和區南山路130號","121.503753333333","24.992835","6500300","中和區"
"235017","900-TW","2019/11/14 13:43:23","新北市中和區華順街103巷12號","121.46582","24.9973033333333","6500300","中和區"
"235015","157-BY","2019/11/14 13:43:29","新北市中和區華新街109巷22號","121.50786","24.9802816666667","6500300","中和區"
"235001","AAC-213","2019/11/14 13:43:19","新北市中和區秀朗路三段128巷25弄6號","121.524026666667","24.993965","6500300","中和區"
"235023","AAC-215","2019/11/14 13:43:20","新北市中和區錦和路354巷5號","121.490251666667","24.9915333333333","6500300","中和區"
"220104","015-TV","2019/11/14 13:43:18","新北市板橋區南雅西路二段210號","121.451925","25.0151216666667","6500100","板橋區"
"220013","072-UY","2019/11/14 13:43:17","新北市板橋區成都街43號","121.46135","25.0047766666667","6500100","板橋區"
"220034","073-UY","2019/11/14 13:43:18","新北市板橋區館前西路168-1號","121.451936666667","25.0085233333333","6500100","板橋區"
"220105","075-UY","2019/11/14 13:43:14","新北市板橋區民生路二段161巷5號","121.470065","25.0196966666667","6500100","板橋區"
"220017","AAD-861","2019/11/14 13:43:17","新北市板橋區華興街32號","121.458863333333","25.0048966666667","6500100","板橋區"
"247005","893-R6","2019/11/14 13:43:21","新北市蘆洲區中山二路286號","121.468891666667","25.077855","6501400","蘆洲區"
"247019","546-UM","2019/11/14 13:43:26","新北市蘆洲區中正路520巷9號","121.462363333333","25.0995466666667","6501400","蘆洲區"
"247015","500-BY","2019/11/14 13:43:22","新北市蘆洲區中山二路134號","121.471515","25.081465","6501400","蘆洲區"
"247003","341-TH","2019/11/14 13:43:29","新北市蘆洲區中原路35號","121.459981666667","25.082695","6501400","蘆洲區"
"247013","056-VK","2019/11/14 13:43:25","新北市蘆洲區中正路505號","121.46168","25.09708","6501400","蘆洲區"
"247007","002-UY","2019/11/14 13:43:25","新北市蘆洲區國道路二段25號","121.475226666667","25.07373","6501400","蘆洲區"
"247001","001-UY","2019/11/14 13:43:29","新北市五股區成洲一路25號","121.449651666667","25.094785","6501400","蘆洲區"
"235013","251-BX","2019/11/14 13:43:12","新北市中和區明義街11巷12弄4號","121.503553333333","24.994725","6500300","中和區"
"228005","097-TW","2019/11/14 13:43:17","新北市貢寮區美豐里土地公嶺7-1號","121.899365","25.05521","6502600","貢寮區"
"228004","212-TW","2019/11/14 13:43:10","新北市貢寮區龍崗里嵩陽街12號","121.903455","25.0118333333333","6502600","貢寮區"
"253003","6232-TK","2019/11/14 13:43:20","新北市石門區內石門17號","121.57344","25.2746533333333","6502200","石門區"
"253004","6251-TK","2019/11/14 13:43:19","新北市石門區草埔尾31-1號","121.603116666667","25.2649133333333","6502200","石門區"
"253002","637-UY","2019/11/14 13:43:27","新北市石門區尖山湖3-1號","121.564555","25.2412283333333","6502200","石門區"
"253001","KEC-0718","2019/11/14 13:43:25","新北市三芝區新庄里新庄子96號","121.515535","25.2756516666667","6502200","石門區"
"207002","749-BX","2019/11/14 13:43:29","新北市萬里區崁腳里崁腳路166號","121.645118333333","25.15586","6502800","萬里區"
"252005","073-UM","2019/11/14 13:43:30","新北市三芝區圓山里內柑宅22-2號","121.537093333333","25.2174466666667","6502100","三芝區"
"207001","662-BX","2019/11/14 13:43:22","新北市萬里區磺潭里公館崙21號","121.637581666667","25.2139283333333","6502800","萬里區"
"236029","253-BX","2019/11/14 13:43:16","新北市土城區城林路6巷80號","121.438526666667","24.9797816666667","6501300","土城區"
"236012","270-VK","2019/11/14 13:43:26","新北市土城區城林路6巷80號","121.438625","24.979735","6501300","土城區"
"236032","271-VK","2019/11/14 13:43:16","新北市土城區城林路6巷80號","121.438483333333","24.979745","6501300","土城區"
"247011","KED-0683","2019/11/14 13:43:21","新北市五股區新五路三段179號","121.448636666667","25.0917883333333","6501400","蘆洲區"
"236068","KEA-2877","2019/11/14 13:43:25","新北市土城區城林路6巷80號","121.438681666667","24.9798233333333","6501300","土城區"
"236017","401-BY","2019/11/14 13:43:15","新北市土城區城林路6巷80號","121.438633333333","24.9797933333333","6501300","土城區"
"236057","912-UM","2019/11/14 13:43:24","新北市土城區城林路6巷80號","121.438438333333","24.9797466666667","6501300","土城區"
"220027","145-BY","2019/11/14 13:43:15","新北市板橋區南雅西路二段192巷3號","121.452075","25.0144066666667","6500100","板橋區"
"220028","200-UY","2019/11/14 13:43:29","新北市板橋區大觀路二段431-1號","121.441366666667","24.9950066666667","6500100","板橋區"
"220030","610-BX","2019/11/14 13:43:23","新北市板橋區篤行路二段71號","121.43167","24.992075","6500100","板橋區"
"220004","276-BY","2019/11/14 13:43:17","新北市板橋區四川路一段53號","121.459755","25.0063366666667","6500100","板橋區"
"220020","277-BY","2019/11/14 13:43:27","新北市板橋區金門街31巷31號","121.434148333333","24.9934","6500100","板橋區"
"220050","280-UM","2019/11/14 13:43:33","新北市板橋區民生路二段188號","121.470138333333","25.020375","6500100","板橋區"
"220043","283-UM","2019/11/14 13:43:18","新北市板橋區民生路二段56-6號","121.470961666667","25.01928","6500100","板橋區"
"220019","283-VK","2019/11/14 13:43:28","新北市板橋區四川路一段314號","121.458485","25.000225","6500100","板橋區"
"220031","286-VK","2019/11/14 13:43:28","新北市板橋區大觀路二段18號","121.446758333333","25.0034583333333","6500100","板橋區"
"220029","287-VK","2019/11/14 13:43:17","新北市板橋區大觀路一段51號","121.447573333333","25.0063183333333","6500100","板橋區"
"220039","288-VK","2019/11/14 13:43:09","新北市板橋區民生路三段105號","121.466598333333","25.0250666666667","6500100","板橋區"
"220009","293-UM","2019/11/14 13:43:27","新北市板橋區太和街5巷2號","121.473691666667","25.0200233333333","6500100","板橋區"
"220032","296-UM","2019/11/14 13:43:20","新北市板橋區大觀路二段148巷72號","121.44179","25.0008283333333","6500100","板橋區"
"220023","303-R5","2019/11/14 13:43:10","新北市板橋區華東街328號","121.452786666667","25.003245","6500100","板橋區"
"220010","305-R5","2019/11/14 13:43:28","新北市板橋區民生路二段161巷9號","121.470275","25.01959","6500100","板橋區"
"220041","307-R5","2019/11/14 13:43:23","新北市板橋區漢生東路21-1號","121.465061666667","25.0171416666667","6500100","板橋區"
"220047","317-R6","2019/11/14 13:43:22","新北市板橋區民生路二段120號","121.470728333333","25.0193833333333","6500100","板橋區"
"220038","487-VK","2019/11/14 13:43:15","新北市板橋區文化路二段126號","121.470055","25.02651","6500100","板橋區"
"220037","491-VK","2019/11/14 13:43:11","新北市板橋區民生路二段161巷1號","121.470291666667","25.0199833333333","6500100","板橋區"
"220052","561-BX","2019/11/14 13:43:16","新北市板橋區民生路二段80號","121.471905","25.01833","6500100","板橋區"
"220011","609-BX","2019/11/14 13:43:32","新北市板橋區民生路一段36號","121.474433333333","25.0144116666667","6500100","板橋區"
"220040","637-BX","2019/11/14 13:43:21","新北市板橋區民生路二段89-6號","121.470876666667","25.0191966666667","6500100","板橋區"
"220005","686-BX","2019/11/14 13:43:22","新北市板橋區館前東路53號","121.461288333333","25.00753","6500100","板橋區"
"220025","687-BX","2019/11/14 13:43:28","新北市板橋區沙崙街49號","121.430198333333","24.9942566666667","6500100","板橋區"
"220042","689-BX","2019/11/14 13:43:26","新北市板橋區民生路二段161巷1號","121.470275","25.0201233333333","6500100","板橋區"
"220002","741-BX","2019/11/14 13:42:34","新北市板橋區館前西路47號","121.458005","25.006775","6500100","板橋區"
"220051","KEA-2699","2019/11/14 13:43:13","新北市板橋區三民路一段102號","121.47917","25.0211266666667","6500100","板橋區"
"220003","827-TW","2019/11/14 13:43:25","新北市板橋區忠孝路86號","121.461568333333","25.00206","6500100","板橋區"
"220016","830-TW","2019/11/14 13:43:26","新北市板橋區萬板路161號","121.473933333333","25.0234983333333","6500100","板橋區"
"220022","895-R6","2019/11/14 13:43:32","新北市板橋區南門街34號","121.457046666667","25.0084516666667","6500100","板橋區"
"220021","985-R7","2019/11/14 13:43:30","新北市板橋區南雅南路二段1-1號","121.454741666667","25.0038","6500100","板橋區"
"220046","AAC-210","2019/11/14 13:43:22","新北市板橋區民生路二段188號","121.470163333333","25.020355","6500100","板橋區"
"220012","AAC-253","2019/11/14 13:43:25","新北市板橋區中山路一段293-2號","121.470806666667","25.014365","6500100","板橋區"
"235032","KEA-2873","2019/11/14 13:43:24","新北市中和區圓通路265巷30號","121.495756666667","24.99255","6500300","中和區"
"235025","KEA-2875","2019/11/14 13:43:19","新北市中和區民享街54巷16弄2號","121.473283333333","25.002615","6500300","中和區"
