"lineid","car","time","location","longitude","latitude","cityid","cityname"
"244004","248-BX","2019/11/14 15:32:15","新北市林口區粉寮路二段160巷28號","121.405181666667","25.09081","6501700","林口區"
"231030","002-UM","2019/11/14 15:43:25","新北市新店區新和街116巷13號","121.521481666667","24.9859466666667","6500600","新店區"
"231029","106-UY","2019/11/14 15:43:27","新北市新店區安康路三段2-1號","121.493453333333","24.953505","6500600","新店區"
"231018","107-UY","2019/11/14 15:43:15","新北市新店區中正路663巷7弄15號","121.532968333333","24.99008","6500600","新店區"
"231013","108-UY","2019/11/14 15:43:31","新北市新店區永業路81巷42號","121.529906666667","24.9483616666667","6500600","新店區"
"231039","187-VK","2019/11/14 15:43:32","新北市新店區寶中路47號","121.545405","24.9792516666667","6500600","新店區"
"231031","256-BX","2019/11/14 15:43:33","新北市新店區雙城路212號","121.497293333333","24.9411266666667","6500600","新店區"
"231023","260-TV","2019/11/14 15:43:32","新北市新店區中興路一段255號","121.544516666667","24.967045","6500600","新店區"
"231003","268-BY","2019/11/14 15:43:19","新北市新店區寶興路60巷4號","121.54981","24.9718816666667","6500600","新店區"
"231035","278-BY","2019/11/14 15:43:23","新北市新店區安興路83-3號","121.515436666667","24.9756216666667","6500600","新店區"
"231017","AAD-862","2019/11/14 15:43:13","新北市新店區北宜路一段192巷4-1號","121.542026666667","24.9529183333333","6500600","新店區"
"231038","3712-VJ","2019/11/14 15:43:15","新北市新店區安康路二段230號","121.509426666667","24.9594733333333","6500600","新店區"
"231021","513-UM","2019/11/14 15:43:17","新北市新店區金興路36號","121.553108333333","24.9309416666667","6500600","新店區"
"231034","641-BX","2019/11/14 15:43:17","新北市新店區玫瑰路59巷2號","121.495901666667","24.9457616666667","6500600","新店區"
"231011","KED-0819","2019/11/14 15:43:32","新北市新店區文化路13號","121.542998333333","24.979365","6500600","新店區"
"231046","719-UM","2019/11/14 15:43:29","新北市新店區安一路一段1-1號","121.519501666667","24.9612283333333","6500600","新店區"
"231026","720-UM","2019/11/14 15:43:24","新北市新店區中正路379號","121.534766666667","24.9767833333333","6500600","新店區"
"231004","899-TW","2019/11/14 15:43:16","新北市新店區民族路108號","121.53815","24.9773633333333","6500600","新店區"
"231037","AKT-0513","2019/11/14 15:43:20","新北市新店區安興路91巷16號","121.512808333333","24.9753383333333","6500600","新店區"
"241028","022-UY","2019/11/14 15:43:20","新北市三重區中正南路47號","121.493988333333","25.05967","6500200","三重區"
"241015","062-VK","2019/11/14 15:43:30","新北市三重區重新路四段121號","121.485333333333","25.0521683333333","6500200","三重區"
"241017","063-VK","2019/11/14 15:43:14","新北市三重區大仁街22號","121.491536666667","25.0636133333333","6500200","三重區"
"241024","065-VK","2019/11/14 15:43:14","新北市三重區重新路四段121號","121.48499","25.0526316666667","6500200","三重區"
"241007","066-VK","2019/11/14 15:43:31","新北市三重區重新路四段121號","121.484953333333","25.051895","6500200","三重區"
"241014","316-R6","2019/11/14 15:43:22","新北市三重區重新路四段121號","121.4852","25.0521833333333","6500200","三重區"
"241016","266-UM","2019/11/14 15:43:23","新北市三重區重新路四段121號","121.485051666667","25.05197","6500200","三重區"
"241018","268-UM","2019/11/14 15:43:22","新北市三重區重新路四段121號","121.485288333333","25.0521966666667","6500200","三重區"
"241032","269-UM","2019/11/14 15:43:31","新北市三重區三陽路100巷3弄13號","121.483046666667","25.058155","6500200","三重區"
"241013","270-UM","2019/11/14 15:43:25","新北市三重區正義北路326號","121.49483","25.0705216666667","6500200","三重區"
"241020","478-VK","2019/11/14 15:43:14","新北市三重區忠孝路二段61號","121.485046666667","25.0705283333333","6500200","三重區"
"241023","545-UM","2019/11/14 15:43:19","新北市三重區忠孝路三段84巷16-1號","121.48073","25.06472","6500200","三重區"
"241033","557-UM","2019/11/14 15:43:20","新北市三重區重新路五段328號","121.47656","25.0480716666667","6500200","三重區"
"241012","743-BX","2019/11/14 15:43:27","新北市三重區自強路一段68號","121.497038333333","25.0666216666667","6500200","三重區"
"241005","KED-0670","2019/11/14 15:43:16","新北市三重區重新路四段101-30號","121.48366","25.0536016666667","6500200","三重區"
"241029","942-UM","2019/11/14 15:43:20","新北市三重區同安東街76號","121.498531666667","25.0574766666667","6500200","三重區"
"235004","150-BY","2019/11/14 15:43:23","新北市新店區安康路一段355-3號","121.519678333333","24.962705","6500300","中和區"
"235019","183-VK","2019/11/14 15:43:11","新北市八里區中華路三段62號","121.39373","25.140745","6500300","中和區"
"235026","800-TS","2019/11/14 15:43:16","新北市中和區立業路59號","121.492261666667","25.0073133333333","6500300","中和區"
"235023","AAC-215","2019/11/14 15:43:20","新北市中和區員山路28-27號","121.480943333333","24.9867866666667","6500300","中和區"
"247006","893-R6","2019/11/14 15:36:48","新北市五股區中興路三段163號","121.449348333333","25.080835","6501400","蘆洲區"
"224007","285-BY","2019/11/14 15:43:31","新北市瑞芳區傑魚坑路245巷2-1號","121.787663333333","25.10644","6501200","瑞芳區"
"224005","271-BY","2019/11/14 15:43:34","新北市瑞芳區中山路67號","121.804146666667","25.1062","6501200","瑞芳區"
"227001","642-TC","2019/11/14 15:43:31","新北市雙溪區新基里中華路115號","121.865815","25.0392","6502500","雙溪區"
"227002","400-TW","2019/11/14 15:43:18","新北市雙溪區平林里外平林8號","121.860448333333","25.0383816666667","6502500","雙溪區"
"236040","KED-0685","2019/11/14 15:43:12","新北市土城區學享街31號","121.451568333333","24.987355","6501300","土城區"
"236074","166-UM","2019/11/14 15:43:20","新北市土城區溪頭路73號","121.411398333333","24.9544066666667","6501300","土城區"
"236024","269-VK","2019/11/14 15:43:32","新北市土城區中央路一段249巷10弄3號","121.445831666667","24.9853833333333","6501300","土城區"
"236012","270-VK","2019/11/14 15:43:26","新北市土城區四川路31號","121.455033333333","24.9956583333333","6501300","土城區"
"236068","KEA-2877","2019/11/14 15:43:24","新北市土城區大安路37-1號","121.432723333333","24.9661166666667","6501300","土城區"
"236017","401-BY","2019/11/14 15:43:15","新北市土城區","121.473005","24.9882816666667","6501300","土城區"
"236045","752-BX","2019/11/14 15:43:30","新北市土城區金城路三段133號","121.468063333333","24.9880766666667","6501300","土城區"
"236057","912-UM","2019/11/14 15:43:27","新北市土城區中央路二段84號","121.442398333333","24.9788833333333","6501300","土城區"
"236054","AAC-216","2019/11/14 15:43:12","新北市土城區中華路一段116號","121.443693333333","24.9862383333333","6501300","土城區"
"238002","755-BX","2019/11/14 15:43:20","新北市樹林區長壽街80-5號","121.420721666667","24.99488","6500700","樹林區"
"238010","601-UM","2019/11/14 15:43:23","新北市樹林區龍興街31巷15號","121.403593333333","25.0161016666667","6500700","樹林區"
"238011","5061-A6","2019/11/14 15:43:29","新北市樹林區中山路二段209號","121.403663333333","24.9770616666667","6500700","樹林區"
"238005","KEA-2217","2019/11/14 15:43:29","新北市樹林區中華路71號","121.423175","24.9831216666667","6500700","樹林區"
"238009","KEA-2213","2019/11/14 15:43:29","新北市樹林區太順街60號","121.417851666667","24.9793416666667","6500700","樹林區"
"238008","KEA-2539","2019/11/14 15:43:20","新北市樹林區柑園街二段172號","121.381848333333","24.9541766666667","6500700","樹林區"
"238012","303-VK","2019/11/14 15:43:22","新北市樹林區中山路二段38號","121.417165","24.9848","6500700","樹林區"
"238004","283-BY","2019/11/14 15:43:14","新北市樹林區光興街18號","121.412403333333","25.0029316666667","6500700","樹林區"
"238001","282-BY","2019/11/14 15:43:24","新北市樹林區潭興街141巷1號","121.425495","24.999465","6500700","樹林區"
"238007","268-VK","2019/11/14 15:43:31","新北市樹林區三俊街253-1號","121.422216666667","25.01452","6500700","樹林區"
"238013","172-UY","2019/11/14 15:43:30","新北市樹林區中洲街30巷6弄6號","121.397256666667","24.9713566666667","6500700","樹林區"
"238003","169-UY","2019/11/14 15:43:31","新北市樹林區啟智街173巷10號","121.416088333333","24.98722","6500700","樹林區"
