"lineid","car","time","location","longitude","latitude","cityid","cityname"
"249005","172-UM","2019/11/14 16:43:31","新北市八里區大堀湖1-5號","121.422991666667","25.154395","6502300","八里區"
"249002","305-UY","2019/11/14 16:41:14","新北市八里區大堀湖7-3號","121.425871666667","25.1514916666667","6502300","八里區"
"249003","593-UM","2019/11/14 16:43:13","新北市八里區中山路二段356巷56號","121.400568333333","25.1504683333333","6502300","八里區"
"244007","080-UY","2019/11/14 16:43:30","新北市林口區粉寮路二段66-1號","121.403973333333","25.087635","6501700","林口區"
"231046","719-UM","2019/11/14 16:42:05","新北市新店區灣潭路3-5號","121.538065","24.9507966666667","6500600","新店區"
"241011","013-R5","2019/11/14 16:43:21","新北市三重區仁愛街51號","121.496565","25.0719283333333","6500200","三重區"
"241028","022-UY","2019/11/14 16:43:20","新北市三重區重新路三段25號","121.494771666667","25.061475","6500200","三重區"
"241008","059-VK","2019/11/14 16:43:20","新北市三重區永安北路一段17巷24-1號","121.477435","25.0752583333333","6500200","三重區"
"241031","061-VK","2019/11/14 16:43:29","新北市三重區重新路四段41巷17號","121.487118333333","25.058975","6500200","三重區"
"241015","062-VK","2019/11/14 16:43:30","新北市三重區文化北路41-2號","121.498925","25.065275","6500200","三重區"
"241017","063-VK","2019/11/14 16:43:14","新北市三重區中正北路25巷18-1號","121.493428333333","25.0632866666667","6500200","三重區"
"241024","065-VK","2019/11/14 16:43:14","新北市三重區中正北路315巷6弄70號","121.476735","25.07241","6500200","三重區"
"241007","066-VK","2019/11/14 16:43:32","新北市三重區三和路四段177-1號","121.482838333333","25.0788633333333","6500200","三重區"
"241002","090-VK","2019/11/14 16:43:26","新北市三重區仁義街241巷29號","121.497086666667","25.0829983333333","6500200","三重區"
"241003","091-VK","2019/11/14 16:43:22","新北市三重區五華街71巷25號","121.493128333333","25.08315","6500200","三重區"
"241006","262-UM","2019/11/14 16:43:26","新北市三重區力行路二段93號","121.482705","25.07583","6500200","三重區"
"241014","316-R6","2019/11/14 16:43:22","新北市三重區長壽街91號","121.502758333333","25.068545","6500200","三重區"
"241016","266-UM","2019/11/14 16:43:23","新北市三重區大同北路95巷9-1號","121.494731666667","25.0642233333333","6500200","三重區"
"241009","267-UM","2019/11/14 16:43:26","新北市三重區三和路四段203巷100號","121.484621666667","25.0802083333333","6500200","三重區"
"241018","268-UM","2019/11/14 16:39:21","新北市三重區正義北路338巷48號","121.493158333333","25.070375","6500200","三重區"
"241032","269-UM","2019/11/14 16:43:31","新北市三重區新北大道一段19號","121.486445","25.0613566666667","6500200","三重區"
"241013","270-UM","2019/11/14 16:43:25","新北市三重區三和路三段101巷106號","121.497531666667","25.0733433333333","6500200","三重區"
"241025","271-UM","2019/11/14 16:43:30","新北市三重區中正北路534號","121.47156","25.07181","6500200","三重區"
"241030","KED-0822","2019/11/14 16:43:19","新北市三重區環河南路221巷3號","121.492343333333","25.052125","6500200","三重區"
"241004","475-VK","2019/11/14 16:43:12","新北市三重區五福街52號","121.49173","25.080855","6500200","三重區"
"241020","478-VK","2019/11/14 16:43:34","新北市三重區忠孝路二段34號","121.485741666667","25.0709916666667","6500200","三重區"
"241026","480-VK","2019/11/14 16:43:22","新北市三重區文化南路7號","121.499975","25.0623583333333","6500200","三重區"
"241023","545-UM","2019/11/14 16:43:19","新北市三重區洛陽街58號","121.481496666667","25.0631116666667","6500200","三重區"
"241001","547-UM","2019/11/14 16:43:25","新北市三重區仁政街76巷15號","121.491883333333","25.0771333333333","6500200","三重區"
"241033","557-UM","2019/11/14 16:43:20","新北市三重區光華路11號","121.470426666667","25.0598683333333","6500200","三重區"
"241019","KEA-2593","2019/11/14 16:43:23","新北市三重區力行路一段163號","121.484646666667","25.069295","6500200","三重區"
"241012","743-BX","2019/11/14 16:43:27","新北市三重區三和路三段101巷152號","121.499013333333","25.07383","6500200","三重區"
"241022","KED-0820","2019/11/14 16:43:23","新北市三重區中華路109號","121.483528333333","25.06351","6500200","三重區"
"241005","KED-0670","2019/11/14 16:43:23","新北市三重區仁華街62巷19號","121.483768333333","25.0838033333333","6500200","三重區"
"241029","942-UM","2019/11/14 16:43:20","新北市三重區集美街210-2號","121.491301666667","25.0542733333333","6500200","三重區"
"247006","893-R6","2019/11/14 16:43:29","新北市五股區新五路二段345號","121.444021666667","25.0877666666667","6501400","蘆洲區"
"247016","500-BY","2019/11/14 16:43:19","新北市蘆洲區環堤大道365號","121.455681666667","25.0974233333333","6501400","蘆洲區"
"247014","056-VK","2019/11/14 16:43:11","新北市蘆洲區三民路91-1號","121.47361","25.0844083333333","6501400","蘆洲區"
"228002","663-BX","2019/11/14 16:43:34","新北市貢寮區貢寮里朝陽街54號","121.910488333333","25.0216616666667","6502600","貢寮區"
"224007","285-BY","2019/11/14 16:43:31","新北市瑞芳區中央路48巷162號","121.759373333333","25.10347","6501200","瑞芳區"
"224009","275-VK","2019/11/14 16:43:23","新北市瑞芳區民權街3-1號","121.809288333333","25.108365","6501200","瑞芳區"
"224005","271-BY","2019/11/14 16:43:26","新北市瑞芳區洞頂路157號","121.861365","25.1224966666667","6501200","瑞芳區"
"227001","642-TC","2019/11/14 16:43:26","新北市雙溪區牡丹里聖南16號","121.858058333333","25.0526983333333","6502500","雙溪區"
"227002","400-TW","2019/11/14 16:43:18","新北市雙溪區長源里柑腳8號","121.804681666667","25.0146166666667","6502500","雙溪區"
"251004","009-UM","2019/11/14 16:43:25","新北市淡水區中正路二段31號","121.41931","25.1817016666667","6501000","淡水區"
"251015","KEA-2871","2019/11/14 16:43:22","新北市淡水區水源街一段85-1號","121.44527","25.1723083333333","6501000","淡水區"
"251016","180-VK","2019/11/14 16:43:15","新北市淡水區淡金路二段180-1號","121.44814","25.1837716666667","6501000","淡水區"
"251013","182-VK","2019/11/14 16:43:20","新北市淡水區北新路三段171-1號","121.49223","25.19158","6501000","淡水區"
"251014","577-R6","2019/11/14 16:43:20","新北市淡水區淡金路四段478號","121.452435","25.22392","6501000","淡水區"
"251011","650-BX","2019/11/14 16:43:16","新北市淡水區重建街82號","121.440073333333","25.1723966666667","6501000","淡水區"
"252002","178-VK","2019/11/14 16:43:24","新北市三芝區芝柏路2號","121.512318333333","25.255105","6502100","三芝區"
"233002","762-BX","2019/11/14 16:43:24","新北市烏來區啦卡路70-1號","121.565273333333","24.8559183333333","6502900","烏來區"
"247012","KED-0683","2019/11/14 16:43:27","新北市五股區中興路三段163號","121.449231666667","25.08077","6501400","蘆洲區"
"252001","KED-0821","2019/11/14 16:43:29","新北市三芝區茂長里陳厝坑2-2號","121.507801666667","25.2659583333333","6502100","三芝區"
"242004","751-BX","2019/11/14 16:43:31","新北市新莊區新泰路255巷83號","121.44235","25.0387183333333","6500500","新莊區"
"238023","601-UM","2019/11/14 16:43:23","新北市樹林區保安街二段24-1號","121.415496666667","25.0019116666667","6500700","樹林區"
"238025","303-VK","2019/11/14 16:43:21","新北市樹林區中正路22-1號","121.427853333333","24.999455","6500700","樹林區"
"238001","282-BY","2019/11/14 16:43:24","新北市樹林區大慶街99-1號","121.427711666667","24.99974","6500700","樹林區"
"239007","AAC-297","2019/11/14 16:43:20","新北市鶯歌區二甲路13-16號","121.344991666667","24.935195","6500800","鶯歌區"
"242011","280-VK","2019/11/14 16:43:31","新北市新莊區三和路12-21號","121.441911666667","25.0383266666667","6500500","新莊區"
