"lineid","car","time","location","longitude","latitude","cityid","cityname"
"249005","172-UM","2019/11/14 16:59:30","新北市八里區渡船頭3-7號","121.434125","25.1536366666667","6502300","八里區"
"249001","173-UM","2019/11/14 16:59:19","新北市八里區中山路三段106號","121.391025","25.14221","6502300","八里區"
"249004","303-UY","2019/11/14 16:59:13","新北市八里區忠孝路353號","121.416475","25.1611833333333","6502300","八里區"
"249002","305-UY","2019/11/14 16:59:34","新北市八里區牛寮埔22號","121.432531666667","25.1425033333333","6502300","八里區"
"249003","593-UM","2019/11/14 16:59:33","新北市八里區中山路二段289號","121.401548333333","25.14863","6502300","八里區"
"244007","080-UY","2019/11/14 16:59:30","新北市林口區中華路96號","121.384811666667","25.090425","6501700","林口區"
"244019","402-UM","2019/11/14 16:59:22","新北市林口區仁愛路二段190號","121.380525","25.0738733333333","6501700","林口區"
"244023","483-VK","2019/11/14 16:59:17","新北市林口區粉寮路二段98號","121.404448333333","25.0894383333333","6501700","林口區"
"244009","656-BX","2019/11/14 16:59:31","新北市林口區竹林路458號","121.387958333333","25.0851566666667","6501700","林口區"
"244025","837-TS","2019/11/14 16:59:21","新北市林口區粉寮路一段55號","121.396748333333","25.0778866666667","6501700","林口區"
"231046","719-UM","2019/11/14 16:59:25","新北市新店區灣潭路15-11號","121.541861666667","24.9405733333333","6500600","新店區"
"241011","013-R5","2019/11/14 16:59:23","新北市三重區仁愛街55巷150號","121.499446666667","25.0729866666667","6500200","三重區"
"241028","022-UY","2019/11/14 16:59:20","新北市三重區中正南路43號","121.493806666667","25.0597333333333","6500200","三重區"
"241008","059-VK","2019/11/14 16:59:20","新北市三重區永安北路一段3巷27號","121.477196666667","25.074685","6500200","三重區"
"241031","061-VK","2019/11/14 16:59:29","新北市三重區三寧街41號","121.489978333333","25.06016","6500200","三重區"
"241015","062-VK","2019/11/14 16:59:30","新北市三重區福德北路82號","121.5017","25.0663066666667","6500200","三重區"
"241017","063-VK","2019/11/14 16:59:14","新北市三重區國隆路12巷3號","121.492788333333","25.0637366666667","6500200","三重區"
"241024","065-VK","2019/11/14 16:59:14","新北市三重區力行路二段29號","121.481858333333","25.0727133333333","6500200","三重區"
"241007","066-VK","2019/11/14 16:59:32","新北市三重區溪尾街126巷17號","121.488823333333","25.0793683333333","6500200","三重區"
"241002","090-VK","2019/11/14 16:59:26","新北市三重區仁義街143巷116號","121.499381666667","25.0817166666667","6500200","三重區"
"241003","091-VK","2019/11/14 16:59:22","新北市三重區五華街141巷58號","121.493598333333","25.0867083333333","6500200","三重區"
"241006","262-UM","2019/11/14 16:59:25","新北市三重區車路頭街117巷29號","121.485153333333","25.0753933333333","6500200","三重區"
"241014","316-R6","2019/11/14 16:59:22","新北市三重區介壽路39巷98號","121.500745","25.0705533333333","6500200","三重區"
"241016","266-UM","2019/11/14 16:59:23","新北市三重區大同北路56號","121.49426","25.0638466666667","6500200","三重區"
"241009","267-UM","2019/11/14 16:59:26","新北市三重區溪尾街218巷38號","121.486523333333","25.081015","6500200","三重區"
"241018","268-UM","2019/11/14 16:59:21","新北市三重區民生東街6號","121.492638333333","25.0684533333333","6500200","三重區"
"241032","269-UM","2019/11/14 16:59:11","新北市三重區重陽路一段120巷17號","121.485995","25.0602383333333","6500200","三重區"
"241013","270-UM","2019/11/14 16:59:25","新北市三重區仁和街62號","121.49746","25.0739433333333","6500200","三重區"
"241025","271-UM","2019/11/14 16:59:30","新北市三重區中正北路508巷9號","121.472581666667","25.07119","6500200","三重區"
"241030","KED-0822","2019/11/14 16:59:19","新北市三重區環河南路255號","121.491038333333","25.050575","6500200","三重區"
"241004","475-VK","2019/11/14 16:59:12","新北市三重區五華街106號","121.492546666667","25.08255","6500200","三重區"
"241020","478-VK","2019/11/14 16:59:14","新北市三重區國道路一段8號","121.48609","25.0734","6500200","三重區"
"241026","480-VK","2019/11/14 16:59:22","新北市三重區文化南路42號","121.50036","25.060385","6500200","三重區"
"241023","545-UM","2019/11/14 16:59:19","新北市三重區新北大道一段252號","121.480041666667","25.0616816666667","6500200","三重區"
"241001","547-UM","2019/11/14 16:59:25","新北市三重區仁愛街174號","121.493955","25.0765933333333","6500200","三重區"
"241033","557-UM","2019/11/14 16:59:20","新北市三重區中興北街271號","121.469065","25.0606033333333","6500200","三重區"
"241019","KEA-2593","2019/11/14 16:59:23","新北市三重區自強路二段74巷17號","121.488051666667","25.06993","6500200","三重區"
"241012","743-BX","2019/11/14 16:59:27","新北市三重區仁和街130號","121.50029","25.0749066666667","6500200","三重區"
"241022","KED-0820","2019/11/14 16:59:23","新北市三重區中華路132號","121.483543333333","25.0640733333333","6500200","三重區"
"241005","KED-0670","2019/11/14 16:59:23","新北市三重區仁愛街707號","121.48232","25.0806033333333","6500200","三重區"
"241029","942-UM","2019/11/14 16:59:20","新北市三重區中正南路252巷5號","121.49348","25.0527366666667","6500200","三重區"
"247010","KED-0682","2019/11/14 16:59:26","新北市蘆洲區信義路168號","121.479275","25.0838133333333","6501400","蘆洲區"
"247006","893-R6","2019/11/14 16:59:29","新北市蘆洲區長安街99巷27號","121.46093","25.0798166666667","6501400","蘆洲區"
"247020","546-UM","2019/11/14 16:59:28","新北市蘆洲區民族路422巷84號","121.47383","25.0938816666667","6501400","蘆洲區"
"247016","500-BY","2019/11/14 16:59:19","新北市蘆洲區正和街3號","121.47045","25.0827016666667","6501400","蘆洲區"
"247004","341-TH","2019/11/14 16:59:27","新北市蘆洲區中原路13-5號","121.46083","25.083105","6501400","蘆洲區"
"247024","057-VK","2019/11/14 16:59:22","新北市蘆洲區長興路255號","121.460445","25.0875383333333","6501400","蘆洲區"
"247014","056-VK","2019/11/14 16:59:11","新北市蘆洲區三民路5號","121.47584","25.0820333333333","6501400","蘆洲區"
"247018","053-VK","2019/11/14 16:59:28","新北市蘆洲區民族路225號","121.477591666667","25.0897783333333","6501400","蘆洲區"
"247022","007-UY","2019/11/14 16:59:18","新北市蘆洲區三民路128巷75號","121.468713333333","25.09183","6501400","蘆洲區"
"247008","002-UY","2019/11/14 16:59:26","新北市蘆洲區中山一路197巷26號","121.47502","25.0799316666667","6501400","蘆洲區"
"247002","001-UY","2019/11/14 16:59:14","新北市蘆洲區永平街20號","121.459135","25.090615","6501400","蘆洲區"
"228003","097-TW","2019/11/14 16:59:22","新北市貢寮區福隆里興隆街13-5號","121.94415","25.0165233333333","6502600","貢寮區"
"228001","212-TW","2019/11/14 16:59:22","新北市貢寮區貢寮里朝陽街1-2號","121.912238333333","25.0212766666667","6502600","貢寮區"
"228002","663-BX","2019/11/14 16:59:31","新北市貢寮區貢寮里長泰路26號","121.90191","25.024045","6502600","貢寮區"
"224006","676-BX","2019/11/14 16:59:22","新北市瑞芳區大寮路356-1號","121.785428333333","25.1031916666667","6501200","瑞芳區"
"224007","285-BY","2019/11/14 16:59:31","新北市瑞芳區粗坑口路92號","121.760501666667","25.099175","6501200","瑞芳區"
"224009","275-VK","2019/11/14 16:59:23","新北市瑞芳區明燈路一段1號","121.826586666667","25.1093433333333","6501200","瑞芳區"
"224008","273-VK","2019/11/14 16:59:16","新北市瑞芳區明燈路一段267號","121.816725","25.108545","6501200","瑞芳區"
"224005","271-BY","2019/11/14 16:59:26","","121.900443333333","25.120005","6501200","瑞芳區"
"227001","642-TC","2019/11/14 16:59:26","新北市雙溪區三貂里政光路6-5號","121.851406666667","25.0718533333333","6502500","雙溪區"
"227002","400-TW","2019/11/14 16:59:18","新北市雙溪區上林里內平林82-1號","121.828765","25.0280166666667","6502500","雙溪區"
"251004","009-UM","2019/11/14 16:59:25","新北市淡水區中山路31號","121.443911666667","25.1703183333333","6501000","淡水區"
"251005","010-UM","2019/11/14 16:59:22","新北市淡水區中山路113號","121.441735","25.1709216666667","6501000","淡水區"
"251015","KEA-2871","2019/11/14 16:59:22","新北市淡水區淡金路一段102號","121.457888333333","25.174295","6501000","淡水區"
"251016","180-VK","2019/11/14 16:59:14","新北市淡水區瓦坑7號","121.477866666667","25.1815333333333","6501000","淡水區"
"251013","182-VK","2019/11/14 16:59:20","新北市淡水區泉洲厝32號","121.48929","25.1926016666667","6501000","淡水區"
"251012","441-VK","2019/11/14 16:59:16","新北市淡水區中正路二段31號","121.419296666667","25.18176","6501000","淡水區"
"251007","442-VK","2019/11/14 16:59:27","新北市淡水區中正東路二段37號","121.45907","25.1563083333333","6501000","淡水區"
"251006","561-UM","2019/11/14 16:59:15","新北市淡水區中正路259號","121.43251","25.17465","6501000","淡水區"
"251014","577-R6","2019/11/14 16:59:20","新北市淡水區淡金路四段478號","121.45241","25.2239166666667","6501000","淡水區"
"251011","650-BX","2019/11/14 16:59:16","新北市淡水區淡金路51-1號","121.456216666667","25.1609766666667","6501000","淡水區"
"252002","178-VK","2019/11/14 16:59:24","新北市三芝區忠孝街177號","121.505176666667","25.2616016666667","6502100","三芝區"
"233002","762-BX","2019/11/14 16:59:24","新北市烏來區環山路57號","121.549331666667","24.8627166666667","6502900","烏來區"
"247012","KED-0683","2019/11/14 16:59:27","新北市三重區五華街346號","121.484011666667","25.0910933333333","6501400","蘆洲區"
"252001","KED-0821","2019/11/14 16:59:20","新北市三芝區淡金路二段76-1號","121.503866666667","25.2608483333333","6502100","三芝區"
"242042","AAC-296","2019/11/14 16:59:29","新北市新莊區新泰路357巷3弄57號","121.442263333333","25.0395766666667","6500500","新莊區"
"242004","751-BX","2019/11/14 16:59:12","新北市新莊區新泰路255巷83號","121.442265","25.0387216666667","6500500","新莊區"
"242029","615-BX","2019/11/14 16:59:23","新北市新莊區新泰路357巷3弄57號","121.442005","25.0393","6500500","新莊區"
"242058","612-BX","2019/11/14 16:59:27","新北市新莊區新泰路357巷3弄57號","121.442185","25.039225","6500500","新莊區"
"242053","497-BY","2019/11/14 16:59:19","新北市新莊區新泰路357巷3弄57號","121.44233","25.0395483333333","6500500","新莊區"
"242031","175-VK","2019/11/14 16:59:15","新北市新莊區三和路12-21號","121.441898333333","25.038675","6500500","新莊區"
"242009","176-VK","2019/11/14 16:59:28","新北市新莊區三和路12-21號","121.442025","25.0386066666667","6500500","新莊區"
"242007","346-TH","2019/11/14 16:59:18","新北市新莊區三和路12-21號","121.442013333333","25.0382233333333","6500500","新莊區"
"242036","348-TH","2019/11/14 16:59:16","新北市新莊區三和路12-21號","121.441995","25.038835","6500500","新莊區"
"242034","350-TH","2019/11/14 16:59:19","新北市新莊區三和路12-21號","121.44218","25.0386466666667","6500500","新莊區"
"242019","351-TH","2019/11/14 16:59:19","新北市新莊區新泰路357巷3弄57號","121.442005","25.03959","6500500","新莊區"
"238023","601-UM","2019/11/14 16:59:22","新北市樹林區中正路433-1號","121.414916666667","25.0079933333333","6500700","樹林區"
"238018","KEA-2217","2019/11/14 16:59:33","新北市樹林區育德街78-1號","121.388086666667","24.968155","6500700","樹林區"
"238025","303-VK","2019/11/14 16:59:21","新北市樹林區中正路22-1號","121.427883333333","24.9994633333333","6500700","樹林區"
"238001","282-BY","2019/11/14 16:59:24","新北市樹林區大慶街99-1號","121.427713333333","24.9997016666667","6500700","樹林區"
"239007","AAC-297","2019/11/14 16:59:20","新北市鶯歌區二甲路13-16號","121.34505","24.9351466666667","6500800","鶯歌區"
"239008","527-UM","2019/11/14 16:59:12","新北市鶯歌區二甲路13-16號","121.345063333333","24.93504","6500800","鶯歌區"
"233001","KEA-2870","2019/11/14 16:59:34","新北市烏來區溫泉街86巷16號","121.549476666667","24.86227","6502900","烏來區"
"242046","281-VK","2019/11/14 16:59:27","新北市新莊區公園一路75巷13號","121.44245","25.0383083333333","6500500","新莊區"
"242011","280-VK","2019/11/14 16:59:31","新北市新莊區三和路12-21號","121.442098333333","25.0381966666667","6500500","新莊區"
