"lineid","car","time","location","longitude","latitude","cityid","cityname"
"249005","172-UM","2019/11/14 17:13:30","新北市八里區華富山30-1號","121.419233333333","25.12952","6502300","八里區"
"249001","173-UM","2019/11/14 17:13:19","新北市八里區中華路二段165巷2號","121.407745","25.15065","6502300","八里區"
"249004","303-UY","2019/11/14 17:13:13","新北市八里區文化街39號","121.423368333333","25.1598516666667","6502300","八里區"
"249002","305-UY","2019/11/14 17:13:14","新北市八里區龍米路二段121-1號","121.446875","25.14361","6502300","八里區"
"249003","593-UM","2019/11/14 17:13:21","新北市八里區中山路二段449號","121.396578333333","25.1456883333333","6502300","八里區"
"244007","080-UY","2019/11/14 17:13:30","新北市林口區菁埔8-1號","121.378606666667","25.0962483333333","6501700","林口區"
"244019","402-UM","2019/11/14 17:13:22","新北市林口區公園路225-3號","121.374473333333","25.0748933333333","6501700","林口區"
"244013","KEA-2802","2019/11/14 17:13:31","新北市林口區粉寮69號","121.404781666667","25.09079","6501700","林口區"
"244023","483-VK","2019/11/14 17:13:17","新北市林口區仁愛路一段645號","121.388663333333","25.0766166666667","6501700","林口區"
"244017","485-VK","2019/11/14 17:13:16","新北市林口區粉寮69號","121.405028333333","25.0908283333333","6501700","林口區"
"244009","656-BX","2019/11/14 17:13:31","新北市林口區文化北路二段550巷30弄22號","121.378796666667","25.0914566666667","6501700","林口區"
"244011","701-TV","2019/11/14 17:13:34","新北市林口區粉寮路一段105號","121.39795","25.080295","6501700","林口區"
"244025","837-TS","2019/11/14 17:13:21","新北市林口區文化三路二段8號","121.373046666667","25.0785","6501700","林口區"
"244021","838-TS","2019/11/14 17:13:15","新北市林口區粉寮路55號","121.405876666667","25.0880266666667","6501700","林口區"
"231046","719-UM","2019/11/14 17:12:25","新北市新店區新潭路一段61號","121.526355","24.9424983333333","6500600","新店區"
"241011","013-R5","2019/11/14 17:13:21","新北市三重區河邊北街108號","121.503761666667","25.070865","6500200","三重區"
"241028","022-UY","2019/11/14 17:13:20","新北市三重區仁化商場15號","121.493715","25.0592016666667","6500200","三重區"
"241008","059-VK","2019/11/14 17:13:20","新北市三重區永福街138巷30號","121.4806","25.074815","6500200","三重區"
"241015","062-VK","2019/11/14 17:13:30","新北市三重區中央北路81號","121.500401666667","25.0666616666667","6500200","三重區"
"241017","063-VK","2019/11/14 17:13:34","新北市三重區大同北路91號","121.494723333333","25.0636066666667","6500200","三重區"
"241024","065-VK","2019/11/14 17:13:14","新北市三重區中正北路366號","121.477146666667","25.0696033333333","6500200","三重區"
"241007","066-VK","2019/11/14 17:13:32","新北市三重區三和路四段165號","121.483473333333","25.0786233333333","6500200","三重區"
"241002","090-VK","2019/11/14 17:13:26","新北市三重區五華街35巷53號","121.49571","25.0815833333333","6500200","三重區"
"241003","091-VK","2019/11/14 17:12:02","新北市三重區集賢路66號","121.492803333333","25.0884133333333","6500200","三重區"
"241006","262-UM","2019/11/14 17:13:25","新北市三重區三和路四段264巷2弄7號","121.485366666667","25.0769216666667","6500200","三重區"
"241014","316-R6","2019/11/14 17:13:22","新北市三重區龍濱路118-5號","121.50205","25.0706166666667","6500200","三重區"
"241016","266-UM","2019/11/14 17:13:23","新北市三重區中正北路25巷6號","121.493315","25.0627883333333","6500200","三重區"
"241009","267-UM","2019/11/14 17:13:26","新北市三重區三和路四段215巷20號","121.482503333333","25.080005","6500200","三重區"
"241018","268-UM","2019/11/14 17:13:21","新北市三重區六張街52號","121.49428","25.0703166666667","6500200","三重區"
"241032","269-UM","2019/11/14 17:13:31","新北市三重區興華街116號","121.483618333333","25.0597433333333","6500200","三重區"
"241013","270-UM","2019/11/14 17:13:25","新北市三重區仁昌街40號","121.497303333333","25.0742816666667","6500200","三重區"
"241025","271-UM","2019/11/14 17:13:30","新北市三重區中正北路371-2號","121.471548333333","25.0720616666667","6500200","三重區"
"241030","KED-0822","2019/11/14 17:13:19","新北市三重區集成路28號","121.488856666667","25.0524216666667","6500200","三重區"
"241004","475-VK","2019/11/14 17:13:30","新北市三重區五華街122巷30號","121.49098","25.0826133333333","6500200","三重區"
"241020","478-VK","2019/11/14 17:13:14","新北市三重區忠孝路一段181號","121.487296666667","25.0718916666667","6500200","三重區"
"241026","480-VK","2019/11/14 17:13:22","新北市三重區文化南路8號","121.500115","25.0624383333333","6500200","三重區"
"241023","545-UM","2019/11/14 17:13:19","新北市三重區忠孝路三段126號","121.480165","25.0636933333333","6500200","三重區"
"241001","547-UM","2019/11/14 17:13:25","新北市三重區仁愛街255巷77號","121.494958333333","25.0793283333333","6500200","三重區"
"241033","557-UM","2019/11/14 17:13:20","新北市三重區中興北街186號","121.46891","25.058365","6500200","三重區"
"241019","KEA-2593","2019/11/14 17:13:23","新北市三重區自強路二段74巷67號","121.486793333333","25.06969","6500200","三重區"
"241012","743-BX","2019/11/14 17:13:27","新北市三重區河邊北街361號","121.501971666667","25.0758533333333","6500200","三重區"
"241022","KED-0820","2019/11/14 17:13:23","新北市三重區中正北路118巷5號","121.485303333333","25.064755","6500200","三重區"
"241005","KED-0670","2019/11/14 17:13:23","新北市三重區永安北路二段5巷7號","121.481795","25.0810216666667","6500200","三重區"
"241029","942-UM","2019/11/14 17:13:20","新北市三重區重新路四段65-10號","121.487125","25.0569133333333","6500200","三重區"
"247010","KED-0682","2019/11/14 17:13:26","新北市蘆洲區鷺江街12號","121.479165","25.0825683333333","6501400","蘆洲區"
"247006","893-R6","2019/11/14 17:13:29","新北市蘆洲區長安街123號","121.461036666667","25.08131","6501400","蘆洲區"
"247020","546-UM","2019/11/14 17:13:20","新北市蘆洲區仁愛街19號","121.472528333333","25.0923066666667","6501400","蘆洲區"
"247016","500-BY","2019/11/14 17:13:19","新北市蘆洲區光華路73巷31號","121.468635","25.0817916666667","6501400","蘆洲區"
"247004","341-TH","2019/11/14 17:13:30","新北市蘆洲區長安街205號","121.459985","25.0821383333333","6501400","蘆洲區"
"247024","057-VK","2019/11/14 17:13:21","新北市蘆洲區光華路190號","121.46459","25.0818933333333","6501400","蘆洲區"
"247014","056-VK","2019/11/14 17:13:31","新北市蘆洲區得勝街107號","121.47279","25.08345","6501400","蘆洲區"
"247018","053-VK","2019/11/14 17:13:16","新北市蘆洲區復興路101號","121.476563333333","25.0875833333333","6501400","蘆洲區"
"247022","007-UY","2019/11/14 17:13:18","新北市蘆洲區三民路128巷34號","121.47113","25.08848","6501400","蘆洲區"
"247008","002-UY","2019/11/14 17:13:26","新北市蘆洲區信義路30巷120號","121.475183333333","25.0768766666667","6501400","蘆洲區"
"247002","001-UY","2019/11/14 17:13:29","新北市蘆洲區永樂街38巷19弄18號","121.457323333333","25.0891866666667","6501400","蘆洲區"
"228003","097-TW","2019/11/14 17:13:34","新北市貢寮區福隆里東興街40號","121.948985","25.0179616666667","6502600","貢寮區"
"228001","212-TW","2019/11/14 17:13:22","新北市貢寮區仁理村尖山腳街6-1號","121.925896666667","25.0482633333333","6502600","貢寮區"
"228002","663-BX","2019/11/14 17:13:31","新北市貢寮區龍崗里嵩陽街38號","121.908783333333","25.0164116666667","6502600","貢寮區"
"224010","AGQ-8101","2019/11/14 17:13:14","新北市瑞芳區民權街3-1號","121.809425","25.1081766666667","6501200","瑞芳區"
"224006","676-BX","2019/11/14 17:13:22","新北市瑞芳區大寮路63巷11號","121.78006","25.0949516666667","6501200","瑞芳區"
"224009","275-VK","2019/11/14 17:13:23","新北市瑞芳區街頂巷36號","121.843545","25.11054","6501200","瑞芳區"
"224008","273-VK","2019/11/14 17:13:29","新北市瑞芳區柴寮路50號","121.827591666667","25.0871433333333","6501200","瑞芳區"
"224005","271-BY","2019/11/14 17:13:26","新北市瑞芳區鼻頭路247號","121.912628333333","25.123885","6501200","瑞芳區"
"227001","642-TC","2019/11/14 17:10:45","新北市雙溪區三貂里定福路2號","121.850988333333","25.0667366666667","6502500","雙溪區"
"227002","400-TW","2019/11/14 17:13:18","新北市雙溪區平林里梅竹蹊59號","121.850416666667","25.0318916666667","6502500","雙溪區"
"251004","009-UM","2019/11/14 17:09:21","新北市淡水區中正東路二段88巷15號","121.45905","25.15049","6501000","淡水區"
"251005","010-UM","2019/11/14 17:13:22","新北市淡水區鄧公路19-1號","121.450261666667","25.169945","6501000","淡水區"
"251015","KEA-2871","2019/11/14 17:13:25","新北市淡水區淡金路一段102號","121.457898333333","25.1746666666667","6501000","淡水區"
"251016","180-VK","2019/11/14 17:13:15","新北市淡水區鄒厝崙1-13號","121.471275","25.1874916666667","6501000","淡水區"
"251008","181-VK","2019/11/14 17:13:23","新北市淡水區樹梅坑16號","121.471455","25.1432","6501000","淡水區"
"251013","182-VK","2019/11/14 17:13:20","新北市淡水區大埤頭9號","121.481953333333","25.1948516666667","6501000","淡水區"
"251012","441-VK","2019/11/14 17:13:16","新北市淡水區中山北路一段156號","121.444161666667","25.1778883333333","6501000","淡水區"
"251007","442-VK","2019/11/14 17:13:27","新北市淡水區民生路60號","121.462058333333","25.1379433333333","6501000","淡水區"
"251006","561-UM","2019/11/14 17:13:15","新北市淡水區真理街6號","121.438413333333","25.1744866666667","6501000","淡水區"
"251014","577-R6","2019/11/14 17:13:20","新北市淡水區公埔子2-1號","121.46232","25.2258883333333","6501000","淡水區"
"251011","650-BX","2019/11/14 17:13:16","新北市淡水區坪頂路51巷2號","121.45806","25.1626516666667","6501000","淡水區"
"251002","672-BX","2019/11/14 17:13:27","新北市淡水區中正路二段31號","121.419338333333","25.1815816666667","6501000","淡水區"
"251003","673-BX","2019/11/14 17:13:13","新北市淡水區中正路二段31號","121.419465","25.181535","6501000","淡水區"
"252002","178-VK","2019/11/14 17:13:24","新北市三芝區忠孝街1-14號","121.505533333333","25.2539316666667","6502100","三芝區"
"233002","762-BX","2019/11/14 17:13:24","新北市烏來區野要街82號","121.546161666667","24.8542066666667","6502900","烏來區"
"247012","KED-0683","2019/11/14 17:13:27","新北市蘆洲區信義路266巷24弄1號","121.479085","25.0873716666667","6501400","蘆洲區"
"252001","KED-0821","2019/11/14 17:13:35","新北市三芝區埔頭里埔頭15-1號","121.495625","25.2598966666667","6502100","三芝區"
"242042","AAC-296","2019/11/14 17:13:29","新北市新莊區新泰路357巷3弄1號","121.442348333333","25.0416833333333","6500500","新莊區"
"242061","986-R7","2019/11/14 17:13:20","新北市新莊區新泰路357巷3弄57號","121.442298333333","25.0394366666667","6500500","新莊區"
"242004","751-BX","2019/11/14 17:13:32","新北市新莊區三和路12-11號","121.442253333333","25.03692","6500500","新莊區"
"242029","615-BX","2019/11/14 17:13:23","新北市新莊區新泰路381巷38號","121.44234","25.0435833333333","6500500","新莊區"
"242027","613-BX","2019/11/14 17:13:31","新北市新莊區新泰路357巷1弄57號","121.442561666667","25.0396283333333","6500500","新莊區"
"242058","612-BX","2019/11/14 17:13:27","新北市新莊區新泰路357巷3弄57號","121.44216","25.0392633333333","6500500","新莊區"
"242048","566-BX","2019/11/14 17:13:28","新北市新莊區中正路685號","121.426","25.0299883333333","6500500","新莊區"
"242053","497-BY","2019/11/14 17:13:19","新北市新莊區中正路386號","121.441878333333","25.0350933333333","6500500","新莊區"
"242051","442-UM","2019/11/14 17:13:24","新北市新莊區瓊林南路21-1號","121.437903333333","25.0202966666667","6500500","新莊區"
"242002","441-UM","2019/11/14 17:13:24","新北市新莊區新樹路67巷1號","121.442155","25.03006","6500500","新莊區"
"242044","415-TV","2019/11/14 17:13:14","新北市新莊區中正路513-1號","121.44","25.0335033333333","6500500","新莊區"
"242013","413-TV","2019/11/14 17:13:21","新北市新莊區新泰路357巷3弄57號","121.441846666667","25.0393766666667","6500500","新莊區"
"242025","362-BY","2019/11/14 17:13:15","新北市新莊區三和路12-18號","121.442313333333","25.0375583333333","6500500","新莊區"
"242015","132-UY","2019/11/14 17:13:14","新北市新莊區公園一路75巷5號","121.442581666667","25.0375966666667","6500500","新莊區"
"242056","172-VK","2019/11/14 17:13:22","新北市新莊區三和路10號","121.441803333333","25.036195","6500500","新莊區"
"242017","173-VK","2019/11/14 17:13:14","新北市新莊區三和路12-21號","121.441911666667","25.038715","6500500","新莊區"
"242031","175-VK","2019/11/14 17:13:15","新北市新莊區三和路12-21號","121.441776666667","25.038745","6500500","新莊區"
"242009","176-VK","2019/11/14 17:13:28","新北市新莊區新泰路357巷1弄44號","121.442565","25.0402133333333","6500500","新莊區"
"242007","346-TH","2019/11/14 17:13:18","新北市新莊區三和路12-21號","121.44204","25.0381966666667","6500500","新莊區"
"242039","347-TH","2019/11/14 17:13:16","新北市新莊區三和路12-19號","121.441973333333","25.0377133333333","6500500","新莊區"
"242036","348-TH","2019/11/14 17:13:16","新北市新莊區新泰路357巷3弄1號","121.442273333333","25.0416","6500500","新莊區"
"242034","350-TH","2019/11/14 17:13:19","新北市新莊區瓊林路21-1號","121.445866666667","25.0287366666667","6500500","新莊區"
"242019","351-TH","2019/11/14 17:13:19","新北市新莊區新泰路357巷3弄1號","121.442471666667","25.0413766666667","6500500","新莊區"
"238015","755-BX","2019/11/14 17:13:17","新北市樹林區東佳路7號","121.406105","24.9805266666667","6500700","樹林區"
"238023","601-UM","2019/11/14 17:13:22","新北市樹林區中正路433-1號","121.414938333333","25.0079766666667","6500700","樹林區"
"238019","599-UM","2019/11/14 17:13:18","新北市樹林區育德街78-1號","121.388143333333","24.9680716666667","6500700","樹林區"
"238018","KEA-2217","2019/11/14 17:13:13","新北市樹林區博愛街233號","121.424156666667","24.9854583333333","6500700","樹林區"
"238022","KEA-2213","2019/11/14 17:13:29","新北市樹林區忠孝街33號","121.42372","24.9821483333333","6500700","樹林區"
"238021","KEA-2539","2019/11/14 17:13:27","新北市樹林區西圳街165巷20弄26號","121.395526666667","24.96007","6500700","樹林區"
"238025","303-VK","2019/11/14 17:13:21","新北市樹林區中正路23號","121.427505","24.9992916666667","6500700","樹林區"
"238017","283-BY","2019/11/14 17:13:14","新北市樹林區光武街28號","121.415796666667","25.0054333333333","6500700","樹林區"
"238001","282-BY","2019/11/14 17:13:24","新北市樹林區保安二街55號","121.424631666667","24.9946166666667","6500700","樹林區"
"238020","268-VK","2019/11/14 17:13:31","新北市樹林區中正路22-1號","121.427965","24.9992416666667","6500700","樹林區"
"238026","172-UY","2019/11/14 17:13:19","新北市樹林區八德街592號","121.397658333333","24.9702133333333","6500700","樹林區"
"238016","169-UY","2019/11/14 17:13:31","新北市樹林區八德街1號","121.417531666667","24.984985","6500700","樹林區"
"239007","AAC-297","2019/11/14 17:13:20","新北市鶯歌區中正一路146號","121.352363333333","24.95585","6500800","鶯歌區"
"239006","891-R6","2019/11/14 17:13:28","新北市鶯歌區八德路29號","121.335495","24.95197","6500800","鶯歌區"
"239008","527-UM","2019/11/14 17:13:32","新北市鶯歌區文化路134號","121.351956666667","24.951365","6500800","鶯歌區"
"239001","417-VK","2019/11/14 17:13:19","新北市鶯歌區尖山路86巷28號","121.34702","24.9496316666667","6500800","鶯歌區"
"239003","360-BY","2019/11/14 17:13:16","新北市鶯歌區德昌二街70巷32弄85號","121.3296","24.9575083333333","6500800","鶯歌區"
"239002","359-BY","2019/11/14 17:13:17","新北市鶯歌區建國路252號","121.347776666667","24.95343","6500800","鶯歌區"
"239004","193-VK","2019/11/14 17:13:21","新北市鶯歌區文化路669號","121.353045","24.9460733333333","6500800","鶯歌區"
"233001","KEA-2870","2019/11/14 17:13:14","新北市烏來區溫泉街69號","121.551583333333","24.86065","6502900","烏來區"
"242046","281-VK","2019/11/14 17:13:27","新北市新莊區新樹路67巷5號","121.442046666667","25.0306766666667","6500500","新莊區"
"242011","280-VK","2019/11/14 17:13:11","新北市新莊區三和路12-21號","121.441951666667","25.038285","6500500","新莊區"
