"lineid","car","time","location","longitude","latitude","cityid","cityname"
"234026","9371-KE","2019/11/14 17:43:25","新北市永和區永和路184-1號","121.514285","25.0091133333333","6500400","永和區"
"249005","172-UM","2019/11/14 17:43:30","新北市八里區荖阡坑路34-1號","121.40276","25.12973","6502300","八里區"
"249001","173-UM","2019/11/14 17:43:19","新北市八里區龍米路二段153-8號","121.440126666667","25.1534683333333","6502300","八里區"
"249004","303-UY","2019/11/14 17:43:33","新北市八里區中華路一段79巷9號","121.420981666667","25.1563716666667","6502300","八里區"
"249002","305-UY","2019/11/14 17:43:14","新北市八里區龍形五街37巷3-1號","121.448771666667","25.132595","6502300","八里區"
"249003","593-UM","2019/11/14 17:43:33","新北市八里區中山路二段125號","121.405458333333","25.1518033333333","6502300","八里區"
"232011","375-UM","2019/11/14 17:43:17","新北市坪林區北宜路八段103號","121.706101666667","24.9348383333333","6502000","坪林區"
"244007","080-UY","2019/11/14 17:43:30","新北市林口區林口路226號","121.386715","25.0839","6501700","林口區"
"244019","402-UM","2019/11/14 17:43:22","新北市林口區麗園路121號","121.371438333333","25.0675783333333","6501700","林口區"
"244013","KEA-2802","2019/11/14 17:43:31","新北市林口區中山路151號","121.38694","25.0791566666667","6501700","林口區"
"244023","483-VK","2019/11/14 17:43:17","新北市林口區興林路362巷11號","121.387926666667","25.0693783333333","6501700","林口區"
"244017","485-VK","2019/11/14 17:43:23","新北市林口區忠孝路371-1號","121.369018333333","25.07205","6501700","林口區"
"244009","656-BX","2019/11/14 17:43:12","新北市林口區寶林路40-1號","121.385446666667","25.0844466666667","6501700","林口區"
"244011","701-TV","2019/11/14 17:43:14","新北市林口區中正路263號","121.390246666667","25.07769","6501700","林口區"
"244025","837-TS","2019/11/14 17:43:21","新北市林口區文化三路一段191巷14號","121.361158333333","25.07034","6501700","林口區"
"244021","838-TS","2019/11/14 17:43:15","新北市林口區東林街29號","121.395528333333","25.0791983333333","6501700","林口區"
"222002","659-BX","2019/11/14 17:43:33","新北市深坑區平埔街22巷8號","121.61495","25.0009116666667","6501800","深坑區"
"231046","719-UM","2019/11/14 17:18:25","新北市新店區直潭路97號","121.532165","24.9400533333333","6500600","新店區"
"241028","022-UY","2019/11/14 17:43:20","新北市八里區中山路三段382號","121.36853","25.1359916666667","6500200","三重區"
"241015","062-VK","2019/11/14 17:43:30","新北市三重區新北大道一段7號","121.4896","25.061275","6500200","三重區"
"241007","066-VK","2019/11/14 17:43:32","新北市蘆洲區永安南路一段148號","121.472353333333","25.0754916666667","6500200","三重區"
"241014","316-R6","2019/11/14 17:43:22","新北市三重區龍濱路269號","121.501358333333","25.0729566666667","6500200","三重區"
"241016","266-UM","2019/11/14 17:43:23","新北市三重區重新路二段132號","121.496143333333","25.0615816666667","6500200","三重區"
"241024","KEA-2210","2019/11/14 17:43:15","新北市三重區力行路二段9巷9號","121.482663333333","25.07216","6500200","三重區"
"241033","557-UM","2019/11/14 17:43:20","新北市三重區光復路一段7號","121.472076666667","25.0470883333333","6500200","三重區"
"241019","KEA-2593","2019/11/14 17:43:23","新北市三重區六張街255巷6號","121.487181666667","25.0682216666667","6500200","三重區"
"235063","006-UY","2019/11/14 17:43:28","新北市中和區員山路36巷16-3號","121.485103333333","24.991275","6500300","中和區"
"247010","KED-0682","2019/11/14 17:43:26","新北市蘆洲區民族路52號","121.476953333333","25.084565","6501400","蘆洲區"
"247006","893-R6","2019/11/14 17:43:29","新北市蘆洲區長安街14號","121.464203333333","25.0790333333333","6501400","蘆洲區"
"247020","546-UM","2019/11/14 17:43:20","新北市蘆洲區民義街101巷17-1號","121.472965","25.0912783333333","6501400","蘆洲區"
"247016","500-BY","2019/11/14 17:43:19","新北市蘆洲區光華路110巷18號","121.466848333333","25.08344","6501400","蘆洲區"
"247004","341-TH","2019/11/14 17:43:27","新北市蘆洲區長安街247號","121.458908333333","25.0831466666667","6501400","蘆洲區"
"247024","057-VK","2019/11/14 17:43:22","新北市蘆洲區光榮路101巷28號","121.464001666667","25.0902233333333","6501400","蘆洲區"
"247014","056-VK","2019/11/14 17:43:11","新北市蘆洲區中正路33號","121.471161666667","25.08229","6501400","蘆洲區"
"247018","053-VK","2019/11/14 17:43:16","新北市蘆洲區民權路54-1號","121.47553","25.086905","6501400","蘆洲區"
"247022","007-UY","2019/11/14 17:43:18","新北市蘆洲區中正路355號","121.465276666667","25.0898533333333","6501400","蘆洲區"
"247008","002-UY","2019/11/14 17:43:26","新北市蘆洲區和平路15號","121.47255","25.0792433333333","6501400","蘆洲區"
"247002","001-UY","2019/11/14 17:43:34","新北市蘆洲區永平街32巷11弄1號","121.458781666667","25.0913466666667","6501400","蘆洲區"
"228003","097-TW","2019/11/14 17:43:14","新北市貢寮區仁理村仁和路268號","121.92419","25.054415","6502600","貢寮區"
"228001","212-TW","2019/11/14 17:43:22","新北市貢寮區仁理村仁愛路95-1號","121.927703333333","25.0554533333333","6502600","貢寮區"
"228002","663-BX","2019/11/14 17:43:31","新北市貢寮區福隆里外隆林街14號","121.959161666667","25.00357","6502600","貢寮區"
"224006","676-BX","2019/11/14 17:43:22","新北市瑞芳區傑魚坑路173-2號","121.789486666667","25.10935","6501200","瑞芳區"
"224009","275-VK","2019/11/14 17:43:23","新北市瑞芳區山尖路215-1號","121.848853333333","25.112455","6501200","瑞芳區"
"224008","273-VK","2019/11/14 17:43:16","新北市瑞芳區明燈路一段18巷34號","121.822786666667","25.108965","6501200","瑞芳區"
"224005","271-BY","2019/11/14 17:43:26","新北市瑞芳區海濱路38-1號","121.831063333333","25.1234733333333","6501200","瑞芳區"
"227001","642-TC","2019/11/14 17:39:13","新北市雙溪區三貂里定福路1-2號","121.850783333333","25.063425","6502500","雙溪區"
"227002","400-TW","2019/11/14 17:43:18","新北市雙溪區共和里東榮街52號","121.866345","25.033625","6502500","雙溪區"
"251004","009-UM","2019/11/14 17:43:23","新北市淡水區民權路4號","121.459318333333","25.1403833333333","6501000","淡水區"
"251005","010-UM","2019/11/14 17:43:22","新北市淡水區學府路102巷28號","121.45159","25.1713816666667","6501000","淡水區"
"251015","KEA-2871","2019/11/14 17:42:42","新北市淡水區樹林口7-1號","121.479495","25.16715","6501000","淡水區"
"251016","180-VK","2019/11/14 17:43:14","新北市淡水區埤島39-15號","121.452923333333","25.1953966666667","6501000","淡水區"
"251008","181-VK","2019/11/14 17:43:13","新北市淡水區八勢路73巷12號","121.463883333333","25.1539666666667","6501000","淡水區"
"251013","182-VK","2019/11/14 17:43:20","新北市淡水區口湖子2-11號","121.474326666667","25.1907016666667","6501000","淡水區"
"251010","413-VK","2019/11/14 17:43:31","新北市淡水區淡海路280巷33弄34-2號","121.418721666667","25.1886","6501000","淡水區"
"251012","441-VK","2019/11/14 17:43:16","新北市淡水區北新路218號","121.45183","25.180095","6501000","淡水區"
"251007","442-VK","2019/11/14 17:43:27","新北市淡水區民生路52巷42號","121.463063333333","25.1376933333333","6501000","淡水區"
"251006","561-UM","2019/11/14 17:43:25","新北市淡水區大信街13-1號","121.441816666667","25.17656","6501000","淡水區"
"251009","575-R6","2019/11/14 17:43:20","新北市淡水區中正路36號","121.443793333333","25.1693133333333","6501000","淡水區"
"251014","577-R6","2019/11/14 17:43:20","新北市淡水區北勢子19-1號","121.479921666667","25.2275416666667","6501000","淡水區"
"251011","650-BX","2019/11/14 17:43:16","新北市淡水區小坪頂85號","121.484923333333","25.15935","6501000","淡水區"
"251002","672-BX","2019/11/14 17:43:27","新北市淡水區中山路141號","121.440841666667","25.17181","6501000","淡水區"
"251003","673-BX","2019/11/14 17:43:13","新北市淡水區中山北路一段96號","121.442486666667","25.1764166666667","6501000","淡水區"
"207003","681-TV","2019/11/14 17:43:27","新北市萬里區龜吼里漁澳路79-2號","121.686741666667","25.1959266666667","6502800","萬里區"
"207004","291-VK","2019/11/14 17:43:28","新北市萬里區中幅里中福路6-2號","121.687016666667","25.1628883333333","6502800","萬里區"
"252002","178-VK","2019/11/14 17:43:24","新北市三芝區中正路二段18號","121.504515","25.2551883333333","6502100","三芝區"
"237013","252-BX","2019/11/14 17:43:31","新北市三峽區安溪路309巷9號","121.373476666667","24.933315","6500900","三峽區"
"237014","433-BY","2019/11/14 17:43:33","新北市三峽區中山路184巷8號","121.36412","24.936695","6500900","三峽區"
"237011","KEA-2596","2019/11/14 17:43:19","新北市三峽區中山路107巷10號","121.365023333333","24.9355283333333","6500900","三峽區"
"237010","706-TV","2019/11/14 17:43:19","新北市三峽區文化路195號","121.366608333333","24.93569","6500900","三峽區"
"237005","AKY-6261","2019/11/14 17:43:32","新北市三峽區中山路459巷135號","121.348718333333","24.9328516666667","6500900","三峽區"
"236042","KED-0685","2019/11/14 17:43:18","新北市土城區城林路6巷80號","121.438536666667","24.97958","6501300","土城區"
"233002","762-BX","2019/11/14 17:43:24","新北市烏來區烏來街3-2號","121.551173333333","24.86539","6502900","烏來區"
"236078","166-UM","2019/11/14 17:43:25","新北市土城區中華路二段92號","121.438281666667","24.9746583333333","6501300","土城區"
"236014","270-VK","2019/11/14 17:43:18","新北市土城區城林路6巷80號","121.438483333333","24.9796016666667","6501300","土城區"
"236038","271-VK","2019/11/14 17:43:24","新北市土城區城林路6巷80號","121.438478333333","24.9797516666667","6501300","土城區"
"247012","KED-0683","2019/11/14 17:43:27","新北市蘆洲區復興路60巷1弄20號","121.475445","25.086405","6501400","蘆洲區"
"236070","KEA-2877","2019/11/14 17:43:30","新北市土城區明德路二段107號","121.450646666667","24.9817283333333","6501300","土城區"
"252001","KED-0821","2019/11/14 17:43:15","新北市三芝區育英街25號","121.501231666667","25.257975","6502100","三芝區"
"236021","401-BY","2019/11/14 17:43:24","新北市土城區城林路6巷80號","121.438791666667","24.9796483333333","6501300","土城區"
"236063","915-UM","2019/11/14 17:43:30","新北市土城區城林路6巷80號","121.438493333333","24.979625","6501300","土城區"
"242042","AAC-296","2019/11/14 17:43:29","新北市新莊區中正路514號","121.429735","25.0352666666667","6500500","新莊區"
"242061","986-R7","2019/11/14 17:43:21","新北市新莊區瓊林南路42巷1-2號","121.436021666667","25.018025","6500500","新莊區"
"242004","751-BX","2019/11/14 17:43:31","新北市新莊區自立街214巷9弄2號","121.457185","25.0449933333333","6500500","新莊區"
"242023","705-TV","2019/11/14 17:43:26","新北市新莊區民樂街32號","121.45775","25.0409483333333","6500500","新莊區"
"242029","615-BX","2019/11/14 17:43:32","新北市新莊區復興路一段107號","121.449221666667","25.0429466666667","6500500","新莊區"
"242027","613-BX","2019/11/14 17:43:31","新北市新莊區福壽街105號","121.457968333333","25.0507166666667","6500500","新莊區"
"242058","612-BX","2019/11/14 17:43:28","新北市新莊區中正路652號","121.421471666667","25.0285883333333","6500500","新莊區"
"242048","566-BX","2019/11/14 17:43:29","新北市新莊區萬安街115號","121.420835","25.0226033333333","6500500","新莊區"
"242053","497-BY","2019/11/14 17:43:19","新北市新莊區新樹路699巷35號","121.433","25.0011416666667","6500500","新莊區"
"242051","442-UM","2019/11/14 17:43:24","新北市新莊區西盛街225號","121.428108333333","25.016505","6500500","新莊區"
"242002","441-UM","2019/11/14 17:43:24","新北市新莊區新莊路435號","121.45013","25.0335316666667","6500500","新莊區"
"242044","415-TV","2019/11/14 17:43:18","新北市新莊區中正路871巷9弄34號","121.41954","25.02675","6500500","新莊區"
"242013","413-TV","2019/11/14 17:43:21","新北市新莊區中誠街140號","121.448786666667","25.0475783333333","6500500","新莊區"
"242025","362-BY","2019/11/14 17:43:15","新北市新莊區思源路423號","121.459538333333","25.052585","6500500","新莊區"
"242015","132-UY","2019/11/14 17:43:34","新北市新莊區新泰路406巷2弄1號","121.444393333333","25.0439383333333","6500500","新莊區"
"242056","172-VK","2019/11/14 17:43:28","新北市新莊區瓊林路38巷1號","121.447893333333","25.030455","6500500","新莊區"
"242017","173-VK","2019/11/14 17:43:14","新北市新莊區中和街11號","121.448315","25.0433183333333","6500500","新莊區"
"242031","175-VK","2019/11/14 17:43:15","新北市新莊區新泰路374號","121.444105","25.0431666666667","6500500","新莊區"
"242009","176-VK","2019/11/14 17:43:28","新北市新莊區昌明街14巷7弄16號","121.456781666667","25.0535783333333","6500500","新莊區"
"242021","KED-0687","2019/11/14 17:43:15","新北市新莊區中華路一段168號","121.452746666667","25.041835","6500500","新莊區"
"242007","346-TH","2019/11/14 17:43:18","新北市新莊區福樂街69號","121.4571","25.047775","6500500","新莊區"
"242039","347-TH","2019/11/14 17:43:16","新北市新莊區民安西路1號","121.426678333333","25.0219433333333","6500500","新莊區"
"242036","348-TH","2019/11/14 17:43:16","新北市新莊區後港一路103號","121.428231666667","25.027025","6500500","新莊區"
"242034","350-TH","2019/11/14 17:43:19","新北市新莊區新莊路693號","121.444171666667","25.0328366666667","6500500","新莊區"
"242019","351-TH","2019/11/14 17:43:19","新北市新莊區中港路257號","121.453873333333","25.0431866666667","6500500","新莊區"
"238015","755-BX","2019/11/14 17:43:17","新北市樹林區長壽街70巷1弄2號","121.421056666667","24.994715","6500700","樹林區"
"238023","601-UM","2019/11/14 17:43:23","新北市樹林區福興街13巷7號","121.404208333333","25.0167","6500700","樹林區"
"238019","599-UM","2019/11/14 17:43:18","新北市樹林區太平路93號","121.419056666667","24.9813316666667","6500700","樹林區"
"238018","KEA-2217","2019/11/14 17:43:33","新北市樹林區保安街一段22-5號","121.427165","24.9934216666667","6500700","樹林區"
"238022","KEA-2213","2019/11/14 17:43:29","新北市樹林區太順街62巷1弄2號","121.417681666667","24.9794466666667","6500700","樹林區"
"238021","KEA-2539","2019/11/14 17:43:27","新北市樹林區柑園街一段35號","121.40361","24.960125","6500700","樹林區"
"238025","303-VK","2019/11/14 17:43:21","新北市樹林區三俊街96號","121.414356666667","25.0155466666667","6500700","樹林區"
"238017","283-BY","2019/11/14 17:43:34","新北市樹林區三德街30巷17號","121.414673333333","25.0126033333333","6500700","樹林區"
"238001","282-BY","2019/11/14 17:43:24","新北市樹林區保安街一段289巷7-2號","121.415125","24.995875","6500700","樹林區"
"238020","268-VK","2019/11/14 17:43:31","新北市樹林區俊英街166巷10號","121.427058333333","25.0071833333333","6500700","樹林區"
"238026","172-UY","2019/11/14 17:43:19","新北市樹林區新興街19巷36弄2號","121.402341666667","24.9735233333333","6500700","樹林區"
"238016","169-UY","2019/11/14 17:43:31","新北市樹林區復興路315號","121.418386666667","24.9886666666667","6500700","樹林區"
"239007","AAC-297","2019/11/14 17:43:20","新北市鶯歌區鶯桃路182巷20號","121.337408333333","24.9561166666667","6500800","鶯歌區"
"239006","891-R6","2019/11/14 17:43:30","新北市鶯歌區鶯桃路436巷61弄1號","121.333671666667","24.966755","6500800","鶯歌區"
"239008","527-UM","2019/11/14 17:43:32","新北市鶯歌區大湖路391號","121.330943333333","24.978845","6500800","鶯歌區"
"239001","417-VK","2019/11/14 17:43:19","新北市鶯歌區中正三路215號","121.335306666667","24.9393416666667","6500800","鶯歌區"
"239003","360-BY","2019/11/14 17:43:16","新北市鶯歌區鶯桃路189號","121.33757","24.9586266666667","6500800","鶯歌區"
"239002","359-BY","2019/11/14 17:43:17","新北市鶯歌區南雅路442號","121.345765","24.9538633333333","6500800","鶯歌區"
"239004","193-VK","2019/11/14 17:43:21","新北市鶯歌區三鶯路135-1號","121.361288333333","24.9455466666667","6500800","鶯歌區"
"221008","489-VK","2019/11/14 17:43:18","新北市汐止區康寧街901號","121.651461666667","25.0750266666667","6501100","汐止區"
"221010","269-BY","2019/11/14 17:43:15","新北市汐止區汐萬路一段418巷46號","121.651115","25.079025","6501100","汐止區"
"233001","KEA-2870","2019/11/14 17:43:14","新北市烏來區信福路2巷2號","121.539173333333","24.8404066666667","6502900","烏來區"
"242046","281-VK","2019/11/14 17:43:26","新北市新莊區福營路103號","121.433831666667","25.0322633333333","6500500","新莊區"
"242011","280-VK","2019/11/14 17:43:31","新北市新莊區中港路647號","121.450988333333","25.0550133333333","6500500","新莊區"
