"lineid","car","time","location","longitude","latitude","cityid","cityname"
"234026","9371-KE","2019/11/14 17:59:25","新北市永和區永和路一段45-1號","121.512821666667","25.00628","6500400","永和區"
"249005","172-UM","2019/11/14 17:59:30","新北市八里區荖阡坑路16號","121.397826666667","25.1382816666667","6502300","八里區"
"249001","173-UM","2019/11/14 17:59:19","新北市八里區龍米路二段41號","121.448316666667","25.1402166666667","6502300","八里區"
"249004","303-UY","2019/11/14 17:59:33","新北市八里區龍米路三段15號","121.428036666667","25.159015","6502300","八里區"
"249002","305-UY","2019/11/14 17:59:14","新北市八里區龍形五街15號","121.450051666667","25.133455","6502300","八里區"
"249003","593-UM","2019/11/14 17:59:33","新北市八里區中華路二段165巷19弄22號","121.410358333333","25.15168","6502300","八里區"
"248014","025-BX","2019/11/14 17:59:26","新北市五股區中興路三段190號","121.443941666667","25.081385","6501500","五股區"
"248016","026-BX","2019/11/14 17:59:28","新北市五股區中興路二段37巷28號","121.460178333333","25.0750016666667","6501500","五股區"
"248006","077-UY","2019/11/14 17:59:19","新北市五股區中興路二段147-1號","121.458268333333","25.07783","6501500","五股區"
"248008","KED-0815","2019/11/14 17:59:34","新北市五股區中興路二段147號","121.458311666667","25.0779316666667","6501500","五股區"
"248020","KED-0813","2019/11/14 17:59:33","新北市五股區中興路二段63巷17號","121.460261666667","25.0753133333333","6501500","五股區"
"248012","247-BX","2019/11/14 17:59:31","新北市五股區中興路二段83巷26-6號","121.459943333333","25.0749383333333","6501500","五股區"
"232011","375-UM","2019/11/14 17:59:17","新北市坪林區水柳腳132號","121.708866666667","24.9349066666667","6502000","坪林區"
"244007","080-UY","2019/11/14 17:59:30","新北市林口區林口路152號","121.387986666667","25.0822283333333","6501700","林口區"
"244019","402-UM","2019/11/14 17:59:21","新北市林口區麗園路52巷1號","121.373615","25.069915","6501700","林口區"
"244013","KEA-2802","2019/11/14 17:59:31","新北市林口區中山路136號","121.391836666667","25.0786583333333","6501700","林口區"
"244023","483-VK","2019/11/14 17:59:17","新北市林口區東湖路41巷14號","121.386196666667","25.0732833333333","6501700","林口區"
"244017","485-VK","2019/11/14 17:59:16","新北市林口區忠孝路372號","121.369261666667","25.0714033333333","6501700","林口區"
"244009","656-BX","2019/11/14 17:59:31","新北市林口區佳林路97號","121.385968333333","25.0804766666667","6501700","林口區"
"244011","701-TV","2019/11/14 17:59:14","新北市林口區中山路1號","121.396745","25.07808","6501700","林口區"
"244025","837-TS","2019/11/14 17:59:21","新北市林口區三民路18號","121.358546666667","25.06655","6501700","林口區"
"244021","838-TS","2019/11/14 17:59:15","新北市林口區仁愛路123巷1號","121.398706666667","25.0706133333333","6501700","林口區"
"222003","436-BY","2019/11/14 17:59:19","新北市深坑區炮子崙24號","121.603755","24.987225","6501800","深坑區"
"222002","659-BX","2019/11/14 17:59:29","新北市深坑區文化街102號","121.616663333333","25.001855","6501800","深坑區"
"231055","4716-K9","2019/11/14 17:59:25","新北市新店區安華路28-1號","121.519703333333","24.9607216666667","6500600","新店區"
"231040","898-TW","2019/11/14 17:59:10","新北市新店區安一路一段1-1號","121.519431666667","24.9610216666667","6500600","新店區"
"241028","022-UY","2019/11/14 17:59:20","新北市八里區中華路三段19號","121.396651666667","25.143265","6500200","三重區"
"241016","266-UM","2019/11/14 17:59:23","新北市三重區重化街3號","121.468271666667","25.06437","6500200","三重區"
"241024","KEA-2210","2019/11/14 17:59:14","新北市三重區中正北路193巷35弄69號","121.478663333333","25.0713333333333","6500200","三重區"
"241033","557-UM","2019/11/14 17:59:20","新北市三重區光復路一段68巷58號","121.470041666667","25.0491866666667","6500200","三重區"
"235064","005-UY","2019/11/14 17:59:25","新北市中和區錦和路350-1號","121.49054","24.99354","6500300","中和區"
"235063","006-UY","2019/11/14 17:59:28","新北市中和區員山路36巷16-3號","121.485133333333","24.9913766666667","6500300","中和區"
"235065","098-UM","2019/11/14 17:59:22","新北市中和區新生街163號","121.483728333333","25.0011866666667","6500300","中和區"
"235040","150-BY","2019/11/14 17:59:26","新北市中和區中正路637巷60弄61號","121.485418333333","24.9932566666667","6500300","中和區"
"235058","151-BY","2019/11/14 17:59:23","新北市中和區圓通路367巷33弄59號","121.495578333333","24.986105","6500300","中和區"
"235038","185-VK","2019/11/14 17:59:17","新北市中和區景平路293號","121.507143333333","24.9931516666667","6500300","中和區"
"235042","KEA-2878","2019/11/14 17:59:29","新北市中和區中正路166-1號","121.498346666667","24.9938766666667","6500300","中和區"
"235069","4980-A6","2019/11/14 17:59:24","新北市中和區員山路36巷16-4號","121.48532","24.99187","6500300","中和區"
"235070","558-UM","2019/11/14 17:59:13","新北市中和區員山路36巷16-6號","121.485323333333","24.99204","6500300","中和區"
"235062","800-TS","2019/11/14 17:59:18","新北市中和區新生街163號","121.483648333333","25.00121","6500300","中和區"
"235051","157-BY","2019/11/14 17:59:20","新北市中和區中正路637巷52弄1號","121.485456666667","24.993385","6500300","中和區"
"235037","AAC-213","2019/11/14 17:59:18","新北市中和區景平路177號","121.511848333333","24.9925833333333","6500300","中和區"
"247020","546-UM","2019/11/14 17:59:20","新北市蘆洲區民義街35巷7號","121.471503333333","25.0894933333333","6501400","蘆洲區"
"247016","500-BY","2019/11/14 17:59:19","新北市蘆洲區中正路185巷78弄17號","121.465785","25.08471","6501400","蘆洲區"
"247004","341-TH","2019/11/14 17:59:27","新北市蘆洲區永康街63號","121.456155","25.0851916666667","6501400","蘆洲區"
"247014","056-VK","2019/11/14 17:59:11","新北市蘆洲區三民路125號","121.472331666667","25.086385","6501400","蘆洲區"
"247008","002-UY","2019/11/14 17:59:26","新北市蘆洲區信義路8號","121.473586666667","25.07904","6501400","蘆洲區"
"247002","001-UY","2019/11/14 17:59:33","新北市蘆洲區永平街32巷57弄12號","121.459406666667","25.0930433333333","6501400","蘆洲區"
"228003","097-TW","2019/11/14 17:59:33","新北市貢寮區真理里美艷山街6-2號","121.928875","25.06074","6502600","貢寮區"
"228001","212-TW","2019/11/14 17:59:22","新北市貢寮區仁理村仁愛路106巷36號","121.92907","25.05354","6502600","貢寮區"
"228002","663-BX","2019/11/14 17:59:11","新北市貢寮區福連里香蘭街2-1號","121.96831","25.02338","6502600","貢寮區"
"224006","676-BX","2019/11/14 17:59:22","新北市瑞芳區傑魚坑路183號","121.788588333333","25.1081883333333","6501200","瑞芳區"
"224009","275-VK","2019/11/14 17:59:23","新北市瑞芳區山尖路2號","121.854205","25.1164533333333","6501200","瑞芳區"
"224008","273-VK","2019/11/14 17:59:16","新北市瑞芳區明燈路一段45巷100號","121.821261666667","25.1040016666667","6501200","瑞芳區"
"224005","271-BY","2019/11/14 17:59:26","新北市瑞芳區深澳路18號","121.820581666667","25.132695","6501200","瑞芳區"
"227001","642-TC","2019/11/14 17:39:13","新北市雙溪區三貂里定福路1-2號","121.850783333333","25.063425","6502500","雙溪區"
"227002","400-TW","2019/11/14 17:59:18","新北市雙溪區共和里東榮街52號","121.866345","25.0336366666667","6502500","雙溪區"
"253005","032-BX","2019/11/14 17:59:20","新北市石門區中山路62-11號","121.567523333333","25.2896983333333","6502200","石門區"
"253006","295-VK","2019/11/14 17:59:29","新北市石門區大丘田45-1號","121.549796666667","25.2751433333333","6502200","石門區"
"222001","KEA-2212","2019/11/14 17:59:22","新北市深坑區北深路三段13-1號","121.609923333333","25.0009883333333","6501800","深坑區"
"208002","KEA-2872","2019/11/14 17:59:24","新北市金山區三界壇路54號","121.62257","25.2293283333333","6502700","金山區"
"208003","665-BX","2019/11/14 17:59:13","新北市金山區磺港里磺港路313號","121.64431","25.227855","6502700","金山區"
"251004","009-UM","2019/11/14 17:59:23","新北市淡水區民權路82號","121.459223333333","25.1336366666667","6501000","淡水區"
"251005","010-UM","2019/11/14 17:59:22","新北市淡水區英專路128號","121.446326666667","25.1726233333333","6501000","淡水區"
"251015","KEA-2871","2019/11/14 17:59:22","新北市淡水區興福寮25號","121.493083333333","25.164085","6501000","淡水區"
"251016","180-VK","2019/11/14 17:59:25","新北市淡水區淡金路三段36號","121.448048333333","25.1989916666667","6501000","淡水區"
"251008","181-VK","2019/11/14 17:59:13","新北市淡水區八勢路30巷19號","121.462825","25.1535966666667","6501000","淡水區"
"251013","182-VK","2019/11/14 17:59:20","新北市淡水區泉洲厝31號","121.47954","25.1910066666667","6501000","淡水區"
"251010","413-VK","2019/11/14 17:59:31","新北市淡水區中正路一段132巷22號","121.422953333333","25.1798966666667","6501000","淡水區"
"251012","441-VK","2019/11/14 17:59:17","新北市淡水區北新路三段22號","121.48367","25.1864166666667","6501000","淡水區"
"251001","559-UM","2019/11/14 17:59:25","新北市淡水區民權路94巷1號","121.46314","25.124855","6501000","淡水區"
"251006","561-UM","2019/11/14 17:59:15","新北市淡水區新生街15號","121.438868333333","25.173135","6501000","淡水區"
"251009","575-R6","2019/11/14 17:59:20","新北市淡水區中山路108巷16號","121.442191666667","25.1712033333333","6501000","淡水區"
"251014","577-R6","2019/11/14 17:59:00","新北市淡水區公埔子16-6號","121.481043333333","25.2245383333333","6501000","淡水區"
"251011","650-BX","2019/11/14 17:59:16","新北市淡水區吳(仔)厝20號","121.47934","25.1484","6501000","淡水區"
"251002","672-BX","2019/11/14 17:59:27","新北市淡水區中山路24號","121.444508333333","25.1695833333333","6501000","淡水區"
"251003","673-BX","2019/11/14 17:59:18","新北市淡水區大忠街45號","121.444658333333","25.1763416666667","6501000","淡水區"
"207003","681-TV","2019/11/14 17:59:22","新北市萬里區野柳里東澳路66號","121.69284","25.2009716666667","6502800","萬里區"
"207004","291-VK","2019/11/14 17:59:28","新北市萬里區萬里里瑪鋉路5號","121.686171666667","25.1749266666667","6502800","萬里區"
"252002","178-VK","2019/11/14 17:59:24","新北市三芝區中山路二段45號","121.503016666667","25.2548316666667","6502100","三芝區"
"208001","170-UY","2019/11/14 17:59:20","新北市金山區磺港里磺港路228號","121.644535","25.22562","6502700","金山區"
"237007","153-BY","2019/11/14 17:59:30","新北市三峽區中園街108號","121.367121666667","24.9230166666667","6500900","三峽區"
"237009","210-TH","2019/11/14 17:59:28","新北市三峽區中山路106巷2號","121.366091666667","24.936005","6500900","三峽區"
"237013","252-BX","2019/11/14 17:59:31","新北市三峽區介壽路一段53號","121.375598333333","24.9329","6500900","三峽區"
"237012","275-BY","2019/11/14 17:59:19","新北市三峽區民生街27巷2號","121.37602","24.9362083333333","6500900","三峽區"
"237008","302-VK","2019/11/14 17:59:27","新北市三峽區正義街140-2號","121.368375","24.9161216666667","6500900","三峽區"
"237014","433-BY","2019/11/14 17:59:33","新北市三峽區復興路101巷1弄79號","121.371005","24.9376783333333","6500900","三峽區"
"237006","5529-G3","2019/11/14 17:59:28","新北市三峽區介壽路二段138巷1弄90-7號","121.397381666667","24.9320533333333","6500900","三峽區"
"237011","KEA-2596","2019/11/14 17:59:19","新北市三峽區中正路一段27號","121.376001666667","24.9307333333333","6500900","三峽區"
"237015","649-BX","2019/11/14 17:59:19","新北市三峽區紫微路93號","121.410143333333","24.9147466666667","6500900","三峽區"
"237010","706-TV","2019/11/14 17:59:30","新北市三峽區民權街153號","121.368085","24.9306766666667","6500900","三峽區"
"237004","756-BX","2019/11/14 17:59:23","新北市三峽區大埔路68號","121.366391666667","24.9076716666667","6500900","三峽區"
"237005","AKY-6261","2019/11/14 17:59:12","新北市三峽區復興路239-2號","121.368195","24.9383566666667","6500900","三峽區"
"236042","KED-0685","2019/11/14 17:59:18","新北市土城區城林路6巷80號","121.438495","24.9795583333333","6501300","土城區"
"233002","762-BX","2019/11/14 17:59:24","新北市烏來區烏來街125號","121.551505","24.863025","6502900","烏來區"
"236078","166-UM","2019/11/14 17:59:25","新北市土城區永寧路32巷10弄8號","121.42906","24.960985","6501300","土城區"
"236030","253-BX","2019/11/14 17:59:20","新北市土城區城林路6巷80號","121.438676666667","24.9796783333333","6501300","土城區"
"236026","269-VK","2019/11/14 17:59:21","新北市土城區中央路三段96-1號","121.435645","24.966385","6501300","土城區"
"236014","270-VK","2019/11/14 17:59:18","新北市土城區城林路6巷80號","121.43849","24.9795966666667","6501300","土城區"
"236038","271-VK","2019/11/14 17:59:24","新北市土城區城林路6巷80號","121.438461666667","24.9797333333333","6501300","土城區"
"247012","KED-0683","2019/11/14 17:59:27","新北市蘆洲區復興路182號","121.478015","25.088495","6501400","蘆洲區"
"236070","KEA-2877","2019/11/14 17:59:30","新北市土城區青雲路474-2號","121.463883333333","24.966275","6501300","土城區"
"252001","KED-0821","2019/11/14 17:59:15","新北市三芝區中興街二段2號","121.49838","25.2566","6502100","三芝區"
"236021","401-BY","2019/11/14 17:59:24","新北市土城區城林路6巷80號","121.438548333333","24.9797516666667","6501300","土城區"
"236049","752-BX","2019/11/14 17:58:39","新北市土城區中華路二段119號","121.439145","24.976695","6501300","土城區"
"236059","912-UM","2019/11/14 17:59:29","新北市土城區中央路三段250號","121.42759","24.96417","6501300","土城區"
"236063","915-UM","2019/11/14 17:59:30","新北市土城區城林路6巷80號","121.438461666667","24.9796116666667","6501300","土城區"
"236055","AAC-216","2019/11/14 17:59:15","新北市土城區城林路6巷80號","121.43849","24.9795816666667","6501300","土城區"
"242042","AAC-296","2019/11/14 17:59:29","新北市新莊區中正路723-9號","121.423","25.0290883333333","6500500","新莊區"
"242061","986-R7","2019/11/14 17:59:21","新北市新莊區瓊林南路315號","121.43378","25.0058983333333","6500500","新莊區"
"242004","751-BX","2019/11/14 17:59:31","新北市新莊區福樂街35號","121.457621666667","25.0469533333333","6500500","新莊區"
"242023","705-TV","2019/11/14 17:59:26","新北市新莊區福壽街20號","121.458058333333","25.047985","6500500","新莊區"
"242029","615-BX","2019/11/14 17:59:22","新北市新莊區中平路79號","121.444706666667","25.045275","6500500","新莊區"
"242027","613-BX","2019/11/14 17:59:31","新北市新莊區中原路1號","121.45948","25.0543216666667","6500500","新莊區"
"242058","612-BX","2019/11/14 17:59:26","新北市新莊區雙鳳路134巷8號","121.412776666667","25.0282416666667","6500500","新莊區"
"242048","566-BX","2019/11/14 17:59:28","新北市新莊區萬安街55號","121.42147","25.0243966666667","6500500","新莊區"
"242053","497-BY","2019/11/14 17:59:19","新北市新莊區光華街4號","121.428663333333","25.0106433333333","6500500","新莊區"
"242051","442-UM","2019/11/14 17:59:23","新北市新莊區西盛街167號","121.428196666667","25.01763","6500500","新莊區"
"242002","441-UM","2019/11/14 17:59:24","新北市新莊區中正路153-1號","121.455966666667","25.0367833333333","6500500","新莊區"
"242044","415-TV","2019/11/14 17:59:14","新北市新莊區雙鳳路105號","121.414141666667","25.02779","6500500","新莊區"
"242013","413-TV","2019/11/14 17:59:21","新北市新莊區中和街123號","121.447236666667","25.048595","6500500","新莊區"
"242025","362-BY","2019/11/14 17:59:15","新北市新莊區五工路58號","121.458831666667","25.062785","6500500","新莊區"
"242015","132-UY","2019/11/14 17:59:14","新北市新莊區中平路87巷3號","121.444333333333","25.0457416666667","6500500","新莊區"
"242056","172-VK","2019/11/14 17:59:28","新北市新莊區豐年街124巷12號","121.44578","25.0298816666667","6500500","新莊區"
"242017","173-VK","2019/11/14 17:59:14","新北市新莊區中和街60巷15號","121.448653333333","25.0448233333333","6500500","新莊區"
"242031","175-VK","2019/11/14 17:59:15","新北市新莊區新泰路357巷1弄2號","121.442701666667","25.0412533333333","6500500","新莊區"
"242009","176-VK","2019/11/14 17:59:28","新北市新莊區中華路二段260號","121.452538333333","25.0532316666667","6500500","新莊區"
"242021","KED-0687","2019/11/14 17:59:15","新北市新莊區中正路217號","121.45104","25.035655","6500500","新莊區"
"242007","346-TH","2019/11/14 17:59:18","新北市新莊區自信街65巷12號","121.455495","25.0486916666667","6500500","新莊區"
"242039","347-TH","2019/11/14 17:59:16","新北市新莊區民安西路24巷20弄2號","121.426071666667","25.0207233333333","6500500","新莊區"
"242036","348-TH","2019/11/14 17:59:16","新北市新莊區後港一路63號","121.42645","25.026585","6500500","新莊區"
"242034","350-TH","2019/11/14 17:59:19","新北市新莊區福海街12號","121.445298333333","25.0336283333333","6500500","新莊區"
"242019","351-TH","2019/11/14 17:59:19","新北市新莊區明中街49巷15號","121.456771666667","25.0389283333333","6500500","新莊區"
"238015","755-BX","2019/11/14 17:59:17","新北市樹林區啟智街156巷1號","121.41476","24.9873533333333","6500700","樹林區"
"238023","601-UM","2019/11/14 17:59:22","新北市樹林區龍興街32巷5號","121.402685","25.0157366666667","6500700","樹林區"
"238019","599-UM","2019/11/14 17:59:18","新北市樹林區太平路225巷1號","121.418626666667","24.97717","6500700","樹林區"
"238018","KEA-2217","2019/11/14 17:59:33","新北市樹林區中正路7-1號","121.430213333333","24.9975933333333","6500700","樹林區"
"238022","KEA-2213","2019/11/14 17:59:29","新北市樹林區太平路150巷25號","121.417426666667","24.9775066666667","6500700","樹林區"
"238021","KEA-2539","2019/11/14 17:59:27","新北市樹林區柑園街一段367號","121.388645","24.955965","6500700","樹林區"
"238025","303-VK","2019/11/14 17:59:22","新北市樹林區三俊街104號","121.414646666667","25.0155483333333","6500700","樹林區"
"238017","283-BY","2019/11/14 17:59:14","新北市樹林區中正路644號","121.409941666667","25.01621","6500700","樹林區"
"238001","282-BY","2019/11/14 17:59:24","新北市樹林區大安路11號","121.42505","25.0004266666667","6500700","樹林區"
"238020","268-VK","2019/11/14 17:59:34","新北市樹林區三俊街201號","121.420106666667","25.01576","6500700","樹林區"
"238026","172-UY","2019/11/14 17:59:19","新北市樹林區中洲街30巷14號","121.397735","24.9716416666667","6500700","樹林區"
"238016","169-UY","2019/11/14 17:59:31","新北市樹林區育英街128號","121.41977","24.98936","6500700","樹林區"
"239007","AAC-297","2019/11/14 17:59:20","新北市鶯歌區鶯桃路94巷33-11號","121.342226666667","24.9542333333333","6500800","鶯歌區"
"239006","891-R6","2019/11/14 17:59:32","新北市鶯歌區鶯桃路413巷74號","121.329768333333","24.9631016666667","6500800","鶯歌區"
"239008","527-UM","2019/11/14 17:59:31","新北市鶯歌區香賓街7巷9號","121.3363","24.979125","6500800","鶯歌區"
"239001","417-VK","2019/11/14 17:59:19","新北市鶯歌區中正三路236-3號","121.330308333333","24.9369033333333","6500800","鶯歌區"
"239003","360-BY","2019/11/14 17:59:16","新北市鶯歌區鶯桃路285巷37號","121.333971666667","24.9584633333333","6500800","鶯歌區"
"239002","359-BY","2019/11/14 17:59:17","新北市鶯歌區國華路81號","121.342963333333","24.9542833333333","6500800","鶯歌區"
"221008","489-VK","2019/11/14 17:59:18","新北市汐止區康寧街753巷2弄8號","121.639236666667","25.0738416666667","6501100","汐止區"
"221010","269-BY","2019/11/14 17:59:35","新北市汐止區汐萬路二段247號","121.646491666667","25.0882733333333","6501100","汐止區"
"221023","279-VK","2019/11/14 17:59:30","新北市汐止區明峰街72號","121.631493333333","25.0711766666667","6501100","汐止區"
"221029","298-VK","2019/11/14 17:59:32","新北市汐止區樟樹二路344-1號","121.641511666667","25.0706216666667","6501100","汐止區"
"221031","353-TW","2019/11/14 17:59:24","新北市汐止區中興路96巷1-3號","121.635228333333","25.0625183333333","6501100","汐止區"
"221035","622-UM","2019/11/14 17:59:24","新北市汐止區汐萬路一段204號","121.652111666667","25.0722616666667","6501100","汐止區"
"221025","623-UM","2019/11/14 17:59:18","新北市汐止區新台五路一段266號","121.659118333333","25.06393","6501100","汐止區"
"221038","646-BX","2019/11/14 17:59:19","新北市汐止區新台五路一段151號","121.653551666667","25.06223","6501100","汐止區"
"221033","647-BX","2019/11/14 17:59:25","新北市汐止區合順街31號","121.620446666667","25.0432016666667","6501100","汐止區"
"221018","753-BX","2019/11/14 17:59:33","新北市汐止區忠孝東路337號","121.66537","25.06992","6501100","汐止區"
"233001","KEA-2870","2019/11/14 17:59:14","新北市烏來區西羅岸路22號","121.549328333333","24.867355","6502900","烏來區"
"242046","281-VK","2019/11/14 17:59:26","新北市新莊區福營路165巷43號","121.4329","25.0299133333333","6500500","新莊區"
"242011","280-VK","2019/11/14 17:59:11","新北市新莊區中港路672號","121.450841666667","25.0564266666667","6500500","新莊區"
