"lineid","car","time","location","longitude","latitude","cityid","cityname"
"234046","148-BY","2019/11/14 19:13:14","新北市永和區秀朗路二段150號","121.525451666667","25.0014716666667","6500400","永和區"
"234081","298-R6","2019/11/14 19:13:23","新北市永和區永貞路39巷9弄1號","121.521885","25.0065683333333","6500400","永和區"
"234038","336-UY","2019/11/14 19:13:21","新北市永和區民樂街69巷1號","121.527408333333","24.99778","6500400","永和區"
"234064","337-UY","2019/11/14 19:13:27","新北市永和區永元路95號","121.52231","25.0018083333333","6500400","永和區"
"234086","338-UY","2019/11/14 19:13:29","新北市永和區永利路4巷11號","121.517606666667","25.0052383333333","6500400","永和區"
"234070","552-UM","2019/11/14 19:13:28","新北市永和區豫溪街135號","121.519708333333","25.0101816666667","6500400","永和區"
"234017","745-BX","2019/11/14 19:13:22","新北市永和區文化路90巷36號","121.513483333333","25.01647","6500400","永和區"
"234030","746-BX","2019/11/14 19:13:28","新北市永和區四維街73號","121.52535","24.997985","6500400","永和區"
"234054","KEA-2590","2019/11/14 19:13:34","新北市永和區中興街80號","121.517933333333","25.0119916666667","6500400","永和區"
"234007","KED-0605","2019/11/14 19:13:31","新北市中和區中山路二段60號","121.50401","25.00475","6500400","永和區"
"234013","KEA-2591","2019/11/14 19:13:19","新北市永和區保福路二段50號","121.510958333333","25.01225","6500400","永和區"
"234061","AAD-866","2019/11/14 19:13:20","新北市永和區秀朗路一段66號","121.51524","25.00637","6500400","永和區"
"234042","862-TW","2019/11/14 19:13:22","新北市永和區保平路203巷6弄1號","121.50931","25.00448","6500400","永和區"
"234050","863-TW","2019/11/14 19:13:13","新北市永和區保福路二段94巷2號","121.510368333333","25.0136233333333","6500400","永和區"
"234026","9371-KE","2019/11/14 19:13:25","新北市永和區安樂路198巷5號","121.515536666667","25.0019916666667","6500400","永和區"
"234011","9373-KE","2019/11/14 19:13:20","新北市永和區中山路一段88號","121.511806666667","25.0107966666667","6500400","永和區"
"249005","172-UM","2019/11/14 19:13:30","新北市八里區中華路三段98號","121.392811666667","25.137995","6502300","八里區"
"249001","173-UM","2019/11/14 19:13:19","新北市八里區龍米路三段58-1號","121.424378333333","25.1591116666667","6502300","八里區"
"249003","593-UM","2019/11/14 19:13:26","新北市八里區中山路二段356巷56號","121.399823333333","25.1518133333333","6502300","八里區"
"248008","KED-0815","2019/11/14 19:13:14","新北市五股區中興路二段83巷26-3號","121.460006666667","25.0753533333333","6501500","五股區"
"248020","KED-0813","2019/11/14 19:13:13","新北市五股區凌雲路三段57號","121.42527","25.124965","6501500","五股區"
"248012","247-BX","2019/11/14 19:13:31","新北市五股區中興路四段48巷16號","121.438606666667","25.083455","6501500","五股區"
"248004","677-BX","2019/11/14 19:13:28","新北市五股區五福路69號","121.432621666667","25.0900933333333","6501500","五股區"
"234023","9380-KE","2019/11/14 19:13:28","新北市永和區中興街10巷78號","121.516851666667","25.01085","6500400","永和區"
"234077","969-R7","2019/11/14 19:13:32","新北市永和區民權路36巷22號","121.519163333333","24.9990116666667","6500400","永和區"
"234074","AAC-211","2019/11/14 19:13:25","新北市永和區竹林路160號","121.520233333333","25.0105933333333","6500400","永和區"
"234067","AAC-212","2019/11/14 19:13:28","新北市永和區保平路18巷1號","121.512285","25.0076616666667","6500400","永和區"
"234003","AAC-295","2019/11/14 19:13:34","新北市永和區永平路150號","121.511353333333","25.0086816666667","6500400","永和區"
"244023","483-VK","2019/11/14 19:13:17","新北市林口區文林六街27巷36號","121.370468333333","25.0814066666667","6501700","林口區"
"244025","837-TS","2019/11/14 19:13:21","新北市林口區民族路96號","121.366275","25.0758183333333","6501700","林口區"
"243012","AAD-798","2019/11/14 19:13:22","新北市泰山區辭修路10-3號","121.43009","25.057735","6501600","泰山區"
"243010","297-R6","2019/11/14 19:13:31","新北市泰山區明志路一段470巷3號","121.430335","25.0554133333333","6501600","泰山區"
"243014","KEA-2801","2019/11/14 19:13:16","新北市泰山區泰林路二段251號","121.431823333333","25.0622333333333","6501600","泰山區"
"243016","421-VK","2019/11/14 19:13:19","新北市泰山區明志路三段77號","121.425005","25.0418966666667","6501600","泰山區"
"243009","KEA-2215","2019/11/14 19:13:14","新北市泰山區文化街32號","121.435108333333","25.0634983333333","6501600","泰山區"
"243011","KEA-2216","2019/11/14 19:13:16","新北市泰山區明志路二段325號","121.425808333333","25.04509","6501600","泰山區"
"243013","646-TV","2019/11/14 19:13:24","新北市泰山區台麗街14號","121.424615","25.037995","6501600","泰山區"
"243015","680-BX","2019/11/14 19:13:31","新北市泰山區公園路23號","121.42907","25.0542833333333","6501600","泰山區"
"222003","436-BY","2019/11/14 19:13:19","新北市深坑區深南路204號","121.626675","25.0160383333333","6501800","深坑區"
"222002","659-BX","2019/11/14 19:13:13","新北市深坑區紅葉街24號","121.632386666667","25.0136566666667","6501800","深坑區"
"231061","002-UM","2019/11/14 19:13:27","新北市新店區安康路一段148號","121.526383333333","24.9628883333333","6500600","新店區"
"231044","046-UY","2019/11/14 19:13:24","新北市新店區中興路三段170號","121.544276666667","24.9809216666667","6500600","新店區"
"231060","106-UY","2019/11/14 19:13:15","新北市新店區安康路二段199號","121.50911","24.95898","6500600","新店區"
"231051","107-UY","2019/11/14 19:13:15","新北市新店區中正路400巷15號","121.53505","24.97826","6500600","新店區"
"231049","108-UY","2019/11/14 19:13:21","新北市新店區二十張路33巷15號","121.539378333333","24.980995","6500600","新店區"
"231065","110-UY","2019/11/14 19:13:25","新北市新店區安祥路110巷61號","121.473775","24.9569066666667","6500600","新店區"
"231062","256-BX","2019/11/14 19:13:22","新北市新店區安平路35巷4號","121.521731666667","24.9671483333333","6500600","新店區"
"231054","260-TV","2019/11/14 19:13:13","新北市新店區新店路185號","121.537115","24.9560633333333","6500600","新店區"
"231042","268-BY","2019/11/14 19:13:26","新北市新店區中興路一段117號","121.541563333333","24.9628533333333","6500600","新店區"
"231064","278-BY","2019/11/14 19:13:24","新北市新店區安忠路57巷1-8號","121.51348","24.9593433333333","6500600","新店區"
"231050","AAD-862","2019/11/14 19:13:29","新北市新店區竹林路30巷21號","121.552031666667","24.9500816666667","6500600","新店區"
"231045","355-BY","2019/11/14 19:13:32","新北市新店區北宜路一段169號","121.542795","24.9528816666667","6500600","新店區"
"231058","3713-VJ","2019/11/14 19:13:13","新北市新店區光明街94號","121.538973333333","24.96034","6500600","新店區"
"231055","4716-K9","2019/11/14 19:13:25","新北市新店區中央一街37號","121.527466666667","24.973405","6500600","新店區"
"231067","4772-VM","2019/11/14 19:13:21","新北市新店區安康路一段247巷29號","121.524566666667","24.9620316666667","6500600","新店區"
"231052","513-UM","2019/11/14 19:13:26","新北市新店區屈尺路168號","121.545138333333","24.9236383333333","6500600","新店區"
"231063","616-UM","2019/11/14 19:13:20","新北市新店區達觀路6號","121.505401666667","24.94274","6500600","新店區"
"231041","619-UM","2019/11/14 19:13:22","新北市新店區溪園路373號","121.523365","24.98002","6500600","新店區"
"231047","KED-0819","2019/11/14 19:13:23","新北市新店區德正街27巷29弄82號","121.545765","24.9735","6500600","新店區"
"231046","719-UM","2019/11/14 19:13:25","新北市新店區華城路12-1號","121.529186666667","24.9578583333333","6500600","新店區"
"231057","720-UM","2019/11/14 19:13:29","新北市新店區百齡一路12號","121.553093333333","24.932475","6500600","新店區"
"231059","897-TW","2019/11/14 19:13:32","新北市新店區安和路一段52巷2-1號","121.517785","24.9666933333333","6500600","新店區"
"231040","898-TW","2019/11/14 19:13:10","新北市新店區三民路155-1號","121.533876666667","24.9734366666667","6500600","新店區"
"231043","899-TW","2019/11/14 19:13:24","新北市新店區寶橋路47號","121.544776666667","24.974645","6500600","新店區"
"231066","AKT-0513","2019/11/14 19:13:15","新北市新店區安祥路35-2號","121.49066","24.9568983333333","6500600","新店區"
"241011","013-R5","2019/11/14 19:13:16","新北市三重區河邊北街100巷20號","121.503096666667","25.0701216666667","6500200","三重區"
"241031","061-VK","2019/11/14 19:13:29","新北市三重區重新路四段85巷14號","121.485531666667","25.0555233333333","6500200","三重區"
"241035","462-BY","2019/11/14 19:13:30","新北市三重區信義西街138號","121.495556666667","25.0643616666667","6500200","三重區"
"241020","478-VK","2019/11/14 19:13:23","新北市三重區後竹圍街124號","121.488271666667","25.07255","6500200","三重區"
"241026","480-VK","2019/11/14 19:13:22","新北市三重區中正南路240號","121.493468333333","25.0541666666667","6500200","三重區"
"241022","KED-0820","2019/11/14 19:13:26","新北市三重區中正北路111-2號","121.485306666667","25.0654966666667","6500200","三重區"
"241029","942-UM","2019/11/14 19:13:20","新北市三重區中正南路199號","121.493486666667","25.0545083333333","6500200","三重區"
"235064","005-UY","2019/11/14 19:13:25","新北市中和區連城路5號","121.499253333333","25.00229","6500300","中和區"
"235063","006-UY","2019/11/14 19:13:28","新北市中和區中正路262號","121.495431666667","24.99439","6500300","中和區"
"235056","096-UM","2019/11/14 19:13:31","新北市中和區員山路527號","121.479718333333","25.0068966666667","6500300","中和區"
"235039","097-UM","2019/11/14 19:13:26","新北市中和區景平路3號","121.52368","24.990215","6500300","中和區"
"235065","098-UM","2019/11/14 19:13:22","新北市中和區中山路二段64巷8號","121.503686666667","25.004955","6500300","中和區"
"235040","150-BY","2019/11/14 19:13:26","新北市中和區保健路48巷2號","121.509995","24.99695","6500300","中和區"
"235058","151-BY","2019/11/14 19:13:23","新北市中和區連城路523巷11弄2號","121.48173","24.9941083333333","6500300","中和區"
"235055","183-VK","2019/11/14 19:13:28","新北市中和區莒光路65號","121.472251666667","25.0034333333333","6500300","中和區"
"235038","185-VK","2019/11/14 19:13:16","新北市中和區大仁街10巷5號","121.518091666667","24.99263","6500300","中和區"
"235067","255-BX","2019/11/14 19:13:17","新北市中和區民樂路34號","121.482863333333","25.0011733333333","6500300","中和區"
"235044","293-VK","2019/11/14 19:13:15","新北市中和區中興街266巷1號","121.498386666667","24.987665","6500300","中和區"
"235072","301-VK","2019/11/14 19:13:27","新北市中和區連城路196號","121.492081666667","24.996685","6500300","中和區"
"235043","352-BY","2019/11/14 19:13:22","新北市中和區景平路372號","121.510701666667","24.9928466666667","6500300","中和區"
"235042","KEA-2878","2019/11/14 19:13:29","新北市中和區安樂路191巷20號","121.514376666667","24.997925","6500300","中和區"
"235050","4979-A6","2019/11/14 19:13:31","新北市中和區景安路220巷24號","121.502646666667","24.9915183333333","6500300","中和區"
"235069","4980-A6","2019/11/14 19:13:26","新北市中和區中山路二段148-3號","121.501675","25.0035633333333","6500300","中和區"
"235070","558-UM","2019/11/14 19:13:13","新北市中和區中山路二段211號","121.498913333333","25.00265","6500300","中和區"
"235045","565-BX","2019/11/14 19:13:21","新北市中和區景新街423巷35弄34號","121.513981666667","24.99042","6500300","中和區"
"235060","KED-0823","2019/11/14 19:13:18","新北市中和區員山路296號","121.481331666667","25.0025716666667","6500300","中和區"
"235054","640-BX","2019/11/14 19:13:14","新北市中和區國光街112巷14弄1號","121.469898333333","25.0013116666667","6500300","中和區"
"235071","647-TV","2019/11/14 19:13:12","新北市中和區連城路453號","121.484588333333","24.996195","6500300","中和區"
"235047","732-UM","2019/11/14 19:13:25","新北市中和區和平街54巷5弄1號","121.508821666667","24.9912966666667","6500300","中和區"
"235046","733-UM","2019/11/14 19:13:21","新北市中和區忠孝街2號","121.508683333333","24.9828533333333","6500300","中和區"
"235057","801-TS","2019/11/14 19:13:30","新北市中和區員山路421號","121.480998333333","25.0034066666667","6500300","中和區"
"235041","802-TS","2019/11/14 19:13:18","新北市永和區中和路373號","121.50847","24.99982","6500300","中和區"
"235052","805-TS","2019/11/14 19:13:24","新北市中和區興南路二段142巷17弄4號","121.503391666667","24.9833316666667","6500300","中和區"
"235048","896-TW","2019/11/14 19:13:28","新北市中和區忠孝街39-13號","121.512106666667","24.9844983333333","6500300","中和區"
"235053","900-TW","2019/11/14 19:13:29","新北市中和區華安街30巷6-1號","121.466951666667","24.9976033333333","6500300","中和區"
"235051","157-BY","2019/11/14 19:13:20","新北市中和區和平街2巷1號","121.510116666667","24.9902","6500300","中和區"
"235037","AAC-213","2019/11/14 19:13:18","新北市中和區自立路15巷2號","121.522508333333","24.996045","6500300","中和區"
"235059","AAC-215","2019/11/14 19:13:33","新北市中和區圓通路429號","121.488181666667","24.9888133333333","6500300","中和區"
"220035","015-TV","2019/11/14 19:13:24","新北市板橋區中正路328號","121.454415","25.0214716666667","6500100","板橋區"
"220065","072-UY","2019/11/14 19:13:17","新北市板橋區民族路219巷96-1號","121.469548333333","25.0091483333333","6500100","板橋區"
"220086","073-UY","2019/11/14 19:13:14","新北市板橋區中正路250巷91號","121.45945","25.01999","6500100","板橋區"
"220106","075-UY","2019/11/14 19:13:19","新北市板橋區江寧路三段87巷2弄38號","121.473185","25.03329","6500100","板橋區"
"220069","AAD-861","2019/11/14 19:13:27","新北市板橋區大明街20巷19弄24號","121.457665","25.003275","6500100","板橋區"
"226004","312-R5","2019/11/14 19:13:13","新北市平溪區望古里灰3-1號","121.757205","25.0295433333333","6502400","平溪區"
"235049","251-BX","2019/11/14 19:13:25","新北市中和區景新街224-20號","121.507943333333","24.9945916666667","6500300","中和區"
"228003","097-TW","2019/11/14 19:13:33","新北市貢寮區和美里和美街21-1號","121.912436666667","25.0824966666667","6502600","貢寮區"
"228001","212-TW","2019/11/14 19:13:22","新北市貢寮區真理里新港街10號","121.925475","25.0543416666667","6502600","貢寮區"
"228002","663-BX","2019/11/14 19:13:31","新北市貢寮區福隆里興隆街36號","121.9411","25.017475","6502600","貢寮區"
"224010","AGQ-8101","2019/11/14 19:13:25","新北市瑞芳區基山街142號","121.843553333333","25.1081283333333","6501200","瑞芳區"
"224008","273-VK","2019/11/14 19:13:16","新北市瑞芳區瑞芳街118號","121.801476666667","25.110845","6501200","瑞芳區"
"227001","642-TC","2019/11/14 19:13:12","新北市雙溪區牡丹里中正路39號","121.864741666667","25.0384883333333","6502500","雙溪區"
"227002","400-TW","2019/11/14 19:13:26","新北市雙溪區平林里梅竹蹊56-4號","121.860568333333","25.0368783333333","6502500","雙溪區"
"253005","032-BX","2019/11/14 19:13:33","新北市石門區阿里荖33-1號","121.60689","25.280895","6502200","石門區"
"253006","295-VK","2019/11/14 19:13:29","新北市石門區崁子腳46-1號","121.534286666667","25.2887266666667","6502200","石門區"
"222001","KEA-2212","2019/11/14 19:13:25","新北市深坑區北深路二段46號","121.619496666667","25.0042733333333","6501800","深坑區"
"208002","KEA-2872","2019/11/14 19:13:18","新北市金山區環金路376巷1號","121.632011666667","25.2221916666667","6502700","金山區"
"208003","665-BX","2019/11/14 19:13:32","新北市金山區中山路177號","121.63848","25.2208716666667","6502700","金山區"
"251005","010-UM","2019/11/14 19:13:33","新北市淡水區原德路38號","121.442395","25.17214","6501000","淡水區"
"251015","KEA-2871","2019/11/14 19:13:22","新北市淡水區南勢埔20-1號","121.481558333333","25.1786933333333","6501000","淡水區"
"251016","180-VK","2019/11/14 19:13:34","新北市淡水區下圭柔山119-51號","121.450721666667","25.20849","6501000","淡水區"
"251013","182-VK","2019/11/14 19:13:19","新北市淡水區安子內12-1號","121.481501666667","25.2190966666667","6501000","淡水區"
"251010","413-VK","2019/11/14 19:13:31","新北市淡水區沙崙路24號","121.421328333333","25.1813","6501000","淡水區"
"251007","442-VK","2019/11/14 19:13:27","新北市淡水區民生路145巷58號","121.468103333333","25.13895","6501000","淡水區"
"251001","559-UM","2019/11/14 19:13:25","新北市淡水區民權路92巷35-1號","121.462151666667","25.1267616666667","6501000","淡水區"
"251009","575-R6","2019/11/14 19:13:19","新北市淡水區清水街240號","121.440255","25.17194","6501000","淡水區"
"251014","577-R6","2019/11/14 19:13:20","新北市淡水區小中寮19-7號","121.484728333333","25.2296516666667","6501000","淡水區"
"251002","672-BX","2019/11/14 19:13:27","新北市淡水區中山路77號","121.442643333333","25.170505","6501000","淡水區"
"251003","673-BX","2019/11/14 19:13:33","新北市淡水區中山北路一段6號","121.44152","25.1746783333333","6501000","淡水區"
"207003","681-TV","2019/11/14 19:13:22","新北市萬里區大鵬里萬里加投9號","121.652465","25.20884","6502800","萬里區"
"207004","291-VK","2019/11/14 19:13:28","新北市萬里區萬里里瑪鋉路30巷26號","121.68991","25.1767933333333","6502800","萬里區"
"252002","178-VK","2019/11/14 19:13:24","新北市三芝區淡金路二段18-1號","121.502691666667","25.25949","6502100","三芝區"
"208001","170-UY","2019/11/14 19:13:20","新北市金山區慈護街17號","121.639696666667","25.2202833333333","6502700","金山區"
"237007","153-BY","2019/11/14 19:13:30","新北市三峽區麻園13-2號","121.362641666667","24.9156433333333","6500900","三峽區"
"237009","210-TH","2019/11/14 19:13:28","新北市三峽區民生街121號","121.373411666667","24.9352316666667","6500900","三峽區"
"237013","252-BX","2019/11/14 19:13:30","新北市三峽區大同路39巷43號","121.378258333333","24.92756","6500900","三峽區"
"237012","275-BY","2019/11/14 19:13:19","新北市三峽區三樹路222巷236弄69-26號","121.395593333333","24.943575","6500900","三峽區"
"237008","302-VK","2019/11/14 19:13:25","新北市三峽區光明路106巷23號","121.375923333333","24.9271066666667","6500900","三峽區"
"237014","433-BY","2019/11/14 19:13:13","新北市三峽區隆恩街232號","121.357851666667","24.9411533333333","6500900","三峽區"
"237006","5529-G3","2019/11/14 19:13:28","新北市三峽區溪北街109號","121.398343333333","24.9354583333333","6500900","三峽區"
"237011","KEA-2596","2019/11/14 19:13:19","新北市三峽區介壽路三段107號","121.395505","24.9392516666667","6500900","三峽區"
"237015","649-BX","2019/11/14 19:13:19","新北市三峽區安坑41-7號","121.453443333333","24.93148","6500900","三峽區"
"237010","706-TV","2019/11/14 19:13:17","新北市三峽區國光街45號","121.374718333333","24.937795","6500900","三峽區"
"237004","756-BX","2019/11/14 19:13:23","新北市三峽區有木205-1號","121.439026666667","24.8515466666667","6500900","三峽區"
"237005","AKY-6261","2019/11/14 19:13:12","新北市三峽區中山路459巷135號","121.34866","24.9329266666667","6500900","三峽區"
"233002","762-BX","2019/11/14 19:13:24","新北市新店區北新路一段55號","121.538228333333","24.9597533333333","6502900","烏來區"
"236078","166-UM","2019/11/14 19:13:25","新北市土城區龍泉路32號","121.411355","24.9472083333333","6501300","土城區"
"236030","253-BX","2019/11/14 19:13:20","新北市土城區城林路6巷80號","121.438553333333","24.97962","6501300","土城區"
"236026","269-VK","2019/11/14 19:13:21","新北市土城區中央路二段177巷9號","121.443233333333","24.9762116666667","6501300","土城區"
"236014","270-VK","2019/11/14 19:13:18","新北市土城區學府路一段23巷23號","121.457756666667","24.9870316666667","6501300","土城區"
"236070","KEA-2877","2019/11/14 19:13:30","新北市土城區中央路一段170號","121.44576","24.9867416666667","6501300","土城區"
"252001","KED-0821","2019/11/14 19:13:14","新北市三芝區長勤街16號","121.501283333333","25.255765","6502100","三芝區"
"236021","401-BY","2019/11/14 19:13:23","新北市土城區峰廷街18號","121.468981666667","24.987235","6501300","土城區"
"236059","912-UM","2019/11/14 19:13:29","新北市土城區中央路二段225號","121.440373333333","24.9726266666667","6501300","土城區"
"238015","755-BX","2019/11/14 19:13:17","新北市樹林區備內街158巷56號","121.408293333333","24.9899366666667","6500700","樹林區"
"238023","601-UM","2019/11/14 19:13:22","新北市樹林區三興路87巷2號","121.392528333333","25.0133166666667","6500700","樹林區"
"238019","599-UM","2019/11/14 19:13:18","新北市樹林區東榮街91巷4弄2號","121.41625","24.9819983333333","6500700","樹林區"
"238022","KEA-2213","2019/11/14 19:13:28","新北市樹林區中山路二段151巷12號","121.406851666667","24.9782833333333","6500700","樹林區"
"238021","KEA-2539","2019/11/14 19:13:21","新北市樹林區柑園街二段378巷2號","121.368835","24.9498383333333","6500700","樹林區"
"238025","303-VK","2019/11/14 19:13:21","新北市樹林區中山路三段174號","121.388675","24.969845","6500700","樹林區"
"238014","282-BY","2019/11/14 19:13:24","新北市樹林區中正路23號","121.427451666667","24.9992066666667","6500700","樹林區"
"238020","268-VK","2019/11/14 19:08:51","新北市樹林區俊英街155巷9弄12號","121.423316666667","25.01183","6500700","樹林區"
"238026","172-UY","2019/11/14 19:13:18","新北市樹林區地政街33號","121.394751666667","24.9717983333333","6500700","樹林區"
"238016","169-UY","2019/11/14 19:13:31","新北市樹林區文化街1號","121.420273333333","24.9870883333333","6500700","樹林區"
"239007","AAC-297","2019/11/14 19:13:20","新北市鶯歌區中正一路269巷40號","121.355516666667","24.9596716666667","6500800","鶯歌區"
"239006","891-R6","2019/11/14 19:13:28","新北市鶯歌區鶯桃路296巷84弄24號","121.337276666667","24.961435","6500800","鶯歌區"
"239008","527-UM","2019/11/14 19:13:31","新北市鶯歌區國際二路18巷41號","121.338191666667","24.97582","6500800","鶯歌區"
"239001","417-VK","2019/11/14 19:13:19","新北市鶯歌區鶯桃路28號","121.341853333333","24.9523466666667","6500800","鶯歌區"
"239003","360-BY","2019/11/14 19:13:15","新北市鶯歌區永和街57號","121.332731666667","24.96759","6500800","鶯歌區"
"239002","359-BY","2019/11/14 19:13:17","新北市鶯歌區中正一路350號","121.357766666667","24.9570033333333","6500800","鶯歌區"
"239004","193-VK","2019/11/14 19:13:21","新北市鶯歌區中正三路230巷26號","121.329906666667","24.9399933333333","6500800","鶯歌區"
"221008","489-VK","2019/11/14 19:13:18","新北市汐止區康寧街380號","121.629115","25.0677266666667","6501100","汐止區"
"221036","130-UY","2019/11/14 19:13:30","新北市汐止區忠孝東路314巷15號","121.664485","25.068675","6501100","汐止區"
"221031","353-TW","2019/11/14 19:13:24","新北市汐止區福德二路54巷2弄13號","121.634273333333","25.0679116666667","6501100","汐止區"
"221035","622-UM","2019/11/14 19:13:24","新北市汐止區汐萬路一段221號","121.651893333333","25.0725033333333","6501100","汐止區"
"221002","707-TV","2019/11/14 19:13:20","新北市汐止區大同路一段336號","121.637931666667","25.0590166666667","6501100","汐止區"
"220079","145-BY","2019/11/14 19:13:31","新北市板橋區公館街18號","121.456963333333","25.01236","6500100","板橋區"
"220080","200-UY","2019/11/14 19:13:27","新北市板橋區大觀路二段1巷20號","121.449136666667","25.0037783333333","6500100","板橋區"
"220082","610-BX","2019/11/14 19:13:28","新北市板橋區溪崑二街96巷1號","121.426756666667","24.988965","6500100","板橋區"
"220056","276-BY","2019/11/14 19:13:35","新北市板橋區信義路152號","121.459055","24.9917133333333","6500100","板橋區"
"220072","277-BY","2019/11/14 19:13:31","新北市板橋區金門街280巷11號","121.429011666667","24.9863266666667","6500100","板橋區"
"220101","280-UM","2019/11/14 19:13:28","新北市板橋區雙十路二段4-4號","121.476933333333","25.02564","6500100","板橋區"
"220094","283-UM","2019/11/14 19:13:17","新北市板橋區光武街110巷10弄1號","121.466351666667","25.0295566666667","6500100","板橋區"
"220071","283-VK","2019/11/14 19:13:21","新北市板橋區重慶路329號","121.464005","24.9983933333333","6500100","板橋區"
"220053","285-VK","2019/11/14 19:13:28","新北市板橋區永豐街146號","121.4781","25.02122","6500100","板橋區"
"220083","286-VK","2019/11/14 19:13:28","新北市板橋區大觀路二段174巷165弄2-1號","121.441521666667","25.0034516666667","6500100","板橋區"
"220081","287-VK","2019/11/14 19:13:24","新北市板橋區南雅西路二段203號","121.451686666667","25.01339","6500100","板橋區"
"220090","288-VK","2019/11/14 19:13:18","新北市板橋區長江路一段48巷2弄1號","121.458993333333","25.02875","6500100","板橋區"
"220061","293-UM","2019/11/14 19:13:25","新北市板橋區中山路二段318巷20弄22號","121.480908333333","25.0188233333333","6500100","板橋區"
"220084","296-UM","2019/11/14 19:13:19","新北市板橋區溪崑二街22巷11號","121.428173333333","24.9916133333333","6500100","板橋區"
"220075","303-R5","2019/11/14 19:13:29","新北市板橋區南雅南路一段4巷19號","121.454436666667","25.0050966666667","6500100","板橋區"
"220062","305-R5","2019/11/14 19:13:19","新北市板橋區三民路二段居仁巷2號","121.479368333333","25.0132166666667","6500100","板橋區"
"220092","307-R5","2019/11/14 19:13:31","新北市板橋區文化路二段125巷13號","121.469401666667","25.026885","6500100","板橋區"
"220098","317-R6","2019/11/14 19:13:21","新北市板橋區四維路103巷9號","121.46505","25.02424","6500100","板橋區"
"220089","487-VK","2019/11/14 19:13:21","新北市板橋區中正路216巷150弄7號","121.46098","25.01926","6500100","板橋區"
"220088","491-VK","2019/11/14 19:13:29","新北市板橋區雙十路二段149號","121.474716666667","25.0281916666667","6500100","板橋區"
"220103","561-BX","2019/11/14 19:13:19","新北市板橋區文化路一段266號","121.467256666667","25.0205716666667","6500100","板橋區"
"220063","609-BX","2019/11/14 19:13:17","新北市板橋區三民路二段89號","121.47927","25.016495","6500100","板橋區"
"220091","637-BX","2019/11/14 19:13:29","新北市板橋區萬板路470號","121.479836666667","25.0259216666667","6500100","板橋區"
"220057","686-BX","2019/11/14 19:13:24","新北市板橋區五權街1號","121.463881666667","24.9948816666667","6500100","板橋區"
"220077","687-BX","2019/11/14 19:13:13","新北市板橋區大觀路二段48號","121.44539","25.0007666666667","6500100","板橋區"
"220093","689-BX","2019/11/14 19:13:19","新北市板橋區漢生西路93號","121.462591666667","25.0198333333333","6500100","板橋區"
"220054","741-BX","2019/11/14 19:13:03","新北市板橋區成都街20巷4-1號","121.460986666667","25.0039616666667","6500100","板橋區"
"220102","KEA-2699","2019/11/14 19:13:27","新北市板橋區文聖街80號","121.477415","25.0300483333333","6500100","板橋區"
"220055","827-TW","2019/11/14 19:13:19","新北市板橋區區運路11號","121.465323333333","25.0098433333333","6500100","板橋區"
"220067","829-TW","2019/11/14 19:13:17","新北市板橋區長安街138巷1弄234號","121.474571666667","25.0107183333333","6500100","板橋區"
"220068","830-TW","2019/11/14 19:13:32","新北市板橋區翠華街6巷22號","121.481175","25.02427","6500100","板橋區"
"220074","895-R6","2019/11/14 19:13:17","新北市板橋區中正路自強新村56號","121.454806666667","25.01355","6500100","板橋區"
"220073","985-R7","2019/11/14 19:13:16","新北市板橋區中正路352號","121.454326666667","25.02369","6500100","板橋區"
"220097","AAC-210","2019/11/14 19:13:18","新北市板橋區新海路138號","121.460835","25.0233066666667","6500100","板橋區"
"220064","AAC-253","2019/11/14 19:13:15","新北市板橋區民權路43號","121.46204","25.01109","6500100","板橋區"
"235068","KEA-2873","2019/11/14 19:13:07","新北市中和區圓通路162巷13號","121.49702","24.9947716666667","6500300","中和區"
"235061","KEA-2875","2019/11/14 19:13:29","新北市中和區民有街21號","121.475715","25.0052433333333","6500300","中和區"
