"lineid","car","time","location","longitude","latitude","cityid","cityname"
"234046","148-BY","2019/11/14 20:13:19","新北市永和區得和路283號","121.52243","24.9997933333333","6500400","永和區"
"234081","298-R6","2019/11/14 20:13:23","新北市永和區國中路101號","121.524198333333","25.0061916666667","6500400","永和區"
"234038","336-UY","2019/11/14 20:13:21","新北市永和區成功路一段47巷28號","121.52766","25.0038066666667","6500400","永和區"
"234064","337-UY","2019/11/14 20:13:15","新北市永和區得和路251號","121.521196666667","24.9998883333333","6500400","永和區"
"234086","338-UY","2019/11/14 20:13:29","新北市永和區福和路273號","121.517533333333","25.0073816666667","6500400","永和區"
"234070","552-UM","2019/11/14 20:13:28","新北市永和區永貞路8號","121.52078","25.0073066666667","6500400","永和區"
"234017","745-BX","2019/11/14 20:13:22","新北市永和區文化路10號","121.515481666667","25.0150183333333","6500400","永和區"
"234030","746-BX","2019/11/14 20:13:28","新北市永和區民權路104號","121.519428333333","24.996625","6500400","永和區"
"234054","KEA-2590","2019/11/14 20:13:34","新北市永和區永和路二段336號","121.51637","25.016685","6500400","永和區"
"234007","KED-0605","2019/11/14 20:13:12","新北市永和區環河西路二段101號","121.50639","25.014765","6500400","永和區"
"234013","KEA-2591","2019/11/14 20:13:19","新北市永和區永貞路387號","121.508083333333","25.0086283333333","6500400","永和區"
"234061","AAD-866","2019/11/14 20:13:34","新北市永和區安樂路100巷22號","121.515033333333","24.998925","6500400","永和區"
"234042","862-TW","2019/11/14 20:13:33","新北市永和區中和路463號","121.509906666667","25.0017066666667","6500400","永和區"
"234050","863-TW","2019/11/14 20:13:13","新北市永和區環河西路二段101號","121.506416666667","25.0147783333333","6500400","永和區"
"249001","173-UM","2019/11/14 20:13:31","新北市八里區中華路二段350號","121.402561666667","25.147375","6502300","八里區"
"249004","303-UY","2019/11/14 20:13:21","新北市八里區中山路一段398巷52-2號","121.411208333333","25.158945","6502300","八里區"
"249002","305-UY","2019/11/14 20:13:14","新北市八里區龍米路一段30巷16號","121.457601666667","25.1166833333333","6502300","八里區"
"249003","593-UM","2019/11/14 20:13:26","新北市八里區中山路二段447巷5號","121.396878333333","25.1455016666667","6502300","八里區"
"248016","026-BX","2019/11/14 20:13:28","新北市五股區凌雲路一段158巷50弄21號","121.44787","25.1043733333333","6501500","五股區"
"248012","247-BX","2019/11/14 20:13:31","新北市五股區民義路一段212號","121.430628333333","25.0893233333333","6501500","五股區"
"248010","272-BY","2019/11/14 20:13:35","新北市五股區成泰路一段37號","121.434193333333","25.0672483333333","6501500","五股區"
"248004","677-BX","2019/11/14 20:13:28","新北市五股區中興路四段17-4號","121.43937","25.0824766666667","6501500","五股區"
"248002","678-BX","2019/11/14 20:13:30","新北市五股區成泰路三段265號","121.446978333333","25.093895","6501500","五股區"
"234023","9380-KE","2019/11/14 20:13:19","新北市永和區復興街1巷2號","121.515745","25.0129616666667","6500400","永和區"
"234077","969-R7","2019/11/14 20:13:30","新北市永和區民享街18號","121.515425","24.9951333333333","6500400","永和區"
"234074","AAC-211","2019/11/14 20:13:25","新北市永和區竹林路191巷3號","121.520888333333","25.0094883333333","6500400","永和區"
"234067","AAC-212","2019/11/14 20:13:32","新北市永和區保平路238號","121.509228333333","25.0055283333333","6500400","永和區"
"234003","AAC-295","2019/11/14 20:13:30","新北市永和區自強街24號","121.515375","25.008","6500400","永和區"
"243012","AAD-798","2019/11/14 20:13:22","新北市泰山區楓江路62號","121.436865","25.06336","6501600","泰山區"
"243010","297-R6","2019/11/14 20:03:10","新北市泰山區中華街25號","121.427425","25.0519116666667","6501600","泰山區"
"243014","KEA-2801","2019/11/14 20:13:16","新北市泰山區明志路一段24-1號","121.43355","25.0655916666667","6501600","泰山區"
"243016","421-VK","2019/11/14 20:13:19","新北市泰山區明志路三段239號","121.423546666667","25.0377516666667","6501600","泰山區"
"243009","KEA-2215","2019/11/14 20:13:14","新北市泰山區泰林路二段116巷2弄2號","121.434828333333","25.059335","6501600","泰山區"
"243011","KEA-2216","2019/11/14 20:13:16","新北市新莊區壽山路33-6號","121.418643333333","25.0300216666667","6501600","泰山區"
"243013","646-TV","2019/11/14 20:13:27","新北市泰山區明志路三段74巷23號","121.424038333333","25.0416816666667","6501600","泰山區"
"243015","680-BX","2019/11/14 20:13:26","新北市泰山區明志路一段366號","121.430765","25.057935","6501600","泰山區"
"222003","436-BY","2019/11/14 20:13:19","新北市深坑區埔新街99號","121.619206666667","25.00227","6501800","深坑區"
"222002","659-BX","2019/11/14 20:13:33","新北市深坑區北深路三段158巷48號","121.601438333333","25.00485","6501800","深坑區"
"231061","002-UM","2019/11/14 20:13:18","新北市新店區安興路32號","121.51577","24.9703233333333","6500600","新店區"
"231044","046-UY","2019/11/14 20:13:24","新北市新店區寶慶街66號","121.54201","24.9868516666667","6500600","新店區"
"231060","106-UY","2019/11/14 20:13:15","新北市新店區安康路三段456號","121.48429","24.9511883333333","6500600","新店區"
"231051","107-UY","2019/11/14 20:13:15","新北市新店區中央六街6號","121.53026","24.9744266666667","6500600","新店區"
"231049","108-UY","2019/11/14 20:13:21","新北市新店區北新路二段121巷1-2號","121.542186666667","24.974845","6500600","新店區"
"231065","110-UY","2019/11/14 20:13:25","新北市新店區安祥路106巷208號","121.474181666667","24.960475","6500600","新店區"
"231068","187-VK","2019/11/14 20:13:28","新北市新店區中興路三段200號","121.543928333333","24.9818983333333","6500600","新店區"
"231062","256-BX","2019/11/14 20:13:22","新北市新店區安康路一段323-3號","121.521358333333","24.9638433333333","6500600","新店區"
"231054","260-TV","2019/11/14 20:13:32","新北市新店區檳榔路109號","121.54447","24.9615966666667","6500600","新店區"
"231042","268-BY","2019/11/14 20:13:30","新北市新店區五峰路57-1號","121.54707","24.97081","6500600","新店區"
"231064","278-BY","2019/11/14 20:13:24","新北市新店區安和路一段47號","121.517468333333","24.965775","6500600","新店區"
"231050","AAD-862","2019/11/14 20:13:29","新北市新店區北新路一段90號","121.541865","24.96834","6500600","新店區"
"231045","355-BY","2019/11/14 20:13:12","新北市新店區北宜路一段121-2號","121.540401666667","24.9537966666667","6500600","新店區"
"231058","3713-VJ","2019/11/14 20:13:33","新北市新店區薏仁坑路自強巷1號","121.497783333333","24.9577183333333","6500600","新店區"
"231055","4716-K9","2019/11/14 20:13:29","新北市新店區中華路42巷14號","121.540493333333","24.9686383333333","6500600","新店區"
"231056","4715-K9","2019/11/14 20:13:28","新北市新店區中正路328巷34號","121.537846666667","24.9761683333333","6500600","新店區"
"231067","4772-VM","2019/11/14 20:13:21","新北市新店區溪洲路65號","121.5333","24.9609583333333","6500600","新店區"
"231052","513-UM","2019/11/14 20:13:26","新北市新店區新烏路三段72-1號","121.554025","24.904055","6500600","新店區"
"231063","616-UM","2019/11/14 20:13:20","新北市新店區黎明路9號","121.502481666667","24.9502416666667","6500600","新店區"
"231041","619-UM","2019/11/14 20:13:22","新北市新店區民權路178號","121.534701666667","24.9828916666667","6500600","新店區"
"231047","KED-0819","2019/11/14 20:13:23","新北市新店區永華街35號","121.54395","24.976185","6500600","新店區"
"231057","720-UM","2019/11/14 20:13:29","新北市新店區花園一路一段10號","121.551716666667","24.9330133333333","6500600","新店區"
"231059","897-TW","2019/11/14 20:13:32","新北市新店區安德街78號","121.510203333333","24.9615833333333","6500600","新店區"
"231040","898-TW","2019/11/14 20:13:30","新北市新店區中正路108號","121.543071666667","24.9705966666667","6500600","新店區"
"231043","899-TW","2019/11/14 20:13:24","新北市新店區建國路133號","121.5394","24.97832","6500600","新店區"
"241011","013-R5","2019/11/14 20:13:16","新北市三重區仁愛街30號","121.496365","25.0717166666667","6500200","三重區"
"241028","022-UY","2019/11/14 20:13:20","新北市三重區大同南路162號","121.496651666667","25.0575116666667","6500200","三重區"
"241008","059-VK","2019/11/14 20:13:29","新北市三重區永福街144-1號","121.480025","25.0745183333333","6500200","三重區"
"241031","061-VK","2019/11/14 20:13:29","新北市三重區三寧街25號","121.489585","25.0598616666667","6500200","三重區"
"241015","062-VK","2019/11/14 20:13:12","新北市三重區福德北路12號","121.502358333333","25.0644066666667","6500200","三重區"
"241017","063-VK","2019/11/14 20:13:14","新北市三重區長壽西街185號","121.49232","25.0664766666667","6500200","三重區"
"241024","065-VK","2019/11/14 20:13:14","新北市三重區後竹圍街283號","121.479248333333","25.0700683333333","6500200","三重區"
"241007","066-VK","2019/11/14 20:13:15","新北市三重區三和路四段117巷4號","121.485551666667","25.077685","6500200","三重區"
"241002","090-VK","2019/11/14 20:13:26","新北市三重區仁義街225巷50號","121.497985","25.0831516666667","6500200","三重區"
"241003","091-VK","2019/11/14 20:13:28","新北市三重區仁愛街476號","121.48968","25.0822516666667","6500200","三重區"
"241006","262-UM","2019/11/14 20:13:25","新北市三重區力行路二段75號","121.482365","25.0754766666667","6500200","三重區"
"241014","316-R6","2019/11/14 20:13:22","新北市三重區長壽街120巷28號","121.502","25.0696316666667","6500200","三重區"
"241016","266-UM","2019/11/14 20:13:23","新北市三重區大同北路97-3號","121.494385","25.063635","6500200","三重區"
"241009","267-UM","2019/11/14 20:13:25","新北市三重區三和路四段382巷149號","121.479141666667","25.0781366666667","6500200","三重區"
"241018","268-UM","2019/11/14 20:13:28","新北市三重區正義北路195號","121.496186666667","25.06824","6500200","三重區"
"241032","269-UM","2019/11/14 20:13:22","新北市三重區捷運路19巷2弄1號","121.485091666667","25.056305","6500200","三重區"
"241013","270-UM","2019/11/14 20:13:20","新北市三重區三和路三段151巷7號","121.492343333333","25.07389","6500200","三重區"
"241025","271-UM","2019/11/14 20:13:31","新北市三重區中正北路201號","121.476863333333","25.0697433333333","6500200","三重區"
"241030","KED-0822","2019/11/14 20:13:18","新北市三重區集美街77號","121.488401666667","25.053675","6500200","三重區"
"241035","462-BY","2019/11/14 20:13:10","新北市三重區大榮街53號","121.499155","25.0635683333333","6500200","三重區"
"241004","475-VK","2019/11/14 20:13:30","新北市三重區溪尾街111號","121.489716666667","25.07876","6500200","三重區"
"241020","478-VK","2019/11/14 20:13:34","新北市三重區重陽路四段162號","121.49333","25.072205","6500200","三重區"
"241026","480-VK","2019/11/14 20:13:22","新北市三重區中央南路26號","121.501316666667","25.0624933333333","6500200","三重區"
"241023","545-UM","2019/11/14 20:13:19","新北市三重區頂崁街217巷4弄1號","121.477708333333","25.0678366666667","6500200","三重區"
"241001","547-UM","2019/11/14 20:13:30","新北市三重區自強路四段3巷18號","121.489333333333","25.0763166666667","6500200","三重區"
"241019","KEA-2593","2019/11/14 20:13:23","新北市三重區自強路二段69號","121.488873333333","25.0698233333333","6500200","三重區"
"241012","743-BX","2019/11/14 20:13:27","新北市三重區河邊北街266號","121.501668333333","25.076475","6500200","三重區"
"241022","KED-0820","2019/11/14 20:13:26","新北市三重區中正北路26號","121.488198333333","25.063595","6500200","三重區"
"241005","KED-0670","2019/11/14 20:13:02","新北市三重區碧華街356號","121.490631666667","25.0840633333333","6500200","三重區"
"241029","942-UM","2019/11/14 20:13:20","新北市三重區中正南路129巷13號","121.493521666667","25.0569616666667","6500200","三重區"
"235066","003-UY","2019/11/14 20:13:20","新北市中和區保平路372號","121.506345","25.0035133333333","6500300","中和區"
"235039","097-UM","2019/11/14 20:13:26","新北市中和區大勇街27巷10號","121.517026666667","24.9938766666667","6500300","中和區"
"235065","098-UM","2019/11/14 20:13:22","新北市中和區永和路128巷47號","121.497665","25.0068966666667","6500300","中和區"
"235040","150-BY","2019/11/14 20:13:26","新北市中和區保健路37號","121.508946666667","24.997555","6500300","中和區"
"235055","183-VK","2019/11/14 20:13:28","新北市五股區中興路三段2巷10號","121.448531666667","25.0818","6500300","中和區"
"247010","KED-0682","2019/11/14 20:13:21","新北市蘆洲區信義路188巷7號","121.479553333333","25.0844366666667","6501400","蘆洲區"
"235050","4979-A6","2019/11/14 20:13:32","新北市中和區安樂路1號","121.511643333333","24.991845","6500300","中和區"
"235069","4980-A6","2019/11/14 20:13:26","新北市中和區圓通路123號","121.499185","24.99612","6500300","中和區"
"235059","AAC-215","2019/11/14 20:13:13","新北市中和區圓通路367巷13弄29-6號","121.493085","24.988305","6500300","中和區"
"220035","015-TV","2019/11/14 20:13:24","新北市板橋區新生街50號","121.456765","25.0210566666667","6500100","板橋區"
"220065","072-UY","2019/11/14 20:13:17","新北市板橋區縣民大道二段68-1號","121.463595","25.01288","6500100","板橋區"
"247006","893-R6","2019/11/14 20:13:33","新北市蘆洲區永安南路二段16巷17弄37號","121.466968333333","25.078055","6501400","蘆洲區"
"247020","546-UM","2019/11/14 20:13:22","新北市蘆洲區民義街106巷1號","121.473921666667","25.0908566666667","6501400","蘆洲區"
"247016","500-BY","2019/11/14 20:13:28","新北市蘆洲區光華路186巷38號","121.46504","25.08331","6501400","蘆洲區"
"247004","341-TH","2019/11/14 20:13:16","新北市蘆洲區長安街220巷7號","121.459168333333","25.08506","6501400","蘆洲區"
"247024","057-VK","2019/11/14 20:13:21","新北市蘆洲區光明路102號","121.463336666667","25.0880183333333","6501400","蘆洲區"
"247014","056-VK","2019/11/14 20:13:33","新北市蘆洲區中山二路179號","121.470961666667","25.080945","6501400","蘆洲區"
"247018","053-VK","2019/11/14 20:13:13","新北市蘆洲區民族路291號","121.47535","25.0911033333333","6501400","蘆洲區"
"247022","007-UY","2019/11/14 20:13:13","新北市蘆洲區中正路201號","121.468458333333","25.0859666666667","6501400","蘆洲區"
"247002","001-UY","2019/11/14 20:13:29","新北市蘆洲區長安街240號","121.45765","25.0858483333333","6501400","蘆洲區"
"222001","KEA-2212","2019/11/14 20:13:22","新北市深坑區北深路三段213號","121.600401666667","25.0039833333333","6501800","深坑區"
"251004","009-UM","2019/11/14 20:13:23","新北市淡水區民族路29巷24-1號","121.461693333333","25.13666","6501000","淡水區"
"251015","KEA-2871","2019/11/14 20:13:22","新北市淡水區商工路329號","121.46511","25.185805","6501000","淡水區"
"251016","180-VK","2019/11/14 20:13:14","新北市淡水區番子田20-2號","121.457751666667","25.2282233333333","6501000","淡水區"
"251008","181-VK","2019/11/14 20:13:13","新北市淡水區沙崙路152巷17弄2號","121.42424","25.1824683333333","6501000","淡水區"
"251013","182-VK","2019/11/14 20:13:19","新北市淡水區奎柔山路760號","121.47494","25.2036616666667","6501000","淡水區"
"251010","413-VK","2019/11/14 20:13:31","新北市淡水區中正路二段389號","121.425908333333","25.1907483333333","6501000","淡水區"
"251012","441-VK","2019/11/14 20:13:15","新北市淡水區淡金路三段274號","121.448928333333","25.2067783333333","6501000","淡水區"
"251001","559-UM","2019/11/14 20:13:25","新北市淡水區淡金路二段15號","121.446306666667","25.1891983333333","6501000","淡水區"
"251006","561-UM","2019/11/14 20:13:15","新北市淡水區北新路141巷2弄2號","121.44935","25.1791483333333","6501000","淡水區"
"251009","575-R6","2019/11/14 20:13:19","新北市淡水區清水街1號","121.445171666667","25.1703883333333","6501000","淡水區"
"251014","577-R6","2019/11/14 20:13:20","新北市淡水區石頭厝2號","121.458253333333","25.23577","6501000","淡水區"
"251011","650-BX","2019/11/14 20:13:12","新北市淡水區崁頂70-2號","121.43762","25.202815","6501000","淡水區"
"251002","672-BX","2019/11/14 20:13:27","新北市淡水區中正路296號","121.43752","25.17212","6501000","淡水區"
"251003","673-BX","2019/11/14 20:13:33","新北市淡水區中山北路一段245號","121.444503333333","25.1799066666667","6501000","淡水區"
"207003","681-TV","2019/11/14 20:13:22","新北市萬里區大鵬里萬里加投21-6號","121.647473333333","25.211525","6502800","萬里區"
"207004","291-VK","2019/11/14 20:13:28","新北市萬里區北基里大勇路11號","121.681805","25.17637","6502800","萬里區"
"252002","178-VK","2019/11/14 20:13:24","新北市三芝區三民街8巷14號","121.503701666667","25.258435","6502100","三芝區"
"237012","275-BY","2019/11/14 20:13:18","新北市三峽區中華路74-5號","121.371595","24.9292466666667","6500900","三峽區"
"237006","5529-G3","2019/11/14 20:13:30","新北市三峽區嘉添147號","121.369086666667","24.9117266666667","6500900","三峽區"
"233002","762-BX","2019/11/14 19:56:32","新北市烏來區啦卡路70-1號","121.565218333333","24.85586","6502900","烏來區"
"236078","166-UM","2019/11/14 20:13:25","新北市土城區德安街4巷8號","121.42215","24.9649733333333","6501300","土城區"
"236030","253-BX","2019/11/14 20:13:20","新北市土城區中央路一段143巷9號","121.447316666667","24.9877866666667","6501300","土城區"
"236026","269-VK","2019/11/14 20:13:21","新北市土城區裕生路83巷29弄2號","121.448295","24.9839283333333","6501300","土城區"
"236014","270-VK","2019/11/14 20:13:18","新北市土城區廣明街63巷21號","121.454206666667","24.9933183333333","6501300","土城區"
"236038","271-VK","2019/11/14 20:13:30","新北市土城區延吉街290號","121.464793333333","24.9841616666667","6501300","土城區"
"236070","KEA-2877","2019/11/14 20:13:30","新北市土城區大安路37-1號","121.43272","24.96612","6501300","土城區"
"252001","KED-0821","2019/11/14 20:13:15","新北市三芝區中山路一段11號","121.50033","25.2585966666667","6502100","三芝區"
"236021","401-BY","2019/11/14 20:13:23","新北市土城區金城路三段206巷1號","121.471556666667","24.989685","6501300","土城區"
"236059","912-UM","2019/11/14 20:13:29","新北市土城區中央路三段38號","121.438333333333","24.9688116666667","6501300","土城區"
"242042","AAC-296","2019/11/14 20:13:29","新北市新莊區青山路一段8號","121.411855","25.0275666666667","6500500","新莊區"
"242061","986-R7","2019/11/14 20:13:27","新北市新莊區瓊林路59-28號","121.44379","25.02677","6500500","新莊區"
"242004","751-BX","2019/11/14 20:13:24","新北市新莊區頭興街7巷1號","121.46266","25.0536583333333","6500500","新莊區"
"242023","705-TV","2019/11/14 20:13:32","新北市新莊區化成路568號","121.466233333333","25.0541033333333","6500500","新莊區"
"242029","615-BX","2019/11/14 20:13:24","新北市新莊區中原路305號","121.447298333333","25.0543233333333","6500500","新莊區"
"242027","613-BX","2019/11/14 20:13:14","新北市新莊區幸福路902號","121.44312","25.04937","6500500","新莊區"
"242058","612-BX","2019/11/14 20:13:27","新北市新莊區龍安路288-1號","121.42252","25.0191233333333","6500500","新莊區"
"242048","566-BX","2019/11/14 20:13:28","新北市新莊區四維路152巷32號","121.421978333333","25.0224083333333","6500500","新莊區"
"242053","497-BY","2019/11/14 20:13:19","新北市新莊區民安西路283號","121.426438333333","25.0120783333333","6500500","新莊區"
"242051","442-UM","2019/11/14 20:13:30","新北市新莊區民安西路196巷21號","121.424986666667","25.01539","6500500","新莊區"
"242002","441-UM","2019/11/14 20:13:24","新北市三重區重新路五段646-1號","121.46813","25.0441816666667","6500500","新莊區"
"242044","415-TV","2019/11/14 20:13:25","新北市新莊區萬壽路一段21巷15號","121.410593333333","25.0203433333333","6500500","新莊區"
"242013","413-TV","2019/11/14 20:13:30","新北市新莊區幸福路670巷5號","121.450903333333","25.0496833333333","6500500","新莊區"
"242025","362-BY","2019/11/14 20:13:15","新北市新莊區五工路68巷19-1號","121.458768333333","25.0645016666667","6500500","新莊區"
"242015","132-UY","2019/11/14 20:13:29","新北市新莊區永樂街198號","121.447473333333","25.0445183333333","6500500","新莊區"
"242056","172-VK","2019/11/14 20:13:22","新北市新莊區豐年街50巷1號","121.446281666667","25.0317183333333","6500500","新莊區"
"242017","173-VK","2019/11/14 20:13:13","新北市新莊區中港路397號","121.45182","25.0468","6500500","新莊區"
"242031","175-VK","2019/11/14 20:13:18","新北市新莊區中正路432號","121.440635","25.0336933333333","6500500","新莊區"
"242009","176-VK","2019/11/14 20:13:27","新北市新莊區昌平街38號","121.454785","25.0531633333333","6500500","新莊區"
"242021","KED-0687","2019/11/14 20:13:17","新北市新莊區中正路210號","121.449111666667","25.0354566666667","6500500","新莊區"
"242007","346-TH","2019/11/14 20:13:34","新北市新莊區思源路419巷1弄2號","121.459231666667","25.0523866666667","6500500","新莊區"
"242039","347-TH","2019/11/14 20:13:17","新北市新莊區龍安路481號","121.425573333333","25.0181483333333","6500500","新莊區"
"242036","348-TH","2019/11/14 20:13:23","新北市新莊區建安街28號","121.428246666667","25.025295","6500500","新莊區"
"242034","350-TH","2019/11/14 20:13:19","新北市新莊區中正路318巷18號","121.446406666667","25.0360483333333","6500500","新莊區"
"242019","351-TH","2019/11/14 20:13:22","新北市新莊區博愛路2巷2號","121.456541666667","25.0427483333333","6500500","新莊區"
"221008","489-VK","2019/11/14 20:13:18","台北市內湖區康樂街200號","121.62111","25.0761083333333","6501100","汐止區"
"221036","130-UY","2019/11/14 20:13:26","新北市汐止區新台五路二段9號","121.66223","25.066105","6501100","汐止區"
"221015","131-UY","2019/11/14 20:13:20","新北市汐止區建成路37巷1號","121.66371","25.0728116666667","6501100","汐止區"
"221010","269-BY","2019/11/14 20:13:15","新北市汐止區連峰街225巷26號","121.644041666667","25.0811116666667","6501100","汐止區"
"221012","278-VK","2019/11/14 20:13:31","新北市汐止區大同路三段439號","121.678276666667","25.0713116666667","6501100","汐止區"
"221023","279-VK","2019/11/14 20:13:20","新北市汐止區明峰街296號","121.625366666667","25.067945","6501100","汐止區"
"221032","280-BY","2019/11/14 20:13:23","新北市汐止區弘道街8巷1弄1號","121.616995","25.0484283333333","6501100","汐止區"
"221027","281-BY","2019/11/14 20:13:20","新北市汐止區大同路二段513號","121.661365","25.06896","6501100","汐止區"
"221029","298-VK","2019/11/14 20:13:12","新北市汐止區樟樹一路119巷10弄1號","121.64124","25.0645216666667","6501100","汐止區"
"221021","299-VK","2019/11/14 20:13:20","新北市汐止區水源路一段265號","121.653965","25.059425","6501100","汐止區"
"221031","353-TW","2019/11/14 20:13:24","新北市汐止區中興路214巷7弄2號","121.631433333333","25.0666566666667","6501100","汐止區"
"221035","622-UM","2019/11/14 20:13:24","新北市汐止區長江街43號","121.655733333333","25.0714316666667","6501100","汐止區"
"221025","623-UM","2019/11/14 20:13:17","新北市汐止區新台五路一段192號","121.655165","25.0629383333333","6501100","汐止區"
"221038","646-BX","2019/11/14 20:13:18","新北市汐止區忠孝東路486號","121.666203333333","25.0739283333333","6501100","汐止區"
"221033","647-BX","2019/11/14 20:13:25","新北市汐止區東勢街201巷104號","121.633565","25.04291","6501100","汐止區"
"221002","707-TV","2019/11/14 20:13:20","新北市汐止區福德一路35號","121.638486666667","25.0687733333333","6501100","汐止區"
"221018","753-BX","2019/11/14 20:13:13","新北市汐止區茄興街20巷1弄1號","121.673565","25.0670966666667","6501100","汐止區"
"220079","145-BY","2019/11/14 20:13:31","新北市板橋區建國街54巷21-1號","121.459668333333","25.0169983333333","6500100","板橋區"
"220080","200-UY","2019/11/14 20:13:27","新北市板橋區大觀路二段153巷44弄23號","121.446066666667","24.9991483333333","6500100","板橋區"
"220082","610-BX","2019/11/14 20:13:27","新北市板橋區大觀路三段121號","121.432683333333","24.9944816666667","6500100","板橋區"
"224002","257-TC","2019/11/14 20:13:31","新北市瑞芳區員山子路員山巷1號","121.81684","25.1036616666667","6501200","瑞芳區"
"220083","286-VK","2019/11/14 20:13:28","新北市板橋區僑中二街88巷31-1號","121.444743333333","25.00957","6500100","板橋區"
"220081","287-VK","2019/11/14 20:13:24","新北市板橋區僑中一街124巷18弄25號","121.447205","25.0136583333333","6500100","板橋區"
"220061","293-UM","2019/11/14 20:13:33","新北市板橋區四川路一段326號","121.457798333333","25.0004366666667","6500100","板橋區"
"242046","281-VK","2019/11/14 20:13:26","新北市新莊區裕民街126號","121.418078333333","25.0224583333333","6500500","新莊區"
"220075","303-R5","2019/11/14 20:13:29","新北市板橋區金華街10巷39號","121.457163333333","25.020235","6500100","板橋區"
"220062","305-R5","2019/11/14 20:13:19","新北市板橋區中山路二段613號","121.485408333333","25.022475","6500100","板橋區"
"220098","317-R6","2019/11/14 20:13:21","新北市板橋區文化路二段652號","121.478981666667","25.0379016666667","6500100","板橋區"
"242011","280-VK","2019/11/14 20:13:23","新北市新莊區幸福路710巷14號","121.449766666667","25.0499816666667","6500500","新莊區"
"220103","561-BX","2019/11/14 20:13:25","新北市板橋區漢生東路23巷56弄12號","121.466326666667","25.0179633333333","6500100","板橋區"
"220077","687-BX","2019/11/14 20:13:33","新北市板橋區僑中一街124巷19弄2號","121.446146666667","25.0141383333333","6500100","板橋區"
"220054","741-BX","2019/11/14 20:13:23","新北市板橋區忠孝路忠義巷3弄14號","121.465368333333","25.0039316666667","6500100","板橋區"
"220055","827-TW","2019/11/14 20:13:19","新北市板橋區仁愛路88號","121.460996666667","24.9996066666667","6500100","板橋區"
"220074","895-R6","2019/11/14 20:13:17","新北市板橋區館前西路68號","121.457626666667","25.00711","6500100","板橋區"
"235068","KEA-2873","2019/11/14 20:13:07","新北市中和區福祥路85巷2弄5號","121.498611666667","25.0060433333333","6500300","中和區"
