"lineid","car","time","location","longitude","latitude","cityid","cityname"
"234061","AAD-866","2019/11/14 20:43:34","新北市永和區秀朗路一段175號","121.517086666667","25.0036716666667","6500400","永和區"
"234042","862-TW","2019/11/14 20:43:33","新北市永和區永元路126號","121.52287","25.0029933333333","6500400","永和區"
"249001","173-UM","2019/11/14 20:43:31","新北市八里區中山路三段227號","121.381965","25.140375","6502300","八里區"
"249004","303-UY","2019/11/14 20:43:21","新北市八里區中山路一段157巷67號","121.412286666667","25.1577866666667","6502300","八里區"
"234074","AAC-211","2019/11/14 20:43:25","新北市永和區環河東路一段140號","121.520945","25.0150883333333","6500400","永和區"
"244023","483-VK","2019/11/14 20:43:17","新北市林口區粉寮路二段160巷28號","121.405148333333","25.0907866666667","6501700","林口區"
"222003","436-BY","2019/11/14 20:43:19","新北市深坑區文山路三段48-1號","121.610005","24.9985233333333","6501800","深坑區"
"222002","659-BX","2019/11/14 20:43:13","新北市深坑區北深路三段345號","121.597","25.0052116666667","6501800","深坑區"
"231061","002-UM","2019/11/14 20:43:18","新北市新店區新和街65號","121.520065","24.9857516666667","6500600","新店區"
"231044","046-UY","2019/11/14 20:43:24","新北市新店區建國路293巷1號","121.536655","24.9861883333333","6500600","新店區"
"231060","106-UY","2019/11/14 20:43:35","新北市新店區安康路三段628號","121.478456666667","24.9457666666667","6500600","新店區"
"231051","107-UY","2019/11/14 20:43:15","新北市新店區環河路170號","121.525715","24.975675","6500600","新店區"
"231049","108-UY","2019/11/14 20:43:21","新北市新店區永業路81巷5弄34號","121.531115","24.9498183333333","6500600","新店區"
"231065","110-UY","2019/11/14 20:43:25","新北市新店區安祥路104巷6弄27號","121.48237","24.9628116666667","6500600","新店區"
"231068","187-VK","2019/11/14 20:43:34","新北市新店區寶元路一段85巷2號","121.54305","24.98554","6500600","新店區"
"231062","256-BX","2019/11/14 20:43:22","新北市新店區安泰路12巷2號","121.485483333333","24.9502133333333","6500600","新店區"
"231054","260-TV","2019/11/14 20:43:32","新北市新店區北新路一段88巷11號","121.543153333333","24.96717","6500600","新店區"
"231042","268-BY","2019/11/14 20:43:26","新北市新店區寶高路116號","121.554538333333","24.9760666666667","6500600","新店區"
"231064","278-BY","2019/11/14 20:43:24","新北市新店區安民街379巷3號","121.516068333333","24.9762166666667","6500600","新店區"
"231050","AAD-862","2019/11/14 20:43:29","新北市新店區中正路247巷4弄1號","121.538786666667","24.9729883333333","6500600","新店區"
"231045","355-BY","2019/11/14 20:43:32","新北市新店區長春路19巷7號","121.549028333333","24.9561816666667","6500600","新店區"
"231058","3713-VJ","2019/11/14 20:43:33","新北市新店區平等街22號","121.536656666667","24.9738816666667","6500600","新店區"
"231067","4772-VM","2019/11/14 20:43:21","新北市新店區安康路一段355-3號","121.519793333333","24.9622333333333","6500600","新店區"
"231052","513-UM","2019/11/14 20:43:26","新北市新店區新烏路二段300號","121.54866","24.913015","6500600","新店區"
"231063","616-UM","2019/11/14 20:43:19","新北市新店區如意街1巷2號","121.495736666667","24.9494616666667","6500600","新店區"
"231041","619-UM","2019/11/14 20:43:22","新北市新店區中正路698號","121.534118333333","24.990615","6500600","新店區"
"231047","KED-0819","2019/11/14 20:43:23","新北市新店區寶元路二段1巷2號","121.550711666667","24.9841183333333","6500600","新店區"
"231057","720-UM","2019/11/14 20:43:29","新北市新店區新烏路一段203號","121.547238333333","24.9329666666667","6500600","新店區"
"231059","897-TW","2019/11/14 20:43:11","新北市新店區僑信路107號","121.50047","24.9464433333333","6500600","新店區"
"231040","898-TW","2019/11/14 20:43:30","新北市新店區中正路274號","121.538911666667","24.9736733333333","6500600","新店區"
"231043","899-TW","2019/11/14 20:43:24","新北市新店區博愛街13巷24號","121.540255","24.974055","6500600","新店區"
"231066","AKT-0513","2019/11/14 20:43:15","新北市新店區安興路56號","121.516258333333","24.9746683333333","6500600","新店區"
"241011","013-R5","2019/11/14 20:43:16","新北市三重區龍濱路285號","121.50113","25.0733433333333","6500200","三重區"
"241028","022-UY","2019/11/14 20:43:20","新北市三重區中正南路50號","121.493938333333","25.0599283333333","6500200","三重區"
"241008","059-VK","2019/11/14 20:43:29","新北市三重區下竹圍街42-1號","121.481083333333","25.07489","6500200","三重區"
"241031","061-VK","2019/11/14 20:43:28","新北市三重區重新路四段41巷5弄9號","121.487706666667","25.05843","6500200","三重區"
"241015","062-VK","2019/11/14 20:43:12","新北市三重區雙園街1號","121.497783333333","25.068455","6500200","三重區"
"241017","063-VK","2019/11/14 20:43:14","新北市三重區民生街38巷1弄20號","121.491433333333","25.066515","6500200","三重區"
"241024","065-VK","2019/11/14 20:43:34","新北市三重區三民街206-1號","121.480775","25.0666133333333","6500200","三重區"
"241007","066-VK","2019/11/14 20:43:32","新北市三重區三和路四段97-1號","121.487588333333","25.07622","6500200","三重區"
"241002","090-VK","2019/11/14 20:43:26","新北市三重區仁義街157巷20號","121.497641666667","25.08132","6500200","三重區"
"241003","091-VK","2019/11/14 20:43:26","新北市三重區五華街141巷58號","121.493591666667","25.0867916666667","6500200","三重區"
"241006","262-UM","2019/11/14 20:43:25","新北市三重區車路頭街135-1號","121.484198333333","25.076165","6500200","三重區"
"241014","316-R6","2019/11/14 20:43:22","新北市三重區萬壽街43號","121.500371666667","25.0695483333333","6500200","三重區"
"241016","266-UM","2019/11/14 20:43:23","新北市三重區長壽西街98號","121.495803333333","25.0670183333333","6500200","三重區"
"241009","267-UM","2019/11/14 20:43:25","新北市三重區仁愛街602號","121.483996666667","25.0810616666667","6500200","三重區"
"241018","268-UM","2019/11/14 20:43:21","新北市三重區正義北路339號","121.493565","25.0716416666667","6500200","三重區"
"241032","269-UM","2019/11/14 20:43:22","新北市三重區重陽路一段120巷35號","121.48513","25.06017","6500200","三重區"
"241013","270-UM","2019/11/14 20:43:20","新北市三重區三和路四段156號","121.488241666667","25.07583","6500200","三重區"
"241025","271-UM","2019/11/14 20:43:17","新北市三重區忠孝路三段99巷11號","121.480076666667","25.0645866666667","6500200","三重區"
"241030","KED-0822","2019/11/14 20:43:18","新北市三重區成功路73巷11號","121.489445","25.0519283333333","6500200","三重區"
"241035","462-BY","2019/11/14 20:43:29","新北市三重區三和路三段37號","121.495768333333","25.0712033333333","6500200","三重區"
"241004","475-VK","2019/11/14 20:43:30","新北市三重區仁愛街406巷3號","121.490666666667","25.0811916666667","6500200","三重區"
"241020","478-VK","2019/11/14 20:43:23","新北市三重區忠孝路一段101號","121.489623333333","25.07219","6500200","三重區"
"241026","480-VK","2019/11/14 20:43:22","新北市三重區重新路二段36巷33號","121.500003333333","25.0622766666667","6500200","三重區"
"241023","545-UM","2019/11/14 20:43:19","新北市三重區忠孝路三段75巷5號","121.480355","25.06598","6500200","三重區"
"241001","547-UM","2019/11/14 20:43:30","新北市三重區自強路三段76巷21號","121.485816666667","25.0741533333333","6500200","三重區"
"241019","KEA-2593","2019/11/14 20:43:23","新北市三重區三張街45號","121.491338333333","25.0711266666667","6500200","三重區"
"241012","743-BX","2019/11/14 20:43:27","新北市三重區龍濱路281-2號","121.50133","25.07343","6500200","三重區"
"241022","KED-0820","2019/11/14 20:43:26","新北市三重區貴陽街25號","121.48433","25.0620716666667","6500200","三重區"
"241005","KED-0670","2019/11/14 20:43:22","新北市三重區五華街237號","121.489315","25.0859633333333","6500200","三重區"
"241029","942-UM","2019/11/14 20:43:20","新北市三重區中正南路250巷31號","121.494426666667","25.0532266666667","6500200","三重區"
"235039","097-UM","2019/11/14 20:43:26","新北市新店區安豐路48號","121.500721666667","24.9540133333333","6500300","中和區"
"235055","183-VK","2019/11/14 20:42:08","新北市八里區荖阡坑路28-2號","121.402765","25.1281216666667","6500300","中和區"
"247010","KED-0682","2019/11/14 20:43:31","新北市蘆洲區民族路7號","121.475738333333","25.0839933333333","6501400","蘆洲區"
"235069","4980-A6","2019/11/14 20:43:26","新北市中和區員山路381巷1弄2號","121.48087","25.00233","6500300","中和區"
"247006","893-R6","2019/11/14 20:43:33","新北市蘆洲區長安街2號","121.464768333333","25.07868","6501400","蘆洲區"
"247020","546-UM","2019/11/14 20:43:21","新北市蘆洲區仁愛街75號","121.471483333333","25.0938233333333","6501400","蘆洲區"
"247016","500-BY","2019/11/14 20:43:28","新北市蘆洲區中山一路312號","121.469265","25.0771483333333","6501400","蘆洲區"
"247004","341-TH","2019/11/14 20:43:16","新北市蘆洲區長安街257號","121.458895","25.0834783333333","6501400","蘆洲區"
"247024","057-VK","2019/11/14 20:43:21","新北市蘆洲區長樂路79號","121.46258","25.0868783333333","6501400","蘆洲區"
"247014","056-VK","2019/11/14 20:43:13","新北市蘆洲區成功路92號","121.4729","25.0816083333333","6501400","蘆洲區"
"247018","053-VK","2019/11/14 20:43:33","新北市蘆洲區民權路70號","121.474971666667","25.087265","6501400","蘆洲區"
"247022","007-UY","2019/11/14 20:43:33","新北市蘆洲區中正路185巷48號","121.467151666667","25.0851383333333","6501400","蘆洲區"
"247008","002-UY","2019/11/14 20:43:20","新北市蘆洲區永安北路二段10號","121.481146666667","25.0807383333333","6501400","蘆洲區"
"247002","001-UY","2019/11/14 20:43:29","新北市蘆洲區長榮路341號","121.459513333333","25.0874483333333","6501400","蘆洲區"
"222001","KEA-2212","2019/11/14 20:43:22","新北市深坑區北深路三段210號","121.601245","25.0038666666667","6501800","深坑區"
"251015","KEA-2871","2019/11/14 20:43:23","新北市淡水區淡金路三段446號","121.450793333333","25.2144266666667","6501000","淡水區"
"251016","180-VK","2019/11/14 20:43:14","新北市淡水區後洲子11-4號","121.445946666667","25.225435","6501000","淡水區"
"251013","182-VK","2019/11/14 20:43:19","新北市淡水區下圭柔山28巷21號","121.458006666667","25.2038666666667","6501000","淡水區"
"251010","413-VK","2019/11/14 20:43:31","新北市淡水區沙崙路133號","121.422886666667","25.1826216666667","6501000","淡水區"
"251012","441-VK","2019/11/14 20:43:15","新北市淡水區興仁路103巷37號","121.450336666667","25.2165133333333","6501000","淡水區"
"251007","442-VK","2019/11/14 20:43:29","新北市淡水區學府路102巷62號","121.453455","25.1711733333333","6501000","淡水區"
"251001","559-UM","2019/11/14 20:43:25","新北市淡水區忠愛街3-2號","121.458941666667","25.1724216666667","6501000","淡水區"
"251006","561-UM","2019/11/14 20:43:15","新北市淡水區商工路198巷7號","121.451355","25.1870566666667","6501000","淡水區"
"251014","577-R6","2019/11/14 20:43:20","新北市淡水區公埔子32-8號","121.461623333333","25.2323533333333","6501000","淡水區"
"251002","672-BX","2019/11/14 20:43:26","新北市淡水區中正路32號","121.443803333333","25.1692","6501000","淡水區"
"251003","673-BX","2019/11/14 20:43:13","新北市淡水區新民街152巷6弄22號","121.438765","25.1785416666667","6501000","淡水區"
"242042","AAC-296","2019/11/14 20:43:29","新北市新莊區天祥街47巷23號","121.41627","25.0280766666667","6500500","新莊區"
"242061","986-R7","2019/11/14 20:43:26","新北市新莊區新樹路258巷1-1號","121.4322","25.0155","6500500","新莊區"
"242004","751-BX","2019/11/14 20:43:24","新北市新莊區化成路371巷13號","121.464105","25.0571816666667","6500500","新莊區"
"242023","705-TV","2019/11/14 20:43:26","新北市新莊區化成路414號","121.465976666667","25.050875","6500500","新莊區"
"242029","615-BX","2019/11/14 20:43:24","新北市新莊區昌隆街10號","121.453125","25.0508916666667","6500500","新莊區"
"242027","613-BX","2019/11/14 20:43:24","新北市新莊區思源路271號","121.459791666667","25.0478316666667","6500500","新莊區"
"242058","612-BX","2019/11/14 20:43:15","新北市新莊區民安路138號","121.424158333333","25.0253566666667","6500500","新莊區"
"242048","566-BX","2019/11/14 20:43:28","新北市新莊區中正路626號","121.422153333333","25.0286983333333","6500500","新莊區"
"242053","497-BY","2019/11/14 20:43:18","新北市新莊區民安西路189巷10弄24號","121.42644","25.01502","6500500","新莊區"
"242051","442-UM","2019/11/14 20:43:30","新北市新莊區民安西路97號","121.427015","25.019035","6500500","新莊區"
"242002","441-UM","2019/11/14 20:43:23","新北市新莊區中港路五守新村16巷6號","121.454965","25.0389016666667","6500500","新莊區"
"242044","415-TV","2019/11/14 20:43:25","新北市新莊區龍安路90號","121.417593333333","25.020745","6500500","新莊區"
"242013","413-TV","2019/11/14 20:43:30","新北市新莊區中和街173號","121.44766","25.0504683333333","6500500","新莊區"
"242025","362-BY","2019/11/14 20:43:15","新北市三重區疏洪西路399號","121.469296666667","25.0637766666667","6500500","新莊區"
"242015","132-UY","2019/11/14 20:43:29","新北市新莊區復興路一段83號","121.448355","25.0426416666667","6500500","新莊區"
"242056","172-VK","2019/11/14 20:43:22","新北市新莊區瓊泰路94巷48號","121.444978333333","25.0294266666667","6500500","新莊區"
"242017","173-VK","2019/11/14 20:43:13","新北市新莊區中平路82巷25號","121.446316666667","25.04554","6500500","新莊區"
"242031","175-VK","2019/11/14 20:43:15","新北市新莊區中正路508巷5弄19號","121.435098333333","25.0337183333333","6500500","新莊區"
"242009","176-VK","2019/11/14 20:43:34","新北市新莊區福壽街99巷11弄5號","121.457493333333","25.0502716666667","6500500","新莊區"
"242021","KED-0687","2019/11/14 20:43:15","新北市新莊區中華路一段73號","121.452281666667","25.0401316666667","6500500","新莊區"
"242007","346-TH","2019/11/14 20:43:34","新北市新莊區思源路287巷1弄1號","121.459455","25.0482866666667","6500500","新莊區"
"242039","347-TH","2019/11/14 20:43:17","新北市新莊區瓊林北路13號","121.439538333333","25.02261","6500500","新莊區"
"242036","348-TH","2019/11/14 20:43:23","新北市新莊區建安街16巷1號","121.428546666667","25.0264166666667","6500500","新莊區"
"242034","350-TH","2019/11/14 20:43:19","新北市新莊區中正路371號","121.446401666667","25.0348533333333","6500500","新莊區"
"242019","351-TH","2019/11/14 20:43:22","新北市新莊區中港路23號","121.455083333333","25.0374033333333","6500500","新莊區"
"221008","489-VK","2019/11/14 20:43:30","新北市汐止區康寧街706號","121.63783","25.0724733333333","6501100","汐止區"
"221036","130-UY","2019/11/14 20:43:26","新北市汐止區新昌路28號","121.66223","25.0677566666667","6501100","汐止區"
"221015","131-UY","2019/11/14 20:43:20","新北市汐止區建成路26號","121.664448333333","25.072655","6501100","汐止區"
"221012","278-VK","2019/11/14 20:43:31","新北市汐止區保新街283號","121.692733333333","25.0683216666667","6501100","汐止區"
"221023","279-VK","2019/11/14 20:43:20","新北市汐止區湖東街31號","121.634608333333","25.0726066666667","6501100","汐止區"
"221032","280-BY","2019/11/14 20:43:22","新北市汐止區民權街二段28號","121.619465","25.0500533333333","6501100","汐止區"
"221027","281-BY","2019/11/14 20:43:20","新北市汐止區大同路二段447號","121.659573333333","25.0676133333333","6501100","汐止區"
"221029","298-VK","2019/11/14 20:43:32","新北市汐止區大同路一段433號","121.642898333333","25.0613083333333","6501100","汐止區"
"221021","299-VK","2019/11/14 20:43:20","新北市汐止區水源路一段284號","121.654195","25.05829","6501100","汐止區"
"221031","353-TW","2019/11/14 20:43:24","新北市汐止區中興路27巷22號","121.634078333333","25.0608233333333","6501100","汐止區"
"221035","622-UM","2019/11/14 20:43:24","新北市汐止區長江街101-5號","121.658715","25.0731716666667","6501100","汐止區"
"221025","623-UM","2019/11/14 20:43:17","新北市汐止區水源路二段236號","121.658725","25.0510383333333","6501100","汐止區"
"221033","647-BX","2019/11/14 20:43:25","新北市汐止區合順街18巷8弄5號","121.620361666667","25.041945","6501100","汐止區"
"221002","707-TV","2019/11/14 20:43:20","新北市汐止區福德二路134號","121.630963333333","25.0652483333333","6501100","汐止區"
"220083","286-VK","2019/11/14 20:43:34","新北市板橋區僑中二街116巷10號","121.445256666667","25.0065483333333","6500100","板橋區"
"242046","281-VK","2019/11/14 20:43:26","新北市新莊區裕民街57號","121.418763333333","25.0245166666667","6500500","新莊區"
"242011","280-VK","2019/11/14 20:43:31","新北市新莊區新北大道四段217號","121.443826666667","25.0570433333333","6500500","新莊區"
