"lineid","car","time","location","longitude","latitude","cityid","cityname"
"231060","106-UY","2019/11/14 21:13:15","新北市新店區安康路二段418號","121.496338333333","24.95515","6500600","新店區"
"231051","107-UY","2019/11/14 21:13:15","新北市新店區中正路700巷82號","121.535923333333","24.9932316666667","6500600","新店區"
"231065","110-UY","2019/11/14 21:13:05","新北市新店區安康路二段320巷15弄2號","121.503641666667","24.9595583333333","6500600","新店區"
"231068","187-VK","2019/11/14 21:13:28","新北市新店區安康路二段320巷6號","121.505301666667","24.9601283333333","6500600","新店區"
"231062","256-BX","2019/11/14 21:12:02","新北市新店區安康路三段45號","121.492725","24.9526966666667","6500600","新店區"
"231042","268-BY","2019/11/14 21:13:06","新北市新店區安德街60巷35號","121.510853333333","24.9637666666667","6500600","新店區"
"231064","278-BY","2019/11/14 21:13:24","新北市新店區安康路二段382號","121.500388333333","24.9572316666667","6500600","新店區"
"231050","AAD-862","2019/11/14 21:13:29","新北市新店區華興街15號","121.537903333333","24.969425","6500600","新店區"
"231063","616-UM","2019/11/14 21:13:19","新北市新店區玫瑰路57巷48號","121.497455","24.946375","6500600","新店區"
"231059","897-TW","2019/11/14 21:13:32","新北市新店區僑義路16號","121.500486666667","24.95046","6500600","新店區"
"231040","898-TW","2019/11/14 21:13:30","新北市新店區北新路一段131號","121.539453333333","24.9628866666667","6500600","新店區"
"241011","013-R5","2019/11/14 21:13:16","新北市三重區龍濱路114號","121.502005","25.0702233333333","6500200","三重區"
"241028","022-UY","2019/11/14 21:13:20","新北市三重區同安東街78號","121.498643333333","25.057385","6500200","三重區"
"241008","059-VK","2019/11/14 21:13:29","新北市三重區自強路一段64號","121.497271666667","25.0665866666667","6500200","三重區"
"241031","061-VK","2019/11/14 21:13:28","新北市三重區五谷王南街46巷37號","121.47575","25.0455333333333","6500200","三重區"
"241015","062-VK","2019/11/14 21:13:32","新北市三重區河邊北街23號","121.504443333333","25.06571","6500200","三重區"
"241017","063-VK","2019/11/14 21:12:54","新北市三重區國隆路27號","121.492781666667","25.0642466666667","6500200","三重區"
"241024","065-VK","2019/11/14 21:13:34","新北市三重區力行路二段2號","121.481916666667","25.0719066666667","6500200","三重區"
"241007","066-VK","2019/11/14 21:13:32","新北市三重區車路頭街135-1號","121.484255","25.0760133333333","6500200","三重區"
"241002","090-VK","2019/11/14 21:13:26","新北市三重區五華街19號","121.4949","25.0804066666667","6500200","三重區"
"241003","091-VK","2019/11/14 21:13:26","新北市三重區仁義街228巷1號","121.494815","25.0848633333333","6500200","三重區"
"241006","262-UM","2019/11/14 21:13:05","新北市三重區重陽路二段72號","121.487555","25.0641216666667","6500200","三重區"
"241014","316-R6","2019/11/14 21:13:22","新北市三重區長安街82-1號","121.501363333333","25.0677233333333","6500200","三重區"
"241016","266-UM","2019/11/14 21:13:23","新北市三重區大智街12號","121.49532","25.0644733333333","6500200","三重區"
"241009","267-UM","2019/11/14 21:13:25","新北市三重區忠孝路三段13號","121.481641666667","25.0673033333333","6500200","三重區"
"241018","268-UM","2019/11/14 21:13:21","新北市三重區忠孝路一段61號","121.491068333333","25.0719916666667","6500200","三重區"
"241032","269-UM","2019/11/14 21:13:22","新北市三重區中興北街134-1號","121.468968333333","25.0559416666667","6500200","三重區"
"241013","270-UM","2019/11/14 21:13:20","新北市三重區仁愛街83號","121.495868333333","25.0731783333333","6500200","三重區"
"241025","271-UM","2019/11/14 21:13:17","新北市三重區中正北路208巷8號","121.48228","25.0669766666667","6500200","三重區"
"241030","KED-0822","2019/11/14 21:13:18","新北市三重區五谷王北街20巷15弄1號","121.475085","25.0484566666667","6500200","三重區"
"241004","475-VK","2019/11/14 21:13:29","新北市三重區仁愛街420號","121.490408333333","25.081415","6500200","三重區"
"241026","480-VK","2019/11/14 21:13:22","新北市三重區同安街110號","121.494348333333","25.0563266666667","6500200","三重區"
"241023","545-UM","2019/11/14 21:13:19","新北市三重區中正北路176巷27號","121.482666666667","25.065945","6500200","三重區"
"241001","547-UM","2019/11/14 21:13:30","新北市三重區福隆路99號","121.492381666667","25.0783483333333","6500200","三重區"
"241033","557-UM","2019/11/14 21:13:20","新北市三重區光復路二段126巷6號","121.470803333333","25.0587816666667","6500200","三重區"
"241019","KEA-2593","2019/11/14 21:13:23","新北市三重區重陽路三段7-3號","121.489085","25.0665833333333","6500200","三重區"
"241012","743-BX","2019/11/14 21:13:27","新北市三重區龍濱路190號","121.501105","25.07331","6500200","三重區"
"241022","KED-0820","2019/11/14 21:13:26","新北市三重區中正北路64巷24號","121.48608","25.0636983333333","6500200","三重區"
"241005","KED-0670","2019/11/14 21:13:22","新北市三重區仁華街118巷6號","121.485793333333","25.0830533333333","6500200","三重區"
"241029","942-UM","2019/11/14 21:13:20","新北市三重區正義南路111號","121.498241666667","25.05852","6500200","三重區"
"235055","183-VK","2019/11/14 21:13:28","新北市中和區員山路36巷16-3號","121.48507","24.9913366666667","6500300","中和區"
"247010","KED-0682","2019/11/14 21:13:31","新北市蘆洲區鷺江街19號","121.478965","25.0824966666667","6501400","蘆洲區"
"247006","893-R6","2019/11/14 21:13:32","新北市蘆洲區長安街22巷6號","121.464431666667","25.07943","6501400","蘆洲區"
"247020","546-UM","2019/11/14 21:13:21","新北市蘆洲區民族路422巷15弄23號","121.473","25.0928866666667","6501400","蘆洲區"
"247016","500-BY","2019/11/14 21:13:28","新北市蘆洲區中正路185巷50號","121.46726","25.0848816666667","6501400","蘆洲區"
"247004","341-TH","2019/11/14 21:13:16","新北市蘆洲區永安南路二段322號","121.457028333333","25.0826683333333","6501400","蘆洲區"
"247024","057-VK","2019/11/14 21:13:21","新北市蘆洲區長興路50巷1號","121.463778333333","25.08377","6501400","蘆洲區"
"247014","056-VK","2019/11/14 21:13:33","新北市蘆洲區忠孝路92號","121.4714","25.0858633333333","6501400","蘆洲區"
"247018","053-VK","2019/11/14 21:13:13","新北市蘆洲區復興路111-6號","121.476495","25.0883716666667","6501400","蘆洲區"
"247022","007-UY","2019/11/14 21:13:33","新北市蘆洲區三民路202號","121.469128333333","25.08891","6501400","蘆洲區"
"247008","002-UY","2019/11/14 21:13:20","新北市蘆洲區民生街45號","121.475105","25.0788183333333","6501400","蘆洲區"
"247002","001-UY","2019/11/14 21:13:29","新北市蘆洲區永樂街38巷40號","121.45852","25.0901416666667","6501400","蘆洲區"
"251004","009-UM","2019/11/14 21:13:20","新北市淡水區民族路33號","121.462313333333","25.13584","6501000","淡水區"
"251005","010-UM","2019/11/14 21:13:33","新北市淡水區英專路42-4號","121.445958333333","25.1702983333333","6501000","淡水區"
"251015","KEA-2871","2019/11/14 21:13:23","新北市淡水區淡金路四段542巷59號","121.454756666667","25.22696","6501000","淡水區"
"251016","180-VK","2019/11/14 21:13:34","新北市淡水區前洲子28號","121.441058333333","25.219235","6501000","淡水區"
"251008","181-VK","2019/11/14 21:13:33","新北市淡水區北投子95號","121.465941666667","25.17729","6501000","淡水區"
"251013","182-VK","2019/11/14 21:13:19","新北市淡水區行忠路330號","121.460676666667","25.19989","6501000","淡水區"
"251010","413-VK","2019/11/14 21:13:31","新北市淡水區中正路一段63巷1弄1號","121.423636666667","25.1774933333333","6501000","淡水區"
"251012","441-VK","2019/11/14 21:13:15","新北市淡水區淡金路五段53號","121.454368333333","25.233545","6501000","淡水區"
"251001","559-UM","2019/11/14 21:13:25","新北市淡水區中山北路二段381巷121號","121.443305","25.1857716666667","6501000","淡水區"
"251009","575-R6","2019/11/14 21:13:19","新北市淡水區民權路187巷74弄9號","121.462076666667","25.13442","6501000","淡水區"
"251014","577-R6","2019/11/14 21:13:20","新北市淡水區六塊厝2-1號","121.450125","25.2404666666667","6501000","淡水區"
"251011","650-BX","2019/11/14 21:13:32","新北市淡水區新民街120巷45弄2號","121.43847","25.1797483333333","6501000","淡水區"
"251002","672-BX","2019/11/14 21:13:26","新北市淡水區學府路96號","121.44942","25.1711883333333","6501000","淡水區"
"251003","673-BX","2019/11/14 21:13:33","新北市淡水區新春街96號","121.439111666667","25.1823466666667","6501000","淡水區"
"242025","362-BY","2019/11/14 21:13:35","新北市林口區汕頭32號","121.366715","25.13494","6500500","新莊區"
