"lineid","car","time","location","longitude","latitude","cityid","cityname"
"241030","KED-0822","2019/11/14 22:13:18","新北市五股區中興路三段5號","121.448601666667","25.079635","6500200","三重區"
"247005","893-R6","2019/11/14 22:13:32","新北市五股區中興路三段2巷10號","121.449061666667","25.0811366666667","6501400","蘆洲區"
"247022","007-UY","2019/11/14 22:13:33","新北市五股區中興路三段163號","121.44912","25.0810166666667","6501400","蘆洲區"
"251004","009-UM","2019/11/14 22:13:20","新北市淡水區民族路33號","121.462286666667","25.1358583333333","6501000","淡水區"
"251008","181-VK","2019/11/14 22:13:33","新北市淡水區學府路104號","121.449855","25.1717966666667","6501000","淡水區"
"251010","413-VK","2019/11/14 22:13:31","新北市淡水區沙崙路200號","121.42471","25.1838833333333","6501000","淡水區"
"251007","442-VK","2019/11/14 22:13:32","新北市淡水區北新路180號","121.449456666667","25.1786916666667","6501000","淡水區"
"251006","561-UM","2019/11/14 22:13:30","新北市淡水區中山路157號","121.440656666667","25.1726983333333","6501000","淡水區"
"251011","650-BX","2019/11/14 22:13:32","新北市淡水區水碓街7號","121.443178333333","25.1770783333333","6501000","淡水區"
