"lineid","car","time","location","longitude","latitude","cityid","cityname"
"231007","189-VK","2019/11/12 09:59:23","新北市新店區小坑三路81號","121.513338333333","24.9089716666667","6500600","新店區"
"231009","192-VK","2019/11/12 09:59:36","新北市新店區廣興路101號","121.537488333333","24.9125233333333","6500600","新店區"
"227004","282-VK","2019/11/12 09:59:32","新北市雙溪區長源里盤山坑13-2號","121.773243333333","24.9959033333333","6502500","雙溪區"
"227006","030-BX","2019/11/12 09:59:29","新北市雙溪區泰平里烏山路13號","121.79472","24.950175","6502500","雙溪區"
"252004","249-BX","2019/11/12 09:59:32","新北市三芝區福德里土地公埔48-1號","121.516001666667","25.2251083333333","6502100","三芝區"
"252007","AAC-283","2019/11/12 09:59:33","新北市三芝區新庄里新庄子51-22號","121.507435","25.2780633333333","6502100","三芝區"
"237013","760-BX","2019/11/12 09:59:23","新北市三峽區安坑1-3號","121.434483333333","24.9243233333333","6500900","三峽區"
