"lineid","car","time","location","longitude","latitude","cityid","cityname"
"234044","148-BY","2019/11/12 13:29:23","新北市永和區秀朗路二段247號","121.526281666667","24.99957","6500400","永和區"
"234078","298-R6","2019/11/12 13:29:25","新北市永和區環河東路三段52巷8號","121.526266666667","25.0059683333333","6500400","永和區"
"234036","336-UY","2019/11/12 13:29:34","新北市永和區成功路一段146號","121.526711666667","25.0016066666667","6500400","永和區"
"234062","337-UY","2019/11/12 13:29:38","新北市永和區中正路368巷1弄75號","121.52046","25.000805","6500400","永和區"
"234084","338-UY","2019/11/12 13:29:29","新北市永和區林森路41巷1號","121.525106666667","25.00462","6500400","永和區"
"234068","552-UM","2019/11/12 13:29:34","新北市永和區警光街12號","121.51977","25.0095666666667","6500400","永和區"
"234015","745-BX","2019/11/12 13:29:23","新北市永和區環河西路一段1號","121.515248333333","25.0180566666667","6500400","永和區"
"234028","746-BX","2019/11/12 13:29:27","新北市永和區民權路7號","121.520038333333","24.9981433333333","6500400","永和區"
"234052","KEA-2590","2019/11/12 13:29:39","新北市永和區復興街11號","121.515945","25.012985","6500400","永和區"
"234005","KED-0605","2019/11/12 13:29:37","新北市永和區中山路一段170號","121.509343333333","25.0091533333333","6500400","永和區"
"234012","KEA-2591","2019/11/12 13:29:28","新北市永和區中山路一段184巷9弄17號","121.508366666667","25.0091516666667","6500400","永和區"
"234060","AAD-866","2019/11/12 13:29:25","新北市永和區中正路516號","121.517296666667","25.00476","6500400","永和區"
"234040","862-TW","2019/11/12 13:29:33","新北市永和區中和路519巷16號","121.510848333333","25.003315","6500400","永和區"
"234048","863-TW","2019/11/12 13:29:37","新北市永和區保福路二段127號","121.509858333333","25.0138216666667","6500400","永和區"
"234025","9371-KE","2019/11/12 13:29:33","新北市永和區保福路一段70號","121.512565","25.01","6500400","永和區"
"234010","9373-KE","2019/11/12 13:29:32","新北市永和區保福路二段16巷35號","121.511853333333","25.01127","6500400","永和區"
"248017","KED-0813","2019/11/12 13:29:35","新北市五股區御史路300號","121.41792","25.1079716666667","6501500","五股區"
"234022","9380-KE","2019/11/12 13:29:35","新北市永和區豫溪街193號","121.522705","25.0102683333333","6500400","永和區"
"234076","969-R7","2019/11/12 13:29:23","新北市永和區得和路104巷10號","121.517948333333","24.99968","6500400","永和區"
"234072","AAC-211","2019/11/12 13:29:20","新北市永和區光復街60巷4弄10號","121.51695","25.0179133333333","6500400","永和區"
"234066","AAC-212","2019/11/12 13:29:40","新北市永和區永貞路349號","121.509261666667","25.007445","6500400","永和區"
"234001","AAC-295","2019/11/12 13:29:26","新北市永和區永和路一段107號","121.51394","25.0079583333333","6500400","永和區"
"244002","248-BX","2019/11/12 13:29:32","新北市林口區頂福24號","121.35718","25.0929033333333","6501700","林口區"
"231003","001-UM","2019/11/12 13:29:32","新北市新店區中興路二段239號","121.547343333333","24.9756783333333","6500600","新店區"
"231030","002-UM","2019/11/12 13:29:24","新北市新店區安華路28-1號","121.519875","24.96077","6500600","新店區"
"231024","0291-UT","2019/11/12 13:29:34","新北市新店區北新路二段59巷5號","121.542283333333","24.9730433333333","6500600","新店區"
"231005","046-UY","2019/11/12 13:29:25","新北市新店區安一路一段1-1號","121.519916666667","24.96208","6500600","新店區"
"231029","106-UY","2019/11/12 13:29:23","新北市新店區安華路30巷12-1號","121.51853","24.9580666666667","6500600","新店區"
"231018","107-UY","2019/11/12 13:29:34","新北市新店區中央路208號","121.530156666667","24.97401","6500600","新店區"
"231013","108-UY","2019/11/12 13:29:27","新北市新店區中央路131號","121.530363333333","24.9738616666667","6500600","新店區"
"231036","110-UY","2019/11/12 13:29:20","新北市新店區安祥路156巷76號","121.474488333333","24.95338","6500600","新店區"
"231032","256-BX","2019/11/12 13:29:37","新北市新店區安豐路63號","121.497893333333","24.9523683333333","6500600","新店區"
"231023","260-TV","2019/11/12 13:29:24","新北市新店區安康路一段35-1號","121.532151666667","24.960505","6500600","新店區"
"231035","278-BY","2019/11/12 13:29:31","新北市新店區安康路一段355號","121.519908333333","24.9638583333333","6500600","新店區"
"231015","AAD-862","2019/11/12 13:29:20","新北市新店區北宜路一段127巷4號","121.541515","24.95288","6500600","新店區"
"231006","355-BY","2019/11/12 13:29:31","新北市新店區安華路28-1號","121.51923","24.9608666666667","6500600","新店區"
"231038","3712-VJ","2019/11/12 13:29:19","新北市新店區安華路30巷1號","121.519601666667","24.9596916666667","6500600","新店區"
"231027","3713-VJ","2019/11/12 13:29:28","新北市新店區環河路19巷20號","121.53755","24.96038","6500600","新店區"
"231025","4715-K9","2019/11/12 13:29:28","新北市新店區中央五街38號","121.528451666667","24.9749516666667","6500600","新店區"
"231020","513-UM","2019/11/12 13:29:28","新北市新店區北新路一段47號","121.53805","24.959505","6500600","新店區"
"231001","617-UM","2019/11/12 13:29:27","新北市新店區安康路一段206號","121.524071666667","24.963455","6500600","新店區"
"231002","619-UM","2019/11/12 13:29:20","新北市新店區安康路一段186號","121.524775","24.9632966666667","6500600","新店區"
"231034","641-BX","2019/11/12 13:29:26","新北市新店區安華路28-1號","121.519555","24.9606383333333","6500600","新店區"
"231012","KED-0819","2019/11/12 13:29:33","新北市新店區北新路一段150號","121.542543333333","24.9706783333333","6500600","新店區"
"231010","719-UM","2019/11/12 13:29:25","新北市新店區自由街19號","121.535161666667","24.97457","6500600","新店區"
"231026","720-UM","2019/11/12 13:29:21","新北市新店區安一路一段1-1號","121.519201666667","24.9610966666667","6500600","新店區"
"231028","897-TW","2019/11/12 13:29:27","新北市新店區安華路28-1號","121.519861666667","24.96088","6500600","新店區"
"231004","899-TW","2019/11/12 13:29:24","新北市新店區安華路28-1號","121.519576666667","24.9608283333333","6500600","新店區"
"231037","AKT-0513","2019/11/12 13:29:30","新北市新店區薏仁坑路47-1號","121.493651666667","24.9637766666667","6500600","新店區"
"235030","003-UY","2019/11/12 13:29:21","新北市中和區中山路二段120號","121.502661666667","25.003755","6500300","中和區"
"235028","005-UY","2019/11/12 13:29:25","新北市中和區連城路109巷79號","121.497438333333","24.997625","6500300","中和區"
"235027","006-UY","2019/11/12 13:29:26","新北市中和區連城路347巷2號","121.488033333333","24.9959433333333","6500300","中和區"
"235020","096-UM","2019/11/12 13:29:38","新北市中和區新民街106號","121.48078","25.00835","6500300","中和區"
"235003","097-UM","2019/11/12 13:29:29","新北市中和區大勇街25巷2號","121.517243333333","24.9933616666667","6500300","中和區"
"235029","098-UM","2019/11/12 13:29:19","新北市中和區中山路二段64巷16弄2號","121.503231666667","25.0058583333333","6500300","中和區"
"235022","151-BY","2019/11/12 13:29:22","新北市中和區圓通路369巷165號","121.49016","24.9821333333333","6500300","中和區"
"235019","183-VK","2019/11/12 13:29:34","新北市中和區莒光路120巷58號","121.471601666667","25.0008233333333","6500300","中和區"
"235002","185-VK","2019/11/12 13:29:23","新北市中和區立人街55號","121.520355","24.9942633333333","6500300","中和區"
"235031","255-BX","2019/11/12 13:29:22","新北市中和區新生街220巷15弄7號","121.482995","24.9980666666667","6500300","中和區"
"235036","301-VK","2019/11/12 13:29:36","新北市中和區連城路169號","121.495506666667","24.998285","6500300","中和區"
"235043","352-BY","2019/11/12 13:29:38","新北市中和區景平路261號","121.50849","24.99287","6500300","中和區"
"235006","KEA-2878","2019/11/12 13:29:24","新北市中和區自立路58巷25弄8號","121.523186666667","24.9910666666667","6500300","中和區"
"235014","4979-A6","2019/11/12 13:29:34","新北市中和區景新街362巷8號","121.511955","24.9902216666667","6500300","中和區"
"235033","4980-A6","2019/11/12 13:29:21","新北市中和區連城路89巷36號","121.497458333333","24.9987116666667","6500300","中和區"
"235034","558-UM","2019/11/12 13:29:34","新北市中和區南華路52號","121.504301666667","24.9968566666667","6500300","中和區"
"235009","565-BX","2019/11/12 13:29:29","新北市中和區南山路236巷23弄2號","121.505593333333","24.9884816666667","6500300","中和區"
"235024","KED-0823","2019/11/12 13:29:28","新北市中和區中山路三段33號","121.479","25.0058433333333","6500300","中和區"
"235054","640-BX","2019/11/12 13:29:31","新北市中和區民享街30巷3號","121.47374","25.0034566666667","6500300","中和區"
"235035","647-TV","2019/11/12 13:29:26","新北市中和區環中路138號","121.482086666667","25.0131016666667","6500300","中和區"
"235011","732-UM","2019/11/12 13:29:25","新北市中和區南山路282號","121.50789","24.98782","6500300","中和區"
"235010","733-UM","2019/11/12 13:29:37","新北市中和區捷運路3號","121.509671666667","24.989315","6500300","中和區"
"235021","801-TS","2019/11/12 13:29:40","新北市中和區民安街42巷36號","121.478976666667","25.0013283333333","6500300","中和區"
"235005","802-TS","2019/11/12 13:29:31","新北市中和區中和路324巷3弄4號","121.510086666667","25.0009083333333","6500300","中和區"
"235016","805-TS","2019/11/12 13:29:32","新北市中和區興南路二段116號","121.504786666667","24.98386","6500300","中和區"
"235012","896-TW","2019/11/12 13:29:34","新北市中和區中正路637巷60弄61號","121.485445","24.9924933333333","6500300","中和區"
"235017","900-TW","2019/11/12 13:29:32","新北市中和區連城路569巷9弄26號","121.47954","24.9935716666667","6500300","中和區"
"235026","911-UM","2019/11/12 13:29:33","新北市中和區中山路二段316號","121.495635","25.00247","6500300","中和區"
"235015","157-BY","2019/11/12 13:29:37","新北市中和區興南路二段114巷10弄38號","121.504106666667","24.9850116666667","6500300","中和區"
"235001","AAC-213","2019/11/12 13:29:37","新北市中和區景德街95-13號","121.514993333333","24.99118","6500300","中和區"
"235023","AAC-215","2019/11/12 13:29:30","新北市中和區員山路36巷16-3號","121.48514","24.991345","6500300","中和區"
"220013","072-UY","2019/11/12 13:29:21","新北市板橋區南雅南路二段1-1號","121.454871666667","25.0038166666667","6500100","板橋區"
"220017","AAD-861","2019/11/12 13:29:21","新北市板橋區華東街1-10號","121.448601666667","24.99498","6500100","板橋區"
"247013","056-VK","2019/11/12 13:29:32","新北市五股區中興路三段163號","121.449033333333","25.08095","6501400","蘆洲區"
"247021","007-UY","2019/11/12 13:29:29","新北市五股區中興路三段5號","121.448921666667","25.0795666666667","6501400","蘆洲區"
"235013","251-BX","2019/11/12 13:29:28","新北市中和區景安路80號","121.505683333333","24.99627","6500300","中和區"
"228004","212-TW","2019/11/12 13:29:33","新北市貢寮區龍崗里石壁坑街17號","121.910415","24.989625","6502600","貢寮區"
"228005","828-UM","2019/11/12 13:29:18","新北市貢寮區美豐里文秀坑8號","121.902553333333","25.05039","6502600","貢寮區"
"207002","749-BX","2019/11/12 13:29:29","新北市萬里區崁腳里崁腳路166號","121.645055","25.1557833333333","6502800","萬里區"
"207001","662-BX","2019/11/12 13:27:57","新北市萬里區龜吼里海景路1號","121.683625","25.191095","6502800","萬里區"
"252005","AAC-283","2019/11/12 13:29:29","新北市三芝區圓山里內柑宅25-2號","121.538818333333","25.22722","6502100","三芝區"
"247011","KED-0683","2019/11/12 13:29:38","新北市五股區中興路三段163號","121.44926","25.0806983333333","6501400","蘆洲區"
"221002","297-VK","2019/11/12 13:29:27","新北市汐止區中正路297號","121.656301666667","25.06785","6501100","汐止區"
"220028","200-UY","2019/11/12 13:29:31","新北市板橋區華東街1-10號","121.448288333333","24.99495","6500100","板橋區"
"220030","610-BX","2019/11/12 13:29:22","新北市板橋區華東街1-10號","121.44827","24.9949233333333","6500100","板橋區"
"220004","276-BY","2019/11/12 13:29:22","新北市板橋區華東街1-10號","121.448255","24.9949366666667","6500100","板橋區"
"220020","277-BY","2019/11/12 13:29:22","新北市板橋區華東街1-10號","121.44835","24.9950933333333","6500100","板橋區"
"220043","283-UM","2019/11/12 13:29:24","新北市板橋區民生路二段161巷1號","121.47006","25.0198416666667","6500100","板橋區"
"220107","286-VK","2019/11/12 13:29:30","新北市板橋區華東街1-10號","121.448368333333","24.9950783333333","6500100","板橋區"
"220032","296-UM","2019/11/12 13:29:29","新北市板橋區華東街1-9號","121.448161666667","24.9950016666667","6500100","板橋區"
"220023","303-R5","2019/11/12 13:29:21","新北市板橋區華東街1-10號","121.448248333333","24.9949866666667","6500100","板橋區"
"220104","560-BX","2019/11/12 13:29:39","新北市板橋區南雅西路二段145巷6號","121.45159","25.0118566666667","6500100","板橋區"
"220005","686-BX","2019/11/12 13:29:34","新北市板橋區華東街1-9號","121.44821","24.994875","6500100","板橋區"
"220025","687-BX","2019/11/12 13:29:32","新北市板橋區篤行路一段29號","121.431941666667","24.9946883333333","6500100","板橋區"
"220022","895-R6","2019/11/12 13:29:39","新北市板橋區南雅南路二段70號","121.45378","25.0018366666667","6500100","板橋區"
"220021","985-R7","2019/11/12 13:29:35","新北市板橋區四川路二段247號","121.450023333333","24.9931183333333","6500100","板橋區"
"220012","AAC-253","2019/11/12 13:29:39","新北市板橋區南雅南路二段116號","121.452483333333","25.0004683333333","6500100","板橋區"
"235032","KEA-2873","2019/11/12 13:29:17","新北市中和區圓通路273號","121.49564","24.9931016666667","6500300","中和區"
"235025","KEA-2875","2019/11/12 13:29:38","新北市中和區民享街114巷6號","121.474216666667","24.9993166666667","6500300","中和區"
